{"data": {"bikes": [{"fusion_lat": 0.0, "name": "5ba473045c5cb8827f6805f576df5491", "is_disabled": 0, "rental_uris": {"android": "https://dc.lft.to/lastmile_qr_scan", "ios": "https://dc.lft.to/lastmile_qr_scan"}, "fusion_lon": 0.0, "lat": 38.900374, "bike_id": "5ba473045c5cb8827f6805f576df5491", "type": "electric_scooter", "is_reserved": 0, "lon": -76.996368}, {"fusion_lat": 0.0, "name": "681481ab019846e4194eb2a674602029", "is_disabled": 0, "rental_uris": {"android": "https://dc.lft.to/lastmile_qr_scan", "ios": "https://dc.lft.to/lastmile_qr_scan"}, "fusion_lon": 0.0, "lat": 38.899948, "bike_id": "681481ab019846e4194eb2a674602029", "type": "electric_scooter", "is_reserved": 0, "lon": -77.0066395}, {"fusion_lat": 0.0, "name": "594aebd40075d87dc19ec8edcc9edb7f", "is_disabled": 0, "rental_uris": {"android": "https://dc.lft.to/lastmile_qr_scan", "ios": "https://dc.lft.to/lastmile_qr_scan"}, "fusion_lon": 0.0, "lat": 38.9017085, "bike_id": "594aebd40075d87dc19ec8edcc9edb7f", "type": "electric_scooter", "is_reserved": 0, "lon": -77.02590133333334}, {"fusion_lat": 0.0, "name": "8f2e22358293f80d4186414dc5048f0b", "is_disabled": 0, "rental_uris": {"android": "https://dc.lft.to/lastmile_qr_scan", "ios": "https://dc.lft.to/lastmile_qr_scan"}, "fusion_lon": 0.0, "lat": 38.90549816666667, "bike_id": "8f2e22358293f80d4186414dc5048f0b", "type": "electric_scooter", "is_reserved": 0, "lon": -77.0465865}, {"fusion_lat": 0.0, "name": "29eb20b6a09bc283556413e3977ff170", "is_disabled": 0, "rental_uris": {"android": "https://dc.lft.to/lastmile_qr_scan", "ios": "https://dc.lft.to/lastmile_qr_scan"}, "fusion_lon": 0.0, "lat": 38.93407466666667, "bike_id": "29eb20b6a09bc283556413e3977ff170", "type": "electric_scooter", "is_reserved": 0, "lon": -77.02197933333333}, {"fusion_lat": 0.0, "name": "face64b03a6dd97c86acba65e5179dbb", "is_disabled": 0, "rental_uris": {"android": "https://dc.lft.to/lastmile_qr_scan", "ios": "https://dc.lft.to/lastmile_qr_scan"}, "fusion_lon": 0.0, "lat": 38.9318345, "bike_id": "face64b03a6dd97c86acba65e5179dbb", "type": "electric_scooter", "is_reserved": 0, "lon": -77.03311666666667}, {"fusion_lat": 0.0, "name": "f1093d36b5a5757c3329fc3f0b7866ea", "is_disabled": 0, "rental_uris": {"android": "https://dc.lft.to/lastmile_qr_scan", "ios": "https://dc.lft.to/lastmile_qr_scan"}, "fusion_lon": 0.0, "lat": 38.9305955, "bike_id": "f1093d36b5a5757c3329fc3f0b7866ea", "type": "electric_scooter", "is_reserved": 0, "lon": -77.03954266666666}, {"fusion_lat": 0.0, "name": "4162e8616827a881475c2d000f24d640", "is_disabled": 0, "rental_uris": {"android": "https://dc.lft.to/lastmile_qr_scan", "ios": "https://dc.lft.to/lastmile_qr_scan"}, "fusion_lon": 0.0, "lat": 38.93330916666667, "bike_id": "4162e8616827a881475c2d000f24d640", "type": "electric_bike", "is_reserved": 0, "lon": -77.04209066666667}, {"fusion_lat": 0.0, "name": "af80a8b916c139989ed93061b1505d95", "is_disabled": 0, "rental_uris": {"android": "https://dc.lft.to/lastmile_qr_scan", "ios": "https://dc.lft.to/lastmile_qr_scan"}, "fusion_lon": 0.0, "lat": 38.89353416666667, "bike_id": "af80a8b916c139989ed93061b1505d95", "type": "electric_scooter", "is_reserved": 0, "lon": -76.98656466666667}, {"fusion_lat": 0.0, "name": "37226dbb70ea79bd23dad1371ef6b789", "is_disabled": 0, "rental_uris": {"android": "https://dc.lft.to/lastmile_qr_scan", "ios": "https://dc.lft.to/lastmile_qr_scan"}, "fusion_lon": 0.0, "lat": 38.90893633333334, "bike_id": "37226dbb70ea79bd23dad1371ef6b789", "type": "electric_scooter", "is_reserved": 0, "lon": -77.04406033333333}, {"fusion_lat": 0.0, "name": "d49b76df8b08ffa7315c0fb7fe641105", "is_disabled": 0, "rental_uris": {"android": "https://dc.lft.to/lastmile_qr_scan", "ios": "https://dc.lft.to/lastmile_qr_scan"}, "fusion_lon": 0.0, "lat": 38.91637083333333, "bike_id": "d49b76df8b08ffa7315c0fb7fe641105", "type": "electric_scooter", "is_reserved": 0, "lon": -77.05074516666667}, {"fusion_lat": 0.0, "name": "2e631192e450d1ce905b00b191cca35f", "is_disabled": 0, "rental_uris": {"android": "https://dc.lft.to/lastmile_qr_scan", "ios": "https://dc.lft.to/lastmile_qr_scan"}, "fusion_lon": 0.0, "lat": 38.898875, "bike_id": "2e631192e450d1ce905b00b191cca35f", "type": "electric_scooter", "is_reserved": 0, "lon": -77.001496}, {"fusion_lat": 0.0, "name": "133725c242698ad1e47a4d65c10ce0c6", "is_disabled": 0, "rental_uris": {"android": "https://dc.lft.to/lastmile_qr_scan", "ios": "https://dc.lft.to/lastmile_qr_scan"}, "fusion_lon": 0.0, "lat": 38.930143, "bike_id": "133725c242698ad1e47a4d65c10ce0c6", "type": "electric_scooter", "is_reserved": 0, "lon": -77.03255816666666}, {"fusion_lat": 0.0, "name": "2eb352e12aa363d48e32e7615ab6c827", "is_disabled": 0, "rental_uris": {"android": "https://dc.lft.to/lastmile_qr_scan", "ios": "https://dc.lft.to/lastmile_qr_scan"}, "fusion_lon": 0.0, "lat": 38.9155435, "bike_id": "2eb352e12aa363d48e32e7615ab6c827", "type": "electric_scooter", "is_reserved": 0, "lon": -77.0199435}, {"fusion_lat": 0.0, "name": "acd8d7a53ee5394cfc1cf5c4521a834c", "is_disabled": 0, "rental_uris": {"android": "https://dc.lft.to/lastmile_qr_scan", "ios": "https://dc.lft.to/lastmile_qr_scan"}, "fusion_lon": 0.0, "lat": 38.90439633333333, "bike_id": "acd8d7a53ee5394cfc1cf5c4521a834c", "type": "electric_scooter", "is_reserved": 0, "lon": -77.043625}, {"fusion_lat": 0.0, "name": "fb6f0fd2dc062dde70ef2358ffc512cf", "is_disabled": 0, "rental_uris": {"android": "https://dc.lft.to/lastmile_qr_scan", "ios": "https://dc.lft.to/lastmile_qr_scan"}, "fusion_lon": 0.0, "lat": 38.904881, "bike_id": "fb6f0fd2dc062dde70ef2358ffc512cf", "type": "electric_scooter", "is_reserved": 0, "lon": -76.949749}, {"fusion_lat": 0.0, "name": "60b9589c328cb9c0a8161d4f1a4c689a", "is_disabled": 0, "rental_uris": {"android": "https://dc.lft.to/lastmile_qr_scan", "ios": "https://dc.lft.to/lastmile_qr_scan"}, "fusion_lon": 0.0, "lat": 38.892223666666666, "bike_id": "60b9589c328cb9c0a8161d4f1a4c689a", "type": "electric_scooter", "is_reserved": 0, "lon": -77.0251385}, {"fusion_lat": 0.0, "name": "f1e611887e1e7dc02f939ab1c68055cc", "is_disabled": 0, "rental_uris": {"android": "https://dc.lft.to/lastmile_qr_scan", "ios": "https://dc.lft.to/lastmile_qr_scan"}, "fusion_lon": 0.0, "lat": 38.911186666666666, "bike_id": "f1e611887e1e7dc02f939ab1c68055cc", "type": "electric_scooter", "is_reserved": 0, "lon": -77.0076275}, {"fusion_lat": 0.0, "name": "7dd20d385619e66cf600cd34c9932955", "is_disabled": 0, "rental_uris": {"android": "https://dc.lft.to/lastmile_qr_scan", "ios": "https://dc.lft.to/lastmile_qr_scan"}, "fusion_lon": 0.0, "lat": 38.89878133333333, "bike_id": "7dd20d385619e66cf600cd34c9932955", "type": "electric_scooter", "is_reserved": 0, "lon": -76.93185583333333}, {"fusion_lat": 0.0, "name": "8a4a29c7b124ce32011ad59ea8f5ef4b", "is_disabled": 0, "rental_uris": {"android": "https://dc.lft.to/lastmile_qr_scan", "ios": "https://dc.lft.to/lastmile_qr_scan"}, "fusion_lon": 0.0, "lat": 38.926122, "bike_id": "8a4a29c7b124ce32011ad59ea8f5ef4b", "type": "electric_scooter", "is_reserved": 0, "lon": -77.03672916666666}, {"fusion_lat": 0.0, "name": "a04f779aa41978c3bcf6bbd734effff6", "is_disabled": 0, "rental_uris": {"android": "https://dc.lft.to/lastmile_qr_scan", "ios": "https://dc.lft.to/lastmile_qr_scan"}, "fusion_lon": 0.0, "lat": 38.90736116666667, "bike_id": "a04f779aa41978c3bcf6bbd734effff6", "type": "electric_scooter", "is_reserved": 0, "lon": -77.043461}, {"fusion_lat": 0.0, "name": "985c2aef72304908190eb74242ad71a5", "is_disabled": 0, "rental_uris": {"android": "https://dc.lft.to/lastmile_qr_scan", "ios": "https://dc.lft.to/lastmile_qr_scan"}, "fusion_lon": 0.0, "lat": 38.9201995, "bike_id": "985c2aef72304908190eb74242ad71a5", "type": "electric_scooter", "is_reserved": 0, "lon": -77.01317}, {"fusion_lat": 0.0, "name": "cae486d41f9c31396995460650257806", "is_disabled": 0, "rental_uris": {"android": "https://dc.lft.to/lastmile_qr_scan", "ios": "https://dc.lft.to/lastmile_qr_scan"}, "fusion_lon": 0.0, "lat": 38.9043405, "bike_id": "cae486d41f9c31396995460650257806", "type": "electric_scooter", "is_reserved": 0, "lon": -77.05813066666667}, {"fusion_lat": 0.0, "name": "9c631272ba8a088ccc9ba889744a724b", "is_disabled": 0, "rental_uris": {"android": "https://dc.lft.to/lastmile_qr_scan", "ios": "https://dc.lft.to/lastmile_qr_scan"}, "fusion_lon": 0.0, "lat": 38.92340016666667, "bike_id": "9c631272ba8a088ccc9ba889744a724b", "type": "electric_scooter", "is_reserved": 0, "lon": -77.01917433333334}, {"fusion_lat": 0.0, "name": "bf108cb83481e0bad9ee18e2091bffdf", "is_disabled": 0, "rental_uris": {"android": "https://dc.lft.to/lastmile_qr_scan", "ios": "https://dc.lft.to/lastmile_qr_scan"}, "fusion_lon": 0.0, "lat": 38.919639833333335, "bike_id": "bf108cb83481e0bad9ee18e2091bffdf", "type": "electric_scooter", "is_reserved": 0, "lon": -77.03212433333333}, {"fusion_lat": 0.0, "name": "b44253716294972aeddd3306cb79a6a0", "is_disabled": 0, "rental_uris": {"android": "https://dc.lft.to/lastmile_qr_scan", "ios": "https://dc.lft.to/lastmile_qr_scan"}, "fusion_lon": 0.0, "lat": 38.892459333333335, "bike_id": "b44253716294972aeddd3306cb79a6a0", "type": "electric_scooter", "is_reserved": 0, "lon": -77.03957466666667}, {"fusion_lat": 0.0, "name": "7cfe18904afb18ade37b46295f383897", "is_disabled": 0, "rental_uris": {"android": "https://dc.lft.to/lastmile_qr_scan", "ios": "https://dc.lft.to/lastmile_qr_scan"}, "fusion_lon": 0.0, "lat": 38.89225483333333, "bike_id": "7cfe18904afb18ade37b46295f383897", "type": "electric_scooter", "is_reserved": 0, "lon": -77.03177216666667}, {"fusion_lat": 0.0, "name": "af828e39ffb5115c563f7be0d9427112", "is_disabled": 0, "rental_uris": {"android": "https://dc.lft.to/lastmile_qr_scan", "ios": "https://dc.lft.to/lastmile_qr_scan"}, "fusion_lon": 0.0, "lat": 38.934044666666665, "bike_id": "af828e39ffb5115c563f7be0d9427112", "type": "electric_bike", "is_reserved": 0, "lon": -77.04308866666666}, {"fusion_lat": 0.0, "name": "bc0243eddbd43678773240a4e92d24d9", "is_disabled": 0, "rental_uris": {"android": "https://dc.lft.to/lastmile_qr_scan", "ios": "https://dc.lft.to/lastmile_qr_scan"}, "fusion_lon": 0.0, "lat": 38.887304666666665, "bike_id": "bc0243eddbd43678773240a4e92d24d9", "type": "electric_scooter", "is_reserved": 0, "lon": -77.02215433333333}, {"fusion_lat": 0.0, "name": "1be1ef3525ffa4279e39b3538d4210bd", "is_disabled": 0, "rental_uris": {"android": "https://dc.lft.to/lastmile_qr_scan", "ios": "https://dc.lft.to/lastmile_qr_scan"}, "fusion_lon": 0.0, "lat": 38.90248233333333, "bike_id": "1be1ef3525ffa4279e39b3538d4210bd", "type": "electric_scooter", "is_reserved": 0, "lon": -77.06326133333333}, {"fusion_lat": 0.0, "name": "b4fc3aaf70fe78cb4830a6afc6f60be1", "is_disabled": 0, "rental_uris": {"android": "https://dc.lft.to/lastmile_qr_scan", "ios": "https://dc.lft.to/lastmile_qr_scan"}, "fusion_lon": 0.0, "lat": 38.9666865, "bike_id": "b4fc3aaf70fe78cb4830a6afc6f60be1", "type": "electric_scooter", "is_reserved": 0, "lon": -77.02549133333333}, {"fusion_lat": 0.0, "name": "9e17c58ed1f282355c00841895dae3f1", "is_disabled": 0, "rental_uris": {"android": "https://dc.lft.to/lastmile_qr_scan", "ios": "https://dc.lft.to/lastmile_qr_scan"}, "fusion_lon": 0.0, "lat": 38.9054845, "bike_id": "9e17c58ed1f282355c00841895dae3f1", "type": "electric_scooter", "is_reserved": 0, "lon": -77.05020333333333}, {"fusion_lat": 0.0, "name": "b787b09bfcf106bc5b7e8493608b1cde", "is_disabled": 0, "rental_uris": {"android": "https://dc.lft.to/lastmile_qr_scan", "ios": "https://dc.lft.to/lastmile_qr_scan"}, "fusion_lon": 0.0, "lat": 38.915604333333334, "bike_id": "b787b09bfcf106bc5b7e8493608b1cde", "type": "electric_scooter", "is_reserved": 0, "lon": -77.031137}, {"fusion_lat": 0.0, "name": "bcf7cfc5f0f0da0027a8f1bf7eb94337", "is_disabled": 0, "rental_uris": {"android": "https://dc.lft.to/lastmile_qr_scan", "ios": "https://dc.lft.to/lastmile_qr_scan"}, "fusion_lon": 0.0, "lat": 38.892225, "bike_id": "bcf7cfc5f0f0da0027a8f1bf7eb94337", "type": "electric_scooter", "is_reserved": 0, "lon": -77.02213083333334}, {"fusion_lat": 0.0, "name": "9c2c92772eb9f4d780565aceaa0eb55f", "is_disabled": 0, "rental_uris": {"android": "https://dc.lft.to/lastmile_qr_scan", "ios": "https://dc.lft.to/lastmile_qr_scan"}, "fusion_lon": 0.0, "lat": 38.89729416666667, "bike_id": "9c2c92772eb9f4d780565aceaa0eb55f", "type": "electric_scooter", "is_reserved": 0, "lon": -77.0084685}, {"fusion_lat": 0.0, "name": "228ac6e0b4558d79d3dbfb1371c6fa6b", "is_disabled": 0, "rental_uris": {"android": "https://dc.lft.to/lastmile_qr_scan", "ios": "https://dc.lft.to/lastmile_qr_scan"}, "fusion_lon": 0.0, "lat": 38.909505, "bike_id": "228ac6e0b4558d79d3dbfb1371c6fa6b", "type": "electric_scooter", "is_reserved": 0, "lon": -77.0344875}, {"fusion_lat": 0.0, "name": "f63284091c05997e2888b7abb5bbe434", "is_disabled": 0, "rental_uris": {"android": "https://dc.lft.to/lastmile_qr_scan", "ios": "https://dc.lft.to/lastmile_qr_scan"}, "fusion_lon": 0.0, "lat": 38.916789, "bike_id": "f63284091c05997e2888b7abb5bbe434", "type": "electric_scooter", "is_reserved": 0, "lon": -77.041402}, {"fusion_lat": 0.0, "name": "b754ebe0207ca526096a8a032f3e3620", "is_disabled": 0, "rental_uris": {"android": "https://dc.lft.to/lastmile_qr_scan", "ios": "https://dc.lft.to/lastmile_qr_scan"}, "fusion_lon": 0.0, "lat": 38.887147, "bike_id": "b754ebe0207ca526096a8a032f3e3620", "type": "electric_scooter", "is_reserved": 0, "lon": -76.9964715}, {"fusion_lat": 0.0, "name": "60ea3ea41cce657481f1252119ac7a2c", "is_disabled": 0, "rental_uris": {"android": "https://dc.lft.to/lastmile_qr_scan", "ios": "https://dc.lft.to/lastmile_qr_scan"}, "fusion_lon": 0.0, "lat": 38.92065616666667, "bike_id": "60ea3ea41cce657481f1252119ac7a2c", "type": "electric_scooter", "is_reserved": 0, "lon": -77.02226183333333}, {"fusion_lat": 0.0, "name": "8e869cbe7a9a29202c6a024ee609de0d", "is_disabled": 0, "rental_uris": {"android": "https://dc.lft.to/lastmile_qr_scan", "ios": "https://dc.lft.to/lastmile_qr_scan"}, "fusion_lon": 0.0, "lat": 38.918395833333335, "bike_id": "8e869cbe7a9a29202c6a024ee609de0d", "type": "electric_scooter", "is_reserved": 0, "lon": -76.96545783333333}, {"fusion_lat": 0.0, "name": "bff3da2b623822d8ea95682c3d5370f4", "is_disabled": 0, "rental_uris": {"android": "https://dc.lft.to/lastmile_qr_scan", "ios": "https://dc.lft.to/lastmile_qr_scan"}, "fusion_lon": 0.0, "lat": 38.905932666666665, "bike_id": "bff3da2b623822d8ea95682c3d5370f4", "type": "electric_scooter", "is_reserved": 0, "lon": -77.0513885}, {"fusion_lat": 0.0, "name": "5f411f007210ef310deb4187beea4b97", "is_disabled": 0, "rental_uris": {"android": "https://dc.lft.to/lastmile_qr_scan", "ios": "https://dc.lft.to/lastmile_qr_scan"}, "fusion_lon": 0.0, "lat": 38.87914166666667, "bike_id": "5f411f007210ef310deb4187beea4b97", "type": "electric_scooter", "is_reserved": 0, "lon": -77.0056455}, {"fusion_lat": 0.0, "name": "4efa69df3ec767f24cb40934c1305cb4", "is_disabled": 0, "rental_uris": {"android": "https://dc.lft.to/lastmile_qr_scan", "ios": "https://dc.lft.to/lastmile_qr_scan"}, "fusion_lon": 0.0, "lat": 38.908364166666665, "bike_id": "4efa69df3ec767f24cb40934c1305cb4", "type": "electric_scooter", "is_reserved": 0, "lon": -77.025914}, {"fusion_lat": 0.0, "name": "8b15aed470bffa6ebcc11c67ddab8b47", "is_disabled": 0, "rental_uris": {"android": "https://dc.lft.to/lastmile_qr_scan", "ios": "https://dc.lft.to/lastmile_qr_scan"}, "fusion_lon": 0.0, "lat": 38.92884133333333, "bike_id": "8b15aed470bffa6ebcc11c67ddab8b47", "type": "electric_scooter", "is_reserved": 0, "lon": -77.0374415}, {"fusion_lat": 0.0, "name": "802b7151b0571d70fbf72c3edd2530da", "is_disabled": 0, "rental_uris": {"android": "https://dc.lft.to/lastmile_qr_scan", "ios": "https://dc.lft.to/lastmile_qr_scan"}, "fusion_lon": 0.0, "lat": 38.8872895, "bike_id": "802b7151b0571d70fbf72c3edd2530da", "type": "electric_scooter", "is_reserved": 0, "lon": -77.00330316666667}, {"fusion_lat": 0.0, "name": "d78d808ea0f72921446d38ae8ac7ff8d", "is_disabled": 0, "rental_uris": {"android": "https://dc.lft.to/lastmile_qr_scan", "ios": "https://dc.lft.to/lastmile_qr_scan"}, "fusion_lon": 0.0, "lat": 38.94228483333333, "bike_id": "d78d808ea0f72921446d38ae8ac7ff8d", "type": "electric_scooter", "is_reserved": 0, "lon": -77.01386533333333}, {"fusion_lat": 0.0, "name": "f6bcb001ad21b631b94ed16299760c18", "is_disabled": 0, "rental_uris": {"android": "https://dc.lft.to/lastmile_qr_scan", "ios": "https://dc.lft.to/lastmile_qr_scan"}, "fusion_lon": 0.0, "lat": 38.89716933333333, "bike_id": "f6bcb001ad21b631b94ed16299760c18", "type": "electric_scooter", "is_reserved": 0, "lon": -77.02764583333334}, {"fusion_lat": 0.0, "name": "9f58872393bb03bd5e00ffcbda15c7d1", "is_disabled": 0, "rental_uris": {"android": "https://dc.lft.to/lastmile_qr_scan", "ios": "https://dc.lft.to/lastmile_qr_scan"}, "fusion_lon": 0.0, "lat": 38.9029655, "bike_id": "9f58872393bb03bd5e00ffcbda15c7d1", "type": "electric_scooter", "is_reserved": 0, "lon": -77.039469}, {"fusion_lat": 0.0, "name": "6d14f58401eb7d4c7f6e9c10d06370b9", "is_disabled": 0, "rental_uris": {"android": "https://dc.lft.to/lastmile_qr_scan", "ios": "https://dc.lft.to/lastmile_qr_scan"}, "fusion_lon": 0.0, "lat": 38.89968616666667, "bike_id": "6d14f58401eb7d4c7f6e9c10d06370b9", "type": "electric_scooter", "is_reserved": 0, "lon": -76.98717116666667}, {"fusion_lat": 0.0, "name": "718327f68283d212c7174f25711f8e4a", "is_disabled": 0, "rental_uris": {"android": "https://dc.lft.to/lastmile_qr_scan", "ios": "https://dc.lft.to/lastmile_qr_scan"}, "fusion_lon": 0.0, "lat": 38.91202716666667, "bike_id": "718327f68283d212c7174f25711f8e4a", "type": "electric_scooter", "is_reserved": 0, "lon": -77.00654}, {"fusion_lat": 0.0, "name": "055afa33a30593b0977ac587eb1da88d", "is_disabled": 0, "rental_uris": {"android": "https://dc.lft.to/lastmile_qr_scan", "ios": "https://dc.lft.to/lastmile_qr_scan"}, "fusion_lon": 0.0, "lat": 38.91586, "bike_id": "055afa33a30593b0977ac587eb1da88d", "type": "electric_scooter", "is_reserved": 0, "lon": -76.98389133333333}, {"fusion_lat": 0.0, "name": "a5addcd04b0b3c7a99db7fd44175b52f", "is_disabled": 0, "rental_uris": {"android": "https://dc.lft.to/lastmile_qr_scan", "ios": "https://dc.lft.to/lastmile_qr_scan"}, "fusion_lon": 0.0, "lat": 38.88831183333333, "bike_id": "a5addcd04b0b3c7a99db7fd44175b52f", "type": "electric_scooter", "is_reserved": 0, "lon": -77.01511616666667}, {"fusion_lat": 0.0, "name": "2c996cb55ac01664a704247581637fe8", "is_disabled": 0, "rental_uris": {"android": "https://dc.lft.to/lastmile_qr_scan", "ios": "https://dc.lft.to/lastmile_qr_scan"}, "fusion_lon": 0.0, "lat": 38.9207325, "bike_id": "2c996cb55ac01664a704247581637fe8", "type": "electric_bike", "is_reserved": 0, "lon": -76.98949833333333}, {"fusion_lat": 0.0, "name": "ec6f20b92b5f86f74f3fa33b289b9c3c", "is_disabled": 0, "rental_uris": {"android": "https://dc.lft.to/lastmile_qr_scan", "ios": "https://dc.lft.to/lastmile_qr_scan"}, "fusion_lon": 0.0, "lat": 38.920901666666666, "bike_id": "ec6f20b92b5f86f74f3fa33b289b9c3c", "type": "electric_scooter", "is_reserved": 0, "lon": -77.02512083333333}, {"fusion_lat": 0.0, "name": "f1f9ad234e52917fa565bf0715fe5625", "is_disabled": 0, "rental_uris": {"android": "https://dc.lft.to/lastmile_qr_scan", "ios": "https://dc.lft.to/lastmile_qr_scan"}, "fusion_lon": 0.0, "lat": 38.90580816666667, "bike_id": "f1f9ad234e52917fa565bf0715fe5625", "type": "electric_scooter", "is_reserved": 0, "lon": -77.00638816666667}, {"fusion_lat": 0.0, "name": "ea0f7127901fc75194c9865340c1ffd6", "is_disabled": 0, "rental_uris": {"android": "https://dc.lft.to/lastmile_qr_scan", "ios": "https://dc.lft.to/lastmile_qr_scan"}, "fusion_lon": 0.0, "lat": 38.887429833333336, "bike_id": "ea0f7127901fc75194c9865340c1ffd6", "type": "electric_scooter", "is_reserved": 0, "lon": -77.01789583333333}, {"fusion_lat": 0.0, "name": "67d0f1020d4655e50394753a9e91d19b", "is_disabled": 0, "rental_uris": {"android": "https://dc.lft.to/lastmile_qr_scan", "ios": "https://dc.lft.to/lastmile_qr_scan"}, "fusion_lon": 0.0, "lat": 38.88723533333334, "bike_id": "67d0f1020d4655e50394753a9e91d19b", "type": "electric_scooter", "is_reserved": 0, "lon": -76.98358033333334}, {"fusion_lat": 0.0, "name": "96f5f3ab95fac306178f832df3b381d5", "is_disabled": 0, "rental_uris": {"android": "https://dc.lft.to/lastmile_qr_scan", "ios": "https://dc.lft.to/lastmile_qr_scan"}, "fusion_lon": 0.0, "lat": 38.919935, "bike_id": "96f5f3ab95fac306178f832df3b381d5", "type": "electric_scooter", "is_reserved": 0, "lon": -77.03278733333333}, {"fusion_lat": 0.0, "name": "daea36dbe47559c6fd527532bcd6b83f", "is_disabled": 0, "rental_uris": {"android": "https://dc.lft.to/lastmile_qr_scan", "ios": "https://dc.lft.to/lastmile_qr_scan"}, "fusion_lon": 0.0, "lat": 38.915603833333336, "bike_id": "daea36dbe47559c6fd527532bcd6b83f", "type": "electric_scooter", "is_reserved": 0, "lon": -77.01068666666667}, {"fusion_lat": 0.0, "name": "359633ec645269e790a4f04d10ee9479", "is_disabled": 0, "rental_uris": {"android": "https://dc.lft.to/lastmile_qr_scan", "ios": "https://dc.lft.to/lastmile_qr_scan"}, "fusion_lon": 0.0, "lat": 38.90386183333333, "bike_id": "359633ec645269e790a4f04d10ee9479", "type": "electric_scooter", "is_reserved": 0, "lon": -77.016322}, {"fusion_lat": 0.0, "name": "19ca645ac3ef8bab2447d555296aebcb", "is_disabled": 0, "rental_uris": {"android": "https://dc.lft.to/lastmile_qr_scan", "ios": "https://dc.lft.to/lastmile_qr_scan"}, "fusion_lon": 0.0, "lat": 38.900415, "bike_id": "19ca645ac3ef8bab2447d555296aebcb", "type": "electric_scooter", "is_reserved": 0, "lon": -77.01193116666667}, {"fusion_lat": 0.0, "name": "2fc97d37680ea6c2257f586209f22be8", "is_disabled": 0, "rental_uris": {"android": "https://dc.lft.to/lastmile_qr_scan", "ios": "https://dc.lft.to/lastmile_qr_scan"}, "fusion_lon": 0.0, "lat": 38.884274833333336, "bike_id": "2fc97d37680ea6c2257f586209f22be8", "type": "electric_scooter", "is_reserved": 0, "lon": -76.99611966666667}, {"fusion_lat": 0.0, "name": "473b51db84218ca4bf1b8ea7c3bd2817", "is_disabled": 0, "rental_uris": {"android": "https://dc.lft.to/lastmile_qr_scan", "ios": "https://dc.lft.to/lastmile_qr_scan"}, "fusion_lon": 0.0, "lat": 38.91024066666667, "bike_id": "473b51db84218ca4bf1b8ea7c3bd2817", "type": "electric_scooter", "is_reserved": 0, "lon": -77.06921616666666}, {"fusion_lat": 0.0, "name": "495450337eebfcd9945dac7084ce5b09", "is_disabled": 0, "rental_uris": {"android": "https://dc.lft.to/lastmile_qr_scan", "ios": "https://dc.lft.to/lastmile_qr_scan"}, "fusion_lon": 0.0, "lat": 38.941047166666664, "bike_id": "495450337eebfcd9945dac7084ce5b09", "type": "electric_scooter", "is_reserved": 0, "lon": -77.00045216666666}, {"fusion_lat": 0.0, "name": "e40b5cf760b417f284bee3234a7afd78", "is_disabled": 0, "rental_uris": {"android": "https://dc.lft.to/lastmile_qr_scan", "ios": "https://dc.lft.to/lastmile_qr_scan"}, "fusion_lon": 0.0, "lat": 38.893801833333335, "bike_id": "e40b5cf760b417f284bee3234a7afd78", "type": "electric_scooter", "is_reserved": 0, "lon": -76.92304616666667}, {"fusion_lat": 0.0, "name": "34563f432b4fd2cdee25d124c4c3031a", "is_disabled": 0, "rental_uris": {"android": "https://dc.lft.to/lastmile_qr_scan", "ios": "https://dc.lft.to/lastmile_qr_scan"}, "fusion_lon": 0.0, "lat": 38.95506833333334, "bike_id": "34563f432b4fd2cdee25d124c4c3031a", "type": "electric_scooter", "is_reserved": 0, "lon": -77.02846083333333}, {"fusion_lat": 0.0, "name": "8ab25de470a4885ba621c855356d522d", "is_disabled": 0, "rental_uris": {"android": "https://dc.lft.to/lastmile_qr_scan", "ios": "https://dc.lft.to/lastmile_qr_scan"}, "fusion_lon": 0.0, "lat": 38.93751483333333, "bike_id": "8ab25de470a4885ba621c855356d522d", "type": "electric_bike", "is_reserved": 0, "lon": -76.9582505}, {"fusion_lat": 0.0, "name": "2bad3f22223e5874b05a302c9c54dab6", "is_disabled": 0, "rental_uris": {"android": "https://dc.lft.to/lastmile_qr_scan", "ios": "https://dc.lft.to/lastmile_qr_scan"}, "fusion_lon": 0.0, "lat": 38.948911, "bike_id": "2bad3f22223e5874b05a302c9c54dab6", "type": "electric_bike", "is_reserved": 0, "lon": -76.96373783333334}, {"fusion_lat": 0.0, "name": "1bb4b3a2ee3ebc053524eb9d4887e6a3", "is_disabled": 0, "rental_uris": {"android": "https://dc.lft.to/lastmile_qr_scan", "ios": "https://dc.lft.to/lastmile_qr_scan"}, "fusion_lon": 0.0, "lat": 38.907735333333335, "bike_id": "1bb4b3a2ee3ebc053524eb9d4887e6a3", "type": "electric_scooter", "is_reserved": 0, "lon": -76.99725533333333}, {"fusion_lat": 0.0, "name": "7dcd0ba7421ece37c1749250eb0af5db", "is_disabled": 0, "rental_uris": {"android": "https://dc.lft.to/lastmile_qr_scan", "ios": "https://dc.lft.to/lastmile_qr_scan"}, "fusion_lon": 0.0, "lat": 38.95265883333333, "bike_id": "7dcd0ba7421ece37c1749250eb0af5db", "type": "electric_bike", "is_reserved": 0, "lon": -76.99881716666667}, {"fusion_lat": 0.0, "name": "6adfc9fb84c637d5f49ec99329100d29", "is_disabled": 0, "rental_uris": {"android": "https://dc.lft.to/lastmile_qr_scan", "ios": "https://dc.lft.to/lastmile_qr_scan"}, "fusion_lon": 0.0, "lat": 38.925128666666666, "bike_id": "6adfc9fb84c637d5f49ec99329100d29", "type": "electric_scooter", "is_reserved": 0, "lon": -77.052421}, {"fusion_lat": 0.0, "name": "3d9fdbdff4485d62ee83d8852baedc88", "is_disabled": 0, "rental_uris": {"android": "https://dc.lft.to/lastmile_qr_scan", "ios": "https://dc.lft.to/lastmile_qr_scan"}, "fusion_lon": 0.0, "lat": 38.91553583333334, "bike_id": "3d9fdbdff4485d62ee83d8852baedc88", "type": "electric_scooter", "is_reserved": 0, "lon": -77.04391916666667}, {"fusion_lat": 0.0, "name": "e237f1d94613eb79ab497519a7b237e3", "is_disabled": 0, "rental_uris": {"android": "https://dc.lft.to/lastmile_qr_scan", "ios": "https://dc.lft.to/lastmile_qr_scan"}, "fusion_lon": 0.0, "lat": 38.90400666666667, "bike_id": "e237f1d94613eb79ab497519a7b237e3", "type": "electric_scooter", "is_reserved": 0, "lon": -77.00197616666667}, {"fusion_lat": 0.0, "name": "661328a0060be2eddfac06392cf87b9d", "is_disabled": 0, "rental_uris": {"android": "https://dc.lft.to/lastmile_qr_scan", "ios": "https://dc.lft.to/lastmile_qr_scan"}, "fusion_lon": 0.0, "lat": 38.90237, "bike_id": "661328a0060be2eddfac06392cf87b9d", "type": "electric_scooter", "is_reserved": 0, "lon": -77.02607083333334}, {"fusion_lat": 0.0, "name": "243ed34c282d321c41999db665e3002c", "is_disabled": 0, "rental_uris": {"android": "https://dc.lft.to/lastmile_qr_scan", "ios": "https://dc.lft.to/lastmile_qr_scan"}, "fusion_lon": 0.0, "lat": 38.909581333333335, "bike_id": "243ed34c282d321c41999db665e3002c", "type": "electric_scooter", "is_reserved": 0, "lon": -77.03249366666667}, {"fusion_lat": 0.0, "name": "6aa7e2cd86a00ddf7f2a9784d1b36781", "is_disabled": 0, "rental_uris": {"android": "https://dc.lft.to/lastmile_qr_scan", "ios": "https://dc.lft.to/lastmile_qr_scan"}, "fusion_lon": 0.0, "lat": 38.9658825, "bike_id": "6aa7e2cd86a00ddf7f2a9784d1b36781", "type": "electric_scooter", "is_reserved": 0, "lon": -77.01598433333334}, {"fusion_lat": 0.0, "name": "d15009cb50c8fecab6dd73412d95796a", "is_disabled": 0, "rental_uris": {"android": "https://dc.lft.to/lastmile_qr_scan", "ios": "https://dc.lft.to/lastmile_qr_scan"}, "fusion_lon": 0.0, "lat": 38.91287766666667, "bike_id": "d15009cb50c8fecab6dd73412d95796a", "type": "electric_scooter", "is_reserved": 0, "lon": -77.0452095}, {"fusion_lat": 0.0, "name": "6242e319f91923babfe1cbeb3e201786", "is_disabled": 0, "rental_uris": {"android": "https://dc.lft.to/lastmile_qr_scan", "ios": "https://dc.lft.to/lastmile_qr_scan"}, "fusion_lon": 0.0, "lat": 38.933782, "bike_id": "6242e319f91923babfe1cbeb3e201786", "type": "electric_scooter", "is_reserved": 0, "lon": -77.038966}, {"fusion_lat": 0.0, "name": "79366bd00a8b6be1e138ecbc91bb8e7b", "is_disabled": 0, "rental_uris": {"android": "https://dc.lft.to/lastmile_qr_scan", "ios": "https://dc.lft.to/lastmile_qr_scan"}, "fusion_lon": 0.0, "lat": 38.926232666666664, "bike_id": "79366bd00a8b6be1e138ecbc91bb8e7b", "type": "electric_scooter", "is_reserved": 0, "lon": -77.03502516666667}, {"fusion_lat": 0.0, "name": "d72fc0283463dee7d515acae8026a503", "is_disabled": 0, "rental_uris": {"android": "https://dc.lft.to/lastmile_qr_scan", "ios": "https://dc.lft.to/lastmile_qr_scan"}, "fusion_lon": 0.0, "lat": 38.898075, "bike_id": "d72fc0283463dee7d515acae8026a503", "type": "electric_scooter", "is_reserved": 0, "lon": -77.02501083333334}, {"fusion_lat": 0.0, "name": "da08a14a3e2228eb5a59b7924e7a6d04", "is_disabled": 0, "rental_uris": {"android": "https://dc.lft.to/lastmile_qr_scan", "ios": "https://dc.lft.to/lastmile_qr_scan"}, "fusion_lon": 0.0, "lat": 38.884465166666665, "bike_id": "da08a14a3e2228eb5a59b7924e7a6d04", "type": "electric_scooter", "is_reserved": 0, "lon": -77.03369333333333}, {"fusion_lat": 0.0, "name": "cbbbc992e9b1d9225544907f0cfc1cd2", "is_disabled": 0, "rental_uris": {"android": "https://dc.lft.to/lastmile_qr_scan", "ios": "https://dc.lft.to/lastmile_qr_scan"}, "fusion_lon": 0.0, "lat": 38.897150833333335, "bike_id": "cbbbc992e9b1d9225544907f0cfc1cd2", "type": "electric_scooter", "is_reserved": 0, "lon": -77.027692}, {"fusion_lat": 0.0, "name": "e6ceb5d53b5bd945e2f9a26337e46aa3", "is_disabled": 0, "rental_uris": {"android": "https://dc.lft.to/lastmile_qr_scan", "ios": "https://dc.lft.to/lastmile_qr_scan"}, "fusion_lon": 0.0, "lat": 38.924480333333335, "bike_id": "e6ceb5d53b5bd945e2f9a26337e46aa3", "type": "electric_scooter", "is_reserved": 0, "lon": -76.9991225}, {"fusion_lat": 0.0, "name": "1a288806ac03c783ddf38c3142cd0b18", "is_disabled": 0, "rental_uris": {"android": "https://dc.lft.to/lastmile_qr_scan", "ios": "https://dc.lft.to/lastmile_qr_scan"}, "fusion_lon": 0.0, "lat": 38.9139915, "bike_id": "1a288806ac03c783ddf38c3142cd0b18", "type": "electric_scooter", "is_reserved": 0, "lon": -77.040007}, {"fusion_lat": 0.0, "name": "ef5d18a0f9602633058cd249864a1336", "is_disabled": 0, "rental_uris": {"android": "https://dc.lft.to/lastmile_qr_scan", "ios": "https://dc.lft.to/lastmile_qr_scan"}, "fusion_lon": 0.0, "lat": 38.90545783333334, "bike_id": "ef5d18a0f9602633058cd249864a1336", "type": "electric_scooter", "is_reserved": 0, "lon": -77.00808416666666}, {"fusion_lat": 0.0, "name": "ce74c570fc1a39c92848c24465f002b9", "is_disabled": 0, "rental_uris": {"android": "https://dc.lft.to/lastmile_qr_scan", "ios": "https://dc.lft.to/lastmile_qr_scan"}, "fusion_lon": 0.0, "lat": 38.92235383333333, "bike_id": "ce74c570fc1a39c92848c24465f002b9", "type": "electric_scooter", "is_reserved": 0, "lon": -77.0425255}, {"fusion_lat": 0.0, "name": "f5ded5bae8943326d49813739cb7d698", "is_disabled": 0, "rental_uris": {"android": "https://dc.lft.to/lastmile_qr_scan", "ios": "https://dc.lft.to/lastmile_qr_scan"}, "fusion_lon": 0.0, "lat": 38.923609, "bike_id": "f5ded5bae8943326d49813739cb7d698", "type": "electric_scooter", "is_reserved": 0, "lon": -77.0503845}, {"fusion_lat": 0.0, "name": "6e2d39c1298bbf6c10aa5d89eec62486", "is_disabled": 0, "rental_uris": {"android": "https://dc.lft.to/lastmile_qr_scan", "ios": "https://dc.lft.to/lastmile_qr_scan"}, "fusion_lon": 0.0, "lat": 38.904826166666666, "bike_id": "6e2d39c1298bbf6c10aa5d89eec62486", "type": "electric_scooter", "is_reserved": 0, "lon": -77.04859533333334}, {"fusion_lat": 0.0, "name": "bff3727d188f7eaf84789317e44ab563", "is_disabled": 0, "rental_uris": {"android": "https://dc.lft.to/lastmile_qr_scan", "ios": "https://dc.lft.to/lastmile_qr_scan"}, "fusion_lon": 0.0, "lat": 38.92743933333333, "bike_id": "bff3727d188f7eaf84789317e44ab563", "type": "electric_scooter", "is_reserved": 0, "lon": -77.03241783333333}, {"fusion_lat": 0.0, "name": "18069f6384db1cf7dd00d72816f563b9", "is_disabled": 0, "rental_uris": {"android": "https://dc.lft.to/lastmile_qr_scan", "ios": "https://dc.lft.to/lastmile_qr_scan"}, "fusion_lon": 0.0, "lat": 38.90763716666667, "bike_id": "18069f6384db1cf7dd00d72816f563b9", "type": "electric_scooter", "is_reserved": 0, "lon": -77.03568666666666}, {"fusion_lat": 0.0, "name": "d223473b9bae0e29f55a2bf2b9e9aa34", "is_disabled": 0, "rental_uris": {"android": "https://dc.lft.to/lastmile_qr_scan", "ios": "https://dc.lft.to/lastmile_qr_scan"}, "fusion_lon": 0.0, "lat": 38.892256833333334, "bike_id": "d223473b9bae0e29f55a2bf2b9e9aa34", "type": "electric_scooter", "is_reserved": 0, "lon": -77.043242}, {"fusion_lat": 0.0, "name": "be378c0a6e9dd0817aa93343525751a6", "is_disabled": 0, "rental_uris": {"android": "https://dc.lft.to/lastmile_qr_scan", "ios": "https://dc.lft.to/lastmile_qr_scan"}, "fusion_lon": 0.0, "lat": 38.9050595, "bike_id": "be378c0a6e9dd0817aa93343525751a6", "type": "electric_scooter", "is_reserved": 0, "lon": -77.06155}, {"fusion_lat": 0.0, "name": "0698e6f8b144ce0866062776f5da3c16", "is_disabled": 0, "rental_uris": {"android": "https://dc.lft.to/lastmile_qr_scan", "ios": "https://dc.lft.to/lastmile_qr_scan"}, "fusion_lon": 0.0, "lat": 38.90645133333334, "bike_id": "0698e6f8b144ce0866062776f5da3c16", "type": "electric_scooter", "is_reserved": 0, "lon": -77.043474}, {"fusion_lat": 0.0, "name": "4dd8b44b6af0152906bb651e20501c6f", "is_disabled": 0, "rental_uris": {"android": "https://dc.lft.to/lastmile_qr_scan", "ios": "https://dc.lft.to/lastmile_qr_scan"}, "fusion_lon": 0.0, "lat": 38.89225583333333, "bike_id": "4dd8b44b6af0152906bb651e20501c6f", "type": "electric_scooter", "is_reserved": 0, "lon": -77.04868016666667}, {"fusion_lat": 0.0, "name": "51c485ec64824055b4fc6397f8f41466", "is_disabled": 0, "rental_uris": {"android": "https://dc.lft.to/lastmile_qr_scan", "ios": "https://dc.lft.to/lastmile_qr_scan"}, "fusion_lon": 0.0, "lat": 38.994957666666664, "bike_id": "51c485ec64824055b4fc6397f8f41466", "type": "electric_bike", "is_reserved": 0, "lon": -77.02902216666666}, {"fusion_lat": 0.0, "name": "9972ee13e2221339ecb496cdfb7e6f7e", "is_disabled": 0, "rental_uris": {"android": "https://dc.lft.to/lastmile_qr_scan", "ios": "https://dc.lft.to/lastmile_qr_scan"}, "fusion_lon": 0.0, "lat": 38.910971333333336, "bike_id": "9972ee13e2221339ecb496cdfb7e6f7e", "type": "electric_scooter", "is_reserved": 0, "lon": -77.0373445}, {"fusion_lat": 0.0, "name": "91919e165d98de181cdcb3c16bf27004", "is_disabled": 0, "rental_uris": {"android": "https://dc.lft.to/lastmile_qr_scan", "ios": "https://dc.lft.to/lastmile_qr_scan"}, "fusion_lon": 0.0, "lat": 38.92980633333333, "bike_id": "91919e165d98de181cdcb3c16bf27004", "type": "electric_scooter", "is_reserved": 0, "lon": -77.05506666666666}, {"fusion_lat": 0.0, "name": "6017c254460873b3e35619f988c88f89", "is_disabled": 0, "rental_uris": {"android": "https://dc.lft.to/lastmile_qr_scan", "ios": "https://dc.lft.to/lastmile_qr_scan"}, "fusion_lon": 0.0, "lat": 38.89747933333334, "bike_id": "6017c254460873b3e35619f988c88f89", "type": "electric_scooter", "is_reserved": 0, "lon": -77.003697}, {"fusion_lat": 0.0, "name": "9ed962e5c124b02c83fc9542c5c03b5a", "is_disabled": 0, "rental_uris": {"android": "https://dc.lft.to/lastmile_qr_scan", "ios": "https://dc.lft.to/lastmile_qr_scan"}, "fusion_lon": 0.0, "lat": 38.903570333333334, "bike_id": "9ed962e5c124b02c83fc9542c5c03b5a", "type": "electric_scooter", "is_reserved": 0, "lon": -77.0174115}, {"fusion_lat": 0.0, "name": "07a602391a8239220e654e266c1a3399", "is_disabled": 0, "rental_uris": {"android": "https://dc.lft.to/lastmile_qr_scan", "ios": "https://dc.lft.to/lastmile_qr_scan"}, "fusion_lon": 0.0, "lat": 38.897575, "bike_id": "07a602391a8239220e654e266c1a3399", "type": "electric_scooter", "is_reserved": 0, "lon": -77.0270285}, {"fusion_lat": 0.0, "name": "0a40b487c5763423eb236645ba2d35b5", "is_disabled": 0, "rental_uris": {"android": "https://dc.lft.to/lastmile_qr_scan", "ios": "https://dc.lft.to/lastmile_qr_scan"}, "fusion_lon": 0.0, "lat": 38.92862366666667, "bike_id": "0a40b487c5763423eb236645ba2d35b5", "type": "electric_scooter", "is_reserved": 0, "lon": -77.033517}, {"fusion_lat": 0.0, "name": "b050b2f4b566f069b3ba982d182b44fd", "is_disabled": 0, "rental_uris": {"android": "https://dc.lft.to/lastmile_qr_scan", "ios": "https://dc.lft.to/lastmile_qr_scan"}, "fusion_lon": 0.0, "lat": 38.9357825, "bike_id": "b050b2f4b566f069b3ba982d182b44fd", "type": "electric_scooter", "is_reserved": 0, "lon": -77.01929733333333}, {"fusion_lat": 0.0, "name": "ca8e4cb3d2e591875935bc4c41b1651f", "is_disabled": 0, "rental_uris": {"android": "https://dc.lft.to/lastmile_qr_scan", "ios": "https://dc.lft.to/lastmile_qr_scan"}, "fusion_lon": 0.0, "lat": 38.91609733333333, "bike_id": "ca8e4cb3d2e591875935bc4c41b1651f", "type": "electric_scooter", "is_reserved": 0, "lon": -77.04584933333334}, {"fusion_lat": 0.0, "name": "ade8ddee30f34d4071865f50efa1982e", "is_disabled": 0, "rental_uris": {"android": "https://dc.lft.to/lastmile_qr_scan", "ios": "https://dc.lft.to/lastmile_qr_scan"}, "fusion_lon": 0.0, "lat": 38.91575783333333, "bike_id": "ade8ddee30f34d4071865f50efa1982e", "type": "electric_scooter", "is_reserved": 0, "lon": -77.0321015}, {"fusion_lat": 0.0, "name": "dfdee71df62b501ea12afb436917c834", "is_disabled": 0, "rental_uris": {"android": "https://dc.lft.to/lastmile_qr_scan", "ios": "https://dc.lft.to/lastmile_qr_scan"}, "fusion_lon": 0.0, "lat": 38.93502433333333, "bike_id": "dfdee71df62b501ea12afb436917c834", "type": "electric_scooter", "is_reserved": 0, "lon": -77.03634933333333}, {"fusion_lat": 0.0, "name": "c7c45528dc9e5c2ed44ae5c67d5851c0", "is_disabled": 0, "rental_uris": {"android": "https://dc.lft.to/lastmile_qr_scan", "ios": "https://dc.lft.to/lastmile_qr_scan"}, "fusion_lon": 0.0, "lat": 38.892175333333334, "bike_id": "c7c45528dc9e5c2ed44ae5c67d5851c0", "type": "electric_scooter", "is_reserved": 0, "lon": -77.02654066666666}, {"fusion_lat": 0.0, "name": "ecb41db0a338530771a1026612ab8772", "is_disabled": 0, "rental_uris": {"android": "https://dc.lft.to/lastmile_qr_scan", "ios": "https://dc.lft.to/lastmile_qr_scan"}, "fusion_lon": 0.0, "lat": 38.905683333333336, "bike_id": "ecb41db0a338530771a1026612ab8772", "type": "electric_scooter", "is_reserved": 0, "lon": -77.03083033333333}, {"fusion_lat": 0.0, "name": "2eb5d6e2492b566e3bb5a871fa11e9bd", "is_disabled": 0, "rental_uris": {"android": "https://dc.lft.to/lastmile_qr_scan", "ios": "https://dc.lft.to/lastmile_qr_scan"}, "fusion_lon": 0.0, "lat": 38.93009716666667, "bike_id": "2eb5d6e2492b566e3bb5a871fa11e9bd", "type": "electric_scooter", "is_reserved": 0, "lon": -77.05523566666666}, {"fusion_lat": 0.0, "name": "4dcb28b19f0ef54d2434a3954b971d48", "is_disabled": 0, "rental_uris": {"android": "https://dc.lft.to/lastmile_qr_scan", "ios": "https://dc.lft.to/lastmile_qr_scan"}, "fusion_lon": 0.0, "lat": 38.90120733333333, "bike_id": "4dcb28b19f0ef54d2434a3954b971d48", "type": "electric_scooter", "is_reserved": 0, "lon": -77.00210716666666}, {"fusion_lat": 0.0, "name": "ac362d07e44bf9d82ef42a5ebd4e3b6a", "is_disabled": 0, "rental_uris": {"android": "https://dc.lft.to/lastmile_qr_scan", "ios": "https://dc.lft.to/lastmile_qr_scan"}, "fusion_lon": 0.0, "lat": 38.911348333333336, "bike_id": "ac362d07e44bf9d82ef42a5ebd4e3b6a", "type": "electric_scooter", "is_reserved": 0, "lon": -77.03175333333333}, {"fusion_lat": 0.0, "name": "bba77db8bc474e74e6dc355df9007e08", "is_disabled": 0, "rental_uris": {"android": "https://dc.lft.to/lastmile_qr_scan", "ios": "https://dc.lft.to/lastmile_qr_scan"}, "fusion_lon": 0.0, "lat": 38.910022833333336, "bike_id": "bba77db8bc474e74e6dc355df9007e08", "type": "electric_scooter", "is_reserved": 0, "lon": -77.04659583333333}, {"fusion_lat": 0.0, "name": "e57b6cf06d1ad147eca39922e02a10cb", "is_disabled": 0, "rental_uris": {"android": "https://dc.lft.to/lastmile_qr_scan", "ios": "https://dc.lft.to/lastmile_qr_scan"}, "fusion_lon": 0.0, "lat": 38.905517, "bike_id": "e57b6cf06d1ad147eca39922e02a10cb", "type": "electric_scooter", "is_reserved": 0, "lon": -77.046562}, {"fusion_lat": 0.0, "name": "68f8ff78124c01a3bed1a04daeb08baa", "is_disabled": 0, "rental_uris": {"android": "https://dc.lft.to/lastmile_qr_scan", "ios": "https://dc.lft.to/lastmile_qr_scan"}, "fusion_lon": 0.0, "lat": 38.90495516666667, "bike_id": "68f8ff78124c01a3bed1a04daeb08baa", "type": "electric_scooter", "is_reserved": 0, "lon": -77.04866}, {"fusion_lat": 0.0, "name": "8249b6cd7fd4a863abff5afd8a65ae8e", "is_disabled": 0, "rental_uris": {"android": "https://dc.lft.to/lastmile_qr_scan", "ios": "https://dc.lft.to/lastmile_qr_scan"}, "fusion_lon": 0.0, "lat": 38.93860083333333, "bike_id": "8249b6cd7fd4a863abff5afd8a65ae8e", "type": "electric_scooter", "is_reserved": 0, "lon": -77.03433583333333}, {"fusion_lat": 0.0, "name": "4d07845c0af29b5b003ac316339bf4f2", "is_disabled": 0, "rental_uris": {"android": "https://dc.lft.to/lastmile_qr_scan", "ios": "https://dc.lft.to/lastmile_qr_scan"}, "fusion_lon": 0.0, "lat": 38.9169215, "bike_id": "4d07845c0af29b5b003ac316339bf4f2", "type": "electric_scooter", "is_reserved": 0, "lon": -77.03389016666667}, {"fusion_lat": 0.0, "name": "42b58cb5363a75545d280fb5047ab692", "is_disabled": 0, "rental_uris": {"android": "https://dc.lft.to/lastmile_qr_scan", "ios": "https://dc.lft.to/lastmile_qr_scan"}, "fusion_lon": 0.0, "lat": 38.8990965, "bike_id": "42b58cb5363a75545d280fb5047ab692", "type": "electric_scooter", "is_reserved": 0, "lon": -76.93354583333333}, {"fusion_lat": 0.0, "name": "7789897501d010c70408695b83d725a6", "is_disabled": 0, "rental_uris": {"android": "https://dc.lft.to/lastmile_qr_scan", "ios": "https://dc.lft.to/lastmile_qr_scan"}, "fusion_lon": 0.0, "lat": 38.934125, "bike_id": "7789897501d010c70408695b83d725a6", "type": "electric_scooter", "is_reserved": 0, "lon": -77.04163616666666}, {"fusion_lat": 0.0, "name": "aa27ca9fccd3a57cfa2345531f5d3d8e", "is_disabled": 0, "rental_uris": {"android": "https://dc.lft.to/lastmile_qr_scan", "ios": "https://dc.lft.to/lastmile_qr_scan"}, "fusion_lon": 0.0, "lat": 38.93008733333333, "bike_id": "aa27ca9fccd3a57cfa2345531f5d3d8e", "type": "electric_scooter", "is_reserved": 0, "lon": -77.055279}, {"fusion_lat": 0.0, "name": "dab646b4dee83c94c7725fcc397f82b3", "is_disabled": 0, "rental_uris": {"android": "https://dc.lft.to/lastmile_qr_scan", "ios": "https://dc.lft.to/lastmile_qr_scan"}, "fusion_lon": 0.0, "lat": 38.89715916666667, "bike_id": "dab646b4dee83c94c7725fcc397f82b3", "type": "electric_scooter", "is_reserved": 0, "lon": -77.02756766666667}, {"fusion_lat": 0.0, "name": "8538edecaacecb24051b8ff906f3e45a", "is_disabled": 0, "rental_uris": {"android": "https://dc.lft.to/lastmile_qr_scan", "ios": "https://dc.lft.to/lastmile_qr_scan"}, "fusion_lon": 0.0, "lat": 38.8960645, "bike_id": "8538edecaacecb24051b8ff906f3e45a", "type": "electric_scooter", "is_reserved": 0, "lon": -77.0231865}, {"fusion_lat": 0.0, "name": "f5489265a1028fd999af3db879f1216a", "is_disabled": 0, "rental_uris": {"android": "https://dc.lft.to/lastmile_qr_scan", "ios": "https://dc.lft.to/lastmile_qr_scan"}, "fusion_lon": 0.0, "lat": 38.904333666666666, "bike_id": "f5489265a1028fd999af3db879f1216a", "type": "electric_scooter", "is_reserved": 0, "lon": -76.97950483333334}, {"fusion_lat": 0.0, "name": "293607b4cf23f3164dd6d50899ae9586", "is_disabled": 0, "rental_uris": {"android": "https://dc.lft.to/lastmile_qr_scan", "ios": "https://dc.lft.to/lastmile_qr_scan"}, "fusion_lon": 0.0, "lat": 38.914294166666664, "bike_id": "293607b4cf23f3164dd6d50899ae9586", "type": "electric_scooter", "is_reserved": 0, "lon": -77.032089}, {"fusion_lat": 0.0, "name": "a0a2d704fdc630f1de6e578f719ffe0b", "is_disabled": 0, "rental_uris": {"android": "https://dc.lft.to/lastmile_qr_scan", "ios": "https://dc.lft.to/lastmile_qr_scan"}, "fusion_lon": 0.0, "lat": 38.89757, "bike_id": "a0a2d704fdc630f1de6e578f719ffe0b", "type": "electric_scooter", "is_reserved": 0, "lon": -77.025807}, {"fusion_lat": 0.0, "name": "1e3d2b67c3f38dc059aa8c2316765190", "is_disabled": 0, "rental_uris": {"android": "https://dc.lft.to/lastmile_qr_scan", "ios": "https://dc.lft.to/lastmile_qr_scan"}, "fusion_lon": 0.0, "lat": 38.918016, "bike_id": "1e3d2b67c3f38dc059aa8c2316765190", "type": "electric_scooter", "is_reserved": 0, "lon": -77.04016666666666}, {"fusion_lat": 0.0, "name": "8e11bdc5c75ab6cb9926fb8f6c4c8f13", "is_disabled": 0, "rental_uris": {"android": "https://dc.lft.to/lastmile_qr_scan", "ios": "https://dc.lft.to/lastmile_qr_scan"}, "fusion_lon": 0.0, "lat": 38.8179855, "bike_id": "8e11bdc5c75ab6cb9926fb8f6c4c8f13", "type": "electric_bike", "is_reserved": 0, "lon": -77.0014635}, {"fusion_lat": 0.0, "name": "d1fc5740a70337db6dbec9d5df6ae817", "is_disabled": 0, "rental_uris": {"android": "https://dc.lft.to/lastmile_qr_scan", "ios": "https://dc.lft.to/lastmile_qr_scan"}, "fusion_lon": 0.0, "lat": 38.92180033333333, "bike_id": "d1fc5740a70337db6dbec9d5df6ae817", "type": "electric_scooter", "is_reserved": 0, "lon": -77.02651533333334}, {"fusion_lat": 0.0, "name": "52c757a2702252aa64cd39f74c5c49be", "is_disabled": 0, "rental_uris": {"android": "https://dc.lft.to/lastmile_qr_scan", "ios": "https://dc.lft.to/lastmile_qr_scan"}, "fusion_lon": 0.0, "lat": 38.87372383333334, "bike_id": "52c757a2702252aa64cd39f74c5c49be", "type": "electric_scooter", "is_reserved": 0, "lon": -77.00174666666666}, {"fusion_lat": 0.0, "name": "fa5f968f780eb93559e600f65a3092be", "is_disabled": 0, "rental_uris": {"android": "https://dc.lft.to/lastmile_qr_scan", "ios": "https://dc.lft.to/lastmile_qr_scan"}, "fusion_lon": 0.0, "lat": 38.929856, "bike_id": "fa5f968f780eb93559e600f65a3092be", "type": "electric_scooter", "is_reserved": 0, "lon": -77.03474083333333}, {"fusion_lat": 0.0, "name": "22a67feeb531183a2be57558f448b0d2", "is_disabled": 0, "rental_uris": {"android": "https://dc.lft.to/lastmile_qr_scan", "ios": "https://dc.lft.to/lastmile_qr_scan"}, "fusion_lon": 0.0, "lat": 38.921209833333336, "bike_id": "22a67feeb531183a2be57558f448b0d2", "type": "electric_scooter", "is_reserved": 0, "lon": -77.04439216666667}, {"fusion_lat": 0.0, "name": "5df9d1bc2ba8af33513898b73d2249a3", "is_disabled": 0, "rental_uris": {"android": "https://dc.lft.to/lastmile_qr_scan", "ios": "https://dc.lft.to/lastmile_qr_scan"}, "fusion_lon": 0.0, "lat": 38.90378883333333, "bike_id": "5df9d1bc2ba8af33513898b73d2249a3", "type": "electric_scooter", "is_reserved": 0, "lon": -77.03459283333333}, {"fusion_lat": 0.0, "name": "9d586cfdca1695cc9cc808b859deefda", "is_disabled": 0, "rental_uris": {"android": "https://dc.lft.to/lastmile_qr_scan", "ios": "https://dc.lft.to/lastmile_qr_scan"}, "fusion_lon": 0.0, "lat": 38.9307165, "bike_id": "9d586cfdca1695cc9cc808b859deefda", "type": "electric_scooter", "is_reserved": 0, "lon": -77.03156266666667}, {"fusion_lat": 0.0, "name": "4d679360d87ac5d4fb9ee610abf00d71", "is_disabled": 0, "rental_uris": {"android": "https://dc.lft.to/lastmile_qr_scan", "ios": "https://dc.lft.to/lastmile_qr_scan"}, "fusion_lon": 0.0, "lat": 38.908023166666666, "bike_id": "4d679360d87ac5d4fb9ee610abf00d71", "type": "electric_scooter", "is_reserved": 0, "lon": -77.04349516666667}, {"fusion_lat": 0.0, "name": "8d813aebc71a1a2a77c0c5465c620b7a", "is_disabled": 0, "rental_uris": {"android": "https://dc.lft.to/lastmile_qr_scan", "ios": "https://dc.lft.to/lastmile_qr_scan"}, "fusion_lon": 0.0, "lat": 38.9027495, "bike_id": "8d813aebc71a1a2a77c0c5465c620b7a", "type": "electric_scooter", "is_reserved": 0, "lon": -77.00361083333334}, {"fusion_lat": 0.0, "name": "ff51c1bd37715b7dee37a95a54768f98", "is_disabled": 0, "rental_uris": {"android": "https://dc.lft.to/lastmile_qr_scan", "ios": "https://dc.lft.to/lastmile_qr_scan"}, "fusion_lon": 0.0, "lat": 38.88394566666667, "bike_id": "ff51c1bd37715b7dee37a95a54768f98", "type": "electric_scooter", "is_reserved": 0, "lon": -77.02967183333334}, {"fusion_lat": 0.0, "name": "252de1be67b0704bfefd71b00082630c", "is_disabled": 0, "rental_uris": {"android": "https://dc.lft.to/lastmile_qr_scan", "ios": "https://dc.lft.to/lastmile_qr_scan"}, "fusion_lon": 0.0, "lat": 38.905317333333336, "bike_id": "252de1be67b0704bfefd71b00082630c", "type": "electric_scooter", "is_reserved": 0, "lon": -77.0270605}, {"fusion_lat": 0.0, "name": "403f3d097e71c4ae98cb1bc2bbaec9f2", "is_disabled": 0, "rental_uris": {"android": "https://dc.lft.to/lastmile_qr_scan", "ios": "https://dc.lft.to/lastmile_qr_scan"}, "fusion_lon": 0.0, "lat": 38.91680733333333, "bike_id": "403f3d097e71c4ae98cb1bc2bbaec9f2", "type": "electric_scooter", "is_reserved": 0, "lon": -77.03691666666667}, {"fusion_lat": 0.0, "name": "7dd346fb53ba13344abde19a4c2c1b83", "is_disabled": 0, "rental_uris": {"android": "https://dc.lft.to/lastmile_qr_scan", "ios": "https://dc.lft.to/lastmile_qr_scan"}, "fusion_lon": 0.0, "lat": 38.91474133333333, "bike_id": "7dd346fb53ba13344abde19a4c2c1b83", "type": "electric_scooter", "is_reserved": 0, "lon": -77.02584433333334}, {"fusion_lat": 0.0, "name": "f25db555d5b78f6778628272c0313c3e", "is_disabled": 0, "rental_uris": {"android": "https://dc.lft.to/lastmile_qr_scan", "ios": "https://dc.lft.to/lastmile_qr_scan"}, "fusion_lon": 0.0, "lat": 38.9223895, "bike_id": "f25db555d5b78f6778628272c0313c3e", "type": "electric_scooter", "is_reserved": 0, "lon": -77.02241833333333}, {"fusion_lat": 0.0, "name": "057a59ba0088b7e8639a51f8c4630ea6", "is_disabled": 0, "rental_uris": {"android": "https://dc.lft.to/lastmile_qr_scan", "ios": "https://dc.lft.to/lastmile_qr_scan"}, "fusion_lon": 0.0, "lat": 38.91650083333333, "bike_id": "057a59ba0088b7e8639a51f8c4630ea6", "type": "electric_scooter", "is_reserved": 0, "lon": -77.00957083333333}, {"fusion_lat": 0.0, "name": "27fc6d54303a20d23fac6093a1d21e12", "is_disabled": 0, "rental_uris": {"android": "https://dc.lft.to/lastmile_qr_scan", "ios": "https://dc.lft.to/lastmile_qr_scan"}, "fusion_lon": 0.0, "lat": 38.9037275, "bike_id": "27fc6d54303a20d23fac6093a1d21e12", "type": "electric_scooter", "is_reserved": 0, "lon": -77.0176795}, {"fusion_lat": 0.0, "name": "95eda1f9fca518170f21079288244e40", "is_disabled": 0, "rental_uris": {"android": "https://dc.lft.to/lastmile_qr_scan", "ios": "https://dc.lft.to/lastmile_qr_scan"}, "fusion_lon": 0.0, "lat": 38.90148933333333, "bike_id": "95eda1f9fca518170f21079288244e40", "type": "electric_scooter", "is_reserved": 0, "lon": -77.023007}, {"fusion_lat": 0.0, "name": "ce434bea1766790fbb2eb3f6667e23e9", "is_disabled": 0, "rental_uris": {"android": "https://dc.lft.to/lastmile_qr_scan", "ios": "https://dc.lft.to/lastmile_qr_scan"}, "fusion_lon": 0.0, "lat": 38.9140475, "bike_id": "ce434bea1766790fbb2eb3f6667e23e9", "type": "electric_scooter", "is_reserved": 0, "lon": -77.04254133333333}, {"fusion_lat": 0.0, "name": "2a57231bb26f6a2b28423c079cc9afc5", "is_disabled": 0, "rental_uris": {"android": "https://dc.lft.to/lastmile_qr_scan", "ios": "https://dc.lft.to/lastmile_qr_scan"}, "fusion_lon": 0.0, "lat": 38.887297333333336, "bike_id": "2a57231bb26f6a2b28423c079cc9afc5", "type": "electric_scooter", "is_reserved": 0, "lon": -77.01513383333334}, {"fusion_lat": 0.0, "name": "1bbf1070818d47698d2ba0984aa53a34", "is_disabled": 0, "rental_uris": {"android": "https://dc.lft.to/lastmile_qr_scan", "ios": "https://dc.lft.to/lastmile_qr_scan"}, "fusion_lon": 0.0, "lat": 38.923422333333335, "bike_id": "1bbf1070818d47698d2ba0984aa53a34", "type": "electric_scooter", "is_reserved": 0, "lon": -77.051741}, {"fusion_lat": 0.0, "name": "803b7a6152af09765d44ee1488591dab", "is_disabled": 0, "rental_uris": {"android": "https://dc.lft.to/lastmile_qr_scan", "ios": "https://dc.lft.to/lastmile_qr_scan"}, "fusion_lon": 0.0, "lat": 38.865143333333336, "bike_id": "803b7a6152af09765d44ee1488591dab", "type": "electric_bike", "is_reserved": 0, "lon": -77.129385}, {"fusion_lat": 0.0, "name": "6aa74288402b420db4b04723eb883a0a", "is_disabled": 0, "rental_uris": {"android": "https://dc.lft.to/lastmile_qr_scan", "ios": "https://dc.lft.to/lastmile_qr_scan"}, "fusion_lon": 0.0, "lat": 38.90384233333333, "bike_id": "6aa74288402b420db4b04723eb883a0a", "type": "electric_scooter", "is_reserved": 0, "lon": -77.01852416666667}, {"fusion_lat": 0.0, "name": "b7e824921df1a1febdc9b817080e64e0", "is_disabled": 0, "rental_uris": {"android": "https://dc.lft.to/lastmile_qr_scan", "ios": "https://dc.lft.to/lastmile_qr_scan"}, "fusion_lon": 0.0, "lat": 38.92961366666667, "bike_id": "b7e824921df1a1febdc9b817080e64e0", "type": "electric_scooter", "is_reserved": 0, "lon": -77.03100716666667}, {"fusion_lat": 0.0, "name": "2cd5f819ab40e2de63d9375028843bf3", "is_disabled": 0, "rental_uris": {"android": "https://dc.lft.to/lastmile_qr_scan", "ios": "https://dc.lft.to/lastmile_qr_scan"}, "fusion_lon": 0.0, "lat": 38.90661883333333, "bike_id": "2cd5f819ab40e2de63d9375028843bf3", "type": "electric_scooter", "is_reserved": 0, "lon": -77.03527883333334}, {"fusion_lat": 0.0, "name": "a629765271a7a8d3cf6a8909e653d63d", "is_disabled": 0, "rental_uris": {"android": "https://dc.lft.to/lastmile_qr_scan", "ios": "https://dc.lft.to/lastmile_qr_scan"}, "fusion_lon": 0.0, "lat": 38.887673666666664, "bike_id": "a629765271a7a8d3cf6a8909e653d63d", "type": "electric_scooter", "is_reserved": 0, "lon": -77.028616}, {"fusion_lat": 0.0, "name": "349b46cdc78c3650180c822cac7a836d", "is_disabled": 0, "rental_uris": {"android": "https://dc.lft.to/lastmile_qr_scan", "ios": "https://dc.lft.to/lastmile_qr_scan"}, "fusion_lon": 0.0, "lat": 38.90063516666667, "bike_id": "349b46cdc78c3650180c822cac7a836d", "type": "electric_scooter", "is_reserved": 0, "lon": -76.93385}, {"fusion_lat": 0.0, "name": "ba32a1799ef40143d5d6cf414aa85d76", "is_disabled": 0, "rental_uris": {"android": "https://dc.lft.to/lastmile_qr_scan", "ios": "https://dc.lft.to/lastmile_qr_scan"}, "fusion_lon": 0.0, "lat": 38.8922265, "bike_id": "ba32a1799ef40143d5d6cf414aa85d76", "type": "electric_scooter", "is_reserved": 0, "lon": -77.0433055}, {"fusion_lat": 0.0, "name": "3e4d8d47990d17fc3786a894ffeff954", "is_disabled": 0, "rental_uris": {"android": "https://dc.lft.to/lastmile_qr_scan", "ios": "https://dc.lft.to/lastmile_qr_scan"}, "fusion_lon": 0.0, "lat": 38.835172, "bike_id": "3e4d8d47990d17fc3786a894ffeff954", "type": "electric_bike", "is_reserved": 0, "lon": -76.98683333333334}, {"fusion_lat": 0.0, "name": "ae47ab469228246eed6ddd3613ca9227", "is_disabled": 0, "rental_uris": {"android": "https://dc.lft.to/lastmile_qr_scan", "ios": "https://dc.lft.to/lastmile_qr_scan"}, "fusion_lon": 0.0, "lat": 38.9469275, "bike_id": "ae47ab469228246eed6ddd3613ca9227", "type": "electric_scooter", "is_reserved": 0, "lon": -77.0792635}, {"fusion_lat": 0.0, "name": "0f023563ddcb5fe35b13667e0b3718db", "is_disabled": 0, "rental_uris": {"android": "https://dc.lft.to/lastmile_qr_scan", "ios": "https://dc.lft.to/lastmile_qr_scan"}, "fusion_lon": 0.0, "lat": 38.93422416666667, "bike_id": "0f023563ddcb5fe35b13667e0b3718db", "type": "electric_scooter", "is_reserved": 0, "lon": -77.02406216666667}, {"fusion_lat": 0.0, "name": "cb5b8984e208839486c1bc609c754888", "is_disabled": 0, "rental_uris": {"android": "https://dc.lft.to/lastmile_qr_scan", "ios": "https://dc.lft.to/lastmile_qr_scan"}, "fusion_lon": 0.0, "lat": 38.9069695, "bike_id": "cb5b8984e208839486c1bc609c754888", "type": "electric_scooter", "is_reserved": 0, "lon": -77.0690225}, {"fusion_lat": 0.0, "name": "027ffb00f6ad9b34e2bab6a1679e34ac", "is_disabled": 0, "rental_uris": {"android": "https://dc.lft.to/lastmile_qr_scan", "ios": "https://dc.lft.to/lastmile_qr_scan"}, "fusion_lon": 0.0, "lat": 38.9426945, "bike_id": "027ffb00f6ad9b34e2bab6a1679e34ac", "type": "electric_scooter", "is_reserved": 0, "lon": -77.03256216666666}, {"fusion_lat": 0.0, "name": "a447498bcef757e3d8a6dbb0251e82c2", "is_disabled": 0, "rental_uris": {"android": "https://dc.lft.to/lastmile_qr_scan", "ios": "https://dc.lft.to/lastmile_qr_scan"}, "fusion_lon": 0.0, "lat": 38.90907983333334, "bike_id": "a447498bcef757e3d8a6dbb0251e82c2", "type": "electric_scooter", "is_reserved": 0, "lon": -77.02702116666667}, {"fusion_lat": 0.0, "name": "0e4720667a24fd9bb8e9b3c7b2d10e6d", "is_disabled": 0, "rental_uris": {"android": "https://dc.lft.to/lastmile_qr_scan", "ios": "https://dc.lft.to/lastmile_qr_scan"}, "fusion_lon": 0.0, "lat": 38.89723166666667, "bike_id": "0e4720667a24fd9bb8e9b3c7b2d10e6d", "type": "electric_scooter", "is_reserved": 0, "lon": -77.01916416666667}, {"fusion_lat": 0.0, "name": "5c86b4bd37804b6bd0d6d5fbd5b6d867", "is_disabled": 0, "rental_uris": {"android": "https://dc.lft.to/lastmile_qr_scan", "ios": "https://dc.lft.to/lastmile_qr_scan"}, "fusion_lon": 0.0, "lat": 38.90680583333334, "bike_id": "5c86b4bd37804b6bd0d6d5fbd5b6d867", "type": "electric_scooter", "is_reserved": 0, "lon": -77.07214133333333}, {"fusion_lat": 0.0, "name": "e8ac6a3361b9b6d764213a77197764d9", "is_disabled": 0, "rental_uris": {"android": "https://dc.lft.to/lastmile_qr_scan", "ios": "https://dc.lft.to/lastmile_qr_scan"}, "fusion_lon": 0.0, "lat": 38.9142615, "bike_id": "e8ac6a3361b9b6d764213a77197764d9", "type": "electric_scooter", "is_reserved": 0, "lon": -77.02198066666666}, {"fusion_lat": 0.0, "name": "9e4e71b78375daaed15d21a183932562", "is_disabled": 0, "rental_uris": {"android": "https://dc.lft.to/lastmile_qr_scan", "ios": "https://dc.lft.to/lastmile_qr_scan"}, "fusion_lon": 0.0, "lat": 38.9003535, "bike_id": "9e4e71b78375daaed15d21a183932562", "type": "electric_scooter", "is_reserved": 0, "lon": -76.99137383333333}, {"fusion_lat": 0.0, "name": "39237424e9c3cea2a077160e0e1d7541", "is_disabled": 0, "rental_uris": {"android": "https://dc.lft.to/lastmile_qr_scan", "ios": "https://dc.lft.to/lastmile_qr_scan"}, "fusion_lon": 0.0, "lat": 38.9025615, "bike_id": "39237424e9c3cea2a077160e0e1d7541", "type": "electric_scooter", "is_reserved": 0, "lon": -77.04347083333333}, {"fusion_lat": 0.0, "name": "b4c187a9931ee9f4f4323344ab39c2b2", "is_disabled": 0, "rental_uris": {"android": "https://dc.lft.to/lastmile_qr_scan", "ios": "https://dc.lft.to/lastmile_qr_scan"}, "fusion_lon": 0.0, "lat": 38.9151975, "bike_id": "b4c187a9931ee9f4f4323344ab39c2b2", "type": "electric_scooter", "is_reserved": 0, "lon": -77.01988166666666}, {"fusion_lat": 0.0, "name": "8939a5e7c3efbe9b0e9dc4178ef30f86", "is_disabled": 0, "rental_uris": {"android": "https://dc.lft.to/lastmile_qr_scan", "ios": "https://dc.lft.to/lastmile_qr_scan"}, "fusion_lon": 0.0, "lat": 38.91790666666667, "bike_id": "8939a5e7c3efbe9b0e9dc4178ef30f86", "type": "electric_scooter", "is_reserved": 0, "lon": -77.04045566666667}, {"fusion_lat": 0.0, "name": "ed0c68280d54c2e7c95a8125e3b4891c", "is_disabled": 0, "rental_uris": {"android": "https://dc.lft.to/lastmile_qr_scan", "ios": "https://dc.lft.to/lastmile_qr_scan"}, "fusion_lon": 0.0, "lat": 38.91151166666667, "bike_id": "ed0c68280d54c2e7c95a8125e3b4891c", "type": "electric_scooter", "is_reserved": 0, "lon": -77.0383915}, {"fusion_lat": 0.0, "name": "d54669c4611f238283fea1c76cde9855", "is_disabled": 0, "rental_uris": {"android": "https://dc.lft.to/lastmile_qr_scan", "ios": "https://dc.lft.to/lastmile_qr_scan"}, "fusion_lon": 0.0, "lat": 38.902821, "bike_id": "d54669c4611f238283fea1c76cde9855", "type": "electric_scooter", "is_reserved": 0, "lon": -77.036743}, {"fusion_lat": 0.0, "name": "6c68e1ba40bac9294fc52c516a3265d5", "is_disabled": 0, "rental_uris": {"android": "https://dc.lft.to/lastmile_qr_scan", "ios": "https://dc.lft.to/lastmile_qr_scan"}, "fusion_lon": 0.0, "lat": 38.8932235, "bike_id": "6c68e1ba40bac9294fc52c516a3265d5", "type": "electric_scooter", "is_reserved": 0, "lon": -77.02350083333333}, {"fusion_lat": 0.0, "name": "f5c6740dc983f8fb7a5a8853dfdf4664", "is_disabled": 0, "rental_uris": {"android": "https://dc.lft.to/lastmile_qr_scan", "ios": "https://dc.lft.to/lastmile_qr_scan"}, "fusion_lon": 0.0, "lat": 38.877157, "bike_id": "f5c6740dc983f8fb7a5a8853dfdf4664", "type": "electric_scooter", "is_reserved": 0, "lon": -77.00681283333333}, {"fusion_lat": 0.0, "name": "efb6188ee1447af8895dfaa8fc600ff9", "is_disabled": 0, "rental_uris": {"android": "https://dc.lft.to/lastmile_qr_scan", "ios": "https://dc.lft.to/lastmile_qr_scan"}, "fusion_lon": 0.0, "lat": 38.941804166666664, "bike_id": "efb6188ee1447af8895dfaa8fc600ff9", "type": "electric_scooter", "is_reserved": 0, "lon": -77.02491016666667}, {"fusion_lat": 0.0, "name": "6a1ae5a1118ead9dc6e6d32c3cf51b27", "is_disabled": 0, "rental_uris": {"android": "https://dc.lft.to/lastmile_qr_scan", "ios": "https://dc.lft.to/lastmile_qr_scan"}, "fusion_lon": 0.0, "lat": 38.92603283333333, "bike_id": "6a1ae5a1118ead9dc6e6d32c3cf51b27", "type": "electric_scooter", "is_reserved": 0, "lon": -77.0396015}, {"fusion_lat": 0.0, "name": "42705d84f6d5b85062a06653e9bd61c0", "is_disabled": 0, "rental_uris": {"android": "https://dc.lft.to/lastmile_qr_scan", "ios": "https://dc.lft.to/lastmile_qr_scan"}, "fusion_lon": 0.0, "lat": 38.904662, "bike_id": "42705d84f6d5b85062a06653e9bd61c0", "type": "electric_scooter", "is_reserved": 0, "lon": -77.053454}, {"fusion_lat": 0.0, "name": "85b24e453c29f7f428629f1a79355849", "is_disabled": 0, "rental_uris": {"android": "https://dc.lft.to/lastmile_qr_scan", "ios": "https://dc.lft.to/lastmile_qr_scan"}, "fusion_lon": 0.0, "lat": 38.92481166666666, "bike_id": "85b24e453c29f7f428629f1a79355849", "type": "electric_scooter", "is_reserved": 0, "lon": -77.0259915}, {"fusion_lat": 0.0, "name": "91d455db8e379a437939d532ce7f1a42", "is_disabled": 0, "rental_uris": {"android": "https://dc.lft.to/lastmile_qr_scan", "ios": "https://dc.lft.to/lastmile_qr_scan"}, "fusion_lon": 0.0, "lat": 38.920711833333336, "bike_id": "91d455db8e379a437939d532ce7f1a42", "type": "electric_scooter", "is_reserved": 0, "lon": -77.024014}, {"fusion_lat": 0.0, "name": "32586572e6281f13bbb49f84b7dce418", "is_disabled": 0, "rental_uris": {"android": "https://dc.lft.to/lastmile_qr_scan", "ios": "https://dc.lft.to/lastmile_qr_scan"}, "fusion_lon": 0.0, "lat": 38.84421, "bike_id": "32586572e6281f13bbb49f84b7dce418", "type": "electric_scooter", "is_reserved": 0, "lon": -76.997827}, {"fusion_lat": 0.0, "name": "85a27006059276390cbdbb669a5906fa", "is_disabled": 0, "rental_uris": {"android": "https://dc.lft.to/lastmile_qr_scan", "ios": "https://dc.lft.to/lastmile_qr_scan"}, "fusion_lon": 0.0, "lat": 38.933386666666664, "bike_id": "85a27006059276390cbdbb669a5906fa", "type": "electric_scooter", "is_reserved": 0, "lon": -77.02627933333333}, {"fusion_lat": 0.0, "name": "657531ef83793f2c12fb8a90b6e8ac71", "is_disabled": 0, "rental_uris": {"android": "https://dc.lft.to/lastmile_qr_scan", "ios": "https://dc.lft.to/lastmile_qr_scan"}, "fusion_lon": 0.0, "lat": 38.91257183333333, "bike_id": "657531ef83793f2c12fb8a90b6e8ac71", "type": "electric_scooter", "is_reserved": 0, "lon": -77.00673983333333}, {"fusion_lat": 0.0, "name": "7ba93f6f1d36c985f2ce36d459343c7c", "is_disabled": 0, "rental_uris": {"android": "https://dc.lft.to/lastmile_qr_scan", "ios": "https://dc.lft.to/lastmile_qr_scan"}, "fusion_lon": 0.0, "lat": 38.936866, "bike_id": "7ba93f6f1d36c985f2ce36d459343c7c", "type": "electric_bike", "is_reserved": 0, "lon": -76.99059783333334}, {"fusion_lat": 0.0, "name": "da70c4bd0da9dcbd4e9689ab96193c20", "is_disabled": 0, "rental_uris": {"android": "https://dc.lft.to/lastmile_qr_scan", "ios": "https://dc.lft.to/lastmile_qr_scan"}, "fusion_lon": 0.0, "lat": 38.874474, "bike_id": "da70c4bd0da9dcbd4e9689ab96193c20", "type": "electric_scooter", "is_reserved": 0, "lon": -77.00894266666667}, {"fusion_lat": 0.0, "name": "77cbcade844744db7ece5957f1f765dd", "is_disabled": 0, "rental_uris": {"android": "https://dc.lft.to/lastmile_qr_scan", "ios": "https://dc.lft.to/lastmile_qr_scan"}, "fusion_lon": 0.0, "lat": 38.9203105, "bike_id": "77cbcade844744db7ece5957f1f765dd", "type": "electric_scooter", "is_reserved": 0, "lon": -76.98998583333334}, {"fusion_lat": 0.0, "name": "f7e6376cf627b7c2c9b9970ca9bc6b46", "is_disabled": 0, "rental_uris": {"android": "https://dc.lft.to/lastmile_qr_scan", "ios": "https://dc.lft.to/lastmile_qr_scan"}, "fusion_lon": 0.0, "lat": 38.92038133333333, "bike_id": "f7e6376cf627b7c2c9b9970ca9bc6b46", "type": "electric_scooter", "is_reserved": 0, "lon": -77.03407766666666}, {"fusion_lat": 0.0, "name": "a29573db20e67a6564097702d069e53a", "is_disabled": 0, "rental_uris": {"android": "https://dc.lft.to/lastmile_qr_scan", "ios": "https://dc.lft.to/lastmile_qr_scan"}, "fusion_lon": 0.0, "lat": 38.91913783333333, "bike_id": "a29573db20e67a6564097702d069e53a", "type": "electric_scooter", "is_reserved": 0, "lon": -77.03182883333334}, {"fusion_lat": 0.0, "name": "f3016191dd2f140999bcb27c8b703fc8", "is_disabled": 0, "rental_uris": {"android": "https://dc.lft.to/lastmile_qr_scan", "ios": "https://dc.lft.to/lastmile_qr_scan"}, "fusion_lon": 0.0, "lat": 38.95952783333333, "bike_id": "f3016191dd2f140999bcb27c8b703fc8", "type": "electric_bike", "is_reserved": 0, "lon": -77.03056566666666}, {"fusion_lat": 0.0, "name": "00c477d1ac81c6a9ae47bccff7640563", "is_disabled": 0, "rental_uris": {"android": "https://dc.lft.to/lastmile_qr_scan", "ios": "https://dc.lft.to/lastmile_qr_scan"}, "fusion_lon": 0.0, "lat": 38.89230466666667, "bike_id": "00c477d1ac81c6a9ae47bccff7640563", "type": "electric_scooter", "is_reserved": 0, "lon": -77.050021}, {"fusion_lat": 0.0, "name": "6015a71d24cffb6c30f0ba0ae62cdc79", "is_disabled": 0, "rental_uris": {"android": "https://dc.lft.to/lastmile_qr_scan", "ios": "https://dc.lft.to/lastmile_qr_scan"}, "fusion_lon": 0.0, "lat": 38.90539366666667, "bike_id": "6015a71d24cffb6c30f0ba0ae62cdc79", "type": "electric_scooter", "is_reserved": 0, "lon": -77.04294566666667}, {"fusion_lat": 0.0, "name": "576153cd78a7c92a7cdb67d84fe56133", "is_disabled": 0, "rental_uris": {"android": "https://dc.lft.to/lastmile_qr_scan", "ios": "https://dc.lft.to/lastmile_qr_scan"}, "fusion_lon": 0.0, "lat": 38.93447466666667, "bike_id": "576153cd78a7c92a7cdb67d84fe56133", "type": "electric_scooter", "is_reserved": 0, "lon": -77.03875066666667}, {"fusion_lat": 0.0, "name": "e3b120772b0a4d1880e94e6afed4a20b", "is_disabled": 0, "rental_uris": {"android": "https://dc.lft.to/lastmile_qr_scan", "ios": "https://dc.lft.to/lastmile_qr_scan"}, "fusion_lon": 0.0, "lat": 38.9140285, "bike_id": "e3b120772b0a4d1880e94e6afed4a20b", "type": "electric_scooter", "is_reserved": 0, "lon": -77.0248885}, {"fusion_lat": 0.0, "name": "35d85f0cc1252e47373e8fb69901cad0", "is_disabled": 0, "rental_uris": {"android": "https://dc.lft.to/lastmile_qr_scan", "ios": "https://dc.lft.to/lastmile_qr_scan"}, "fusion_lon": 0.0, "lat": 38.927854333333336, "bike_id": "35d85f0cc1252e47373e8fb69901cad0", "type": "electric_scooter", "is_reserved": 0, "lon": -77.053267}, {"fusion_lat": 0.0, "name": "c0d01c454e46d4b76a411a3cecc3da19", "is_disabled": 0, "rental_uris": {"android": "https://dc.lft.to/lastmile_qr_scan", "ios": "https://dc.lft.to/lastmile_qr_scan"}, "fusion_lon": 0.0, "lat": 38.91926633333333, "bike_id": "c0d01c454e46d4b76a411a3cecc3da19", "type": "electric_scooter", "is_reserved": 0, "lon": -77.034534}, {"fusion_lat": 0.0, "name": "3d2f6cd9e3bafbd6f01424d49a2c1fdb", "is_disabled": 0, "rental_uris": {"android": "https://dc.lft.to/lastmile_qr_scan", "ios": "https://dc.lft.to/lastmile_qr_scan"}, "fusion_lon": 0.0, "lat": 38.96232583333333, "bike_id": "3d2f6cd9e3bafbd6f01424d49a2c1fdb", "type": "electric_bike", "is_reserved": 0, "lon": -76.92802333333333}, {"fusion_lat": 0.0, "name": "c21a69bca8a3f9bd750fb371eeaad831", "is_disabled": 0, "rental_uris": {"android": "https://dc.lft.to/lastmile_qr_scan", "ios": "https://dc.lft.to/lastmile_qr_scan"}, "fusion_lon": 0.0, "lat": 38.9111755, "bike_id": "c21a69bca8a3f9bd750fb371eeaad831", "type": "electric_scooter", "is_reserved": 0, "lon": -77.03832533333333}, {"fusion_lat": 0.0, "name": "f7aa7a2ed2ff1f67dfc459fbad5f3061", "is_disabled": 0, "rental_uris": {"android": "https://dc.lft.to/lastmile_qr_scan", "ios": "https://dc.lft.to/lastmile_qr_scan"}, "fusion_lon": 0.0, "lat": 38.947244166666664, "bike_id": "f7aa7a2ed2ff1f67dfc459fbad5f3061", "type": "electric_scooter", "is_reserved": 0, "lon": -77.02770483333333}, {"fusion_lat": 0.0, "name": "bc83c3b3c40d393bc121ba029a70bec0", "is_disabled": 0, "rental_uris": {"android": "https://dc.lft.to/lastmile_qr_scan", "ios": "https://dc.lft.to/lastmile_qr_scan"}, "fusion_lon": 0.0, "lat": 38.9467725, "bike_id": "bc83c3b3c40d393bc121ba029a70bec0", "type": "electric_bike", "is_reserved": 0, "lon": -76.9567715}, {"fusion_lat": 0.0, "name": "271fc71a1b5acb72ba0bc25b6086291b", "is_disabled": 0, "rental_uris": {"android": "https://dc.lft.to/lastmile_qr_scan", "ios": "https://dc.lft.to/lastmile_qr_scan"}, "fusion_lon": 0.0, "lat": 38.914001999999996, "bike_id": "271fc71a1b5acb72ba0bc25b6086291b", "type": "electric_scooter", "is_reserved": 0, "lon": -77.03184916666666}, {"fusion_lat": 0.0, "name": "be33ea41e83895fe8c6d9060f0d3b7ac", "is_disabled": 0, "rental_uris": {"android": "https://dc.lft.to/lastmile_qr_scan", "ios": "https://dc.lft.to/lastmile_qr_scan"}, "fusion_lon": 0.0, "lat": 38.92466666666667, "bike_id": "be33ea41e83895fe8c6d9060f0d3b7ac", "type": "electric_scooter", "is_reserved": 0, "lon": -77.03951533333333}, {"fusion_lat": 0.0, "name": "1838f9d2f79c01cf20b88423b8d16d87", "is_disabled": 0, "rental_uris": {"android": "https://dc.lft.to/lastmile_qr_scan", "ios": "https://dc.lft.to/lastmile_qr_scan"}, "fusion_lon": 0.0, "lat": 38.93873466666667, "bike_id": "1838f9d2f79c01cf20b88423b8d16d87", "type": "electric_scooter", "is_reserved": 0, "lon": -77.029193}, {"fusion_lat": 0.0, "name": "633849055ca2f0188d4932a1b78508d8", "is_disabled": 0, "rental_uris": {"android": "https://dc.lft.to/lastmile_qr_scan", "ios": "https://dc.lft.to/lastmile_qr_scan"}, "fusion_lon": 0.0, "lat": 38.89998666666666, "bike_id": "633849055ca2f0188d4932a1b78508d8", "type": "electric_scooter", "is_reserved": 0, "lon": -77.02300516666666}, {"fusion_lat": 0.0, "name": "7b609db92e2574987b7e4f31c2c75ffd", "is_disabled": 0, "rental_uris": {"android": "https://dc.lft.to/lastmile_qr_scan", "ios": "https://dc.lft.to/lastmile_qr_scan"}, "fusion_lon": 0.0, "lat": 38.90978483333333, "bike_id": "7b609db92e2574987b7e4f31c2c75ffd", "type": "electric_scooter", "is_reserved": 0, "lon": -77.0342005}, {"fusion_lat": 0.0, "name": "acab75274c36810fa0a36b54380617c7", "is_disabled": 0, "rental_uris": {"android": "https://dc.lft.to/lastmile_qr_scan", "ios": "https://dc.lft.to/lastmile_qr_scan"}, "fusion_lon": 0.0, "lat": 38.92312733333333, "bike_id": "acab75274c36810fa0a36b54380617c7", "type": "electric_scooter", "is_reserved": 0, "lon": -77.03807283333333}, {"fusion_lat": 0.0, "name": "7bcef54532e44d7df49e45cdef7510af", "is_disabled": 0, "rental_uris": {"android": "https://dc.lft.to/lastmile_qr_scan", "ios": "https://dc.lft.to/lastmile_qr_scan"}, "fusion_lon": 0.0, "lat": 38.93961783333334, "bike_id": "7bcef54532e44d7df49e45cdef7510af", "type": "electric_scooter", "is_reserved": 0, "lon": -77.03286316666667}, {"fusion_lat": 0.0, "name": "af3985df31ee672b351658e0a333ec83", "is_disabled": 0, "rental_uris": {"android": "https://dc.lft.to/lastmile_qr_scan", "ios": "https://dc.lft.to/lastmile_qr_scan"}, "fusion_lon": 0.0, "lat": 38.928528, "bike_id": "af3985df31ee672b351658e0a333ec83", "type": "electric_scooter", "is_reserved": 0, "lon": -77.03530066666667}, {"fusion_lat": 0.0, "name": "0e39b33bfdcce0212a087f52e54bd747", "is_disabled": 0, "rental_uris": {"android": "https://dc.lft.to/lastmile_qr_scan", "ios": "https://dc.lft.to/lastmile_qr_scan"}, "fusion_lon": 0.0, "lat": 38.902101, "bike_id": "0e39b33bfdcce0212a087f52e54bd747", "type": "electric_scooter", "is_reserved": 0, "lon": -76.98613883333333}, {"fusion_lat": 0.0, "name": "d4cfc06c73f07272840ea39f9da2db5b", "is_disabled": 0, "rental_uris": {"android": "https://dc.lft.to/lastmile_qr_scan", "ios": "https://dc.lft.to/lastmile_qr_scan"}, "fusion_lon": 0.0, "lat": 38.87903583333333, "bike_id": "d4cfc06c73f07272840ea39f9da2db5b", "type": "electric_scooter", "is_reserved": 0, "lon": -77.00568133333333}, {"fusion_lat": 0.0, "name": "ce22cc2c0529b9929a96009aaca7fd90", "is_disabled": 0, "rental_uris": {"android": "https://dc.lft.to/lastmile_qr_scan", "ios": "https://dc.lft.to/lastmile_qr_scan"}, "fusion_lon": 0.0, "lat": 38.88508783333333, "bike_id": "ce22cc2c0529b9929a96009aaca7fd90", "type": "electric_scooter", "is_reserved": 0, "lon": -77.0111585}, {"fusion_lat": 0.0, "name": "149ae288c247ac074a4b4b406ba8c3c8", "is_disabled": 0, "rental_uris": {"android": "https://dc.lft.to/lastmile_qr_scan", "ios": "https://dc.lft.to/lastmile_qr_scan"}, "fusion_lon": 0.0, "lat": 38.90869283333333, "bike_id": "149ae288c247ac074a4b4b406ba8c3c8", "type": "electric_scooter", "is_reserved": 0, "lon": -77.04380033333334}, {"fusion_lat": 0.0, "name": "4474e4750db0c264d4c82235ec76dc5b", "is_disabled": 0, "rental_uris": {"android": "https://dc.lft.to/lastmile_qr_scan", "ios": "https://dc.lft.to/lastmile_qr_scan"}, "fusion_lon": 0.0, "lat": 38.9003365, "bike_id": "4474e4750db0c264d4c82235ec76dc5b", "type": "electric_scooter", "is_reserved": 0, "lon": -76.99259566666667}, {"fusion_lat": 0.0, "name": "109a37303cb0c4063727aeabfcd0aa6f", "is_disabled": 0, "rental_uris": {"android": "https://dc.lft.to/lastmile_qr_scan", "ios": "https://dc.lft.to/lastmile_qr_scan"}, "fusion_lon": 0.0, "lat": 38.9417965, "bike_id": "109a37303cb0c4063727aeabfcd0aa6f", "type": "electric_scooter", "is_reserved": 0, "lon": -77.02491383333333}, {"fusion_lat": 0.0, "name": "8016a88aae6b8ebaddb31d811d911c10", "is_disabled": 0, "rental_uris": {"android": "https://dc.lft.to/lastmile_qr_scan", "ios": "https://dc.lft.to/lastmile_qr_scan"}, "fusion_lon": 0.0, "lat": 38.91446583333333, "bike_id": "8016a88aae6b8ebaddb31d811d911c10", "type": "electric_scooter", "is_reserved": 0, "lon": -77.0228645}, {"fusion_lat": 0.0, "name": "bf1eafa477042a949bf8677d32922b4e", "is_disabled": 0, "rental_uris": {"android": "https://dc.lft.to/lastmile_qr_scan", "ios": "https://dc.lft.to/lastmile_qr_scan"}, "fusion_lon": 0.0, "lat": 38.9083065, "bike_id": "bf1eafa477042a949bf8677d32922b4e", "type": "electric_scooter", "is_reserved": 0, "lon": -77.00216}, {"fusion_lat": 0.0, "name": "0e9ebc16e6276fa87e9651669e0889a2", "is_disabled": 0, "rental_uris": {"android": "https://dc.lft.to/lastmile_qr_scan", "ios": "https://dc.lft.to/lastmile_qr_scan"}, "fusion_lon": 0.0, "lat": 38.881890166666665, "bike_id": "0e9ebc16e6276fa87e9651669e0889a2", "type": "electric_scooter", "is_reserved": 0, "lon": -77.00353466666667}, {"fusion_lat": 0.0, "name": "e668ba53ff73972bcc7609eb3df6d69f", "is_disabled": 0, "rental_uris": {"android": "https://dc.lft.to/lastmile_qr_scan", "ios": "https://dc.lft.to/lastmile_qr_scan"}, "fusion_lon": 0.0, "lat": 38.91680016666667, "bike_id": "e668ba53ff73972bcc7609eb3df6d69f", "type": "electric_scooter", "is_reserved": 0, "lon": -77.03214983333334}, {"fusion_lat": 0.0, "name": "38dc418fa62b883025f62f3c439607d1", "is_disabled": 0, "rental_uris": {"android": "https://dc.lft.to/lastmile_qr_scan", "ios": "https://dc.lft.to/lastmile_qr_scan"}, "fusion_lon": 0.0, "lat": 38.92015883333333, "bike_id": "38dc418fa62b883025f62f3c439607d1", "type": "electric_scooter", "is_reserved": 0, "lon": -77.038819}, {"fusion_lat": 0.0, "name": "1a82effac83717bd5daeb939c46d9878", "is_disabled": 0, "rental_uris": {"android": "https://dc.lft.to/lastmile_qr_scan", "ios": "https://dc.lft.to/lastmile_qr_scan"}, "fusion_lon": 0.0, "lat": 38.90426683333333, "bike_id": "1a82effac83717bd5daeb939c46d9878", "type": "electric_scooter", "is_reserved": 0, "lon": -77.05133083333334}, {"fusion_lat": 0.0, "name": "837229745ece83019407ad3a8fb94849", "is_disabled": 0, "rental_uris": {"android": "https://dc.lft.to/lastmile_qr_scan", "ios": "https://dc.lft.to/lastmile_qr_scan"}, "fusion_lon": 0.0, "lat": 38.90961583333333, "bike_id": "837229745ece83019407ad3a8fb94849", "type": "electric_scooter", "is_reserved": 0, "lon": -77.03477333333333}, {"fusion_lat": 0.0, "name": "80e73472f7dc554d03052311f68a04fb", "is_disabled": 0, "rental_uris": {"android": "https://dc.lft.to/lastmile_qr_scan", "ios": "https://dc.lft.to/lastmile_qr_scan"}, "fusion_lon": 0.0, "lat": 38.898363, "bike_id": "80e73472f7dc554d03052311f68a04fb", "type": "electric_scooter", "is_reserved": 0, "lon": -77.02489}, {"fusion_lat": 0.0, "name": "3b4d732167e98ea5e7a659789f8f071a", "is_disabled": 0, "rental_uris": {"android": "https://dc.lft.to/lastmile_qr_scan", "ios": "https://dc.lft.to/lastmile_qr_scan"}, "fusion_lon": 0.0, "lat": 38.918165, "bike_id": "3b4d732167e98ea5e7a659789f8f071a", "type": "electric_scooter", "is_reserved": 0, "lon": -77.0319495}, {"fusion_lat": 0.0, "name": "8aff6755a56635cb78ae3b04da301c8b", "is_disabled": 0, "rental_uris": {"android": "https://dc.lft.to/lastmile_qr_scan", "ios": "https://dc.lft.to/lastmile_qr_scan"}, "fusion_lon": 0.0, "lat": 38.9302095, "bike_id": "8aff6755a56635cb78ae3b04da301c8b", "type": "electric_scooter", "is_reserved": 0, "lon": -77.03795733333334}, {"fusion_lat": 0.0, "name": "058489ea37d7aa59240aa9337d53c456", "is_disabled": 0, "rental_uris": {"android": "https://dc.lft.to/lastmile_qr_scan", "ios": "https://dc.lft.to/lastmile_qr_scan"}, "fusion_lon": 0.0, "lat": 38.91789383333333, "bike_id": "058489ea37d7aa59240aa9337d53c456", "type": "electric_scooter", "is_reserved": 0, "lon": -77.041182}, {"fusion_lat": 0.0, "name": "d674ebf347512cd09052e7243ad16250", "is_disabled": 0, "rental_uris": {"android": "https://dc.lft.to/lastmile_qr_scan", "ios": "https://dc.lft.to/lastmile_qr_scan"}, "fusion_lon": 0.0, "lat": 38.903816666666664, "bike_id": "d674ebf347512cd09052e7243ad16250", "type": "electric_scooter", "is_reserved": 0, "lon": -76.97621633333333}, {"fusion_lat": 0.0, "name": "539f4d341cf4e142d0dae599995b3f11", "is_disabled": 0, "rental_uris": {"android": "https://dc.lft.to/lastmile_qr_scan", "ios": "https://dc.lft.to/lastmile_qr_scan"}, "fusion_lon": 0.0, "lat": 38.893678, "bike_id": "539f4d341cf4e142d0dae599995b3f11", "type": "electric_scooter", "is_reserved": 0, "lon": -77.01079766666666}, {"fusion_lat": 0.0, "name": "c354af5668e3ce68a37e613bd7e94783", "is_disabled": 0, "rental_uris": {"android": "https://dc.lft.to/lastmile_qr_scan", "ios": "https://dc.lft.to/lastmile_qr_scan"}, "fusion_lon": 0.0, "lat": 38.911787833333335, "bike_id": "c354af5668e3ce68a37e613bd7e94783", "type": "electric_scooter", "is_reserved": 0, "lon": -77.03191233333334}, {"fusion_lat": 0.0, "name": "ba67de013aed31e230c3102ba78d251b", "is_disabled": 0, "rental_uris": {"android": "https://dc.lft.to/lastmile_qr_scan", "ios": "https://dc.lft.to/lastmile_qr_scan"}, "fusion_lon": 0.0, "lat": 38.87966866666667, "bike_id": "ba67de013aed31e230c3102ba78d251b", "type": "electric_scooter", "is_reserved": 0, "lon": -77.00600566666667}, {"fusion_lat": 0.0, "name": "cc9257922ed2106abd62ba122c645d71", "is_disabled": 0, "rental_uris": {"android": "https://dc.lft.to/lastmile_qr_scan", "ios": "https://dc.lft.to/lastmile_qr_scan"}, "fusion_lon": 0.0, "lat": 38.89935466666667, "bike_id": "cc9257922ed2106abd62ba122c645d71", "type": "electric_scooter", "is_reserved": 0, "lon": -77.03944316666667}, {"fusion_lat": 0.0, "name": "2f27c0b11bff5d7e3e7342bc0cdc9e97", "is_disabled": 0, "rental_uris": {"android": "https://dc.lft.to/lastmile_qr_scan", "ios": "https://dc.lft.to/lastmile_qr_scan"}, "fusion_lon": 0.0, "lat": 38.92172466666667, "bike_id": "2f27c0b11bff5d7e3e7342bc0cdc9e97", "type": "electric_scooter", "is_reserved": 0, "lon": -77.03516266666666}, {"fusion_lat": 0.0, "name": "db8d5dc1ab0ad703f6efd35cc8a0a41e", "is_disabled": 0, "rental_uris": {"android": "https://dc.lft.to/lastmile_qr_scan", "ios": "https://dc.lft.to/lastmile_qr_scan"}, "fusion_lon": 0.0, "lat": 38.938594333333334, "bike_id": "db8d5dc1ab0ad703f6efd35cc8a0a41e", "type": "electric_scooter", "is_reserved": 0, "lon": -77.031668}, {"fusion_lat": 0.0, "name": "debcdb3243745708dcaeca4702a6d2d5", "is_disabled": 0, "rental_uris": {"android": "https://dc.lft.to/lastmile_qr_scan", "ios": "https://dc.lft.to/lastmile_qr_scan"}, "fusion_lon": 0.0, "lat": 38.914138666666666, "bike_id": "debcdb3243745708dcaeca4702a6d2d5", "type": "electric_scooter", "is_reserved": 0, "lon": -77.04507816666667}, {"fusion_lat": 0.0, "name": "44fbda159f6f2fb560ab5254c98e85fd", "is_disabled": 0, "rental_uris": {"android": "https://dc.lft.to/lastmile_qr_scan", "ios": "https://dc.lft.to/lastmile_qr_scan"}, "fusion_lon": 0.0, "lat": 38.89222016666667, "bike_id": "44fbda159f6f2fb560ab5254c98e85fd", "type": "electric_scooter", "is_reserved": 0, "lon": -77.03341383333333}, {"fusion_lat": 0.0, "name": "4497fa2f554adecf48714f46d3b211e7", "is_disabled": 0, "rental_uris": {"android": "https://dc.lft.to/lastmile_qr_scan", "ios": "https://dc.lft.to/lastmile_qr_scan"}, "fusion_lon": 0.0, "lat": 38.918104, "bike_id": "4497fa2f554adecf48714f46d3b211e7", "type": "electric_scooter", "is_reserved": 0, "lon": -77.02683183333333}, {"fusion_lat": 0.0, "name": "14c2c258d280542ac301423891e6f14b", "is_disabled": 0, "rental_uris": {"android": "https://dc.lft.to/lastmile_qr_scan", "ios": "https://dc.lft.to/lastmile_qr_scan"}, "fusion_lon": 0.0, "lat": 38.925061666666664, "bike_id": "14c2c258d280542ac301423891e6f14b", "type": "electric_scooter", "is_reserved": 0, "lon": -77.02168383333333}, {"fusion_lat": 0.0, "name": "ef7b113f8908aa499e70b893e4c62d29", "is_disabled": 0, "rental_uris": {"android": "https://dc.lft.to/lastmile_qr_scan", "ios": "https://dc.lft.to/lastmile_qr_scan"}, "fusion_lon": 0.0, "lat": 38.926195166666666, "bike_id": "ef7b113f8908aa499e70b893e4c62d29", "type": "electric_scooter", "is_reserved": 0, "lon": -77.04325483333334}, {"fusion_lat": 0.0, "name": "0aa66337d59b743ad9f1888351241460", "is_disabled": 0, "rental_uris": {"android": "https://dc.lft.to/lastmile_qr_scan", "ios": "https://dc.lft.to/lastmile_qr_scan"}, "fusion_lon": 0.0, "lat": 38.925478, "bike_id": "0aa66337d59b743ad9f1888351241460", "type": "electric_scooter", "is_reserved": 0, "lon": -77.042992}, {"fusion_lat": 0.0, "name": "9bf4581bc51a874e9fad5b9d2043ab64", "is_disabled": 0, "rental_uris": {"android": "https://dc.lft.to/lastmile_qr_scan", "ios": "https://dc.lft.to/lastmile_qr_scan"}, "fusion_lon": 0.0, "lat": 38.919109666666664, "bike_id": "9bf4581bc51a874e9fad5b9d2043ab64", "type": "electric_scooter", "is_reserved": 0, "lon": -77.0136235}, {"fusion_lat": 0.0, "name": "2eed8660eb2b2938c32a26250d912e6d", "is_disabled": 0, "rental_uris": {"android": "https://dc.lft.to/lastmile_qr_scan", "ios": "https://dc.lft.to/lastmile_qr_scan"}, "fusion_lon": 0.0, "lat": 38.91819683333333, "bike_id": "2eed8660eb2b2938c32a26250d912e6d", "type": "electric_scooter", "is_reserved": 0, "lon": -77.03753366666666}, {"fusion_lat": 0.0, "name": "df21eeff44fdd3517e57886881274c1b", "is_disabled": 0, "rental_uris": {"android": "https://dc.lft.to/lastmile_qr_scan", "ios": "https://dc.lft.to/lastmile_qr_scan"}, "fusion_lon": 0.0, "lat": 38.931142, "bike_id": "df21eeff44fdd3517e57886881274c1b", "type": "electric_scooter", "is_reserved": 0, "lon": -77.03821283333333}, {"fusion_lat": 0.0, "name": "ea916a9f370a8bf01ba02838cd668b7d", "is_disabled": 0, "rental_uris": {"android": "https://dc.lft.to/lastmile_qr_scan", "ios": "https://dc.lft.to/lastmile_qr_scan"}, "fusion_lon": 0.0, "lat": 38.87610766666667, "bike_id": "ea916a9f370a8bf01ba02838cd668b7d", "type": "electric_scooter", "is_reserved": 0, "lon": -77.0011365}, {"fusion_lat": 0.0, "name": "947d8bc6c753af9674cbe81e71a16e85", "is_disabled": 0, "rental_uris": {"android": "https://dc.lft.to/lastmile_qr_scan", "ios": "https://dc.lft.to/lastmile_qr_scan"}, "fusion_lon": 0.0, "lat": 38.89393833333333, "bike_id": "947d8bc6c753af9674cbe81e71a16e85", "type": "electric_scooter", "is_reserved": 0, "lon": -77.021715}, {"fusion_lat": 0.0, "name": "e039bcb7223336d0bdafd6ccc6221482", "is_disabled": 0, "rental_uris": {"android": "https://dc.lft.to/lastmile_qr_scan", "ios": "https://dc.lft.to/lastmile_qr_scan"}, "fusion_lon": 0.0, "lat": 38.91813166666667, "bike_id": "e039bcb7223336d0bdafd6ccc6221482", "type": "electric_scooter", "is_reserved": 0, "lon": -77.03069983333333}, {"fusion_lat": 0.0, "name": "d996a7c4cc9e8ec2fd0da5a99e04e45b", "is_disabled": 0, "rental_uris": {"android": "https://dc.lft.to/lastmile_qr_scan", "ios": "https://dc.lft.to/lastmile_qr_scan"}, "fusion_lon": 0.0, "lat": 38.9133305, "bike_id": "d996a7c4cc9e8ec2fd0da5a99e04e45b", "type": "electric_scooter", "is_reserved": 0, "lon": -77.04788883333333}, {"fusion_lat": 0.0, "name": "a69e2720b364cf89605f1fb4223e577e", "is_disabled": 0, "rental_uris": {"android": "https://dc.lft.to/lastmile_qr_scan", "ios": "https://dc.lft.to/lastmile_qr_scan"}, "fusion_lon": 0.0, "lat": 38.87720766666666, "bike_id": "a69e2720b364cf89605f1fb4223e577e", "type": "electric_scooter", "is_reserved": 0, "lon": -77.007625}, {"fusion_lat": 0.0, "name": "1c583be5d10a254d862997834f38dde2", "is_disabled": 0, "rental_uris": {"android": "https://dc.lft.to/lastmile_qr_scan", "ios": "https://dc.lft.to/lastmile_qr_scan"}, "fusion_lon": 0.0, "lat": 38.936028, "bike_id": "1c583be5d10a254d862997834f38dde2", "type": "electric_scooter", "is_reserved": 0, "lon": -77.0585935}, {"fusion_lat": 0.0, "name": "c0f0adcc81f270c9839742f4fa4f9a49", "is_disabled": 0, "rental_uris": {"android": "https://dc.lft.to/lastmile_qr_scan", "ios": "https://dc.lft.to/lastmile_qr_scan"}, "fusion_lon": 0.0, "lat": 38.92128, "bike_id": "c0f0adcc81f270c9839742f4fa4f9a49", "type": "electric_scooter", "is_reserved": 0, "lon": -77.04582566666667}, {"fusion_lat": 0.0, "name": "3135ab5ae3549a9a87123b7aab315144", "is_disabled": 0, "rental_uris": {"android": "https://dc.lft.to/lastmile_qr_scan", "ios": "https://dc.lft.to/lastmile_qr_scan"}, "fusion_lon": 0.0, "lat": 38.917111166666665, "bike_id": "3135ab5ae3549a9a87123b7aab315144", "type": "electric_scooter", "is_reserved": 0, "lon": -77.04011866666667}, {"fusion_lat": 0.0, "name": "8bb96c74593b08b36b0a8897d63e0db5", "is_disabled": 0, "rental_uris": {"android": "https://dc.lft.to/lastmile_qr_scan", "ios": "https://dc.lft.to/lastmile_qr_scan"}, "fusion_lon": 0.0, "lat": 38.84278583333333, "bike_id": "8bb96c74593b08b36b0a8897d63e0db5", "type": "electric_bike", "is_reserved": 0, "lon": -77.04518333333333}, {"fusion_lat": 0.0, "name": "d06b403ab67091a9d4fda38c24112c4a", "is_disabled": 0, "rental_uris": {"android": "https://dc.lft.to/lastmile_qr_scan", "ios": "https://dc.lft.to/lastmile_qr_scan"}, "fusion_lon": 0.0, "lat": 38.910212, "bike_id": "d06b403ab67091a9d4fda38c24112c4a", "type": "electric_scooter", "is_reserved": 0, "lon": -77.03311016666666}, {"fusion_lat": 0.0, "name": "9924a9e545280d4e00e3ed3ab2427cfc", "is_disabled": 0, "rental_uris": {"android": "https://dc.lft.to/lastmile_qr_scan", "ios": "https://dc.lft.to/lastmile_qr_scan"}, "fusion_lon": 0.0, "lat": 38.85797516666667, "bike_id": "9924a9e545280d4e00e3ed3ab2427cfc", "type": "electric_bike", "is_reserved": 0, "lon": -77.05146116666667}, {"fusion_lat": 0.0, "name": "3418d05f76b4e575172f1cff8ba551c2", "is_disabled": 0, "rental_uris": {"android": "https://dc.lft.to/lastmile_qr_scan", "ios": "https://dc.lft.to/lastmile_qr_scan"}, "fusion_lon": 0.0, "lat": 38.886798166666665, "bike_id": "3418d05f76b4e575172f1cff8ba551c2", "type": "electric_bike", "is_reserved": 0, "lon": -77.1627875}, {"fusion_lat": 0.0, "name": "8d9dc0e008af70fab1b515972390bf0d", "is_disabled": 0, "rental_uris": {"android": "https://dc.lft.to/lastmile_qr_scan", "ios": "https://dc.lft.to/lastmile_qr_scan"}, "fusion_lon": 0.0, "lat": 38.911294, "bike_id": "8d9dc0e008af70fab1b515972390bf0d", "type": "electric_scooter", "is_reserved": 0, "lon": -77.0448265}, {"fusion_lat": 0.0, "name": "4cfaef91c27aa32df6d0424d5cd4007a", "is_disabled": 0, "rental_uris": {"android": "https://dc.lft.to/lastmile_qr_scan", "ios": "https://dc.lft.to/lastmile_qr_scan"}, "fusion_lon": 0.0, "lat": 38.90432366666667, "bike_id": "4cfaef91c27aa32df6d0424d5cd4007a", "type": "electric_scooter", "is_reserved": 0, "lon": -76.998361}, {"fusion_lat": 0.0, "name": "514aa43e4a9897b48291dc3fb326cb31", "is_disabled": 0, "rental_uris": {"android": "https://dc.lft.to/lastmile_qr_scan", "ios": "https://dc.lft.to/lastmile_qr_scan"}, "fusion_lon": 0.0, "lat": 38.94339933333333, "bike_id": "514aa43e4a9897b48291dc3fb326cb31", "type": "electric_scooter", "is_reserved": 0, "lon": -77.0324695}, {"fusion_lat": 0.0, "name": "1ae82006b6256fd49b2ed64b64566764", "is_disabled": 0, "rental_uris": {"android": "https://dc.lft.to/lastmile_qr_scan", "ios": "https://dc.lft.to/lastmile_qr_scan"}, "fusion_lon": 0.0, "lat": 38.89221533333333, "bike_id": "1ae82006b6256fd49b2ed64b64566764", "type": "electric_scooter", "is_reserved": 0, "lon": -77.0263605}, {"fusion_lat": 0.0, "name": "de341f3ce2cbb14ffee8fbc15bc5d8ff", "is_disabled": 0, "rental_uris": {"android": "https://dc.lft.to/lastmile_qr_scan", "ios": "https://dc.lft.to/lastmile_qr_scan"}, "fusion_lon": 0.0, "lat": 38.9275645, "bike_id": "de341f3ce2cbb14ffee8fbc15bc5d8ff", "type": "electric_scooter", "is_reserved": 0, "lon": -77.02451016666667}, {"fusion_lat": 0.0, "name": "3a7e9b9461fa514c7275b385a0573eea", "is_disabled": 0, "rental_uris": {"android": "https://dc.lft.to/lastmile_qr_scan", "ios": "https://dc.lft.to/lastmile_qr_scan"}, "fusion_lon": 0.0, "lat": 38.90818133333333, "bike_id": "3a7e9b9461fa514c7275b385a0573eea", "type": "electric_scooter", "is_reserved": 0, "lon": -77.04291783333333}, {"fusion_lat": 0.0, "name": "017e01d4f5df08acfe1b8e8fd00ba956", "is_disabled": 0, "rental_uris": {"android": "https://dc.lft.to/lastmile_qr_scan", "ios": "https://dc.lft.to/lastmile_qr_scan"}, "fusion_lon": 0.0, "lat": 38.9032925, "bike_id": "017e01d4f5df08acfe1b8e8fd00ba956", "type": "electric_bike", "is_reserved": 0, "lon": -76.975317}, {"fusion_lat": 0.0, "name": "2fd801f7e8c79a297fe1cb76487f8e64", "is_disabled": 0, "rental_uris": {"android": "https://dc.lft.to/lastmile_qr_scan", "ios": "https://dc.lft.to/lastmile_qr_scan"}, "fusion_lon": 0.0, "lat": 38.94411983333333, "bike_id": "2fd801f7e8c79a297fe1cb76487f8e64", "type": "electric_scooter", "is_reserved": 0, "lon": -77.0632305}, {"fusion_lat": 0.0, "name": "854e13864b134e07eb69bcf09bebfd03", "is_disabled": 0, "rental_uris": {"android": "https://dc.lft.to/lastmile_qr_scan", "ios": "https://dc.lft.to/lastmile_qr_scan"}, "fusion_lon": 0.0, "lat": 38.9205345, "bike_id": "854e13864b134e07eb69bcf09bebfd03", "type": "electric_scooter", "is_reserved": 0, "lon": -77.04350433333333}, {"fusion_lat": 0.0, "name": "512b1be4d364bad66f7ef14a6abf24ff", "is_disabled": 0, "rental_uris": {"android": "https://dc.lft.to/lastmile_qr_scan", "ios": "https://dc.lft.to/lastmile_qr_scan"}, "fusion_lon": 0.0, "lat": 38.90623933333333, "bike_id": "512b1be4d364bad66f7ef14a6abf24ff", "type": "electric_scooter", "is_reserved": 0, "lon": -77.05013483333333}, {"fusion_lat": 0.0, "name": "6cb7ba12973c8621dad408d484291e4b", "is_disabled": 0, "rental_uris": {"android": "https://dc.lft.to/lastmile_qr_scan", "ios": "https://dc.lft.to/lastmile_qr_scan"}, "fusion_lon": 0.0, "lat": 38.877410166666664, "bike_id": "6cb7ba12973c8621dad408d484291e4b", "type": "electric_scooter", "is_reserved": 0, "lon": -77.00275133333334}, {"fusion_lat": 0.0, "name": "94698fb85a2930d96039ef1d8e82ede1", "is_disabled": 0, "rental_uris": {"android": "https://dc.lft.to/lastmile_qr_scan", "ios": "https://dc.lft.to/lastmile_qr_scan"}, "fusion_lon": 0.0, "lat": 38.89222633333333, "bike_id": "94698fb85a2930d96039ef1d8e82ede1", "type": "electric_scooter", "is_reserved": 0, "lon": -77.03341483333334}, {"fusion_lat": 0.0, "name": "89719b2f8deb9bb44a7f2fe21225c06b", "is_disabled": 0, "rental_uris": {"android": "https://dc.lft.to/lastmile_qr_scan", "ios": "https://dc.lft.to/lastmile_qr_scan"}, "fusion_lon": 0.0, "lat": 38.924732, "bike_id": "89719b2f8deb9bb44a7f2fe21225c06b", "type": "electric_scooter", "is_reserved": 0, "lon": -77.03558983333333}, {"fusion_lat": 0.0, "name": "c8f65e08d1c274afc185719fee997165", "is_disabled": 0, "rental_uris": {"android": "https://dc.lft.to/lastmile_qr_scan", "ios": "https://dc.lft.to/lastmile_qr_scan"}, "fusion_lon": 0.0, "lat": 38.89734383333333, "bike_id": "c8f65e08d1c274afc185719fee997165", "type": "electric_scooter", "is_reserved": 0, "lon": -76.94717933333334}, {"fusion_lat": 0.0, "name": "03f5fb7cb0d71940bff455f6d8b9e69e", "is_disabled": 0, "rental_uris": {"android": "https://dc.lft.to/lastmile_qr_scan", "ios": "https://dc.lft.to/lastmile_qr_scan"}, "fusion_lon": 0.0, "lat": 38.933518, "bike_id": "03f5fb7cb0d71940bff455f6d8b9e69e", "type": "electric_scooter", "is_reserved": 0, "lon": -77.062}, {"fusion_lat": 0.0, "name": "7dabcfcf2615ff79d8916f29ee9f295a", "is_disabled": 0, "rental_uris": {"android": "https://dc.lft.to/lastmile_qr_scan", "ios": "https://dc.lft.to/lastmile_qr_scan"}, "fusion_lon": 0.0, "lat": 38.8747, "bike_id": "7dabcfcf2615ff79d8916f29ee9f295a", "type": "electric_scooter", "is_reserved": 0, "lon": -77.004908}, {"fusion_lat": 0.0, "name": "a3d755421445fcefc9cf9f2762d39e91", "is_disabled": 0, "rental_uris": {"android": "https://dc.lft.to/lastmile_qr_scan", "ios": "https://dc.lft.to/lastmile_qr_scan"}, "fusion_lon": 0.0, "lat": 38.892193, "bike_id": "a3d755421445fcefc9cf9f2762d39e91", "type": "electric_scooter", "is_reserved": 0, "lon": -77.026487}, {"fusion_lat": 0.0, "name": "685d453751a745a1e34eec1121095a71", "is_disabled": 0, "rental_uris": {"android": "https://dc.lft.to/lastmile_qr_scan", "ios": "https://dc.lft.to/lastmile_qr_scan"}, "fusion_lon": 0.0, "lat": 38.9699025, "bike_id": "685d453751a745a1e34eec1121095a71", "type": "electric_scooter", "is_reserved": 0, "lon": -77.011608}, {"fusion_lat": 0.0, "name": "a50ef661636129199b8c0c74b9607081", "is_disabled": 0, "rental_uris": {"android": "https://dc.lft.to/lastmile_qr_scan", "ios": "https://dc.lft.to/lastmile_qr_scan"}, "fusion_lon": 0.0, "lat": 38.9055645, "bike_id": "a50ef661636129199b8c0c74b9607081", "type": "electric_scooter", "is_reserved": 0, "lon": -77.002188}, {"fusion_lat": 0.0, "name": "e8142c22afe37fbbb5a09827048fb1c0", "is_disabled": 0, "rental_uris": {"android": "https://dc.lft.to/lastmile_qr_scan", "ios": "https://dc.lft.to/lastmile_qr_scan"}, "fusion_lon": 0.0, "lat": 38.9071325, "bike_id": "e8142c22afe37fbbb5a09827048fb1c0", "type": "electric_scooter", "is_reserved": 0, "lon": -77.02508033333334}, {"fusion_lat": 0.0, "name": "5e295e49e743af62be3662b59f5e7c9a", "is_disabled": 0, "rental_uris": {"android": "https://dc.lft.to/lastmile_qr_scan", "ios": "https://dc.lft.to/lastmile_qr_scan"}, "fusion_lon": 0.0, "lat": 38.87448716666667, "bike_id": "5e295e49e743af62be3662b59f5e7c9a", "type": "electric_scooter", "is_reserved": 0, "lon": -77.01882916666666}, {"fusion_lat": 0.0, "name": "8029fddf35e0c01d799fdd2258439064", "is_disabled": 0, "rental_uris": {"android": "https://dc.lft.to/lastmile_qr_scan", "ios": "https://dc.lft.to/lastmile_qr_scan"}, "fusion_lon": 0.0, "lat": 38.940899, "bike_id": "8029fddf35e0c01d799fdd2258439064", "type": "electric_scooter", "is_reserved": 0, "lon": -77.02324066666667}, {"fusion_lat": 0.0, "name": "ec140dbf44c987781b2952679607938d", "is_disabled": 0, "rental_uris": {"android": "https://dc.lft.to/lastmile_qr_scan", "ios": "https://dc.lft.to/lastmile_qr_scan"}, "fusion_lon": 0.0, "lat": 38.925939, "bike_id": "ec140dbf44c987781b2952679607938d", "type": "electric_scooter", "is_reserved": 0, "lon": -77.03739766666666}, {"fusion_lat": 0.0, "name": "c1068e9f82f66dbf26ff711a493b0884", "is_disabled": 0, "rental_uris": {"android": "https://dc.lft.to/lastmile_qr_scan", "ios": "https://dc.lft.to/lastmile_qr_scan"}, "fusion_lon": 0.0, "lat": 38.8966055, "bike_id": "c1068e9f82f66dbf26ff711a493b0884", "type": "electric_scooter", "is_reserved": 0, "lon": -77.0504125}, {"fusion_lat": 0.0, "name": "4c144b912311a9e9be04bd67f2aaef27", "is_disabled": 0, "rental_uris": {"android": "https://dc.lft.to/lastmile_qr_scan", "ios": "https://dc.lft.to/lastmile_qr_scan"}, "fusion_lon": 0.0, "lat": 38.88729566666667, "bike_id": "4c144b912311a9e9be04bd67f2aaef27", "type": "electric_scooter", "is_reserved": 0, "lon": -77.0133935}, {"fusion_lat": 0.0, "name": "b9453fe9b05b69b7dd67a2c35669d022", "is_disabled": 0, "rental_uris": {"android": "https://dc.lft.to/lastmile_qr_scan", "ios": "https://dc.lft.to/lastmile_qr_scan"}, "fusion_lon": 0.0, "lat": 38.88413216666667, "bike_id": "b9453fe9b05b69b7dd67a2c35669d022", "type": "electric_scooter", "is_reserved": 0, "lon": -77.02895766666667}, {"fusion_lat": 0.0, "name": "eb94dabd06a9fb2c3a43e8accdbf0190", "is_disabled": 0, "rental_uris": {"android": "https://dc.lft.to/lastmile_qr_scan", "ios": "https://dc.lft.to/lastmile_qr_scan"}, "fusion_lon": 0.0, "lat": 38.90069166666667, "bike_id": "eb94dabd06a9fb2c3a43e8accdbf0190", "type": "electric_scooter", "is_reserved": 0, "lon": -77.02201283333333}, {"fusion_lat": 0.0, "name": "74cdfbf547f6df8b8242d856b4cd4051", "is_disabled": 0, "rental_uris": {"android": "https://dc.lft.to/lastmile_qr_scan", "ios": "https://dc.lft.to/lastmile_qr_scan"}, "fusion_lon": 0.0, "lat": 38.895842333333334, "bike_id": "74cdfbf547f6df8b8242d856b4cd4051", "type": "electric_scooter", "is_reserved": 0, "lon": -77.02199133333333}, {"fusion_lat": 0.0, "name": "e73fa383337779aa9e31e37ea677a717", "is_disabled": 0, "rental_uris": {"android": "https://dc.lft.to/lastmile_qr_scan", "ios": "https://dc.lft.to/lastmile_qr_scan"}, "fusion_lon": 0.0, "lat": 38.886526, "bike_id": "e73fa383337779aa9e31e37ea677a717", "type": "electric_scooter", "is_reserved": 0, "lon": -77.00199183333334}, {"fusion_lat": 0.0, "name": "3733780057b41a3cd379bdb268c0a015", "is_disabled": 0, "rental_uris": {"android": "https://dc.lft.to/lastmile_qr_scan", "ios": "https://dc.lft.to/lastmile_qr_scan"}, "fusion_lon": 0.0, "lat": 38.873701, "bike_id": "3733780057b41a3cd379bdb268c0a015", "type": "electric_scooter", "is_reserved": 0, "lon": -77.00061216666667}, {"fusion_lat": 0.0, "name": "5043073815aca86f7b06b2581c8f5095", "is_disabled": 0, "rental_uris": {"android": "https://dc.lft.to/lastmile_qr_scan", "ios": "https://dc.lft.to/lastmile_qr_scan"}, "fusion_lon": 0.0, "lat": 38.901372333333335, "bike_id": "5043073815aca86f7b06b2581c8f5095", "type": "electric_scooter", "is_reserved": 0, "lon": -76.99122616666666}, {"fusion_lat": 0.0, "name": "dab892c175801787b9d57129b2e66933", "is_disabled": 0, "rental_uris": {"android": "https://dc.lft.to/lastmile_qr_scan", "ios": "https://dc.lft.to/lastmile_qr_scan"}, "fusion_lon": 0.0, "lat": 38.921867, "bike_id": "dab892c175801787b9d57129b2e66933", "type": "electric_scooter", "is_reserved": 0, "lon": -77.03208933333333}, {"fusion_lat": 0.0, "name": "aec6060533e2f638d852e71ecf226f88", "is_disabled": 0, "rental_uris": {"android": "https://dc.lft.to/lastmile_qr_scan", "ios": "https://dc.lft.to/lastmile_qr_scan"}, "fusion_lon": 0.0, "lat": 38.9207445, "bike_id": "aec6060533e2f638d852e71ecf226f88", "type": "electric_scooter", "is_reserved": 0, "lon": -77.0231685}, {"fusion_lat": 0.0, "name": "602fa00fc6667580df7e4c795bf6a91a", "is_disabled": 0, "rental_uris": {"android": "https://dc.lft.to/lastmile_qr_scan", "ios": "https://dc.lft.to/lastmile_qr_scan"}, "fusion_lon": 0.0, "lat": 38.91344766666667, "bike_id": "602fa00fc6667580df7e4c795bf6a91a", "type": "electric_bike", "is_reserved": 0, "lon": -76.98900083333334}, {"fusion_lat": 0.0, "name": "15a9e69e33e9b71414a6188245b4358c", "is_disabled": 0, "rental_uris": {"android": "https://dc.lft.to/lastmile_qr_scan", "ios": "https://dc.lft.to/lastmile_qr_scan"}, "fusion_lon": 0.0, "lat": 38.919786333333334, "bike_id": "15a9e69e33e9b71414a6188245b4358c", "type": "electric_scooter", "is_reserved": 0, "lon": -77.04089866666666}, {"fusion_lat": 0.0, "name": "6f59c211669546621f29f69fe36633bf", "is_disabled": 0, "rental_uris": {"android": "https://dc.lft.to/lastmile_qr_scan", "ios": "https://dc.lft.to/lastmile_qr_scan"}, "fusion_lon": 0.0, "lat": 38.916718, "bike_id": "6f59c211669546621f29f69fe36633bf", "type": "electric_scooter", "is_reserved": 0, "lon": -77.027225}, {"fusion_lat": 0.0, "name": "9c47bdbc5cb3ddd64154605c72b34233", "is_disabled": 0, "rental_uris": {"android": "https://dc.lft.to/lastmile_qr_scan", "ios": "https://dc.lft.to/lastmile_qr_scan"}, "fusion_lon": 0.0, "lat": 38.89220133333333, "bike_id": "9c47bdbc5cb3ddd64154605c72b34233", "type": "electric_scooter", "is_reserved": 0, "lon": -77.02221366666667}, {"fusion_lat": 0.0, "name": "c4db171908e312bdedbf41675f96a42a", "is_disabled": 0, "rental_uris": {"android": "https://dc.lft.to/lastmile_qr_scan", "ios": "https://dc.lft.to/lastmile_qr_scan"},