{"data": {"bikes": [{"name": "cc54ac0fc548c15a04ae96e68b596f31", "is_reserved": 0, "is_disabled": 0, "lon": -77.0287175, "rental_uris": {"android": "https://dc.lft.to/lastmile_qr_scan", "ios": "https://dc.lft.to/lastmile_qr_scan"}, "fusion_lon": 0.0, "lat": 38.932825, "type": "electric_scooter", "fusion_lat": 0.0, "bike_id": "cc54ac0fc548c15a04ae96e68b596f31"}, {"name": "15610439295c6501b2ff4300edc5d4a5", "is_reserved": 0, "is_disabled": 0, "lon": -77.0028885, "rental_uris": {"android": "https://dc.lft.to/lastmile_qr_scan", "ios": "https://dc.lft.to/lastmile_qr_scan"}, "fusion_lon": 0.0, "lat": 38.905969666666664, "type": "electric_scooter", "fusion_lat": 0.0, "bike_id": "15610439295c6501b2ff4300edc5d4a5"}, {"name": "48b6902baa8f39a9902bc31556ca9125", "is_reserved": 0, "is_disabled": 0, "lon": -77.0779225, "rental_uris": {"android": "https://dc.lft.to/lastmile_qr_scan", "ios": "https://dc.lft.to/lastmile_qr_scan"}, "fusion_lon": 0.0, "lat": 38.84515366666667, "type": "electric_bike", "fusion_lat": 0.0, "bike_id": "48b6902baa8f39a9902bc31556ca9125"}, {"name": "b673a36da789aa83dade9b9b72eee9c2", "is_reserved": 0, "is_disabled": 0, "lon": -77.034348, "rental_uris": {"android": "https://dc.lft.to/lastmile_qr_scan", "ios": "https://dc.lft.to/lastmile_qr_scan"}, "fusion_lon": 0.0, "lat": 38.91707916666667, "type": "electric_scooter", "fusion_lat": 0.0, "bike_id": "b673a36da789aa83dade9b9b72eee9c2"}, {"name": "2dabeeac270faf178800b98ded34a00f", "is_reserved": 0, "is_disabled": 0, "lon": -76.942858, "rental_uris": {"android": "https://dc.lft.to/lastmile_qr_scan", "ios": "https://dc.lft.to/lastmile_qr_scan"}, "fusion_lon": 0.0, "lat": 38.883047, "type": "electric_scooter", "fusion_lat": 0.0, "bike_id": "2dabeeac270faf178800b98ded34a00f"}, {"name": "a9d1264bd6ccd4d3fd77a5eb94836b6e", "is_reserved": 0, "is_disabled": 0, "lon": -77.03294266666667, "rental_uris": {"android": "https://dc.lft.to/lastmile_qr_scan", "ios": "https://dc.lft.to/lastmile_qr_scan"}, "fusion_lon": 0.0, "lat": 38.930329, "type": "electric_scooter", "fusion_lat": 0.0, "bike_id": "a9d1264bd6ccd4d3fd77a5eb94836b6e"}, {"name": "bbb3760d6074b89b5ad90ef66da5948e", "is_reserved": 0, "is_disabled": 0, "lon": -76.98335316666666, "rental_uris": {"android": "https://dc.lft.to/lastmile_qr_scan", "ios": "https://dc.lft.to/lastmile_qr_scan"}, "fusion_lon": 0.0, "lat": 38.862548833333335, "type": "electric_scooter", "fusion_lat": 0.0, "bike_id": "bbb3760d6074b89b5ad90ef66da5948e"}, {"name": "5a6ef8e2344805a6b1b311c92d1e9775", "is_reserved": 0, "is_disabled": 0, "lon": -77.02510266666667, "rental_uris": {"android": "https://dc.lft.to/lastmile_qr_scan", "ios": "https://dc.lft.to/lastmile_qr_scan"}, "fusion_lon": 0.0, "lat": 38.9341655, "type": "electric_bike", "fusion_lat": 0.0, "bike_id": "5a6ef8e2344805a6b1b311c92d1e9775"}, {"name": "2b2c7cad105ce99e2eeb0235644f8b23", "is_reserved": 0, "is_disabled": 0, "lon": -76.94871666666667, "rental_uris": {"android": "https://dc.lft.to/lastmile_qr_scan", "ios": "https://dc.lft.to/lastmile_qr_scan"}, "fusion_lon": 0.0, "lat": 38.895734833333336, "type": "electric_scooter", "fusion_lat": 0.0, "bike_id": "2b2c7cad105ce99e2eeb0235644f8b23"}, {"name": "6395f6275706559fe4d98d282ba6d28d", "is_reserved": 0, "is_disabled": 0, "lon": -76.93435083333334, "rental_uris": {"android": "https://dc.lft.to/lastmile_qr_scan", "ios": "https://dc.lft.to/lastmile_qr_scan"}, "fusion_lon": 0.0, "lat": 38.8996675, "type": "electric_scooter", "fusion_lat": 0.0, "bike_id": "6395f6275706559fe4d98d282ba6d28d"}, {"name": "4aada977d0e4283af08440c362fe72dd", "is_reserved": 0, "is_disabled": 0, "lon": -77.03705433333333, "rental_uris": {"android": "https://dc.lft.to/lastmile_qr_scan", "ios": "https://dc.lft.to/lastmile_qr_scan"}, "fusion_lon": 0.0, "lat": 38.9264695, "type": "electric_scooter", "fusion_lat": 0.0, "bike_id": "4aada977d0e4283af08440c362fe72dd"}, {"name": "f41d4f3635c12835211301b229ebde7d", "is_reserved": 0, "is_disabled": 0, "lon": -77.02279383333334, "rental_uris": {"android": "https://dc.lft.to/lastmile_qr_scan", "ios": "https://dc.lft.to/lastmile_qr_scan"}, "fusion_lon": 0.0, "lat": 38.916922666666665, "type": "electric_scooter", "fusion_lat": 0.0, "bike_id": "f41d4f3635c12835211301b229ebde7d"}, {"name": "cba7078491d55885f8235b49d145a2f2", "is_reserved": 0, "is_disabled": 0, "lon": -77.05325533333334, "rental_uris": {"android": "https://dc.lft.to/lastmile_qr_scan", "ios": "https://dc.lft.to/lastmile_qr_scan"}, "fusion_lon": 0.0, "lat": 38.927690166666665, "type": "electric_scooter", "fusion_lat": 0.0, "bike_id": "cba7078491d55885f8235b49d145a2f2"}, {"name": "8b221f50267e2e283eb75cdae5f88274", "is_reserved": 0, "is_disabled": 0, "lon": -76.9900335, "rental_uris": {"android": "https://dc.lft.to/lastmile_qr_scan", "ios": "https://dc.lft.to/lastmile_qr_scan"}, "fusion_lon": 0.0, "lat": 38.8650765, "type": "electric_scooter", "fusion_lat": 0.0, "bike_id": "8b221f50267e2e283eb75cdae5f88274"}, {"name": "80c86a4d5f471f694f09de76b59c998e", "is_reserved": 0, "is_disabled": 0, "lon": -77.02231383333333, "rental_uris": {"android": "https://dc.lft.to/lastmile_qr_scan", "ios": "https://dc.lft.to/lastmile_qr_scan"}, "fusion_lon": 0.0, "lat": 38.88768433333333, "type": "electric_scooter", "fusion_lat": 0.0, "bike_id": "80c86a4d5f471f694f09de76b59c998e"}, {"name": "3c862badcdb2f4db1a9119525acb4a89", "is_reserved": 0, "is_disabled": 0, "lon": -77.028583, "rental_uris": {"android": "https://dc.lft.to/lastmile_qr_scan", "ios": "https://dc.lft.to/lastmile_qr_scan"}, "fusion_lon": 0.0, "lat": 38.92228083333333, "type": "electric_scooter", "fusion_lat": 0.0, "bike_id": "3c862badcdb2f4db1a9119525acb4a89"}, {"name": "cef844594a233baa6280013afec01847", "is_reserved": 0, "is_disabled": 0, "lon": -77.0319955, "rental_uris": {"android": "https://dc.lft.to/lastmile_qr_scan", "ios": "https://dc.lft.to/lastmile_qr_scan"}, "fusion_lon": 0.0, "lat": 38.9076855, "type": "electric_scooter", "fusion_lat": 0.0, "bike_id": "cef844594a233baa6280013afec01847"}, {"name": "030a3342bf314d797685f736f4dcc903", "is_reserved": 0, "is_disabled": 0, "lon": -77.0799595, "rental_uris": {"android": "https://dc.lft.to/lastmile_qr_scan", "ios": "https://dc.lft.to/lastmile_qr_scan"}, "fusion_lon": 0.0, "lat": 38.923747, "type": "electric_scooter", "fusion_lat": 0.0, "bike_id": "030a3342bf314d797685f736f4dcc903"}, {"name": "980357bfd9634dac5f19f789793a83db", "is_reserved": 0, "is_disabled": 0, "lon": -76.97333533333334, "rental_uris": {"android": "https://dc.lft.to/lastmile_qr_scan", "ios": "https://dc.lft.to/lastmile_qr_scan"}, "fusion_lon": 0.0, "lat": 38.8506415, "type": "electric_bike", "fusion_lat": 0.0, "bike_id": "980357bfd9634dac5f19f789793a83db"}, {"name": "bea5f599f0177f4972842087bba4b1dc", "is_reserved": 0, "is_disabled": 0, "lon": -77.02444216666666, "rental_uris": {"android": "https://dc.lft.to/lastmile_qr_scan", "ios": "https://dc.lft.to/lastmile_qr_scan"}, "fusion_lon": 0.0, "lat": 38.923784, "type": "electric_scooter", "fusion_lat": 0.0, "bike_id": "bea5f599f0177f4972842087bba4b1dc"}, {"name": "c668d2ee3a82371d7f9c73c9e1891ada", "is_reserved": 0, "is_disabled": 0, "lon": -77.03961233333334, "rental_uris": {"android": "https://dc.lft.to/lastmile_qr_scan", "ios": "https://dc.lft.to/lastmile_qr_scan"}, "fusion_lon": 0.0, "lat": 38.90617833333334, "type": "electric_scooter", "fusion_lat": 0.0, "bike_id": "c668d2ee3a82371d7f9c73c9e1891ada"}, {"name": "eeadcadf3ee644fcfe7358e190a66797", "is_reserved": 0, "is_disabled": 0, "lon": -77.00856183333333, "rental_uris": {"android": "https://dc.lft.to/lastmile_qr_scan", "ios": "https://dc.lft.to/lastmile_qr_scan"}, "fusion_lon": 0.0, "lat": 38.9063775, "type": "electric_scooter", "fusion_lat": 0.0, "bike_id": "eeadcadf3ee644fcfe7358e190a66797"}, {"name": "047ab91b7b3fc123cad171ea5c182462", "is_reserved": 0, "is_disabled": 0, "lon": -76.99480066666666, "rental_uris": {"android": "https://dc.lft.to/lastmile_qr_scan", "ios": "https://dc.lft.to/lastmile_qr_scan"}, "fusion_lon": 0.0, "lat": 38.8621585, "type": "electric_scooter", "fusion_lat": 0.0, "bike_id": "047ab91b7b3fc123cad171ea5c182462"}, {"name": "ad611e1ad6bf72d6c385756f8305e5ab", "is_reserved": 0, "is_disabled": 0, "lon": -77.0467045, "rental_uris": {"android": "https://dc.lft.to/lastmile_qr_scan", "ios": "https://dc.lft.to/lastmile_qr_scan"}, "fusion_lon": 0.0, "lat": 38.90369466666667, "type": "electric_scooter", "fusion_lat": 0.0, "bike_id": "ad611e1ad6bf72d6c385756f8305e5ab"}, {"name": "3a94cc5e855e654b49bd4fd953cbb61b", "is_reserved": 0, "is_disabled": 0, "lon": -77.02166, "rental_uris": {"android": "https://dc.lft.to/lastmile_qr_scan", "ios": "https://dc.lft.to/lastmile_qr_scan"}, "fusion_lon": 0.0, "lat": 38.88744883333333, "type": "electric_scooter", "fusion_lat": 0.0, "bike_id": "3a94cc5e855e654b49bd4fd953cbb61b"}, {"name": "869066a244daf7417edd451de013d8a5", "is_reserved": 0, "is_disabled": 0, "lon": -77.03339716666666, "rental_uris": {"android": "https://dc.lft.to/lastmile_qr_scan", "ios": "https://dc.lft.to/lastmile_qr_scan"}, "fusion_lon": 0.0, "lat": 38.91921333333333, "type": "electric_scooter", "fusion_lat": 0.0, "bike_id": "869066a244daf7417edd451de013d8a5"}, {"name": "4107757fe4cccfc98e6424ee49e1682f", "is_reserved": 0, "is_disabled": 0, "lon": -77.019613, "rental_uris": {"android": "https://dc.lft.to/lastmile_qr_scan", "ios": "https://dc.lft.to/lastmile_qr_scan"}, "fusion_lon": 0.0, "lat": 38.93581566666667, "type": "electric_scooter", "fusion_lat": 0.0, "bike_id": "4107757fe4cccfc98e6424ee49e1682f"}, {"name": "71a901e789023948a31c93736d97cb93", "is_reserved": 0, "is_disabled": 0, "lon": -77.0403525, "rental_uris": {"android": "https://dc.lft.to/lastmile_qr_scan", "ios": "https://dc.lft.to/lastmile_qr_scan"}, "fusion_lon": 0.0, "lat": 38.90398033333334, "type": "electric_scooter", "fusion_lat": 0.0, "bike_id": "71a901e789023948a31c93736d97cb93"}, {"name": "568e65eeee7101fca69b1d398db2d38b", "is_reserved": 0, "is_disabled": 0, "lon": -77.040665, "rental_uris": {"android": "https://dc.lft.to/lastmile_qr_scan", "ios": "https://dc.lft.to/lastmile_qr_scan"}, "fusion_lon": 0.0, "lat": 38.899043166666665, "type": "electric_scooter", "fusion_lat": 0.0, "bike_id": "568e65eeee7101fca69b1d398db2d38b"}, {"name": "c52cbc57bb83796341351a9788f724b6", "is_reserved": 0, "is_disabled": 0, "lon": -77.03338566666666, "rental_uris": {"android": "https://dc.lft.to/lastmile_qr_scan", "ios": "https://dc.lft.to/lastmile_qr_scan"}, "fusion_lon": 0.0, "lat": 38.919188, "type": "electric_scooter", "fusion_lat": 0.0, "bike_id": "c52cbc57bb83796341351a9788f724b6"}, {"name": "06aab743691d0cb19a818da03db0645d", "is_reserved": 0, "is_disabled": 0, "lon": -77.04104833333334, "rental_uris": {"android": "https://dc.lft.to/lastmile_qr_scan", "ios": "https://dc.lft.to/lastmile_qr_scan"}, "fusion_lon": 0.0, "lat": 38.922200833333335, "type": "electric_scooter", "fusion_lat": 0.0, "bike_id": "06aab743691d0cb19a818da03db0645d"}, {"name": "2330f9a2be0077f475c3ef8a60f051f9", "is_reserved": 0, "is_disabled": 0, "lon": -77.0464715, "rental_uris": {"android": "https://dc.lft.to/lastmile_qr_scan", "ios": "https://dc.lft.to/lastmile_qr_scan"}, "fusion_lon": 0.0, "lat": 38.905028333333334, "type": "electric_scooter", "fusion_lat": 0.0, "bike_id": "2330f9a2be0077f475c3ef8a60f051f9"}, {"name": "91396d105457e9312b36279c619f39ac", "is_reserved": 0, "is_disabled": 0, "lon": -76.9827855, "rental_uris": {"android": "https://dc.lft.to/lastmile_qr_scan", "ios": "https://dc.lft.to/lastmile_qr_scan"}, "fusion_lon": 0.0, "lat": 38.91560533333333, "type": "electric_scooter", "fusion_lat": 0.0, "bike_id": "91396d105457e9312b36279c619f39ac"}, {"name": "9693f08d8cbe4331003a835860ea3549", "is_reserved": 0, "is_disabled": 0, "lon": -77.0349935, "rental_uris": {"android": "https://dc.lft.to/lastmile_qr_scan", "ios": "https://dc.lft.to/lastmile_qr_scan"}, "fusion_lon": 0.0, "lat": 38.9327425, "type": "electric_scooter", "fusion_lat": 0.0, "bike_id": "9693f08d8cbe4331003a835860ea3549"}, {"name": "fe31532a752ccbe9c145d553b5804676", "is_reserved": 0, "is_disabled": 0, "lon": -77.02588466666667, "rental_uris": {"android": "https://dc.lft.to/lastmile_qr_scan", "ios": "https://dc.lft.to/lastmile_qr_scan"}, "fusion_lon": 0.0, "lat": 38.912787333333334, "type": "electric_scooter", "fusion_lat": 0.0, "bike_id": "fe31532a752ccbe9c145d553b5804676"}, {"name": "7865fc3a8d97986c75e8810777a31ad0", "is_reserved": 0, "is_disabled": 0, "lon": -77.02158933333334, "rental_uris": {"android": "https://dc.lft.to/lastmile_qr_scan", "ios": "https://dc.lft.to/lastmile_qr_scan"}, "fusion_lon": 0.0, "lat": 38.926034666666666, "type": "electric_scooter", "fusion_lat": 0.0, "bike_id": "7865fc3a8d97986c75e8810777a31ad0"}, {"name": "c64a589f18c2d8eb9fe90fc787aa6960", "is_reserved": 0, "is_disabled": 0, "lon": -77.10185116666666, "rental_uris": {"android": "https://dc.lft.to/lastmile_qr_scan", "ios": "https://dc.lft.to/lastmile_qr_scan"}, "fusion_lon": 0.0, "lat": 38.918161, "type": "electric_bike", "fusion_lat": 0.0, "bike_id": "c64a589f18c2d8eb9fe90fc787aa6960"}, {"name": "334b0588dbe427090297cc02e5d6116f", "is_reserved": 0, "is_disabled": 0, "lon": -76.98123983333333, "rental_uris": {"android": "https://dc.lft.to/lastmile_qr_scan", "ios": "https://dc.lft.to/lastmile_qr_scan"}, "fusion_lon": 0.0, "lat": 38.89669266666667, "type": "electric_bike", "fusion_lat": 0.0, "bike_id": "334b0588dbe427090297cc02e5d6116f"}, {"name": "efb838357b40e60d55c08f207e6b39cc", "is_reserved": 0, "is_disabled": 0, "lon": -77.02795566666667, "rental_uris": {"android": "https://dc.lft.to/lastmile_qr_scan", "ios": "https://dc.lft.to/lastmile_qr_scan"}, "fusion_lon": 0.0, "lat": 38.930811, "type": "electric_scooter", "fusion_lat": 0.0, "bike_id": "efb838357b40e60d55c08f207e6b39cc"}, {"name": "a0645553f36c8386dc31a5bfc33c2a4f", "is_reserved": 0, "is_disabled": 0, "lon": -77.03995983333333, "rental_uris": {"android": "https://dc.lft.to/lastmile_qr_scan", "ios": "https://dc.lft.to/lastmile_qr_scan"}, "fusion_lon": 0.0, "lat": 38.906028666666664, "type": "electric_scooter", "fusion_lat": 0.0, "bike_id": "a0645553f36c8386dc31a5bfc33c2a4f"}, {"name": "31d330dbcffe957c68e531556781dc16", "is_reserved": 0, "is_disabled": 0, "lon": -76.93728783333333, "rental_uris": {"android": "https://dc.lft.to/lastmile_qr_scan", "ios": "https://dc.lft.to/lastmile_qr_scan"}, "fusion_lon": 0.0, "lat": 38.890998, "type": "electric_scooter", "fusion_lat": 0.0, "bike_id": "31d330dbcffe957c68e531556781dc16"}, {"name": "a29167ca5260f28099f5af4c998f3107", "is_reserved": 0, "is_disabled": 0, "lon": -77.04371383333333, "rental_uris": {"android": "https://dc.lft.to/lastmile_qr_scan", "ios": "https://dc.lft.to/lastmile_qr_scan"}, "fusion_lon": 0.0, "lat": 38.92092533333334, "type": "electric_scooter", "fusion_lat": 0.0, "bike_id": "a29167ca5260f28099f5af4c998f3107"}, {"name": "6aa878f06b63670b0a1cb579b53640a6", "is_reserved": 0, "is_disabled": 0, "lon": -76.99618333333333, "rental_uris": {"android": "https://dc.lft.to/lastmile_qr_scan", "ios": "https://dc.lft.to/lastmile_qr_scan"}, "fusion_lon": 0.0, "lat": 38.886123166666664, "type": "electric_scooter", "fusion_lat": 0.0, "bike_id": "6aa878f06b63670b0a1cb579b53640a6"}, {"name": "bcc091db1f2d7c599ff12c270f2213bc", "is_reserved": 0, "is_disabled": 0, "lon": -77.05600466666667, "rental_uris": {"android": "https://dc.lft.to/lastmile_qr_scan", "ios": "https://dc.lft.to/lastmile_qr_scan"}, "fusion_lon": 0.0, "lat": 38.93699133333333, "type": "electric_scooter", "fusion_lat": 0.0, "bike_id": "bcc091db1f2d7c599ff12c270f2213bc"}, {"name": "aa9aa10ff7528bd735a25544e3ded7a5", "is_reserved": 0, "is_disabled": 0, "lon": -77.11222066666667, "rental_uris": {"android": "https://dc.lft.to/lastmile_qr_scan", "ios": "https://dc.lft.to/lastmile_qr_scan"}, "fusion_lon": 0.0, "lat": 38.81227116666667, "type": "electric_bike", "fusion_lat": 0.0, "bike_id": "aa9aa10ff7528bd735a25544e3ded7a5"}, {"name": "f73a99fab890a359101b5f98a16a3827", "is_reserved": 0, "is_disabled": 0, "lon": -76.9832745, "rental_uris": {"android": "https://dc.lft.to/lastmile_qr_scan", "ios": "https://dc.lft.to/lastmile_qr_scan"}, "fusion_lon": 0.0, "lat": 38.966030833333335, "type": "electric_bike", "fusion_lat": 0.0, "bike_id": "f73a99fab890a359101b5f98a16a3827"}, {"name": "8552e0cd585a5371de798052a694da4a", "is_reserved": 0, "is_disabled": 0, "lon": -77.00369916666666, "rental_uris": {"android": "https://dc.lft.to/lastmile_qr_scan", "ios": "https://dc.lft.to/lastmile_qr_scan"}, "fusion_lon": 0.0, "lat": 38.89340116666666, "type": "electric_scooter", "fusion_lat": 0.0, "bike_id": "8552e0cd585a5371de798052a694da4a"}, {"name": "8d61b468cd6abe9ad67c9a181252b1ba", "is_reserved": 0, "is_disabled": 0, "lon": -77.022266, "rental_uris": {"android": "https://dc.lft.to/lastmile_qr_scan", "ios": "https://dc.lft.to/lastmile_qr_scan"}, "fusion_lon": 0.0, "lat": 38.9127105, "type": "electric_scooter", "fusion_lat": 0.0, "bike_id": "8d61b468cd6abe9ad67c9a181252b1ba"}, {"name": "814ab1d61add6daa49198cd85f80c242", "is_reserved": 0, "is_disabled": 0, "lon": -77.03441383333333, "rental_uris": {"android": "https://dc.lft.to/lastmile_qr_scan", "ios": "https://dc.lft.to/lastmile_qr_scan"}, "fusion_lon": 0.0, "lat": 38.916897166666665, "type": "electric_scooter", "fusion_lat": 0.0, "bike_id": "814ab1d61add6daa49198cd85f80c242"}, {"name": "c33663da23bf9a21adc3faca1301f384", "is_reserved": 0, "is_disabled": 0, "lon": -76.98842366666666, "rental_uris": {"android": "https://dc.lft.to/lastmile_qr_scan", "ios": "https://dc.lft.to/lastmile_qr_scan"}, "fusion_lon": 0.0, "lat": 38.84272083333333, "type": "electric_bike", "fusion_lat": 0.0, "bike_id": "c33663da23bf9a21adc3faca1301f384"}, {"name": "4647def94d0cbd066f79fb86aec2f538", "is_reserved": 0, "is_disabled": 0, "lon": -77.02296433333333, "rental_uris": {"android": "https://dc.lft.to/lastmile_qr_scan", "ios": "https://dc.lft.to/lastmile_qr_scan"}, "fusion_lon": 0.0, "lat": 38.93760666666667, "type": "electric_scooter", "fusion_lat": 0.0, "bike_id": "4647def94d0cbd066f79fb86aec2f538"}, {"name": "8d2b634dbfc0d305ded9a0db3c586751", "is_reserved": 0, "is_disabled": 0, "lon": -76.94946866666666, "rental_uris": {"android": "https://dc.lft.to/lastmile_qr_scan", "ios": "https://dc.lft.to/lastmile_qr_scan"}, "fusion_lon": 0.0, "lat": 38.883190166666665, "type": "electric_scooter", "fusion_lat": 0.0, "bike_id": "8d2b634dbfc0d305ded9a0db3c586751"}, {"name": "27e8ddf477e267c214635ba39004a2af", "is_reserved": 0, "is_disabled": 0, "lon": -77.0239115, "rental_uris": {"android": "https://dc.lft.to/lastmile_qr_scan", "ios": "https://dc.lft.to/lastmile_qr_scan"}, "fusion_lon": 0.0, "lat": 38.907417833333334, "type": "electric_scooter", "fusion_lat": 0.0, "bike_id": "27e8ddf477e267c214635ba39004a2af"}, {"name": "0b4f97620635f063bc15381399e72e0c", "is_reserved": 0, "is_disabled": 0, "lon": -77.08935733333334, "rental_uris": {"android": "https://dc.lft.to/lastmile_qr_scan", "ios": "https://dc.lft.to/lastmile_qr_scan"}, "fusion_lon": 0.0, "lat": 38.8409845, "type": "electric_bike", "fusion_lat": 0.0, "bike_id": "0b4f97620635f063bc15381399e72e0c"}, {"name": "ba12879a44c3e547426b92c00d538f76", "is_reserved": 0, "is_disabled": 0, "lon": -77.0300005, "rental_uris": {"android": "https://dc.lft.to/lastmile_qr_scan", "ios": "https://dc.lft.to/lastmile_qr_scan"}, "fusion_lon": 0.0, "lat": 38.924766166666664, "type": "electric_scooter", "fusion_lat": 0.0, "bike_id": "ba12879a44c3e547426b92c00d538f76"}, {"name": "f989ae7768dc5bb6d37a90652a1a1fc1", "is_reserved": 0, "is_disabled": 0, "lon": -76.9477075, "rental_uris": {"android": "https://dc.lft.to/lastmile_qr_scan", "ios": "https://dc.lft.to/lastmile_qr_scan"}, "fusion_lon": 0.0, "lat": 38.89634366666667, "type": "electric_scooter", "fusion_lat": 0.0, "bike_id": "f989ae7768dc5bb6d37a90652a1a1fc1"}, {"name": "150d4fe75af7e7dbaae16c0526d0d66f", "is_reserved": 0, "is_disabled": 0, "lon": -77.032798, "rental_uris": {"android": "https://dc.lft.to/lastmile_qr_scan", "ios": "https://dc.lft.to/lastmile_qr_scan"}, "fusion_lon": 0.0, "lat": 38.956489, "type": "electric_scooter", "fusion_lat": 0.0, "bike_id": "150d4fe75af7e7dbaae16c0526d0d66f"}, {"name": "21191c26a6b0dab67e8a6e9a7fbcab22", "is_reserved": 0, "is_disabled": 0, "lon": -76.9762095, "rental_uris": {"android": "https://dc.lft.to/lastmile_qr_scan", "ios": "https://dc.lft.to/lastmile_qr_scan"}, "fusion_lon": 0.0, "lat": 38.89294433333333, "type": "electric_bike", "fusion_lat": 0.0, "bike_id": "21191c26a6b0dab67e8a6e9a7fbcab22"}, {"name": "ab1b38a76d2db135688e1c0127762a35", "is_reserved": 0, "is_disabled": 0, "lon": -77.004478, "rental_uris": {"android": "https://dc.lft.to/lastmile_qr_scan", "ios": "https://dc.lft.to/lastmile_qr_scan"}, "fusion_lon": 0.0, "lat": 38.907294666666665, "type": "electric_scooter", "fusion_lat": 0.0, "bike_id": "ab1b38a76d2db135688e1c0127762a35"}, {"name": "723d5db05c0675c8d59c2c96aa23d658", "is_reserved": 0, "is_disabled": 0, "lon": -76.99227533333334, "rental_uris": {"android": "https://dc.lft.to/lastmile_qr_scan", "ios": "https://dc.lft.to/lastmile_qr_scan"}, "fusion_lon": 0.0, "lat": 38.898859, "type": "electric_scooter", "fusion_lat": 0.0, "bike_id": "723d5db05c0675c8d59c2c96aa23d658"}, {"name": "e8240bccd09dae78e071612a9672e523", "is_reserved": 0, "is_disabled": 0, "lon": -77.19908483333333, "rental_uris": {"android": "https://dc.lft.to/lastmile_qr_scan", "ios": "https://dc.lft.to/lastmile_qr_scan"}, "fusion_lon": 0.0, "lat": 38.875283, "type": "electric_bike", "fusion_lat": 0.0, "bike_id": "e8240bccd09dae78e071612a9672e523"}, {"name": "6ebe9ce5081410cf51c8680c5cde6cf0", "is_reserved": 0, "is_disabled": 0, "lon": -77.0408775, "rental_uris": {"android": "https://dc.lft.to/lastmile_qr_scan", "ios": "https://dc.lft.to/lastmile_qr_scan"}, "fusion_lon": 0.0, "lat": 38.91121583333333, "type": "electric_scooter", "fusion_lat": 0.0, "bike_id": "6ebe9ce5081410cf51c8680c5cde6cf0"}, {"name": "7ee953b8a468e4fd89702c7ed1da16cf", "is_reserved": 0, "is_disabled": 0, "lon": -77.03816683333334, "rental_uris": {"android": "https://dc.lft.to/lastmile_qr_scan", "ios": "https://dc.lft.to/lastmile_qr_scan"}, "fusion_lon": 0.0, "lat": 38.90381133333333, "type": "electric_scooter", "fusion_lat": 0.0, "bike_id": "7ee953b8a468e4fd89702c7ed1da16cf"}, {"name": "b591ef5236908f8b86042642a810a9eb", "is_reserved": 0, "is_disabled": 0, "lon": -77.02566666666667, "rental_uris": {"android": "https://dc.lft.to/lastmile_qr_scan", "ios": "https://dc.lft.to/lastmile_qr_scan"}, "fusion_lon": 0.0, "lat": 38.894958833333334, "type": "electric_scooter", "fusion_lat": 0.0, "bike_id": "b591ef5236908f8b86042642a810a9eb"}, {"name": "bfb892f7402ef4ac92a058eb563cf5e5", "is_reserved": 0, "is_disabled": 0, "lon": -77.07305866666667, "rental_uris": {"android": "https://dc.lft.to/lastmile_qr_scan", "ios": "https://dc.lft.to/lastmile_qr_scan"}, "fusion_lon": 0.0, "lat": 38.91196983333333, "type": "electric_scooter", "fusion_lat": 0.0, "bike_id": "bfb892f7402ef4ac92a058eb563cf5e5"}, {"name": "2959aff6f912476f1de89e4a55a88d41", "is_reserved": 0, "is_disabled": 0, "lon": -77.04659616666666, "rental_uris": {"android": "https://dc.lft.to/lastmile_qr_scan", "ios": "https://dc.lft.to/lastmile_qr_scan"}, "fusion_lon": 0.0, "lat": 38.90416966666667, "type": "electric_scooter", "fusion_lat": 0.0, "bike_id": "2959aff6f912476f1de89e4a55a88d41"}, {"name": "bfe4183ea4ac0d7e80a1c659ce978466", "is_reserved": 0, "is_disabled": 0, "lon": -77.04091983333333, "rental_uris": {"android": "https://dc.lft.to/lastmile_qr_scan", "ios": "https://dc.lft.to/lastmile_qr_scan"}, "fusion_lon": 0.0, "lat": 38.9240095, "type": "electric_scooter", "fusion_lat": 0.0, "bike_id": "bfe4183ea4ac0d7e80a1c659ce978466"}, {"name": "9bebfbfddb854ba95681d3709f27cfed", "is_reserved": 0, "is_disabled": 0, "lon": -77.01846783333333, "rental_uris": {"android": "https://dc.lft.to/lastmile_qr_scan", "ios": "https://dc.lft.to/lastmile_qr_scan"}, "fusion_lon": 0.0, "lat": 38.903755, "type": "electric_scooter", "fusion_lat": 0.0, "bike_id": "9bebfbfddb854ba95681d3709f27cfed"}, {"name": "a7f131f0dbbb9e4eba75e1d30a56414d", "is_reserved": 0, "is_disabled": 0, "lon": -76.948905, "rental_uris": {"android": "https://dc.lft.to/lastmile_qr_scan", "ios": "https://dc.lft.to/lastmile_qr_scan"}, "fusion_lon": 0.0, "lat": 38.89510466666667, "type": "electric_scooter", "fusion_lat": 0.0, "bike_id": "a7f131f0dbbb9e4eba75e1d30a56414d"}, {"name": "2ab20b7299509bd3a833b8d0b76216d8", "is_reserved": 0, "is_disabled": 0, "lon": -77.0902745, "rental_uris": {"android": "https://dc.lft.to/lastmile_qr_scan", "ios": "https://dc.lft.to/lastmile_qr_scan"}, "fusion_lon": 0.0, "lat": 38.841187833333336, "type": "electric_bike", "fusion_lat": 0.0, "bike_id": "2ab20b7299509bd3a833b8d0b76216d8"}, {"name": "a85892a28c99d30ab3bb80ac922597f3", "is_reserved": 0, "is_disabled": 0, "lon": -77.037288, "rental_uris": {"android": "https://dc.lft.to/lastmile_qr_scan", "ios": "https://dc.lft.to/lastmile_qr_scan"}, "fusion_lon": 0.0, "lat": 38.918194, "type": "electric_scooter", "fusion_lat": 0.0, "bike_id": "a85892a28c99d30ab3bb80ac922597f3"}, {"name": "467e46dbf4ec36bd0b781bbfd20fb4e6", "is_reserved": 0, "is_disabled": 0, "lon": -77.01687316666667, "rental_uris": {"android": "https://dc.lft.to/lastmile_qr_scan", "ios": "https://dc.lft.to/lastmile_qr_scan"}, "fusion_lon": 0.0, "lat": 38.97534066666667, "type": "electric_scooter", "fusion_lat": 0.0, "bike_id": "467e46dbf4ec36bd0b781bbfd20fb4e6"}, {"name": "d327f4ced1ad874f3212f690248c3d42", "is_reserved": 0, "is_disabled": 0, "lon": -77.04424833333333, "rental_uris": {"android": "https://dc.lft.to/lastmile_qr_scan", "ios": "https://dc.lft.to/lastmile_qr_scan"}, "fusion_lon": 0.0, "lat": 38.874356, "type": "electric_scooter", "fusion_lat": 0.0, "bike_id": "d327f4ced1ad874f3212f690248c3d42"}, {"name": "b80f87e472568b66808ce43bb23ba77f", "is_reserved": 0, "is_disabled": 0, "lon": -77.04660066666666, "rental_uris": {"android": "https://dc.lft.to/lastmile_qr_scan", "ios": "https://dc.lft.to/lastmile_qr_scan"}, "fusion_lon": 0.0, "lat": 38.892987166666664, "type": "electric_scooter", "fusion_lat": 0.0, "bike_id": "b80f87e472568b66808ce43bb23ba77f"}, {"name": "aa6d9d7b8f116dbed4dd92554c782f1e", "is_reserved": 0, "is_disabled": 0, "lon": -77.03351766666667, "rental_uris": {"android": "https://dc.lft.to/lastmile_qr_scan", "ios": "https://dc.lft.to/lastmile_qr_scan"}, "fusion_lon": 0.0, "lat": 38.922593166666665, "type": "electric_scooter", "fusion_lat": 0.0, "bike_id": "aa6d9d7b8f116dbed4dd92554c782f1e"}, {"name": "09504e692cff6f779376378ce48fda21", "is_reserved": 0, "is_disabled": 0, "lon": -76.96694383333333, "rental_uris": {"android": "https://dc.lft.to/lastmile_qr_scan", "ios": "https://dc.lft.to/lastmile_qr_scan"}, "fusion_lon": 0.0, "lat": 38.8589695, "type": "electric_scooter", "fusion_lat": 0.0, "bike_id": "09504e692cff6f779376378ce48fda21"}, {"name": "14cbb65502938d52f192bb36db22c484", "is_reserved": 0, "is_disabled": 0, "lon": -77.09160816666666, "rental_uris": {"android": "https://dc.lft.to/lastmile_qr_scan", "ios": "https://dc.lft.to/lastmile_qr_scan"}, "fusion_lon": 0.0, "lat": 38.9676115, "type": "electric_bike", "fusion_lat": 0.0, "bike_id": "14cbb65502938d52f192bb36db22c484"}, {"name": "e7863a57de3925505999200f4aa3c6ed", "is_reserved": 0, "is_disabled": 0, "lon": -77.0368675, "rental_uris": {"android": "https://dc.lft.to/lastmile_qr_scan", "ios": "https://dc.lft.to/lastmile_qr_scan"}, "fusion_lon": 0.0, "lat": 38.92265833333333, "type": "electric_scooter", "fusion_lat": 0.0, "bike_id": "e7863a57de3925505999200f4aa3c6ed"}, {"name": "0531a31b680164911179d023e8235f23", "is_reserved": 0, "is_disabled": 0, "lon": -77.00519933333334, "rental_uris": {"android": "https://dc.lft.to/lastmile_qr_scan", "ios": "https://dc.lft.to/lastmile_qr_scan"}, "fusion_lon": 0.0, "lat": 38.87473683333333, "type": "electric_scooter", "fusion_lat": 0.0, "bike_id": "0531a31b680164911179d023e8235f23"}, {"name": "189f86454147fb041f5763fd022b9cc7", "is_reserved": 0, "is_disabled": 0, "lon": -77.04370166666666, "rental_uris": {"android": "https://dc.lft.to/lastmile_qr_scan", "ios": "https://dc.lft.to/lastmile_qr_scan"}, "fusion_lon": 0.0, "lat": 38.91121783333333, "type": "electric_scooter", "fusion_lat": 0.0, "bike_id": "189f86454147fb041f5763fd022b9cc7"}, {"name": "e55b36d428b788d02dfd81d08f53967d", "is_reserved": 0, "is_disabled": 0, "lon": -77.0105535, "rental_uris": {"android": "https://dc.lft.to/lastmile_qr_scan", "ios": "https://dc.lft.to/lastmile_qr_scan"}, "fusion_lon": 0.0, "lat": 38.9299115, "type": "electric_scooter", "fusion_lat": 0.0, "bike_id": "e55b36d428b788d02dfd81d08f53967d"}, {"name": "3ea2050670bd58892029f628fab59aa3", "is_reserved": 0, "is_disabled": 0, "lon": -76.99607533333334, "rental_uris": {"android": "https://dc.lft.to/lastmile_qr_scan", "ios": "https://dc.lft.to/lastmile_qr_scan"}, "fusion_lon": 0.0, "lat": 38.92617666666666, "type": "electric_scooter", "fusion_lat": 0.0, "bike_id": "3ea2050670bd58892029f628fab59aa3"}, {"name": "34da1e1213b6758ada91b47490c16ed1", "is_reserved": 0, "is_disabled": 0, "lon": -77.06472333333333, "rental_uris": {"android": "https://dc.lft.to/lastmile_qr_scan", "ios": "https://dc.lft.to/lastmile_qr_scan"}, "fusion_lon": 0.0, "lat": 38.97382616666667, "type": "electric_bike", "fusion_lat": 0.0, "bike_id": "34da1e1213b6758ada91b47490c16ed1"}, {"name": "afba4b8d839b001d1a82ca020c717544", "is_reserved": 0, "is_disabled": 0, "lon": -77.010704, "rental_uris": {"android": "https://dc.lft.to/lastmile_qr_scan", "ios": "https://dc.lft.to/lastmile_qr_scan"}, "fusion_lon": 0.0, "lat": 38.871599833333335, "type": "electric_scooter", "fusion_lat": 0.0, "bike_id": "afba4b8d839b001d1a82ca020c717544"}, {"name": "cac4c8f0c081a99b15cefba5d13a5993", "is_reserved": 0, "is_disabled": 0, "lon": -76.98932233333333, "rental_uris": {"android": "https://dc.lft.to/lastmile_qr_scan", "ios": "https://dc.lft.to/lastmile_qr_scan"}, "fusion_lon": 0.0, "lat": 38.928595333333334, "type": "electric_bike", "fusion_lat": 0.0, "bike_id": "cac4c8f0c081a99b15cefba5d13a5993"}, {"name": "7fff44a36c9868e08d25e07a0bfa83ce", "is_reserved": 0, "is_disabled": 0, "lon": -77.03342833333333, "rental_uris": {"android": "https://dc.lft.to/lastmile_qr_scan", "ios": "https://dc.lft.to/lastmile_qr_scan"}, "fusion_lon": 0.0, "lat": 38.90374766666667, "type": "electric_scooter", "fusion_lat": 0.0, "bike_id": "7fff44a36c9868e08d25e07a0bfa83ce"}, {"name": "d2e6d1542290919d08f83e351b695c44", "is_reserved": 0, "is_disabled": 0, "lon": -77.00435816666666, "rental_uris": {"android": "https://dc.lft.to/lastmile_qr_scan", "ios": "https://dc.lft.to/lastmile_qr_scan"}, "fusion_lon": 0.0, "lat": 38.87669433333333, "type": "electric_scooter", "fusion_lat": 0.0, "bike_id": "d2e6d1542290919d08f83e351b695c44"}, {"name": "3d3a885caccb155cec921a0d54a8759c", "is_reserved": 0, "is_disabled": 0, "lon": -77.024583, "rental_uris": {"android": "https://dc.lft.to/lastmile_qr_scan", "ios": "https://dc.lft.to/lastmile_qr_scan"}, "fusion_lon": 0.0, "lat": 38.908491166666664, "type": "electric_scooter", "fusion_lat": 0.0, "bike_id": "3d3a885caccb155cec921a0d54a8759c"}, {"name": "aaabd70281f7433ad78e130fb676a800", "is_reserved": 0, "is_disabled": 0, "lon": -77.0260105, "rental_uris": {"android": "https://dc.lft.to/lastmile_qr_scan", "ios": "https://dc.lft.to/lastmile_qr_scan"}, "fusion_lon": 0.0, "lat": 38.98236033333333, "type": "electric_bike", "fusion_lat": 0.0, "bike_id": "aaabd70281f7433ad78e130fb676a800"}, {"name": "3656a40559c5c5ca46e530e433b0a5b7", "is_reserved": 0, "is_disabled": 0, "lon": -76.990516, "rental_uris": {"android": "https://dc.lft.to/lastmile_qr_scan", "ios": "https://dc.lft.to/lastmile_qr_scan"}, "fusion_lon": 0.0, "lat": 38.863555833333336, "type": "electric_scooter", "fusion_lat": 0.0, "bike_id": "3656a40559c5c5ca46e530e433b0a5b7"}, {"name": "bdc64d063cec1cdb656b8e222d86f917", "is_reserved": 0, "is_disabled": 0, "lon": -77.03819566666667, "rental_uris": {"android": "https://dc.lft.to/lastmile_qr_scan", "ios": "https://dc.lft.to/lastmile_qr_scan"}, "fusion_lon": 0.0, "lat": 38.90391266666666, "type": "electric_scooter", "fusion_lat": 0.0, "bike_id": "bdc64d063cec1cdb656b8e222d86f917"}, {"name": "3ffdbae1cc81ee1d76383c6e49146500", "is_reserved": 0, "is_disabled": 0, "lon": -77.00287983333334, "rental_uris": {"android": "https://dc.lft.to/lastmile_qr_scan", "ios": "https://dc.lft.to/lastmile_qr_scan"}, "fusion_lon": 0.0, "lat": 38.95231916666667, "type": "electric_scooter", "fusion_lat": 0.0, "bike_id": "3ffdbae1cc81ee1d76383c6e49146500"}, {"name": "2032397040eca8df09e5eeac77df2467", "is_reserved": 0, "is_disabled": 0, "lon": -77.034633, "rental_uris": {"android": "https://dc.lft.to/lastmile_qr_scan", "ios": "https://dc.lft.to/lastmile_qr_scan"}, "fusion_lon": 0.0, "lat": 38.9039405, "type": "electric_scooter", "fusion_lat": 0.0, "bike_id": "2032397040eca8df09e5eeac77df2467"}, {"name": "338d89bf3838c997ee902584183b6b6a", "is_reserved": 0, "is_disabled": 0, "lon": -77.00857316666666, "rental_uris": {"android": "https://dc.lft.to/lastmile_qr_scan", "ios": "https://dc.lft.to/lastmile_qr_scan"}, "fusion_lon": 0.0, "lat": 38.876547, "type": "electric_scooter", "fusion_lat": 0.0, "bike_id": "338d89bf3838c997ee902584183b6b6a"}, {"name": "bc8ddce1560d96b69c275d67e293806f", "is_reserved": 0, "is_disabled": 0, "lon": -77.037339, "rental_uris": {"android": "https://dc.lft.to/lastmile_qr_scan", "ios": "https://dc.lft.to/lastmile_qr_scan"}, "fusion_lon": 0.0, "lat": 38.90632516666667, "type": "electric_scooter", "fusion_lat": 0.0, "bike_id": "bc8ddce1560d96b69c275d67e293806f"}, {"name": "33f261239a5a22bf4e4beaad4bccacff", "is_reserved": 0, "is_disabled": 0, "lon": -77.00609466666667, "rental_uris": {"android": "https://dc.lft.to/lastmile_qr_scan", "ios": "https://dc.lft.to/lastmile_qr_scan"}, "fusion_lon": 0.0, "lat": 38.87178483333334, "type": "electric_scooter", "fusion_lat": 0.0, "bike_id": "33f261239a5a22bf4e4beaad4bccacff"}, {"name": "f6a7823482c0a92013dd1dab1332fc9a", "is_reserved": 0, "is_disabled": 0, "lon": -77.03849016666666, "rental_uris": {"android": "https://dc.lft.to/lastmile_qr_scan", "ios": "https://dc.lft.to/lastmile_qr_scan"}, "fusion_lon": 0.0, "lat": 38.915381333333336, "type": "electric_scooter", "fusion_lat": 0.0, "bike_id": "f6a7823482c0a92013dd1dab1332fc9a"}, {"name": "69df599e8e231c4d08b93b4a7fb0e077", "is_reserved": 0, "is_disabled": 0, "lon": -77.063595, "rental_uris": {"android": "https://dc.lft.to/lastmile_qr_scan", "ios": "https://dc.lft.to/lastmile_qr_scan"}, "fusion_lon": 0.0, "lat": 38.94448283333333, "type": "electric_scooter", "fusion_lat": 0.0, "bike_id": "69df599e8e231c4d08b93b4a7fb0e077"}, {"name": "4a9289a08fc4966d3bcf4c37f628c143", "is_reserved": 0, "is_disabled": 0, "lon": -77.03719633333333, "rental_uris": {"android": "https://dc.lft.to/lastmile_qr_scan", "ios": "https://dc.lft.to/lastmile_qr_scan"}, "fusion_lon": 0.0, "lat": 38.9180895, "type": "electric_scooter", "fusion_lat": 0.0, "bike_id": "4a9289a08fc4966d3bcf4c37f628c143"}, {"name": "1bea2165ffb602fcc1c86c6b409fd3ea", "is_reserved": 0, "is_disabled": 0, "lon": -77.08616366666666, "rental_uris": {"android": "https://dc.lft.to/lastmile_qr_scan", "ios": "https://dc.lft.to/lastmile_qr_scan"}, "fusion_lon": 0.0, "lat": 38.95873016666667, "type": "electric_scooter", "fusion_lat": 0.0, "bike_id": "1bea2165ffb602fcc1c86c6b409fd3ea"}, {"name": "1f977a6416e980181ed4080bd2d9d54b", "is_reserved": 0, "is_disabled": 0, "lon": -77.01947066666666, "rental_uris": {"android": "https://dc.lft.to/lastmile_qr_scan", "ios": "https://dc.lft.to/lastmile_qr_scan"}, "fusion_lon": 0.0, "lat": 38.909731666666666, "type": "electric_scooter", "fusion_lat": 0.0, "bike_id": "1f977a6416e980181ed4080bd2d9d54b"}, {"name": "0da8212376ef202f7208ce5c3e6a9fca", "is_reserved": 0, "is_disabled": 0, "lon": -77.0189205, "rental_uris": {"android": "https://dc.lft.to/lastmile_qr_scan", "ios": "https://dc.lft.to/lastmile_qr_scan"}, "fusion_lon": 0.0, "lat": 38.87841683333333, "type": "electric_scooter", "fusion_lat": 0.0, "bike_id": "0da8212376ef202f7208ce5c3e6a9fca"}, {"name": "08d5fc9c8d2f56e44ebaba5750cc67f3", "is_reserved": 0, "is_disabled": 0, "lon": -77.03055133333334, "rental_uris": {"android": "https://dc.lft.to/lastmile_qr_scan", "ios": "https://dc.lft.to/lastmile_qr_scan"}, "fusion_lon": 0.0, "lat": 38.909549, "type": "electric_scooter", "fusion_lat": 0.0, "bike_id": "08d5fc9c8d2f56e44ebaba5750cc67f3"}, {"name": "d676e13662f45e617084dcfa5c6875d8", "is_reserved": 0, "is_disabled": 0, "lon": -77.04297166666667, "rental_uris": {"android": "https://dc.lft.to/lastmile_qr_scan", "ios": "https://dc.lft.to/lastmile_qr_scan"}, "fusion_lon": 0.0, "lat": 38.91792816666667, "type": "electric_scooter", "fusion_lat": 0.0, "bike_id": "d676e13662f45e617084dcfa5c6875d8"}, {"name": "559c3ec102d6f21b36ed86e227223586", "is_reserved": 0, "is_disabled": 0, "lon": -77.038223, "rental_uris": {"android": "https://dc.lft.to/lastmile_qr_scan", "ios": "https://dc.lft.to/lastmile_qr_scan"}, "fusion_lon": 0.0, "lat": 38.9168935, "type": "electric_scooter", "fusion_lat": 0.0, "bike_id": "559c3ec102d6f21b36ed86e227223586"}, {"name": "3adf440aa363433fbac73d413f2a724f", "is_reserved": 0, "is_disabled": 0, "lon": -77.03328433333333, "rental_uris": {"android": "https://dc.lft.to/lastmile_qr_scan", "ios": "https://dc.lft.to/lastmile_qr_scan"}, "fusion_lon": 0.0, "lat": 38.917063166666665, "type": "electric_scooter", "fusion_lat": 0.0, "bike_id": "3adf440aa363433fbac73d413f2a724f"}, {"name": "0699de9ebefbb9e02ed88330eed340e5", "is_reserved": 0, "is_disabled": 0, "lon": -76.99963, "rental_uris": {"android": "https://dc.lft.to/lastmile_qr_scan", "ios": "https://dc.lft.to/lastmile_qr_scan"}, "fusion_lon": 0.0, "lat": 38.908703, "type": "electric_scooter", "fusion_lat": 0.0, "bike_id": "0699de9ebefbb9e02ed88330eed340e5"}, {"name": "783b6702d1365e7050ca40faabb29994", "is_reserved": 0, "is_disabled": 0, "lon": -76.96491716666667, "rental_uris": {"android": "https://dc.lft.to/lastmile_qr_scan", "ios": "https://dc.lft.to/lastmile_qr_scan"}, "fusion_lon": 0.0, "lat": 38.875496, "type": "electric_bike", "fusion_lat": 0.0, "bike_id": "783b6702d1365e7050ca40faabb29994"}, {"name": "2bb099ccc91042e89af3f65fc03c4ae5", "is_reserved": 0, "is_disabled": 0, "lon": -77.04396016666666, "rental_uris": {"android": "https://dc.lft.to/lastmile_qr_scan", "ios": "https://dc.lft.to/lastmile_qr_scan"}, "fusion_lon": 0.0, "lat": 38.91110283333333, "type": "electric_scooter", "fusion_lat": 0.0, "bike_id": "2bb099ccc91042e89af3f65fc03c4ae5"}, {"name": "c4182057ada2071067447b8e2a6c43df", "is_reserved": 0, "is_disabled": 0, "lon": -77.02265033333333, "rental_uris": {"android": "https://dc.lft.to/lastmile_qr_scan", "ios": "https://dc.lft.to/lastmile_qr_scan"}, "fusion_lon": 0.0, "lat": 38.901508666666665, "type": "electric_scooter", "fusion_lat": 0.0, "bike_id": "c4182057ada2071067447b8e2a6c43df"}, {"name": "601ca677bfb81f6c6442f5d67463fafc", "is_reserved": 0, "is_disabled": 0, "lon": -77.03184016666667, "rental_uris": {"android": "https://dc.lft.to/lastmile_qr_scan", "ios": "https://dc.lft.to/lastmile_qr_scan"}, "fusion_lon": 0.0, "lat": 38.9642215, "type": "electric_scooter", "fusion_lat": 0.0, "bike_id": "601ca677bfb81f6c6442f5d67463fafc"}, {"name": "e71a58ac8ed137b365680a89d393e16f", "is_reserved": 0, "is_disabled": 0, "lon": -77.003493, "rental_uris": {"android": "https://dc.lft.to/lastmile_qr_scan", "ios": "https://dc.lft.to/lastmile_qr_scan"}, "fusion_lon": 0.0, "lat": 38.9134975, "type": "electric_scooter", "fusion_lat": 0.0, "bike_id": "e71a58ac8ed137b365680a89d393e16f"}, {"name": "8a19fd1bd5f51645a6f08e0a73a31d98", "is_reserved": 0, "is_disabled": 0, "lon": -77.06365316666667, "rental_uris": {"android": "https://dc.lft.to/lastmile_qr_scan", "ios": "https://dc.lft.to/lastmile_qr_scan"}, "fusion_lon": 0.0, "lat": 38.944502, "type": "electric_scooter", "fusion_lat": 0.0, "bike_id": "8a19fd1bd5f51645a6f08e0a73a31d98"}, {"name": "1d149e6ee35c249965c8123272fa1317", "is_reserved": 0, "is_disabled": 0, "lon": -77.02782133333334, "rental_uris": {"android": "https://dc.lft.to/lastmile_qr_scan", "ios": "https://dc.lft.to/lastmile_qr_scan"}, "fusion_lon": 0.0, "lat": 38.89217816666667, "type": "electric_scooter", "fusion_lat": 0.0, "bike_id": "1d149e6ee35c249965c8123272fa1317"}, {"name": "9182e5e4b692dbb42dcf937bc2ac3c49", "is_reserved": 0, "is_disabled": 0, "lon": -77.02554416666666, "rental_uris": {"android": "https://dc.lft.to/lastmile_qr_scan", "ios": "https://dc.lft.to/lastmile_qr_scan"}, "fusion_lon": 0.0, "lat": 38.8973315, "type": "electric_scooter", "fusion_lat": 0.0, "bike_id": "9182e5e4b692dbb42dcf937bc2ac3c49"}, {"name": "8d74f49bc375181e4fea30e9f4b549a4", "is_reserved": 0, "is_disabled": 0, "lon": -77.0201075, "rental_uris": {"android": "https://dc.lft.to/lastmile_qr_scan", "ios": "https://dc.lft.to/lastmile_qr_scan"}, "fusion_lon": 0.0, "lat": 38.924213333333334, "type": "electric_scooter", "fusion_lat": 0.0, "bike_id": "8d74f49bc375181e4fea30e9f4b549a4"}, {"name": "29ba3ee76897d1c4c287a1b64c2cef61", "is_reserved": 0, "is_disabled": 0, "lon": -77.00965033333334, "rental_uris": {"android": "https://dc.lft.to/lastmile_qr_scan", "ios": "https://dc.lft.to/lastmile_qr_scan"}, "fusion_lon": 0.0, "lat": 38.88125, "type": "electric_scooter", "fusion_lat": 0.0, "bike_id": "29ba3ee76897d1c4c287a1b64c2cef61"}, {"name": "77ad155a2a9b810cf20646cd0a203257", "is_reserved": 0, "is_disabled": 0, "lon": -77.00734283333334, "rental_uris": {"android": "https://dc.lft.to/lastmile_qr_scan", "ios": "https://dc.lft.to/lastmile_qr_scan"}, "fusion_lon": 0.0, "lat": 38.876456, "type": "electric_scooter", "fusion_lat": 0.0, "bike_id": "77ad155a2a9b810cf20646cd0a203257"}, {"name": "b60295c1a8ff41ad41165833d18114e4", "is_reserved": 0, "is_disabled": 0, "lon": -77.02538333333334, "rental_uris": {"android": "https://dc.lft.to/lastmile_qr_scan", "ios": "https://dc.lft.to/lastmile_qr_scan"}, "fusion_lon": 0.0, "lat": 38.92397, "type": "electric_scooter", "fusion_lat": 0.0, "bike_id": "b60295c1a8ff41ad41165833d18114e4"}, {"name": "a73949e1ce991493776ac3f26f7588f8", "is_reserved": 0, "is_disabled": 0, "lon": -76.9820445, "rental_uris": {"android": "https://dc.lft.to/lastmile_qr_scan", "ios": "https://dc.lft.to/lastmile_qr_scan"}, "fusion_lon": 0.0, "lat": 38.98500966666667, "type": "electric_bike", "fusion_lat": 0.0, "bike_id": "a73949e1ce991493776ac3f26f7588f8"}, {"name": "a00a0b291ac5793be1eb907393899807", "is_reserved": 0, "is_disabled": 0, "lon": -76.99788783333334, "rental_uris": {"android": "https://dc.lft.to/lastmile_qr_scan", "ios": "https://dc.lft.to/lastmile_qr_scan"}, "fusion_lon": 0.0, "lat": 38.953235666666664, "type": "electric_scooter", "fusion_lat": 0.0, "bike_id": "a00a0b291ac5793be1eb907393899807"}, {"name": "82f200258069bd02433e83cdb5e9c0b5", "is_reserved": 0, "is_disabled": 0, "lon": -77.026865, "rental_uris": {"android": "https://dc.lft.to/lastmile_qr_scan", "ios": "https://dc.lft.to/lastmile_qr_scan"}, "fusion_lon": 0.0, "lat": 38.909704, "type": "electric_scooter", "fusion_lat": 0.0, "bike_id": "82f200258069bd02433e83cdb5e9c0b5"}, {"name": "1dd941adccd309aedcbc23ef913aa924", "is_reserved": 0, "is_disabled": 0, "lon": -77.038642, "rental_uris": {"android": "https://dc.lft.to/lastmile_qr_scan", "ios": "https://dc.lft.to/lastmile_qr_scan"}, "fusion_lon": 0.0, "lat": 38.91807633333333, "type": "electric_scooter", "fusion_lat": 0.0, "bike_id": "1dd941adccd309aedcbc23ef913aa924"}, {"name": "6001ee11060659084fee06f4d59a7fae", "is_reserved": 0, "is_disabled": 0, "lon": -77.03263733333333, "rental_uris": {"android": "https://dc.lft.to/lastmile_qr_scan", "ios": "https://dc.lft.to/lastmile_qr_scan"}, "fusion_lon": 0.0, "lat": 38.932128166666665, "type": "electric_scooter", "fusion_lat": 0.0, "bike_id": "6001ee11060659084fee06f4d59a7fae"}, {"name": "76619a1f4a83f0a15cbecbb17a63342a", "is_reserved": 0, "is_disabled": 0, "lon": -77.043544, "rental_uris": {"android": "https://dc.lft.to/lastmile_qr_scan", "ios": "https://dc.lft.to/lastmile_qr_scan"}, "fusion_lon": 0.0, "lat": 38.923261833333335, "type": "electric_scooter", "fusion_lat": 0.0, "bike_id": "76619a1f4a83f0a15cbecbb17a63342a"}, {"name": "d2ca47d33fd5d777aa95a26e5ce48187", "is_reserved": 0, "is_disabled": 0, "lon": -77.031567, "rental_uris": {"android": "https://dc.lft.to/lastmile_qr_scan", "ios": "https://dc.lft.to/lastmile_qr_scan"}, "fusion_lon": 0.0, "lat": 38.92720683333334, "type": "electric_scooter", "fusion_lat": 0.0, "bike_id": "d2ca47d33fd5d777aa95a26e5ce48187"}, {"name": "4391e566c8e236690c419b442b94c250", "is_reserved": 0, "is_disabled": 0, "lon": -77.02930066666667, "rental_uris": {"android": "https://dc.lft.to/lastmile_qr_scan", "ios": "https://dc.lft.to/lastmile_qr_scan"}, "fusion_lon": 0.0, "lat": 38.882209, "type": "electric_scooter", "fusion_lat": 0.0, "bike_id": "4391e566c8e236690c419b442b94c250"}, {"name": "3ec1729e335137842a53e205fd803a8d", "is_reserved": 0, "is_disabled": 0, "lon": -77.02798216666666, "rental_uris": {"android": "https://dc.lft.to/lastmile_qr_scan", "ios": "https://dc.lft.to/lastmile_qr_scan"}, "fusion_lon": 0.0, "lat": 38.89797683333333, "type": "electric_scooter", "fusion_lat": 0.0, "bike_id": "3ec1729e335137842a53e205fd803a8d"}, {"name": "1bcd312471a8b2a3a434ecb78ac0074b", "is_reserved": 0, "is_disabled": 0, "lon": -77.00921183333334, "rental_uris": {"android": "https://dc.lft.to/lastmile_qr_scan", "ios": "https://dc.lft.to/lastmile_qr_scan"}, "fusion_lon": 0.0, "lat": 38.87635383333333, "type": "electric_scooter", "fusion_lat": 0.0, "bike_id": "1bcd312471a8b2a3a434ecb78ac0074b"}, {"name": "e3d406986624733ee7d740679ea89c32", "is_reserved": 0, "is_disabled": 0, "lon": -76.98460583333333, "rental_uris": {"android": "https://dc.lft.to/lastmile_qr_scan", "ios": "https://dc.lft.to/lastmile_qr_scan"}, "fusion_lon": 0.0, "lat": 38.88011866666667, "type": "electric_scooter", "fusion_lat": 0.0, "bike_id": "e3d406986624733ee7d740679ea89c32"}, {"name": "376980c089baffafc138930308a470eb", "is_reserved": 0, "is_disabled": 0, "lon": -77.02765533333333, "rental_uris": {"android": "https://dc.lft.to/lastmile_qr_scan", "ios": "https://dc.lft.to/lastmile_qr_scan"}, "fusion_lon": 0.0, "lat": 38.89863866666666, "type": "electric_scooter", "fusion_lat": 0.0, "bike_id": "376980c089baffafc138930308a470eb"}, {"name": "485c5dd8c092e2582425dbbb3a95211a", "is_reserved": 0, "is_disabled": 0, "lon": -77.02849316666666, "rental_uris": {"android": "https://dc.lft.to/lastmile_qr_scan", "ios": "https://dc.lft.to/lastmile_qr_scan"}, "fusion_lon": 0.0, "lat": 38.9324465, "type": "electric_scooter", "fusion_lat": 0.0, "bike_id": "485c5dd8c092e2582425dbbb3a95211a"}, {"name": "c89e5a7ea3deb280c4efe0b9f90b6398", "is_reserved": 0, "is_disabled": 0, "lon": -76.981576, "rental_uris": {"android": "https://dc.lft.to/lastmile_qr_scan", "ios": "https://dc.lft.to/lastmile_qr_scan"}, "fusion_lon": 0.0, "lat": 38.9596625, "type": "electric_bike", "fusion_lat": 0.0, "bike_id": "c89e5a7ea3deb280c4efe0b9f90b6398"}, {"name": "fe039d7adffe15882b3ac19d6c3bf81f", "is_reserved": 0, "is_disabled": 0, "lon": -77.03844933333333, "rental_uris": {"android": "https://dc.lft.to/lastmile_qr_scan", "ios": "https://dc.lft.to/lastmile_qr_scan"}, "fusion_lon": 0.0, "lat": 38.909449, "type": "electric_scooter", "fusion_lat": 0.0, "bike_id": "fe039d7adffe15882b3ac19d6c3bf81f"}, {"name": "58f5714c17d492126130eacd582b48ec", "is_reserved": 0, "is_disabled": 0, "lon": -77.012022, "rental_uris": {"android": "https://dc.lft.to/lastmile_qr_scan", "ios": "https://dc.lft.to/lastmile_qr_scan"}, "fusion_lon": 0.0, "lat": 38.8932655, "type": "electric_scooter", "fusion_lat": 0.0, "bike_id": "58f5714c17d492126130eacd582b48ec"}, {"name": "1a8639b624a9204756844db2a3f6a55c", "is_reserved": 0, "is_disabled": 0, "lon": -77.0187, "rental_uris": {"android": "https://dc.lft.to/lastmile_qr_scan", "ios": "https://dc.lft.to/lastmile_qr_scan"}, "fusion_lon": 0.0, "lat": 38.94894466666667, "type": "electric_scooter", "fusion_lat": 0.0, "bike_id": "1a8639b624a9204756844db2a3f6a55c"}, {"name": "fef5a2c5b39b05030861e5d76e881e74", "is_reserved": 0, "is_disabled": 0, "lon": -77.00192916666667, "rental_uris": {"android": "https://dc.lft.to/lastmile_qr_scan", "ios": "https://dc.lft.to/lastmile_qr_scan"}, "fusion_lon": 0.0, "lat": 38.9037925, "type": "electric_scooter", "fusion_lat": 0.0, "bike_id": "fef5a2c5b39b05030861e5d76e881e74"}, {"name": "5d086ba9c10d681b5efec2a23699cc66", "is_reserved": 0, "is_disabled": 0, "lon": -77.04179133333334, "rental_uris": {"android": "https://dc.lft.to/lastmile_qr_scan", "ios": "https://dc.lft.to/lastmile_qr_scan"}, "fusion_lon": 0.0, "lat": 38.914095, "type": "electric_scooter", "fusion_lat": 0.0, "bike_id": "5d086ba9c10d681b5efec2a23699cc66"}, {"name": "2a1cf935df7b86179c88345a7aa75d86", "is_reserved": 0, "is_disabled": 0, "lon": -77.0296005, "rental_uris": {"android": "https://dc.lft.to/lastmile_qr_scan", "ios": "https://dc.lft.to/lastmile_qr_scan"}, "fusion_lon": 0.0, "lat": 38.90254916666667, "type": "electric_scooter", "fusion_lat": 0.0, "bike_id": "2a1cf935df7b86179c88345a7aa75d86"}, {"name": "6c121fb4c3d6e6ee4bd4d1a134d8d411", "is_reserved": 0, "is_disabled": 0, "lon": -77.01388916666667, "rental_uris": {"android": "https://dc.lft.to/lastmile_qr_scan", "ios": "https://dc.lft.to/lastmile_qr_scan"}, "fusion_lon": 0.0, "lat": 38.9285955, "type": "electric_scooter", "fusion_lat": 0.0, "bike_id": "6c121fb4c3d6e6ee4bd4d1a134d8d411"}, {"name": "68648d177cfdb58d560817e4effe9a36", "is_reserved": 0, "is_disabled": 0, "lon": -77.005792, "rental_uris": {"android": "https://dc.lft.to/lastmile_qr_scan", "ios": "https://dc.lft.to/lastmile_qr_scan"}, "fusion_lon": 0.0, "lat": 38.8740515, "type": "electric_bike", "fusion_lat": 0.0, "bike_id": "68648d177cfdb58d560817e4effe9a36"}, {"name": "ac4a51ee160aa1615d0e0f7ff34f97d8", "is_reserved": 0, "is_disabled": 0, "lon": -76.98334383333334, "rental_uris": {"android": "https://dc.lft.to/lastmile_qr_scan", "ios": "https://dc.lft.to/lastmile_qr_scan"}, "fusion_lon": 0.0, "lat": 38.9074865, "type": "electric_scooter", "fusion_lat": 0.0, "bike_id": "ac4a51ee160aa1615d0e0f7ff34f97d8"}, {"name": "92ca10aa34c099786eaca24a34196778", "is_reserved": 0, "is_disabled": 0, "lon": -77.0267045, "rental_uris": {"android": "https://dc.lft.to/lastmile_qr_scan", "ios": "https://dc.lft.to/lastmile_qr_scan"}, "fusion_lon": 0.0, "lat": 38.98166766666667, "type": "electric_scooter", "fusion_lat": 0.0, "bike_id": "92ca10aa34c099786eaca24a34196778"}, {"name": "386162e07d22f5b72fb4f205e0618f56", "is_reserved": 0, "is_disabled": 0, "lon": -77.0091015, "rental_uris": {"android": "https://dc.lft.to/lastmile_qr_scan", "ios": "https://dc.lft.to/lastmile_qr_scan"}, "fusion_lon": 0.0, "lat": 38.912866666666666, "type": "electric_scooter", "fusion_lat": 0.0, "bike_id": "386162e07d22f5b72fb4f205e0618f56"}, {"name": "5238bae616d71d36580aff63136308c4", "is_reserved": 0, "is_disabled": 0, "lon": -77.03841083333333, "rental_uris": {"android": "https://dc.lft.to/lastmile_qr_scan", "ios": "https://dc.lft.to/lastmile_qr_scan"}, "fusion_lon": 0.0, "lat": 38.917313, "type": "electric_scooter", "fusion_lat": 0.0, "bike_id": "5238bae616d71d36580aff63136308c4"}, {"name": "8449a3ce2c1bf03efb3d35cb8f629bc4", "is_reserved": 0, "is_disabled": 0, "lon": -77.01964816666667, "rental_uris": {"android": "https://dc.lft.to/lastmile_qr_scan", "ios": "https://dc.lft.to/lastmile_qr_scan"}, "fusion_lon": 0.0, "lat": 38.90054716666667, "type": "electric_scooter", "fusion_lat": 0.0, "bike_id": "8449a3ce2c1bf03efb3d35cb8f629bc4"}, {"name": "c4454f8b8b8e50765c91f1a3562e0759", "is_reserved": 0, "is_disabled": 0, "lon": -77.03353166666666, "rental_uris": {"android": "https://dc.lft.to/lastmile_qr_scan", "ios": "https://dc.lft.to/lastmile_qr_scan"}, "fusion_lon": 0.0, "lat": 38.8923785, "type": "electric_scooter", "fusion_lat": 0.0, "bike_id": "c4454f8b8b8e50765c91f1a3562e0759"}, {"name": "aeed2ba01d4d196d8cfca79230ce8867", "is_reserved": 0, "is_disabled": 0, "lon": -77.01049416666666, "rental_uris": {"android": "https://dc.lft.to/lastmile_qr_scan", "ios": "https://dc.lft.to/lastmile_qr_scan"}, "fusion_lon": 0.0, "lat": 38.90679433333333, "type": "electric_scooter", "fusion_lat": 0.0, "bike_id": "aeed2ba01d4d196d8cfca79230ce8867"}, {"name": "2448069b8d38a3d35e69f905df8a4abf", "is_reserved": 0, "is_disabled": 0, "lon": -77.04195033333333, "rental_uris": {"android": "https://dc.lft.to/lastmile_qr_scan", "ios": "https://dc.lft.to/lastmile_qr_scan"}, "fusion_lon": 0.0, "lat": 38.89981866666667, "type": "electric_scooter", "fusion_lat": 0.0, "bike_id": "2448069b8d38a3d35e69f905df8a4abf"}, {"name": "72af8f17f3403a7e05396c3104703269", "is_reserved": 0, "is_disabled": 0, "lon": -77.02848416666667, "rental_uris": {"android": "https://dc.lft.to/lastmile_qr_scan", "ios": "https://dc.lft.to/lastmile_qr_scan"}, "fusion_lon": 0.0, "lat": 38.922354166666665, "type": "electric_scooter", "fusion_lat": 0.0, "bike_id": "72af8f17f3403a7e05396c3104703269"}, {"name": "2fec0b84328d7e26f52e5b3a940ec4f7", "is_reserved": 0, "is_disabled": 0, "lon": -77.02423716666667, "rental_uris": {"android": "https://dc.lft.to/lastmile_qr_scan", "ios": "https://dc.lft.to/lastmile_qr_scan"}, "fusion_lon": 0.0, "lat": 38.894428833333336, "type": "electric_scooter", "fusion_lat": 0.0, "bike_id": "2fec0b84328d7e26f52e5b3a940ec4f7"}, {"name": "0d37cb1796590bca20839da42237b609", "is_reserved": 0, "is_disabled": 0, "lon": -77.02430366666667, "rental_uris": {"android": "https://dc.lft.to/lastmile_qr_scan", "ios": "https://dc.lft.to/lastmile_qr_scan"}, "fusion_lon": 0.0, "lat": 38.9275025, "type": "electric_scooter", "fusion_lat": 0.0, "bike_id": "0d37cb1796590bca20839da42237b609"}, {"name": "d1e588afc6175f4c53e3313a767d0e68", "is_reserved": 0, "is_disabled": 0, "lon": -77.004561, "rental_uris": {"android": "https://dc.lft.to/lastmile_qr_scan", "ios": "https://dc.lft.to/lastmile_qr_scan"}, "fusion_lon": 0.0, "lat": 38.9289785, "type": "electric_scooter", "fusion_lat": 0.0, "bike_id": "d1e588afc6175f4c53e3313a767d0e68"}, {"name": "71b71cd8bb70c2ee5c2cb5c59e8d365f", "is_reserved": 0, "is_disabled": 0, "lon": -77.002318, "rental_uris": {"android": "https://dc.lft.to/lastmile_qr_scan", "ios": "https://dc.lft.to/lastmile_qr_scan"}, "fusion_lon": 0.0, "lat": 38.87308766666666, "type": "electric_scooter", "fusion_lat": 0.0, "bike_id": "71b71cd8bb70c2ee5c2cb5c59e8d365f"}, {"name": "0e30bfac2986a4fa45605bc65e6368d6", "is_reserved": 0, "is_disabled": 0, "lon": -77.02146266666666, "rental_uris": {"android": "https://dc.lft.to/lastmile_qr_scan", "ios": "https://dc.lft.to/lastmile_qr_scan"}, "fusion_lon": 0.0, "lat": 38.899745, "type": "electric_scooter", "fusion_lat": 0.0, "bike_id": "0e30bfac2986a4fa45605bc65e6368d6"}, {"name": "c3b7ee687c96ee58852d978ed141fd6b", "is_reserved": 0, "is_disabled": 0, "lon": -77.03831466666666, "rental_uris": {"android": "https://dc.lft.to/lastmile_qr_scan", "ios": "https://dc.lft.to/lastmile_qr_scan"}, "fusion_lon": 0.0, "lat": 38.9038015, "type": "electric_scooter", "fusion_lat": 0.0, "bike_id": "c3b7ee687c96ee58852d978ed141fd6b"}, {"name": "d7a5f11e4819d949fa8143d3e44ab7af", "is_reserved": 0, "is_disabled": 0, "lon": -77.03196633333333, "rental_uris": {"android": "https://dc.lft.to/lastmile_qr_scan", "ios": "https://dc.lft.to/lastmile_qr_scan"}, "fusion_lon": 0.0, "lat": 38.89329816666667, "type": "electric_scooter", "fusion_lat": 0.0, "bike_id": "d7a5f11e4819d949fa8143d3e44ab7af"}, {"name": "650624e20d8a44c6866216ee45cfb222", "is_reserved": 0, "is_disabled": 0, "lon": -77.03945433333334, "rental_uris": {"android": "https://dc.lft.to/lastmile_qr_scan", "ios": "https://dc.lft.to/lastmile_qr_scan"}, "fusion_lon": 0.0, "lat": 38.9043025, "type": "electric_scooter", "fusion_lat": 0.0, "bike_id": "650624e20d8a44c6866216ee45cfb222"}, {"name": "ca72b6a0bc08696a6b88191278779175", "is_reserved": 0, "is_disabled": 0, "lon": -77.09213566666666, "rental_uris": {"android": "https://dc.lft.to/lastmile_qr_scan", "ios": "https://dc.lft.to/lastmile_qr_scan"}, "fusion_lon": 0.0, "lat": 38.917130666666665, "type": "electric_scooter", "fusion_lat": 0.0, "bike_id": "ca72b6a0bc08696a6b88191278779175"}, {"name": "fd53fcd97bc3b67e70545ea5a25931ee", "is_reserved": 0, "is_disabled": 0, "lon": -77.03019833333333, "rental_uris": {"android": "https://dc.lft.to/lastmile_qr_scan", "ios": "https://dc.lft.to/lastmile_qr_scan"}, "fusion_lon": 0.0, "lat": 38.89611633333333, "type": "electric_scooter", "fusion_lat": 0.0, "bike_id": "fd53fcd97bc3b67e70545ea5a25931ee"}, {"name": "5409b6144a1adaf58c5478725bfdceca", "is_reserved": 0, "is_disabled": 0, "lon": -77.01541316666666, "rental_uris": {"android": "https://dc.lft.to/lastmile_qr_scan", "ios": "https://dc.lft.to/lastmile_qr_scan"}, "fusion_lon": 0.0, "lat": 38.902705, "type": "electric_scooter", "fusion_lat": 0.0, "bike_id": "5409b6144a1adaf58c5478725bfdceca"}, {"name": "185ef8dea1285c939e720d3fec79b960", "is_reserved": 0, "is_disabled": 0, "lon": -77.05322766666667, "rental_uris": {"android": "https://dc.lft.to/lastmile_qr_scan", "ios": "https://dc.lft.to/lastmile_qr_scan"}, "fusion_lon": 0.0, "lat": 38.90242683333334, "type": "electric_scooter", "fusion_lat": 0.0, "bike_id": "185ef8dea1285c939e720d3fec79b960"}, {"name": "ce159a4767d8eb77e7541e8899ec6542", "is_reserved": 0, "is_disabled": 0, "lon": -77.01734, "rental_uris": {"android": "https://dc.lft.to/lastmile_qr_scan", "ios": "https://dc.lft.to/lastmile_qr_scan"}, "fusion_lon": 0.0, "lat": 38.94213366666666, "type": "electric_scooter", "fusion_lat": 0.0, "bike_id": "ce159a4767d8eb77e7541e8899ec6542"}, {"name": "edb2f71044c5fa999a51a9a6e55e848f", "is_reserved": 0, "is_disabled": 0, "lon": -77.0076165, "rental_uris": {"android": "https://dc.lft.to/lastmile_qr_scan", "ios": "https://dc.lft.to/lastmile_qr_scan"}, "fusion_lon": 0.0, "lat": 38.915548, "type": "electric_scooter", "fusion_lat": 0.0, "bike_id": "edb2f71044c5fa999a51a9a6e55e848f"}, {"name": "f4618fc78b40110f68c1b78d32b157eb", "is_reserved": 0, "is_disabled": 0, "lon": -77.029634, "rental_uris": {"android": "https://dc.lft.to/lastmile_qr_scan", "ios": "https://dc.lft.to/lastmile_qr_scan"}, "fusion_lon": 0.0, "lat": 38.89234283333333, "type": "electric_scooter", "fusion_lat": 0.0, "bike_id": "f4618fc78b40110f68c1b78d32b157eb"}, {"name": "aa74039f1971e1b5ec3e485b85712dea", "is_reserved": 0, "is_disabled": 0, "lon": -77.03349416666667, "rental_uris": {"android": "https://dc.lft.to/lastmile_qr_scan", "ios": "https://dc.lft.to/lastmile_qr_scan"}, "fusion_lon": 0.0, "lat": 38.922415666666666, "type": "electric_scooter", "fusion_lat": 0.0, "bike_id": "aa74039f1971e1b5ec3e485b85712dea"}, {"name": "3c9465eddfafb0f4d69b4419558492fd", "is_reserved": 0, "is_disabled": 0, "lon": -76.99819816666667, "rental_uris": {"android": "https://dc.lft.to/lastmile_qr_scan", "ios": "https://dc.lft.to/lastmile_qr_scan"}, "fusion_lon": 0.0, "lat": 38.8443535, "type": "electric_scooter", "fusion_lat": 0.0, "bike_id": "3c9465eddfafb0f4d69b4419558492fd"}, {"name": "f9a674a5d99fb4e72cd70e1cc943aac1", "is_reserved": 0, "is_disabled": 0, "lon": -77.12629216666667, "rental_uris": {"android": "https://dc.lft.to/lastmile_qr_scan", "ios": "https://dc.lft.to/lastmile_qr_scan"}, "fusion_lon": 0.0, "lat": 39.058147, "type": "electric_bike", "fusion_lat": 0.0, "bike_id": "f9a674a5d99fb4e72cd70e1cc943aac1"}, {"name": "52051f81833067df0b4c28179b977dd4", "is_reserved": 0, "is_disabled": 0, "lon": -77.05047666666667, "rental_uris": {"android": "https://dc.lft.to/lastmile_qr_scan", "ios": "https://dc.lft.to/lastmile_qr_scan"}, "fusion_lon": 0.0, "lat": 38.923658333333336, "type": "electric_scooter", "fusion_lat": 0.0, "bike_id": "52051f81833067df0b4c28179b977dd4"}, {"name": "87158513246a27516e010977832762b8", "is_reserved": 0, "is_disabled": 0, "lon": -76.97955683333333, "rental_uris": {"android": "https://dc.lft.to/lastmile_qr_scan", "ios": "https://dc.lft.to/lastmile_qr_scan"}, "fusion_lon": 0.0, "lat": 38.952409333333335, "type": "electric_bike", "fusion_lat": 0.0, "bike_id": "87158513246a27516e010977832762b8"}, {"name": "382086ce5e0420a6f2f0258029b71cfc", "is_reserved": 0, "is_disabled": 0, "lon": -76.9874815, "rental_uris": {"android": "https://dc.lft.to/lastmile_qr_scan", "ios": "https://dc.lft.to/lastmile_qr_scan"}, "fusion_lon": 0.0, "lat": 38.857889666666665, "type": "electric_bike", "fusion_lat": 0.0, "bike_id": "382086ce5e0420a6f2f0258029b71cfc"}, {"name": "837bab9fcec65bdc1955c5e8f7dde588", "is_reserved": 0, "is_disabled": 0, "lon": -77.08567433333333, "rental_uris": {"android": "https://dc.lft.to/lastmile_qr_scan", "ios": "https://dc.lft.to/lastmile_qr_scan"}, "fusion_lon": 0.0, "lat": 38.87412233333333, "type": "electric_bike", "fusion_lat": 0.0, "bike_id": "837bab9fcec65bdc1955c5e8f7dde588"}, {"name": "12d28d6bbedf8c7e7ba8cff938c05520", "is_reserved": 0, "is_disabled": 0, "lon": -77.039584, "rental_uris": {"android": "https://dc.lft.to/lastmile_qr_scan", "ios": "https://dc.lft.to/lastmile_qr_scan"}, "fusion_lon": 0.0, "lat": 38.89240383333333, "type": "electric_scooter", "fusion_lat": 0.0, "bike_id": "12d28d6bbedf8c7e7ba8cff938c05520"}, {"name": "f405f40a2b51229bceeebc3009abf469", "is_reserved": 0, "is_disabled": 0, "lon": -77.04390916666667, "rental_uris": {"android": "https://dc.lft.to/lastmile_qr_scan", "ios": "https://dc.lft.to/lastmile_qr_scan"}, "fusion_lon": 0.0, "lat": 38.910388166666664, "type": "electric_scooter", "fusion_lat": 0.0, "bike_id": "f405f40a2b51229bceeebc3009abf469"}, {"name": "c563aef276399c7f88595109148723c8", "is_reserved": 0, "is_disabled": 0, "lon": -77.00572366666667, "rental_uris": {"android": "https://dc.lft.to/lastmile_qr_scan", "ios": "https://dc.lft.to/lastmile_qr_scan"}, "fusion_lon": 0.0, "lat": 38.87657216666667, "type": "electric_scooter", "fusion_lat": 0.0, "bike_id": "c563aef276399c7f88595109148723c8"}, {"name": "8450524ff87dba69e9e88e6f859227f6", "is_reserved": 0, "is_disabled": 0, "lon": -77.06945133333333, "rental_uris": {"android": "https://dc.lft.to/lastmile_qr_scan", "ios": "https://dc.lft.to/lastmile_qr_scan"}, "fusion_lon": 0.0, "lat": 38.99039616666666, "type": "electric_bike", "fusion_lat": 0.0, "bike_id": "8450524ff87dba69e9e88e6f859227f6"}, {"name": "4419e99a588162ef5a50ce681b95a5f7", "is_reserved": 0, "is_disabled": 0, "lon": -77.027053, "rental_uris": {"android": "https://dc.lft.to/lastmile_qr_scan", "ios": "https://dc.lft.to/lastmile_qr_scan"}, "fusion_lon": 0.0, "lat": 38.9032065, "type": "electric_scooter", "fusion_lat": 0.0, "bike_id": "4419e99a588162ef5a50ce681b95a5f7"}, {"name": "71a45df72a7f09cb6a20b1d058498911", "is_reserved": 0, "is_disabled": 0, "lon": -77.00061966666667, "rental_uris": {"android": "https://dc.lft.to/lastmile_qr_scan", "ios": "https://dc.lft.to/lastmile_qr_scan"}, "fusion_lon": 0.0, "lat": 38.90049233333333, "type": "electric_scooter", "fusion_lat": 0.0, "bike_id": "71a45df72a7f09cb6a20b1d058498911"}, {"name": "f7394938b1f52a08b3695722d8cf4c66", "is_reserved": 0, "is_disabled": 0, "lon": -77.04196666666667, "rental_uris": {"android": "https://dc.lft.to/lastmile_qr_scan", "ios": "https://dc.lft.to/lastmile_qr_scan"}, "fusion_lon": 0.0, "lat": 38.90685833333333, "type": "electric_scooter", "fusion_lat": 0.0, "bike_id": "f7394938b1f52a08b3695722d8cf4c66"}, {"name": "02e9efc245c9a0000955227b5a5f922f", "is_reserved": 0, "is_disabled": 0, "lon": -77.00338333333333, "rental_uris": {"android": "https://dc.lft.to/lastmile_qr_scan", "ios": "https://dc.lft.to/lastmile_qr_scan"}, "fusion_lon": 0.0, "lat": 38.892154166666664, "type": "electric_scooter", "fusion_lat": 0.0, "bike_id": "02e9efc245c9a0000955227b5a5f922f"}, {"name": "5763e63c6b9b93b17c5aae106376a90e", "is_reserved": 0, "is_disabled": 0, "lon": -77.0170065, "rental_uris": {"android": "https://dc.lft.to/lastmile_qr_scan", "ios": "https://dc.lft.to/lastmile_qr_scan"}, "fusion_lon": 0.0, "lat": 38.88364083333333, "type": "electric_scooter", "fusion_lat": 0.0, "bike_id": "5763e63c6b9b93b17c5aae106376a90e"}, {"name": "ee8032fe3d56076c01192dfaac6ffaf4", "is_reserved": 0, "is_disabled": 0, "lon": -77.07077766666667, "rental_uris": {"android": "https://dc.lft.to/lastmile_qr_scan", "ios": "https://dc.lft.to/lastmile_qr_scan"}, "fusion_lon": 0.0, "lat": 38.939027333333335, "type": "electric_scooter", "fusion_lat": 0.0, "bike_id": "ee8032fe3d56076c01192dfaac6ffaf4"}, {"name": "f5cb0c33975f9086c4b672ec2ded2490", "is_reserved": 0, "is_disabled": 0, "lon": -77.00711916666667, "rental_uris": {"android": "https://dc.lft.to/lastmile_qr_scan", "ios": "https://dc.lft.to/lastmile_qr_scan"}, "fusion_lon": 0.0, "lat": 38.884904, "type": "electric_scooter", "fusion_lat": 0.0, "bike_id": "f5cb0c33975f9086c4b672ec2ded2490"}, {"name": "6b6de19e55f2869491677b7d1ffdaa98", "is_reserved": 0, "is_disabled": 0, "lon": -76.994911, "rental_uris": {"android": "https://dc.lft.to/lastmile_qr_scan", "ios": "https://dc.lft.to/lastmile_qr_scan"}, "fusion_lon": 0.0, "lat": 38.88575016666667, "type": "electric_scooter", "fusion_lat": 0.0, "bike_id": "6b6de19e55f2869491677b7d1ffdaa98"}, {"name": "36978227be17bc139359abc05e8f93af", "is_reserved": 0, "is_disabled": 0, "lon": -76.99029916666667, "rental_uris": {"android": "https://dc.lft.to/lastmile_qr_scan", "ios": "https://dc.lft.to/lastmile_qr_scan"}, "fusion_lon": 0.0, "lat": 38.86409416666667, "type": "electric_scooter", "fusion_lat": 0.0, "bike_id": "36978227be17bc139359abc05e8f93af"}, {"name": "0424445c5137c7aae2517b28979ae173", "is_reserved": 0, "is_disabled": 0, "lon": -77.03827216666667, "rental_uris": {"android": "https://dc.lft.to/lastmile_qr_scan", "ios": "https://dc.lft.to/lastmile_qr_scan"}, "fusion_lon": 0.0, "lat": 38.90322966666667, "type": "electric_scooter", "fusion_lat": 0.0, "bike_id": "0424445c5137c7aae2517b28979ae173"}, {"name": "dfa9c488391c4e1a7bb00d57bee01ca2", "is_reserved": 0, "is_disabled": 0, "lon": -77.04512333333334, "rental_uris": {"android": "https://dc.lft.to/lastmile_qr_scan", "ios": "https://dc.lft.to/lastmile_qr_scan"}, "fusion_lon": 0.0, "lat": 38.903991166666664, "type": "electric_scooter", "fusion_lat": 0.0, "bike_id": "dfa9c488391c4e1a7bb00d57bee01ca2"}, {"name": "c9abe7d9ae23c68233d9e807c0059cb6", "is_reserved": 0, "is_disabled": 0, "lon": -77.00845116666666, "rental_uris": {"android": "https://dc.lft.to/lastmile_qr_scan", "ios": "https://dc.lft.to/lastmile_qr_scan"}, "fusion_lon": 0.0, "lat": 38.876376, "type": "electric_scooter", "fusion_lat": 0.0, "bike_id": "c9abe7d9ae23c68233d9e807c0059cb6"}, {"name": "92701999ea11e69a3eabac1aad874bf8", "is_reserved": 0, "is_disabled": 0, "lon": -77.02699616666666, "rental_uris": {"android": "https://dc.lft.to/lastmile_qr_scan", "ios": "https://dc.lft.to/lastmile_qr_scan"}, "fusion_lon": 0.0, "lat": 38.917591333333334, "type": "electric_scooter", "fusion_lat": 0.0, "bike_id": "92701999ea11e69a3eabac1aad874bf8"}, {"name": "040f6f28ed577981a86960195abc531f", "is_reserved": 0, "is_disabled": 0, "lon": -76.996126, "rental_uris": {"android": "https://dc.lft.to/lastmile_qr_scan", "ios": "https://dc.lft.to/lastmile_qr_scan"}, "fusion_lon": 0.0, "lat": 38.864642, "type": "electric_scooter", "fusion_lat": 0.0, "bike_id": "040f6f28ed577981a86960195abc531f"}, {"name": "ab53959e67abd9905f4c93b73c6c18cd", "is_reserved": 0, "is_disabled": 0, "lon": -77.013955, "rental_uris": {"android": "https://dc.lft.to/lastmile_qr_scan", "ios": "https://dc.lft.to/lastmile_qr_scan"}, "fusion_lon": 0.0, "lat": 38.88033333333333, "type": "electric_scooter", "fusion_lat": 0.0, "bike_id": "ab53959e67abd9905f4c93b73c6c18cd"}, {"name": "0730be01954c0dd0dc6ab4a7a3d5deb7", "is_reserved": 0, "is_disabled": 0, "lon": -77.10026583333334, "rental_uris": {"android": "https://dc.lft.to/lastmile_qr_scan", "ios": "https://dc.lft.to/lastmile_qr_scan"}, "fusion_lon": 0.0, "lat": 38.990635833333336, "type": "electric_bike", "fusion_lat": 0.0, "bike_id": "0730be01954c0dd0dc6ab4a7a3d5deb7"}, {"name": "61ed533d9c0eb7fea2d2c6544165ebe3", "is_reserved": 0, "is_disabled": 0, "lon": -77.04901066666666, "rental_uris": {"android": "https://dc.lft.to/lastmile_qr_scan", "ios": "https://dc.lft.to/lastmile_qr_scan"}, "fusion_lon": 0.0, "lat": 38.874913666666664, "type": "electric_bike", "fusion_lat": 0.0, "bike_id": "61ed533d9c0eb7fea2d2c6544165ebe3"}, {"name": "d21ff14517f82c6ac11d3b82023e0630", "is_reserved": 0, "is_disabled": 0, "lon": -77.01899883333333, "rental_uris": {"android": "https://dc.lft.to/lastmile_qr_scan", "ios": "https://dc.lft.to/lastmile_qr_scan"}, "fusion_lon": 0.0, "lat": 38.9234535, "type": "electric_scooter", "fusion_lat": 0.0, "bike_id": "d21ff14517f82c6ac11d3b82023e0630"}, {"name": "30507446879a13cb26487fbfc38f9725", "is_reserved": 0, "is_disabled": 0, "lon": -77.0398155, "rental_uris": {"android": "https://dc.lft.to/lastmile_qr_scan", "ios": "https://dc.lft.to/lastmile_qr_scan"}, "fusion_lon": 0.0, "lat": 38.913372333333335, "type": "electric_scooter", "fusion_lat": 0.0, "bike_id": "30507446879a13cb26487fbfc38f9725"}, {"name": "bbdef3ed08a114b8f8c7535e66d4197b", "is_reserved": 0, "is_disabled": 0, "lon": -77.059235, "rental_uris": {"android": "https://dc.lft.to/lastmile_qr_scan", "ios": "https://dc.lft.to/lastmile_qr_scan"}, "fusion_lon": 0.0, "lat": 38.90999816666667, "type": "electric_scooter", "fusion_lat": 0.0, "bike_id": "bbdef3ed08a114b8f8c7535e66d4197b"}, {"name": "f58a9f89607d4d211614a6957b4c27a9", "is_reserved": 0, "is_disabled": 0, "lon": -77.01616216666666, "rental_uris": {"android": "https://dc.lft.to/lastmile_qr_scan", "ios": "https://dc.lft.to/lastmile_qr_scan"}, "fusion_lon": 0.0, "lat": 38.90580533333333, "type": "electric_scooter", "fusion_lat": 0.0, "bike_id": "f58a9f89607d4d211614a6957b4c27a9"}, {"name": "abb49751cd01f5a5e6d17e898263d71e", "is_reserved": 0, "is_disabled": 0, "lon": -77.02805866666667, "rental_uris": {"android": "https://dc.lft.to/lastmile_qr_scan", "ios": "https://dc.lft.to/lastmile_qr_scan"}, "fusion_lon": 0.0, "lat": 38.95096016666667, "type": "electric_scooter", "fusion_lat": 0.0, "bike_id": "abb49751cd01f5a5e6d17e898263d71e"}, {"name": "327b85f5f1e686090832c3b615b3843b", "is_reserved": 0, "is_disabled": 0, "lon": -77.02282916666667, "rental_uris": {"android": "https://dc.lft.to/lastmile_qr_scan", "ios": "https://dc.lft.to/lastmile_qr_scan"}, "fusion_lon": 0.0, "lat": 38.878431166666665, "type": "electric_scooter", "fusion_lat": 0.0, "bike_id": "327b85f5f1e686090832c3b615b3843b"}, {"name": "af8d87d34e42faef880d7223fb391029", "is_reserved": 0, "is_disabled": 0, "lon": -77.01175416666666, "rental_uris": {"android": "https://dc.lft.to/lastmile_qr_scan", "ios": "https://dc.lft.to/lastmile_qr_scan"}, "fusion_lon": 0.0, "lat": 38.897390333333334, "type": "electric_scooter", "fusion_lat": 0.0, "bike_id": "af8d87d34e42faef880d7223fb391029"}, {"name": "1921154919c8dada421ad5258706856d", "is_reserved": 0, "is_disabled": 0, "lon": -77.00927366666667, "rental_uris": {"android": "https://dc.lft.to/lastmile_qr_scan", "ios": "https://dc.lft.to/lastmile_qr_scan"}, "fusion_lon": 0.0, "lat": 38.89886933333333, "type": "electric_scooter", "fusion_lat": 0.0, "bike_id": "1921154919c8dada421ad5258706856d"}, {"name": "b09e2d944484d65ca8b7489f8bd9895b", "is_reserved": 0, "is_disabled": 0, "lon": -77.0355765, "rental_uris": {"android": "https://dc.lft.to/lastmile_qr_scan", "ios": "https://dc.lft.to/lastmile_qr_scan"}, "fusion_lon": 0.0, "lat": 38.92497183333333, "type": "electric_scooter", "fusion_lat": 0.0, "bike_id": "b09e2d944484d65ca8b7489f8bd9895b"}, {"name": "fd365edeb08a250c0e59c2bb3a8249b8", "is_reserved": 0, "is_disabled": 0, "lon": -77.03824883333333, "rental_uris": {"android": "https://dc.lft.to/lastmile_qr_scan", "ios": "https://dc.lft.to/lastmile_qr_scan"}, "fusion_lon": 0.0, "lat": 38.903382, "type": "electric_scooter", "fusion_lat": 0.0, "bike_id": "fd365edeb08a250c0e59c2bb3a8249b8"}, {"name": "6158f638e638207fe9d45470b8ccda67", "is_reserved": 0, "is_disabled": 0, "lon": -77.03038883333333, "rental_uris": {"android": "https://dc.lft.to/lastmile_qr_scan", "ios": "https://dc.lft.to/lastmile_qr_scan"}, "fusion_lon": 0.0, "lat": 38.88390966666667, "type": "electric_scooter", "fusion_lat": 0.0, "bike_id": "6158f638e638207fe9d45470b8ccda67"}, {"name": "a5a3c1a1596b13c86999e6feba61ded5", "is_reserved": 0, "is_disabled": 0, "lon": -77.04495683333333, "rental_uris": {"android": "https://dc.lft.to/lastmile_qr_scan", "ios": "https://dc.lft.to/lastmile_qr_scan"}, "fusion_lon": 0.0, "lat": 38.918729, "type": "electric_scooter", "fusion_lat": 0.0, "bike_id": "a5a3c1a1596b13c86999e6feba61ded5"}, {"name": "456eb1ca69bae918ee56c3b4e31340fd", "is_reserved": 0, "is_disabled": 0, "lon": -77.03662333333334, "rental_uris": {"android": "https://dc.lft.to/lastmile_qr_scan", "ios": "https://dc.lft.to/lastmile_qr_scan"}, "fusion_lon": 0.0, "lat": 38.912892166666666, "type": "electric_scooter", "fusion_lat": 0.0, "bike_id": "456eb1ca69bae918ee56c3b4e31340fd"}, {"name": "847ddcebdfaf478a5423438c27e24bac", "is_reserved": 0, "is_disabled": 0, "lon": -77.034158, "rental_uris": {"android": "https://dc.lft.to/lastmile_qr_scan", "ios": "https://dc.lft.to/lastmile_qr_scan"}, "fusion_lon": 0.0, "lat": 38.92947383333333, "type": "electric_scooter", "fusion_lat": 0.0, "bike_id": "847ddcebdfaf478a5423438c27e24bac"}, {"name": "0b7dd74eec31a14d5e23ae8d4917c7ad", "is_reserved": 0, "is_disabled": 0, "lon": -77.02777583333334, "rental_uris": {"android": "https://dc.lft.to/lastmile_qr_scan", "ios": "https://dc.lft.to/lastmile_qr_scan"}, "fusion_lon": 0.0, "lat": 38.90614733333334, "type": "electric_scooter", "fusion_lat": 0.0, "bike_id": "0b7dd74eec31a14d5e23ae8d4917c7ad"}, {"name": "af0d18b01cfbfd2404c4ab975955e76d", "is_reserved": 0, "is_disabled": 0, "lon": -77.0385705, "rental_uris": {"android": "https://dc.lft.to/lastmile_qr_scan", "ios": "https://dc.lft.to/lastmile_qr_scan"}, "fusion_lon": 0.0, "lat": 38.902655, "type": "electric_scooter", "fusion_lat": 0.0, "bike_id": "af0d18b01cfbfd2404c4ab975955e76d"}, {"name": "985a80285eb5b7e25c85a04b3cb15eb4", "is_reserved": 0, "is_disabled": 0, "lon": -77.030656, "rental_uris": {"android": "https://dc.lft.to/lastmile_qr_scan", "ios": "https://dc.lft.to/lastmile_qr_scan"}, "fusion_lon": 0.0, "lat": 38.880466166666665, "type": "electric_scooter", "fusion_lat": 0.0, "bike_id": "985a80285eb5b7e25c85a04b3cb15eb4"}, {"name": "c940f45186ff15a92203388e835c9141", "is_reserved": 0, "is_disabled": 0, "lon": -77.03872266666667, "rental_uris": {"android": "https://dc.lft.to/lastmile_qr_scan", "ios": "https://dc.lft.to/lastmile_qr_scan"}, "fusion_lon": 0.0, "lat": 38.91983583333333, "type": "electric_scooter", "fusion_lat": 0.0, "bike_id": "c940f45186ff15a92203388e835c9141"}, {"name": "ecbf8565ade82b08599df84fb0dcf28f", "is_reserved": 0, "is_disabled": 0, "lon": -77.0293765, "rental_uris": {"android": "https://dc.lft.to/lastmile_qr_scan", "ios": "https://dc.lft.to/lastmile_qr_scan"}, "fusion_lon": 0.0, "lat": 38.904018, "type": "electric_scooter", "fusion_lat": 0.0, "bike_id": "ecbf8565ade82b08599df84fb0dcf28f"}, {"name": "a69f61be1eb0f364f1d97ddf45d49a82", "is_reserved": 0, "is_disabled": 0, "lon": -76.997631, "rental_uris": {"android": "https://dc.lft.to/lastmile_qr_scan", "ios": "https://dc.lft.to/lastmile_qr_scan"}, "fusion_lon": 0.0, "lat": 39.00592, "type": "electric_bike", "fusion_lat": 0.0, "bike_id": "a69f61be1eb0f364f1d97ddf45d49a82"}, {"name": "4ed6f1cf60ff81fb556a5abca27c0299", "is_reserved": 0, "is_disabled": 0, "lon": -77.0277785, "rental_uris": {"android": "https://dc.lft.to/lastmile_qr_scan", "ios": "https://dc.lft.to/lastmile_qr_scan"}, "fusion_lon": 0.0, "lat": 38.88156383333333, "type": "electric_scooter", "fusion_lat": 0.0, "bike_id": "4ed6f1cf60ff81fb556a5abca27c0299"}, {"name": "962ded5a526fe2c7ed48aa935fb535ec", "is_reserved": 0, "is_disabled": 0, "lon": -76.929552, "rental_uris": {"android": "https://dc.lft.to/lastmile_qr_scan", "ios": "https://dc.lft.to/lastmile_qr_scan"}, "fusion_lon": 0.0, "lat": 38.89877766666667, "type": "electric_scooter", "fusion_lat": 0.0, "bike_id": "962ded5a526fe2c7ed48aa935fb535ec"}, {"name": "1e9f529bf7b6de855f1c35d863614ab2", "is_reserved": 0, "is_disabled": 0, "lon": -77.0466345, "rental_uris": {"android": "https://dc.lft.to/lastmile_qr_scan", "ios": "https://dc.lft.to/lastmile_qr_scan"}, "fusion_lon": 0.0, "lat": 38.90328216666666, "type": "electric_scooter", "fusion_lat": 0.0, "bike_id": "1e9f529bf7b6de855f1c35d863614ab2"}, {"name": "ecf006daf448d676539daa33f4a8bb02", "is_reserved": 0, "is_disabled": 0, "lon": -77.01203233333334, "rental_uris": {"android": "https://dc.lft.to/lastmile_qr_scan", "ios": "https://dc.lft.to/lastmile_qr_scan"}, "fusion_lon": 0.0, "lat": 38.87148333333333, "type": "electric_scooter", "fusion_lat": 0.0, "bike_id": "ecf006daf448d676539daa33f4a8bb02"}, {"name": "1a268d1164a05ba463edf27f903eb722", "is_reserved": 0, "is_disabled": 0, "lon": -77.13183083333334, "rental_uris": {"android": "https://dc.lft.to/lastmile_qr_scan", "ios": "https://dc.lft.to/lastmile_qr_scan"}, "fusion_lon": 0.0, "lat": 38.869148, "type": "electric_bike", "fusion_lat": 0.0, "bike_id": "1a268d1164a05ba463edf27f903eb722"}, {"name": "d4b90576d06e9e274ee72982f41ccf92", "is_reserved": 0, "is_disabled": 0, "lon": -77.01204166666666, "rental_uris": {"android": "https://dc.lft.to/lastmile_qr_scan", "ios": "https://dc.lft.to/lastmile_qr_scan"}, "fusion_lon": 0.0, "lat": 38.89331633333333, "type": "electric_scooter", "fusion_lat": 0.0, "bike_id": "d4b90576d06e9e274ee72982f41ccf92"}, {"name": "c9d65f71ea554b9b9bd86bc41d84372c", "is_reserved": 0, "is_disabled": 0, "lon": -76.99144783333334, "rental_uris": {"android": "https://dc.lft.to/lastmile_qr_scan", "ios": "https://dc.lft.to/lastmile_qr_scan"}, "fusion_lon": 0.0, "lat": 38.87905766666667, "type": "electric_scooter", "fusion_lat": 0.0, "bike_id": "c9d65f71ea554b9b9bd86bc41d84372c"}, {"name": "b501ccb5ebe2e23c5a8d90d6edbf1dd6", "is_reserved": 0, "is_disabled": 0, "lon": -77.0088175, "rental_uris": {"android": "https://dc.lft.to/lastmile_qr_scan", "ios": "https://dc.lft.to/lastmile_qr_scan"}, "fusion_lon": 0.0, "lat": 38.8763025, "type": "electric_scooter", "fusion_lat": 0.0, "bike_id": "b501ccb5ebe2e23c5a8d90d6edbf1dd6"}, {"name": "8d0fc90d474b5f20690af2c4c9062549", "is_reserved": 0, "is_disabled": 0, "lon": -77.0367885, "rental_uris": {"android": "https://dc.lft.to/lastmile_qr_scan", "ios": "https://dc.lft.to/lastmile_qr_scan"}, "fusion_lon": 0.0, "lat": 38.90274266666667, "type": "electric_scooter", "fusion_lat": 0.0, "bike_id": "8d0fc90d474b5f20690af2c4c9062549"}, {"name": "f466bcec2f87c99efdc2494d86836604", "is_reserved": 0, "is_disabled": 0, "lon": -77.0322035, "rental_uris": {"android": "https://dc.lft.to/lastmile_qr_scan", "ios": "https://dc.lft.to/lastmile_qr_scan"}, "fusion_lon": 0.0, "lat": 38.938792, "type": "electric_scooter", "fusion_lat": 0.0, "bike_id": "f466bcec2f87c99efdc2494d86836604"}, {"name": "7b4e221509882a9b6b2fc1bc33e14090", "is_reserved": 0, "is_disabled": 0, "lon": -77.03767466666666, "rental_uris": {"android": "https://dc.lft.to/lastmile_qr_scan", "ios": "https://dc.lft.to/lastmile_qr_scan"}, "fusion_lon": 0.0, "lat": 38.924845, "type": "electric_scooter", "fusion_lat": 0.0, "bike_id": "7b4e221509882a9b6b2fc1bc33e14090"}, {"name": "6c775b5a5c6db9b30223e41806c15d1c", "is_reserved": 0, "is_disabled": 0, "lon": -77.02375183333334, "rental_uris": {"android": "https://dc.lft.to/lastmile_qr_scan", "ios": "https://dc.lft.to/lastmile_qr_scan"}, "fusion_lon": 0.0, "lat": 38.9073305, "type": "electric_scooter", "fusion_lat": 0.0, "bike_id": "6c775b5a5c6db9b30223e41806c15d1c"}, {"name": "bc7557b777aacabb103e871d4cdaf3af", "is_reserved": 0, "is_disabled": 0, "lon": -77.04170766666667, "rental_uris": {"android": "https://dc.lft.to/lastmile_qr_scan", "ios": "https://dc.lft.to/lastmile_qr_scan"}, "fusion_lon": 0.0, "lat": 38.90933033333334, "type": "electric_scooter", "fusion_lat": 0.0, "bike_id": "bc7557b777aacabb103e871d4cdaf3af"}, {"name": "d34b2a06c3e3d2889f10d65b178f794e", "is_reserved": 0, "is_disabled": 0, "lon": -77.06900866666666, "rental_uris": {"android": "https://dc.lft.to/lastmile_qr_scan", "ios": "https://dc.lft.to/lastmile_qr_scan"}, "fusion_lon": 0.0, "lat": 38.90723416666667, "type": "electric_scooter", "fusion_lat": 0.0, "bike_id": "d34b2a06c3e3d2889f10d65b178f794e"}, {"name": "43c9eb542591c76eda708fadf0da0011", "is_reserved": 0, "is_disabled": 0, "lon": -77.05084983333333, "rental_uris": {"android": "https://dc.lft.to/lastmile_qr_scan", "ios": "https://dc.lft.to/lastmile_qr_scan"}, "fusion_lon": 0.0, "lat": 38.8132875, "type": "electric_bike", "fusion_lat": 0.0, "bike_id": "43c9eb542591c76eda708fadf0da0011"}, {"name": "55a17dc9e54702ba83fa338179bd7ec8", "is_reserved": 0, "is_disabled": 0, "lon": -77.11415933333333, "rental_uris": {"android": "https://dc.lft.to/lastmile_qr_scan", "ios": "https://dc.lft.to/lastmile_qr_scan"}, "fusion_lon": 0.0, "lat": 38.843007166666666, "type": "electric_bike", "fusion_lat": 0.0, "bike_id": "55a17dc9e54702ba83fa338179bd7ec8"}, {"name": "127f9a9fd4c7cbfc6ec1164eb0d97543", "is_reserved": 0, "is_disabled": 0, "lon": -77.03398316666667, "rental_uris": {"android": "https://dc.lft.to/lastmile_qr_scan", "ios": "https://dc.lft.to/lastmile_qr_scan"}, "fusion_lon": 0.0, "lat": 38.91969383333333, "type": "electric_scooter", "fusion_lat": 0.0, "bike_id": "127f9a9fd4c7cbfc6ec1164eb0d97543"}, {"name": "66e86c483def4c7132f4dd601d391af2", "is_reserved": 0, "is_disabled": 0, "lon": -77.07909083333334, "rental_uris": {"android": "https://dc.lft.to/lastmile_qr_scan", "ios": "https://dc.lft.to/lastmile_qr_scan"}, "fusion_lon": 0.0, "lat": 38.83932566666667, "type": "electric_bike", "fusion_lat": 0.0, "bike_id": "66e86c483def4c7132f4dd601d391af2"}, {"name": "7fa7c020a282687b42e1bdccff5ea86d", "is_reserved": 0, "is_disabled": 0, "lon": -76.94469816666667, "rental_uris": {"android": "https://dc.lft.to/lastmile_qr_scan", "ios": "https://dc.lft.to/lastmile_qr_scan"}, "fusion_lon": 0.0, "lat": 38.945570833333335, "type": "electric_bike", "fusion_lat": 0.0, "bike_id": "7fa7c020a282687b42e1bdccff5ea86d"}, {"name": "846952f05e4ad54034aabafef00737fa", "is_reserved": 0, "is_disabled": 0, "lon": -77.00819316666667, "rental_uris": {"android": "https://dc.lft.to/lastmile_qr_scan", "ios": "https://dc.lft.to/lastmile_qr_scan"}, "fusion_lon": 0.0, "lat": 38.87933566666667, "type": "electric_scooter", "fusion_lat": 0.0, "bike_id": "846952f05e4ad54034aabafef00737fa"}, {"name": "98e6f65991f0a8eb4d6610a9377c39f7", "is_reserved": 0, "is_disabled": 0, "lon": -76.983628, "rental_uris": {"android": "https://dc.lft.to/lastmile_qr_scan", "ios": "https://dc.lft.to/lastmile_qr_scan"}, "fusion_lon": 0.0, "lat": 38.861037333333336, "type": "electric_scooter", "fusion_lat": 0.0, "bike_id": "98e6f65991f0a8eb4d6610a9377c39f7"}, {"name": "8ab17d796ec47fb250187d1434e9727e", "is_reserved": 0, "is_disabled": 0, "lon": -77.0329575, "rental_uris": {"android": "https://dc.lft.to/lastmile_qr_scan", "ios": "https://dc.lft.to/lastmile_qr_scan"}, "fusion_lon": 0.0, "lat": 38.92255, "type": "electric_scooter", "fusion_lat": 0.0, "bike_id": "8ab17d796ec47fb250187d1434e9727e"}, {"name": "7f0e81091122f64a3152cbab2e9dcbaa", "is_reserved": 0, "is_disabled": 0, "lon": -77.12811483333333, "rental_uris": {"android": "https://dc.lft.to/lastmile_qr_scan", "ios": "https://dc.lft.to/lastmile_qr_scan"}, "fusion_lon": 0.0, "lat": 38.8652615, "type": "electric_bike", "fusion_lat": 0.0, "bike_id": "7f0e81091122f64a3152cbab2e9dcbaa"}, {"name": "61be1e319da35b50bd2acd8132e1efe9", "is_reserved": 0, "is_disabled": 0, "lon": -77.0422915, "rental_uris": {"android": "https://dc.lft.to/lastmile_qr_scan", "ios": "https://dc.lft.to/lastmile_qr_scan"}, "fusion_lon": 0.0, "lat": 38.92162916666667, "type": "electric_scooter", "fusion_lat": 0.0, "bike_id": "61be1e319da35b50bd2acd8132e1efe9"}, {"name": "fd6a74afe4ccb0d996fb25cf472f0980", "is_reserved": 0, "is_disabled": 0, "lon": -77.0328365, "rental_uris": {"android": "https://dc.lft.to/lastmile_qr_scan", "ios": "https://dc.lft.to/lastmile_qr_scan"}, "fusion_lon": 0.0, "lat": 38.946568166666665, "type": "electric_scooter", "fusion_lat": 0.0, "bike_id": "fd6a74afe4ccb0d996fb25cf472f0980"}, {"name": "cf9911df289af321c48816e518439df2", "is_reserved": 0, "is_disabled": 0, "lon": -77.07296616666666, "rental_uris": {"android": "https://dc.lft.to/lastmile_qr_scan", "ios": "https://dc.lft.to/lastmile_qr_scan"}, "fusion_lon": 0.0, "lat": 38.9246615, "type": "electric_bike", "fusion_lat": 0.0, "bike_id": "cf9911df289af321c48816e518439df2"}, {"name": "687cc9ed27e2f02e944ec12de856f42f", "is_reserved": 0, "is_disabled": 0, "lon": -76.95476583333334, "rental_uris": {"android": "https://dc.lft.to/lastmile_qr_scan", "ios": "https://dc.lft.to/lastmile_qr_scan"}, "fusion_lon": 0.0, "lat": 38.88819016666667, "type": "electric_scooter", "fusion_lat": 0.0, "bike_id": "687cc9ed27e2f02e944ec12de856f42f"}, {"name": "3bdada85b8764af7694310a38cdd8a84", "is_reserved": 0, "is_disabled": 0, "lon": -76.9870525, "rental_uris": {"android": "https://dc.lft.to/lastmile_qr_scan", "ios": "https://dc.lft.to/lastmile_qr_scan"}, "fusion_lon": 0.0, "lat": 38.86532566666666, "type": "electric_scooter", "fusion_lat": 0.0, "bike_id": "3bdada85b8764af7694310a38cdd8a84"}, {"name": "fd40cfd5266dc0ac3c77f86055c158b6", "is_reserved": 0, "is_disabled": 0, "lon": -77.01665666666666, "rental_uris": {"android": "https://dc.lft.to/lastmile_qr_scan", "ios": "https://dc.lft.to/lastmile_qr_scan"}, "fusion_lon": 0.0, "lat": 38.900527833333335, "type": "electric_scooter", "fusion_lat": 0.0, "bike_id": "fd40cfd5266dc0ac3c77f86055c158b6"}, {"name": "a426dccbb8ae8a0f147cfaf7181c6bd8", "is_reserved": 0, "is_disabled": 0, "lon": -77.12985816666666, "rental_uris": {"android": "https://dc.lft.to/lastmile_qr_scan", "ios": "https://dc.lft.to/lastmile_qr_scan"}, "fusion_lon": 0.0, "lat": 38.79990083333333, "type": "electric_bike", "fusion_lat": 0.0, "bike_id": "a426dccbb8ae8a0f147cfaf7181c6bd8"}, {"name": "a0e68bae7503a1a12effef116b87e888", "is_reserved": 0, "is_disabled": 0, "lon": -77.06397383333334, "rental_uris": {"android": "https://dc.lft.to/lastmile_qr_scan", "ios": "https://dc.lft.to/lastmile_qr_scan"}, "fusion_lon": 0.0, "lat": 38.92909183333333, "type": "electric_scooter", "fusion_lat": 0.0, "bike_id": "a0e68bae7503a1a12effef116b87e888"}, {"name": "71297da36548c22c3d5b8ff6d95325f6", "is_reserved": 0, "is_disabled": 0, "lon": -77.0704885, "rental_uris": {"android": "https://dc.lft.to/lastmile_qr_scan", "ios": "https://dc.lft.to/lastmile_qr_scan"}, "fusion_lon": 0.0, "lat": 38.824473166666664, "type": "electric_bike", "fusion_lat": 0.0, "bike_id": "71297da36548c22c3d5b8ff6d95325f6"}, {"name": "0ae667e64ac87fdac3e92b18b1cbd114", "is_reserved": 0, "is_disabled": 0, "lon": -77.03655966666666, "rental_uris": {"android": "https://dc.lft.to/lastmile_qr_scan", "ios": "https://dc.lft.to/lastmile_qr_scan"}, "fusion_lon": 0.0, "lat": 38.950232166666666, "type": "electric_bike", "fusion_lat": 0.0, "bike_id": "0ae667e64ac87fdac3e92b18b1cbd114"}, {"name": "db73479085dc0492981a095365c3468b", "is_reserved": 0, "is_disabled": 0, "lon": -76.99449016666667, "rental_uris": {"android": "https://dc.lft.to/lastmile_qr_scan", "ios": "https://dc.lft.to/lastmile_qr_scan"}, "fusion_lon": 0.0, "lat": 38.90502816666667, "type": "electric_scooter", "fusion_lat": 0.0, "bike_id": "db73479085dc0492981a095365c3468b"}, {"name": "55ccf42f7a560c63a9bc04b6412836da", "is_reserved": 0, "is_disabled": 0, "lon": -76.94654933333334, "rental_uris": {"android": "https://dc.lft.to/lastmile_qr_scan", "ios": "https://dc.lft.to/lastmile_qr_scan"}, "fusion_lon": 0.0, "lat": 38.8982575, "type": "electric_scooter", "fusion_lat": 0.0, "bike_id": "55ccf42f7a560c63a9bc04b6412836da"}, {"name": "e4f7031c0f53e932e92018bde44676f5", "is_reserved": 0, "is_disabled": 0, "lon": -77.0013445, "rental_uris": {"android": "https://dc.lft.to/lastmile_qr_scan", "ios": "https://dc.lft.to/lastmile_qr_scan"}, "fusion_lon": 0.0, "lat": 38.894864, "type": "electric_scooter", "fusion_lat": 0.0, "bike_id": "e4f7031c0f53e932e92018bde44676f5"}, {"name": "151c1d4d5248c2e7f300d32e5efc9a8a", "is_reserved": 0, "is_disabled": 0, "lon": -77.03826066666667, "rental_uris": {"android": "https://dc.lft.to/lastmile_qr_scan", "ios": "https://dc.lft.to/lastmile_qr_scan"}, "fusion_lon": 0.0, "lat": 38.9067355, "type": "electric_scooter", "fusion_lat": 0.0, "bike_id": "151c1d4d5248c2e7f300d32e5efc9a8a"}, {"name": "798d8c5bbdb19b41b19402b1193f9e8f", "is_reserved": 0, "is_disabled": 0, "lon": -76.90084383333334, "rental_uris": {"android": "https://dc.lft.to/lastmile_qr_scan", "ios": "https://dc.lft.to/lastmile_qr_scan"}, "fusion_lon": 0.0, "lat": 38.88756633333333, "type": "electric_bike", "fusion_lat": 0.0, "bike_id": "798d8c5bbdb19b41b19402b1193f9e8f"}, {"name": "e73f0d3ba9882d9933365f5ec97d4fc3", "is_reserved": 0, "is_disabled": 0, "lon": -77.01719116666666, "rental_uris": {"android": "https://dc.lft.to/lastmile_qr_scan", "ios": "https://dc.lft.to/lastmile_qr_scan"}, "fusion_lon": 0.0, "lat": 38.9051825, "type": "electric_scooter", "fusion_lat": 0.0, "bike_id": "e73f0d3ba9882d9933365f5ec97d4fc3"}, {"name": "901b824757b26fec401c14ce36ac48da", "is_reserved": 0, "is_disabled": 0, "lon": -77.02264333333333, "rental_uris": {"android": "https://dc.lft.to/lastmile_qr_scan", "ios": "https://dc.lft.to/lastmile_qr_scan"}, "fusion_lon": 0.0, "lat": 38.947151833333336, "type": "electric_scooter", "fusion_lat": 0.0, "bike_id": "901b824757b26fec401c14ce36ac48da"}, {"name": "e3f664a3926a3ff2c68f6a063478b919", "is_reserved": 0, "is_disabled": 0, "lon": -76.98490766666667, "rental_uris": {"android": "https://dc.lft.to/lastmile_qr_scan", "ios": "https://dc.lft.to/lastmile_qr_scan"}, "fusion_lon": 0.0, "lat": 38.88976616666667, "type": "electric_scooter", "fusion_lat": 0.0, "bike_id": "e3f664a3926a3ff2c68f6a063478b919"}, {"name": "2fe28ad64c26105f63e2ab4d8f894e31", "is_reserved": 0, "is_disabled": 0, "lon": -77.02301316666667, "rental_uris": {"android": "https://dc.lft.to/lastmile_qr_scan", "ios": "https://dc.lft.to/lastmile_qr_scan"}, "fusion_lon": 0.0, "lat": 38.916020833333334, "type": "electric_scooter", "fusion_lat": 0.0, "bike_id": "2fe28ad64c26105f63e2ab4d8f894e31"}, {"name": "fde1c3f1355194f32530a7542b3bc4f3", "is_reserved": 0, "is_disabled": 0, "lon": -76.9678415, "rental_uris": {"android": "https://dc.lft.to/lastmile_qr_scan", "ios": "https://dc.lft.to/lastmile_qr_scan"}, "fusion_lon": 0.0, "lat": 38.87337383333333, "type": "electric_scooter", "fusion_lat": 0.0, "bike_id": "fde1c3f1355194f32530a7542b3bc4f3"}, {"name": "762a5bcf46f419474979018ac52e9a22", "is_reserved": 0, "is_disabled": 0, "lon": -77.04606066666666, "rental_uris": {"android": "https://dc.lft.to/lastmile_qr_scan", "ios": "https://dc.lft.to/lastmile_qr_scan"}, "fusion_lon": 0.0, "lat": 38.88382266666667, "type": "electric_scooter", "fusion_lat": 0.0, "bike_id": "762a5bcf46f419474979018ac52e9a22"}, {"name": "f8599ce807a640ddd6ebf62406710012", "is_reserved": 0, "is_disabled": 0, "lon": -77.02203216666666, "rental_uris": {"android": "https://dc.lft.to/lastmile_qr_scan", "ios": "https://dc.lft.to/lastmile_qr_scan"}, "fusion_lon": 0.0, "lat": 38.9153225, "type": "electric_scooter", "fusion_lat": 0.0, "bike_id": "f8599ce807a640ddd6ebf62406710012"}, {"name": "783480f5e297426d59fb5250c8dd6d9d", "is_reserved": 0, "is_disabled": 0, "lon": -77.03978966666666, "rental_uris": {"android": "https://dc.lft.to/lastmile_qr_scan", "ios": "https://dc.lft.to/lastmile_qr_scan"}, "fusion_lon": 0.0, "lat": 38.903715, "type": "electric_scooter", "fusion_lat": 0.0, "bike_id": "783480f5e297426d59fb5250c8dd6d9d"}, {"name": "740ffcb4de7258ac6705d1376267a202", "is_reserved": 0, "is_disabled": 0, "lon": -77.00542083333333, "rental_uris": {"android": "https://dc.lft.to/lastmile_qr_scan", "ios": "https://dc.lft.to/lastmile_qr_scan"}, "fusion_lon": 0.0, "lat": 38.874582833333335, "type": "electric_scooter", "fusion_lat": 0.0, "bike_id": "740ffcb4de7258ac6705d1376267a202"}, {"name": "c5fe56cc4d06d6a220c4a049f4337edf", "is_reserved": 0, "is_disabled": 0, "lon": -77.001334, "rental_uris": {"android": "https://dc.lft.to/lastmile_qr_scan", "ios": "https://dc.lft.to/lastmile_qr_scan"}, "fusion_lon": 0.0, "lat": 38.905146333333334, "type": "electric_scooter", "fusion_lat": 0.0, "bike_id": "c5fe56cc4d06d6a220c4a049f4337edf"}, {"name": "45f8ffc0fa57178aea7a9229e7d8c58e", "is_reserved": 0, "is_disabled": 0, "lon": -77.038551, "rental_uris": {"android": "https://dc.lft.to/lastmile_qr_scan", "ios": "https://dc.lft.to/lastmile_qr_scan"}, "fusion_lon": 0.0, "lat": 38.9159265, "type": "electric_scooter", "fusion_lat": 0.0, "bike_id": "45f8ffc0fa57178aea7a9229e7d8c58e"}, {"name": "ff3346d57e34d753f0aa9559cddbdf0c", "is_reserved": 0, "is_disabled": 0, "lon": -76.99602716666666, "rental_uris": {"android": "https://dc.lft.to/lastmile_qr_scan", "ios": "https://dc.lft.to/lastmile_qr_scan"}, "fusion_lon": 0.0, "lat": 38.88492166666666, "type": "electric_scooter", "fusion_lat": 0.0, "bike_id": "ff3346d57e34d753f0aa9559cddbdf0c"}, {"name": "616c21a3bdc1d837068fe3398e7e8384", "is_reserved": 0, "is_disabled": 0, "lon": -77.04363833333333, "rental_uris": {"android": "https://dc.lft.to/lastmile_qr_scan", "ios": "https://dc.lft.to/lastmile_qr_scan"}, "fusion_lon": 0.0, "lat": 38.892348, "type": "electric_scooter", "fusion_lat": 0.0, "bike_id": "616c21a3bdc1d837068fe3398e7e8384"}, {"name": "cc27f5ab7fe9104b9d53b3cc743e1883", "is_reserved": 0, "is_disabled": 0, "lon": -77.03688133333333, "rental_uris": {"android": "https://dc.lft.to/lastmile_qr_scan", "ios": "https://dc.lft.to/lastmile_qr_scan"}, "fusion_lon": 0.0, "lat": 38.91681066666666, "type": "electric_scooter", "fusion_lat": 0.0, "bike_id": "cc27f5ab7fe9104b9d53b3cc743e1883"}, {"name": "e1c98a74ed57f53ee4d1a4678da1b115", "is_reserved": 0, "is_disabled": 0, "lon": -77.0078305, "rental_uris": {"android": "https://dc.lft.to/lastmile_qr_scan", "ios": "https://dc.lft.to/lastmile_qr_scan"}, "fusion_lon": 0.0, "lat": 38.9072655, "type": "electric_scooter", "fusion_lat": 0.0, "bike_id": "e1c98a74ed57f53ee4d1a4678da1b115"}, {"name": "5de917e65269064c46967429ecb47e68", "is_reserved": 0, "is_disabled": 0, "lon": -77.03221316666666, "rental_uris": {"android": "https://dc.lft.to/lastmile_qr_scan", "ios": "https://dc.lft.to/lastmile_qr_scan"}, "fusion_lon": 0.0, "lat": 38.8922395, "type": "electric_scooter", "fusion_lat": 0.0, "bike_id": "5de917e65269064c46967429ecb47e68"}, {"name": "31309780ced5f4140fd9dcf22f8de0a3", "is_reserved": 0, "is_disabled": 0, "lon": -77.02093216666667, "rental_uris": {"android": "https://dc.lft.to/lastmile_qr_scan", "ios": "https://dc.lft.to/lastmile_qr_scan"}, "fusion_lon": 0.0, "lat": 38.92911333333333, "type": "electric_scooter", "fusion_lat": 0.0, "bike_id": "31309780ced5f4140fd9dcf22f8de0a3"}, {"name": "21d5ee7dfaa2d466af02bca24ec73808", "is_reserved": 0, "is_disabled": 0, "lon": -77.008508, "rental_uris": {"android": "https://dc.lft.to/lastmile_qr_scan", "ios": "https://dc.lft.to/lastmile_qr_scan"}, "fusion_lon": 0.0, "lat": 38.87632283333333, "type": "electric_scooter", "fusion_lat": 0.0, "bike_id": "21d5ee7dfaa2d466af02bca24ec73808"}, {"name": "aa96bfe584c56908c6ebfe47caed414f", "is_reserved": 0, "is_disabled": 0, "lon": -76.9854645, "rental_uris": {"android": "https://dc.lft.to/lastmile_qr_scan", "ios": "https://dc.lft.to/lastmile_qr_scan"}, "fusion_lon": 0.0, "lat": 38.88598, "type": "electric_scooter", "fusion_lat": 0.0, "bike_id": "aa96bfe584c56908c6ebfe47caed414f"}, {"name": "68fa1747194d987197de2c205a642651", "is_reserved": 0, "is_disabled": 0, "lon": -77.07706733333333, "rental_uris": {"android": "https://dc.lft.to/lastmile_qr_scan", "ios": "https://dc.lft.to/lastmile_qr_scan"}, "fusion_lon": 0.0, "lat": 38.94293033333334, "type": "electric_scooter", "fusion_lat": 0.0, "bike_id": "68fa1747194d987197de2c205a642651"}, {"name": "bb34e0168af39e8b8f56ef07d2ff8ba5", "is_reserved": 0, "is_disabled": 0, "lon": -77.040409, "rental_uris": {"android": "https://dc.lft.to/lastmile_qr_scan", "ios": "https://dc.lft.to/lastmile_qr_scan"}, "fusion_lon": 0.0, "lat": 38.9056235, "type": "electric_scooter", "fusion_lat": 0.0, "bike_id": "bb34e0168af39e8b8f56ef07d2ff8ba5"}, {"name": "d9b9fd9249815cda1af89893656398b9", "is_reserved": 0, "is_disabled": 0, "lon": -77.0367025, "rental_uris": {"android": "https://dc.lft.to/lastmile_qr_scan", "ios": "https://dc.lft.to/lastmile_qr_scan"}, "fusion_lon": 0.0, "lat": 38.9316395, "type": "electric_scooter", "fusion_lat": 0.0, "bike_id": "d9b9fd9249815cda1af89893656398b9"}, {"name": "a0fc058e13fe74ff6755cb5aa503dce2", "is_reserved": 0, "is_disabled": 0, "lon": -77.0653265, "rental_uris": {"android": "https://dc.lft.to/lastmile_qr_scan", "ios": "https://dc.lft.to/lastmile_qr_scan"}, "fusion_lon": 0.0, "lat": 38.905339833333336, "type": "electric_scooter", "fusion_lat": 0.0, "bike_id": "a0fc058e13fe74ff6755cb5aa503dce2"}, {"name": "fca700c0f2a9a7964e28a200992678f2", "is_reserved": 0, "is_disabled": 0, "lon": -77.00424933333333, "rental_uris": {"android": "https://dc.lft.to/lastmile_qr_scan", "ios": "https://dc.lft.to/lastmile_qr_scan"}, "fusion_lon": 0.0, "lat": 38.876432666666666, "type": "electric_scooter", "fusion_lat": 0.0, "bike_id": "fca700c0f2a9a7964e28a200992678f2"}, {"name": "067878240cfa9a1eb71eeb74e5869b78", "is_reserved": 0, "is_disabled": 0, "lon": -77.00335833333334, "rental_uris": {"android": "https://dc.lft.to/lastmile_qr_scan", "ios": "https://dc.lft.to/lastmile_qr_scan"}, "fusion_lon": 0.0, "lat": 38.895077, "type": "electric_scooter", "fusion_lat": 0.0, "bike_id": "067878240cfa9a1eb71eeb74e5869b78"}, {"name": "2e2a6bf73c119ed760d3b71a5a0ecdec", "is_reserved": 0, "is_disabled": 0, "lon": -77.01757366666666, "rental_uris": {"android": "https://dc.lft.to/lastmile_qr_scan", "ios": "https://dc.lft.to/lastmile_qr_scan"}, "fusion_lon": 0.0, "lat": 38.877945, "type": "electric_scooter", "fusion_lat": 0.0, "bike_id": "2e2a6bf73c119ed760d3b71a5a0ecdec"}, {"name": "3dae3d938258682e3c38c225586bd5cb", "is_reserved": 0, "is_disabled": 0, "lon": -77.01456933333333, "rental_uris": {"android": "https://dc.lft.to/lastmile_qr_scan", "ios": "https://dc.lft.to/lastmile_qr_scan"}, "fusion_lon": 0.0, "lat": 38.867999166666664, "type": "electric_bike", "fusion_lat": 0.0, "bike_id": "3dae3d938258682e3c38c225586bd5cb"}, {"name": "683edc94d8281f23dc6eb3bd3c865edd", "is_reserved": 0, "is_disabled": 0, "lon": -77.01099033333334, "rental_uris": {"android": "https://dc.lft.to/lastmile_qr_scan", "ios": "https://dc.lft.to/lastmile_qr_scan"}, "fusion_lon": 0.0, "lat": 38.896014666666666, "type": "electric_scooter", "fusion_lat": 0.0, "bike_id": "683edc94d8281f23dc6eb3bd3c865edd"}, {"name": "5f49e2f4ee484b7e018bcd7658077f8e", "is_reserved": 0, "is_disabled": 0, "lon": -77.04657466666667, "rental_uris": {"android": "https://dc.lft.to/lastmile_qr_scan", "ios": "https://dc.lft.to/lastmile_qr_scan"}, "fusion_lon": 0.0, "lat": 38.893411666666665, "type": "electric_scooter", "fusion_lat": 0.0, "bike_id": "5f49e2f4ee484b7e018bcd7658077f8e"}, {"name": "8bbac50e6c9e5a04eb18435bc5eb2f94", "is_reserved": 0, "is_disabled": 0, "lon": -77.043679, "rental_uris": {"android": "https://dc.lft.to/lastmile_qr_scan", "ios": "https://dc.lft.to/lastmile_qr_scan"}, "fusion_lon": 0.0, "lat": 38.92580533333334, "type": "electric_scooter", "fusion_lat": 0.0, "bike_id": "8bbac50e6c9e5a04eb18435bc5eb2f94"}, {"name": "855874a74f4da40a7c5d16164bc6ccdf", "is_reserved": 0, "is_disabled": 0, "lon": -77.0805585, "rental_uris": {"android": "https://dc.lft.to/lastmile_qr_scan", "ios": "https://dc.lft.to/lastmile_qr_scan"}, "fusion_lon": 0.0, "lat": 38.84844916666667, "type": "electric_bike", "fusion_lat": 0.0, "bike_id": "855874a74f4da40a7c5d16164bc6ccdf"}, {"name": "685e03e18d4415927380cf05054e0297", "is_reserved": 0, "is_disabled": 0, "lon": -77.04687033333333, "rental_uris": {"android": "https://dc.lft.to/lastmile_qr_scan", "ios": "https://dc.lft.to/lastmile_qr_scan"},