{"data": {"bikes": [{"lat": 38.85646533333333, "is_disabled": 0, "type": "electric_bike", "lon": -77.112463, "bike_id": "09ed69eb8e5b6c9ef1c5472fe9c5a469", "fusion_lat": 0.0, "name": "09ed69eb8e5b6c9ef1c5472fe9c5a469", "is_reserved": 0, "rental_uris": {"android": "https://dc.lft.to/lastmile_qr_scan", "ios": "https://dc.lft.to/lastmile_qr_scan"}, "fusion_lon": 0.0}, {"lat": 38.87707016666667, "is_disabled": 0, "type": "electric_scooter", "lon": -77.01671566666667, "bike_id": "9e94506d55d189e4b5b69e99d10ad5f4", "fusion_lat": 0.0, "name": "9e94506d55d189e4b5b69e99d10ad5f4", "is_reserved": 0, "rental_uris": {"android": "https://dc.lft.to/lastmile_qr_scan", "ios": "https://dc.lft.to/lastmile_qr_scan"}, "fusion_lon": 0.0}, {"lat": 38.883929333333334, "is_disabled": 0, "type": "electric_scooter", "lon": -77.02391933333334, "bike_id": "9bfe17ce19abb83b7480340007bdd729", "fusion_lat": 0.0, "name": "9bfe17ce19abb83b7480340007bdd729", "is_reserved": 0, "rental_uris": {"android": "https://dc.lft.to/lastmile_qr_scan", "ios": "https://dc.lft.to/lastmile_qr_scan"}, "fusion_lon": 0.0}, {"lat": 38.929872833333334, "is_disabled": 0, "type": "electric_scooter", "lon": -77.0383885, "bike_id": "6cf718781d68d835ba52ffa0bae6640c", "fusion_lat": 0.0, "name": "6cf718781d68d835ba52ffa0bae6640c", "is_reserved": 0, "rental_uris": {"android": "https://dc.lft.to/lastmile_qr_scan", "ios": "https://dc.lft.to/lastmile_qr_scan"}, "fusion_lon": 0.0}, {"lat": 38.88267716666667, "is_disabled": 0, "type": "electric_scooter", "lon": -76.98822983333334, "bike_id": "3aba0ba178e56d96d0884bbd88db3a98", "fusion_lat": 0.0, "name": "3aba0ba178e56d96d0884bbd88db3a98", "is_reserved": 0, "rental_uris": {"android": "https://dc.lft.to/lastmile_qr_scan", "ios": "https://dc.lft.to/lastmile_qr_scan"}, "fusion_lon": 0.0}, {"lat": 38.910344333333335, "is_disabled": 0, "type": "electric_scooter", "lon": -77.04117633333334, "bike_id": "5c68f00bc085b94c4cd36ee3e7f2749e", "fusion_lat": 0.0, "name": "5c68f00bc085b94c4cd36ee3e7f2749e", "is_reserved": 0, "rental_uris": {"android": "https://dc.lft.to/lastmile_qr_scan", "ios": "https://dc.lft.to/lastmile_qr_scan"}, "fusion_lon": 0.0}, {"lat": 38.935983, "is_disabled": 0, "type": "electric_scooter", "lon": -77.05637366666667, "bike_id": "38e22737267e9f0b51e60b22cb888b84", "fusion_lat": 0.0, "name": "38e22737267e9f0b51e60b22cb888b84", "is_reserved": 0, "rental_uris": {"android": "https://dc.lft.to/lastmile_qr_scan", "ios": "https://dc.lft.to/lastmile_qr_scan"}, "fusion_lon": 0.0}, {"lat": 38.91060916666667, "is_disabled": 0, "type": "electric_scooter", "lon": -77.02914283333334, "bike_id": "dbd7382976cd3281843ed2235c890796", "fusion_lat": 0.0, "name": "dbd7382976cd3281843ed2235c890796", "is_reserved": 0, "rental_uris": {"android": "https://dc.lft.to/lastmile_qr_scan", "ios": "https://dc.lft.to/lastmile_qr_scan"}, "fusion_lon": 0.0}, {"lat": 38.904996, "is_disabled": 0, "type": "electric_scooter", "lon": -77.0448715, "bike_id": "70e6b48106fb7761ca7447d0fa479cc0", "fusion_lat": 0.0, "name": "70e6b48106fb7761ca7447d0fa479cc0", "is_reserved": 0, "rental_uris": {"android": "https://dc.lft.to/lastmile_qr_scan", "ios": "https://dc.lft.to/lastmile_qr_scan"}, "fusion_lon": 0.0}, {"lat": 38.903621333333334, "is_disabled": 0, "type": "electric_scooter", "lon": -77.0411175, "bike_id": "d17b7eb34c563970f58acb71ddba90c6", "fusion_lat": 0.0, "name": "d17b7eb34c563970f58acb71ddba90c6", "is_reserved": 0, "rental_uris": {"android": "https://dc.lft.to/lastmile_qr_scan", "ios": "https://dc.lft.to/lastmile_qr_scan"}, "fusion_lon": 0.0}, {"lat": 38.9171015, "is_disabled": 0, "type": "electric_scooter", "lon": -77.04028616666666, "bike_id": "ce71effcf6b7d0296b7b9e35b981503f", "fusion_lat": 0.0, "name": "ce71effcf6b7d0296b7b9e35b981503f", "is_reserved": 0, "rental_uris": {"android": "https://dc.lft.to/lastmile_qr_scan", "ios": "https://dc.lft.to/lastmile_qr_scan"}, "fusion_lon": 0.0}, {"lat": 38.919044666666665, "is_disabled": 0, "type": "electric_scooter", "lon": -77.0318955, "bike_id": "336cf2829fa1f42abaad44e4f9a538ac", "fusion_lat": 0.0, "name": "336cf2829fa1f42abaad44e4f9a538ac", "is_reserved": 0, "rental_uris": {"android": "https://dc.lft.to/lastmile_qr_scan", "ios": "https://dc.lft.to/lastmile_qr_scan"}, "fusion_lon": 0.0}, {"lat": 38.90730333333333, "is_disabled": 0, "type": "electric_scooter", "lon": -77.02375266666667, "bike_id": "42865cecb3b3debf0083b173f259a1b7", "fusion_lat": 0.0, "name": "42865cecb3b3debf0083b173f259a1b7", "is_reserved": 0, "rental_uris": {"android": "https://dc.lft.to/lastmile_qr_scan", "ios": "https://dc.lft.to/lastmile_qr_scan"}, "fusion_lon": 0.0}, {"lat": 38.93321783333333, "is_disabled": 0, "type": "electric_scooter", "lon": -77.05706966666666, "bike_id": "12860f2990a18a0e330dce3d5ef928f3", "fusion_lat": 0.0, "name": "12860f2990a18a0e330dce3d5ef928f3", "is_reserved": 0, "rental_uris": {"android": "https://dc.lft.to/lastmile_qr_scan", "ios": "https://dc.lft.to/lastmile_qr_scan"}, "fusion_lon": 0.0}, {"lat": 38.911703, "is_disabled": 0, "type": "electric_scooter", "lon": -77.03863966666667, "bike_id": "0476cc0022d113c1d3d7305cb46f9ba1", "fusion_lat": 0.0, "name": "0476cc0022d113c1d3d7305cb46f9ba1", "is_reserved": 0, "rental_uris": {"android": "https://dc.lft.to/lastmile_qr_scan", "ios": "https://dc.lft.to/lastmile_qr_scan"}, "fusion_lon": 0.0}, {"lat": 38.921268833333336, "is_disabled": 0, "type": "electric_scooter", "lon": -77.0400765, "bike_id": "a621e29ba5187ea078707f33e3c45647", "fusion_lat": 0.0, "name": "a621e29ba5187ea078707f33e3c45647", "is_reserved": 0, "rental_uris": {"android": "https://dc.lft.to/lastmile_qr_scan", "ios": "https://dc.lft.to/lastmile_qr_scan"}, "fusion_lon": 0.0}, {"lat": 38.938371333333336, "is_disabled": 0, "type": "electric_scooter", "lon": -77.02585966666666, "bike_id": "c8aa63e26e0c42db7f4f6f7aa620cf0e", "fusion_lat": 0.0, "name": "c8aa63e26e0c42db7f4f6f7aa620cf0e", "is_reserved": 0, "rental_uris": {"android": "https://dc.lft.to/lastmile_qr_scan", "ios": "https://dc.lft.to/lastmile_qr_scan"}, "fusion_lon": 0.0}, {"lat": 38.93421716666667, "is_disabled": 0, "type": "electric_scooter", "lon": -77.0413635, "bike_id": "3cfc81edba216cbe00170a4fca0e52ed", "fusion_lat": 0.0, "name": "3cfc81edba216cbe00170a4fca0e52ed", "is_reserved": 0, "rental_uris": {"android": "https://dc.lft.to/lastmile_qr_scan", "ios": "https://dc.lft.to/lastmile_qr_scan"}, "fusion_lon": 0.0}, {"lat": 38.85686416666667, "is_disabled": 0, "type": "electric_scooter", "lon": -76.98159333333334, "bike_id": "109d273339da06167a47ae9fbc719fce", "fusion_lat": 0.0, "name": "109d273339da06167a47ae9fbc719fce", "is_reserved": 0, "rental_uris": {"android": "https://dc.lft.to/lastmile_qr_scan", "ios": "https://dc.lft.to/lastmile_qr_scan"}, "fusion_lon": 0.0}, {"lat": 38.88996783333333, "is_disabled": 0, "type": "electric_scooter", "lon": -76.9556325, "bike_id": "d4ec1f2fdacb39e6ed72be3913ec1037", "fusion_lat": 0.0, "name": "d4ec1f2fdacb39e6ed72be3913ec1037", "is_reserved": 0, "rental_uris": {"android": "https://dc.lft.to/lastmile_qr_scan", "ios": "https://dc.lft.to/lastmile_qr_scan"}, "fusion_lon": 0.0}, {"lat": 38.905704, "is_disabled": 0, "type": "electric_scooter", "lon": -77.0627315, "bike_id": "b26736af045adcfc0f4bbd91399fc8ea", "fusion_lat": 0.0, "name": "b26736af045adcfc0f4bbd91399fc8ea", "is_reserved": 0, "rental_uris": {"android": "https://dc.lft.to/lastmile_qr_scan", "ios": "https://dc.lft.to/lastmile_qr_scan"}, "fusion_lon": 0.0}, {"lat": 38.916175333333335, "is_disabled": 0, "type": "electric_scooter", "lon": -77.02558233333333, "bike_id": "1d03b843eff42a62e57035350e8bef74", "fusion_lat": 0.0, "name": "1d03b843eff42a62e57035350e8bef74", "is_reserved": 0, "rental_uris": {"android": "https://dc.lft.to/lastmile_qr_scan", "ios": "https://dc.lft.to/lastmile_qr_scan"}, "fusion_lon": 0.0}, {"lat": 38.90559, "is_disabled": 0, "type": "electric_scooter", "lon": -77.0059695, "bike_id": "f9cee43b35a80b45cacd6678ed3f1e9c", "fusion_lat": 0.0, "name": "f9cee43b35a80b45cacd6678ed3f1e9c", "is_reserved": 0, "rental_uris": {"android": "https://dc.lft.to/lastmile_qr_scan", "ios": "https://dc.lft.to/lastmile_qr_scan"}, "fusion_lon": 0.0}, {"lat": 38.906907833333335, "is_disabled": 0, "type": "electric_scooter", "lon": -77.0718215, "bike_id": "37e818d5b792b5a756c90745e379c0bb", "fusion_lat": 0.0, "name": "37e818d5b792b5a756c90745e379c0bb", "is_reserved": 0, "rental_uris": {"android": "https://dc.lft.to/lastmile_qr_scan", "ios": "https://dc.lft.to/lastmile_qr_scan"}, "fusion_lon": 0.0}, {"lat": 38.88621066666666, "is_disabled": 0, "type": "electric_scooter", "lon": -77.003503, "bike_id": "b578a19d887bbdcce8a2a21e44863238", "fusion_lat": 0.0, "name": "b578a19d887bbdcce8a2a21e44863238", "is_reserved": 0, "rental_uris": {"android": "https://dc.lft.to/lastmile_qr_scan", "ios": "https://dc.lft.to/lastmile_qr_scan"}, "fusion_lon": 0.0}, {"lat": 38.90777666666666, "is_disabled": 0, "type": "electric_scooter", "lon": -77.03862983333333, "bike_id": "bc584e12078bab2c1583c37e81f0c2d5", "fusion_lat": 0.0, "name": "bc584e12078bab2c1583c37e81f0c2d5", "is_reserved": 0, "rental_uris": {"android": "https://dc.lft.to/lastmile_qr_scan", "ios": "https://dc.lft.to/lastmile_qr_scan"}, "fusion_lon": 0.0}, {"lat": 38.921764, "is_disabled": 0, "type": "electric_scooter", "lon": -77.04013616666667, "bike_id": "3e124a1afdeb780cb4627fbd53b294a5", "fusion_lat": 0.0, "name": "3e124a1afdeb780cb4627fbd53b294a5", "is_reserved": 0, "rental_uris": {"android": "https://dc.lft.to/lastmile_qr_scan", "ios": "https://dc.lft.to/lastmile_qr_scan"}, "fusion_lon": 0.0}, {"lat": 38.936984, "is_disabled": 0, "type": "electric_bike", "lon": -77.0297695, "bike_id": "df0874cd0ead7b4d6e114c4de40871d9", "fusion_lat": 0.0, "name": "df0874cd0ead7b4d6e114c4de40871d9", "is_reserved": 0, "rental_uris": {"android": "https://dc.lft.to/lastmile_qr_scan", "ios": "https://dc.lft.to/lastmile_qr_scan"}, "fusion_lon": 0.0}, {"lat": 38.83726083333333, "is_disabled": 0, "type": "electric_bike", "lon": -76.99764, "bike_id": "bc1668d3a69048b5647441aa70ea546f", "fusion_lat": 0.0, "name": "bc1668d3a69048b5647441aa70ea546f", "is_reserved": 0, "rental_uris": {"android": "https://dc.lft.to/lastmile_qr_scan", "ios": "https://dc.lft.to/lastmile_qr_scan"}, "fusion_lon": 0.0}, {"lat": 38.855154166666665, "is_disabled": 0, "type": "electric_bike", "lon": -76.98425133333333, "bike_id": "aa8c6b29c47f3e7f63f1e9cc3af94352", "fusion_lat": 0.0, "name": "aa8c6b29c47f3e7f63f1e9cc3af94352", "is_reserved": 0, "rental_uris": {"android": "https://dc.lft.to/lastmile_qr_scan", "ios": "https://dc.lft.to/lastmile_qr_scan"}, "fusion_lon": 0.0}, {"lat": 38.88613733333333, "is_disabled": 0, "type": "electric_scooter", "lon": -77.02167566666667, "bike_id": "d8682f551ad1b6480c93c34313fa46cd", "fusion_lat": 0.0, "name": "d8682f551ad1b6480c93c34313fa46cd", "is_reserved": 0, "rental_uris": {"android": "https://dc.lft.to/lastmile_qr_scan", "ios": "https://dc.lft.to/lastmile_qr_scan"}, "fusion_lon": 0.0}, {"lat": 38.90520433333333, "is_disabled": 0, "type": "electric_scooter", "lon": -77.02588466666667, "bike_id": "5aae8fc9e9fbddcef56b893639b50745", "fusion_lat": 0.0, "name": "5aae8fc9e9fbddcef56b893639b50745", "is_reserved": 0, "rental_uris": {"android": "https://dc.lft.to/lastmile_qr_scan", "ios": "https://dc.lft.to/lastmile_qr_scan"}, "fusion_lon": 0.0}, {"lat": 38.905571333333334, "is_disabled": 0, "type": "electric_scooter", "lon": -77.03406816666667, "bike_id": "c58b07e9557f76e4d9f91d898df9667f", "fusion_lat": 0.0, "name": "c58b07e9557f76e4d9f91d898df9667f", "is_reserved": 0, "rental_uris": {"android": "https://dc.lft.to/lastmile_qr_scan", "ios": "https://dc.lft.to/lastmile_qr_scan"}, "fusion_lon": 0.0}, {"lat": 38.9242175, "is_disabled": 0, "type": "electric_scooter", "lon": -77.051825, "bike_id": "cf6e18b80111ee001d8744e91609d368", "fusion_lat": 0.0, "name": "cf6e18b80111ee001d8744e91609d368", "is_reserved": 0, "rental_uris": {"android": "https://dc.lft.to/lastmile_qr_scan", "ios": "https://dc.lft.to/lastmile_qr_scan"}, "fusion_lon": 0.0}, {"lat": 38.89347183333334, "is_disabled": 0, "type": "electric_scooter", "lon": -76.94931916666667, "bike_id": "ef87d4b95a3e8c85c5bf12bbcef13809", "fusion_lat": 0.0, "name": "ef87d4b95a3e8c85c5bf12bbcef13809", "is_reserved": 0, "rental_uris": {"android": "https://dc.lft.to/lastmile_qr_scan", "ios": "https://dc.lft.to/lastmile_qr_scan"}, "fusion_lon": 0.0}, {"lat": 38.918191, "is_disabled": 0, "type": "electric_scooter", "lon": -77.03451166666666, "bike_id": "169b1cb2d50f8e7278c3f812e1c28a3b", "fusion_lat": 0.0, "name": "169b1cb2d50f8e7278c3f812e1c28a3b", "is_reserved": 0, "rental_uris": {"android": "https://dc.lft.to/lastmile_qr_scan", "ios": "https://dc.lft.to/lastmile_qr_scan"}, "fusion_lon": 0.0}, {"lat": 38.873725666666665, "is_disabled": 0, "type": "electric_bike", "lon": -77.11798033333334, "bike_id": "8dc203f46d2e9b330bcd9093f3f5ef2c", "fusion_lat": 0.0, "name": "8dc203f46d2e9b330bcd9093f3f5ef2c", "is_reserved": 0, "rental_uris": {"android": "https://dc.lft.to/lastmile_qr_scan", "ios": "https://dc.lft.to/lastmile_qr_scan"}, "fusion_lon": 0.0}, {"lat": 38.90732833333333, "is_disabled": 0, "type": "electric_scooter", "lon": -77.02988383333333, "bike_id": "e564af9b15e72b476c99e4e76f4a3c1f", "fusion_lat": 0.0, "name": "e564af9b15e72b476c99e4e76f4a3c1f", "is_reserved": 0, "rental_uris": {"android": "https://dc.lft.to/lastmile_qr_scan", "ios": "https://dc.lft.to/lastmile_qr_scan"}, "fusion_lon": 0.0}, {"lat": 38.928834333333334, "is_disabled": 0, "type": "electric_scooter", "lon": -77.02709783333333, "bike_id": "d5bc203a1f46959271cb73f95f0b3288", "fusion_lat": 0.0, "name": "d5bc203a1f46959271cb73f95f0b3288", "is_reserved": 0, "rental_uris": {"android": "https://dc.lft.to/lastmile_qr_scan", "ios": "https://dc.lft.to/lastmile_qr_scan"}, "fusion_lon": 0.0}, {"lat": 38.93160666666667, "is_disabled": 0, "type": "electric_scooter", "lon": -77.04570366666667, "bike_id": "7d8a086f513f0d9d8a3261ad8744bbed", "fusion_lat": 0.0, "name": "7d8a086f513f0d9d8a3261ad8744bbed", "is_reserved": 0, "rental_uris": {"android": "https://dc.lft.to/lastmile_qr_scan", "ios": "https://dc.lft.to/lastmile_qr_scan"}, "fusion_lon": 0.0}, {"lat": 38.916940833333335, "is_disabled": 0, "type": "electric_scooter", "lon": -77.03133, "bike_id": "c413155722f1fd770471792b068cfc13", "fusion_lat": 0.0, "name": "c413155722f1fd770471792b068cfc13", "is_reserved": 0, "rental_uris": {"android": "https://dc.lft.to/lastmile_qr_scan", "ios": "https://dc.lft.to/lastmile_qr_scan"}, "fusion_lon": 0.0}, {"lat": 38.9025905, "is_disabled": 0, "type": "electric_scooter", "lon": -77.01744416666666, "bike_id": "89b39707df2e609c11394dc534954b52", "fusion_lat": 0.0, "name": "89b39707df2e609c11394dc534954b52", "is_reserved": 0, "rental_uris": {"android": "https://dc.lft.to/lastmile_qr_scan", "ios": "https://dc.lft.to/lastmile_qr_scan"}, "fusion_lon": 0.0}, {"lat": 38.94435033333333, "is_disabled": 0, "type": "electric_scooter", "lon": -76.9920625, "bike_id": "dec56936955ad0b8bd94175ab9f0c47b", "fusion_lat": 0.0, "name": "dec56936955ad0b8bd94175ab9f0c47b", "is_reserved": 0, "rental_uris": {"android": "https://dc.lft.to/lastmile_qr_scan", "ios": "https://dc.lft.to/lastmile_qr_scan"}, "fusion_lon": 0.0}, {"lat": 38.90832983333333, "is_disabled": 0, "type": "electric_scooter", "lon": -76.99967883333333, "bike_id": "20f4672fc60632fef6b8b2b020cb31a3", "fusion_lat": 0.0, "name": "20f4672fc60632fef6b8b2b020cb31a3", "is_reserved": 0, "rental_uris": {"android": "https://dc.lft.to/lastmile_qr_scan", "ios": "https://dc.lft.to/lastmile_qr_scan"}, "fusion_lon": 0.0}, {"lat": 38.906641, "is_disabled": 0, "type": "electric_scooter", "lon": -77.03863466666667, "bike_id": "7bb25b5e8adf3da53e6f8857f2c4d63f", "fusion_lat": 0.0, "name": "7bb25b5e8adf3da53e6f8857f2c4d63f", "is_reserved": 0, "rental_uris": {"android": "https://dc.lft.to/lastmile_qr_scan", "ios": "https://dc.lft.to/lastmile_qr_scan"}, "fusion_lon": 0.0}, {"lat": 38.902679666666664, "is_disabled": 0, "type": "electric_scooter", "lon": -77.04599, "bike_id": "732a011fc42d6a23483441bb20242681", "fusion_lat": 0.0, "name": "732a011fc42d6a23483441bb20242681", "is_reserved": 0, "rental_uris": {"android": "https://dc.lft.to/lastmile_qr_scan", "ios": "https://dc.lft.to/lastmile_qr_scan"}, "fusion_lon": 0.0}, {"lat": 38.909744, "is_disabled": 0, "type": "electric_scooter", "lon": -77.0452065, "bike_id": "6256e0144e7bbe4ca5e85119f7272611", "fusion_lat": 0.0, "name": "6256e0144e7bbe4ca5e85119f7272611", "is_reserved": 0, "rental_uris": {"android": "https://dc.lft.to/lastmile_qr_scan", "ios": "https://dc.lft.to/lastmile_qr_scan"}, "fusion_lon": 0.0}, {"lat": 38.996140833333335, "is_disabled": 0, "type": "electric_scooter", "lon": -77.03235083333334, "bike_id": "4162c5727e2d00493be7f9a9b2e2611b", "fusion_lat": 0.0, "name": "4162c5727e2d00493be7f9a9b2e2611b", "is_reserved": 0, "rental_uris": {"android": "https://dc.lft.to/lastmile_qr_scan", "ios": "https://dc.lft.to/lastmile_qr_scan"}, "fusion_lon": 0.0}, {"lat": 38.90725916666667, "is_disabled": 0, "type": "electric_scooter", "lon": -76.99815416666667, "bike_id": "69e39eb11f0b39906188bc7c9a2150e7", "fusion_lat": 0.0, "name": "69e39eb11f0b39906188bc7c9a2150e7", "is_reserved": 0, "rental_uris": {"android": "https://dc.lft.to/lastmile_qr_scan", "ios": "https://dc.lft.to/lastmile_qr_scan"}, "fusion_lon": 0.0}, {"lat": 38.933056, "is_disabled": 0, "type": "electric_scooter", "lon": -77.0344475, "bike_id": "f52318b7d258b0ba24b0f138809fc0ce", "fusion_lat": 0.0, "name": "f52318b7d258b0ba24b0f138809fc0ce", "is_reserved": 0, "rental_uris": {"android": "https://dc.lft.to/lastmile_qr_scan", "ios": "https://dc.lft.to/lastmile_qr_scan"}, "fusion_lon": 0.0}, {"lat": 38.8940995, "is_disabled": 0, "type": "electric_scooter", "lon": -76.95663316666666, "bike_id": "5124be95d5b5a3cd5ffdfbfd48849b72", "fusion_lat": 0.0, "name": "5124be95d5b5a3cd5ffdfbfd48849b72", "is_reserved": 0, "rental_uris": {"android": "https://dc.lft.to/lastmile_qr_scan", "ios": "https://dc.lft.to/lastmile_qr_scan"}, "fusion_lon": 0.0}, {"lat": 38.91332583333333, "is_disabled": 0, "type": "electric_scooter", "lon": -77.0481795, "bike_id": "3ad1f2ed34665699ad8e1c3444269886", "fusion_lat": 0.0, "name": "3ad1f2ed34665699ad8e1c3444269886", "is_reserved": 0, "rental_uris": {"android": "https://dc.lft.to/lastmile_qr_scan", "ios": "https://dc.lft.to/lastmile_qr_scan"}, "fusion_lon": 0.0}, {"lat": 38.86424733333333, "is_disabled": 0, "type": "electric_bike", "lon": -76.9744165, "bike_id": "be07de513cb4272f6fa5c3f7a275ea4a", "fusion_lat": 0.0, "name": "be07de513cb4272f6fa5c3f7a275ea4a", "is_reserved": 0, "rental_uris": {"android": "https://dc.lft.to/lastmile_qr_scan", "ios": "https://dc.lft.to/lastmile_qr_scan"}, "fusion_lon": 0.0}, {"lat": 38.903835, "is_disabled": 0, "type": "electric_scooter", "lon": -77.05314933333334, "bike_id": "d5c54f6d4b2c615d092c8df0492e5639", "fusion_lat": 0.0, "name": "d5c54f6d4b2c615d092c8df0492e5639", "is_reserved": 0, "rental_uris": {"android": "https://dc.lft.to/lastmile_qr_scan", "ios": "https://dc.lft.to/lastmile_qr_scan"}, "fusion_lon": 0.0}, {"lat": 38.893678, "is_disabled": 0, "type": "electric_scooter", "lon": -76.99108966666667, "bike_id": "e7045855459c93ea64e2dd2a64bb163f", "fusion_lat": 0.0, "name": "e7045855459c93ea64e2dd2a64bb163f", "is_reserved": 0, "rental_uris": {"android": "https://dc.lft.to/lastmile_qr_scan", "ios": "https://dc.lft.to/lastmile_qr_scan"}, "fusion_lon": 0.0}, {"lat": 38.92100766666667, "is_disabled": 0, "type": "electric_scooter", "lon": -77.0421235, "bike_id": "e980e692ce0b9bcbb5ea5b5b391e1ee9", "fusion_lat": 0.0, "name": "e980e692ce0b9bcbb5ea5b5b391e1ee9", "is_reserved": 0, "rental_uris": {"android": "https://dc.lft.to/lastmile_qr_scan", "ios": "https://dc.lft.to/lastmile_qr_scan"}, "fusion_lon": 0.0}, {"lat": 38.915588, "is_disabled": 0, "type": "electric_scooter", "lon": -77.00972466666667, "bike_id": "6aa4309952a25acdc4218508f203fbfb", "fusion_lat": 0.0, "name": "6aa4309952a25acdc4218508f203fbfb", "is_reserved": 0, "rental_uris": {"android": "https://dc.lft.to/lastmile_qr_scan", "ios": "https://dc.lft.to/lastmile_qr_scan"}, "fusion_lon": 0.0}, {"lat": 38.854279, "is_disabled": 0, "type": "electric_bike", "lon": -76.90974233333333, "bike_id": "af49b4cb29c176ddb21abf187f001a2f", "fusion_lat": 0.0, "name": "af49b4cb29c176ddb21abf187f001a2f", "is_reserved": 0, "rental_uris": {"android": "https://dc.lft.to/lastmile_qr_scan", "ios": "https://dc.lft.to/lastmile_qr_scan"}, "fusion_lon": 0.0}, {"lat": 38.918793, "is_disabled": 0, "type": "electric_scooter", "lon": -77.03501766666666, "bike_id": "bc22d49687428df88969c630ae5c3ef5", "fusion_lat": 0.0, "name": "bc22d49687428df88969c630ae5c3ef5", "is_reserved": 0, "rental_uris": {"android": "https://dc.lft.to/lastmile_qr_scan", "ios": "https://dc.lft.to/lastmile_qr_scan"}, "fusion_lon": 0.0}, {"lat": 38.90490783333333, "is_disabled": 0, "type": "electric_scooter", "lon": -76.99537583333333, "bike_id": "638c7603579072a2b5c69883b91e2aa7", "fusion_lat": 0.0, "name": "638c7603579072a2b5c69883b91e2aa7", "is_reserved": 0, "rental_uris": {"android": "https://dc.lft.to/lastmile_qr_scan", "ios": "https://dc.lft.to/lastmile_qr_scan"}, "fusion_lon": 0.0}, {"lat": 38.923843833333336, "is_disabled": 0, "type": "electric_scooter", "lon": -77.0276195, "bike_id": "a8b3c2301fa8ddf0ea1bdb65514683db", "fusion_lat": 0.0, "name": "a8b3c2301fa8ddf0ea1bdb65514683db", "is_reserved": 0, "rental_uris": {"android": "https://dc.lft.to/lastmile_qr_scan", "ios": "https://dc.lft.to/lastmile_qr_scan"}, "fusion_lon": 0.0}, {"lat": 38.87748333333333, "is_disabled": 0, "type": "electric_bike", "lon": -76.99519783333334, "bike_id": "e58e0c007b529a3ff77b1599d06aac29", "fusion_lat": 0.0, "name": "e58e0c007b529a3ff77b1599d06aac29", "is_reserved": 0, "rental_uris": {"android": "https://dc.lft.to/lastmile_qr_scan", "ios": "https://dc.lft.to/lastmile_qr_scan"}, "fusion_lon": 0.0}, {"lat": 38.8442415, "is_disabled": 0, "type": "electric_scooter", "lon": -76.997765, "bike_id": "9716abafe582f4d842934ea13cd12c68", "fusion_lat": 0.0, "name": "9716abafe582f4d842934ea13cd12c68", "is_reserved": 0, "rental_uris": {"android": "https://dc.lft.to/lastmile_qr_scan", "ios": "https://dc.lft.to/lastmile_qr_scan"}, "fusion_lon": 0.0}, {"lat": 38.810483833333336, "is_disabled": 0, "type": "electric_bike", "lon": -77.085074, "bike_id": "1aefe5c49c473c7010b6e78829b35e16", "fusion_lat": 0.0, "name": "1aefe5c49c473c7010b6e78829b35e16", "is_reserved": 0, "rental_uris": {"android": "https://dc.lft.to/lastmile_qr_scan", "ios": "https://dc.lft.to/lastmile_qr_scan"}, "fusion_lon": 0.0}, {"lat": 38.92601466666667, "is_disabled": 0, "type": "electric_scooter", "lon": -77.0569085, "bike_id": "212f3f84e0029ce5e4baa14f33452904", "fusion_lat": 0.0, "name": "212f3f84e0029ce5e4baa14f33452904", "is_reserved": 0, "rental_uris": {"android": "https://dc.lft.to/lastmile_qr_scan", "ios": "https://dc.lft.to/lastmile_qr_scan"}, "fusion_lon": 0.0}, {"lat": 38.94600583333333, "is_disabled": 0, "type": "electric_scooter", "lon": -77.070347, "bike_id": "9e411211d78f18b5ee08e202c85c3396", "fusion_lat": 0.0, "name": "9e411211d78f18b5ee08e202c85c3396", "is_reserved": 0, "rental_uris": {"android": "https://dc.lft.to/lastmile_qr_scan", "ios": "https://dc.lft.to/lastmile_qr_scan"}, "fusion_lon": 0.0}, {"lat": 38.9084745, "is_disabled": 0, "type": "electric_scooter", "lon": -77.03849033333333, "bike_id": "2eca62be5de0f6da9bf0e679720c27d6", "fusion_lat": 0.0, "name": "2eca62be5de0f6da9bf0e679720c27d6", "is_reserved": 0, "rental_uris": {"android": "https://dc.lft.to/lastmile_qr_scan", "ios": "https://dc.lft.to/lastmile_qr_scan"}, "fusion_lon": 0.0}, {"lat": 38.909598833333334, "is_disabled": 0, "type": "electric_scooter", "lon": -77.0268265, "bike_id": "1c5937a3e8a5154e48334833775aff75", "fusion_lat": 0.0, "name": "1c5937a3e8a5154e48334833775aff75", "is_reserved": 0, "rental_uris": {"android": "https://dc.lft.to/lastmile_qr_scan", "ios": "https://dc.lft.to/lastmile_qr_scan"}, "fusion_lon": 0.0}, {"lat": 38.917799, "is_disabled": 0, "type": "electric_scooter", "lon": -77.02308266666667, "bike_id": "d20abde612a68b33581d127d231ce590", "fusion_lat": 0.0, "name": "d20abde612a68b33581d127d231ce590", "is_reserved": 0, "rental_uris": {"android": "https://dc.lft.to/lastmile_qr_scan", "ios": "https://dc.lft.to/lastmile_qr_scan"}, "fusion_lon": 0.0}, {"lat": 38.91977033333333, "is_disabled": 0, "type": "electric_scooter", "lon": -77.00019666666667, "bike_id": "d0483f49ebd82788e501fbab3efb137f", "fusion_lat": 0.0, "name": "d0483f49ebd82788e501fbab3efb137f", "is_reserved": 0, "rental_uris": {"android": "https://dc.lft.to/lastmile_qr_scan", "ios": "https://dc.lft.to/lastmile_qr_scan"}, "fusion_lon": 0.0}, {"lat": 38.90138566666667, "is_disabled": 0, "type": "electric_scooter", "lon": -76.98056183333334, "bike_id": "6a6de0ec16b093a549f7b5fa3772eae7", "fusion_lat": 0.0, "name": "6a6de0ec16b093a549f7b5fa3772eae7", "is_reserved": 0, "rental_uris": {"android": "https://dc.lft.to/lastmile_qr_scan", "ios": "https://dc.lft.to/lastmile_qr_scan"}, "fusion_lon": 0.0}, {"lat": 38.92615283333333, "is_disabled": 0, "type": "electric_scooter", "lon": -77.0361475, "bike_id": "fd8233d73cb2044af8e7d6cb1eca7aff", "fusion_lat": 0.0, "name": "fd8233d73cb2044af8e7d6cb1eca7aff", "is_reserved": 0, "rental_uris": {"android": "https://dc.lft.to/lastmile_qr_scan", "ios": "https://dc.lft.to/lastmile_qr_scan"}, "fusion_lon": 0.0}, {"lat": 38.931173666666666, "is_disabled": 0, "type": "electric_scooter", "lon": -77.03027233333333, "bike_id": "3514c33a0b588de6490b3846dfd08b8e", "fusion_lat": 0.0, "name": "3514c33a0b588de6490b3846dfd08b8e", "is_reserved": 0, "rental_uris": {"android": "https://dc.lft.to/lastmile_qr_scan", "ios": "https://dc.lft.to/lastmile_qr_scan"}, "fusion_lon": 0.0}, {"lat": 38.879837333333334, "is_disabled": 0, "type": "electric_scooter", "lon": -77.006004, "bike_id": "0f850c711bc5ca955fa160d653d34f94", "fusion_lat": 0.0, "name": "0f850c711bc5ca955fa160d653d34f94", "is_reserved": 0, "rental_uris": {"android": "https://dc.lft.to/lastmile_qr_scan", "ios": "https://dc.lft.to/lastmile_qr_scan"}, "fusion_lon": 0.0}, {"lat": 38.919836833333335, "is_disabled": 0, "type": "electric_scooter", "lon": -77.00023083333333, "bike_id": "79c5b18b7afcd07a0c37a2b5200f1421", "fusion_lat": 0.0, "name": "79c5b18b7afcd07a0c37a2b5200f1421", "is_reserved": 0, "rental_uris": {"android": "https://dc.lft.to/lastmile_qr_scan", "ios": "https://dc.lft.to/lastmile_qr_scan"}, "fusion_lon": 0.0}, {"lat": 38.84609966666667, "is_disabled": 0, "type": "electric_bike", "lon": -76.96906066666666, "bike_id": "58c5b0c5fa1ac5fd84f2e01bacdebd6d", "fusion_lat": 0.0, "name": "58c5b0c5fa1ac5fd84f2e01bacdebd6d", "is_reserved": 0, "rental_uris": {"android": "https://dc.lft.to/lastmile_qr_scan", "ios": "https://dc.lft.to/lastmile_qr_scan"}, "fusion_lon": 0.0}, {"lat": 38.903634, "is_disabled": 0, "type": "electric_scooter", "lon": -77.06287116666667, "bike_id": "cf12dcfd6fadcdf9900c55af464fe2f5", "fusion_lat": 0.0, "name": "cf12dcfd6fadcdf9900c55af464fe2f5", "is_reserved": 0, "rental_uris": {"android": "https://dc.lft.to/lastmile_qr_scan", "ios": "https://dc.lft.to/lastmile_qr_scan"}, "fusion_lon": 0.0}, {"lat": 38.90422, "is_disabled": 0, "type": "electric_scooter", "lon": -76.99071683333334, "bike_id": "7e871cd593041b4f7293e5be4df206ab", "fusion_lat": 0.0, "name": "7e871cd593041b4f7293e5be4df206ab", "is_reserved": 0, "rental_uris": {"android": "https://dc.lft.to/lastmile_qr_scan", "ios": "https://dc.lft.to/lastmile_qr_scan"}, "fusion_lon": 0.0}, {"lat": 38.94226883333333, "is_disabled": 0, "type": "electric_scooter", "lon": -77.013871, "bike_id": "48e9bc42b952ad083dcf8b82518f850b", "fusion_lat": 0.0, "name": "48e9bc42b952ad083dcf8b82518f850b", "is_reserved": 0, "rental_uris": {"android": "https://dc.lft.to/lastmile_qr_scan", "ios": "https://dc.lft.to/lastmile_qr_scan"}, "fusion_lon": 0.0}, {"lat": 38.913557833333336, "is_disabled": 0, "type": "electric_scooter", "lon": -77.01526383333334, "bike_id": "5f4db71d5f8567e705ff17e48aff7ea6", "fusion_lat": 0.0, "name": "5f4db71d5f8567e705ff17e48aff7ea6", "is_reserved": 0, "rental_uris": {"android": "https://dc.lft.to/lastmile_qr_scan", "ios": "https://dc.lft.to/lastmile_qr_scan"}, "fusion_lon": 0.0}, {"lat": 38.912690833333336, "is_disabled": 0, "type": "electric_scooter", "lon": -77.00483566666666, "bike_id": "5b3651da1ff8ba424212b44f644cc868", "fusion_lat": 0.0, "name": "5b3651da1ff8ba424212b44f644cc868", "is_reserved": 0, "rental_uris": {"android": "https://dc.lft.to/lastmile_qr_scan", "ios": "https://dc.lft.to/lastmile_qr_scan"}, "fusion_lon": 0.0}, {"lat": 38.904463166666666, "is_disabled": 0, "type": "electric_scooter", "lon": -77.00731633333334, "bike_id": "46a2c2b58dcc0e26f338cbc295ee58f0", "fusion_lat": 0.0, "name": "46a2c2b58dcc0e26f338cbc295ee58f0", "is_reserved": 0, "rental_uris": {"android": "https://dc.lft.to/lastmile_qr_scan", "ios": "https://dc.lft.to/lastmile_qr_scan"}, "fusion_lon": 0.0}, {"lat": 38.93412933333333, "is_disabled": 0, "type": "electric_bike", "lon": -77.02511433333333, "bike_id": "e48ce35ed5637d1607b6a6269569b6fe", "fusion_lat": 0.0, "name": "e48ce35ed5637d1607b6a6269569b6fe", "is_reserved": 0, "rental_uris": {"android": "https://dc.lft.to/lastmile_qr_scan", "ios": "https://dc.lft.to/lastmile_qr_scan"}, "fusion_lon": 0.0}, {"lat": 38.83237666666667, "is_disabled": 0, "type": "electric_bike", "lon": -76.94628766666666, "bike_id": "a971585ce3f1266315e92390dba8f81c", "fusion_lat": 0.0, "name": "a971585ce3f1266315e92390dba8f81c", "is_reserved": 0, "rental_uris": {"android": "https://dc.lft.to/lastmile_qr_scan", "ios": "https://dc.lft.to/lastmile_qr_scan"}, "fusion_lon": 0.0}, {"lat": 38.860932166666665, "is_disabled": 0, "type": "electric_scooter", "lon": -76.98375783333333, "bike_id": "15849c798015fb29a9c677b11854686b", "fusion_lat": 0.0, "name": "15849c798015fb29a9c677b11854686b", "is_reserved": 0, "rental_uris": {"android": "https://dc.lft.to/lastmile_qr_scan", "ios": "https://dc.lft.to/lastmile_qr_scan"}, "fusion_lon": 0.0}, {"lat": 38.863844, "is_disabled": 0, "type": "electric_scooter", "lon": -76.9924915, "bike_id": "fb2b5964407a53996da9f620ff798f79", "fusion_lat": 0.0, "name": "fb2b5964407a53996da9f620ff798f79", "is_reserved": 0, "rental_uris": {"android": "https://dc.lft.to/lastmile_qr_scan", "ios": "https://dc.lft.to/lastmile_qr_scan"}, "fusion_lon": 0.0}, {"lat": 38.94305966666667, "is_disabled": 0, "type": "electric_scooter", "lon": -77.059261, "bike_id": "c4678aea12ac52a5cb13ef2a4199fdeb", "fusion_lat": 0.0, "name": "c4678aea12ac52a5cb13ef2a4199fdeb", "is_reserved": 0, "rental_uris": {"android": "https://dc.lft.to/lastmile_qr_scan", "ios": "https://dc.lft.to/lastmile_qr_scan"}, "fusion_lon": 0.0}, {"lat": 38.90010483333333, "is_disabled": 0, "type": "electric_scooter", "lon": -76.99213783333333, "bike_id": "57ea4b3509802881b848a8ca114dcf62", "fusion_lat": 0.0, "name": "57ea4b3509802881b848a8ca114dcf62", "is_reserved": 0, "rental_uris": {"android": "https://dc.lft.to/lastmile_qr_scan", "ios": "https://dc.lft.to/lastmile_qr_scan"}, "fusion_lon": 0.0}, {"lat": 38.978350666666664, "is_disabled": 0, "type": "electric_bike", "lon": -77.026475, "bike_id": "26a194dcd606b51e28e3f61a569e856a", "fusion_lat": 0.0, "name": "26a194dcd606b51e28e3f61a569e856a", "is_reserved": 0, "rental_uris": {"android": "https://dc.lft.to/lastmile_qr_scan", "ios": "https://dc.lft.to/lastmile_qr_scan"}, "fusion_lon": 0.0}, {"lat": 38.934507333333336, "is_disabled": 0, "type": "electric_scooter", "lon": -77.02735666666666, "bike_id": "810f8f99ab97cda213317351f4cfd6da", "fusion_lat": 0.0, "name": "810f8f99ab97cda213317351f4cfd6da", "is_reserved": 0, "rental_uris": {"android": "https://dc.lft.to/lastmile_qr_scan", "ios": "https://dc.lft.to/lastmile_qr_scan"}, "fusion_lon": 0.0}, {"lat": 38.906371666666665, "is_disabled": 0, "type": "electric_scooter", "lon": -76.97951683333334, "bike_id": "ff3b3f35ae88259fb96cdc6e10ea57b7", "fusion_lat": 0.0, "name": "ff3b3f35ae88259fb96cdc6e10ea57b7", "is_reserved": 0, "rental_uris": {"android": "https://dc.lft.to/lastmile_qr_scan", "ios": "https://dc.lft.to/lastmile_qr_scan"}, "fusion_lon": 0.0}, {"lat": 38.91691016666667, "is_disabled": 0, "type": "electric_scooter", "lon": -77.02293766666666, "bike_id": "ec54dff57070e137f467bf64f2b50aad", "fusion_lat": 0.0, "name": "ec54dff57070e137f467bf64f2b50aad", "is_reserved": 0, "rental_uris": {"android": "https://dc.lft.to/lastmile_qr_scan", "ios": "https://dc.lft.to/lastmile_qr_scan"}, "fusion_lon": 0.0}, {"lat": 38.855078, "is_disabled": 0, "type": "electric_bike", "lon": -77.12050566666667, "bike_id": "0ea2855b5cd52681f955c342a0aa0d4f", "fusion_lat": 0.0, "name": "0ea2855b5cd52681f955c342a0aa0d4f", "is_reserved": 0, "rental_uris": {"android": "https://dc.lft.to/lastmile_qr_scan", "ios": "https://dc.lft.to/lastmile_qr_scan"}, "fusion_lon": 0.0}, {"lat": 38.913222833333336, "is_disabled": 0, "type": "electric_scooter", "lon": -77.01495683333333, "bike_id": "96fd29a96d59579cad6094d3452ac3ea", "fusion_lat": 0.0, "name": "96fd29a96d59579cad6094d3452ac3ea", "is_reserved": 0, "rental_uris": {"android": "https://dc.lft.to/lastmile_qr_scan", "ios": "https://dc.lft.to/lastmile_qr_scan"}, "fusion_lon": 0.0}, {"lat": 38.91712, "is_disabled": 0, "type": "electric_scooter", "lon": -77.03221416666666, "bike_id": "6994ece3e72ed244f0beee3e39b0dd8c", "fusion_lat": 0.0, "name": "6994ece3e72ed244f0beee3e39b0dd8c", "is_reserved": 0, "rental_uris": {"android": "https://dc.lft.to/lastmile_qr_scan", "ios": "https://dc.lft.to/lastmile_qr_scan"}, "fusion_lon": 0.0}, {"lat": 38.92449216666667, "is_disabled": 0, "type": "electric_scooter", "lon": -77.02033, "bike_id": "3ab7768b77fc3248ea0c28f7ac7aece8", "fusion_lat": 0.0, "name": "3ab7768b77fc3248ea0c28f7ac7aece8", "is_reserved": 0, "rental_uris": {"android": "https://dc.lft.to/lastmile_qr_scan", "ios": "https://dc.lft.to/lastmile_qr_scan"}, "fusion_lon": 0.0}, {"lat": 38.938455, "is_disabled": 0, "type": "electric_scooter", "lon": -77.0339275, "bike_id": "01ead491125da06e471ec414eeae01bb", "fusion_lat": 0.0, "name": "01ead491125da06e471ec414eeae01bb", "is_reserved": 0, "rental_uris": {"android": "https://dc.lft.to/lastmile_qr_scan", "ios": "https://dc.lft.to/lastmile_qr_scan"}, "fusion_lon": 0.0}, {"lat": 38.932533166666666, "is_disabled": 0, "type": "electric_scooter", "lon": -77.04014516666666, "bike_id": "7f1a1194b081809455ca948ae9d6eac0", "fusion_lat": 0.0, "name": "7f1a1194b081809455ca948ae9d6eac0", "is_reserved": 0, "rental_uris": {"android": "https://dc.lft.to/lastmile_qr_scan", "ios": "https://dc.lft.to/lastmile_qr_scan"}, "fusion_lon": 0.0}, {"lat": 38.906519333333335, "is_disabled": 0, "type": "electric_scooter", "lon": -77.0082565, "bike_id": "b460554520d77029b650e826539f1880", "fusion_lat": 0.0, "name": "b460554520d77029b650e826539f1880", "is_reserved": 0, "rental_uris": {"android": "https://dc.lft.to/lastmile_qr_scan", "ios": "https://dc.lft.to/lastmile_qr_scan"}, "fusion_lon": 0.0}, {"lat": 38.91683716666667, "is_disabled": 0, "type": "electric_scooter", "lon": -77.03035766666666, "bike_id": "a535572db6ea41a93ca1da70478f563e", "fusion_lat": 0.0, "name": "a535572db6ea41a93ca1da70478f563e", "is_reserved": 0, "rental_uris": {"android": "https://dc.lft.to/lastmile_qr_scan", "ios": "https://dc.lft.to/lastmile_qr_scan"}, "fusion_lon": 0.0}, {"lat": 38.89743816666667, "is_disabled": 0, "type": "electric_scooter", "lon": -77.00009283333333, "bike_id": "0f7055889a8c613639e3d6ec1042d5ac", "fusion_lat": 0.0, "name": "0f7055889a8c613639e3d6ec1042d5ac", "is_reserved": 0, "rental_uris": {"android": "https://dc.lft.to/lastmile_qr_scan", "ios": "https://dc.lft.to/lastmile_qr_scan"}, "fusion_lon": 0.0}, {"lat": 38.90976666666667, "is_disabled": 0, "type": "electric_scooter", "lon": -77.05261183333333, "bike_id": "cd5af83a4d337696b3799fb1b8de7eb5", "fusion_lat": 0.0, "name": "cd5af83a4d337696b3799fb1b8de7eb5", "is_reserved": 0, "rental_uris": {"android": "https://dc.lft.to/lastmile_qr_scan", "ios": "https://dc.lft.to/lastmile_qr_scan"}, "fusion_lon": 0.0}, {"lat": 38.866593333333334, "is_disabled": 0, "type": "electric_scooter", "lon": -76.9890905, "bike_id": "93ceecbef749647631dbe3bebe3fa35b", "fusion_lat": 0.0, "name": "93ceecbef749647631dbe3bebe3fa35b", "is_reserved": 0, "rental_uris": {"android": "https://dc.lft.to/lastmile_qr_scan", "ios": "https://dc.lft.to/lastmile_qr_scan"}, "fusion_lon": 0.0}, {"lat": 38.929674166666665, "is_disabled": 0, "type": "electric_scooter", "lon": -77.03179166666666, "bike_id": "2e5fcd18e25de7bd02cd5d7ab03cd82f", "fusion_lat": 0.0, "name": "2e5fcd18e25de7bd02cd5d7ab03cd82f", "is_reserved": 0, "rental_uris": {"android": "https://dc.lft.to/lastmile_qr_scan", "ios": "https://dc.lft.to/lastmile_qr_scan"}, "fusion_lon": 0.0}, {"lat": 38.9213495, "is_disabled": 0, "type": "electric_scooter", "lon": -77.03662966666667, "bike_id": "e9151ffe950ca964769ef9a557d7425b", "fusion_lat": 0.0, "name": "e9151ffe950ca964769ef9a557d7425b", "is_reserved": 0, "rental_uris": {"android": "https://dc.lft.to/lastmile_qr_scan", "ios": "https://dc.lft.to/lastmile_qr_scan"}, "fusion_lon": 0.0}, {"lat": 38.89649333333333, "is_disabled": 0, "type": "electric_scooter", "lon": -77.046542, "bike_id": "b11d2328293a8aa87a6ab428f6c5b6cd", "fusion_lat": 0.0, "name": "b11d2328293a8aa87a6ab428f6c5b6cd", "is_reserved": 0, "rental_uris": {"android": "https://dc.lft.to/lastmile_qr_scan", "ios": "https://dc.lft.to/lastmile_qr_scan"}, "fusion_lon": 0.0}, {"lat": 38.910157, "is_disabled": 0, "type": "electric_scooter", "lon": -77.03016016666666, "bike_id": "69ef04ede0a082d6971f4f6351f5e21f", "fusion_lat": 0.0, "name": "69ef04ede0a082d6971f4f6351f5e21f", "is_reserved": 0, "rental_uris": {"android": "https://dc.lft.to/lastmile_qr_scan", "ios": "https://dc.lft.to/lastmile_qr_scan"}, "fusion_lon": 0.0}, {"lat": 38.9283855, "is_disabled": 0, "type": "electric_scooter", "lon": -77.0542145, "bike_id": "b4cde08fbe9af89519dca6b02f96d5f3", "fusion_lat": 0.0, "name": "b4cde08fbe9af89519dca6b02f96d5f3", "is_reserved": 0, "rental_uris": {"android": "https://dc.lft.to/lastmile_qr_scan", "ios": "https://dc.lft.to/lastmile_qr_scan"}, "fusion_lon": 0.0}, {"lat": 38.92300816666667, "is_disabled": 0, "type": "electric_scooter", "lon": -77.04149366666667, "bike_id": "f11f8f14ec2126ff3c0cb7f5ba9dea38", "fusion_lat": 0.0, "name": "f11f8f14ec2126ff3c0cb7f5ba9dea38", "is_reserved": 0, "rental_uris": {"android": "https://dc.lft.to/lastmile_qr_scan", "ios": "https://dc.lft.to/lastmile_qr_scan"}, "fusion_lon": 0.0}, {"lat": 38.92181033333333, "is_disabled": 0, "type": "electric_scooter", "lon": -77.0470615, "bike_id": "4ac788cb737533a28d33415c9347ff60", "fusion_lat": 0.0, "name": "4ac788cb737533a28d33415c9347ff60", "is_reserved": 0, "rental_uris": {"android": "https://dc.lft.to/lastmile_qr_scan", "ios": "https://dc.lft.to/lastmile_qr_scan"}, "fusion_lon": 0.0}, {"lat": 38.8665355, "is_disabled": 0, "type": "electric_scooter", "lon": -76.98881216666666, "bike_id": "290f83624ea05161a0f632d6cfd36223", "fusion_lat": 0.0, "name": "290f83624ea05161a0f632d6cfd36223", "is_reserved": 0, "rental_uris": {"android": "https://dc.lft.to/lastmile_qr_scan", "ios": "https://dc.lft.to/lastmile_qr_scan"}, "fusion_lon": 0.0}, {"lat": 38.9649115, "is_disabled": 0, "type": "electric_scooter", "lon": -77.02783566666666, "bike_id": "3bd6a14fb13c43d9ad0f6ce446bee72d", "fusion_lat": 0.0, "name": "3bd6a14fb13c43d9ad0f6ce446bee72d", "is_reserved": 0, "rental_uris": {"android": "https://dc.lft.to/lastmile_qr_scan", "ios": "https://dc.lft.to/lastmile_qr_scan"}, "fusion_lon": 0.0}, {"lat": 38.920263166666665, "is_disabled": 0, "type": "electric_scooter", "lon": -77.03851983333334, "bike_id": "fb620d1312fd0bb92e63304c2f50bb0b", "fusion_lat": 0.0, "name": "fb620d1312fd0bb92e63304c2f50bb0b", "is_reserved": 0, "rental_uris": {"android": "https://dc.lft.to/lastmile_qr_scan", "ios": "https://dc.lft.to/lastmile_qr_scan"}, "fusion_lon": 0.0}, {"lat": 38.9323675, "is_disabled": 0, "type": "electric_scooter", "lon": -77.03265433333333, "bike_id": "78d2fa2fb2da8b550d1d293004139e2b", "fusion_lat": 0.0, "name": "78d2fa2fb2da8b550d1d293004139e2b", "is_reserved": 0, "rental_uris": {"android": "https://dc.lft.to/lastmile_qr_scan", "ios": "https://dc.lft.to/lastmile_qr_scan"}, "fusion_lon": 0.0}, {"lat": 38.919188, "is_disabled": 0, "type": "electric_scooter", "lon": -77.03397016666666, "bike_id": "026bed2621c93b666ed2bf7c36aee60e", "fusion_lat": 0.0, "name": "026bed2621c93b666ed2bf7c36aee60e", "is_reserved": 0, "rental_uris": {"android": "https://dc.lft.to/lastmile_qr_scan", "ios": "https://dc.lft.to/lastmile_qr_scan"}, "fusion_lon": 0.0}, {"lat": 38.90380283333333, "is_disabled": 0, "type": "electric_scooter", "lon": -77.0026825, "bike_id": "1b6e250156765cc067ea2d43783106a9", "fusion_lat": 0.0, "name": "1b6e250156765cc067ea2d43783106a9", "is_reserved": 0, "rental_uris": {"android": "https://dc.lft.to/lastmile_qr_scan", "ios": "https://dc.lft.to/lastmile_qr_scan"}, "fusion_lon": 0.0}, {"lat": 38.90522983333334, "is_disabled": 0, "type": "electric_scooter", "lon": -76.986231, "bike_id": "fe5fff431e039e923c094bda33adbdcd", "fusion_lat": 0.0, "name": "fe5fff431e039e923c094bda33adbdcd", "is_reserved": 0, "rental_uris": {"android": "https://dc.lft.to/lastmile_qr_scan", "ios": "https://dc.lft.to/lastmile_qr_scan"}, "fusion_lon": 0.0}, {"lat": 38.86789366666667, "is_disabled": 0, "type": "electric_scooter", "lon": -76.965753, "bike_id": "f96c61a679931ae7f3af7dfd5d4f0c7e", "fusion_lat": 0.0, "name": "f96c61a679931ae7f3af7dfd5d4f0c7e", "is_reserved": 0, "rental_uris": {"android": "https://dc.lft.to/lastmile_qr_scan", "ios": "https://dc.lft.to/lastmile_qr_scan"}, "fusion_lon": 0.0}, {"lat": 38.900340666666665, "is_disabled": 0, "type": "electric_scooter", "lon": -77.00194583333334, "bike_id": "7176a5becb1aaf36c5f318ab858d63a8", "fusion_lat": 0.0, "name": "7176a5becb1aaf36c5f318ab858d63a8", "is_reserved": 0, "rental_uris": {"android": "https://dc.lft.to/lastmile_qr_scan", "ios": "https://dc.lft.to/lastmile_qr_scan"}, "fusion_lon": 0.0}, {"lat": 38.8975045, "is_disabled": 0, "type": "electric_scooter", "lon": -77.01855616666667, "bike_id": "ff682826c17f5a28dc0fd0a6180aa297", "fusion_lat": 0.0, "name": "ff682826c17f5a28dc0fd0a6180aa297", "is_reserved": 0, "rental_uris": {"android": "https://dc.lft.to/lastmile_qr_scan", "ios": "https://dc.lft.to/lastmile_qr_scan"}, "fusion_lon": 0.0}, {"lat": 38.93266, "is_disabled": 0, "type": "electric_scooter", "lon": -77.03282716666666, "bike_id": "fa02c63e4ff2cd3baeeab647fb7b8417", "fusion_lat": 0.0, "name": "fa02c63e4ff2cd3baeeab647fb7b8417", "is_reserved": 0, "rental_uris": {"android": "https://dc.lft.to/lastmile_qr_scan", "ios": "https://dc.lft.to/lastmile_qr_scan"}, "fusion_lon": 0.0}, {"lat": 38.9037325, "is_disabled": 0, "type": "electric_scooter", "lon": -77.03842666666667, "bike_id": "c6aece700a16ff4ec10961e81f307561", "fusion_lat": 0.0, "name": "c6aece700a16ff4ec10961e81f307561", "is_reserved": 0, "rental_uris": {"android": "https://dc.lft.to/lastmile_qr_scan", "ios": "https://dc.lft.to/lastmile_qr_scan"}, "fusion_lon": 0.0}, {"lat": 38.90677066666667, "is_disabled": 0, "type": "electric_scooter", "lon": -77.062628, "bike_id": "04f83c6bf14116b8c01a253293aa9bde", "fusion_lat": 0.0, "name": "04f83c6bf14116b8c01a253293aa9bde", "is_reserved": 0, "rental_uris": {"android": "https://dc.lft.to/lastmile_qr_scan", "ios": "https://dc.lft.to/lastmile_qr_scan"}, "fusion_lon": 0.0}, {"lat": 38.95494016666667, "is_disabled": 0, "type": "electric_scooter", "lon": -77.06567483333333, "bike_id": "a6714440514d376499ba71d4f5134d11", "fusion_lat": 0.0, "name": "a6714440514d376499ba71d4f5134d11", "is_reserved": 0, "rental_uris": {"android": "https://dc.lft.to/lastmile_qr_scan", "ios": "https://dc.lft.to/lastmile_qr_scan"}, "fusion_lon": 0.0}, {"lat": 38.92045566666667, "is_disabled": 0, "type": "electric_scooter", "lon": -77.03472583333334, "bike_id": "a43d0aca05b601be74292bd1df2a4e32", "fusion_lat": 0.0, "name": "a43d0aca05b601be74292bd1df2a4e32", "is_reserved": 0, "rental_uris": {"android": "https://dc.lft.to/lastmile_qr_scan", "ios": "https://dc.lft.to/lastmile_qr_scan"}, "fusion_lon": 0.0}, {"lat": 38.8665645, "is_disabled": 0, "type": "electric_scooter", "lon": -76.9888105, "bike_id": "5426ce1e3f6e21cae5ab852cf47f1825", "fusion_lat": 0.0, "name": "5426ce1e3f6e21cae5ab852cf47f1825", "is_reserved": 0, "rental_uris": {"android": "https://dc.lft.to/lastmile_qr_scan", "ios": "https://dc.lft.to/lastmile_qr_scan"}, "fusion_lon": 0.0}, {"lat": 38.917741666666664, "is_disabled": 0, "type": "electric_scooter", "lon": -77.01501883333333, "bike_id": "d74ce5a90b4e04ba755dad875d86e695", "fusion_lat": 0.0, "name": "d74ce5a90b4e04ba755dad875d86e695", "is_reserved": 0, "rental_uris": {"android": "https://dc.lft.to/lastmile_qr_scan", "ios": "https://dc.lft.to/lastmile_qr_scan"}, "fusion_lon": 0.0}, {"lat": 38.8951685, "is_disabled": 0, "type": "electric_scooter", "lon": -76.977316, "bike_id": "13318d2a800d8a1ff9030e958e9517c4", "fusion_lat": 0.0, "name": "13318d2a800d8a1ff9030e958e9517c4", "is_reserved": 0, "rental_uris": {"android": "https://dc.lft.to/lastmile_qr_scan", "ios": "https://dc.lft.to/lastmile_qr_scan"}, "fusion_lon": 0.0}, {"lat": 38.900384833333334, "is_disabled": 0, "type": "electric_scooter", "lon": -77.02913866666667, "bike_id": "7332cb6c19ed887ee86346717fdfc024", "fusion_lat": 0.0, "name": "7332cb6c19ed887ee86346717fdfc024", "is_reserved": 0, "rental_uris": {"android": "https://dc.lft.to/lastmile_qr_scan", "ios": "https://dc.lft.to/lastmile_qr_scan"}, "fusion_lon": 0.0}, {"lat": 38.92026966666667, "is_disabled": 0, "type": "electric_bike", "lon": -77.00343733333334, "bike_id": "10fd9a0b88dd05ed06bec816a73b1f8c", "fusion_lat": 0.0, "name": "10fd9a0b88dd05ed06bec816a73b1f8c", "is_reserved": 0, "rental_uris": {"android": "https://dc.lft.to/lastmile_qr_scan", "ios": "https://dc.lft.to/lastmile_qr_scan"}, "fusion_lon": 0.0}, {"lat": 38.92198616666667, "is_disabled": 0, "type": "electric_scooter", "lon": -77.0412885, "bike_id": "1fb567a853b740f6c58a092642e4f031", "fusion_lat": 0.0, "name": "1fb567a853b740f6c58a092642e4f031", "is_reserved": 0, "rental_uris": {"android": "https://dc.lft.to/lastmile_qr_scan", "ios": "https://dc.lft.to/lastmile_qr_scan"}, "fusion_lon": 0.0}, {"lat": 38.92155916666667, "is_disabled": 0, "type": "electric_scooter", "lon": -77.03366783333334, "bike_id": "9aa224af106ac9bc8b4f6b929da78730", "fusion_lat": 0.0, "name": "9aa224af106ac9bc8b4f6b929da78730", "is_reserved": 0, "rental_uris": {"android": "https://dc.lft.to/lastmile_qr_scan", "ios": "https://dc.lft.to/lastmile_qr_scan"}, "fusion_lon": 0.0}, {"lat": 38.86709183333333, "is_disabled": 0, "type": "electric_scooter", "lon": -76.98723666666666, "bike_id": "0f1633bf88bddd4d101761bc17b84c15", "fusion_lat": 0.0, "name": "0f1633bf88bddd4d101761bc17b84c15", "is_reserved": 0, "rental_uris": {"android": "https://dc.lft.to/lastmile_qr_scan", "ios": "https://dc.lft.to/lastmile_qr_scan"}, "fusion_lon": 0.0}, {"lat": 38.92208983333333, "is_disabled": 0, "type": "electric_scooter", "lon": -77.04016833333333, "bike_id": "b4ecb3baff19cc9f8982fd2365657a74", "fusion_lat": 0.0, "name": "b4ecb3baff19cc9f8982fd2365657a74", "is_reserved": 0, "rental_uris": {"android": "https://dc.lft.to/lastmile_qr_scan", "ios": "https://dc.lft.to/lastmile_qr_scan"}, "fusion_lon": 0.0}, {"lat": 38.896007, "is_disabled": 0, "type": "electric_scooter", "lon": -77.01222283333334, "bike_id": "33ae4bcdd5032a917e5a515b2fd2585c", "fusion_lat": 0.0, "name": "33ae4bcdd5032a917e5a515b2fd2585c", "is_reserved": 0, "rental_uris": {"android": "https://dc.lft.to/lastmile_qr_scan", "ios": "https://dc.lft.to/lastmile_qr_scan"}, "fusion_lon": 0.0}, {"lat": 38.915193333333335, "is_disabled": 0, "type": "electric_scooter", "lon": -77.0384465, "bike_id": "37462264d7f4a3edae4aec0b18016296", "fusion_lat": 0.0, "name": "37462264d7f4a3edae4aec0b18016296", "is_reserved": 0, "rental_uris": {"android": "https://dc.lft.to/lastmile_qr_scan", "ios": "https://dc.lft.to/lastmile_qr_scan"}, "fusion_lon": 0.0}, {"lat": 38.91670516666667, "is_disabled": 0, "type": "electric_bike", "lon": -77.04738433333333, "bike_id": "cbdcfff190de428e0256cfd9e3195b67", "fusion_lat": 0.0, "name": "cbdcfff190de428e0256cfd9e3195b67", "is_reserved": 0, "rental_uris": {"android": "https://dc.lft.to/lastmile_qr_scan", "ios": "https://dc.lft.to/lastmile_qr_scan"}, "fusion_lon": 0.0}, {"lat": 38.908634666666664, "is_disabled": 0, "type": "electric_scooter", "lon": -77.0465985, "bike_id": "ed611b2f5ddb11dbb5a8c6d26e148ba9", "fusion_lat": 0.0, "name": "ed611b2f5ddb11dbb5a8c6d26e148ba9", "is_reserved": 0, "rental_uris": {"android": "https://dc.lft.to/lastmile_qr_scan", "ios": "https://dc.lft.to/lastmile_qr_scan"}, "fusion_lon": 0.0}, {"lat": 38.900347, "is_disabled": 0, "type": "electric_scooter", "lon": -76.99667366666667, "bike_id": "0f042936eb8b86fa6fe7880491d38db0", "fusion_lat": 0.0, "name": "0f042936eb8b86fa6fe7880491d38db0", "is_reserved": 0, "rental_uris": {"android": "https://dc.lft.to/lastmile_qr_scan", "ios": "https://dc.lft.to/lastmile_qr_scan"}, "fusion_lon": 0.0}, {"lat": 38.924041833333334, "is_disabled": 0, "type": "electric_scooter", "lon": -77.02544, "bike_id": "ca0007286b1de551bf872ea25bda1b9f", "fusion_lat": 0.0, "name": "ca0007286b1de551bf872ea25bda1b9f", "is_reserved": 0, "rental_uris": {"android": "https://dc.lft.to/lastmile_qr_scan", "ios": "https://dc.lft.to/lastmile_qr_scan"}, "fusion_lon": 0.0}, {"lat": 38.935552666666666, "is_disabled": 0, "type": "electric_scooter", "lon": -77.05878916666667, "bike_id": "4bc5d48f2f07c3c118202a8505f9bfcf", "fusion_lat": 0.0, "name": "4bc5d48f2f07c3c118202a8505f9bfcf", "is_reserved": 0, "rental_uris": {"android": "https://dc.lft.to/lastmile_qr_scan", "ios": "https://dc.lft.to/lastmile_qr_scan"}, "fusion_lon": 0.0}, {"lat": 38.920511, "is_disabled": 0, "type": "electric_scooter", "lon": -77.03343383333333, "bike_id": "ceaeaa67d3844c658a8b77c6f985f9db", "fusion_lat": 0.0, "name": "ceaeaa67d3844c658a8b77c6f985f9db", "is_reserved": 0, "rental_uris": {"android": "https://dc.lft.to/lastmile_qr_scan", "ios": "https://dc.lft.to/lastmile_qr_scan"}, "fusion_lon": 0.0}, {"lat": 38.919616500000004, "is_disabled": 0, "type": "electric_scooter", "lon": -77.039605, "bike_id": "55fb8a8c9068400ea057aa76e8adb1b9", "fusion_lat": 0.0, "name": "55fb8a8c9068400ea057aa76e8adb1b9", "is_reserved": 0, "rental_uris": {"android": "https://dc.lft.to/lastmile_qr_scan", "ios": "https://dc.lft.to/lastmile_qr_scan"}, "fusion_lon": 0.0}, {"lat": 38.90463333333334, "is_disabled": 0, "type": "electric_scooter", "lon": -77.0077815, "bike_id": "f2165640b6f4749eb1be41f8e0450e34", "fusion_lat": 0.0, "name": "f2165640b6f4749eb1be41f8e0450e34", "is_reserved": 0, "rental_uris": {"android": "https://dc.lft.to/lastmile_qr_scan", "ios": "https://dc.lft.to/lastmile_qr_scan"}, "fusion_lon": 0.0}, {"lat": 38.902102666666664, "is_disabled": 0, "type": "electric_scooter", "lon": -76.9883665, "bike_id": "8abf12696be56fdcc8919d46dde11c26", "fusion_lat": 0.0, "name": "8abf12696be56fdcc8919d46dde11c26", "is_reserved": 0, "rental_uris": {"android": "https://dc.lft.to/lastmile_qr_scan", "ios": "https://dc.lft.to/lastmile_qr_scan"}, "fusion_lon": 0.0}, {"lat": 38.924658, "is_disabled": 0, "type": "electric_scooter", "lon": -77.052302, "bike_id": "b8023abac4c06506ec0139263cf7c5ed", "fusion_lat": 0.0, "name": "b8023abac4c06506ec0139263cf7c5ed", "is_reserved": 0, "rental_uris": {"android": "https://dc.lft.to/lastmile_qr_scan", "ios": "https://dc.lft.to/lastmile_qr_scan"}, "fusion_lon": 0.0}, {"lat": 38.90428816666667, "is_disabled": 0, "type": "electric_scooter", "lon": -77.01771183333334, "bike_id": "180cf6eb73a42e46dc16129123b09387", "fusion_lat": 0.0, "name": "180cf6eb73a42e46dc16129123b09387", "is_reserved": 0, "rental_uris": {"android": "https://dc.lft.to/lastmile_qr_scan", "ios": "https://dc.lft.to/lastmile_qr_scan"}, "fusion_lon": 0.0}, {"lat": 38.79305433333333, "is_disabled": 0, "type": "electric_bike", "lon": -77.0492445, "bike_id": "b5c8bad86f93c66a4890ceb2c034ccf1", "fusion_lat": 0.0, "name": "b5c8bad86f93c66a4890ceb2c034ccf1", "is_reserved": 0, "rental_uris": {"android": "https://dc.lft.to/lastmile_qr_scan", "ios": "https://dc.lft.to/lastmile_qr_scan"}, "fusion_lon": 0.0}, {"lat": 38.90781, "is_disabled": 0, "type": "electric_scooter", "lon": -77.03858966666667, "bike_id": "e2d1bbe477e54a13216c2b9abb2a2b70", "fusion_lat": 0.0, "name": "e2d1bbe477e54a13216c2b9abb2a2b70", "is_reserved": 0, "rental_uris": {"android": "https://dc.lft.to/lastmile_qr_scan", "ios": "https://dc.lft.to/lastmile_qr_scan"}, "fusion_lon": 0.0}, {"lat": 38.9044795, "is_disabled": 0, "type": "electric_scooter", "lon": -77.04357766666666, "bike_id": "611b84d8023f69c8da3f97e45db8f192", "fusion_lat": 0.0, "name": "611b84d8023f69c8da3f97e45db8f192", "is_reserved": 0, "rental_uris": {"android": "https://dc.lft.to/lastmile_qr_scan", "ios": "https://dc.lft.to/lastmile_qr_scan"}, "fusion_lon": 0.0}, {"lat": 38.9036325, "is_disabled": 0, "type": "electric_scooter", "lon": -76.97653, "bike_id": "2f43f43e7d078f72aba68c33cda153cb", "fusion_lat": 0.0, "name": "2f43f43e7d078f72aba68c33cda153cb", "is_reserved": 0, "rental_uris": {"android": "https://dc.lft.to/lastmile_qr_scan", "ios": "https://dc.lft.to/lastmile_qr_scan"}, "fusion_lon": 0.0}, {"lat": 38.8802145, "is_disabled": 0, "type": "electric_scooter", "lon": -76.93127883333334, "bike_id": "9be459635d6427be71cba11d5336c73c", "fusion_lat": 0.0, "name": "9be459635d6427be71cba11d5336c73c", "is_reserved": 0, "rental_uris": {"android": "https://dc.lft.to/lastmile_qr_scan", "ios": "https://dc.lft.to/lastmile_qr_scan"}, "fusion_lon": 0.0}, {"lat": 38.92070833333333, "is_disabled": 0, "type": "electric_scooter", "lon": -77.01422683333334, "bike_id": "c2d3fd2fcaf5c87f28cc9e2bbe0b928a", "fusion_lat": 0.0, "name": "c2d3fd2fcaf5c87f28cc9e2bbe0b928a", "is_reserved": 0, "rental_uris": {"android": "https://dc.lft.to/lastmile_qr_scan", "ios": "https://dc.lft.to/lastmile_qr_scan"}, "fusion_lon": 0.0}, {"lat": 38.92664166666667, "is_disabled": 0, "type": "electric_scooter", "lon": -77.05602266666666, "bike_id": "da4dd386188c666e45eeda23d4d5e6f9", "fusion_lat": 0.0, "name": "da4dd386188c666e45eeda23d4d5e6f9", "is_reserved": 0, "rental_uris": {"android": "https://dc.lft.to/lastmile_qr_scan", "ios": "https://dc.lft.to/lastmile_qr_scan"}, "fusion_lon": 0.0}, {"lat": 38.895515833333334, "is_disabled": 0, "type": "electric_scooter", "lon": -76.93377366666667, "bike_id": "23af79a4b7a4da0f343e5d43349e80e9", "fusion_lat": 0.0, "name": "23af79a4b7a4da0f343e5d43349e80e9", "is_reserved": 0, "rental_uris": {"android": "https://dc.lft.to/lastmile_qr_scan", "ios": "https://dc.lft.to/lastmile_qr_scan"}, "fusion_lon": 0.0}, {"lat": 38.9141625, "is_disabled": 0, "type": "electric_scooter", "lon": -77.0407455, "bike_id": "d33b85e00a7ee27ebd0a061c4da9fce0", "fusion_lat": 0.0, "name": "d33b85e00a7ee27ebd0a061c4da9fce0", "is_reserved": 0, "rental_uris": {"android": "https://dc.lft.to/lastmile_qr_scan", "ios": "https://dc.lft.to/lastmile_qr_scan"}, "fusion_lon": 0.0}, {"lat": 38.952139833333334, "is_disabled": 0, "type": "electric_scooter", "lon": -77.02016683333333, "bike_id": "23210dc9d47bd7c1ca26d20ed5dc7239", "fusion_lat": 0.0, "name": "23210dc9d47bd7c1ca26d20ed5dc7239", "is_reserved": 0, "rental_uris": {"android": "https://dc.lft.to/lastmile_qr_scan", "ios": "https://dc.lft.to/lastmile_qr_scan"}, "fusion_lon": 0.0}, {"lat": 38.939733, "is_disabled": 0, "type": "electric_scooter", "lon": -77.03588516666667, "bike_id": "5be86a539e623f61eb2edba19d5b6117", "fusion_lat": 0.0, "name": "5be86a539e623f61eb2edba19d5b6117", "is_reserved": 0, "rental_uris": {"android": "https://dc.lft.to/lastmile_qr_scan", "ios": "https://dc.lft.to/lastmile_qr_scan"}, "fusion_lon": 0.0}, {"lat": 38.9078775, "is_disabled": 0, "type": "electric_scooter", "lon": -77.06891533333334, "bike_id": "a5ecac3c69c3709714608d8c1e963ea9", "fusion_lat": 0.0, "name": "a5ecac3c69c3709714608d8c1e963ea9", "is_reserved": 0, "rental_uris": {"android": "https://dc.lft.to/lastmile_qr_scan", "ios": "https://dc.lft.to/lastmile_qr_scan"}, "fusion_lon": 0.0}, {"lat": 38.8872915, "is_disabled": 0, "type": "electric_scooter", "lon": -77.02828183333334, "bike_id": "8bc2cbf74faa66ffe90a031a1c625020", "fusion_lat": 0.0, "name": "8bc2cbf74faa66ffe90a031a1c625020", "is_reserved": 0, "rental_uris": {"android": "https://dc.lft.to/lastmile_qr_scan", "ios": "https://dc.lft.to/lastmile_qr_scan"}, "fusion_lon": 0.0}, {"lat": 38.88722466666667, "is_disabled": 0, "type": "electric_scooter", "lon": -77.0137935, "bike_id": "e4e13e8429c0404d3aefab59fba9a573", "fusion_lat": 0.0, "name": "e4e13e8429c0404d3aefab59fba9a573", "is_reserved": 0, "rental_uris": {"android": "https://dc.lft.to/lastmile_qr_scan", "ios": "https://dc.lft.to/lastmile_qr_scan"}, "fusion_lon": 0.0}, {"lat": 38.9034445, "is_disabled": 0, "type": "electric_scooter", "lon": -77.020892, "bike_id": "b4574414ebd8b9dfc135b2894ac5fc54", "fusion_lat": 0.0, "name": "b4574414ebd8b9dfc135b2894ac5fc54", "is_reserved": 0, "rental_uris": {"android": "https://dc.lft.to/lastmile_qr_scan", "ios": "https://dc.lft.to/lastmile_qr_scan"}, "fusion_lon": 0.0}, {"lat": 38.9192325, "is_disabled": 0, "type": "electric_scooter", "lon": -77.00099866666666, "bike_id": "bfa52be3a28ee6c86d952522b1c53050", "fusion_lat": 0.0, "name": "bfa52be3a28ee6c86d952522b1c53050", "is_reserved": 0, "rental_uris": {"android": "https://dc.lft.to/lastmile_qr_scan", "ios": "https://dc.lft.to/lastmile_qr_scan"}, "fusion_lon": 0.0}, {"lat": 38.863573833333334, "is_disabled": 0, "type": "electric_scooter", "lon": -76.98275366666667, "bike_id": "57aeac3d04344371814bf8013b9a0090", "fusion_lat": 0.0, "name": "57aeac3d04344371814bf8013b9a0090", "is_reserved": 0, "rental_uris": {"android": "https://dc.lft.to/lastmile_qr_scan", "ios": "https://dc.lft.to/lastmile_qr_scan"}, "fusion_lon": 0.0}, {"lat": 38.90873466666667, "is_disabled": 0, "type": "electric_scooter", "lon": -77.03678283333333, "bike_id": "2a9bd511298b9e7f876d1f64ce05bf3d", "fusion_lat": 0.0, "name": "2a9bd511298b9e7f876d1f64ce05bf3d", "is_reserved": 0, "rental_uris": {"android": "https://dc.lft.to/lastmile_qr_scan", "ios": "https://dc.lft.to/lastmile_qr_scan"}, "fusion_lon": 0.0}, {"lat": 38.92053933333333, "is_disabled": 0, "type": "electric_scooter", "lon": -77.03289416666667, "bike_id": "00cccdadaee5307e3941816aa6ecce09", "fusion_lat": 0.0, "name": "00cccdadaee5307e3941816aa6ecce09", "is_reserved": 0, "rental_uris": {"android": "https://dc.lft.to/lastmile_qr_scan", "ios": "https://dc.lft.to/lastmile_qr_scan"}, "fusion_lon": 0.0}, {"lat": 38.92457116666667, "is_disabled": 0, "type": "electric_scooter", "lon": -77.0122255, "bike_id": "aee1d880a02d543a0bc047201c5e7070", "fusion_lat": 0.0, "name": "aee1d880a02d543a0bc047201c5e7070", "is_reserved": 0, "rental_uris": {"android": "https://dc.lft.to/lastmile_qr_scan", "ios": "https://dc.lft.to/lastmile_qr_scan"}, "fusion_lon": 0.0}, {"lat": 38.9287655, "is_disabled": 0, "type": "electric_bike", "lon": -77.03694683333333, "bike_id": "d47141016b2423507b5f0397858879b3", "fusion_lat": 0.0, "name": "d47141016b2423507b5f0397858879b3", "is_reserved": 0, "rental_uris": {"android": "https://dc.lft.to/lastmile_qr_scan", "ios": "https://dc.lft.to/lastmile_qr_scan"}, "fusion_lon": 0.0}, {"lat": 38.91987566666667, "is_disabled": 0, "type": "electric_scooter", "lon": -76.9730545, "bike_id": "60897b1f01e6a8cc2c578c8d9a0a941d", "fusion_lat": 0.0, "name": "60897b1f01e6a8cc2c578c8d9a0a941d", "is_reserved": 0, "rental_uris": {"android": "https://dc.lft.to/lastmile_qr_scan", "ios": "https://dc.lft.to/lastmile_qr_scan"}, "fusion_lon": 0.0}, {"lat": 38.9159585, "is_disabled": 0, "type": "electric_scooter", "lon": -77.02391316666667, "bike_id": "38a8fcb96c2b93bb088c3cb8ca99caa2", "fusion_lat": 0.0, "name": "38a8fcb96c2b93bb088c3cb8ca99caa2", "is_reserved": 0, "rental_uris": {"android": "https://dc.lft.to/lastmile_qr_scan", "ios": "https://dc.lft.to/lastmile_qr_scan"}, "fusion_lon": 0.0}, {"lat": 38.92425183333334, "is_disabled": 0, "type": "electric_scooter", "lon": -77.05178666666667, "bike_id": "b990e37c38d8f32a6656da2113bca63e", "fusion_lat": 0.0, "name": "b990e37c38d8f32a6656da2113bca63e", "is_reserved": 0, "rental_uris": {"android": "https://dc.lft.to/lastmile_qr_scan", "ios": "https://dc.lft.to/lastmile_qr_scan"}, "fusion_lon": 0.0}, {"lat": 38.927446, "is_disabled": 0, "type": "electric_scooter", "lon": -77.034116, "bike_id": "b409ed08db21e3fe7abfce64b112ec46", "fusion_lat": 0.0, "name": "b409ed08db21e3fe7abfce64b112ec46", "is_reserved": 0, "rental_uris": {"android": "https://dc.lft.to/lastmile_qr_scan", "ios": "https://dc.lft.to/lastmile_qr_scan"}, "fusion_lon": 0.0}, {"lat": 38.9086645, "is_disabled": 0, "type": "electric_scooter", "lon": -77.04660416666667, "bike_id": "acec84f7f60c505ba9531e2eaab648d9", "fusion_lat": 0.0, "name": "acec84f7f60c505ba9531e2eaab648d9", "is_reserved": 0, "rental_uris": {"android": "https://dc.lft.to/lastmile_qr_scan", "ios": "https://dc.lft.to/lastmile_qr_scan"}, "fusion_lon": 0.0}, {"lat": 38.965596833333336, "is_disabled": 0, "type": "electric_bike", "lon": -77.0230265, "bike_id": "8047f141c2223fc8774673708356837b", "fusion_lat": 0.0, "name": "8047f141c2223fc8774673708356837b", "is_reserved": 0, "rental_uris": {"android": "https://dc.lft.to/lastmile_qr_scan", "ios": "https://dc.lft.to/lastmile_qr_scan"}, "fusion_lon": 0.0}, {"lat": 38.90972283333333, "is_disabled": 0, "type": "electric_scooter", "lon": -77.04519266666667, "bike_id": "9dc52abc11eaed097b492d97462ae283", "fusion_lat": 0.0, "name": "9dc52abc11eaed097b492d97462ae283", "is_reserved": 0, "rental_uris": {"android": "https://dc.lft.to/lastmile_qr_scan", "ios": "https://dc.lft.to/lastmile_qr_scan"}, "fusion_lon": 0.0}, {"lat": 38.92330316666666, "is_disabled": 0, "type": "electric_scooter", "lon": -77.03912266666667, "bike_id": "5429103bfb23e9bc5ff97d4add4cb55b", "fusion_lat": 0.0, "name": "5429103bfb23e9bc5ff97d4add4cb55b", "is_reserved": 0, "rental_uris": {"android": "https://dc.lft.to/lastmile_qr_scan", "ios": "https://dc.lft.to/lastmile_qr_scan"}, "fusion_lon": 0.0}, {"lat": 38.90141, "is_disabled": 0, "type": "electric_scooter", "lon": -77.00070883333333, "bike_id": "172223143718259d687393c1c80a6bb5", "fusion_lat": 0.0, "name": "172223143718259d687393c1c80a6bb5", "is_reserved": 0, "rental_uris": {"android": "https://dc.lft.to/lastmile_qr_scan", "ios": "https://dc.lft.to/lastmile_qr_scan"}, "fusion_lon": 0.0}, {"lat": 38.92182283333333, "is_disabled": 0, "type": "electric_scooter", "lon": -77.04226016666667, "bike_id": "116a5c977ccb1200512ce153184b6671", "fusion_lat": 0.0, "name": "116a5c977ccb1200512ce153184b6671", "is_reserved": 0, "rental_uris": {"android": "https://dc.lft.to/lastmile_qr_scan", "ios": "https://dc.lft.to/lastmile_qr_scan"}, "fusion_lon": 0.0}, {"lat": 38.90730833333333, "is_disabled": 0, "type": "electric_scooter", "lon": -77.04826433333334, "bike_id": "013e9674ec00daa1e643b0796273aa7e", "fusion_lat": 0.0, "name": "013e9674ec00daa1e643b0796273aa7e", "is_reserved": 0, "rental_uris": {"android": "https://dc.lft.to/lastmile_qr_scan", "ios": "https://dc.lft.to/lastmile_qr_scan"}, "fusion_lon": 0.0}, {"lat": 38.929112833333335, "is_disabled": 0, "type": "electric_scooter", "lon": -77.03285833333334, "bike_id": "a5b37dd35d1eb83e86fb81448342ba82", "fusion_lat": 0.0, "name": "a5b37dd35d1eb83e86fb81448342ba82", "is_reserved": 0, "rental_uris": {"android": "https://dc.lft.to/lastmile_qr_scan", "ios": "https://dc.lft.to/lastmile_qr_scan"}, "fusion_lon": 0.0}, {"lat": 38.951704, "is_disabled": 0, "type": "electric_scooter", "lon": -77.00982766666667, "bike_id": "80c3c3423e847f90ef3de2560510217a", "fusion_lat": 0.0, "name": "80c3c3423e847f90ef3de2560510217a", "is_reserved": 0, "rental_uris": {"android": "https://dc.lft.to/lastmile_qr_scan", "ios": "https://dc.lft.to/lastmile_qr_scan"}, "fusion_lon": 0.0}, {"lat": 38.90072966666666, "is_disabled": 0, "type": "electric_scooter", "lon": -77.0531165, "bike_id": "94c0f1ce3fed6574075e4c98e348f692", "fusion_lat": 0.0, "name": "94c0f1ce3fed6574075e4c98e348f692", "is_reserved": 0, "rental_uris": {"android": "https://dc.lft.to/lastmile_qr_scan", "ios": "https://dc.lft.to/lastmile_qr_scan"}, "fusion_lon": 0.0}, {"lat": 38.93679816666667, "is_disabled": 0, "type": "electric_scooter", "lon": -77.03576533333333, "bike_id": "7831c6939898344690af7d576193efdd", "fusion_lat": 0.0, "name": "7831c6939898344690af7d576193efdd", "is_reserved": 0, "rental_uris": {"android": "https://dc.lft.to/lastmile_qr_scan", "ios": "https://dc.lft.to/lastmile_qr_scan"}, "fusion_lon": 0.0}, {"lat": 38.8870575, "is_disabled": 0, "type": "electric_scooter", "lon": -77.00153566666667, "bike_id": "a08762334dd89bab824c1bdf010b5af2", "fusion_lat": 0.0, "name": "a08762334dd89bab824c1bdf010b5af2", "is_reserved": 0, "rental_uris": {"android": "https://dc.lft.to/lastmile_qr_scan", "ios": "https://dc.lft.to/lastmile_qr_scan"}, "fusion_lon": 0.0}, {"lat": 38.946242, "is_disabled": 0, "type": "electric_scooter", "lon": -77.01845233333333, "bike_id": "b747b3772f43f7f07a33357d176371e5", "fusion_lat": 0.0, "name": "b747b3772f43f7f07a33357d176371e5", "is_reserved": 0, "rental_uris": {"android": "https://dc.lft.to/lastmile_qr_scan", "ios": "https://dc.lft.to/lastmile_qr_scan"}, "fusion_lon": 0.0}, {"lat": 39.03050733333333, "is_disabled": 0, "type": "electric_bike", "lon": -77.09485766666667, "bike_id": "2f4c7e38c6453cfa581b09ef0fea8dff", "fusion_lat": 0.0, "name": "2f4c7e38c6453cfa581b09ef0fea8dff", "is_reserved": 0, "rental_uris": {"android": "https://dc.lft.to/lastmile_qr_scan", "ios": "https://dc.lft.to/lastmile_qr_scan"}, "fusion_lon": 0.0}, {"lat": 38.92200066666667, "is_disabled": 0, "type": "electric_scooter", "lon": -77.04251883333333, "bike_id": "4420cc0723806b00c2ccc0633c05c942", "fusion_lat": 0.0, "name": "4420cc0723806b00c2ccc0633c05c942", "is_reserved": 0, "rental_uris": {"android": "https://dc.lft.to/lastmile_qr_scan", "ios": "https://dc.lft.to/lastmile_qr_scan"}, "fusion_lon": 0.0}, {"lat": 38.89515033333333, "is_disabled": 0, "type": "electric_scooter", "lon": -77.04360033333333, "bike_id": "854591536f669f9902b313fc758a2bb9", "fusion_lat": 0.0, "name": "854591536f669f9902b313fc758a2bb9", "is_reserved": 0, "rental_uris": {"android": "https://dc.lft.to/lastmile_qr_scan", "ios": "https://dc.lft.to/lastmile_qr_scan"}, "fusion_lon": 0.0}, {"lat": 38.928992, "is_disabled": 0, "type": "electric_scooter", "lon": -77.03274383333333, "bike_id": "638a0c59c2a7a84e9185f597d3bd5c8d", "fusion_lat": 0.0, "name": "638a0c59c2a7a84e9185f597d3bd5c8d", "is_reserved": 0, "rental_uris": {"android": "https://dc.lft.to/lastmile_qr_scan", "ios": "https://dc.lft.to/lastmile_qr_scan"}, "fusion_lon": 0.0}, {"lat": 38.92487533333333, "is_disabled": 0, "type": "electric_scooter", "lon": -77.03183366666667, "bike_id": "78871031752803337b44711985baf874", "fusion_lat": 0.0, "name": "78871031752803337b44711985baf874", "is_reserved": 0, "rental_uris": {"android": "https://dc.lft.to/lastmile_qr_scan", "ios": "https://dc.lft.to/lastmile_qr_scan"}, "fusion_lon": 0.0}, {"lat": 38.925406833333334, "is_disabled": 0, "type": "electric_scooter", "lon": -77.03448366666667, "bike_id": "10b5f8d558003fe28420b128a6e19753", "fusion_lat": 0.0, "name": "10b5f8d558003fe28420b128a6e19753", "is_reserved": 0, "rental_uris": {"android": "https://dc.lft.to/lastmile_qr_scan", "ios": "https://dc.lft.to/lastmile_qr_scan"}, "fusion_lon": 0.0}, {"lat": 38.858063, "is_disabled": 0, "type": "electric_scooter", "lon": -76.98651516666666, "bike_id": "fa1a646741a85235b97f348b756e0ca6", "fusion_lat": 0.0, "name": "fa1a646741a85235b97f348b756e0ca6", "is_reserved": 0, "rental_uris": {"android": "https://dc.lft.to/lastmile_qr_scan", "ios": "https://dc.lft.to/lastmile_qr_scan"}, "fusion_lon": 0.0}, {"lat": 38.96608716666667, "is_disabled": 0, "type": "electric_scooter", "lon": -77.020486, "bike_id": "29f21f74ecb8feefd059cfd9ff5b0c6a", "fusion_lat": 0.0, "name": "29f21f74ecb8feefd059cfd9ff5b0c6a", "is_reserved": 0, "rental_uris": {"android": "https://dc.lft.to/lastmile_qr_scan", "ios": "https://dc.lft.to/lastmile_qr_scan"}, "fusion_lon": 0.0}, {"lat": 38.9420775, "is_disabled": 0, "type": "electric_bike", "lon": -77.01827933333334, "bike_id": "05f7505cd0d903fddd0d9973b9346824", "fusion_lat": 0.0, "name": "05f7505cd0d903fddd0d9973b9346824", "is_reserved": 0, "rental_uris": {"android": "https://dc.lft.to/lastmile_qr_scan", "ios": "https://dc.lft.to/lastmile_qr_scan"}, "fusion_lon": 0.0}, {"lat": 38.93478066666667, "is_disabled": 0, "type": "electric_scooter", "lon": -77.05790233333333, "bike_id": "0e3a425c481bf16bf989efc572da9fe1", "fusion_lat": 0.0, "name": "0e3a425c481bf16bf989efc572da9fe1", "is_reserved": 0, "rental_uris": {"android": "https://dc.lft.to/lastmile_qr_scan", "ios": "https://dc.lft.to/lastmile_qr_scan"}, "fusion_lon": 0.0}, {"lat": 38.900322833333334, "is_disabled": 0, "type": "electric_scooter", "lon": -77.00194, "bike_id": "3709c0096115a2672b9a0e3dd16c983f", "fusion_lat": 0.0, "name": "3709c0096115a2672b9a0e3dd16c983f", "is_reserved": 0, "rental_uris": {"android": "https://dc.lft.to/lastmile_qr_scan", "ios": "https://dc.lft.to/lastmile_qr_scan"}, "fusion_lon": 0.0}, {"lat": 38.887503833333334, "is_disabled": 0, "type": "electric_scooter", "lon": -77.0315195, "bike_id": "1ae94e6d2c964567a708ae188a003377", "fusion_lat": 0.0, "name": "1ae94e6d2c964567a708ae188a003377", "is_reserved": 0, "rental_uris": {"android": "https://dc.lft.to/lastmile_qr_scan", "ios": "https://dc.lft.to/lastmile_qr_scan"}, "fusion_lon": 0.0}, {"lat": 38.93657416666667, "is_disabled": 0, "type": "electric_scooter", "lon": -77.03693516666667, "bike_id": "0592a30ac65c2d9902bc63706c571be4", "fusion_lat": 0.0, "name": "0592a30ac65c2d9902bc63706c571be4", "is_reserved": 0, "rental_uris": {"android": "https://dc.lft.to/lastmile_qr_scan", "ios": "https://dc.lft.to/lastmile_qr_scan"}, "fusion_lon": 0.0}, {"lat": 38.914191, "is_disabled": 0, "type": "electric_scooter", "lon": -77.03171866666666, "bike_id": "8ad33f853eab79cc238588a8d681a11e", "fusion_lat": 0.0, "name": "8ad33f853eab79cc238588a8d681a11e", "is_reserved": 0, "rental_uris": {"android": "https://dc.lft.to/lastmile_qr_scan", "ios": "https://dc.lft.to/lastmile_qr_scan"}, "fusion_lon": 0.0}, {"lat": 38.9291435, "is_disabled": 0, "type": "electric_scooter", "lon": -77.03175566666667, "bike_id": "4eed4191c356aec36eded088e3ee6d1b", "fusion_lat": 0.0, "name": "4eed4191c356aec36eded088e3ee6d1b", "is_reserved": 0, "rental_uris": {"android": "https://dc.lft.to/lastmile_qr_scan", "ios": "https://dc.lft.to/lastmile_qr_scan"}, "fusion_lon": 0.0}, {"lat": 38.89045733333333, "is_disabled": 0, "type": "electric_scooter", "lon": -76.94072266666667, "bike_id": "5b62c716d28c06f7c9a6709130219abd", "fusion_lat": 0.0, "name": "5b62c716d28c06f7c9a6709130219abd", "is_reserved": 0, "rental_uris": {"android": "https://dc.lft.to/lastmile_qr_scan", "ios": "https://dc.lft.to/lastmile_qr_scan"}, "fusion_lon": 0.0}, {"lat": 38.892795666666665, "is_disabled": 0, "type": "electric_scooter", "lon": -77.0503305, "bike_id": "fe8e15b2dc612a2648773bee518c9ec6", "fusion_lat": 0.0, "name": "fe8e15b2dc612a2648773bee518c9ec6", "is_reserved": 0, "rental_uris": {"android": "https://dc.lft.to/lastmile_qr_scan", "ios": "https://dc.lft.to/lastmile_qr_scan"}, "fusion_lon": 0.0}, {"lat": 38.899956833333334, "is_disabled": 0, "type": "electric_scooter", "lon": -77.05228733333334, "bike_id": "976db95d6dde8101325c923528649338", "fusion_lat": 0.0, "name": "976db95d6dde8101325c923528649338", "is_reserved": 0, "rental_uris": {"android": "https://dc.lft.to/lastmile_qr_scan", "ios": "https://dc.lft.to/lastmile_qr_scan"}, "fusion_lon": 0.0}, {"lat": 38.85849983333333, "is_disabled": 0, "type": "electric_bike", "lon": -77.097577, "bike_id": "b623d44e36d261707eeb98c149d0667b", "fusion_lat": 0.0, "name": "b623d44e36d261707eeb98c149d0667b", "is_reserved": 0, "rental_uris": {"android": "https://dc.lft.to/lastmile_qr_scan", "ios": "https://dc.lft.to/lastmile_qr_scan"}, "fusion_lon": 0.0}, {"lat": 38.92101616666667, "is_disabled": 0, "type": "electric_scooter", "lon": -77.0437045, "bike_id": "f8f5c0f6d7971ff36665d792d441bda0", "fusion_lat": 0.0, "name": "f8f5c0f6d7971ff36665d792d441bda0", "is_reserved": 0, "rental_uris": {"android": "https://dc.lft.to/lastmile_qr_scan", "ios": "https://dc.lft.to/lastmile_qr_scan"}, "fusion_lon": 0.0}, {"lat": 38.958859833333335, "is_disabled": 0, "type": "electric_bike", "lon": -76.9249765, "bike_id": "7efda8f1d4530c663f1ebb36449cba27", "fusion_lat": 0.0, "name": "7efda8f1d4530c663f1ebb36449cba27", "is_reserved": 0, "rental_uris": {"android": "https://dc.lft.to/lastmile_qr_scan", "ios": "https://dc.lft.to/lastmile_qr_scan"}, "fusion_lon": 0.0}, {"lat": 38.91414233333333, "is_disabled": 0, "type": "electric_scooter", "lon": -77.022339, "bike_id": "a85f1792e41958a308c48a86294a52b9", "fusion_lat": 0.0, "name": "a85f1792e41958a308c48a86294a52b9", "is_reserved": 0, "rental_uris": {"android": "https://dc.lft.to/lastmile_qr_scan", "ios": "https://dc.lft.to/lastmile_qr_scan"}, "fusion_lon": 0.0}, {"lat": 38.897562, "is_disabled": 0, "type": "electric_scooter", "lon": -77.03188183333333, "bike_id": "fb8579263228c1a5951fd50e9c7bfd03", "fusion_lat": 0.0, "name": "fb8579263228c1a5951fd50e9c7bfd03", "is_reserved": 0, "rental_uris": {"android": "https://dc.lft.to/lastmile_qr_scan", "ios": "https://dc.lft.to/lastmile_qr_scan"}, "fusion_lon": 0.0}, {"lat": 38.8996605, "is_disabled": 0, "type": "electric_scooter", "lon": -77.05701483333333, "bike_id": "43c08151d2e0f487cf7ae53483a64c35", "fusion_lat": 0.0, "name": "43c08151d2e0f487cf7ae53483a64c35", "is_reserved": 0, "rental_uris": {"android": "https://dc.lft.to/lastmile_qr_scan", "ios": "https://dc.lft.to/lastmile_qr_scan"}, "fusion_lon": 0.0}, {"lat": 38.914199333333336, "is_disabled": 0, "type": "electric_scooter", "lon": -77.03173333333334, "bike_id": "4d01a2364751815ae66a8fc6c5bec94a", "fusion_lat": 0.0, "name": "4d01a2364751815ae66a8fc6c5bec94a", "is_reserved": 0, "rental_uris": {"android": "https://dc.lft.to/lastmile_qr_scan", "ios": "https://dc.lft.to/lastmile_qr_scan"}, "fusion_lon": 0.0}, {"lat": 38.897380166666665, "is_disabled": 0, "type": "electric_scooter", "lon": -77.04760433333334, "bike_id": "0f2c7b9a79063a60e96efbc06bbc9631", "fusion_lat": 0.0, "name": "0f2c7b9a79063a60e96efbc06bbc9631", "is_reserved": 0, "rental_uris": {"android": "https://dc.lft.to/lastmile_qr_scan", "ios": "https://dc.lft.to/lastmile_qr_scan"}, "fusion_lon": 0.0}, {"lat": 38.91821866666667, "is_disabled": 0, "type": "electric_scooter", "lon": -77.03442766666667, "bike_id": "ca62152e2b170b96ea6f388126b64343", "fusion_lat": 0.0, "name": "ca62152e2b170b96ea6f388126b64343", "is_reserved": 0, "rental_uris": {"android": "https://dc.lft.to/lastmile_qr_scan", "ios": "https://dc.lft.to/lastmile_qr_scan"}, "fusion_lon": 0.0}, {"lat": 38.92239083333333, "is_disabled": 0, "type": "electric_scooter", "lon": -77.0457365, "bike_id": "0516a43b6cdc18df441e5d9d9c87d1fb", "fusion_lat": 0.0, "name": "0516a43b6cdc18df441e5d9d9c87d1fb", "is_reserved": 0, "rental_uris": {"android": "https://dc.lft.to/lastmile_qr_scan", "ios": "https://dc.lft.to/lastmile_qr_scan"}, "fusion_lon": 0.0}, {"lat": 38.90095683333333, "is_disabled": 0, "type": "electric_scooter", "lon": -77.0506445, "bike_id": "7d55a43bae05f5b52aeec4f75dff6baa", "fusion_lat": 0.0, "name": "7d55a43bae05f5b52aeec4f75dff6baa", "is_reserved": 0, "rental_uris": {"android": "https://dc.lft.to/lastmile_qr_scan", "ios": "https://dc.lft.to/lastmile_qr_scan"}, "fusion_lon": 0.0}, {"lat": 38.93986616666667, "is_disabled": 0, "type": "electric_scooter", "lon": -77.0717175, "bike_id": "f88c30908295db731bbcf1f3c384ec6e", "fusion_lat": 0.0, "name": "f88c30908295db731bbcf1f3c384ec6e", "is_reserved": 0, "rental_uris": {"android": "https://dc.lft.to/lastmile_qr_scan", "ios": "https://dc.lft.to/lastmile_qr_scan"}, "fusion_lon": 0.0}, {"lat": 38.85051833333333, "is_disabled": 0, "type": "electric_bike", "lon": -76.97315833333333, "bike_id": "0dc885c4bc4b456285872cf956e6dcff", "fusion_lat": 0.0, "name": "0dc885c4bc4b456285872cf956e6dcff", "is_reserved": 0, "rental_uris": {"android": "https://dc.lft.to/lastmile_qr_scan", "ios": "https://dc.lft.to/lastmile_qr_scan"}, "fusion_lon": 0.0}, {"lat": 38.898815166666665, "is_disabled": 0, "type": "electric_scooter", "lon": -76.93176816666667, "bike_id": "86026d45e6fd4c32afd35022d08ebf5c", "fusion_lat": 0.0, "name": "86026d45e6fd4c32afd35022d08ebf5c", "is_reserved": 0, "rental_uris": {"android": "https://dc.lft.to/lastmile_qr_scan", "ios": "https://dc.lft.to/lastmile_qr_scan"}, "fusion_lon": 0.0}, {"lat": 38.92625683333333, "is_disabled": 0, "type": "electric_scooter", "lon": -77.03706866666667, "bike_id": "abb3e4be9ea3736059d31086b3ea54a9", "fusion_lat": 0.0, "name": "abb3e4be9ea3736059d31086b3ea54a9", "is_reserved": 0, "rental_uris": {"android": "https://dc.lft.to/lastmile_qr_scan", "ios": "https://dc.lft.to/lastmile_qr_scan"}, "fusion_lon": 0.0}, {"lat": 38.897211, "is_disabled": 0, "type": "electric_scooter", "lon": -77.029603, "bike_id": "a6ceb7ccf456a5cb1cbd64ccd04d8a8a", "fusion_lat": 0.0, "name": "a6ceb7ccf456a5cb1cbd64ccd04d8a8a", "is_reserved": 0, "rental_uris": {"android": "https://dc.lft.to/lastmile_qr_scan", "ios": "https://dc.lft.to/lastmile_qr_scan"}, "fusion_lon": 0.0}, {"lat": 38.905101, "is_disabled": 0, "type": "electric_scooter", "lon": -77.062021, "bike_id": "34e932873009f249d4554af395968088", "fusion_lat": 0.0, "name": "34e932873009f249d4554af395968088", "is_reserved": 0, "rental_uris": {"android": "https://dc.lft.to/lastmile_qr_scan", "ios": "https://dc.lft.to/lastmile_qr_scan"}, "fusion_lon": 0.0}, {"lat": 38.91550633333333, "is_disabled": 0, "type": "electric_scooter", "lon": -77.04153883333333, "bike_id": "3a0eb445b4cbb973d8b5332a96147b84", "fusion_lat": 0.0, "name": "3a0eb445b4cbb973d8b5332a96147b84", "is_reserved": 0, "rental_uris": {"android": "https://dc.lft.to/lastmile_qr_scan", "ios": "https://dc.lft.to/lastmile_qr_scan"}, "fusion_lon": 0.0}, {"lat": 38.94440433333333, "is_disabled": 0, "type": "electric_scooter", "lon": -77.0634845, "bike_id": "31f7ae46974c38574ee2088b0ad96701", "fusion_lat": 0.0, "name": "31f7ae46974c38574ee2088b0ad96701", "is_reserved": 0, "rental_uris": {"android": "https://dc.lft.to/lastmile_qr_scan", "ios": "https://dc.lft.to/lastmile_qr_scan"}, "fusion_lon": 0.0}, {"lat": 38.904917833333336, "is_disabled": 0, "type": "electric_scooter", "lon": -77.01998116666667, "bike_id": "80cd42c1d792481755b7babb51fe5fe7", "fusion_lat": 0.0, "name": "80cd42c1d792481755b7babb51fe5fe7", "is_reserved": 0, "rental_uris": {"android": "https://dc.lft.to/lastmile_qr_scan", "ios": "https://dc.lft.to/lastmile_qr_scan"}, "fusion_lon": 0.0}, {"lat": 38.904944666666665, "is_disabled": 0, "type": "electric_scooter", "lon": -76.98715, "bike_id": "71908eaede6fae522112d1aaf945e408", "fusion_lat": 0.0, "name": "71908eaede6fae522112d1aaf945e408", "is_reserved": 0, "rental_uris": {"android": "https://dc.lft.to/lastmile_qr_scan", "ios": "https://dc.lft.to/lastmile_qr_scan"}, "fusion_lon": 0.0}, {"lat": 38.924765666666666, "is_disabled": 0, "type": "electric_scooter", "lon": -77.02652216666667, "bike_id": "211b12b90ac1b0c57ea12aaefe196c9f", "fusion_lat": 0.0, "name": "211b12b90ac1b0c57ea12aaefe196c9f", "is_reserved": 0, "rental_uris": {"android": "https://dc.lft.to/lastmile_qr_scan", "ios": "https://dc.lft.to/lastmile_qr_scan"}, "fusion_lon": 0.0}, {"lat": 38.883947666666664, "is_disabled": 0, "type": "electric_scooter", "lon": -77.01884433333333, "bike_id": "5333b234f5d33c5407528cf87776de9c", "fusion_lat": 0.0, "name": "5333b234f5d33c5407528cf87776de9c", "is_reserved": 0, "rental_uris": {"android": "https://dc.lft.to/lastmile_qr_scan", "ios": "https://dc.lft.to/lastmile_qr_scan"}, "fusion_lon": 0.0}, {"lat": 38.912347833333335, "is_disabled": 0, "type": "electric_scooter", "lon": -77.0021275, "bike_id": "add2217aedda0ef86560a1b04381d167", "fusion_lat": 0.0, "name": "add2217aedda0ef86560a1b04381d167", "is_reserved": 0, "rental_uris": {"android": "https://dc.lft.to/lastmile_qr_scan", "ios": "https://dc.lft.to/lastmile_qr_scan"}, "fusion_lon": 0.0}, {"lat": 38.909212833333335, "is_disabled": 0, "type": "electric_scooter", "lon": -77.03642116666667, "bike_id": "63390868334290c5ec7146b1582feba2", "fusion_lat": 0.0, "name": "63390868334290c5ec7146b1582feba2", "is_reserved": 0, "rental_uris": {"android": "https://dc.lft.to/lastmile_qr_scan", "ios": "https://dc.lft.to/lastmile_qr_scan"}, "fusion_lon": 0.0}, {"lat": 38.86888716666667, "is_disabled": 0, "type": "electric_scooter", "lon": -76.98312133333333, "bike_id": "f368073bd75a8256a4c1e38f46ac2bc5", "fusion_lat": 0.0, "name": "f368073bd75a8256a4c1e38f46ac2bc5", "is_reserved": 0, "rental_uris": {"android": "https://dc.lft.to/lastmile_qr_scan", "ios": "https://dc.lft.to/lastmile_qr_scan"}, "fusion_lon": 0.0}, {"lat": 38.87340483333333, "is_disabled": 0, "type": "electric_scooter", "lon": -76.9916385, "bike_id": "97e152b9c038b0a44b628fbe246f2054", "fusion_lat": 0.0, "name": "97e152b9c038b0a44b628fbe246f2054", "is_reserved": 0, "rental_uris": {"android": "https://dc.lft.to/lastmile_qr_scan", "ios": "https://dc.lft.to/lastmile_qr_scan"}, "fusion_lon": 0.0}, {"lat": 38.904971833333335, "is_disabled": 0, "type": "electric_scooter", "lon": -77.06828533333334, "bike_id": "74092f6f8f5db28d6f914bb1316b8503", "fusion_lat": 0.0, "name": "74092f6f8f5db28d6f914bb1316b8503", "is_reserved": 0, "rental_uris": {"android": "https://dc.lft.to/lastmile_qr_scan", "ios": "https://dc.lft.to/lastmile_qr_scan"}, "fusion_lon": 0.0}, {"lat": 38.9389085, "is_disabled": 0, "type": "electric_scooter", "lon": -77.0282, "bike_id": "1bf3f7512a919f015ac203488b36d002", "fusion_lat": 0.0, "name": "1bf3f7512a919f015ac203488b36d002", "is_reserved": 0, "rental_uris": {"android": "https://dc.lft.to/lastmile_qr_scan", "ios": "https://dc.lft.to/lastmile_qr_scan"}, "fusion_lon": 0.0}, {"lat": 38.93616983333333, "is_disabled": 0, "type": "electric_scooter", "lon": -77.05751816666667, "bike_id": "ff89b9c2119c4e8660ac3e6c23bfda69", "fusion_lat": 0.0, "name": "ff89b9c2119c4e8660ac3e6c23bfda69", "is_reserved": 0, "rental_uris": {"android": "https://dc.lft.to/lastmile_qr_scan", "ios": "https://dc.lft.to/lastmile_qr_scan"}, "fusion_lon": 0.0}, {"lat": 38.905634, "is_disabled": 0, "type": "electric_scooter", "lon": -77.03464633333333, "bike_id": "ee237de7313867522c5d0543b9f2fc13", "fusion_lat": 0.0, "name": "ee237de7313867522c5d0543b9f2fc13", "is_reserved": 0, "rental_uris": {"android": "https://dc.lft.to/lastmile_qr_scan", "ios": "https://dc.lft.to/lastmile_qr_scan"}, "fusion_lon": 0.0}, {"lat": 38.8992405, "is_disabled": 0, "type": "electric_scooter", "lon": -77.05424016666667, "bike_id": "426bb76ad3f0e3e6359168a4bd8b5239", "fusion_lat": 0.0, "name": "426bb76ad3f0e3e6359168a4bd8b5239", "is_reserved": 0, "rental_uris": {"android": "https://dc.lft.to/lastmile_qr_scan", "ios": "https://dc.lft.to/lastmile_qr_scan"}, "fusion_lon": 0.0}, {"lat": 38.893915666666665, "is_disabled": 0, "type": "electric_scooter", "lon": -77.02156983333333, "bike_id": "e9f4a131320893f17eccffa7d88472e5", "fusion_lat": 0.0, "name": "e9f4a131320893f17eccffa7d88472e5", "is_reserved": 0, "rental_uris": {"android": "https://dc.lft.to/lastmile_qr_scan", "ios": "https://dc.lft.to/lastmile_qr_scan"}, "fusion_lon": 0.0}, {"lat": 38.943204, "is_disabled": 0, "type": "electric_scooter", "lon": -77.07382383333334, "bike_id": "e33dcab7dac021e249da7105f7512a35", "fusion_lat": 0.0, "name": "e33dcab7dac021e249da7105f7512a35", "is_reserved": 0, "rental_uris": {"android": "https://dc.lft.to/lastmile_qr_scan", "ios": "https://dc.lft.to/lastmile_qr_scan"}, "fusion_lon": 0.0}, {"lat": 38.88708116666667, "is_disabled": 0, "type": "electric_scooter", "lon": -77.0321345, "bike_id": "e80ab7cc2fa972fd1bc947651f1191da", "fusion_lat": 0.0, "name": "e80ab7cc2fa972fd1bc947651f1191da", "is_reserved": 0, "rental_uris": {"android": "https://dc.lft.to/lastmile_qr_scan", "ios": "https://dc.lft.to/lastmile_qr_scan"}, "fusion_lon": 0.0}, {"lat": 38.926897333333336, "is_disabled": 0, "type": "electric_scooter", "lon": -77.02574016666667, "bike_id": "c8f7210f46a61ab949af4562309e44d5", "fusion_lat": 0.0, "name": "c8f7210f46a61ab949af4562309e44d5", "is_reserved": 0, "rental_uris": {"android": "https://dc.lft.to/lastmile_qr_scan", "ios": "https://dc.lft.to/lastmile_qr_scan"}, "fusion_lon": 0.0}, {"lat": 38.94516683333333, "is_disabled": 0, "type": "electric_bike", "lon": -77.006768, "bike_id": "fd989a5cbc2d796d02df73e60bc4bca9", "fusion_lat": 0.0, "name": "fd989a5cbc2d796d02df73e60bc4bca9", "is_reserved": 0, "rental_uris": {"android": "https://dc.lft.to/lastmile_qr_scan", "ios": "https://dc.lft.to/lastmile_qr_scan"}, "fusion_lon": 0.0}, {"lat": 38.92835783333334, "is_disabled": 0, "type": "electric_scooter", "lon": -76.99850083333334, "bike_id": "5b38fa62a945f72cf59b24744c62ecbe", "fusion_lat": 0.0, "name": "5b38fa62a945f72cf59b24744c62ecbe", "is_reserved": 0, "rental_uris": {"android": "https://dc.lft.to/lastmile_qr_scan", "ios": "https://dc.lft.to/lastmile_qr_scan"}, "fusion_lon": 0.0}, {"lat": 38.89538433333333, "is_disabled": 0, "type": "electric_scooter", "lon": -77.01123316666667, "bike_id": "09879b9e3a5fee9de5110622cb15016a", "fusion_lat": 0.0, "name": "09879b9e3a5fee9de5110622cb15016a", "is_reserved": 0, "rental_uris": {"android": "https://dc.lft.to/lastmile_qr_scan", "ios": "https://dc.lft.to/lastmile_qr_scan"}, "fusion_lon": 0.0}, {"lat": 38.8929045, "is_disabled": 0, "type": "electric_bike", "lon": -77.0014395, "bike_id": "3ff653bc1968898640863b82b42538b3", "fusion_lat": 0.0, "name": "3ff653bc1968898640863b82b42538b3", "is_reserved": 0, "rental_uris": {"android": "https://dc.lft.to/lastmile_qr_scan", "ios": "https://dc.lft.to/lastmile_qr_scan"}, "fusion_lon": 0.0}, {"lat": 38.892009, "is_disabled": 0, "type": "electric_bike", "lon": -76.97052216666667, "bike_id": "24b3f8a900dfe7e0752a3816e1e5438f", "fusion_lat": 0.0, "name": "24b3f8a900dfe7e0752a3816e1e5438f", "is_reserved": 0, "rental_uris": {"android": "https://dc.lft.to/lastmile_qr_scan", "ios": "https://dc.lft.to/lastmile_qr_scan"}, "fusion_lon": 0.0}, {"lat": 38.88425383333333, "is_disabled": 0, "type": "electric_bike", "lon": -76.98086133333334, "bike_id": "9895cb4bc3b41960912b3d8776178733", "fusion_lat": 0.0, "name": "9895cb4bc3b41960912b3d8776178733", "is_reserved": 0, "rental_uris": {"android": "https://dc.lft.to/lastmile_qr_scan", "ios": "https://dc.lft.to/lastmile_qr_scan"}, "fusion_lon": 0.0}, {"lat": 38.87914716666667, "is_disabled": 0, "type": "electric_scooter", "lon": -77.00744833333333, "bike_id": "a5d482cfebe596b8d3a1d3b3d8c71701", "fusion_lat": 0.0, "name": "a5d482cfebe596b8d3a1d3b3d8c71701", "is_reserved": 0, "rental_uris": {"android": "https://dc.lft.to/lastmile_qr_scan", "ios": "https://dc.lft.to/lastmile_qr_scan"}, "fusion_lon": 0.0}, {"lat": 38.9185935, "is_disabled": 0, "type": "electric_scooter", "lon": -77.0742135, "bike_id": "80c3faca5eb1b1fff64394fe0a0b0b28", "fusion_lat": 0.0, "name": "80c3faca5eb1b1fff64394fe0a0b0b28", "is_reserved": 0, "rental_uris": {"android": "https://dc.lft.to/lastmile_qr_scan", "ios": "https://dc.lft.to/lastmile_qr_scan"}, "fusion_lon": 0.0}, {"lat": 38.92369883333333, "is_disabled": 0, "type": "electric_scooter", "lon": -77.076863, "bike_id": "2edb4f05fbc8fc1ad02f5b0de5d43a4a", "fusion_lat": 0.0, "name": "2edb4f05fbc8fc1ad02f5b0de5d43a4a", "is_reserved": 0, "rental_uris": {"android": "https://dc.lft.to/lastmile_qr_scan", "ios": "https://dc.lft.to/lastmile_qr_scan"}, "fusion_lon": 0.0}, {"lat": 38.934798666666666, "is_disabled": 0, "type": "electric_scooter", "lon": -77.03656216666667, "bike_id": "9765b0e3df622da46375e8ec3b9ae736", "fusion_lat": 0.0, "name": "9765b0e3df622da46375e8ec3b9ae736", "is_reserved": 0, "rental_uris": {"android": "https://dc.lft.to/lastmile_qr_scan", "ios": "https://dc.lft.to/lastmile_qr_scan"}, "fusion_lon": 0.0}, {"lat": 38.91468883333334, "is_disabled": 0, "type": "electric_scooter", "lon": -77.01899083333333, "bike_id": "b01145320fd8bf6ebe294a561d968517", "fusion_lat": 0.0, "name": "b01145320fd8bf6ebe294a561d968517", "is_reserved": 0, "rental_uris": {"android": "https://dc.lft.to/lastmile_qr_scan", "ios": "https://dc.lft.to/lastmile_qr_scan"}, "fusion_lon": 0.0}, {"lat": 38.92994483333333, "is_disabled": 0, "type": "electric_bike", "lon": -77.02316733333333, "bike_id": "c00b0b03a9db6a1c8fe8e1539d9afe15", "fusion_lat": 0.0, "name": "c00b0b03a9db6a1c8fe8e1539d9afe15", "is_reserved": 0, "rental_uris": {"android": "https://dc.lft.to/lastmile_qr_scan", "ios": "https://dc.lft.to/lastmile_qr_scan"}, "fusion_lon": 0.0}, {"lat": 38.906052333333335, "is_disabled": 0, "type": "electric_scooter", "lon": -77.05857683333333, "bike_id": "93661d5c1759c8fb56155d1fa4e3cb94", "fusion_lat": 0.0, "name": "93661d5c1759c8fb56155d1fa4e3cb94", "is_reserved": 0, "rental_uris": {"android": "https://dc.lft.to/lastmile_qr_scan", "ios": "https://dc.lft.to/lastmile_qr_scan"}, "fusion_lon": 0.0}, {"lat": 38.907217, "is_disabled": 0, "type": "electric_scooter", "lon": -77.04399033333333, "bike_id": "ce60a4232930c2d804f41a30f54a49e8", "fusion_lat": 0.0, "name": "ce60a4232930c2d804f41a30f54a49e8", "is_reserved": 0, "rental_uris": {"android": "https://dc.lft.to/lastmile_qr_scan", "ios": "https://dc.lft.to/lastmile_qr_scan"}, "fusion_lon": 0.0}, {"lat": 38.926713666666664, "is_disabled": 0, "type": "electric_scooter", "lon": -76.99533283333334, "bike_id": "3850ec849ef5ec947ca1d03ea82c98c8", "fusion_lat": 0.0, "name": "3850ec849ef5ec947ca1d03ea82c98c8", "is_reserved": 0, "rental_uris": {"android": "https://dc.lft.to/lastmile_qr_scan", "ios": "https://dc.lft.to/lastmile_qr_scan"}, "fusion_lon": 0.0}, {"lat": 38.91418516666667, "is_disabled": 0, "type": "electric_scooter", "lon": -77.03175066666667, "bike_id": "429314aa8cdbe54d5395dad4f476b670", "fusion_lat": 0.0, "name": "429314aa8cdbe54d5395dad4f476b670", "is_reserved": 0, "rental_uris": {"android": "https://dc.lft.to/lastmile_qr_scan", "ios": "https://dc.lft.to/lastmile_qr_scan"}, "fusion_lon": 0.0}, {"lat": 38.8856355, "is_disabled": 0, "type": "electric_scooter", "lon": -77.019911, "bike_id": "ad2c65c3c4deaa1ce619550ce627577c", "fusion_lat": 0.0, "name": "ad2c65c3c4deaa1ce619550ce627577c", "is_reserved": 0, "rental_uris": {"android": "https://dc.lft.to/lastmile_qr_scan", "ios": "https://dc.lft.to/lastmile_qr_scan"}, "fusion_lon": 0.0}, {"lat": 38.933454166666664, "is_disabled": 0, "type": "electric_scooter", "lon": -77.05701066666667, "bike_id": "2763a5a9c9342e6a0541545bb0903871", "fusion_lat": 0.0, "name": "2763a5a9c9342e6a0541545bb0903871", "is_reserved": 0, "rental_uris": {"android": "https://dc.lft.to/lastmile_qr_scan", "ios": "https://dc.lft.to/lastmile_qr_scan"}, "fusion_lon": 0.0}, {"lat": 38.923831, "is_disabled": 0, "type": "electric_scooter", "lon": -77.03659616666667, "bike_id": "f21c51da29d2335268b5862ac7a57d3d", "fusion_lat": 0.0, "name": "f21c51da29d2335268b5862ac7a57d3d", "is_reserved": 0, "rental_uris": {"android": "https://dc.lft.to/lastmile_qr_scan", "ios": "https://dc.lft.to/lastmile_qr_scan"}, "fusion_lon": 0.0}, {"lat": 38.9216645, "is_disabled": 0, "type": "electric_scooter", "lon": -77.0769785, "bike_id": "48c91b88934fed41b26df5785a6338d1", "fusion_lat": 0.0, "name": "48c91b88934fed41b26df5785a6338d1", "is_reserved": 0, "rental_uris": {"android": "https://dc.lft.to/lastmile_qr_scan", "ios": "https://dc.lft.to/lastmile_qr_scan"}, "fusion_lon": 0.0}, {"lat": 38.90424016666667, "is_disabled": 0, "type": "electric_scooter", "lon": -77.01845633333333, "bike_id": "7e26a36645cf8687c7d1000b1201d126", "fusion_lat": 0.0, "name": "7e26a36645cf8687c7d1000b1201d126", "is_reserved": 0, "rental_uris": {"android": "https://dc.lft.to/lastmile_qr_scan", "ios": "https://dc.lft.to/lastmile_qr_scan"}, "fusion_lon": 0.0}, {"lat": 38.836780166666664, "is_disabled": 0, "type": "electric_scooter", "lon": -77.00566783333333, "bike_id": "304da0dbb7409312ecfb67c69abffca4", "fusion_lat": 0.0, "name": "304da0dbb7409312ecfb67c69abffca4", "is_reserved": 0, "rental_uris": {"android": "https://dc.lft.to/lastmile_qr_scan", "ios": "https://dc.lft.to/lastmile_qr_scan"}, "fusion_lon": 0.0}, {"lat": 38.90866316666666, "is_disabled": 0, "type": "electric_scooter", "lon": -77.04588283333334, "bike_id": "e2f0c30f7e447ab5c21d0f6e3b4be73b", "fusion_lat": 0.0, "name": "e2f0c30f7e447ab5c21d0f6e3b4be73b", "is_reserved": 0, "rental_uris": {"android": "https://dc.lft.to/lastmile_qr_scan", "ios": "https://dc.lft.to/lastmile_qr_scan"}, "fusion_lon": 0.0}, {"lat": 38.92171, "is_disabled": 0, "type": "electric_scooter", "lon": -77.04007516666667, "bike_id": "ddf6a8898f5aba349e5716a5f68bde85", "fusion_lat": 0.0, "name": "ddf6a8898f5aba349e5716a5f68bde85", "is_reserved": 0, "rental_uris": {"android": "https://dc.lft.to/lastmile_qr_scan", "ios": "https://dc.lft.to/lastmile_qr_scan"}, "fusion_lon": 0.0}, {"lat": 38.91912683333334, "is_disabled": 0, "type": "electric_scooter", "lon": -77.01344233333333, "bike_id": "6521f1a6204ab25c65810167a02dc3d9", "fusion_lat": 0.0, "name": "6521f1a6204ab25c65810167a02dc3d9", "is_reserved": 0, "rental_uris": {"android": "https://dc.lft.to/lastmile_qr_scan", "ios": "https://dc.lft.to/lastmile_qr_scan"}, "fusion_lon": 0.0}, {"lat": 38.892275833333336, "is_disabled": 0, "type": "electric_scooter", "lon": -77.05005433333334, "bike_id": "3a58eb81531e16273a2917f3445be9ec", "fusion_lat": 0.0, "name": "3a58eb81531e16273a2917f3445be9ec", "is_reserved": 0, "rental_uris": {"android": "https://dc.lft.to/lastmile_qr_scan", "ios": "https://dc.lft.to/lastmile_qr_scan"}, "fusion_lon": 0.0}, {"lat": 38.93498733333333, "is_disabled": 0, "type": "electric_scooter", "lon": -77.05801433333333, "bike_id": "503f9b3af21100035524a9da319045e4", "fusion_lat": 0.0, "name": "503f9b3af21100035524a9da319045e4", "is_reserved": 0, "rental_uris": {"android": "https://dc.lft.to/lastmile_qr_scan", "ios": "https://dc.lft.to/lastmile_qr_scan"}, "fusion_lon": 0.0}, {"lat": 38.87007783333333, "is_disabled": 0, "type": "electric_bike", "lon": -76.96020533333333, "bike_id": "83c01267d25495e6aebf305945edcf13", "fusion_lat": 0.0, "name": "83c01267d25495e6aebf305945edcf13", "is_reserved": 0, "rental_uris": {"android": "https://dc.lft.to/lastmile_qr_scan", "ios": "https://dc.lft.to/lastmile_qr_scan"}, "fusion_lon": 0.0}, {"lat": 38.90041266666667, "is_disabled": 0, "type": "electric_scooter", "lon": -76.99012516666667, "bike_id": "6bbb3f8889168b81e5eeae94859d7167", "fusion_lat": 0.0, "name": "6bbb3f8889168b81e5eeae94859d7167", "is_reserved": 0, "rental_uris": {"android": "https://dc.lft.to/lastmile_qr_scan", "ios": "https://dc.lft.to/lastmile_qr_scan"}, "fusion_lon": 0.0}, {"lat": 38.8991735, "is_disabled": 0, "type": "electric_scooter", "lon": -76.93379516666667, "bike_id": "35fae07b3e1a57bf75437b467558eef0", "fusion_lat": 0.0, "name": "35fae07b3e1a57bf75437b467558eef0", "is_reserved": 0, "rental_uris": {"android": "https://dc.lft.to/lastmile_qr_scan", "ios": "https://dc.lft.to/lastmile_qr_scan"}, "fusion_lon": 0.0}, {"lat": 38.926782833333334, "is_disabled": 0, "type": "electric_scooter", "lon": -77.051133, "bike_id": "685b9251cf208b4f438d4184004339d3", "fusion_lat": 0.0, "name": "685b9251cf208b4f438d4184004339d3", "is_reserved": 0, "rental_uris": {"android": "https://dc.lft.to/lastmile_qr_scan", "ios": "https://dc.lft.to/lastmile_qr_scan"}, "fusion_lon": 0.0}, {"lat": 38.931920166666664, "is_disabled": 0, "type": "electric_bike", "lon": -77.0782655, "bike_id": "0070ba01ee463e7e60dfad142e417160", "fusion_lat": 0.0, "name": "0070ba01ee463e7e60dfad142e417160", "is_reserved": 0, "rental_uris": {"android": "https://dc.lft.to/lastmile_qr_scan", "ios": "https://dc.lft.to/lastmile_qr_scan"}, "fusion_lon": 0.0}, {"lat": 38.95779683333333, "is_disabled": 0, "type": "electric_scooter", "lon": -77.02461183333334, "bike_id": "67c1f1c2602f808c251424e8a374080f", "fusion_lat": 0.0, "name": "67c1f1c2602f808c251424e8a374080f", "is_reserved": 0, "rental_uris": {"android": "https://dc.lft.to/lastmile_qr_scan", "ios": "https://dc.lft.to/lastmile_qr_scan"}, "fusion_lon": 0.0}, {"lat": 38.955536, "is_disabled": 0, "type": "electric_bike", "lon": -76.93540966666667, "bike_id": "eddccacd7c33b8dc9cd13dd3a0b63db4", "fusion_lat": 0.0, "name": "eddccacd7c33b8dc9cd13dd3a0b63db4", "is_reserved": 0, "rental_uris": {"android": "https://dc.lft.to/lastmile_qr_scan", "ios": "https://dc.lft.to/lastmile_qr_scan"}, "fusion_lon": 0.0}, {"lat": 38.90662733333333, "is_disabled": 0, "type": "electric_scooter", "lon": -77.03865316666666, "bike_id": "c17953e4d75b03fc9708f83cd3ebc7b0", "fusion_lat": 0.0, "name": "c17953e4d75b03fc9708f83cd3ebc7b0", "is_reserved": 0, "rental_uris": {"android": "https://dc.lft.to/lastmile_qr_scan", "ios": "https://dc.lft.to/lastmile_qr_scan"}, "fusion_lon": 0.0}, {"lat": 38.88048766666667, "is_disabled": 0, "type": "electric_scooter", "lon": -77.01773266666666, "bike_id": "b06691fd92a3b261a8d18ffd6e5721c3", "fusion_lat": 0.0, "name": "b06691fd92a3b261a8d18ffd6e5721c3", "is_reserved": 0, "rental_uris": {"android": "https://dc.lft.to/lastmile_qr_scan", "ios": "https://dc.lft.to/lastmile_qr_scan"}, "fusion_lon": 0.0}, {"lat": 38.90237583333333, "is_disabled": 0, "type": "electric_scooter", "lon": -77.01638033333333, "bike_id": "8bec78443f933357b12cb59c3f07fbcd", "fusion_lat": 0.0, "name": "8bec78443f933357b12cb59c3f07fbcd", "is_reserved": 0, "rental_uris": {"android": "https://dc.lft.to/lastmile_qr_scan", "ios": "https://dc.lft.to/lastmile_qr_scan"}, "fusion_lon": 0.0}, {"lat": 38.86347633333333, "is_disabled": 0, "type": "electric_scooter", "lon": -76.9899935, "bike_id": "63147a5bda5c98ffc56a55f7533b6b1a", "fusion_lat": 0.0, "name": "63147a5bda5c98ffc56a55f7533b6b1a", "is_reserved": 0, "rental_uris": {"android": "https://dc.lft.to/lastmile_qr_scan", "ios": "https://dc.lft.to/lastmile_qr_scan"}, "fusion_lon": 0.0}, {"lat": 38.8428975, "is_disabled": 0, "type": "electric_scooter", "lon": -76.99947166666666, "bike_id": "2e4272e4478bde297bd832ff5a5a4cf2", "fusion_lat": 0.0, "name": "2e4272e4478bde297bd832ff5a5a4cf2", "is_reserved": 0, "rental_uris": {"android": "https://dc.lft.to/lastmile_qr_scan", "ios": "https://dc.lft.to/lastmile_qr_scan"}, "fusion_lon": 0.0}, {"lat": 38.91267933333334, "is_disabled": 0, "type": "electric_scooter", "lon": -77.01305333333333, "bike_id": "25706bca0ff5d04ad8d5409ee71b4806", "fusion_lat": 0.0, "name": "25706bca0ff5d04ad8d5409ee71b4806", "is_reserved": 0, "rental_uris": {"android": "https://dc.lft.to/lastmile_qr_scan", "ios": "https://dc.lft.to/lastmile_qr_scan"}, "fusion_lon": 0.0}, {"lat": 38.9408405, "is_disabled": 0, "type": "electric_scooter", "lon": -77.06130333333333, "bike_id": "3d787a8ad3791471a0e01d235821b38e", "fusion_lat": 0.0, "name": "3d787a8ad3791471a0e01d235821b38e", "is_reserved": 0, "rental_uris": {"android": "https://dc.lft.to/lastmile_qr_scan", "ios": "https://dc.lft.to/lastmile_qr_scan"}, "fusion_lon": 0.0}, {"lat": 38.916343833333336, "is_disabled": 0, "type": "electric_scooter", "lon": -77.03134166666666, "bike_id": "c346b9247cfde2003e8c8ca2fcd972ec", "fusion_lat": 0.0, "name": "c346b9247cfde2003e8c8ca2fcd972ec", "is_reserved": 0, "rental_uris": {"android": "https://dc.lft.to/lastmile_qr_scan", "ios": "https://dc.lft.to/lastmile_qr_scan"}, "fusion_lon": 0.0}, {"lat": 38.93080916666667, "is_disabled": 0, "type": "electric_scooter", "lon": -77.03135983333334, "bike_id": "13982a846085df9b14819698c2d059b2", "fusion_lat": 0.0, "name": "13982a846085df9b14819698c2d059b2", "is_reserved": 0, "rental_uris": {"android": "https://dc.lft.to/lastmile_qr_scan", "ios": "https://dc.lft.to/lastmile_qr_scan"}, "fusion_lon": 0.0},