{"data": {"bikes": [{"lon": -77.0333575, "bike_id": "4e1f161e3f7214ce48ee966c87029adc", "lat": 38.936422, "fusion_lon": 0.0, "fusion_lat": 0.0, "type": "electric_scooter", "name": "4e1f161e3f7214ce48ee966c87029adc", "is_disabled": 0, "rental_uris": {"ios": "https://dc.lft.to/lastmile_qr_scan", "android": "https://dc.lft.to/lastmile_qr_scan"}, "is_reserved": 0}, {"lon": -76.990021, "bike_id": "1e5c4afbabb95fe05ecb848c66e158f1", "lat": 38.86504716666666, "fusion_lon": 0.0, "fusion_lat": 0.0, "type": "electric_scooter", "name": "1e5c4afbabb95fe05ecb848c66e158f1", "is_disabled": 0, "rental_uris": {"ios": "https://dc.lft.to/lastmile_qr_scan", "android": "https://dc.lft.to/lastmile_qr_scan"}, "is_reserved": 0}, {"lon": -76.993344, "bike_id": "c17480a626aa82ee2453985b8b681844", "lat": 38.87142033333333, "fusion_lon": 0.0, "fusion_lat": 0.0, "type": "electric_scooter", "name": "c17480a626aa82ee2453985b8b681844", "is_disabled": 0, "rental_uris": {"ios": "https://dc.lft.to/lastmile_qr_scan", "android": "https://dc.lft.to/lastmile_qr_scan"}, "is_reserved": 0}, {"lon": -76.98705916666667, "bike_id": "f2f8e5fbf6042be9cf817137136e7ad1", "lat": 38.86540216666667, "fusion_lon": 0.0, "fusion_lat": 0.0, "type": "electric_scooter", "name": "f2f8e5fbf6042be9cf817137136e7ad1", "is_disabled": 0, "rental_uris": {"ios": "https://dc.lft.to/lastmile_qr_scan", "android": "https://dc.lft.to/lastmile_qr_scan"}, "is_reserved": 0}, {"lon": -77.02279916666667, "bike_id": "313be35345bd28b4c0447c944cb0dd45", "lat": 38.8788995, "fusion_lon": 0.0, "fusion_lat": 0.0, "type": "electric_scooter", "name": "313be35345bd28b4c0447c944cb0dd45", "is_disabled": 0, "rental_uris": {"ios": "https://dc.lft.to/lastmile_qr_scan", "android": "https://dc.lft.to/lastmile_qr_scan"}, "is_reserved": 0}, {"lon": -76.94887683333333, "bike_id": "88f6a3c4fa8f4f52cc8258e6779e51d6", "lat": 38.895122, "fusion_lon": 0.0, "fusion_lat": 0.0, "type": "electric_scooter", "name": "88f6a3c4fa8f4f52cc8258e6779e51d6", "is_disabled": 0, "rental_uris": {"ios": "https://dc.lft.to/lastmile_qr_scan", "android": "https://dc.lft.to/lastmile_qr_scan"}, "is_reserved": 0}, {"lon": -77.04387733333333, "bike_id": "073d203a567bf5691789e06f0118c073", "lat": 38.908997666666664, "fusion_lon": 0.0, "fusion_lat": 0.0, "type": "electric_scooter", "name": "073d203a567bf5691789e06f0118c073", "is_disabled": 0, "rental_uris": {"ios": "https://dc.lft.to/lastmile_qr_scan", "android": "https://dc.lft.to/lastmile_qr_scan"}, "is_reserved": 0}, {"lon": -77.024048, "bike_id": "6851ae22e2d152dc0cf231ec9edd0c06", "lat": 38.8999575, "fusion_lon": 0.0, "fusion_lat": 0.0, "type": "electric_scooter", "name": "6851ae22e2d152dc0cf231ec9edd0c06", "is_disabled": 0, "rental_uris": {"ios": "https://dc.lft.to/lastmile_qr_scan", "android": "https://dc.lft.to/lastmile_qr_scan"}, "is_reserved": 0}, {"lon": -77.01896216666667, "bike_id": "b403ff3bd2b72f669ea7ff86767b6e4d", "lat": 38.9237465, "fusion_lon": 0.0, "fusion_lat": 0.0, "type": "electric_scooter", "name": "b403ff3bd2b72f669ea7ff86767b6e4d", "is_disabled": 0, "rental_uris": {"ios": "https://dc.lft.to/lastmile_qr_scan", "android": "https://dc.lft.to/lastmile_qr_scan"}, "is_reserved": 0}, {"lon": -77.020893, "bike_id": "d173fa1ee5162119b01246933e70336b", "lat": 38.95755466666667, "fusion_lon": 0.0, "fusion_lat": 0.0, "type": "electric_scooter", "name": "d173fa1ee5162119b01246933e70336b", "is_disabled": 0, "rental_uris": {"ios": "https://dc.lft.to/lastmile_qr_scan", "android": "https://dc.lft.to/lastmile_qr_scan"}, "is_reserved": 0}, {"lon": -77.02624283333333, "bike_id": "5f9445a9ecc59468573b12350d9c4058", "lat": 38.89729033333333, "fusion_lon": 0.0, "fusion_lat": 0.0, "type": "electric_scooter", "name": "5f9445a9ecc59468573b12350d9c4058", "is_disabled": 0, "rental_uris": {"ios": "https://dc.lft.to/lastmile_qr_scan", "android": "https://dc.lft.to/lastmile_qr_scan"}, "is_reserved": 0}, {"lon": -77.03329366666667, "bike_id": "b31f1545a767ac49a8fdcd342e7147b2", "lat": 38.9097065, "fusion_lon": 0.0, "fusion_lat": 0.0, "type": "electric_scooter", "name": "b31f1545a767ac49a8fdcd342e7147b2", "is_disabled": 0, "rental_uris": {"ios": "https://dc.lft.to/lastmile_qr_scan", "android": "https://dc.lft.to/lastmile_qr_scan"}, "is_reserved": 0}, {"lon": -77.01842616666667, "bike_id": "b9ad730663afca284f3c7810141ad36f", "lat": 38.904034, "fusion_lon": 0.0, "fusion_lat": 0.0, "type": "electric_scooter", "name": "b9ad730663afca284f3c7810141ad36f", "is_disabled": 0, "rental_uris": {"ios": "https://dc.lft.to/lastmile_qr_scan", "android": "https://dc.lft.to/lastmile_qr_scan"}, "is_reserved": 0}, {"lon": -76.9872505, "bike_id": "a030349121ab11a92bf156c1394060b8", "lat": 38.86715983333333, "fusion_lon": 0.0, "fusion_lat": 0.0, "type": "electric_scooter", "name": "a030349121ab11a92bf156c1394060b8", "is_disabled": 0, "rental_uris": {"ios": "https://dc.lft.to/lastmile_qr_scan", "android": "https://dc.lft.to/lastmile_qr_scan"}, "is_reserved": 0}, {"lon": -76.96064466666667, "bike_id": "99bbbee85a857f6bb97f100b5a52a85e", "lat": 38.88402583333333, "fusion_lon": 0.0, "fusion_lat": 0.0, "type": "electric_bike", "name": "99bbbee85a857f6bb97f100b5a52a85e", "is_disabled": 0, "rental_uris": {"ios": "https://dc.lft.to/lastmile_qr_scan", "android": "https://dc.lft.to/lastmile_qr_scan"}, "is_reserved": 0}, {"lon": -76.92758133333334, "bike_id": "0912f8acb1f38adb3996fe328027b83c", "lat": 38.880572666666666, "fusion_lon": 0.0, "fusion_lat": 0.0, "type": "electric_scooter", "name": "0912f8acb1f38adb3996fe328027b83c", "is_disabled": 0, "rental_uris": {"ios": "https://dc.lft.to/lastmile_qr_scan", "android": "https://dc.lft.to/lastmile_qr_scan"}, "is_reserved": 0}, {"lon": -77.03185266666667, "bike_id": "4f16b2ee7a184c3b5d79ff078459930e", "lat": 38.911221166666664, "fusion_lon": 0.0, "fusion_lat": 0.0, "type": "electric_scooter", "name": "4f16b2ee7a184c3b5d79ff078459930e", "is_disabled": 0, "rental_uris": {"ios": "https://dc.lft.to/lastmile_qr_scan", "android": "https://dc.lft.to/lastmile_qr_scan"}, "is_reserved": 0}, {"lon": -77.05276233333333, "bike_id": "24c0a71dc2bfa806f229dff94d4ea635", "lat": 38.91018033333334, "fusion_lon": 0.0, "fusion_lat": 0.0, "type": "electric_scooter", "name": "24c0a71dc2bfa806f229dff94d4ea635", "is_disabled": 0, "rental_uris": {"ios": "https://dc.lft.to/lastmile_qr_scan", "android": "https://dc.lft.to/lastmile_qr_scan"}, "is_reserved": 0}, {"lon": -77.02267333333333, "bike_id": "c4fd1e509c01f505fcaa8300ceba1c25", "lat": 38.9376865, "fusion_lon": 0.0, "fusion_lat": 0.0, "type": "electric_scooter", "name": "c4fd1e509c01f505fcaa8300ceba1c25", "is_disabled": 0, "rental_uris": {"ios": "https://dc.lft.to/lastmile_qr_scan", "android": "https://dc.lft.to/lastmile_qr_scan"}, "is_reserved": 0}, {"lon": -77.02798016666667, "bike_id": "0138c9ba0c1efb6b792fcf878c19f1a4", "lat": 38.956828333333334, "fusion_lon": 0.0, "fusion_lat": 0.0, "type": "electric_scooter", "name": "0138c9ba0c1efb6b792fcf878c19f1a4", "is_disabled": 0, "rental_uris": {"ios": "https://dc.lft.to/lastmile_qr_scan", "android": "https://dc.lft.to/lastmile_qr_scan"}, "is_reserved": 0}, {"lon": -77.05239, "bike_id": "becdf0e7ca84c1ae2e46937067b5ca84", "lat": 38.924663, "fusion_lon": 0.0, "fusion_lat": 0.0, "type": "electric_scooter", "name": "becdf0e7ca84c1ae2e46937067b5ca84", "is_disabled": 0, "rental_uris": {"ios": "https://dc.lft.to/lastmile_qr_scan", "android": "https://dc.lft.to/lastmile_qr_scan"}, "is_reserved": 0}, {"lon": -77.03255083333333, "bike_id": "073b5bd0b64a098200aed88f4d357129", "lat": 38.9181795, "fusion_lon": 0.0, "fusion_lat": 0.0, "type": "electric_scooter", "name": "073b5bd0b64a098200aed88f4d357129", "is_disabled": 0, "rental_uris": {"ios": "https://dc.lft.to/lastmile_qr_scan", "android": "https://dc.lft.to/lastmile_qr_scan"}, "is_reserved": 0}, {"lon": -77.02401933333333, "bike_id": "d81a8bd281ff27a01c7481f00de3fb67", "lat": 38.934074333333335, "fusion_lon": 0.0, "fusion_lat": 0.0, "type": "electric_scooter", "name": "d81a8bd281ff27a01c7481f00de3fb67", "is_disabled": 0, "rental_uris": {"ios": "https://dc.lft.to/lastmile_qr_scan", "android": "https://dc.lft.to/lastmile_qr_scan"}, "is_reserved": 0}, {"lon": -77.02611766666666, "bike_id": "a17cf780f7f37da4b2a68cebc72c7a6e", "lat": 38.91850766666667, "fusion_lon": 0.0, "fusion_lat": 0.0, "type": "electric_scooter", "name": "a17cf780f7f37da4b2a68cebc72c7a6e", "is_disabled": 0, "rental_uris": {"ios": "https://dc.lft.to/lastmile_qr_scan", "android": "https://dc.lft.to/lastmile_qr_scan"}, "is_reserved": 0}, {"lon": -77.0425225, "bike_id": "f4e8f39ca28b3a65dddc6e95249effcd", "lat": 38.926387166666665, "fusion_lon": 0.0, "fusion_lat": 0.0, "type": "electric_scooter", "name": "f4e8f39ca28b3a65dddc6e95249effcd", "is_disabled": 0, "rental_uris": {"ios": "https://dc.lft.to/lastmile_qr_scan", "android": "https://dc.lft.to/lastmile_qr_scan"}, "is_reserved": 0}, {"lon": -77.04406633333333, "bike_id": "6eed14be7aff8c044f292b06e9a8c461", "lat": 38.933263333333336, "fusion_lon": 0.0, "fusion_lat": 0.0, "type": "electric_scooter", "name": "6eed14be7aff8c044f292b06e9a8c461", "is_disabled": 0, "rental_uris": {"ios": "https://dc.lft.to/lastmile_qr_scan", "android": "https://dc.lft.to/lastmile_qr_scan"}, "is_reserved": 0}, {"lon": -77.0078265, "bike_id": "22fe962b81b1b7765f5c97edc2c58cd4", "lat": 38.9065465, "fusion_lon": 0.0, "fusion_lat": 0.0, "type": "electric_scooter", "name": "22fe962b81b1b7765f5c97edc2c58cd4", "is_disabled": 0, "rental_uris": {"ios": "https://dc.lft.to/lastmile_qr_scan", "android": "https://dc.lft.to/lastmile_qr_scan"}, "is_reserved": 0}, {"lon": -77.02312766666667, "bike_id": "dad6ddf3325599fe811bf3ee3563c5a7", "lat": 38.90958366666667, "fusion_lon": 0.0, "fusion_lat": 0.0, "type": "electric_scooter", "name": "dad6ddf3325599fe811bf3ee3563c5a7", "is_disabled": 0, "rental_uris": {"ios": "https://dc.lft.to/lastmile_qr_scan", "android": "https://dc.lft.to/lastmile_qr_scan"}, "is_reserved": 0}, {"lon": -77.032506, "bike_id": "b551ca67f87e864dd54566b7b148b72b", "lat": 38.92950733333333, "fusion_lon": 0.0, "fusion_lat": 0.0, "type": "electric_scooter", "name": "b551ca67f87e864dd54566b7b148b72b", "is_disabled": 0, "rental_uris": {"ios": "https://dc.lft.to/lastmile_qr_scan", "android": "https://dc.lft.to/lastmile_qr_scan"}, "is_reserved": 0}, {"lon": -77.02408066666666, "bike_id": "f7bf80547b842e6ed92875e3dbafe005", "lat": 38.88397616666666, "fusion_lon": 0.0, "fusion_lat": 0.0, "type": "electric_scooter", "name": "f7bf80547b842e6ed92875e3dbafe005", "is_disabled": 0, "rental_uris": {"ios": "https://dc.lft.to/lastmile_qr_scan", "android": "https://dc.lft.to/lastmile_qr_scan"}, "is_reserved": 0}, {"lon": -77.03852416666666, "bike_id": "b03c718531bdca3ccc3c634a0ede0f8f", "lat": 38.9162415, "fusion_lon": 0.0, "fusion_lat": 0.0, "type": "electric_scooter", "name": "b03c718531bdca3ccc3c634a0ede0f8f", "is_disabled": 0, "rental_uris": {"ios": "https://dc.lft.to/lastmile_qr_scan", "android": "https://dc.lft.to/lastmile_qr_scan"}, "is_reserved": 0}, {"lon": -77.02572983333333, "bike_id": "ebfd1cdb1c79557d0a151ddc6f2c3456", "lat": 38.897459166666664, "fusion_lon": 0.0, "fusion_lat": 0.0, "type": "electric_scooter", "name": "ebfd1cdb1c79557d0a151ddc6f2c3456", "is_disabled": 0, "rental_uris": {"ios": "https://dc.lft.to/lastmile_qr_scan", "android": "https://dc.lft.to/lastmile_qr_scan"}, "is_reserved": 0}, {"lon": -76.99460833333333, "bike_id": "dbda453fb9479abbec445332822d5251", "lat": 38.94070283333333, "fusion_lon": 0.0, "fusion_lat": 0.0, "type": "electric_scooter", "name": "dbda453fb9479abbec445332822d5251", "is_disabled": 0, "rental_uris": {"ios": "https://dc.lft.to/lastmile_qr_scan", "android": "https://dc.lft.to/lastmile_qr_scan"}, "is_reserved": 0}, {"lon": -77.0179505, "bike_id": "e7a5796d11679c4a066b2053d180bb94", "lat": 38.904014, "fusion_lon": 0.0, "fusion_lat": 0.0, "type": "electric_scooter", "name": "e7a5796d11679c4a066b2053d180bb94", "is_disabled": 0, "rental_uris": {"ios": "https://dc.lft.to/lastmile_qr_scan", "android": "https://dc.lft.to/lastmile_qr_scan"}, "is_reserved": 0}, {"lon": -77.03840933333333, "bike_id": "6810094a89d298460be149ee92aa1f2b", "lat": 38.916848333333334, "fusion_lon": 0.0, "fusion_lat": 0.0, "type": "electric_scooter", "name": "6810094a89d298460be149ee92aa1f2b", "is_disabled": 0, "rental_uris": {"ios": "https://dc.lft.to/lastmile_qr_scan", "android": "https://dc.lft.to/lastmile_qr_scan"}, "is_reserved": 0}, {"lon": -76.98798683333334, "bike_id": "d0433025c7fe2846f62747a44dff8ca4", "lat": 38.86738783333333, "fusion_lon": 0.0, "fusion_lat": 0.0, "type": "electric_scooter", "name": "d0433025c7fe2846f62747a44dff8ca4", "is_disabled": 0, "rental_uris": {"ios": "https://dc.lft.to/lastmile_qr_scan", "android": "https://dc.lft.to/lastmile_qr_scan"}, "is_reserved": 0}, {"lon": -76.97674383333333, "bike_id": "bcdeb5d086028fc2996750a1b2080712", "lat": 38.95244833333334, "fusion_lon": 0.0, "fusion_lat": 0.0, "type": "electric_bike", "name": "bcdeb5d086028fc2996750a1b2080712", "is_disabled": 0, "rental_uris": {"ios": "https://dc.lft.to/lastmile_qr_scan", "android": "https://dc.lft.to/lastmile_qr_scan"}, "is_reserved": 0}, {"lon": -77.036441, "bike_id": "d185f56a975a4c4423172f14cdbace2d", "lat": 38.917372, "fusion_lon": 0.0, "fusion_lat": 0.0, "type": "electric_scooter", "name": "d185f56a975a4c4423172f14cdbace2d", "is_disabled": 0, "rental_uris": {"ios": "https://dc.lft.to/lastmile_qr_scan", "android": "https://dc.lft.to/lastmile_qr_scan"}, "is_reserved": 0}, {"lon": -77.0061315, "bike_id": "54caf80e122f445c901afbf178f1bea6", "lat": 38.90015266666666, "fusion_lon": 0.0, "fusion_lat": 0.0, "type": "electric_scooter", "name": "54caf80e122f445c901afbf178f1bea6", "is_disabled": 0, "rental_uris": {"ios": "https://dc.lft.to/lastmile_qr_scan", "android": "https://dc.lft.to/lastmile_qr_scan"}, "is_reserved": 0}, {"lon": -77.07936683333334, "bike_id": "3dfc5bf6f5854d5c6a8bd092831d970a", "lat": 38.93088733333333, "fusion_lon": 0.0, "fusion_lat": 0.0, "type": "electric_scooter", "name": "3dfc5bf6f5854d5c6a8bd092831d970a", "is_disabled": 0, "rental_uris": {"ios": "https://dc.lft.to/lastmile_qr_scan", "android": "https://dc.lft.to/lastmile_qr_scan"}, "is_reserved": 0}, {"lon": -77.03597316666666, "bike_id": "1ca2b5a1c7f49c4556eaee7915922c54", "lat": 38.93934933333333, "fusion_lon": 0.0, "fusion_lat": 0.0, "type": "electric_scooter", "name": "1ca2b5a1c7f49c4556eaee7915922c54", "is_disabled": 0, "rental_uris": {"ios": "https://dc.lft.to/lastmile_qr_scan", "android": "https://dc.lft.to/lastmile_qr_scan"}, "is_reserved": 0}, {"lon": -77.02446066666667, "bike_id": "90a4e068a90e081bd59ce3b3607fc84c", "lat": 38.9250205, "fusion_lon": 0.0, "fusion_lat": 0.0, "type": "electric_scooter", "name": "90a4e068a90e081bd59ce3b3607fc84c", "is_disabled": 0, "rental_uris": {"ios": "https://dc.lft.to/lastmile_qr_scan", "android": "https://dc.lft.to/lastmile_qr_scan"}, "is_reserved": 0}, {"lon": -77.00674466666666, "bike_id": "92fa4ebb40196b8c8476283878b042c8", "lat": 38.90018933333333, "fusion_lon": 0.0, "fusion_lat": 0.0, "type": "electric_scooter", "name": "92fa4ebb40196b8c8476283878b042c8", "is_disabled": 0, "rental_uris": {"ios": "https://dc.lft.to/lastmile_qr_scan", "android": "https://dc.lft.to/lastmile_qr_scan"}, "is_reserved": 0}, {"lon": -77.03260416666667, "bike_id": "9be3ef7ecf3b5d45ff1210cfc82274bb", "lat": 38.905974, "fusion_lon": 0.0, "fusion_lat": 0.0, "type": "electric_scooter", "name": "9be3ef7ecf3b5d45ff1210cfc82274bb", "is_disabled": 0, "rental_uris": {"ios": "https://dc.lft.to/lastmile_qr_scan", "android": "https://dc.lft.to/lastmile_qr_scan"}, "is_reserved": 0}, {"lon": -77.04889066666667, "bike_id": "1ccd85a2fdae9dcaa02fad4379157262", "lat": 38.906039166666666, "fusion_lon": 0.0, "fusion_lat": 0.0, "type": "electric_scooter", "name": "1ccd85a2fdae9dcaa02fad4379157262", "is_disabled": 0, "rental_uris": {"ios": "https://dc.lft.to/lastmile_qr_scan", "android": "https://dc.lft.to/lastmile_qr_scan"}, "is_reserved": 0}, {"lon": -76.98159833333334, "bike_id": "aced9a889644481b1e12767eda87be18", "lat": 38.903222666666665, "fusion_lon": 0.0, "fusion_lat": 0.0, "type": "electric_scooter", "name": "aced9a889644481b1e12767eda87be18", "is_disabled": 0, "rental_uris": {"ios": "https://dc.lft.to/lastmile_qr_scan", "android": "https://dc.lft.to/lastmile_qr_scan"}, "is_reserved": 0}, {"lon": -77.03024883333333, "bike_id": "486a89e3b07dd2d9e8c21a1b4f0f0e78", "lat": 38.896120333333336, "fusion_lon": 0.0, "fusion_lat": 0.0, "type": "electric_scooter", "name": "486a89e3b07dd2d9e8c21a1b4f0f0e78", "is_disabled": 0, "rental_uris": {"ios": "https://dc.lft.to/lastmile_qr_scan", "android": "https://dc.lft.to/lastmile_qr_scan"}, "is_reserved": 0}, {"lon": -76.98234366666667, "bike_id": "f8143490dab42e3b5875f17a0240c85c", "lat": 38.86470333333333, "fusion_lon": 0.0, "fusion_lat": 0.0, "type": "electric_scooter", "name": "f8143490dab42e3b5875f17a0240c85c", "is_disabled": 0, "rental_uris": {"ios": "https://dc.lft.to/lastmile_qr_scan", "android": "https://dc.lft.to/lastmile_qr_scan"}, "is_reserved": 0}, {"lon": -77.01764516666667, "bike_id": "8c10bb2d175d4de43b6d5d9166f7e446", "lat": 38.900395833333334, "fusion_lon": 0.0, "fusion_lat": 0.0, "type": "electric_scooter", "name": "8c10bb2d175d4de43b6d5d9166f7e446", "is_disabled": 0, "rental_uris": {"ios": "https://dc.lft.to/lastmile_qr_scan", "android": "https://dc.lft.to/lastmile_qr_scan"}, "is_reserved": 0}, {"lon": -76.92110833333334, "bike_id": "eb8af80a7982cf7fa5d8d2d484eaf381", "lat": 38.89105383333333, "fusion_lon": 0.0, "fusion_lat": 0.0, "type": "electric_scooter", "name": "eb8af80a7982cf7fa5d8d2d484eaf381", "is_disabled": 0, "rental_uris": {"ios": "https://dc.lft.to/lastmile_qr_scan", "android": "https://dc.lft.to/lastmile_qr_scan"}, "is_reserved": 0}, {"lon": -77.02473333333333, "bike_id": "83f08775b21ed37085b617181761a114", "lat": 38.90324483333333, "fusion_lon": 0.0, "fusion_lat": 0.0, "type": "electric_scooter", "name": "83f08775b21ed37085b617181761a114", "is_disabled": 0, "rental_uris": {"ios": "https://dc.lft.to/lastmile_qr_scan", "android": "https://dc.lft.to/lastmile_qr_scan"}, "is_reserved": 0}, {"lon": -77.0612895, "bike_id": "5343d5d273d0cb16ec727d13f82ce7f3", "lat": 38.90534733333333, "fusion_lon": 0.0, "fusion_lat": 0.0, "type": "electric_scooter", "name": "5343d5d273d0cb16ec727d13f82ce7f3", "is_disabled": 0, "rental_uris": {"ios": "https://dc.lft.to/lastmile_qr_scan", "android": "https://dc.lft.to/lastmile_qr_scan"}, "is_reserved": 0}, {"lon": -76.9773015, "bike_id": "a27558e1cee93810b5799dfe07a32b13", "lat": 38.87245166666666, "fusion_lon": 0.0, "fusion_lat": 0.0, "type": "electric_scooter", "name": "a27558e1cee93810b5799dfe07a32b13", "is_disabled": 0, "rental_uris": {"ios": "https://dc.lft.to/lastmile_qr_scan", "android": "https://dc.lft.to/lastmile_qr_scan"}, "is_reserved": 0}, {"lon": -77.0487685, "bike_id": "53b094498cc2d60b7141daae708ab30f", "lat": 38.90979633333333, "fusion_lon": 0.0, "fusion_lat": 0.0, "type": "electric_scooter", "name": "53b094498cc2d60b7141daae708ab30f", "is_disabled": 0, "rental_uris": {"ios": "https://dc.lft.to/lastmile_qr_scan", "android": "https://dc.lft.to/lastmile_qr_scan"}, "is_reserved": 0}, {"lon": -77.05568483333333, "bike_id": "5af2553b0360fb113f8a08d7280556ce", "lat": 38.89732383333333, "fusion_lon": 0.0, "fusion_lat": 0.0, "type": "electric_scooter", "name": "5af2553b0360fb113f8a08d7280556ce", "is_disabled": 0, "rental_uris": {"ios": "https://dc.lft.to/lastmile_qr_scan", "android": "https://dc.lft.to/lastmile_qr_scan"}, "is_reserved": 0}, {"lon": -77.01993283333333, "bike_id": "87f3177170a77a0a56c57d1808ed0b3b", "lat": 38.902742833333335, "fusion_lon": 0.0, "fusion_lat": 0.0, "type": "electric_scooter", "name": "87f3177170a77a0a56c57d1808ed0b3b", "is_disabled": 0, "rental_uris": {"ios": "https://dc.lft.to/lastmile_qr_scan", "android": "https://dc.lft.to/lastmile_qr_scan"}, "is_reserved": 0}, {"lon": -77.03432116666667, "bike_id": "2aa17b104d1ac400fd5f22108de3cbec", "lat": 38.9653675, "fusion_lon": 0.0, "fusion_lat": 0.0, "type": "electric_bike", "name": "2aa17b104d1ac400fd5f22108de3cbec", "is_disabled": 0, "rental_uris": {"ios": "https://dc.lft.to/lastmile_qr_scan", "android": "https://dc.lft.to/lastmile_qr_scan"}, "is_reserved": 0}, {"lon": -77.13929316666666, "bike_id": "3dd3371c4ed2d1d54b82b86c1673f6d3", "lat": 38.872993666666666, "fusion_lon": 0.0, "fusion_lat": 0.0, "type": "electric_bike", "name": "3dd3371c4ed2d1d54b82b86c1673f6d3", "is_disabled": 0, "rental_uris": {"ios": "https://dc.lft.to/lastmile_qr_scan", "android": "https://dc.lft.to/lastmile_qr_scan"}, "is_reserved": 0}, {"lon": -77.04907383333334, "bike_id": "e610f597c86f668541a0e4655afa2773", "lat": 38.91604983333333, "fusion_lon": 0.0, "fusion_lat": 0.0, "type": "electric_scooter", "name": "e610f597c86f668541a0e4655afa2773", "is_disabled": 0, "rental_uris": {"ios": "https://dc.lft.to/lastmile_qr_scan", "android": "https://dc.lft.to/lastmile_qr_scan"}, "is_reserved": 0}, {"lon": -76.98834516666666, "bike_id": "be0945cee5626aa03781ff5b8b27f840", "lat": 38.896685833333336, "fusion_lon": 0.0, "fusion_lat": 0.0, "type": "electric_scooter", "name": "be0945cee5626aa03781ff5b8b27f840", "is_disabled": 0, "rental_uris": {"ios": "https://dc.lft.to/lastmile_qr_scan", "android": "https://dc.lft.to/lastmile_qr_scan"}, "is_reserved": 0}, {"lon": -76.97206133333333, "bike_id": "6e2f5d25305a27e26e0f4ac530e5b415", "lat": 38.89292066666667, "fusion_lon": 0.0, "fusion_lat": 0.0, "type": "electric_bike", "name": "6e2f5d25305a27e26e0f4ac530e5b415", "is_disabled": 0, "rental_uris": {"ios": "https://dc.lft.to/lastmile_qr_scan", "android": "https://dc.lft.to/lastmile_qr_scan"}, "is_reserved": 0}, {"lon": -77.02361666666667, "bike_id": "629e236213ffff678d1be64a05ffb1fc", "lat": 38.899790333333335, "fusion_lon": 0.0, "fusion_lat": 0.0, "type": "electric_scooter", "name": "629e236213ffff678d1be64a05ffb1fc", "is_disabled": 0, "rental_uris": {"ios": "https://dc.lft.to/lastmile_qr_scan", "android": "https://dc.lft.to/lastmile_qr_scan"}, "is_reserved": 0}, {"lon": -77.03346833333333, "bike_id": "7a490b31f88f93c0e042963b0cc4cc4c", "lat": 38.94513666666667, "fusion_lon": 0.0, "fusion_lat": 0.0, "type": "electric_bike", "name": "7a490b31f88f93c0e042963b0cc4cc4c", "is_disabled": 0, "rental_uris": {"ios": "https://dc.lft.to/lastmile_qr_scan", "android": "https://dc.lft.to/lastmile_qr_scan"}, "is_reserved": 0}, {"lon": -76.969124, "bike_id": "a20d31555eaa3b1016306f5877bc51a3", "lat": 38.846099833333334, "fusion_lon": 0.0, "fusion_lat": 0.0, "type": "electric_bike", "name": "a20d31555eaa3b1016306f5877bc51a3", "is_disabled": 0, "rental_uris": {"ios": "https://dc.lft.to/lastmile_qr_scan", "android": "https://dc.lft.to/lastmile_qr_scan"}, "is_reserved": 0}, {"lon": -77.038516, "bike_id": "b6dc1a7af3aef4719e1aa670e6efc59c", "lat": 38.91624083333333, "fusion_lon": 0.0, "fusion_lat": 0.0, "type": "electric_scooter", "name": "b6dc1a7af3aef4719e1aa670e6efc59c", "is_disabled": 0, "rental_uris": {"ios": "https://dc.lft.to/lastmile_qr_scan", "android": "https://dc.lft.to/lastmile_qr_scan"}, "is_reserved": 0}, {"lon": -77.03184216666666, "bike_id": "fd798bde38f9268fe77ed80967b6b4c7", "lat": 38.91425366666667, "fusion_lon": 0.0, "fusion_lat": 0.0, "type": "electric_scooter", "name": "fd798bde38f9268fe77ed80967b6b4c7", "is_disabled": 0, "rental_uris": {"ios": "https://dc.lft.to/lastmile_qr_scan", "android": "https://dc.lft.to/lastmile_qr_scan"}, "is_reserved": 0}, {"lon": -77.02243333333334, "bike_id": "2303aa5b603e33c56a96dfba3d954773", "lat": 38.89982533333333, "fusion_lon": 0.0, "fusion_lat": 0.0, "type": "electric_scooter", "name": "2303aa5b603e33c56a96dfba3d954773", "is_disabled": 0, "rental_uris": {"ios": "https://dc.lft.to/lastmile_qr_scan", "android": "https://dc.lft.to/lastmile_qr_scan"}, "is_reserved": 0}, {"lon": -77.01414633333333, "bike_id": "d11cb40769ee114a4cec7cce02fbed31", "lat": 38.928293, "fusion_lon": 0.0, "fusion_lat": 0.0, "type": "electric_scooter", "name": "d11cb40769ee114a4cec7cce02fbed31", "is_disabled": 0, "rental_uris": {"ios": "https://dc.lft.to/lastmile_qr_scan", "android": "https://dc.lft.to/lastmile_qr_scan"}, "is_reserved": 0}, {"lon": -77.0367075, "bike_id": "246d05905e0539eef220d0e84f001c5a", "lat": 38.90285433333333, "fusion_lon": 0.0, "fusion_lat": 0.0, "type": "electric_scooter", "name": "246d05905e0539eef220d0e84f001c5a", "is_disabled": 0, "rental_uris": {"ios": "https://dc.lft.to/lastmile_qr_scan", "android": "https://dc.lft.to/lastmile_qr_scan"}, "is_reserved": 0}, {"lon": -77.115946, "bike_id": "a0ae743b83f5b0021272da69ca542e1a", "lat": 39.074951166666665, "fusion_lon": 0.0, "fusion_lat": 0.0, "type": "electric_bike", "name": "a0ae743b83f5b0021272da69ca542e1a", "is_disabled": 0, "rental_uris": {"ios": "https://dc.lft.to/lastmile_qr_scan", "android": "https://dc.lft.to/lastmile_qr_scan"}, "is_reserved": 0}, {"lon": -76.99054733333334, "bike_id": "d4b05d5b50286a907296f713bee5bdf0", "lat": 38.8638175, "fusion_lon": 0.0, "fusion_lat": 0.0, "type": "electric_scooter", "name": "d4b05d5b50286a907296f713bee5bdf0", "is_disabled": 0, "rental_uris": {"ios": "https://dc.lft.to/lastmile_qr_scan", "android": "https://dc.lft.to/lastmile_qr_scan"}, "is_reserved": 0}, {"lon": -77.02135933333334, "bike_id": "9fd771164fa2bf08dc7e9296e3057791", "lat": 38.915978833333334, "fusion_lon": 0.0, "fusion_lat": 0.0, "type": "electric_scooter", "name": "9fd771164fa2bf08dc7e9296e3057791", "is_disabled": 0, "rental_uris": {"ios": "https://dc.lft.to/lastmile_qr_scan", "android": "https://dc.lft.to/lastmile_qr_scan"}, "is_reserved": 0}, {"lon": -77.03211033333334, "bike_id": "047a1948a3fe9ee463fe1f3b2dc4e5d1", "lat": 38.89664, "fusion_lon": 0.0, "fusion_lat": 0.0, "type": "electric_scooter", "name": "047a1948a3fe9ee463fe1f3b2dc4e5d1", "is_disabled": 0, "rental_uris": {"ios": "https://dc.lft.to/lastmile_qr_scan", "android": "https://dc.lft.to/lastmile_qr_scan"}, "is_reserved": 0}, {"lon": -77.06519566666667, "bike_id": "cc3d284af72f59a75fb738c2ae0811c3", "lat": 38.90885083333333, "fusion_lon": 0.0, "fusion_lat": 0.0, "type": "electric_scooter", "name": "cc3d284af72f59a75fb738c2ae0811c3", "is_disabled": 0, "rental_uris": {"ios": "https://dc.lft.to/lastmile_qr_scan", "android": "https://dc.lft.to/lastmile_qr_scan"}, "is_reserved": 0}, {"lon": -76.99275433333334, "bike_id": "ffc06a6a164ef2b43026ff4bea3fdb1b", "lat": 38.896113666666665, "fusion_lon": 0.0, "fusion_lat": 0.0, "type": "electric_scooter", "name": "ffc06a6a164ef2b43026ff4bea3fdb1b", "is_disabled": 0, "rental_uris": {"ios": "https://dc.lft.to/lastmile_qr_scan", "android": "https://dc.lft.to/lastmile_qr_scan"}, "is_reserved": 0}, {"lon": -76.97334183333334, "bike_id": "43773b65a7c97deabd3b398c7863a0ef", "lat": 38.9048135, "fusion_lon": 0.0, "fusion_lat": 0.0, "type": "electric_bike", "name": "43773b65a7c97deabd3b398c7863a0ef", "is_disabled": 0, "rental_uris": {"ios": "https://dc.lft.to/lastmile_qr_scan", "android": "https://dc.lft.to/lastmile_qr_scan"}, "is_reserved": 0}, {"lon": -77.03185833333333, "bike_id": "141ce7198f9beba092e6f5e1756780a1", "lat": 38.930696833333336, "fusion_lon": 0.0, "fusion_lat": 0.0, "type": "electric_scooter", "name": "141ce7198f9beba092e6f5e1756780a1", "is_disabled": 0, "rental_uris": {"ios": "https://dc.lft.to/lastmile_qr_scan", "android": "https://dc.lft.to/lastmile_qr_scan"}, "is_reserved": 0}, {"lon": -76.997954, "bike_id": "86fed34fae6fe5faba5f4d29954ac27b", "lat": 38.956430833333336, "fusion_lon": 0.0, "fusion_lat": 0.0, "type": "electric_bike", "name": "86fed34fae6fe5faba5f4d29954ac27b", "is_disabled": 0, "rental_uris": {"ios": "https://dc.lft.to/lastmile_qr_scan", "android": "https://dc.lft.to/lastmile_qr_scan"}, "is_reserved": 0}, {"lon": -77.02281816666667, "bike_id": "02755dc47707bfaa98e0d7ab50b35497", "lat": 38.9096825, "fusion_lon": 0.0, "fusion_lat": 0.0, "type": "electric_scooter", "name": "02755dc47707bfaa98e0d7ab50b35497", "is_disabled": 0, "rental_uris": {"ios": "https://dc.lft.to/lastmile_qr_scan", "android": "https://dc.lft.to/lastmile_qr_scan"}, "is_reserved": 0}, {"lon": -77.00437966666667, "bike_id": "4725f8323fb976e50425c71e89408513", "lat": 38.874581, "fusion_lon": 0.0, "fusion_lat": 0.0, "type": "electric_scooter", "name": "4725f8323fb976e50425c71e89408513", "is_disabled": 0, "rental_uris": {"ios": "https://dc.lft.to/lastmile_qr_scan", "android": "https://dc.lft.to/lastmile_qr_scan"}, "is_reserved": 0}, {"lon": -77.05726766666666, "bike_id": "51864c82de5d4f5ed5fd64ee35d68dff", "lat": 38.93367283333333, "fusion_lon": 0.0, "fusion_lat": 0.0, "type": "electric_scooter", "name": "51864c82de5d4f5ed5fd64ee35d68dff", "is_disabled": 0, "rental_uris": {"ios": "https://dc.lft.to/lastmile_qr_scan", "android": "https://dc.lft.to/lastmile_qr_scan"}, "is_reserved": 0}, {"lon": -77.029389, "bike_id": "65319da2a79b92b0c102e11d767c9f18", "lat": 38.90846466666667, "fusion_lon": 0.0, "fusion_lat": 0.0, "type": "electric_scooter", "name": "65319da2a79b92b0c102e11d767c9f18", "is_disabled": 0, "rental_uris": {"ios": "https://dc.lft.to/lastmile_qr_scan", "android": "https://dc.lft.to/lastmile_qr_scan"}, "is_reserved": 0}, {"lon": -76.95529233333333, "bike_id": "70ed224cbde8673a46e558b310508dcd", "lat": 38.88775433333333, "fusion_lon": 0.0, "fusion_lat": 0.0, "type": "electric_scooter", "name": "70ed224cbde8673a46e558b310508dcd", "is_disabled": 0, "rental_uris": {"ios": "https://dc.lft.to/lastmile_qr_scan", "android": "https://dc.lft.to/lastmile_qr_scan"}, "is_reserved": 0}, {"lon": -76.97907666666667, "bike_id": "73d38f6f19bf1596dbd98498c0c293fd", "lat": 38.92457566666667, "fusion_lon": 0.0, "fusion_lat": 0.0, "type": "electric_bike", "name": "73d38f6f19bf1596dbd98498c0c293fd", "is_disabled": 0, "rental_uris": {"ios": "https://dc.lft.to/lastmile_qr_scan", "android": "https://dc.lft.to/lastmile_qr_scan"}, "is_reserved": 0}, {"lon": -77.04474466666667, "bike_id": "7dc3e70fc5d36604d4e2aa72756afcbc", "lat": 38.91881883333333, "fusion_lon": 0.0, "fusion_lat": 0.0, "type": "electric_scooter", "name": "7dc3e70fc5d36604d4e2aa72756afcbc", "is_disabled": 0, "rental_uris": {"ios": "https://dc.lft.to/lastmile_qr_scan", "android": "https://dc.lft.to/lastmile_qr_scan"}, "is_reserved": 0}, {"lon": -77.00063166666666, "bike_id": "f82388dfa7a715af531c567aef36f6bd", "lat": 38.92432133333333, "fusion_lon": 0.0, "fusion_lat": 0.0, "type": "electric_scooter", "name": "f82388dfa7a715af531c567aef36f6bd", "is_disabled": 0, "rental_uris": {"ios": "https://dc.lft.to/lastmile_qr_scan", "android": "https://dc.lft.to/lastmile_qr_scan"}, "is_reserved": 0}, {"lon": -77.02795716666667, "bike_id": "dad02a880d2b590101a03b4c036d0be1", "lat": 38.916909, "fusion_lon": 0.0, "fusion_lat": 0.0, "type": "electric_scooter", "name": "dad02a880d2b590101a03b4c036d0be1", "is_disabled": 0, "rental_uris": {"ios": "https://dc.lft.to/lastmile_qr_scan", "android": "https://dc.lft.to/lastmile_qr_scan"}, "is_reserved": 0}, {"lon": -77.04265383333333, "bike_id": "310aeaaa21e660ccd6ca56cb2ebe7290", "lat": 38.91791583333333, "fusion_lon": 0.0, "fusion_lat": 0.0, "type": "electric_scooter", "name": "310aeaaa21e660ccd6ca56cb2ebe7290", "is_disabled": 0, "rental_uris": {"ios": "https://dc.lft.to/lastmile_qr_scan", "android": "https://dc.lft.to/lastmile_qr_scan"}, "is_reserved": 0}, {"lon": -76.97622516666667, "bike_id": "5143287d2171dfc69182d0e0b57735ee", "lat": 38.9038325, "fusion_lon": 0.0, "fusion_lat": 0.0, "type": "electric_scooter", "name": "5143287d2171dfc69182d0e0b57735ee", "is_disabled": 0, "rental_uris": {"ios": "https://dc.lft.to/lastmile_qr_scan", "android": "https://dc.lft.to/lastmile_qr_scan"}, "is_reserved": 0}, {"lon": -77.02397916666666, "bike_id": "28b6b2577f5db2645104780682489d6a", "lat": 38.920609166666665, "fusion_lon": 0.0, "fusion_lat": 0.0, "type": "electric_scooter", "name": "28b6b2577f5db2645104780682489d6a", "is_disabled": 0, "rental_uris": {"ios": "https://dc.lft.to/lastmile_qr_scan", "android": "https://dc.lft.to/lastmile_qr_scan"}, "is_reserved": 0}, {"lon": -76.99830183333333, "bike_id": "053637fb35c72121a8dbba579751c33b", "lat": 38.905025333333334, "fusion_lon": 0.0, "fusion_lat": 0.0, "type": "electric_scooter", "name": "053637fb35c72121a8dbba579751c33b", "is_disabled": 0, "rental_uris": {"ios": "https://dc.lft.to/lastmile_qr_scan", "android": "https://dc.lft.to/lastmile_qr_scan"}, "is_reserved": 0}, {"lon": -77.02893066666667, "bike_id": "5ba2e504be18a4efac565cf52e148b31", "lat": 38.90387533333333, "fusion_lon": 0.0, "fusion_lat": 0.0, "type": "electric_scooter", "name": "5ba2e504be18a4efac565cf52e148b31", "is_disabled": 0, "rental_uris": {"ios": "https://dc.lft.to/lastmile_qr_scan", "android": "https://dc.lft.to/lastmile_qr_scan"}, "is_reserved": 0}, {"lon": -77.047228, "bike_id": "e5366cc42c2872992fe2c1a6477381f9", "lat": 38.92228983333333, "fusion_lon": 0.0, "fusion_lat": 0.0, "type": "electric_scooter", "name": "e5366cc42c2872992fe2c1a6477381f9", "is_disabled": 0, "rental_uris": {"ios": "https://dc.lft.to/lastmile_qr_scan", "android": "https://dc.lft.to/lastmile_qr_scan"}, "is_reserved": 0}, {"lon": -77.03841533333333, "bike_id": "96411f9a4183ba40a942227c77739519", "lat": 38.91485383333333, "fusion_lon": 0.0, "fusion_lat": 0.0, "type": "electric_scooter", "name": "96411f9a4183ba40a942227c77739519", "is_disabled": 0, "rental_uris": {"ios": "https://dc.lft.to/lastmile_qr_scan", "android": "https://dc.lft.to/lastmile_qr_scan"}, "is_reserved": 0}, {"lon": -76.96360083333333, "bike_id": "a04ffb8530d4a698d16016e88c26125d", "lat": 38.935017, "fusion_lon": 0.0, "fusion_lat": 0.0, "type": "electric_scooter", "name": "a04ffb8530d4a698d16016e88c26125d", "is_disabled": 0, "rental_uris": {"ios": "https://dc.lft.to/lastmile_qr_scan", "android": "https://dc.lft.to/lastmile_qr_scan"}, "is_reserved": 0}, {"lon": -76.93609466666666, "bike_id": "0c2a2ec609e90c0506cf3111113a8b5b", "lat": 38.89685, "fusion_lon": 0.0, "fusion_lat": 0.0, "type": "electric_scooter", "name": "0c2a2ec609e90c0506cf3111113a8b5b", "is_disabled": 0, "rental_uris": {"ios": "https://dc.lft.to/lastmile_qr_scan", "android": "https://dc.lft.to/lastmile_qr_scan"}, "is_reserved": 0}, {"lon": -77.00917316666667, "bike_id": "ca886f2c480504666b5b7d9d70caeaca", "lat": 38.8278465, "fusion_lon": 0.0, "fusion_lat": 0.0, "type": "electric_bike", "name": "ca886f2c480504666b5b7d9d70caeaca", "is_disabled": 0, "rental_uris": {"ios": "https://dc.lft.to/lastmile_qr_scan", "android": "https://dc.lft.to/lastmile_qr_scan"}, "is_reserved": 0}, {"lon": -76.98461333333333, "bike_id": "9406d9d6dea85ed4737b9f1fc9058b62", "lat": 38.90396766666667, "fusion_lon": 0.0, "fusion_lat": 0.0, "type": "electric_scooter", "name": "9406d9d6dea85ed4737b9f1fc9058b62", "is_disabled": 0, "rental_uris": {"ios": "https://dc.lft.to/lastmile_qr_scan", "android": "https://dc.lft.to/lastmile_qr_scan"}, "is_reserved": 0}, {"lon": -77.02584816666666, "bike_id": "addd4226fe5dcfaf1336df48a03da0f7", "lat": 38.90105416666667, "fusion_lon": 0.0, "fusion_lat": 0.0, "type": "electric_scooter", "name": "addd4226fe5dcfaf1336df48a03da0f7", "is_disabled": 0, "rental_uris": {"ios": "https://dc.lft.to/lastmile_qr_scan", "android": "https://dc.lft.to/lastmile_qr_scan"}, "is_reserved": 0}, {"lon": -77.02763833333333, "bike_id": "45ff2b34b6d7a3357486824ed6443909", "lat": 38.954284, "fusion_lon": 0.0, "fusion_lat": 0.0, "type": "electric_scooter", "name": "45ff2b34b6d7a3357486824ed6443909", "is_disabled": 0, "rental_uris": {"ios": "https://dc.lft.to/lastmile_qr_scan", "android": "https://dc.lft.to/lastmile_qr_scan"}, "is_reserved": 0}, {"lon": -77.01906316666667, "bike_id": "64e74978923669df8f58b32bbb13c6c8", "lat": 38.898655833333336, "fusion_lon": 0.0, "fusion_lat": 0.0, "type": "electric_scooter", "name": "64e74978923669df8f58b32bbb13c6c8", "is_disabled": 0, "rental_uris": {"ios": "https://dc.lft.to/lastmile_qr_scan", "android": "https://dc.lft.to/lastmile_qr_scan"}, "is_reserved": 0}, {"lon": -77.03622849999999, "bike_id": "5bcba2ab44b62d707915778751732d14", "lat": 38.91690033333333, "fusion_lon": 0.0, "fusion_lat": 0.0, "type": "electric_scooter", "name": "5bcba2ab44b62d707915778751732d14", "is_disabled": 0, "rental_uris": {"ios": "https://dc.lft.to/lastmile_qr_scan", "android": "https://dc.lft.to/lastmile_qr_scan"}, "is_reserved": 0}, {"lon": -77.03400366666666, "bike_id": "9a8b5f8171961ebfa66de88b7333ba76", "lat": 38.92155566666667, "fusion_lon": 0.0, "fusion_lat": 0.0, "type": "electric_scooter", "name": "9a8b5f8171961ebfa66de88b7333ba76", "is_disabled": 0, "rental_uris": {"ios": "https://dc.lft.to/lastmile_qr_scan", "android": "https://dc.lft.to/lastmile_qr_scan"}, "is_reserved": 0}, {"lon": -77.01997733333333, "bike_id": "bf33f3c979916f9a4cba289cceb78ce3", "lat": 38.96629033333333, "fusion_lon": 0.0, "fusion_lat": 0.0, "type": "electric_scooter", "name": "bf33f3c979916f9a4cba289cceb78ce3", "is_disabled": 0, "rental_uris": {"ios": "https://dc.lft.to/lastmile_qr_scan", "android": "https://dc.lft.to/lastmile_qr_scan"}, "is_reserved": 0}, {"lon": -77.0153215, "bike_id": "598f9d9e548a50b36e25d4e8e872b3cf", "lat": 38.92658816666667, "fusion_lon": 0.0, "fusion_lat": 0.0, "type": "electric_scooter", "name": "598f9d9e548a50b36e25d4e8e872b3cf", "is_disabled": 0, "rental_uris": {"ios": "https://dc.lft.to/lastmile_qr_scan", "android": "https://dc.lft.to/lastmile_qr_scan"}, "is_reserved": 0}, {"lon": -77.0345205, "bike_id": "01722436bb3a2e97b8b6e53f64b102a7", "lat": 38.909968666666664, "fusion_lon": 0.0, "fusion_lat": 0.0, "type": "electric_scooter", "name": "01722436bb3a2e97b8b6e53f64b102a7", "is_disabled": 0, "rental_uris": {"ios": "https://dc.lft.to/lastmile_qr_scan", "android": "https://dc.lft.to/lastmile_qr_scan"}, "is_reserved": 0}, {"lon": -77.04740983333333, "bike_id": "47fe0abb9bafb3da66592ae7e6b6a89e", "lat": 38.9016345, "fusion_lon": 0.0, "fusion_lat": 0.0, "type": "electric_scooter", "name": "47fe0abb9bafb3da66592ae7e6b6a89e", "is_disabled": 0, "rental_uris": {"ios": "https://dc.lft.to/lastmile_qr_scan", "android": "https://dc.lft.to/lastmile_qr_scan"}, "is_reserved": 0}, {"lon": -77.06142283333334, "bike_id": "02bf0a84693b55d1dc877d0d23b75a16", "lat": 38.943594833333336, "fusion_lon": 0.0, "fusion_lat": 0.0, "type": "electric_scooter", "name": "02bf0a84693b55d1dc877d0d23b75a16", "is_disabled": 0, "rental_uris": {"ios": "https://dc.lft.to/lastmile_qr_scan", "android": "https://dc.lft.to/lastmile_qr_scan"}, "is_reserved": 0}, {"lon": -77.001596, "bike_id": "43edcad61d86ad7a330bfb6cf60486f1", "lat": 38.91951316666667, "fusion_lon": 0.0, "fusion_lat": 0.0, "type": "electric_scooter", "name": "43edcad61d86ad7a330bfb6cf60486f1", "is_disabled": 0, "rental_uris": {"ios": "https://dc.lft.to/lastmile_qr_scan", "android": "https://dc.lft.to/lastmile_qr_scan"}, "is_reserved": 0}, {"lon": -76.99769433333333, "bike_id": "521a62b1cd033dae6a230735ed7ffeb5", "lat": 38.910618166666666, "fusion_lon": 0.0, "fusion_lat": 0.0, "type": "electric_scooter", "name": "521a62b1cd033dae6a230735ed7ffeb5", "is_disabled": 0, "rental_uris": {"ios": "https://dc.lft.to/lastmile_qr_scan", "android": "https://dc.lft.to/lastmile_qr_scan"}, "is_reserved": 0}, {"lon": -77.02449033333333, "bike_id": "ac8fe35aee52b0888e896d55f236cef1", "lat": 38.88415366666667, "fusion_lon": 0.0, "fusion_lat": 0.0, "type": "electric_scooter", "name": "ac8fe35aee52b0888e896d55f236cef1", "is_disabled": 0, "rental_uris": {"ios": "https://dc.lft.to/lastmile_qr_scan", "android": "https://dc.lft.to/lastmile_qr_scan"}, "is_reserved": 0}, {"lon": -76.96999816666667, "bike_id": "10893942b70be978990ecbc5fb0a14a1", "lat": 38.87368266666667, "fusion_lon": 0.0, "fusion_lat": 0.0, "type": "electric_scooter", "name": "10893942b70be978990ecbc5fb0a14a1", "is_disabled": 0, "rental_uris": {"ios": "https://dc.lft.to/lastmile_qr_scan", "android": "https://dc.lft.to/lastmile_qr_scan"}, "is_reserved": 0}, {"lon": -77.00929883333333, "bike_id": "6c36322254f421ff7f6ca643d3297ac5", "lat": 38.9180775, "fusion_lon": 0.0, "fusion_lat": 0.0, "type": "electric_scooter", "name": "6c36322254f421ff7f6ca643d3297ac5", "is_disabled": 0, "rental_uris": {"ios": "https://dc.lft.to/lastmile_qr_scan", "android": "https://dc.lft.to/lastmile_qr_scan"}, "is_reserved": 0}, {"lon": -77.0613025, "bike_id": "168e8489444242a58ea89ed0b520ee37", "lat": 38.90538683333333, "fusion_lon": 0.0, "fusion_lat": 0.0, "type": "electric_scooter", "name": "168e8489444242a58ea89ed0b520ee37", "is_disabled": 0, "rental_uris": {"ios": "https://dc.lft.to/lastmile_qr_scan", "android": "https://dc.lft.to/lastmile_qr_scan"}, "is_reserved": 0}, {"lon": -77.065725, "bike_id": "7142b41a62c4453f8daf5ed4cba89f77", "lat": 38.91136366666667, "fusion_lon": 0.0, "fusion_lat": 0.0, "type": "electric_bike", "name": "7142b41a62c4453f8daf5ed4cba89f77", "is_disabled": 0, "rental_uris": {"ios": "https://dc.lft.to/lastmile_qr_scan", "android": "https://dc.lft.to/lastmile_qr_scan"}, "is_reserved": 0}, {"lon": -77.05331616666666, "bike_id": "00fe776e83329e049d2bf991dfe21e1a", "lat": 38.9072985, "fusion_lon": 0.0, "fusion_lat": 0.0, "type": "electric_scooter", "name": "00fe776e83329e049d2bf991dfe21e1a", "is_disabled": 0, "rental_uris": {"ios": "https://dc.lft.to/lastmile_qr_scan", "android": "https://dc.lft.to/lastmile_qr_scan"}, "is_reserved": 0}, {"lon": -77.0013495, "bike_id": "f98057d6f35f3d16829297df9c8bb3f2", "lat": 38.885238666666666, "fusion_lon": 0.0, "fusion_lat": 0.0, "type": "electric_scooter", "name": "f98057d6f35f3d16829297df9c8bb3f2", "is_disabled": 0, "rental_uris": {"ios": "https://dc.lft.to/lastmile_qr_scan", "android": "https://dc.lft.to/lastmile_qr_scan"}, "is_reserved": 0}, {"lon": -77.03248316666667, "bike_id": "633d3ab0075679e681c9787dc4194890", "lat": 38.91558283333333, "fusion_lon": 0.0, "fusion_lat": 0.0, "type": "electric_scooter", "name": "633d3ab0075679e681c9787dc4194890", "is_disabled": 0, "rental_uris": {"ios": "https://dc.lft.to/lastmile_qr_scan", "android": "https://dc.lft.to/lastmile_qr_scan"}, "is_reserved": 0}, {"lon": -77.07796666666667, "bike_id": "34663e4a6e6f4de6f5da69f50fee4231", "lat": 38.99601116666667, "fusion_lon": 0.0, "fusion_lat": 0.0, "type": "electric_bike", "name": "34663e4a6e6f4de6f5da69f50fee4231", "is_disabled": 0, "rental_uris": {"ios": "https://dc.lft.to/lastmile_qr_scan", "android": "https://dc.lft.to/lastmile_qr_scan"}, "is_reserved": 0}, {"lon": -77.024935, "bike_id": "601579226385c35a92270d155a992522", "lat": 38.90398166666667, "fusion_lon": 0.0, "fusion_lat": 0.0, "type": "electric_scooter", "name": "601579226385c35a92270d155a992522", "is_disabled": 0, "rental_uris": {"ios": "https://dc.lft.to/lastmile_qr_scan", "android": "https://dc.lft.to/lastmile_qr_scan"}, "is_reserved": 0}, {"lon": -77.025335, "bike_id": "f97eefeea59f0b0470cee454c5863dbb", "lat": 38.94304733333333, "fusion_lon": 0.0, "fusion_lat": 0.0, "type": "electric_scooter", "name": "f97eefeea59f0b0470cee454c5863dbb", "is_disabled": 0, "rental_uris": {"ios": "https://dc.lft.to/lastmile_qr_scan", "android": "https://dc.lft.to/lastmile_qr_scan"}, "is_reserved": 0}, {"lon": -76.996453, "bike_id": "e658c5fcff0a6dcb8f92656ec5b3cd34", "lat": 38.88721783333333, "fusion_lon": 0.0, "fusion_lat": 0.0, "type": "electric_scooter", "name": "e658c5fcff0a6dcb8f92656ec5b3cd34", "is_disabled": 0, "rental_uris": {"ios": "https://dc.lft.to/lastmile_qr_scan", "android": "https://dc.lft.to/lastmile_qr_scan"}, "is_reserved": 0}, {"lon": -77.00437566666666, "bike_id": "953b8850254812c5296c34c7848245f2", "lat": 38.87674666666667, "fusion_lon": 0.0, "fusion_lat": 0.0, "type": "electric_scooter", "name": "953b8850254812c5296c34c7848245f2", "is_disabled": 0, "rental_uris": {"ios": "https://dc.lft.to/lastmile_qr_scan", "android": "https://dc.lft.to/lastmile_qr_scan"}, "is_reserved": 0}, {"lon": -77.04327033333334, "bike_id": "ce97a17c9e2178c47b8755ced5ffbdc7", "lat": 38.91880416666667, "fusion_lon": 0.0, "fusion_lat": 0.0, "type": "electric_scooter", "name": "ce97a17c9e2178c47b8755ced5ffbdc7", "is_disabled": 0, "rental_uris": {"ios": "https://dc.lft.to/lastmile_qr_scan", "android": "https://dc.lft.to/lastmile_qr_scan"}, "is_reserved": 0}, {"lon": -76.95076483333334, "bike_id": "ff45b82529141904276ba6c8ebb26090", "lat": 38.93743166666667, "fusion_lon": 0.0, "fusion_lat": 0.0, "type": "electric_bike", "name": "ff45b82529141904276ba6c8ebb26090", "is_disabled": 0, "rental_uris": {"ios": "https://dc.lft.to/lastmile_qr_scan", "android": "https://dc.lft.to/lastmile_qr_scan"}, "is_reserved": 0}, {"lon": -77.0349735, "bike_id": "dc578c1d77e379d12c7a1dc21f67fb79", "lat": 38.91472783333333, "fusion_lon": 0.0, "fusion_lat": 0.0, "type": "electric_scooter", "name": "dc578c1d77e379d12c7a1dc21f67fb79", "is_disabled": 0, "rental_uris": {"ios": "https://dc.lft.to/lastmile_qr_scan", "android": "https://dc.lft.to/lastmile_qr_scan"}, "is_reserved": 0}, {"lon": -77.00570516666667, "bike_id": "75d49bb0b8f2324285167e35f642011c", "lat": 38.87438816666667, "fusion_lon": 0.0, "fusion_lat": 0.0, "type": "electric_scooter", "name": "75d49bb0b8f2324285167e35f642011c", "is_disabled": 0, "rental_uris": {"ios": "https://dc.lft.to/lastmile_qr_scan", "android": "https://dc.lft.to/lastmile_qr_scan"}, "is_reserved": 0}, {"lon": -77.02405716666667, "bike_id": "715125139a79f1c0f2c48a2c6c7cc556", "lat": 38.90695566666667, "fusion_lon": 0.0, "fusion_lat": 0.0, "type": "electric_scooter", "name": "715125139a79f1c0f2c48a2c6c7cc556", "is_disabled": 0, "rental_uris": {"ios": "https://dc.lft.to/lastmile_qr_scan", "android": "https://dc.lft.to/lastmile_qr_scan"}, "is_reserved": 0}, {"lon": -77.01446133333333, "bike_id": "0661c990ebdf142ab5c1844ccdeba267", "lat": 38.912572, "fusion_lon": 0.0, "fusion_lat": 0.0, "type": "electric_scooter", "name": "0661c990ebdf142ab5c1844ccdeba267", "is_disabled": 0, "rental_uris": {"ios": "https://dc.lft.to/lastmile_qr_scan", "android": "https://dc.lft.to/lastmile_qr_scan"}, "is_reserved": 0}, {"lon": -77.0271355, "bike_id": "9d1e052e6bc846238eaa10638dcedfe8", "lat": 38.90075516666667, "fusion_lon": 0.0, "fusion_lat": 0.0, "type": "electric_scooter", "name": "9d1e052e6bc846238eaa10638dcedfe8", "is_disabled": 0, "rental_uris": {"ios": "https://dc.lft.to/lastmile_qr_scan", "android": "https://dc.lft.to/lastmile_qr_scan"}, "is_reserved": 0}, {"lon": -76.99675866666666, "bike_id": "142cfab1ae1ac731a0cc37677525a0e9", "lat": 38.92491316666667, "fusion_lon": 0.0, "fusion_lat": 0.0, "type": "electric_bike", "name": "142cfab1ae1ac731a0cc37677525a0e9", "is_disabled": 0, "rental_uris": {"ios": "https://dc.lft.to/lastmile_qr_scan", "android": "https://dc.lft.to/lastmile_qr_scan"}, "is_reserved": 0}, {"lon": -76.9853145, "bike_id": "9ffc1d41ebd3bee978d87e7ba9a715ec", "lat": 38.89950066666667, "fusion_lon": 0.0, "fusion_lat": 0.0, "type": "electric_scooter", "name": "9ffc1d41ebd3bee978d87e7ba9a715ec", "is_disabled": 0, "rental_uris": {"ios": "https://dc.lft.to/lastmile_qr_scan", "android": "https://dc.lft.to/lastmile_qr_scan"}, "is_reserved": 0}, {"lon": -77.07811816666667, "bike_id": "ada3202986430e58567955f9e164b83a", "lat": 38.924605666666665, "fusion_lon": 0.0, "fusion_lat": 0.0, "type": "electric_scooter", "name": "ada3202986430e58567955f9e164b83a", "is_disabled": 0, "rental_uris": {"ios": "https://dc.lft.to/lastmile_qr_scan", "android": "https://dc.lft.to/lastmile_qr_scan"}, "is_reserved": 0}, {"lon": -77.023824, "bike_id": "d1e601d4148c998205d5047977322f20", "lat": 38.9063005, "fusion_lon": 0.0, "fusion_lat": 0.0, "type": "electric_scooter", "name": "d1e601d4148c998205d5047977322f20", "is_disabled": 0, "rental_uris": {"ios": "https://dc.lft.to/lastmile_qr_scan", "android": "https://dc.lft.to/lastmile_qr_scan"}, "is_reserved": 0}, {"lon": -77.031759, "bike_id": "c0310ade9d4778ba2cfc79f20dfa88ed", "lat": 38.951595, "fusion_lon": 0.0, "fusion_lat": 0.0, "type": "electric_bike", "name": "c0310ade9d4778ba2cfc79f20dfa88ed", "is_disabled": 0, "rental_uris": {"ios": "https://dc.lft.to/lastmile_qr_scan", "android": "https://dc.lft.to/lastmile_qr_scan"}, "is_reserved": 0}, {"lon": -77.02319433333334, "bike_id": "be9c9337d151e266e1763ea7e7bac68e", "lat": 38.955255666666666, "fusion_lon": 0.0, "fusion_lat": 0.0, "type": "electric_scooter", "name": "be9c9337d151e266e1763ea7e7bac68e", "is_disabled": 0, "rental_uris": {"ios": "https://dc.lft.to/lastmile_qr_scan", "android": "https://dc.lft.to/lastmile_qr_scan"}, "is_reserved": 0}, {"lon": -77.0067425, "bike_id": "da07ed2e979fb496042659169605f441", "lat": 38.900199, "fusion_lon": 0.0, "fusion_lat": 0.0, "type": "electric_scooter", "name": "da07ed2e979fb496042659169605f441", "is_disabled": 0, "rental_uris": {"ios": "https://dc.lft.to/lastmile_qr_scan", "android": "https://dc.lft.to/lastmile_qr_scan"}, "is_reserved": 0}, {"lon": -77.03263333333334, "bike_id": "0cee0ff7684c42692a97c0750de423f5", "lat": 38.93695066666667, "fusion_lon": 0.0, "fusion_lat": 0.0, "type": "electric_scooter", "name": "0cee0ff7684c42692a97c0750de423f5", "is_disabled": 0, "rental_uris": {"ios": "https://dc.lft.to/lastmile_qr_scan", "android": "https://dc.lft.to/lastmile_qr_scan"}, "is_reserved": 0}, {"lon": -76.93755866666666, "bike_id": "bec90d44619ced49514c3ba0a66f9e1f", "lat": 38.890472, "fusion_lon": 0.0, "fusion_lat": 0.0, "type": "electric_scooter", "name": "bec90d44619ced49514c3ba0a66f9e1f", "is_disabled": 0, "rental_uris": {"ios": "https://dc.lft.to/lastmile_qr_scan", "android": "https://dc.lft.to/lastmile_qr_scan"}, "is_reserved": 0}, {"lon": -77.0522595, "bike_id": "1b906fc36e99f6185eeaf09ed0cef11d", "lat": 38.92461383333333, "fusion_lon": 0.0, "fusion_lat": 0.0, "type": "electric_scooter", "name": "1b906fc36e99f6185eeaf09ed0cef11d", "is_disabled": 0, "rental_uris": {"ios": "https://dc.lft.to/lastmile_qr_scan", "android": "https://dc.lft.to/lastmile_qr_scan"}, "is_reserved": 0}, {"lon": -76.99547983333333, "bike_id": "6450ea774b99eb0f8e39759d587648a1", "lat": 38.86259283333333, "fusion_lon": 0.0, "fusion_lat": 0.0, "type": "electric_scooter", "name": "6450ea774b99eb0f8e39759d587648a1", "is_disabled": 0, "rental_uris": {"ios": "https://dc.lft.to/lastmile_qr_scan", "android": "https://dc.lft.to/lastmile_qr_scan"}, "is_reserved": 0}, {"lon": -77.016114, "bike_id": "291bd1583bb2737fd9a950e40b5c011f", "lat": 38.9290115, "fusion_lon": 0.0, "fusion_lat": 0.0, "type": "electric_scooter", "name": "291bd1583bb2737fd9a950e40b5c011f", "is_disabled": 0, "rental_uris": {"ios": "https://dc.lft.to/lastmile_qr_scan", "android": "https://dc.lft.to/lastmile_qr_scan"}, "is_reserved": 0}, {"lon": -77.03674233333334, "bike_id": "9e1a80b9479ac6c99f9bb6a3b4279992", "lat": 38.90959433333333, "fusion_lon": 0.0, "fusion_lat": 0.0, "type": "electric_scooter", "name": "9e1a80b9479ac6c99f9bb6a3b4279992", "is_disabled": 0, "rental_uris": {"ios": "https://dc.lft.to/lastmile_qr_scan", "android": "https://dc.lft.to/lastmile_qr_scan"}, "is_reserved": 0}, {"lon": -77.04919083333333, "bike_id": "d45d2867806ae16ff28d1bd6891146bc", "lat": 38.903392333333336, "fusion_lon": 0.0, "fusion_lat": 0.0, "type": "electric_scooter", "name": "d45d2867806ae16ff28d1bd6891146bc", "is_disabled": 0, "rental_uris": {"ios": "https://dc.lft.to/lastmile_qr_scan", "android": "https://dc.lft.to/lastmile_qr_scan"}, "is_reserved": 0}, {"lon": -77.0366645, "bike_id": "5d505b83dbe0e6e85720facd9f6ca4ff", "lat": 38.92123766666667, "fusion_lon": 0.0, "fusion_lat": 0.0, "type": "electric_scooter", "name": "5d505b83dbe0e6e85720facd9f6ca4ff", "is_disabled": 0, "rental_uris": {"ios": "https://dc.lft.to/lastmile_qr_scan", "android": "https://dc.lft.to/lastmile_qr_scan"}, "is_reserved": 0}, {"lon": -77.05799166666667, "bike_id": "e851c2a5566e2fd2cdcfa594ff1b721c", "lat": 38.934606, "fusion_lon": 0.0, "fusion_lat": 0.0, "type": "electric_scooter", "name": "e851c2a5566e2fd2cdcfa594ff1b721c", "is_disabled": 0, "rental_uris": {"ios": "https://dc.lft.to/lastmile_qr_scan", "android": "https://dc.lft.to/lastmile_qr_scan"}, "is_reserved": 0}, {"lon": -77.044876, "bike_id": "03d2af601031db7779cbde842247f48d", "lat": 38.913915, "fusion_lon": 0.0, "fusion_lat": 0.0, "type": "electric_scooter", "name": "03d2af601031db7779cbde842247f48d", "is_disabled": 0, "rental_uris": {"ios": "https://dc.lft.to/lastmile_qr_scan", "android": "https://dc.lft.to/lastmile_qr_scan"}, "is_reserved": 0}, {"lon": -76.937329, "bike_id": "158d1bda8dee67355e40c533e4f3d39b", "lat": 38.890188333333334, "fusion_lon": 0.0, "fusion_lat": 0.0, "type": "electric_scooter", "name": "158d1bda8dee67355e40c533e4f3d39b", "is_disabled": 0, "rental_uris": {"ios": "https://dc.lft.to/lastmile_qr_scan", "android": "https://dc.lft.to/lastmile_qr_scan"}, "is_reserved": 0}, {"lon": -77.03686366666666, "bike_id": "e584b4b008d6dbba6fab7873e023b064", "lat": 38.90877016666666, "fusion_lon": 0.0, "fusion_lat": 0.0, "type": "electric_scooter", "name": "e584b4b008d6dbba6fab7873e023b064", "is_disabled": 0, "rental_uris": {"ios": "https://dc.lft.to/lastmile_qr_scan", "android": "https://dc.lft.to/lastmile_qr_scan"}, "is_reserved": 0}, {"lon": -76.98171616666667, "bike_id": "5a7f2b0b20af5cd0847e947f7771b931", "lat": 38.904431333333335, "fusion_lon": 0.0, "fusion_lat": 0.0, "type": "electric_scooter", "name": "5a7f2b0b20af5cd0847e947f7771b931", "is_disabled": 0, "rental_uris": {"ios": "https://dc.lft.to/lastmile_qr_scan", "android": "https://dc.lft.to/lastmile_qr_scan"}, "is_reserved": 0}, {"lon": -76.981096, "bike_id": "1415c39268f29ca78dc5345d422030a6", "lat": 38.90408983333333, "fusion_lon": 0.0, "fusion_lat": 0.0, "type": "electric_scooter", "name": "1415c39268f29ca78dc5345d422030a6", "is_disabled": 0, "rental_uris": {"ios": "https://dc.lft.to/lastmile_qr_scan", "android": "https://dc.lft.to/lastmile_qr_scan"}, "is_reserved": 0}, {"lon": -77.02348516666666, "bike_id": "50baade9bac271415e3f7e64a7eeb24d", "lat": 38.922515, "fusion_lon": 0.0, "fusion_lat": 0.0, "type": "electric_scooter", "name": "50baade9bac271415e3f7e64a7eeb24d", "is_disabled": 0, "rental_uris": {"ios": "https://dc.lft.to/lastmile_qr_scan", "android": "https://dc.lft.to/lastmile_qr_scan"}, "is_reserved": 0}, {"lon": -77.052693, "bike_id": "7c42bcff0d1522e1c6ef297fdcd121ec", "lat": 38.899688166666664, "fusion_lon": 0.0, "fusion_lat": 0.0, "type": "electric_scooter", "name": "7c42bcff0d1522e1c6ef297fdcd121ec", "is_disabled": 0, "rental_uris": {"ios": "https://dc.lft.to/lastmile_qr_scan", "android": "https://dc.lft.to/lastmile_qr_scan"}, "is_reserved": 0}, {"lon": -76.98689133333333, "bike_id": "f0626a24f76f9a79e1465809d9757f38", "lat": 38.91217666666667, "fusion_lon": 0.0, "fusion_lat": 0.0, "type": "electric_scooter", "name": "f0626a24f76f9a79e1465809d9757f38", "is_disabled": 0, "rental_uris": {"ios": "https://dc.lft.to/lastmile_qr_scan", "android": "https://dc.lft.to/lastmile_qr_scan"}, "is_reserved": 0}, {"lon": -77.0123765, "bike_id": "975a317c033a4abaa95889ed7423ab79", "lat": 38.86978516666667, "fusion_lon": 0.0, "fusion_lat": 0.0, "type": "electric_scooter", "name": "975a317c033a4abaa95889ed7423ab79", "is_disabled": 0, "rental_uris": {"ios": "https://dc.lft.to/lastmile_qr_scan", "android": "https://dc.lft.to/lastmile_qr_scan"}, "is_reserved": 0}, {"lon": -77.02161983333333, "bike_id": "39a1dfd21ef8fb2b4f17db5daf6047a8", "lat": 38.909705, "fusion_lon": 0.0, "fusion_lat": 0.0, "type": "electric_scooter", "name": "39a1dfd21ef8fb2b4f17db5daf6047a8", "is_disabled": 0, "rental_uris": {"ios": "https://dc.lft.to/lastmile_qr_scan", "android": "https://dc.lft.to/lastmile_qr_scan"}, "is_reserved": 0}, {"lon": -77.02385183333334, "bike_id": "e3ce458eca3f96738657bf742c3ad7a6", "lat": 38.9094725, "fusion_lon": 0.0, "fusion_lat": 0.0, "type": "electric_scooter", "name": "e3ce458eca3f96738657bf742c3ad7a6", "is_disabled": 0, "rental_uris": {"ios": "https://dc.lft.to/lastmile_qr_scan", "android": "https://dc.lft.to/lastmile_qr_scan"}, "is_reserved": 0}, {"lon": -77.0222415, "bike_id": "d7db67f6f65c011a4fa58d5505f75c76", "lat": 38.92170866666667, "fusion_lon": 0.0, "fusion_lat": 0.0, "type": "electric_scooter", "name": "d7db67f6f65c011a4fa58d5505f75c76", "is_disabled": 0, "rental_uris": {"ios": "https://dc.lft.to/lastmile_qr_scan", "android": "https://dc.lft.to/lastmile_qr_scan"}, "is_reserved": 0}, {"lon": -77.031865, "bike_id": "d06746f467db8c87f7206f0b1977c4fc", "lat": 38.91172616666667, "fusion_lon": 0.0, "fusion_lat": 0.0, "type": "electric_scooter", "name": "d06746f467db8c87f7206f0b1977c4fc", "is_disabled": 0, "rental_uris": {"ios": "https://dc.lft.to/lastmile_qr_scan", "android": "https://dc.lft.to/lastmile_qr_scan"}, "is_reserved": 0}, {"lon": -77.02025633333334, "bike_id": "11ec71e0c860437806911d122b748716", "lat": 38.90562583333333, "fusion_lon": 0.0, "fusion_lat": 0.0, "type": "electric_scooter", "name": "11ec71e0c860437806911d122b748716", "is_disabled": 0, "rental_uris": {"ios": "https://dc.lft.to/lastmile_qr_scan", "android": "https://dc.lft.to/lastmile_qr_scan"}, "is_reserved": 0}, {"lon": -77.02696016666667, "bike_id": "050df787845b39b5d19a37de7ecfcc72", "lat": 38.91225566666667, "fusion_lon": 0.0, "fusion_lat": 0.0, "type": "electric_scooter", "name": "050df787845b39b5d19a37de7ecfcc72", "is_disabled": 0, "rental_uris": {"ios": "https://dc.lft.to/lastmile_qr_scan", "android": "https://dc.lft.to/lastmile_qr_scan"}, "is_reserved": 0}, {"lon": -76.98526266666667, "bike_id": "a5c17783aab8fb0e1eb00b4fc011971d", "lat": 38.86684833333333, "fusion_lon": 0.0, "fusion_lat": 0.0, "type": "electric_scooter", "name": "a5c17783aab8fb0e1eb00b4fc011971d", "is_disabled": 0, "rental_uris": {"ios": "https://dc.lft.to/lastmile_qr_scan", "android": "https://dc.lft.to/lastmile_qr_scan"}, "is_reserved": 0}, {"lon": -77.04471016666666, "bike_id": "dedcceb9fe25409ffe3f980fd33acec2", "lat": 38.923899, "fusion_lon": 0.0, "fusion_lat": 0.0, "type": "electric_scooter", "name": "dedcceb9fe25409ffe3f980fd33acec2", "is_disabled": 0, "rental_uris": {"ios": "https://dc.lft.to/lastmile_qr_scan", "android": "https://dc.lft.to/lastmile_qr_scan"}, "is_reserved": 0}, {"lon": -77.02767933333334, "bike_id": "47f7f3b11b974587c23c76695ce5fad5", "lat": 38.95426633333334, "fusion_lon": 0.0, "fusion_lat": 0.0, "type": "electric_scooter", "name": "47f7f3b11b974587c23c76695ce5fad5", "is_disabled": 0, "rental_uris": {"ios": "https://dc.lft.to/lastmile_qr_scan", "android": "https://dc.lft.to/lastmile_qr_scan"}, "is_reserved": 0}, {"lon": -76.9074255, "bike_id": "9ef534099e524408011f972bcbb5cbea", "lat": 38.89613833333333, "fusion_lon": 0.0, "fusion_lat": 0.0, "type": "electric_bike", "name": "9ef534099e524408011f972bcbb5cbea", "is_disabled": 0, "rental_uris": {"ios": "https://dc.lft.to/lastmile_qr_scan", "android": "https://dc.lft.to/lastmile_qr_scan"}, "is_reserved": 0}, {"lon": -77.039331, "bike_id": "518b3d8f64da098f8e06e3aed16a17f2", "lat": 38.91567716666667, "fusion_lon": 0.0, "fusion_lat": 0.0, "type": "electric_scooter", "name": "518b3d8f64da098f8e06e3aed16a17f2", "is_disabled": 0, "rental_uris": {"ios": "https://dc.lft.to/lastmile_qr_scan", "android": "https://dc.lft.to/lastmile_qr_scan"}, "is_reserved": 0}, {"lon": -77.003277, "bike_id": "d88d9106e60af0c6caca0344bbf98357", "lat": 38.90262766666667, "fusion_lon": 0.0, "fusion_lat": 0.0, "type": "electric_scooter", "name": "d88d9106e60af0c6caca0344bbf98357", "is_disabled": 0, "rental_uris": {"ios": "https://dc.lft.to/lastmile_qr_scan", "android": "https://dc.lft.to/lastmile_qr_scan"}, "is_reserved": 0}, {"lon": -77.029832, "bike_id": "cca19bdc06dcadd18d6ffcdd92232cf0", "lat": 38.9273095, "fusion_lon": 0.0, "fusion_lat": 0.0, "type": "electric_scooter", "name": "cca19bdc06dcadd18d6ffcdd92232cf0", "is_disabled": 0, "rental_uris": {"ios": "https://dc.lft.to/lastmile_qr_scan", "android": "https://dc.lft.to/lastmile_qr_scan"}, "is_reserved": 0}, {"lon": -77.05137666666667, "bike_id": "02c2bbb393b6d1c25f79086e72559019", "lat": 38.89817683333333, "fusion_lon": 0.0, "fusion_lat": 0.0, "type": "electric_scooter", "name": "02c2bbb393b6d1c25f79086e72559019", "is_disabled": 0, "rental_uris": {"ios": "https://dc.lft.to/lastmile_qr_scan", "android": "https://dc.lft.to/lastmile_qr_scan"}, "is_reserved": 0}, {"lon": -77.02297133333333, "bike_id": "f50c1a00227f84ede90d23e017f699be", "lat": 38.9222775, "fusion_lon": 0.0, "fusion_lat": 0.0, "type": "electric_scooter", "name": "f50c1a00227f84ede90d23e017f699be", "is_disabled": 0, "rental_uris": {"ios": "https://dc.lft.to/lastmile_qr_scan", "android": "https://dc.lft.to/lastmile_qr_scan"}, "is_reserved": 0}, {"lon": -76.96612516666667, "bike_id": "5aa911aa0bfe2ef93ce613c550e5d377", "lat": 38.87110466666667, "fusion_lon": 0.0, "fusion_lat": 0.0, "type": "electric_scooter", "name": "5aa911aa0bfe2ef93ce613c550e5d377", "is_disabled": 0, "rental_uris": {"ios": "https://dc.lft.to/lastmile_qr_scan", "android": "https://dc.lft.to/lastmile_qr_scan"}, "is_reserved": 0}, {"lon": -77.06262616666666, "bike_id": "74c968ff32dfee110e2ae51c18c4e985", "lat": 38.902382333333335, "fusion_lon": 0.0, "fusion_lat": 0.0, "type": "electric_scooter", "name": "74c968ff32dfee110e2ae51c18c4e985", "is_disabled": 0, "rental_uris": {"ios": "https://dc.lft.to/lastmile_qr_scan", "android": "https://dc.lft.to/lastmile_qr_scan"}, "is_reserved": 0}, {"lon": -77.00545833333334, "bike_id": "c158f11020a46554fe1e8126a1db36c9", "lat": 38.87459483333333, "fusion_lon": 0.0, "fusion_lat": 0.0, "type": "electric_scooter", "name": "c158f11020a46554fe1e8126a1db36c9", "is_disabled": 0, "rental_uris": {"ios": "https://dc.lft.to/lastmile_qr_scan", "android": "https://dc.lft.to/lastmile_qr_scan"}, "is_reserved": 0}, {"lon": -77.020099, "bike_id": "74919b80d80fa17f47d1cc1704694d0b", "lat": 38.924075, "fusion_lon": 0.0, "fusion_lat": 0.0, "type": "electric_scooter", "name": "74919b80d80fa17f47d1cc1704694d0b", "is_disabled": 0, "rental_uris": {"ios": "https://dc.lft.to/lastmile_qr_scan", "android": "https://dc.lft.to/lastmile_qr_scan"}, "is_reserved": 0}, {"lon": -77.05237133333334, "bike_id": "1e302d488494074168ac7cde22389e8a", "lat": 38.924633666666665, "fusion_lon": 0.0, "fusion_lat": 0.0, "type": "electric_scooter", "name": "1e302d488494074168ac7cde22389e8a", "is_disabled": 0, "rental_uris": {"ios": "https://dc.lft.to/lastmile_qr_scan", "android": "https://dc.lft.to/lastmile_qr_scan"}, "is_reserved": 0}, {"lon": -77.02085583333333, "bike_id": "4ecf34c7d3fa1b5dafd48960971cbbf8", "lat": 38.927018833333335, "fusion_lon": 0.0, "fusion_lat": 0.0, "type": "electric_scooter", "name": "4ecf34c7d3fa1b5dafd48960971cbbf8", "is_disabled": 0, "rental_uris": {"ios": "https://dc.lft.to/lastmile_qr_scan", "android": "https://dc.lft.to/lastmile_qr_scan"}, "is_reserved": 0}, {"lon": -77.03210416666667, "bike_id": "4fcba0e20fbbe2231ae2081f819ff195", "lat": 38.91474383333333, "fusion_lon": 0.0, "fusion_lat": 0.0, "type": "electric_scooter", "name": "4fcba0e20fbbe2231ae2081f819ff195", "is_disabled": 0, "rental_uris": {"ios": "https://dc.lft.to/lastmile_qr_scan", "android": "https://dc.lft.to/lastmile_qr_scan"}, "is_reserved": 0}, {"lon": -77.00310733333333, "bike_id": "0002181cbf02fa808e8d37db5d5b462f", "lat": 38.89496466666667, "fusion_lon": 0.0, "fusion_lat": 0.0, "type": "electric_scooter", "name": "0002181cbf02fa808e8d37db5d5b462f", "is_disabled": 0, "rental_uris": {"ios": "https://dc.lft.to/lastmile_qr_scan", "android": "https://dc.lft.to/lastmile_qr_scan"}, "is_reserved": 0}, {"lon": -77.04676583333334, "bike_id": "60a0ad928ba3bf22c6e0b50f35a13289", "lat": 38.90252916666667, "fusion_lon": 0.0, "fusion_lat": 0.0, "type": "electric_scooter", "name": "60a0ad928ba3bf22c6e0b50f35a13289", "is_disabled": 0, "rental_uris": {"ios": "https://dc.lft.to/lastmile_qr_scan", "android": "https://dc.lft.to/lastmile_qr_scan"}, "is_reserved": 0}, {"lon": -77.0111035, "bike_id": "5257c2c093ba16bcf1cabb8327695b10", "lat": 38.903513, "fusion_lon": 0.0, "fusion_lat": 0.0, "type": "electric_scooter", "name": "5257c2c093ba16bcf1cabb8327695b10", "is_disabled": 0, "rental_uris": {"ios": "https://dc.lft.to/lastmile_qr_scan", "android": "https://dc.lft.to/lastmile_qr_scan"}, "is_reserved": 0}, {"lon": -76.95749666666667, "bike_id": "83728165ab40417187d5df76e87b113c", "lat": 38.88426283333333, "fusion_lon": 0.0, "fusion_lat": 0.0, "type": "electric_scooter", "name": "83728165ab40417187d5df76e87b113c", "is_disabled": 0, "rental_uris": {"ios": "https://dc.lft.to/lastmile_qr_scan", "android": "https://dc.lft.to/lastmile_qr_scan"}, "is_reserved": 0}, {"lon": -76.9900195, "bike_id": "72a5921c2aa401c95efec5041494e59d", "lat": 38.865055166666664, "fusion_lon": 0.0, "fusion_lat": 0.0, "type": "electric_scooter", "name": "72a5921c2aa401c95efec5041494e59d", "is_disabled": 0, "rental_uris": {"ios": "https://dc.lft.to/lastmile_qr_scan", "android": "https://dc.lft.to/lastmile_qr_scan"}, "is_reserved": 0}, {"lon": -77.0304455, "bike_id": "08436ca3cd49029057203d035ab11b73", "lat": 38.878399333333334, "fusion_lon": 0.0, "fusion_lat": 0.0, "type": "electric_scooter", "name": "08436ca3cd49029057203d035ab11b73", "is_disabled": 0, "rental_uris": {"ios": "https://dc.lft.to/lastmile_qr_scan", "android": "https://dc.lft.to/lastmile_qr_scan"}, "is_reserved": 0}, {"lon": -77.03862166666667, "bike_id": "d62edb2aad385bed7eb7c3bc44bdfb4e", "lat": 38.9170655, "fusion_lon": 0.0, "fusion_lat": 0.0, "type": "electric_scooter", "name": "d62edb2aad385bed7eb7c3bc44bdfb4e", "is_disabled": 0, "rental_uris": {"ios": "https://dc.lft.to/lastmile_qr_scan", "android": "https://dc.lft.to/lastmile_qr_scan"}, "is_reserved": 0}, {"lon": -77.0459275, "bike_id": "dc00f6022d245aaf0ba550bf1c2202e7", "lat": 38.918630666666665, "fusion_lon": 0.0, "fusion_lat": 0.0, "type": "electric_scooter", "name": "dc00f6022d245aaf0ba550bf1c2202e7", "is_disabled": 0, "rental_uris": {"ios": "https://dc.lft.to/lastmile_qr_scan", "android": "https://dc.lft.to/lastmile_qr_scan"}, "is_reserved": 0}, {"lon": -77.04213033333333, "bike_id": "8f241fd832f3cdc9a80e08167bae4079", "lat": 38.921293, "fusion_lon": 0.0, "fusion_lat": 0.0, "type": "electric_scooter", "name": "8f241fd832f3cdc9a80e08167bae4079", "is_disabled": 0, "rental_uris": {"ios": "https://dc.lft.to/lastmile_qr_scan", "android": "https://dc.lft.to/lastmile_qr_scan"}, "is_reserved": 0}, {"lon": -77.03231666666667, "bike_id": "68700ecb05804c61a93b1451b518d772", "lat": 38.917065666666666, "fusion_lon": 0.0, "fusion_lat": 0.0, "type": "electric_scooter", "name": "68700ecb05804c61a93b1451b518d772", "is_disabled": 0, "rental_uris": {"ios": "https://dc.lft.to/lastmile_qr_scan", "android": "https://dc.lft.to/lastmile_qr_scan"}, "is_reserved": 0}, {"lon": -76.97847, "bike_id": "5adb4fa57d47d728966ce4a736b04a08", "lat": 38.865648666666665, "fusion_lon": 0.0, "fusion_lat": 0.0, "type": "electric_scooter", "name": "5adb4fa57d47d728966ce4a736b04a08", "is_disabled": 0, "rental_uris": {"ios": "https://dc.lft.to/lastmile_qr_scan", "android": "https://dc.lft.to/lastmile_qr_scan"}, "is_reserved": 0}, {"lon": -77.04360133333333, "bike_id": "b16735dfaf2d8aca1d8990a9f48d84c7", "lat": 39.015390833333335, "fusion_lon": 0.0, "fusion_lat": 0.0, "type": "electric_bike", "name": "b16735dfaf2d8aca1d8990a9f48d84c7", "is_disabled": 0, "rental_uris": {"ios": "https://dc.lft.to/lastmile_qr_scan", "android": "https://dc.lft.to/lastmile_qr_scan"}, "is_reserved": 0}, {"lon": -77.03258783333334, "bike_id": "624379878cf9ef0ff003e6c391513489", "lat": 38.935599833333335, "fusion_lon": 0.0, "fusion_lat": 0.0, "type": "electric_scooter", "name": "624379878cf9ef0ff003e6c391513489", "is_disabled": 0, "rental_uris": {"ios": "https://dc.lft.to/lastmile_qr_scan", "android": "https://dc.lft.to/lastmile_qr_scan"}, "is_reserved": 0}, {"lon": -77.02808683333333, "bike_id": "d0890a6dd3c2356ffa7d8a1cf3b18f38", "lat": 38.94192566666667, "fusion_lon": 0.0, "fusion_lat": 0.0, "type": "electric_scooter", "name": "d0890a6dd3c2356ffa7d8a1cf3b18f38", "is_disabled": 0, "rental_uris": {"ios": "https://dc.lft.to/lastmile_qr_scan", "android": "https://dc.lft.to/lastmile_qr_scan"}, "is_reserved": 0}, {"lon": -77.0304855, "bike_id": "62d67f7181dac6e7fac60040dc25031e", "lat": 38.91335133333333, "fusion_lon": 0.0, "fusion_lat": 0.0, "type": "electric_scooter", "name": "62d67f7181dac6e7fac60040dc25031e", "is_disabled": 0, "rental_uris": {"ios": "https://dc.lft.to/lastmile_qr_scan", "android": "https://dc.lft.to/lastmile_qr_scan"}, "is_reserved": 0}, {"lon": -77.04231583333333, "bike_id": "1672fcd5ce2d0eb4861355209915c908", "lat": 38.921276166666665, "fusion_lon": 0.0, "fusion_lat": 0.0, "type": "electric_scooter", "name": "1672fcd5ce2d0eb4861355209915c908", "is_disabled": 0, "rental_uris": {"ios": "https://dc.lft.to/lastmile_qr_scan", "android": "https://dc.lft.to/lastmile_qr_scan"}, "is_reserved": 0}, {"lon": -76.986189, "bike_id": "60a6195500290e118c33396c4febe856", "lat": 38.882898, "fusion_lon": 0.0, "fusion_lat": 0.0, "type": "electric_scooter", "name": "60a6195500290e118c33396c4febe856", "is_disabled": 0, "rental_uris": {"ios": "https://dc.lft.to/lastmile_qr_scan", "android": "https://dc.lft.to/lastmile_qr_scan"}, "is_reserved": 0}, {"lon": -77.04476616666666, "bike_id": "4b8b2d42632f4ada1d19fa0519240be8", "lat": 38.9078915, "fusion_lon": 0.0, "fusion_lat": 0.0, "type": "electric_scooter", "name": "4b8b2d42632f4ada1d19fa0519240be8", "is_disabled": 0, "rental_uris": {"ios": "https://dc.lft.to/lastmile_qr_scan", "android": "https://dc.lft.to/lastmile_qr_scan"}, "is_reserved": 0}, {"lon": -77.04736916666667, "bike_id": "5809f54c07e63586f3ba2483d4ac66c0", "lat": 38.917731, "fusion_lon": 0.0, "fusion_lat": 0.0, "type": "electric_scooter", "name": "5809f54c07e63586f3ba2483d4ac66c0", "is_disabled": 0, "rental_uris": {"ios": "https://dc.lft.to/lastmile_qr_scan", "android": "https://dc.lft.to/lastmile_qr_scan"}, "is_reserved": 0}, {"lon": -77.01346566666666, "bike_id": "c2ebbdfad466e7fac794d230ebfed732", "lat": 38.8781375, "fusion_lon": 0.0, "fusion_lat": 0.0, "type": "electric_scooter", "name": "c2ebbdfad466e7fac794d230ebfed732", "is_disabled": 0, "rental_uris": {"ios": "https://dc.lft.to/lastmile_qr_scan", "android": "https://dc.lft.to/lastmile_qr_scan"}, "is_reserved": 0}, {"lon": -77.03811733333333, "bike_id": "1c7373d2054f4142835d78af22f676b6", "lat": 38.93058633333333, "fusion_lon": 0.0, "fusion_lat": 0.0, "type": "electric_scooter", "name": "1c7373d2054f4142835d78af22f676b6", "is_disabled": 0, "rental_uris": {"ios": "https://dc.lft.to/lastmile_qr_scan", "android": "https://dc.lft.to/lastmile_qr_scan"}, "is_reserved": 0}, {"lon": -77.0347285, "bike_id": "b7b53365f02c55997ffe8b2074dbe81e", "lat": 38.920673666666666, "fusion_lon": 0.0, "fusion_lat": 0.0, "type": "electric_scooter", "name": "b7b53365f02c55997ffe8b2074dbe81e", "is_disabled": 0, "rental_uris": {"ios": "https://dc.lft.to/lastmile_qr_scan", "android": "https://dc.lft.to/lastmile_qr_scan"}, "is_reserved": 0}, {"lon": -77.038504, "bike_id": "aea618d54950aaea50316292c8dd4b90", "lat": 38.91665066666667, "fusion_lon": 0.0, "fusion_lat": 0.0, "type": "electric_scooter", "name": "aea618d54950aaea50316292c8dd4b90", "is_disabled": 0, "rental_uris": {"ios": "https://dc.lft.to/lastmile_qr_scan", "android": "https://dc.lft.to/lastmile_qr_scan"}, "is_reserved": 0}, {"lon": -76.98526766666667, "bike_id": "3eb459bcfcec0141898ef73d1b71314e", "lat": 38.904599833333336, "fusion_lon": 0.0, "fusion_lat": 0.0, "type": "electric_scooter", "name": "3eb459bcfcec0141898ef73d1b71314e", "is_disabled": 0, "rental_uris": {"ios": "https://dc.lft.to/lastmile_qr_scan", "android": "https://dc.lft.to/lastmile_qr_scan"}, "is_reserved": 0}, {"lon": -77.034531, "bike_id": "526d33b7f2733a331fb4fff95ec6dc5b", "lat": 38.927343, "fusion_lon": 0.0, "fusion_lat": 0.0, "type": "electric_scooter", "name": "526d33b7f2733a331fb4fff95ec6dc5b", "is_disabled": 0, "rental_uris": {"ios": "https://dc.lft.to/lastmile_qr_scan", "android": "https://dc.lft.to/lastmile_qr_scan"}, "is_reserved": 0}, {"lon": -77.11710316666667, "bike_id": "7c5404949802abb4fdad626efbb1906d", "lat": 38.86745766666667, "fusion_lon": 0.0, "fusion_lat": 0.0, "type": "electric_bike", "name": "7c5404949802abb4fdad626efbb1906d", "is_disabled": 0, "rental_uris": {"ios": "https://dc.lft.to/lastmile_qr_scan", "android": "https://dc.lft.to/lastmile_qr_scan"}, "is_reserved": 0}, {"lon": -76.99809866666666, "bike_id": "efb6463c78e76f2cfbca8444258ca1a0", "lat": 38.829229833333336, "fusion_lon": 0.0, "fusion_lat": 0.0, "type": "electric_bike", "name": "efb6463c78e76f2cfbca8444258ca1a0", "is_disabled": 0, "rental_uris": {"ios": "https://dc.lft.to/lastmile_qr_scan", "android": "https://dc.lft.to/lastmile_qr_scan"}, "is_reserved": 0}, {"lon": -77.00103616666667, "bike_id": "b27b62c5cbcb8c8d837ec3f5c878255a", "lat": 38.9163365, "fusion_lon": 0.0, "fusion_lat": 0.0, "type": "electric_scooter", "name": "b27b62c5cbcb8c8d837ec3f5c878255a", "is_disabled": 0, "rental_uris": {"ios": "https://dc.lft.to/lastmile_qr_scan", "android": "https://dc.lft.to/lastmile_qr_scan"}, "is_reserved": 0}, {"lon": -77.02443616666666, "bike_id": "bd79fd00d7dbeee072fe42cd689cc83d", "lat": 38.90731516666666, "fusion_lon": 0.0, "fusion_lat": 0.0, "type": "electric_scooter", "name": "bd79fd00d7dbeee072fe42cd689cc83d", "is_disabled": 0, "rental_uris": {"ios": "https://dc.lft.to/lastmile_qr_scan", "android": "https://dc.lft.to/lastmile_qr_scan"}, "is_reserved": 0}, {"lon": -76.957441, "bike_id": "b434dd58948106a89222aaeed1d91ba2", "lat": 38.88430183333333, "fusion_lon": 0.0, "fusion_lat": 0.0, "type": "electric_scooter", "name": "b434dd58948106a89222aaeed1d91ba2", "is_disabled": 0, "rental_uris": {"ios": "https://dc.lft.to/lastmile_qr_scan", "android": "https://dc.lft.to/lastmile_qr_scan"}, "is_reserved": 0}, {"lon": -77.0481285, "bike_id": "7a0aa43e4037eb9afd588f0068fca4ec", "lat": 38.907316, "fusion_lon": 0.0, "fusion_lat": 0.0, "type": "electric_scooter", "name": "7a0aa43e4037eb9afd588f0068fca4ec", "is_disabled": 0, "rental_uris": {"ios": "https://dc.lft.to/lastmile_qr_scan", "android": "https://dc.lft.to/lastmile_qr_scan"}, "is_reserved": 0}, {"lon": -77.04337483333333, "bike_id": "4c2877a9a1dce475beccd8d37a6bdbac", "lat": 38.91583683333333, "fusion_lon": 0.0, "fusion_lat": 0.0, "type": "electric_scooter", "name": "4c2877a9a1dce475beccd8d37a6bdbac", "is_disabled": 0, "rental_uris": {"ios": "https://dc.lft.to/lastmile_qr_scan", "android": "https://dc.lft.to/lastmile_qr_scan"}, "is_reserved": 0}, {"lon": -77.02435883333334, "bike_id": "061867b31ab79507b380c930d5bf2cdf", "lat": 38.92752333333333, "fusion_lon": 0.0, "fusion_lat": 0.0, "type": "electric_scooter", "name": "061867b31ab79507b380c930d5bf2cdf", "is_disabled": 0, "rental_uris": {"ios": "https://dc.lft.to/lastmile_qr_scan", "android": "https://dc.lft.to/lastmile_qr_scan"}, "is_reserved": 0}, {"lon": -76.99506466666666, "bike_id": "d0679f22a5162d8065ae5271369d4902", "lat": 38.87776816666667, "fusion_lon": 0.0, "fusion_lat": 0.0, "type": "electric_scooter", "name": "d0679f22a5162d8065ae5271369d4902", "is_disabled": 0, "rental_uris": {"ios": "https://dc.lft.to/lastmile_qr_scan", "android": "https://dc.lft.to/lastmile_qr_scan"}, "is_reserved": 0}, {"lon": -77.0321015, "bike_id": "fe067c8761190e7d4dc6940b1ec9cd45", "lat": 38.9167615, "fusion_lon": 0.0, "fusion_lat": 0.0, "type": "electric_scooter", "name": "fe067c8761190e7d4dc6940b1ec9cd45", "is_disabled": 0, "rental_uris": {"ios": "https://dc.lft.to/lastmile_qr_scan", "android": "https://dc.lft.to/lastmile_qr_scan"}, "is_reserved": 0}, {"lon": -77.03447483333333, "bike_id": "315a4bdc727334138e47d3b874c2e74b", "lat": 38.91418866666667, "fusion_lon": 0.0, "fusion_lat": 0.0, "type": "electric_scooter", "name": "315a4bdc727334138e47d3b874c2e74b", "is_disabled": 0, "rental_uris": {"ios": "https://dc.lft.to/lastmile_qr_scan", "android": "https://dc.lft.to/lastmile_qr_scan"}, "is_reserved": 0}, {"lon": -77.04321933333334, "bike_id": "effc96afce0202f225aeb3b2f931852b", "lat": 38.9187545, "fusion_lon": 0.0, "fusion_lat": 0.0, "type": "electric_scooter", "name": "effc96afce0202f225aeb3b2f931852b", "is_disabled": 0, "rental_uris": {"ios": "https://dc.lft.to/lastmile_qr_scan", "android": "https://dc.lft.to/lastmile_qr_scan"}, "is_reserved": 0}, {"lon": -77.0642365, "bike_id": "aa54213ec1b03bc9947bd88217a0f850", "lat": 38.90893666666667, "fusion_lon": 0.0, "fusion_lat": 0.0, "type": "electric_scooter", "name": "aa54213ec1b03bc9947bd88217a0f850", "is_disabled": 0, "rental_uris": {"ios": "https://dc.lft.to/lastmile_qr_scan", "android": "https://dc.lft.to/lastmile_qr_scan"}, "is_reserved": 0}, {"lon": -77.03208583333333, "bike_id": "f5aabde6ab68965c36e4dad4e8fe2f9d", "lat": 38.921737, "fusion_lon": 0.0, "fusion_lat": 0.0, "type": "electric_scooter", "name": "f5aabde6ab68965c36e4dad4e8fe2f9d", "is_disabled": 0, "rental_uris": {"ios": "https://dc.lft.to/lastmile_qr_scan", "android": "https://dc.lft.to/lastmile_qr_scan"}, "is_reserved": 0}, {"lon": -77.05766483333333, "bike_id": "9032f2003e61ba1a2d00ebeb5f14b33f", "lat": 38.9362325, "fusion_lon": 0.0, "fusion_lat": 0.0, "type": "electric_scooter", "name": "9032f2003e61ba1a2d00ebeb5f14b33f", "is_disabled": 0, "rental_uris": {"ios": "https://dc.lft.to/lastmile_qr_scan", "android": "https://dc.lft.to/lastmile_qr_scan"}, "is_reserved": 0}, {"lon": -77.0518465, "bike_id": "84064277e7b827e62fabe05de6a79891", "lat": 38.92425633333333, "fusion_lon": 0.0, "fusion_lat": 0.0, "type": "electric_scooter", "name": "84064277e7b827e62fabe05de6a79891", "is_disabled": 0, "rental_uris": {"ios": "https://dc.lft.to/lastmile_qr_scan", "android": "https://dc.lft.to/lastmile_qr_scan"}, "is_reserved": 0}, {"lon": -77.00285283333334, "bike_id": "bd7c72547dfe2c4500694e1f6e324a76", "lat": 38.95705533333334, "fusion_lon": 0.0, "fusion_lat": 0.0, "type": "electric_bike", "name": "bd7c72547dfe2c4500694e1f6e324a76", "is_disabled": 0, "rental_uris": {"ios": "https://dc.lft.to/lastmile_qr_scan", "android": "https://dc.lft.to/lastmile_qr_scan"}, "is_reserved": 0}, {"lon": -77.03509216666667, "bike_id": "65da61a7be6c066d497a9be0a67499a3", "lat": 38.92149166666667, "fusion_lon": 0.0, "fusion_lat": 0.0, "type": "electric_scooter", "name": "65da61a7be6c066d497a9be0a67499a3", "is_disabled": 0, "rental_uris": {"ios": "https://dc.lft.to/lastmile_qr_scan", "android": "https://dc.lft.to/lastmile_qr_scan"}, "is_reserved": 0}, {"lon": -77.03409933333333, "bike_id": "07d41d529697b21eb8d8bfbaa887de23", "lat": 38.96029383333333, "fusion_lon": 0.0, "fusion_lat": 0.0, "type": "electric_bike", "name": "07d41d529697b21eb8d8bfbaa887de23", "is_disabled": 0, "rental_uris": {"ios": "https://dc.lft.to/lastmile_qr_scan", "android": "https://dc.lft.to/lastmile_qr_scan"}, "is_reserved": 0}, {"lon": -77.12483066666667, "bike_id": "58b90dff9edda0c2c3c62a9e9d261977", "lat": 38.827930333333335, "fusion_lon": 0.0, "fusion_lat": 0.0, "type": "electric_bike", "name": "58b90dff9edda0c2c3c62a9e9d261977", "is_disabled": 0, "rental_uris": {"ios": "https://dc.lft.to/lastmile_qr_scan", "android": "https://dc.lft.to/lastmile_qr_scan"}, "is_reserved": 0}, {"lon": -77.0364475, "bike_id": "f9635cc6df4f1e3858f4c1de61ceb00d", "lat": 38.917378666666664, "fusion_lon": 0.0, "fusion_lat": 0.0, "type": "electric_scooter", "name": "f9635cc6df4f1e3858f4c1de61ceb00d", "is_disabled": 0, "rental_uris": {"ios": "https://dc.lft.to/lastmile_qr_scan", "android": "https://dc.lft.to/lastmile_qr_scan"}, "is_reserved": 0}, {"lon": -76.9952055, "bike_id": "2b68064ad3bfd1d25cce2c4f744dc918", "lat": 38.9002015, "fusion_lon": 0.0, "fusion_lat": 0.0, "type": "electric_scooter", "name": "2b68064ad3bfd1d25cce2c4f744dc918", "is_disabled": 0, "rental_uris": {"ios": "https://dc.lft.to/lastmile_qr_scan", "android": "https://dc.lft.to/lastmile_qr_scan"}, "is_reserved": 0}, {"lon": -76.99779766666667, "bike_id": "5524ed254b35c4a27ec00ed7ea6f9d38", "lat": 38.84430316666667, "fusion_lon": 0.0, "fusion_lat": 0.0, "type": "electric_scooter", "name": "5524ed254b35c4a27ec00ed7ea6f9d38", "is_disabled": 0, "rental_uris": {"ios": "https://dc.lft.to/lastmile_qr_scan", "android": "https://dc.lft.to/lastmile_qr_scan"}, "is_reserved": 0}, {"lon": -77.03182233333334, "bike_id": "ca6fe727656e877bb0b883c696e62c9f", "lat": 38.916841, "fusion_lon": 0.0, "fusion_lat": 0.0, "type": "electric_scooter", "name": "ca6fe727656e877bb0b883c696e62c9f", "is_disabled": 0, "rental_uris": {"ios": "https://dc.lft.to/lastmile_qr_scan", "android": "https://dc.lft.to/lastmile_qr_scan"}, "is_reserved": 0}, {"lon": -77.02467616666667, "bike_id": "9c7a6cca8583b09294c6f03f8d4b9379", "lat": 38.896745833333334, "fusion_lon": 0.0, "fusion_lat": 0.0, "type": "electric_scooter", "name": "9c7a6cca8583b09294c6f03f8d4b9379", "is_disabled": 0, "rental_uris": {"ios": "https://dc.lft.to/lastmile_qr_scan", "android": "https://dc.lft.to/lastmile_qr_scan"}, "is_reserved": 0}, {"lon": -77.0120755, "bike_id": "50af668e9863297975644294d5a60373", "lat": 38.88558883333334, "fusion_lon": 0.0, "fusion_lat": 0.0, "type": "electric_scooter", "name": "50af668e9863297975644294d5a60373", "is_disabled": 0, "rental_uris": {"ios": "https://dc.lft.to/lastmile_qr_scan", "android": "https://dc.lft.to/lastmile_qr_scan"}, "is_reserved": 0}, {"lon": -77.02682816666666, "bike_id": "f3b9e8a7cb7487c5bdb3c3f9986bc262", "lat": 38.91255833333334, "fusion_lon": 0.0, "fusion_lat": 0.0, "type": "electric_scooter", "name": "f3b9e8a7cb7487c5bdb3c3f9986bc262", "is_disabled": 0, "rental_uris": {"ios": "https://dc.lft.to/lastmile_qr_scan", "android": "https://dc.lft.to/lastmile_qr_scan"}, "is_reserved": 0}, {"lon": -76.94731933333334, "bike_id": "af4ac1db1ef36ff37136d017f5aaf239", "lat": 38.897368666666665, "fusion_lon": 0.0, "fusion_lat": 0.0, "type": "electric_scooter", "name": "af4ac1db1ef36ff37136d017f5aaf239", "is_disabled": 0, "rental_uris": {"ios": "https://dc.lft.to/lastmile_qr_scan", "android": "https://dc.lft.to/lastmile_qr_scan"}, "is_reserved": 0}, {"lon": -77.01625366666667, "bike_id": "bbedc54efb6d565f7a6b329d83e95aa4", "lat": 38.965772333333334, "fusion_lon": 0.0, "fusion_lat": 0.0, "type": "electric_scooter", "name": "bbedc54efb6d565f7a6b329d83e95aa4", "is_disabled": 0, "rental_uris": {"ios": "https://dc.lft.to/lastmile_qr_scan", "android": "https://dc.lft.to/lastmile_qr_scan"}, "is_reserved": 0}, {"lon": -77.04163383333334, "bike_id": "2b18f56c4062d1fa8928b97d3d4d5326", "lat": 38.91512566666667, "fusion_lon": 0.0, "fusion_lat": 0.0, "type": "electric_scooter", "name": "2b18f56c4062d1fa8928b97d3d4d5326", "is_disabled": 0, "rental_uris": {"ios": "https://dc.lft.to/lastmile_qr_scan", "android": "https://dc.lft.to/lastmile_qr_scan"}, "is_reserved": 0}, {"lon": -77.02012766666667, "bike_id": "a886471c28eebb8f86456e408d5600b8", "lat": 38.92409716666667, "fusion_lon": 0.0, "fusion_lat": 0.0, "type": "electric_scooter", "name": "a886471c28eebb8f86456e408d5600b8", "is_disabled": 0, "rental_uris": {"ios": "https://dc.lft.to/lastmile_qr_scan", "android": "https://dc.lft.to/lastmile_qr_scan"}, "is_reserved": 0}, {"lon": -77.0295475, "bike_id": "2250953ff203b1ea784f20c505f24f63", "lat": 38.90644233333333, "fusion_lon": 0.0, "fusion_lat": 0.0, "type": "electric_scooter", "name": "2250953ff203b1ea784f20c505f24f63", "is_disabled": 0, "rental_uris": {"ios": "https://dc.lft.to/lastmile_qr_scan", "android": "https://dc.lft.to/lastmile_qr_scan"}, "is_reserved": 0}, {"lon": -76.90602983333333, "bike_id": "e55e21a74fc29d0c845430b048b7777c", "lat": 39.004506166666665, "fusion_lon": 0.0, "fusion_lat": 0.0, "type": "electric_bike", "name": "e55e21a74fc29d0c845430b048b7777c", "is_disabled": 0, "rental_uris": {"ios": "https://dc.lft.to/lastmile_qr_scan", "android": "https://dc.lft.to/lastmile_qr_scan"}, "is_reserved": 0}, {"lon": -77.03566616666667, "bike_id": "b40afc9d0e8d63f98379cecf25263b66", "lat": 38.9273505, "fusion_lon": 0.0, "fusion_lat": 0.0, "type": "electric_scooter", "name": "b40afc9d0e8d63f98379cecf25263b66", "is_disabled": 0, "rental_uris": {"ios": "https://dc.lft.to/lastmile_qr_scan", "android": "https://dc.lft.to/lastmile_qr_scan"}, "is_reserved": 0}, {"lon": -76.97705816666667, "bike_id": "c04398093972f4d5ffc4760606ee3694", "lat": 38.949142, "fusion_lon": 0.0, "fusion_lat": 0.0, "type": "electric_bike", "name": "c04398093972f4d5ffc4760606ee3694", "is_disabled": 0, "rental_uris": {"ios": "https://dc.lft.to/lastmile_qr_scan", "android": "https://dc.lft.to/lastmile_qr_scan"}, "is_reserved": 0}, {"lon": -77.01095133333334, "bike_id": "8b5d374cfc5efbd5964a8e80575c5808", "lat": 38.91564, "fusion_lon": 0.0, "fusion_lat": 0.0, "type": "electric_scooter", "name": "8b5d374cfc5efbd5964a8e80575c5808", "is_disabled": 0, "rental_uris": {"ios": "https://dc.lft.to/lastmile_qr_scan", "android": "https://dc.lft.to/lastmile_qr_scan"}, "is_reserved": 0}, {"lon": -77.3609715, "bike_id": "461004ae1123f2d7f1f19b6774fcd4b4", "lat": 38.939600666666664, "fusion_lon": 0.0, "fusion_lat": 0.0, "type": "electric_bike", "name": "461004ae1123f2d7f1f19b6774fcd4b4", "is_disabled": 0, "rental_uris": {"ios": "https://dc.lft.to/lastmile_qr_scan", "android": "https://dc.lft.to/lastmile_qr_scan"}, "is_reserved": 0}, {"lon": -77.03128616666666, "bike_id": "bce0c1f002b8be907fcae87aba71d717", "lat": 38.90451133333333, "fusion_lon": 0.0, "fusion_lat": 0.0, "type": "electric_scooter", "name": "bce0c1f002b8be907fcae87aba71d717", "is_disabled": 0, "rental_uris": {"ios": "https://dc.lft.to/lastmile_qr_scan", "android": "https://dc.lft.to/lastmile_qr_scan"}, "is_reserved": 0}, {"lon": -77.028016, "bike_id": "83a15df4f7f00607d564158979ee4cf8", "lat": 38.91706416666667, "fusion_lon": 0.0, "fusion_lat": 0.0, "type": "electric_scooter", "name": "83a15df4f7f00607d564158979ee4cf8", "is_disabled": 0, "rental_uris": {"ios": "https://dc.lft.to/lastmile_qr_scan", "android": "https://dc.lft.to/lastmile_qr_scan"}, "is_reserved": 0}, {"lon": -77.03194616666667, "bike_id": "36c73033e45a3de9e1067648f774e544", "lat": 38.91237383333333, "fusion_lon": 0.0, "fusion_lat": 0.0, "type": "electric_scooter", "name": "36c73033e45a3de9e1067648f774e544", "is_disabled": 0, "rental_uris": {"ios": "https://dc.lft.to/lastmile_qr_scan", "android": "https://dc.lft.to/lastmile_qr_scan"}, "is_reserved": 0}, {"lon": -77.13910683333333, "bike_id": "fd9d2bdd886ef0baf3fa6459d1635f91", "lat": 38.896759833333334, "fusion_lon": 0.0, "fusion_lat": 0.0, "type": "electric_bike", "name": "fd9d2bdd886ef0baf3fa6459d1635f91", "is_disabled": 0, "rental_uris": {"ios": "https://dc.lft.to/lastmile_qr_scan", "android": "https://dc.lft.to/lastmile_qr_scan"}, "is_reserved": 0}, {"lon": -77.02684666666667, "bike_id": "c33750b2c45952c74eaf3139f016acf2", "lat": 38.9025615, "fusion_lon": 0.0, "fusion_lat": 0.0, "type": "electric_scooter", "name": "c33750b2c45952c74eaf3139f016acf2", "is_disabled": 0, "rental_uris": {"ios": "https://dc.lft.to/lastmile_qr_scan", "android": "https://dc.lft.to/lastmile_qr_scan"}, "is_reserved": 0}, {"lon": -77.01480033333333, "bike_id": "5e12c82b7685e0fc10c2047c2900263a", "lat": 38.95870466666667, "fusion_lon": 0.0, "fusion_lat": 0.0, "type": "electric_scooter", "name": "5e12c82b7685e0fc10c2047c2900263a", "is_disabled": 0, "rental_uris": {"ios": "https://dc.lft.to/lastmile_qr_scan", "android": "https://dc.lft.to/lastmile_qr_scan"}, "is_reserved": 0}, {"lon": -77.03205783333334, "bike_id": "34e23ccbf06bcc5f48605ad4f6e08ab6", "lat": 38.9217265, "fusion_lon": 0.0, "fusion_lat": 0.0, "type": "electric_scooter", "name": "34e23ccbf06bcc5f48605ad4f6e08ab6", "is_disabled": 0, "rental_uris": {"ios": "https://dc.lft.to/lastmile_qr_scan", "android": "https://dc.lft.to/lastmile_qr_scan"}, "is_reserved": 0}, {"lon": -77.05523816666667, "bike_id": "7addff7e10d37e7ad76dce39712533bd", "lat": 38.89731166666667, "fusion_lon": 0.0, "fusion_lat": 0.0, "type": "electric_scooter", "name": "7addff7e10d37e7ad76dce39712533bd", "is_disabled": 0, "rental_uris": {"ios": "https://dc.lft.to/lastmile_qr_scan", "android": "https://dc.lft.to/lastmile_qr_scan"}, "is_reserved": 0}, {"lon": -77.11578516666667, "bike_id": "ecde5c07f93cd64499d33c61141c9629", "lat": 38.99346166666667, "fusion_lon": 0.0, "fusion_lat": 0.0, "type": "electric_bike", "name": "ecde5c07f93cd64499d33c61141c9629", "is_disabled": 0, "rental_uris": {"ios": "https://dc.lft.to/lastmile_qr_scan", "android": "https://dc.lft.to/lastmile_qr_scan"}, "is_reserved": 0}, {"lon": -76.98528683333333, "bike_id": "29be0fe01966758a7426e5c17518dd56", "lat": 38.86685166666667, "fusion_lon": 0.0, "fusion_lat": 0.0, "type": "electric_scooter", "name": "29be0fe01966758a7426e5c17518dd56", "is_disabled": 0, "rental_uris": {"ios": "https://dc.lft.to/lastmile_qr_scan", "android": "https://dc.lft.to/lastmile_qr_scan"}, "is_reserved": 0}, {"lon": -77.02452966666667, "bike_id": "413f5f1239d578e4a9a6f0fcbd73f57d", "lat": 38.92067433333333, "fusion_lon": 0.0, "fusion_lat": 0.0, "type": "electric_scooter", "name": "413f5f1239d578e4a9a6f0fcbd73f57d", "is_disabled": 0, "rental_uris": {"ios": "https://dc.lft.to/lastmile_qr_scan", "android": "https://dc.lft.to/lastmile_qr_scan"}, "is_reserved": 0}, {"lon": -77.03490016666667, "bike_id": "04049954e3cb484dcfbd7ddb7e22d9af", "lat": 38.934582166666665, "fusion_lon": 0.0, "fusion_lat": 0.0, "type": "electric_scooter", "name": "04049954e3cb484dcfbd7ddb7e22d9af", "is_disabled": 0, "rental_uris": {"ios": "https://dc.lft.to/lastmile_qr_scan", "android": "https://dc.lft.to/lastmile_qr_scan"}, "is_reserved": 0}, {"lon": -76.99532983333333, "bike_id": "c530f46b2d323558071eb3d2bb515179", "lat": 38.883731166666664, "fusion_lon": 0.0, "fusion_lat": 0.0, "type": "electric_scooter", "name": "c530f46b2d323558071eb3d2bb515179", "is_disabled": 0, "rental_uris": {"ios": "https://dc.lft.to/lastmile_qr_scan", "android": "https://dc.lft.to/lastmile_qr_scan"}, "is_reserved": 0}, {"lon": -77.01104433333333, "bike_id": "2fede71c75d8909145930b7c4cb89f5b", "lat": 38.907932, "fusion_lon": 0.0, "fusion_lat": 0.0, "type": "electric_scooter", "name": "2fede71c75d8909145930b7c4cb89f5b", "is_disabled": 0, "rental_uris": {"ios": "https://dc.lft.to/lastmile_qr_scan", "android": "https://dc.lft.to/lastmile_qr_scan"}, "is_reserved": 0}, {"lon": -77.08070016666667, "bike_id": "132f26149cab90364e0644819f0d6c5d", "lat": 39.05282833333333, "fusion_lon": 0.0, "fusion_lat": 0.0, "type": "electric_bike", "name": "132f26149cab90364e0644819f0d6c5d", "is_disabled": 0, "rental_uris": {"ios": "https://dc.lft.to/lastmile_qr_scan", "android": "https://dc.lft.to/lastmile_qr_scan"}, "is_reserved": 0}, {"lon": -77.006835, "bike_id": "750126d8d58b6f531ed36cd64fd3025e", "lat": 38.90021566666667, "fusion_lon": 0.0, "fusion_lat": 0.0, "type": "electric_scooter", "name": "750126d8d58b6f531ed36cd64fd3025e", "is_disabled": 0, "rental_uris": {"ios": "https://dc.lft.to/lastmile_qr_scan", "android": "https://dc.lft.to/lastmile_qr_scan"}, "is_reserved": 0}, {"lon": -77.02634083333334, "bike_id": "23d31508323674918469beb63c11e9a6", "lat": 38.917085, "fusion_lon": 0.0, "fusion_lat": 0.0, "type": "electric_scooter", "name": "23d31508323674918469beb63c11e9a6", "is_disabled": 0, "rental_uris": {"ios": "https://dc.lft.to/lastmile_qr_scan", "android": "https://dc.lft.to/lastmile_qr_scan"}, "is_reserved": 0}, {"lon": -77.020522, "bike_id": "f3c0e9270190db91b4eb4fe250293256", "lat": 38.897374166666665, "fusion_lon": 0.0, "fusion_lat": 0.0, "type": "electric_scooter", "name": "f3c0e9270190db91b4eb4fe250293256", "is_disabled": 0, "rental_uris": {"ios": "https://dc.lft.to/lastmile_qr_scan", "android": "https://dc.lft.to/lastmile_qr_scan"}, "is_reserved": 0}, {"lon": -77.06510816666666, "bike_id": "15c439c75a140bf79dd95be19088ca0a", "lat": 38.904070833333336, "fusion_lon": 0.0, "fusion_lat": 0.0, "type": "electric_scooter", "name": "15c439c75a140bf79dd95be19088ca0a", "is_disabled": 0, "rental_uris": {"ios": "https://dc.lft.to/lastmile_qr_scan", "android": "https://dc.lft.to/lastmile_qr_scan"}, "is_reserved": 0}, {"lon": -77.0365245, "bike_id": "6e24ea2df8222d6ba644a30b92b5f694", "lat": 38.93630783333333, "fusion_lon": 0.0, "fusion_lat": 0.0, "type": "electric_scooter", "name": "6e24ea2df8222d6ba644a30b92b5f694", "is_disabled": 0, "rental_uris": {"ios": "https://dc.lft.to/lastmile_qr_scan", "android": "https://dc.lft.to/lastmile_qr_scan"}, "is_reserved": 0}, {"lon": -77.02512333333334, "bike_id": "b83fcaaff5665466d5d8570cc2329bc5", "lat": 38.934123166666666, "fusion_lon": 0.0, "fusion_lat": 0.0, "type": "electric_bike", "name": "b83fcaaff5665466d5d8570cc2329bc5", "is_disabled": 0, "rental_uris": {"ios": "https://dc.lft.to/lastmile_qr_scan", "android": "https://dc.lft.to/lastmile_qr_scan"}, "is_reserved": 0}, {"lon": -76.97476116666667, "bike_id": "6337a0155b565933162e7683a87839b2", "lat": 38.9035325, "fusion_lon": 0.0, "fusion_lat": 0.0, "type": "electric_scooter", "name": "6337a0155b565933162e7683a87839b2", "is_disabled": 0, "rental_uris": {"ios": "https://dc.lft.to/lastmile_qr_scan", "android": "https://dc.lft.to/lastmile_qr_scan"}, "is_reserved": 0}, {"lon": -77.03668416666666, "bike_id": "6ac1aa15ed418ee5e1476586e894336e", "lat": 38.90419283333333, "fusion_lon": 0.0, "fusion_lat": 0.0, "type": "electric_scooter", "name": "6ac1aa15ed418ee5e1476586e894336e", "is_disabled": 0, "rental_uris": {"ios": "https://dc.lft.to/lastmile_qr_scan", "android": "https://dc.lft.to/lastmile_qr_scan"}, "is_reserved": 0}, {"lon": -76.9902225, "bike_id": "05ea838936502f48112808c29d9376fb", "lat": 38.866449833333334, "fusion_lon": 0.0, "fusion_lat": 0.0, "type": "electric_scooter", "name": "05ea838936502f48112808c29d9376fb", "is_disabled": 0, "rental_uris": {"ios": "https://dc.lft.to/lastmile_qr_scan", "android": "https://dc.lft.to/lastmile_qr_scan"}, "is_reserved": 0}, {"lon": -76.990867, "bike_id": "135373f8c8f789878e34dcf288634b23", "lat": 38.86236233333333, "fusion_lon": 0.0, "fusion_lat": 0.0, "type": "electric_bike", "name": "135373f8c8f789878e34dcf288634b23", "is_disabled": 0, "rental_uris": {"ios": "https://dc.lft.to/lastmile_qr_scan", "android": "https://dc.lft.to/lastmile_qr_scan"}, "is_reserved": 0}, {"lon": -76.99172816666666, "bike_id": "45515249998f4362f72eb1eec0b9477a", "lat": 38.88988066666667, "fusion_lon": 0.0, "fusion_lat": 0.0, "type": "electric_scooter", "name": "45515249998f4362f72eb1eec0b9477a", "is_disabled": 0, "rental_uris": {"ios": "https://dc.lft.to/lastmile_qr_scan", "android": "https://dc.lft.to/lastmile_qr_scan"}, "is_reserved": 0}, {"lon": -77.03857, "bike_id": "287b21d8c1264dd10f977d145edcc95e", "lat": 38.91017733333333, "fusion_lon": 0.0, "fusion_lat": 0.0, "type": "electric_scooter", "name": "287b21d8c1264dd10f977d145edcc95e", "is_disabled": 0, "rental_uris": {"ios": "https://dc.lft.to/lastmile_qr_scan", "android": "https://dc.lft.to/lastmile_qr_scan"}, "is_reserved": 0}, {"lon": -77.03337533333334, "bike_id": "f6824ac09633c4cbfc0c36e2bc155d6a", "lat": 38.915582, "fusion_lon": 0.0, "fusion_lat": 0.0, "type": "electric_scooter", "name": "f6824ac09633c4cbfc0c36e2bc155d6a", "is_disabled": 0, "rental_uris": {"ios": "https://dc.lft.to/lastmile_qr_scan", "android": "https://dc.lft.to/lastmile_qr_scan"}, "is_reserved": 0}, {"lon": -77.04109233333334, "bike_id": "d2da57d314731f0a85c4391671522d53", "lat": 38.92451066666667, "fusion_lon": 0.0, "fusion_lat": 0.0, "type": "electric_scooter", "name": "d2da57d314731f0a85c4391671522d53", "is_disabled": 0, "rental_uris": {"ios": "https://dc.lft.to/lastmile_qr_scan", "android": "https://dc.lft.to/lastmile_qr_scan"}, "is_reserved": 0}, {"lon": -77.02445916666667, "bike_id": "c8a2bdb775c6a5b7f9c45ee9d9df5ab0", "lat": 38.9234485, "fusion_lon": 0.0, "fusion_lat": 0.0, "type": "electric_scooter", "name": "c8a2bdb775c6a5b7f9c45ee9d9df5ab0", "is_disabled": 0, "rental_uris": {"ios": "https://dc.lft.to/lastmile_qr_scan", "android": "https://dc.lft.to/lastmile_qr_scan"}, "is_reserved": 0}, {"lon": -77.03668516666667, "bike_id": "05dd95767e9ebedbe9df3c3d2b2bc2c2", "lat": 38.92242483333333, "fusion_lon": 0.0, "fusion_lat": 0.0, "type": "electric_scooter", "name": "05dd95767e9ebedbe9df3c3d2b2bc2c2", "is_disabled": 0, "rental_uris": {"ios": "https://dc.lft.to/lastmile_qr_scan", "android": "https://dc.lft.to/lastmile_qr_scan"}, "is_reserved": 0}, {"lon": -77.0346205, "bike_id": "72bcc4e7c2382f6f1b4d9302bf77f43e", "lat": 38.909634, "fusion_lon": 0.0, "fusion_lat": 0.0, "type": "electric_scooter", "name": "72bcc4e7c2382f6f1b4d9302bf77f43e", "is_disabled": 0, "rental_uris": {"ios": "https://dc.lft.to/lastmile_qr_scan", "android": "https://dc.lft.to/lastmile_qr_scan"}, "is_reserved": 0}, {"lon": -77.05061416666666, "bike_id": "4f74547bac46178104df184cf23103ae", "lat": 38.92585116666667, "fusion_lon": 0.0, "fusion_lat": 0.0, "type": "electric_scooter", "name": "4f74547bac46178104df184cf23103ae", "is_disabled": 0, "rental_uris": {"ios": "https://dc.lft.to/lastmile_qr_scan", "android": "https://dc.lft.to/lastmile_qr_scan"}, "is_reserved": 0}, {"lon": -76.98444566666667, "bike_id": "57fe2466ae8b4a5f42e4a69177c57c68", "lat": 38.914610333333336, "fusion_lon": 0.0, "fusion_lat": 0.0, "type": "electric_scooter", "name": "57fe2466ae8b4a5f42e4a69177c57c68", "is_disabled": 0, "rental_uris": {"ios": "https://dc.lft.to/lastmile_qr_scan", "android": "https://dc.lft.to/lastmile_qr_scan"}, "is_reserved": 0}, {"lon": -77.02526166666667, "bike_id": "3c78864c7d02b1d60a794c6e293480c4", "lat": 38.8805145, "fusion_lon": 0.0, "fusion_lat": 0.0, "type": "electric_scooter", "name": "3c78864c7d02b1d60a794c6e293480c4", "is_disabled": 0, "rental_uris": {"ios": "https://dc.lft.to/lastmile_qr_scan", "android": "https://dc.lft.to/lastmile_qr_scan"}, "is_reserved": 0}, {"lon": -76.98987116666666, "bike_id": "dc1cc47680cfc5e276111537d078f339", "lat": 38.9336135, "fusion_lon": 0.0, "fusion_lat": 0.0, "type": "electric_scooter", "name": "dc1cc47680cfc5e276111537d078f339", "is_disabled": 0, "rental_uris": {"ios": "https://dc.lft.to/lastmile_qr_scan", "android": "https://dc.lft.to/lastmile_qr_scan"}, "is_reserved": 0}, {"lon": -77.04272683333333, "bike_id": "ca9fd6143df5345bd07999b5c9a59da7", "lat": 38.92303166666667, "fusion_lon": 0.0, "fusion_lat": 0.0, "type": "electric_scooter", "name": "ca9fd6143df5345bd07999b5c9a59da7", "is_disabled": 0, "rental_uris": {"ios": "https://dc.lft.to/lastmile_qr_scan", "android": "https://dc.lft.to/lastmile_qr_scan"}, "is_reserved": 0}, {"lon": -77.02690766666667, "bike_id": "243a1fd6eae56f039054cbcaaf5b92a9", "lat": 38.9163745, "fusion_lon": 0.0, "fusion_lat": 0.0, "type": "electric_scooter", "name": "243a1fd6eae56f039054cbcaaf5b92a9", "is_disabled": 0, "rental_uris": {"ios": "https://dc.lft.to/lastmile_qr_scan", "android": "https://dc.lft.to/lastmile_qr_scan"}, "is_reserved": 0}, {"lon": -77.021402, "bike_id": "5e9dd30c5a03082da2e0f64182c642e1", "lat": 38.915974166666665, "fusion_lon": 0.0, "fusion_lat": 0.0, "type": "electric_scooter", "name": "5e9dd30c5a03082da2e0f64182c642e1", "is_disabled": 0, "rental_uris": {"ios": "https://dc.lft.to/lastmile_qr_scan", "android": "https://dc.lft.to/lastmile_qr_scan"}, "is_reserved": 0}, {"lon": -77.02256033333333, "bike_id": "ce7e29679e7f257b9abffe316ec9c13f", "lat": 38.92336866666667, "fusion_lon": 0.0, "fusion_lat": 0.0, "type": "electric_scooter", "name": "ce7e29679e7f257b9abffe316ec9c13f", "is_disabled": 0, "rental_uris": {"ios": "https://dc.lft.to/lastmile_qr_scan", "android": "https://dc.lft.to/lastmile_qr_scan"}, "is_reserved": 0}, {"lon": -77.03188916666667, "bike_id": "20cca6c9576257e6979796191483a869", "lat": 38.91686383333333, "fusion_lon": 0.0, "fusion_lat": 0.0, "type": "electric_scooter", "name": "20cca6c9576257e6979796191483a869", "is_disabled": 0, "rental_uris": {"ios": "https://dc.lft.to/lastmile_qr_scan", "android": "https://dc.lft.to/lastmile_qr_scan"}, "is_reserved": 0}, {"lon": -77.02031433333333, "bike_id": "20c73c06941c73ed9c4625e17d0b3f3b", "lat": 38.91655033333333, "fusion_lon": 0.0, "fusion_lat": 0.0, "type": "electric_scooter", "name": "20c73c06941c73ed9c4625e17d0b3f3b", "is_disabled": 0, "rental_uris": {"ios": "https://dc.lft.to/lastmile_qr_scan", "android": "https://dc.lft.to/lastmile_qr_scan"}, "is_reserved": 0}, {"lon": -77.1191715, "bike_id": "7f2b6a5e841c339db5470efc2526562e", "lat": 38.876359, "fusion_lon": 0.0, "fusion_lat": 0.0, "type": "electric_bike", "name": "7f2b6a5e841c339db5470efc2526562e", "is_disabled": 0, "rental_uris": {"ios": "https://dc.lft.to/lastmile_qr_scan", "android": "https://dc.lft.to/lastmile_qr_scan"},