{"data": {"bikes": [{"rental_uris": {"ios": "https://dc.lft.to/lastmile_qr_scan", "android": "https://dc.lft.to/lastmile_qr_scan"}, "lon": -77.0119085, "type": "electric_scooter", "fusion_lat": 0.0, "lat": 38.9154885, "name": "275b036f2317b0cce3e56dc8e3ede531", "fusion_lon": 0.0, "bike_id": "275b036f2317b0cce3e56dc8e3ede531", "is_disabled": 0, "is_reserved": 0}, {"rental_uris": {"ios": "https://dc.lft.to/lastmile_qr_scan", "android": "https://dc.lft.to/lastmile_qr_scan"}, "lon": -76.94665366666666, "type": "electric_scooter", "fusion_lat": 0.0, "lat": 38.898703, "name": "4f344b50282bdea52fc29a24123f69d5", "fusion_lon": 0.0, "bike_id": "4f344b50282bdea52fc29a24123f69d5", "is_disabled": 0, "is_reserved": 0}, {"rental_uris": {"ios": "https://dc.lft.to/lastmile_qr_scan", "android": "https://dc.lft.to/lastmile_qr_scan"}, "lon": -77.00070716666667, "type": "electric_scooter", "fusion_lat": 0.0, "lat": 38.925506, "name": "fac6f14adf5b84da8561cfbe9baae031", "fusion_lon": 0.0, "bike_id": "fac6f14adf5b84da8561cfbe9baae031", "is_disabled": 0, "is_reserved": 0}, {"rental_uris": {"ios": "https://dc.lft.to/lastmile_qr_scan", "android": "https://dc.lft.to/lastmile_qr_scan"}, "lon": -76.99821983333334, "type": "electric_bike", "fusion_lat": 0.0, "lat": 38.84460283333333, "name": "4503c4da1205a8ce779f938d94d0544e", "fusion_lon": 0.0, "bike_id": "4503c4da1205a8ce779f938d94d0544e", "is_disabled": 0, "is_reserved": 0}, {"rental_uris": {"ios": "https://dc.lft.to/lastmile_qr_scan", "android": "https://dc.lft.to/lastmile_qr_scan"}, "lon": -77.04810666666667, "type": "electric_scooter", "fusion_lat": 0.0, "lat": 38.9203465, "name": "d702934366a7b108c6a279f418176beb", "fusion_lon": 0.0, "bike_id": "d702934366a7b108c6a279f418176beb", "is_disabled": 0, "is_reserved": 0}, {"rental_uris": {"ios": "https://dc.lft.to/lastmile_qr_scan", "android": "https://dc.lft.to/lastmile_qr_scan"}, "lon": -76.98706933333334, "type": "electric_scooter", "fusion_lat": 0.0, "lat": 38.90153083333333, "name": "14dbfaea99b24b6b34681597333f4ebd", "fusion_lon": 0.0, "bike_id": "14dbfaea99b24b6b34681597333f4ebd", "is_disabled": 0, "is_reserved": 0}, {"rental_uris": {"ios": "https://dc.lft.to/lastmile_qr_scan", "android": "https://dc.lft.to/lastmile_qr_scan"}, "lon": -77.021811, "type": "electric_scooter", "fusion_lat": 0.0, "lat": 38.892505666666665, "name": "cd94e89abf6ddc6c722eb0a9f28196be", "fusion_lon": 0.0, "bike_id": "cd94e89abf6ddc6c722eb0a9f28196be", "is_disabled": 0, "is_reserved": 0}, {"rental_uris": {"ios": "https://dc.lft.to/lastmile_qr_scan", "android": "https://dc.lft.to/lastmile_qr_scan"}, "lon": -77.03861, "type": "electric_scooter", "fusion_lat": 0.0, "lat": 38.915522333333335, "name": "0c41e93c5eb3445c19948ed78807e948", "fusion_lon": 0.0, "bike_id": "0c41e93c5eb3445c19948ed78807e948", "is_disabled": 0, "is_reserved": 0}, {"rental_uris": {"ios": "https://dc.lft.to/lastmile_qr_scan", "android": "https://dc.lft.to/lastmile_qr_scan"}, "lon": -77.04510216666667, "type": "electric_scooter", "fusion_lat": 0.0, "lat": 38.907835166666665, "name": "6b1d3306dbc253f9992a68b094075310", "fusion_lon": 0.0, "bike_id": "6b1d3306dbc253f9992a68b094075310", "is_disabled": 0, "is_reserved": 0}, {"rental_uris": {"ios": "https://dc.lft.to/lastmile_qr_scan", "android": "https://dc.lft.to/lastmile_qr_scan"}, "lon": -77.036992, "type": "electric_scooter", "fusion_lat": 0.0, "lat": 38.93523583333333, "name": "0962b36d1a75105d2e410ec29ba0b4a7", "fusion_lon": 0.0, "bike_id": "0962b36d1a75105d2e410ec29ba0b4a7", "is_disabled": 0, "is_reserved": 0}, {"rental_uris": {"ios": "https://dc.lft.to/lastmile_qr_scan", "android": "https://dc.lft.to/lastmile_qr_scan"}, "lon": -76.93195266666666, "type": "electric_scooter", "fusion_lat": 0.0, "lat": 38.88996616666667, "name": "be3fcb86854ccf74485aac071034a91c", "fusion_lon": 0.0, "bike_id": "be3fcb86854ccf74485aac071034a91c", "is_disabled": 0, "is_reserved": 0}, {"rental_uris": {"ios": "https://dc.lft.to/lastmile_qr_scan", "android": "https://dc.lft.to/lastmile_qr_scan"}, "lon": -76.97348333333333, "type": "electric_scooter", "fusion_lat": 0.0, "lat": 38.86511083333333, "name": "d6da54f25730875f19daa8a87881c8f4", "fusion_lon": 0.0, "bike_id": "d6da54f25730875f19daa8a87881c8f4", "is_disabled": 0, "is_reserved": 0}, {"rental_uris": {"ios": "https://dc.lft.to/lastmile_qr_scan", "android": "https://dc.lft.to/lastmile_qr_scan"}, "lon": -77.01821983333333, "type": "electric_scooter", "fusion_lat": 0.0, "lat": 38.904522166666666, "name": "e7537bce3c46542c79d8104a3077f598", "fusion_lon": 0.0, "bike_id": "e7537bce3c46542c79d8104a3077f598", "is_disabled": 0, "is_reserved": 0}, {"rental_uris": {"ios": "https://dc.lft.to/lastmile_qr_scan", "android": "https://dc.lft.to/lastmile_qr_scan"}, "lon": -77.0298635, "type": "electric_scooter", "fusion_lat": 0.0, "lat": 38.924736833333334, "name": "8a9653d3b01dfa5e9bed248d3fc7481a", "fusion_lon": 0.0, "bike_id": "8a9653d3b01dfa5e9bed248d3fc7481a", "is_disabled": 0, "is_reserved": 0}, {"rental_uris": {"ios": "https://dc.lft.to/lastmile_qr_scan", "android": "https://dc.lft.to/lastmile_qr_scan"}, "lon": -77.0150015, "type": "electric_scooter", "fusion_lat": 0.0, "lat": 38.90145783333333, "name": "49bf216ce149dfcb9793ce3ff4143f57", "fusion_lon": 0.0, "bike_id": "49bf216ce149dfcb9793ce3ff4143f57", "is_disabled": 0, "is_reserved": 0}, {"rental_uris": {"ios": "https://dc.lft.to/lastmile_qr_scan", "android": "https://dc.lft.to/lastmile_qr_scan"}, "lon": -77.00585516666666, "type": "electric_scooter", "fusion_lat": 0.0, "lat": 38.90626566666667, "name": "d921a41e189e19003d92ba235e1a3ab9", "fusion_lon": 0.0, "bike_id": "d921a41e189e19003d92ba235e1a3ab9", "is_disabled": 0, "is_reserved": 0}, {"rental_uris": {"ios": "https://dc.lft.to/lastmile_qr_scan", "android": "https://dc.lft.to/lastmile_qr_scan"}, "lon": -77.00879166666667, "type": "electric_scooter", "fusion_lat": 0.0, "lat": 38.905810333333335, "name": "5bd617f70df9b3ba13ed6078614684ee", "fusion_lon": 0.0, "bike_id": "5bd617f70df9b3ba13ed6078614684ee", "is_disabled": 0, "is_reserved": 0}, {"rental_uris": {"ios": "https://dc.lft.to/lastmile_qr_scan", "android": "https://dc.lft.to/lastmile_qr_scan"}, "lon": -77.03657066666666, "type": "electric_scooter", "fusion_lat": 0.0, "lat": 38.9229995, "name": "0be615dc13805b958ae9a1e31d4bfa1b", "fusion_lon": 0.0, "bike_id": "0be615dc13805b958ae9a1e31d4bfa1b", "is_disabled": 0, "is_reserved": 0}, {"rental_uris": {"ios": "https://dc.lft.to/lastmile_qr_scan", "android": "https://dc.lft.to/lastmile_qr_scan"}, "lon": -77.1143165, "type": "electric_bike", "fusion_lat": 0.0, "lat": 38.852453, "name": "a467de32e210366d873a80e176f086e2", "fusion_lon": 0.0, "bike_id": "a467de32e210366d873a80e176f086e2", "is_disabled": 0, "is_reserved": 0}, {"rental_uris": {"ios": "https://dc.lft.to/lastmile_qr_scan", "android": "https://dc.lft.to/lastmile_qr_scan"}, "lon": -76.96766216666667, "type": "electric_scooter", "fusion_lat": 0.0, "lat": 38.861444666666664, "name": "67e8eba3c7e77c66b2977aa45599ffa8", "fusion_lon": 0.0, "bike_id": "67e8eba3c7e77c66b2977aa45599ffa8", "is_disabled": 0, "is_reserved": 0}, {"rental_uris": {"ios": "https://dc.lft.to/lastmile_qr_scan", "android": "https://dc.lft.to/lastmile_qr_scan"}, "lon": -76.983705, "type": "electric_scooter", "fusion_lat": 0.0, "lat": 38.86483366666667, "name": "37b1fb31b0ec0fe514f12d585119d1de", "fusion_lon": 0.0, "bike_id": "37b1fb31b0ec0fe514f12d585119d1de", "is_disabled": 0, "is_reserved": 0}, {"rental_uris": {"ios": "https://dc.lft.to/lastmile_qr_scan", "android": "https://dc.lft.to/lastmile_qr_scan"}, "lon": -77.03222416666667, "type": "electric_scooter", "fusion_lat": 0.0, "lat": 38.892297, "name": "0716bb4b6a787bf8c6af08f4f97c1407", "fusion_lon": 0.0, "bike_id": "0716bb4b6a787bf8c6af08f4f97c1407", "is_disabled": 0, "is_reserved": 0}, {"rental_uris": {"ios": "https://dc.lft.to/lastmile_qr_scan", "android": "https://dc.lft.to/lastmile_qr_scan"}, "lon": -76.9836815, "type": "electric_scooter", "fusion_lat": 0.0, "lat": 38.915506666666666, "name": "c8fec043c5b23ad109643d71203b12ba", "fusion_lon": 0.0, "bike_id": "c8fec043c5b23ad109643d71203b12ba", "is_disabled": 0, "is_reserved": 0}, {"rental_uris": {"ios": "https://dc.lft.to/lastmile_qr_scan", "android": "https://dc.lft.to/lastmile_qr_scan"}, "lon": -77.03901433333333, "type": "electric_scooter", "fusion_lat": 0.0, "lat": 38.92189883333333, "name": "859beabdb28f66332d9ed31bdcd3175c", "fusion_lon": 0.0, "bike_id": "859beabdb28f66332d9ed31bdcd3175c", "is_disabled": 0, "is_reserved": 0}, {"rental_uris": {"ios": "https://dc.lft.to/lastmile_qr_scan", "android": "https://dc.lft.to/lastmile_qr_scan"}, "lon": -76.98413383333333, "type": "electric_scooter", "fusion_lat": 0.0, "lat": 38.913834666666666, "name": "e17dacfd4edc9927a63ae77a8d3eeb22", "fusion_lon": 0.0, "bike_id": "e17dacfd4edc9927a63ae77a8d3eeb22", "is_disabled": 0, "is_reserved": 0}, {"rental_uris": {"ios": "https://dc.lft.to/lastmile_qr_scan", "android": "https://dc.lft.to/lastmile_qr_scan"}, "lon": -77.0173835, "type": "electric_scooter", "fusion_lat": 0.0, "lat": 38.87730233333333, "name": "87b76e511132af687e2e7931336eee43", "fusion_lon": 0.0, "bike_id": "87b76e511132af687e2e7931336eee43", "is_disabled": 0, "is_reserved": 0}, {"rental_uris": {"ios": "https://dc.lft.to/lastmile_qr_scan", "android": "https://dc.lft.to/lastmile_qr_scan"}, "lon": -77.03280316666667, "type": "electric_scooter", "fusion_lat": 0.0, "lat": 38.91927183333333, "name": "ca1b135ea8eea1628d11c271abd84cf2", "fusion_lon": 0.0, "bike_id": "ca1b135ea8eea1628d11c271abd84cf2", "is_disabled": 0, "is_reserved": 0}, {"rental_uris": {"ios": "https://dc.lft.to/lastmile_qr_scan", "android": "https://dc.lft.to/lastmile_qr_scan"}, "lon": -77.0511945, "type": "electric_scooter", "fusion_lat": 0.0, "lat": 38.9236255, "name": "dc192be2a4413b9150fb5f79306dd3cb", "fusion_lon": 0.0, "bike_id": "dc192be2a4413b9150fb5f79306dd3cb", "is_disabled": 0, "is_reserved": 0}, {"rental_uris": {"ios": "https://dc.lft.to/lastmile_qr_scan", "android": "https://dc.lft.to/lastmile_qr_scan"}, "lon": -77.07816133333333, "type": "electric_scooter", "fusion_lat": 0.0, "lat": 38.926243, "name": "25ec1c70ac5fd1508af26bcadd847fd4", "fusion_lon": 0.0, "bike_id": "25ec1c70ac5fd1508af26bcadd847fd4", "is_disabled": 0, "is_reserved": 0}, {"rental_uris": {"ios": "https://dc.lft.to/lastmile_qr_scan", "android": "https://dc.lft.to/lastmile_qr_scan"}, "lon": -77.03074216666667, "type": "electric_scooter", "fusion_lat": 0.0, "lat": 38.89969133333334, "name": "bd45ed200a43dbd90278868f331b83ab", "fusion_lon": 0.0, "bike_id": "bd45ed200a43dbd90278868f331b83ab", "is_disabled": 0, "is_reserved": 0}, {"rental_uris": {"ios": "https://dc.lft.to/lastmile_qr_scan", "android": "https://dc.lft.to/lastmile_qr_scan"}, "lon": -77.02194366666667, "type": "electric_scooter", "fusion_lat": 0.0, "lat": 38.908442, "name": "0c6973b5da1b1189830578a9d83e9b9f", "fusion_lon": 0.0, "bike_id": "0c6973b5da1b1189830578a9d83e9b9f", "is_disabled": 0, "is_reserved": 0}, {"rental_uris": {"ios": "https://dc.lft.to/lastmile_qr_scan", "android": "https://dc.lft.to/lastmile_qr_scan"}, "lon": -77.02217533333334, "type": "electric_scooter", "fusion_lat": 0.0, "lat": 38.88768816666666, "name": "7c29a1500c47b7d972c20d672dd68cf8", "fusion_lon": 0.0, "bike_id": "7c29a1500c47b7d972c20d672dd68cf8", "is_disabled": 0, "is_reserved": 0}, {"rental_uris": {"ios": "https://dc.lft.to/lastmile_qr_scan", "android": "https://dc.lft.to/lastmile_qr_scan"}, "lon": -77.03178766666667, "type": "electric_scooter", "fusion_lat": 0.0, "lat": 38.91654416666667, "name": "76b0d02256723ba4107af86bae3b9937", "fusion_lon": 0.0, "bike_id": "76b0d02256723ba4107af86bae3b9937", "is_disabled": 0, "is_reserved": 0}, {"rental_uris": {"ios": "https://dc.lft.to/lastmile_qr_scan", "android": "https://dc.lft.to/lastmile_qr_scan"}, "lon": -77.019585, "type": "electric_scooter", "fusion_lat": 0.0, "lat": 38.90424183333333, "name": "72105aa8765596cab02d2c617bf9f152", "fusion_lon": 0.0, "bike_id": "72105aa8765596cab02d2c617bf9f152", "is_disabled": 0, "is_reserved": 0}, {"rental_uris": {"ios": "https://dc.lft.to/lastmile_qr_scan", "android": "https://dc.lft.to/lastmile_qr_scan"}, "lon": -77.024039, "type": "electric_scooter", "fusion_lat": 0.0, "lat": 38.915963833333336, "name": "a9704903822334c1129331c5aec7bced", "fusion_lon": 0.0, "bike_id": "a9704903822334c1129331c5aec7bced", "is_disabled": 0, "is_reserved": 0}, {"rental_uris": {"ios": "https://dc.lft.to/lastmile_qr_scan", "android": "https://dc.lft.to/lastmile_qr_scan"}, "lon": -76.97593283333333, "type": "electric_scooter", "fusion_lat": 0.0, "lat": 38.90329833333333, "name": "d785f7b11114f5878ba59232d18beafb", "fusion_lon": 0.0, "bike_id": "d785f7b11114f5878ba59232d18beafb", "is_disabled": 0, "is_reserved": 0}, {"rental_uris": {"ios": "https://dc.lft.to/lastmile_qr_scan", "android": "https://dc.lft.to/lastmile_qr_scan"}, "lon": -77.05143933333333, "type": "electric_scooter", "fusion_lat": 0.0, "lat": 38.89913283333333, "name": "24e22aaeb79ee2ffe12a8bc531801736", "fusion_lon": 0.0, "bike_id": "24e22aaeb79ee2ffe12a8bc531801736", "is_disabled": 0, "is_reserved": 0}, {"rental_uris": {"ios": "https://dc.lft.to/lastmile_qr_scan", "android": "https://dc.lft.to/lastmile_qr_scan"}, "lon": -76.94623616666667, "type": "electric_bike", "fusion_lat": 0.0, "lat": 38.8323455, "name": "801957b13fa7a5133214a5437de765ab", "fusion_lon": 0.0, "bike_id": "801957b13fa7a5133214a5437de765ab", "is_disabled": 0, "is_reserved": 0}, {"rental_uris": {"ios": "https://dc.lft.to/lastmile_qr_scan", "android": "https://dc.lft.to/lastmile_qr_scan"}, "lon": -77.00337816666666, "type": "electric_scooter", "fusion_lat": 0.0, "lat": 38.89359816666666, "name": "97018d52f5b6ed5778f63350fbf1b972", "fusion_lon": 0.0, "bike_id": "97018d52f5b6ed5778f63350fbf1b972", "is_disabled": 0, "is_reserved": 0}, {"rental_uris": {"ios": "https://dc.lft.to/lastmile_qr_scan", "android": "https://dc.lft.to/lastmile_qr_scan"}, "lon": -77.04371183333333, "type": "electric_scooter", "fusion_lat": 0.0, "lat": 38.93334, "name": "c7b29b22871fd6f63e65357303996ab9", "fusion_lon": 0.0, "bike_id": "c7b29b22871fd6f63e65357303996ab9", "is_disabled": 0, "is_reserved": 0}, {"rental_uris": {"ios": "https://dc.lft.to/lastmile_qr_scan", "android": "https://dc.lft.to/lastmile_qr_scan"}, "lon": -77.0418345, "type": "electric_scooter", "fusion_lat": 0.0, "lat": 38.9119735, "name": "b7debc1515762009a6be16fa05aa67d2", "fusion_lon": 0.0, "bike_id": "b7debc1515762009a6be16fa05aa67d2", "is_disabled": 0, "is_reserved": 0}, {"rental_uris": {"ios": "https://dc.lft.to/lastmile_qr_scan", "android": "https://dc.lft.to/lastmile_qr_scan"}, "lon": -77.0416455, "type": "electric_scooter", "fusion_lat": 0.0, "lat": 38.9025725, "name": "5423636f8c9e1dcbc8137259548bf625", "fusion_lon": 0.0, "bike_id": "5423636f8c9e1dcbc8137259548bf625", "is_disabled": 0, "is_reserved": 0}, {"rental_uris": {"ios": "https://dc.lft.to/lastmile_qr_scan", "android": "https://dc.lft.to/lastmile_qr_scan"}, "lon": -77.02600016666666, "type": "electric_scooter", "fusion_lat": 0.0, "lat": 38.88744583333333, "name": "60353e0346a273781a7eb21a0f073098", "fusion_lon": 0.0, "bike_id": "60353e0346a273781a7eb21a0f073098", "is_disabled": 0, "is_reserved": 0}, {"rental_uris": {"ios": "https://dc.lft.to/lastmile_qr_scan", "android": "https://dc.lft.to/lastmile_qr_scan"}, "lon": -77.002313, "type": "electric_bike", "fusion_lat": 0.0, "lat": 38.908773833333335, "name": "2ec02487b7e2623f5543ea0a5d27b192", "fusion_lon": 0.0, "bike_id": "2ec02487b7e2623f5543ea0a5d27b192", "is_disabled": 0, "is_reserved": 0}, {"rental_uris": {"ios": "https://dc.lft.to/lastmile_qr_scan", "android": "https://dc.lft.to/lastmile_qr_scan"}, "lon": -77.020973, "type": "electric_scooter", "fusion_lat": 0.0, "lat": 38.88506116666667, "name": "85e88bf86861b03b8c894ab706861e51", "fusion_lon": 0.0, "bike_id": "85e88bf86861b03b8c894ab706861e51", "is_disabled": 0, "is_reserved": 0}, {"rental_uris": {"ios": "https://dc.lft.to/lastmile_qr_scan", "android": "https://dc.lft.to/lastmile_qr_scan"}, "lon": -77.04332016666666, "type": "electric_scooter", "fusion_lat": 0.0, "lat": 38.90360183333333, "name": "f3b5157c50e76daba5109b63aaaae788", "fusion_lon": 0.0, "bike_id": "f3b5157c50e76daba5109b63aaaae788", "is_disabled": 0, "is_reserved": 0}, {"rental_uris": {"ios": "https://dc.lft.to/lastmile_qr_scan", "android": "https://dc.lft.to/lastmile_qr_scan"}, "lon": -77.0325545, "type": "electric_scooter", "fusion_lat": 0.0, "lat": 38.929079, "name": "98d4f933dbf52f28ea63837ceb1a2c0d", "fusion_lon": 0.0, "bike_id": "98d4f933dbf52f28ea63837ceb1a2c0d", "is_disabled": 0, "is_reserved": 0}, {"rental_uris": {"ios": "https://dc.lft.to/lastmile_qr_scan", "android": "https://dc.lft.to/lastmile_qr_scan"}, "lon": -77.02027233333334, "type": "electric_scooter", "fusion_lat": 0.0, "lat": 38.89762483333333, "name": "1f63d11155fb8bacb8b4ca5629d9b1ab", "fusion_lon": 0.0, "bike_id": "1f63d11155fb8bacb8b4ca5629d9b1ab", "is_disabled": 0, "is_reserved": 0}, {"rental_uris": {"ios": "https://dc.lft.to/lastmile_qr_scan", "android": "https://dc.lft.to/lastmile_qr_scan"}, "lon": -77.1262645, "type": "electric_bike", "fusion_lat": 0.0, "lat": 39.05812866666667, "name": "a953a5708dd52ae617f0dc9c0240c4be", "fusion_lon": 0.0, "bike_id": "a953a5708dd52ae617f0dc9c0240c4be", "is_disabled": 0, "is_reserved": 0}, {"rental_uris": {"ios": "https://dc.lft.to/lastmile_qr_scan", "android": "https://dc.lft.to/lastmile_qr_scan"}, "lon": -76.97830916666666, "type": "electric_bike", "fusion_lat": 0.0, "lat": 38.84612116666667, "name": "c91e0d621445aecc2fae673413bddcf4", "fusion_lon": 0.0, "bike_id": "c91e0d621445aecc2fae673413bddcf4", "is_disabled": 0, "is_reserved": 0}, {"rental_uris": {"ios": "https://dc.lft.to/lastmile_qr_scan", "android": "https://dc.lft.to/lastmile_qr_scan"}, "lon": -77.04862483333334, "type": "electric_scooter", "fusion_lat": 0.0, "lat": 38.90576816666667, "name": "2a8361f180ae36e2093b79b1d65ca95b", "fusion_lon": 0.0, "bike_id": "2a8361f180ae36e2093b79b1d65ca95b", "is_disabled": 0, "is_reserved": 0}, {"rental_uris": {"ios": "https://dc.lft.to/lastmile_qr_scan", "android": "https://dc.lft.to/lastmile_qr_scan"}, "lon": -77.03211783333333, "type": "electric_scooter", "fusion_lat": 0.0, "lat": 38.89218666666667, "name": "270f98fa9fd92913bafda18baaf461d6", "fusion_lon": 0.0, "bike_id": "270f98fa9fd92913bafda18baaf461d6", "is_disabled": 0, "is_reserved": 0}, {"rental_uris": {"ios": "https://dc.lft.to/lastmile_qr_scan", "android": "https://dc.lft.to/lastmile_qr_scan"}, "lon": -77.0332265, "type": "electric_scooter", "fusion_lat": 0.0, "lat": 38.89897, "name": "89ab493745fea6ed37cb7ef0f889373c", "fusion_lon": 0.0, "bike_id": "89ab493745fea6ed37cb7ef0f889373c", "is_disabled": 0, "is_reserved": 0}, {"rental_uris": {"ios": "https://dc.lft.to/lastmile_qr_scan", "android": "https://dc.lft.to/lastmile_qr_scan"}, "lon": -76.98398483333334, "type": "electric_bike", "fusion_lat": 0.0, "lat": 38.9220615, "name": "fdaa02979878dcd76e96da3c9910e0ea", "fusion_lon": 0.0, "bike_id": "fdaa02979878dcd76e96da3c9910e0ea", "is_disabled": 0, "is_reserved": 0}, {"rental_uris": {"ios": "https://dc.lft.to/lastmile_qr_scan", "android": "https://dc.lft.to/lastmile_qr_scan"}, "lon": -77.02050883333334, "type": "electric_scooter", "fusion_lat": 0.0, "lat": 38.91558283333333, "name": "bd3ac7a8f3b7d8f8d312d26057a2a090", "fusion_lon": 0.0, "bike_id": "bd3ac7a8f3b7d8f8d312d26057a2a090", "is_disabled": 0, "is_reserved": 0}, {"rental_uris": {"ios": "https://dc.lft.to/lastmile_qr_scan", "android": "https://dc.lft.to/lastmile_qr_scan"}, "lon": -77.02963266666667, "type": "electric_scooter", "fusion_lat": 0.0, "lat": 38.892162, "name": "a8cedf3cbf2a6d3632446f50fa162e01", "fusion_lon": 0.0, "bike_id": "a8cedf3cbf2a6d3632446f50fa162e01", "is_disabled": 0, "is_reserved": 0}, {"rental_uris": {"ios": "https://dc.lft.to/lastmile_qr_scan", "android": "https://dc.lft.to/lastmile_qr_scan"}, "lon": -77.03419416666667, "type": "electric_scooter", "fusion_lat": 0.0, "lat": 38.935441, "name": "001a6cced0ddeee5eac2c3d21c62b86a", "fusion_lon": 0.0, "bike_id": "001a6cced0ddeee5eac2c3d21c62b86a", "is_disabled": 0, "is_reserved": 0}, {"rental_uris": {"ios": "https://dc.lft.to/lastmile_qr_scan", "android": "https://dc.lft.to/lastmile_qr_scan"}, "lon": -77.07165333333333, "type": "electric_scooter", "fusion_lat": 0.0, "lat": 38.907762, "name": "58f304f3257b9a3098f891e66265adce", "fusion_lon": 0.0, "bike_id": "58f304f3257b9a3098f891e66265adce", "is_disabled": 0, "is_reserved": 0}, {"rental_uris": {"ios": "https://dc.lft.to/lastmile_qr_scan", "android": "https://dc.lft.to/lastmile_qr_scan"}, "lon": -77.03131683333334, "type": "electric_scooter", "fusion_lat": 0.0, "lat": 38.91032716666667, "name": "05f55dad08b430e94b0306d430d4e39f", "fusion_lon": 0.0, "bike_id": "05f55dad08b430e94b0306d430d4e39f", "is_disabled": 0, "is_reserved": 0}, {"rental_uris": {"ios": "https://dc.lft.to/lastmile_qr_scan", "android": "https://dc.lft.to/lastmile_qr_scan"}, "lon": -76.97948216666667, "type": "electric_scooter", "fusion_lat": 0.0, "lat": 38.90242716666667, "name": "11a245af5a7f60ac8a4fe54377c3e8fc", "fusion_lon": 0.0, "bike_id": "11a245af5a7f60ac8a4fe54377c3e8fc", "is_disabled": 0, "is_reserved": 0}, {"rental_uris": {"ios": "https://dc.lft.to/lastmile_qr_scan", "android": "https://dc.lft.to/lastmile_qr_scan"}, "lon": -77.02936166666667, "type": "electric_scooter", "fusion_lat": 0.0, "lat": 38.911115, "name": "763f47f3f6243697d401b25f25009632", "fusion_lon": 0.0, "bike_id": "763f47f3f6243697d401b25f25009632", "is_disabled": 0, "is_reserved": 0}, {"rental_uris": {"ios": "https://dc.lft.to/lastmile_qr_scan", "android": "https://dc.lft.to/lastmile_qr_scan"}, "lon": -77.027835, "type": "electric_scooter", "fusion_lat": 0.0, "lat": 38.92370366666667, "name": "d211802c38a0807fe25a4e2fa159a6e6", "fusion_lon": 0.0, "bike_id": "d211802c38a0807fe25a4e2fa159a6e6", "is_disabled": 0, "is_reserved": 0}, {"rental_uris": {"ios": "https://dc.lft.to/lastmile_qr_scan", "android": "https://dc.lft.to/lastmile_qr_scan"}, "lon": -77.00336433333334, "type": "electric_scooter", "fusion_lat": 0.0, "lat": 38.893606, "name": "c81cd3ff463525a5549117146469a411", "fusion_lon": 0.0, "bike_id": "c81cd3ff463525a5549117146469a411", "is_disabled": 0, "is_reserved": 0}, {"rental_uris": {"ios": "https://dc.lft.to/lastmile_qr_scan", "android": "https://dc.lft.to/lastmile_qr_scan"}, "lon": -77.03530633333334, "type": "electric_scooter", "fusion_lat": 0.0, "lat": 38.92338633333333, "name": "c6ffbf58a946e83508268769be561402", "fusion_lon": 0.0, "bike_id": "c6ffbf58a946e83508268769be561402", "is_disabled": 0, "is_reserved": 0}, {"rental_uris": {"ios": "https://dc.lft.to/lastmile_qr_scan", "android": "https://dc.lft.to/lastmile_qr_scan"}, "lon": -77.02494916666667, "type": "electric_scooter", "fusion_lat": 0.0, "lat": 38.90574016666667, "name": "d45bfd7e79a810812f2f139e3806d3ed", "fusion_lon": 0.0, "bike_id": "d45bfd7e79a810812f2f139e3806d3ed", "is_disabled": 0, "is_reserved": 0}, {"rental_uris": {"ios": "https://dc.lft.to/lastmile_qr_scan", "android": "https://dc.lft.to/lastmile_qr_scan"}, "lon": -76.98560066666667, "type": "electric_scooter", "fusion_lat": 0.0, "lat": 38.899575166666665, "name": "96ab163744af049b5a870040098467fd", "fusion_lon": 0.0, "bike_id": "96ab163744af049b5a870040098467fd", "is_disabled": 0, "is_reserved": 0}, {"rental_uris": {"ios": "https://dc.lft.to/lastmile_qr_scan", "android": "https://dc.lft.to/lastmile_qr_scan"}, "lon": -77.02073833333333, "type": "electric_scooter", "fusion_lat": 0.0, "lat": 38.89975666666667, "name": "466f7c30834c2a7c6550e49a56a7abe9", "fusion_lon": 0.0, "bike_id": "466f7c30834c2a7c6550e49a56a7abe9", "is_disabled": 0, "is_reserved": 0}, {"rental_uris": {"ios": "https://dc.lft.to/lastmile_qr_scan", "android": "https://dc.lft.to/lastmile_qr_scan"}, "lon": -76.9888595, "type": "electric_scooter", "fusion_lat": 0.0, "lat": 38.8666025, "name": "1fc507ac27376b79a6ae9b86d67eaf5b", "fusion_lon": 0.0, "bike_id": "1fc507ac27376b79a6ae9b86d67eaf5b", "is_disabled": 0, "is_reserved": 0}, {"rental_uris": {"ios": "https://dc.lft.to/lastmile_qr_scan", "android": "https://dc.lft.to/lastmile_qr_scan"}, "lon": -77.02659616666666, "type": "electric_scooter", "fusion_lat": 0.0, "lat": 38.900225166666665, "name": "0b44a0102025a1365cf063d39914dd24", "fusion_lon": 0.0, "bike_id": "0b44a0102025a1365cf063d39914dd24", "is_disabled": 0, "is_reserved": 0}, {"rental_uris": {"ios": "https://dc.lft.to/lastmile_qr_scan", "android": "https://dc.lft.to/lastmile_qr_scan"}, "lon": -77.04592933333333, "type": "electric_scooter", "fusion_lat": 0.0, "lat": 38.92129583333333, "name": "15afa7fbe428e15fa4e74852fbd1f4b8", "fusion_lon": 0.0, "bike_id": "15afa7fbe428e15fa4e74852fbd1f4b8", "is_disabled": 0, "is_reserved": 0}, {"rental_uris": {"ios": "https://dc.lft.to/lastmile_qr_scan", "android": "https://dc.lft.to/lastmile_qr_scan"}, "lon": -77.020926, "type": "electric_scooter", "fusion_lat": 0.0, "lat": 38.93123466666667, "name": "082dc66ef612ecf59a09ec193d298479", "fusion_lon": 0.0, "bike_id": "082dc66ef612ecf59a09ec193d298479", "is_disabled": 0, "is_reserved": 0}, {"rental_uris": {"ios": "https://dc.lft.to/lastmile_qr_scan", "android": "https://dc.lft.to/lastmile_qr_scan"}, "lon": -76.9794965, "type": "electric_scooter", "fusion_lat": 0.0, "lat": 38.866151333333335, "name": "0ae84793744bd49e3219b2abafb86f32", "fusion_lon": 0.0, "bike_id": "0ae84793744bd49e3219b2abafb86f32", "is_disabled": 0, "is_reserved": 0}, {"rental_uris": {"ios": "https://dc.lft.to/lastmile_qr_scan", "android": "https://dc.lft.to/lastmile_qr_scan"}, "lon": -77.0357135, "type": "electric_scooter", "fusion_lat": 0.0, "lat": 38.907639, "name": "8ceee26bcad4de7efc356df52c55a9c7", "fusion_lon": 0.0, "bike_id": "8ceee26bcad4de7efc356df52c55a9c7", "is_disabled": 0, "is_reserved": 0}, {"rental_uris": {"ios": "https://dc.lft.to/lastmile_qr_scan", "android": "https://dc.lft.to/lastmile_qr_scan"}, "lon": -76.9535605, "type": "electric_bike", "fusion_lat": 0.0, "lat": 38.939525, "name": "62654432b9529b1a762f52e6ee009767", "fusion_lon": 0.0, "bike_id": "62654432b9529b1a762f52e6ee009767", "is_disabled": 0, "is_reserved": 0}, {"rental_uris": {"ios": "https://dc.lft.to/lastmile_qr_scan", "android": "https://dc.lft.to/lastmile_qr_scan"}, "lon": -77.001836, "type": "electric_scooter", "fusion_lat": 0.0, "lat": 38.90018633333333, "name": "f521e170663a131b8aa0d2668adb92f5", "fusion_lon": 0.0, "bike_id": "f521e170663a131b8aa0d2668adb92f5", "is_disabled": 0, "is_reserved": 0}, {"rental_uris": {"ios": "https://dc.lft.to/lastmile_qr_scan", "android": "https://dc.lft.to/lastmile_qr_scan"}, "lon": -77.03259566666667, "type": "electric_scooter", "fusion_lat": 0.0, "lat": 38.92741433333333, "name": "8cdd74ed1de753888377567536928713", "fusion_lon": 0.0, "bike_id": "8cdd74ed1de753888377567536928713", "is_disabled": 0, "is_reserved": 0}, {"rental_uris": {"ios": "https://dc.lft.to/lastmile_qr_scan", "android": "https://dc.lft.to/lastmile_qr_scan"}, "lon": -77.04419833333333, "type": "electric_scooter", "fusion_lat": 0.0, "lat": 38.92234533333333, "name": "ff9aed84ed3b241591150a6866f56b23", "fusion_lon": 0.0, "bike_id": "ff9aed84ed3b241591150a6866f56b23", "is_disabled": 0, "is_reserved": 0}, {"rental_uris": {"ios": "https://dc.lft.to/lastmile_qr_scan", "android": "https://dc.lft.to/lastmile_qr_scan"}, "lon": -76.98902083333333, "type": "electric_scooter", "fusion_lat": 0.0, "lat": 38.86692883333333, "name": "a27fc04a923ff2474003bc5181d101f7", "fusion_lon": 0.0, "bike_id": "a27fc04a923ff2474003bc5181d101f7", "is_disabled": 0, "is_reserved": 0}, {"rental_uris": {"ios": "https://dc.lft.to/lastmile_qr_scan", "android": "https://dc.lft.to/lastmile_qr_scan"}, "lon": -77.04307766666666, "type": "electric_bike", "fusion_lat": 0.0, "lat": 39.0544715, "name": "eade79c4d86900f27b96167582b55af4", "fusion_lon": 0.0, "bike_id": "eade79c4d86900f27b96167582b55af4", "is_disabled": 0, "is_reserved": 0}, {"rental_uris": {"ios": "https://dc.lft.to/lastmile_qr_scan", "android": "https://dc.lft.to/lastmile_qr_scan"}, "lon": -77.0349305, "type": "electric_scooter", "fusion_lat": 0.0, "lat": 38.9193015, "name": "39fe4f431c2c5ec52be21cc60ebebcbc", "fusion_lon": 0.0, "bike_id": "39fe4f431c2c5ec52be21cc60ebebcbc", "is_disabled": 0, "is_reserved": 0}, {"rental_uris": {"ios": "https://dc.lft.to/lastmile_qr_scan", "android": "https://dc.lft.to/lastmile_qr_scan"}, "lon": -77.17843933333333, "type": "electric_bike", "fusion_lat": 0.0, "lat": 39.08862933333333, "name": "c3ca08c62683a739688cd4697a19c37c", "fusion_lon": 0.0, "bike_id": "c3ca08c62683a739688cd4697a19c37c", "is_disabled": 0, "is_reserved": 0}, {"rental_uris": {"ios": "https://dc.lft.to/lastmile_qr_scan", "android": "https://dc.lft.to/lastmile_qr_scan"}, "lon": -77.03322, "type": "electric_scooter", "fusion_lat": 0.0, "lat": 38.919203, "name": "c98de89bafb62340aef72c580d511503", "fusion_lon": 0.0, "bike_id": "c98de89bafb62340aef72c580d511503", "is_disabled": 0, "is_reserved": 0}, {"rental_uris": {"ios": "https://dc.lft.to/lastmile_qr_scan", "android": "https://dc.lft.to/lastmile_qr_scan"}, "lon": -77.027038, "type": "electric_scooter", "fusion_lat": 0.0, "lat": 38.94998433333333, "name": "f7323798c96317012806d2d0b6ae728c", "fusion_lon": 0.0, "bike_id": "f7323798c96317012806d2d0b6ae728c", "is_disabled": 0, "is_reserved": 0}, {"rental_uris": {"ios": "https://dc.lft.to/lastmile_qr_scan", "android": "https://dc.lft.to/lastmile_qr_scan"}, "lon": -77.10710283333333, "type": "electric_bike", "fusion_lat": 0.0, "lat": 38.85551516666666, "name": "88b47aa25c98b6b8e75281bdd2f7a7ee", "fusion_lon": 0.0, "bike_id": "88b47aa25c98b6b8e75281bdd2f7a7ee", "is_disabled": 0, "is_reserved": 0}, {"rental_uris": {"ios": "https://dc.lft.to/lastmile_qr_scan", "android": "https://dc.lft.to/lastmile_qr_scan"}, "lon": -76.94844166666667, "type": "electric_scooter", "fusion_lat": 0.0, "lat": 38.894854, "name": "3464a40251da3c6424c3cfd270cf76ff", "fusion_lon": 0.0, "bike_id": "3464a40251da3c6424c3cfd270cf76ff", "is_disabled": 0, "is_reserved": 0}, {"rental_uris": {"ios": "https://dc.lft.to/lastmile_qr_scan", "android": "https://dc.lft.to/lastmile_qr_scan"}, "lon": -76.93176683333333, "type": "electric_scooter", "fusion_lat": 0.0, "lat": 38.8988335, "name": "a93cb39873986f96bc21e96d6bd35ba3", "fusion_lon": 0.0, "bike_id": "a93cb39873986f96bc21e96d6bd35ba3", "is_disabled": 0, "is_reserved": 0}, {"rental_uris": {"ios": "https://dc.lft.to/lastmile_qr_scan", "android": "https://dc.lft.to/lastmile_qr_scan"}, "lon": -77.02833116666666, "type": "electric_scooter", "fusion_lat": 0.0, "lat": 38.912555, "name": "8101887f3d797c3ba898bdec432447dd", "fusion_lon": 0.0, "bike_id": "8101887f3d797c3ba898bdec432447dd", "is_disabled": 0, "is_reserved": 0}, {"rental_uris": {"ios": "https://dc.lft.to/lastmile_qr_scan", "android": "https://dc.lft.to/lastmile_qr_scan"}, "lon": -77.03717466666667, "type": "electric_bike", "fusion_lat": 0.0, "lat": 38.935594, "name": "9e6524225f497ce69ecb27abe7e8342b", "fusion_lon": 0.0, "bike_id": "9e6524225f497ce69ecb27abe7e8342b", "is_disabled": 0, "is_reserved": 0}, {"rental_uris": {"ios": "https://dc.lft.to/lastmile_qr_scan", "android": "https://dc.lft.to/lastmile_qr_scan"}, "lon": -76.94859133333334, "type": "electric_scooter", "fusion_lat": 0.0, "lat": 38.88303283333333, "name": "982c185b8ff6d4c0a48d8c7bd2abb39c", "fusion_lon": 0.0, "bike_id": "982c185b8ff6d4c0a48d8c7bd2abb39c", "is_disabled": 0, "is_reserved": 0}, {"rental_uris": {"ios": "https://dc.lft.to/lastmile_qr_scan", "android": "https://dc.lft.to/lastmile_qr_scan"}, "lon": -77.01509366666667, "type": "electric_scooter", "fusion_lat": 0.0, "lat": 38.90721666666666, "name": "d9a934b678fd850ce206077f188ac324", "fusion_lon": 0.0, "bike_id": "d9a934b678fd850ce206077f188ac324", "is_disabled": 0, "is_reserved": 0}, {"rental_uris": {"ios": "https://dc.lft.to/lastmile_qr_scan", "android": "https://dc.lft.to/lastmile_qr_scan"}, "lon": -77.01509933333334, "type": "electric_scooter", "fusion_lat": 0.0, "lat": 38.88733166666667, "name": "70190ec92131f109641a5034adbfd1d7", "fusion_lon": 0.0, "bike_id": "70190ec92131f109641a5034adbfd1d7", "is_disabled": 0, "is_reserved": 0}, {"rental_uris": {"ios": "https://dc.lft.to/lastmile_qr_scan", "android": "https://dc.lft.to/lastmile_qr_scan"}, "lon": -77.03346116666667, "type": "electric_scooter", "fusion_lat": 0.0, "lat": 38.88505166666667, "name": "334e860132da31de02e4c1dc0f1cde17", "fusion_lon": 0.0, "bike_id": "334e860132da31de02e4c1dc0f1cde17", "is_disabled": 0, "is_reserved": 0}, {"rental_uris": {"ios": "https://dc.lft.to/lastmile_qr_scan", "android": "https://dc.lft.to/lastmile_qr_scan"}, "lon": -77.032066, "type": "electric_scooter", "fusion_lat": 0.0, "lat": 38.911557333333334, "name": "f0578a65ce4892a038b3e2e0ffb1f630", "fusion_lon": 0.0, "bike_id": "f0578a65ce4892a038b3e2e0ffb1f630", "is_disabled": 0, "is_reserved": 0}, {"rental_uris": {"ios": "https://dc.lft.to/lastmile_qr_scan", "android": "https://dc.lft.to/lastmile_qr_scan"}, "lon": -76.99272883333333, "type": "electric_scooter", "fusion_lat": 0.0, "lat": 38.89689716666667, "name": "83c7bd960474b29a3d6eb41046e330a6", "fusion_lon": 0.0, "bike_id": "83c7bd960474b29a3d6eb41046e330a6", "is_disabled": 0, "is_reserved": 0}, {"rental_uris": {"ios": "https://dc.lft.to/lastmile_qr_scan", "android": "https://dc.lft.to/lastmile_qr_scan"}, "lon": -77.06532783333333, "type": "electric_scooter", "fusion_lat": 0.0, "lat": 38.911289333333336, "name": "f8ab778d48bafb587888ccb73974d41f", "fusion_lon": 0.0, "bike_id": "f8ab778d48bafb587888ccb73974d41f", "is_disabled": 0, "is_reserved": 0}, {"rental_uris": {"ios": "https://dc.lft.to/lastmile_qr_scan", "android": "https://dc.lft.to/lastmile_qr_scan"}, "lon": -77.02332333333334, "type": "electric_scooter", "fusion_lat": 0.0, "lat": 38.92891916666667, "name": "d8bd6d85e803c5a0f51bdd782451f8f9", "fusion_lon": 0.0, "bike_id": "d8bd6d85e803c5a0f51bdd782451f8f9", "is_disabled": 0, "is_reserved": 0}, {"rental_uris": {"ios": "https://dc.lft.to/lastmile_qr_scan", "android": "https://dc.lft.to/lastmile_qr_scan"}, "lon": -76.99517916666667, "type": "electric_scooter", "fusion_lat": 0.0, "lat": 38.894836, "name": "9591594c34eb2b29ab93b3b0cb2985a5", "fusion_lon": 0.0, "bike_id": "9591594c34eb2b29ab93b3b0cb2985a5", "is_disabled": 0, "is_reserved": 0}, {"rental_uris": {"ios": "https://dc.lft.to/lastmile_qr_scan", "android": "https://dc.lft.to/lastmile_qr_scan"}, "lon": -77.03648166666666, "type": "electric_scooter", "fusion_lat": 0.0, "lat": 38.907909833333335, "name": "2c997b138c852461d024cb453981af34", "fusion_lon": 0.0, "bike_id": "2c997b138c852461d024cb453981af34", "is_disabled": 0, "is_reserved": 0}, {"rental_uris": {"ios": "https://dc.lft.to/lastmile_qr_scan", "android": "https://dc.lft.to/lastmile_qr_scan"}, "lon": -77.04197416666666, "type": "electric_scooter", "fusion_lat": 0.0, "lat": 38.90572916666667, "name": "0f018a0ffa7eb0d2d3c98833dd4cc43f", "fusion_lon": 0.0, "bike_id": "0f018a0ffa7eb0d2d3c98833dd4cc43f", "is_disabled": 0, "is_reserved": 0}, {"rental_uris": {"ios": "https://dc.lft.to/lastmile_qr_scan", "android": "https://dc.lft.to/lastmile_qr_scan"}, "lon": -77.01104033333333, "type": "electric_bike", "fusion_lat": 0.0, "lat": 38.96308, "name": "cc4c4d7cf085a21b8e9b16596841a15a", "fusion_lon": 0.0, "bike_id": "cc4c4d7cf085a21b8e9b16596841a15a", "is_disabled": 0, "is_reserved": 0}, {"rental_uris": {"ios": "https://dc.lft.to/lastmile_qr_scan", "android": "https://dc.lft.to/lastmile_qr_scan"}, "lon": -77.10901566666666, "type": "electric_bike", "fusion_lat": 0.0, "lat": 38.830392, "name": "f5d8e157b94ab6d5c6260bf7cc684bb2", "fusion_lon": 0.0, "bike_id": "f5d8e157b94ab6d5c6260bf7cc684bb2", "is_disabled": 0, "is_reserved": 0}, {"rental_uris": {"ios": "https://dc.lft.to/lastmile_qr_scan", "android": "https://dc.lft.to/lastmile_qr_scan"}, "lon": -77.04848283333334, "type": "electric_scooter", "fusion_lat": 0.0, "lat": 38.90524, "name": "abb85fcde03accb13911f0de21b868fb", "fusion_lon": 0.0, "bike_id": "abb85fcde03accb13911f0de21b868fb", "is_disabled": 0, "is_reserved": 0}, {"rental_uris": {"ios": "https://dc.lft.to/lastmile_qr_scan", "android": "https://dc.lft.to/lastmile_qr_scan"}, "lon": -77.01812516666666, "type": "electric_scooter", "fusion_lat": 0.0, "lat": 38.904470833333335, "name": "7d44bb6ba65fd9e34a45f97dd1e1b77f", "fusion_lon": 0.0, "bike_id": "7d44bb6ba65fd9e34a45f97dd1e1b77f", "is_disabled": 0, "is_reserved": 0}, {"rental_uris": {"ios": "https://dc.lft.to/lastmile_qr_scan", "android": "https://dc.lft.to/lastmile_qr_scan"}, "lon": -76.99150216666666, "type": "electric_scooter", "fusion_lat": 0.0, "lat": 38.89345, "name": "cad397855ea86d762322ec20df06aad5", "fusion_lon": 0.0, "bike_id": "cad397855ea86d762322ec20df06aad5", "is_disabled": 0, "is_reserved": 0}, {"rental_uris": {"ios": "https://dc.lft.to/lastmile_qr_scan", "android": "https://dc.lft.to/lastmile_qr_scan"}, "lon": -76.97335533333333, "type": "electric_scooter", "fusion_lat": 0.0, "lat": 38.904832166666665, "name": "c5b97875f49a130be9edae6b27098d17", "fusion_lon": 0.0, "bike_id": "c5b97875f49a130be9edae6b27098d17", "is_disabled": 0, "is_reserved": 0}, {"rental_uris": {"ios": "https://dc.lft.to/lastmile_qr_scan", "android": "https://dc.lft.to/lastmile_qr_scan"}, "lon": -77.025852, "type": "electric_scooter", "fusion_lat": 0.0, "lat": 38.920383666666666, "name": "0634ee4873adba271536728ede77a471", "fusion_lon": 0.0, "bike_id": "0634ee4873adba271536728ede77a471", "is_disabled": 0, "is_reserved": 0}, {"rental_uris": {"ios": "https://dc.lft.to/lastmile_qr_scan", "android": "https://dc.lft.to/lastmile_qr_scan"}, "lon": -76.99519216666667, "type": "electric_scooter", "fusion_lat": 0.0, "lat": 38.8837375, "name": "42c4fc11eb7b2886af4065edeab0bdb6", "fusion_lon": 0.0, "bike_id": "42c4fc11eb7b2886af4065edeab0bdb6", "is_disabled": 0, "is_reserved": 0}, {"rental_uris": {"ios": "https://dc.lft.to/lastmile_qr_scan", "android": "https://dc.lft.to/lastmile_qr_scan"}, "lon": -77.001337, "type": "electric_scooter", "fusion_lat": 0.0, "lat": 38.90415383333333, "name": "aa87dfad80723941fd2fc84bd2d0f033", "fusion_lon": 0.0, "bike_id": "aa87dfad80723941fd2fc84bd2d0f033", "is_disabled": 0, "is_reserved": 0}, {"rental_uris": {"ios": "https://dc.lft.to/lastmile_qr_scan", "android": "https://dc.lft.to/lastmile_qr_scan"}, "lon": -77.03342933333333, "type": "electric_scooter", "fusion_lat": 0.0, "lat": 38.928794333333336, "name": "1bf0f2019e297d614d9ef5231c0cc134", "fusion_lon": 0.0, "bike_id": "1bf0f2019e297d614d9ef5231c0cc134", "is_disabled": 0, "is_reserved": 0}, {"rental_uris": {"ios": "https://dc.lft.to/lastmile_qr_scan", "android": "https://dc.lft.to/lastmile_qr_scan"}, "lon": -77.03795266666667, "type": "electric_scooter", "fusion_lat": 0.0, "lat": 38.930297333333336, "name": "dd554ce30d1950a23c2082f331c14b92", "fusion_lon": 0.0, "bike_id": "dd554ce30d1950a23c2082f331c14b92", "is_disabled": 0, "is_reserved": 0}, {"rental_uris": {"ios": "https://dc.lft.to/lastmile_qr_scan", "android": "https://dc.lft.to/lastmile_qr_scan"}, "lon": -77.00718883333333, "type": "electric_scooter", "fusion_lat": 0.0, "lat": 38.913483666666664, "name": "c4507c3b05de6a68d536df37c60e5707", "fusion_lon": 0.0, "bike_id": "c4507c3b05de6a68d536df37c60e5707", "is_disabled": 0, "is_reserved": 0}, {"rental_uris": {"ios": "https://dc.lft.to/lastmile_qr_scan", "android": "https://dc.lft.to/lastmile_qr_scan"}, "lon": -77.00216783333333, "type": "electric_scooter", "fusion_lat": 0.0, "lat": 38.9083855, "name": "d0300848bcc0ed331fab4c7ac30ca23b", "fusion_lon": 0.0, "bike_id": "d0300848bcc0ed331fab4c7ac30ca23b", "is_disabled": 0, "is_reserved": 0}, {"rental_uris": {"ios": "https://dc.lft.to/lastmile_qr_scan", "android": "https://dc.lft.to/lastmile_qr_scan"}, "lon": -77.04936366666666, "type": "electric_scooter", "fusion_lat": 0.0, "lat": 38.900902, "name": "61570a53a9c133cd255eb07c585c413a", "fusion_lon": 0.0, "bike_id": "61570a53a9c133cd255eb07c585c413a", "is_disabled": 0, "is_reserved": 0}, {"rental_uris": {"ios": "https://dc.lft.to/lastmile_qr_scan", "android": "https://dc.lft.to/lastmile_qr_scan"}, "lon": -77.02619033333333, "type": "electric_scooter", "fusion_lat": 0.0, "lat": 38.919176, "name": "5e5d8f16292eaaebb1180799555530f7", "fusion_lon": 0.0, "bike_id": "5e5d8f16292eaaebb1180799555530f7", "is_disabled": 0, "is_reserved": 0}, {"rental_uris": {"ios": "https://dc.lft.to/lastmile_qr_scan", "android": "https://dc.lft.to/lastmile_qr_scan"}, "lon": -76.93739533333333, "type": "electric_scooter", "fusion_lat": 0.0, "lat": 38.8901765, "name": "e51e85980b6835e989d2cf132e471749", "fusion_lon": 0.0, "bike_id": "e51e85980b6835e989d2cf132e471749", "is_disabled": 0, "is_reserved": 0}, {"rental_uris": {"ios": "https://dc.lft.to/lastmile_qr_scan", "android": "https://dc.lft.to/lastmile_qr_scan"}, "lon": -77.01595916666666, "type": "electric_scooter", "fusion_lat": 0.0, "lat": 38.89614366666667, "name": "4295f016bad3fd4bfb7dd65a3d15c08d", "fusion_lon": 0.0, "bike_id": "4295f016bad3fd4bfb7dd65a3d15c08d", "is_disabled": 0, "is_reserved": 0}, {"rental_uris": {"ios": "https://dc.lft.to/lastmile_qr_scan", "android": "https://dc.lft.to/lastmile_qr_scan"}, "lon": -76.93001116666667, "type": "electric_bike", "fusion_lat": 0.0, "lat": 38.88796216666667, "name": "69123cbdfa2c29fa945298c9040d84d6", "fusion_lon": 0.0, "bike_id": "69123cbdfa2c29fa945298c9040d84d6", "is_disabled": 0, "is_reserved": 0}, {"rental_uris": {"ios": "https://dc.lft.to/lastmile_qr_scan", "android": "https://dc.lft.to/lastmile_qr_scan"}, "lon": -77.01367566666667, "type": "electric_scooter", "fusion_lat": 0.0, "lat": 38.87591616666667, "name": "f022005b97c8df142bbb2c035f765c46", "fusion_lon": 0.0, "bike_id": "f022005b97c8df142bbb2c035f765c46", "is_disabled": 0, "is_reserved": 0}, {"rental_uris": {"ios": "https://dc.lft.to/lastmile_qr_scan", "android": "https://dc.lft.to/lastmile_qr_scan"}, "lon": -76.99025866666666, "type": "electric_scooter", "fusion_lat": 0.0, "lat": 38.8640585, "name": "e9fc1d9b0e0568dcc262a0739a658475", "fusion_lon": 0.0, "bike_id": "e9fc1d9b0e0568dcc262a0739a658475", "is_disabled": 0, "is_reserved": 0}, {"rental_uris": {"ios": "https://dc.lft.to/lastmile_qr_scan", "android": "https://dc.lft.to/lastmile_qr_scan"}, "lon": -77.03075383333334, "type": "electric_scooter", "fusion_lat": 0.0, "lat": 38.8997235, "name": "9e8497e20f4704f52f6c1c0004e26419", "fusion_lon": 0.0, "bike_id": "9e8497e20f4704f52f6c1c0004e26419", "is_disabled": 0, "is_reserved": 0}, {"rental_uris": {"ios": "https://dc.lft.to/lastmile_qr_scan", "android": "https://dc.lft.to/lastmile_qr_scan"}, "lon": -77.07932833333334, "type": "electric_scooter", "fusion_lat": 0.0, "lat": 38.94880033333333, "name": "a026bc7c4abf2e25f15897873b78e893", "fusion_lon": 0.0, "bike_id": "a026bc7c4abf2e25f15897873b78e893", "is_disabled": 0, "is_reserved": 0}, {"rental_uris": {"ios": "https://dc.lft.to/lastmile_qr_scan", "android": "https://dc.lft.to/lastmile_qr_scan"}, "lon": -77.07508, "type": "electric_bike", "fusion_lat": 0.0, "lat": 38.89290233333333, "name": "90b7814ca4eeda3e5b1f5a1b4ac6741b", "fusion_lon": 0.0, "bike_id": "90b7814ca4eeda3e5b1f5a1b4ac6741b", "is_disabled": 0, "is_reserved": 0}, {"rental_uris": {"ios": "https://dc.lft.to/lastmile_qr_scan", "android": "https://dc.lft.to/lastmile_qr_scan"}, "lon": -77.01902316666667, "type": "electric_scooter", "fusion_lat": 0.0, "lat": 38.90560083333333, "name": "6a471c517ed18f531adb09182e54e165", "fusion_lon": 0.0, "bike_id": "6a471c517ed18f531adb09182e54e165", "is_disabled": 0, "is_reserved": 0}, {"rental_uris": {"ios": "https://dc.lft.to/lastmile_qr_scan", "android": "https://dc.lft.to/lastmile_qr_scan"}, "lon": -77.05251, "type": "electric_scooter", "fusion_lat": 0.0, "lat": 38.910072166666666, "name": "8a9c2380f757cfa9ccf5a00acf2ae35d", "fusion_lon": 0.0, "bike_id": "8a9c2380f757cfa9ccf5a00acf2ae35d", "is_disabled": 0, "is_reserved": 0}, {"rental_uris": {"ios": "https://dc.lft.to/lastmile_qr_scan", "android": "https://dc.lft.to/lastmile_qr_scan"}, "lon": -77.03964983333333, "type": "electric_scooter", "fusion_lat": 0.0, "lat": 38.919922166666666, "name": "99c6fdcc9683c2bf26111d825151c68b", "fusion_lon": 0.0, "bike_id": "99c6fdcc9683c2bf26111d825151c68b", "is_disabled": 0, "is_reserved": 0}, {"rental_uris": {"ios": "https://dc.lft.to/lastmile_qr_scan", "android": "https://dc.lft.to/lastmile_qr_scan"}, "lon": -77.04106716666666, "type": "electric_scooter", "fusion_lat": 0.0, "lat": 38.91858216666667, "name": "a655ee4444539742bd5a6aa3133efc6c", "fusion_lon": 0.0, "bike_id": "a655ee4444539742bd5a6aa3133efc6c", "is_disabled": 0, "is_reserved": 0}, {"rental_uris": {"ios": "https://dc.lft.to/lastmile_qr_scan", "android": "https://dc.lft.to/lastmile_qr_scan"}, "lon": -77.03830433333333, "type": "electric_scooter", "fusion_lat": 0.0, "lat": 38.911097833333336, "name": "c5c0c4e288c6b434f16455d846f9fdae", "fusion_lon": 0.0, "bike_id": "c5c0c4e288c6b434f16455d846f9fdae", "is_disabled": 0, "is_reserved": 0}, {"rental_uris": {"ios": "https://dc.lft.to/lastmile_qr_scan", "android": "https://dc.lft.to/lastmile_qr_scan"}, "lon": -77.044212, "type": "electric_scooter", "fusion_lat": 0.0, "lat": 38.892238, "name": "da4067066b47697fd9f82a5e48a4cabb", "fusion_lon": 0.0, "bike_id": "da4067066b47697fd9f82a5e48a4cabb", "is_disabled": 0, "is_reserved": 0}, {"rental_uris": {"ios": "https://dc.lft.to/lastmile_qr_scan", "android": "https://dc.lft.to/lastmile_qr_scan"}, "lon": -77.02632183333333, "type": "electric_bike", "fusion_lat": 0.0, "lat": 38.962276833333334, "name": "e9081b9139ab8307956cacfad2ef5930", "fusion_lon": 0.0, "bike_id": "e9081b9139ab8307956cacfad2ef5930", "is_disabled": 0, "is_reserved": 0}, {"rental_uris": {"ios": "https://dc.lft.to/lastmile_qr_scan", "android": "https://dc.lft.to/lastmile_qr_scan"}, "lon": -77.03464466666667, "type": "electric_scooter", "fusion_lat": 0.0, "lat": 38.93448016666667, "name": "9aae2072ff69d668502baf082d00b49e", "fusion_lon": 0.0, "bike_id": "9aae2072ff69d668502baf082d00b49e", "is_disabled": 0, "is_reserved": 0}, {"rental_uris": {"ios": "https://dc.lft.to/lastmile_qr_scan", "android": "https://dc.lft.to/lastmile_qr_scan"}, "lon": -77.007253, "type": "electric_scooter", "fusion_lat": 0.0, "lat": 38.88493366666667, "name": "0d7d8dd21634ec67322a54dc5667950d", "fusion_lon": 0.0, "bike_id": "0d7d8dd21634ec67322a54dc5667950d", "is_disabled": 0, "is_reserved": 0}, {"rental_uris": {"ios": "https://dc.lft.to/lastmile_qr_scan", "android": "https://dc.lft.to/lastmile_qr_scan"}, "lon": -77.0478345, "type": "electric_scooter", "fusion_lat": 0.0, "lat": 38.8922385, "name": "125cafac7b22a5ea48135a36194184c5", "fusion_lon": 0.0, "bike_id": "125cafac7b22a5ea48135a36194184c5", "is_disabled": 0, "is_reserved": 0}, {"rental_uris": {"ios": "https://dc.lft.to/lastmile_qr_scan", "android": "https://dc.lft.to/lastmile_qr_scan"}, "lon": -77.002071, "type": "electric_scooter", "fusion_lat": 0.0, "lat": 38.900234833333336, "name": "53b0d5593ab8c3f8236b799f3739c6d9", "fusion_lon": 0.0, "bike_id": "53b0d5593ab8c3f8236b799f3739c6d9", "is_disabled": 0, "is_reserved": 0}, {"rental_uris": {"ios": "https://dc.lft.to/lastmile_qr_scan", "android": "https://dc.lft.to/lastmile_qr_scan"}, "lon": -77.1784785, "type": "electric_bike", "fusion_lat": 0.0, "lat": 39.088952, "name": "9e93f57d842ddaac598b42a5fb6aa02f", "fusion_lon": 0.0, "bike_id": "9e93f57d842ddaac598b42a5fb6aa02f", "is_disabled": 0, "is_reserved": 0}, {"rental_uris": {"ios": "https://dc.lft.to/lastmile_qr_scan", "android": "https://dc.lft.to/lastmile_qr_scan"}, "lon": -77.03349383333334, "type": "electric_scooter", "fusion_lat": 0.0, "lat": 38.885118166666665, "name": "101ae0397afcc0b8681a2bc4dbf2d532", "fusion_lon": 0.0, "bike_id": "101ae0397afcc0b8681a2bc4dbf2d532", "is_disabled": 0, "is_reserved": 0}, {"rental_uris": {"ios": "https://dc.lft.to/lastmile_qr_scan", "android": "https://dc.lft.to/lastmile_qr_scan"}, "lon": -77.08540816666667, "type": "electric_bike", "fusion_lat": 0.0, "lat": 38.856211333333334, "name": "6697a6933107da8e1674b55c90b7a2a9", "fusion_lon": 0.0, "bike_id": "6697a6933107da8e1674b55c90b7a2a9", "is_disabled": 0, "is_reserved": 0}, {"rental_uris": {"ios": "https://dc.lft.to/lastmile_qr_scan", "android": "https://dc.lft.to/lastmile_qr_scan"}, "lon": -77.0209645, "type": "electric_scooter", "fusion_lat": 0.0, "lat": 38.931150833333334, "name": "a5a666ea333361032c9d53380d988d83", "fusion_lon": 0.0, "bike_id": "a5a666ea333361032c9d53380d988d83", "is_disabled": 0, "is_reserved": 0}, {"rental_uris": {"ios": "https://dc.lft.to/lastmile_qr_scan", "android": "https://dc.lft.to/lastmile_qr_scan"}, "lon": -77.02981466666667, "type": "electric_scooter", "fusion_lat": 0.0, "lat": 38.962279, "name": "41e6f9f4971f6cd8d56f59a8d41456b1", "fusion_lon": 0.0, "bike_id": "41e6f9f4971f6cd8d56f59a8d41456b1", "is_disabled": 0, "is_reserved": 0}, {"rental_uris": {"ios": "https://dc.lft.to/lastmile_qr_scan", "android": "https://dc.lft.to/lastmile_qr_scan"}, "lon": -77.04621116666667, "type": "electric_scooter", "fusion_lat": 0.0, "lat": 38.9028335, "name": "683c1466c28f98e8537f6b904efcc570", "fusion_lon": 0.0, "bike_id": "683c1466c28f98e8537f6b904efcc570", "is_disabled": 0, "is_reserved": 0}, {"rental_uris": {"ios": "https://dc.lft.to/lastmile_qr_scan", "android": "https://dc.lft.to/lastmile_qr_scan"}, "lon": -77.01513, "type": "electric_scooter", "fusion_lat": 0.0, "lat": 38.916134166666666, "name": "d23e2fc08854d1690ac2402b8bf02f04", "fusion_lon": 0.0, "bike_id": "d23e2fc08854d1690ac2402b8bf02f04", "is_disabled": 0, "is_reserved": 0}, {"rental_uris": {"ios": "https://dc.lft.to/lastmile_qr_scan", "android": "https://dc.lft.to/lastmile_qr_scan"}, "lon": -77.02979733333333, "type": "electric_bike", "fusion_lat": 0.0, "lat": 38.936988166666666, "name": "cc9e0af8a1dac0323a0364a0f5a961ee", "fusion_lon": 0.0, "bike_id": "cc9e0af8a1dac0323a0364a0f5a961ee", "is_disabled": 0, "is_reserved": 0}, {"rental_uris": {"ios": "https://dc.lft.to/lastmile_qr_scan", "android": "https://dc.lft.to/lastmile_qr_scan"}, "lon": -76.99340183333334, "type": "electric_bike", "fusion_lat": 0.0, "lat": 38.961952833333335, "name": "c7213bc125139f1db97d6a626ab442ee", "fusion_lon": 0.0, "bike_id": "c7213bc125139f1db97d6a626ab442ee", "is_disabled": 0, "is_reserved": 0}, {"rental_uris": {"ios": "https://dc.lft.to/lastmile_qr_scan", "android": "https://dc.lft.to/lastmile_qr_scan"}, "lon": -77.02927766666667, "type": "electric_scooter", "fusion_lat": 0.0, "lat": 38.882191166666665, "name": "42cf019a587cf444f1683e63da95892a", "fusion_lon": 0.0, "bike_id": "42cf019a587cf444f1683e63da95892a", "is_disabled": 0, "is_reserved": 0}, {"rental_uris": {"ios": "https://dc.lft.to/lastmile_qr_scan", "android": "https://dc.lft.to/lastmile_qr_scan"}, "lon": -77.0736065, "type": "electric_scooter", "fusion_lat": 0.0, "lat": 38.937449666666666, "name": "f0dc84240c90ee7fc04a4229c9d7a71c", "fusion_lon": 0.0, "bike_id": "f0dc84240c90ee7fc04a4229c9d7a71c", "is_disabled": 0, "is_reserved": 0}, {"rental_uris": {"ios": "https://dc.lft.to/lastmile_qr_scan", "android": "https://dc.lft.to/lastmile_qr_scan"}, "lon": -77.01870566666666, "type": "electric_scooter", "fusion_lat": 0.0, "lat": 38.948953, "name": "8963185aa8e5c2a31793ca6e7ba2ce63", "fusion_lon": 0.0, "bike_id": "8963185aa8e5c2a31793ca6e7ba2ce63", "is_disabled": 0, "is_reserved": 0}, {"rental_uris": {"ios": "https://dc.lft.to/lastmile_qr_scan", "android": "https://dc.lft.to/lastmile_qr_scan"}, "lon": -77.04216816666667, "type": "electric_scooter", "fusion_lat": 0.0, "lat": 38.911182333333336, "name": "c6314597d843349c85e306d39929b3ad", "fusion_lon": 0.0, "bike_id": "c6314597d843349c85e306d39929b3ad", "is_disabled": 0, "is_reserved": 0}, {"rental_uris": {"ios": "https://dc.lft.to/lastmile_qr_scan", "android": "https://dc.lft.to/lastmile_qr_scan"}, "lon": -77.05524233333334, "type": "electric_scooter", "fusion_lat": 0.0, "lat": 38.8996535, "name": "e44331d7b7fc69a2ea91a135ea3ee548", "fusion_lon": 0.0, "bike_id": "e44331d7b7fc69a2ea91a135ea3ee548", "is_disabled": 0, "is_reserved": 0}, {"rental_uris": {"ios": "https://dc.lft.to/lastmile_qr_scan", "android": "https://dc.lft.to/lastmile_qr_scan"}, "lon": -76.97628566666667, "type": "electric_scooter", "fusion_lat": 0.0, "lat": 38.905755666666664, "name": "b32cd470ac8663a3bf16b8108d4f9e87", "fusion_lon": 0.0, "bike_id": "b32cd470ac8663a3bf16b8108d4f9e87", "is_disabled": 0, "is_reserved": 0}, {"rental_uris": {"ios": "https://dc.lft.to/lastmile_qr_scan", "android": "https://dc.lft.to/lastmile_qr_scan"}, "lon": -77.04832533333334, "type": "electric_scooter", "fusion_lat": 0.0, "lat": 38.89726266666667, "name": "7bac3c27ec731a3c6dca5c69d6762945", "fusion_lon": 0.0, "bike_id": "7bac3c27ec731a3c6dca5c69d6762945", "is_disabled": 0, "is_reserved": 0}, {"rental_uris": {"ios": "https://dc.lft.to/lastmile_qr_scan", "android": "https://dc.lft.to/lastmile_qr_scan"}, "lon": -77.06641, "type": "electric_scooter", "fusion_lat": 0.0, "lat": 38.9137625, "name": "e1fc30c97f70956e6319e1ad3e47321f", "fusion_lon": 0.0, "bike_id": "e1fc30c97f70956e6319e1ad3e47321f", "is_disabled": 0, "is_reserved": 0}, {"rental_uris": {"ios": "https://dc.lft.to/lastmile_qr_scan", "android": "https://dc.lft.to/lastmile_qr_scan"}, "lon": -77.03192416666667, "type": "electric_scooter", "fusion_lat": 0.0, "lat": 38.90844633333333, "name": "96d6519f4bfcc993a25fa8bb9198f779", "fusion_lon": 0.0, "bike_id": "96d6519f4bfcc993a25fa8bb9198f779", "is_disabled": 0, "is_reserved": 0}, {"rental_uris": {"ios": "https://dc.lft.to/lastmile_qr_scan", "android": "https://dc.lft.to/lastmile_qr_scan"}, "lon": -76.96527833333333, "type": "electric_scooter", "fusion_lat": 0.0, "lat": 38.87628266666667, "name": "2ca904af4af252ccbfb6dca00fd3b0ea", "fusion_lon": 0.0, "bike_id": "2ca904af4af252ccbfb6dca00fd3b0ea", "is_disabled": 0, "is_reserved": 0}, {"rental_uris": {"ios": "https://dc.lft.to/lastmile_qr_scan", "android": "https://dc.lft.to/lastmile_qr_scan"}, "lon": -77.04658283333333, "type": "electric_scooter", "fusion_lat": 0.0, "lat": 38.893378, "name": "bc0cd343940aab54a9e95823cdaf8b27", "fusion_lon": 0.0, "bike_id": "bc0cd343940aab54a9e95823cdaf8b27", "is_disabled": 0, "is_reserved": 0}, {"rental_uris": {"ios": "https://dc.lft.to/lastmile_qr_scan", "android": "https://dc.lft.to/lastmile_qr_scan"}, "lon": -77.04912916666666, "type": "electric_scooter", "fusion_lat": 0.0, "lat": 38.90549216666667, "name": "746c97c1520e7aa1a22b873d598f5a72", "fusion_lon": 0.0, "bike_id": "746c97c1520e7aa1a22b873d598f5a72", "is_disabled": 0, "is_reserved": 0}, {"rental_uris": {"ios": "https://dc.lft.to/lastmile_qr_scan", "android": "https://dc.lft.to/lastmile_qr_scan"}, "lon": -77.00204033333333, "type": "electric_scooter", "fusion_lat": 0.0, "lat": 38.90031783333333, "name": "9773a7f975584b54c808f4bf86bb9773", "fusion_lon": 0.0, "bike_id": "9773a7f975584b54c808f4bf86bb9773", "is_disabled": 0, "is_reserved": 0}, {"rental_uris": {"ios": "https://dc.lft.to/lastmile_qr_scan", "android": "https://dc.lft.to/lastmile_qr_scan"}, "lon": -77.10679633333334, "type": "electric_bike", "fusion_lat": 0.0, "lat": 38.9358195, "name": "6148446b744f88246be4bd126699ecd3", "fusion_lon": 0.0, "bike_id": "6148446b744f88246be4bd126699ecd3", "is_disabled": 0, "is_reserved": 0}, {"rental_uris": {"ios": "https://dc.lft.to/lastmile_qr_scan", "android": "https://dc.lft.to/lastmile_qr_scan"}, "lon": -77.02219116666667, "type": "electric_scooter", "fusion_lat": 0.0, "lat": 38.905744, "name": "533813e59de45da376fa799735b3c660", "fusion_lon": 0.0, "bike_id": "533813e59de45da376fa799735b3c660", "is_disabled": 0, "is_reserved": 0}, {"rental_uris": {"ios": "https://dc.lft.to/lastmile_qr_scan", "android": "https://dc.lft.to/lastmile_qr_scan"}, "lon": -77.01081166666667, "type": "electric_scooter", "fusion_lat": 0.0, "lat": 38.89478166666667, "name": "6368cb0bf76f71d7882d49f937b12e32", "fusion_lon": 0.0, "bike_id": "6368cb0bf76f71d7882d49f937b12e32", "is_disabled": 0, "is_reserved": 0}, {"rental_uris": {"ios": "https://dc.lft.to/lastmile_qr_scan", "android": "https://dc.lft.to/lastmile_qr_scan"}, "lon": -77.01837716666667, "type": "electric_bike", "fusion_lat": 0.0, "lat": 38.90868566666666, "name": "eea95a63b83dcdce5c059b13af789c35", "fusion_lon": 0.0, "bike_id": "eea95a63b83dcdce5c059b13af789c35", "is_disabled": 0, "is_reserved": 0}, {"rental_uris": {"ios": "https://dc.lft.to/lastmile_qr_scan", "android": "https://dc.lft.to/lastmile_qr_scan"}, "lon": -77.051208, "type": "electric_scooter", "fusion_lat": 0.0, "lat": 38.92363566666667, "name": "3a1dc4ee9b10923e491804aa7308ea6c", "fusion_lon": 0.0, "bike_id": "3a1dc4ee9b10923e491804aa7308ea6c", "is_disabled": 0, "is_reserved": 0}, {"rental_uris": {"ios": "https://dc.lft.to/lastmile_qr_scan", "android": "https://dc.lft.to/lastmile_qr_scan"}, "lon": -77.04277533333334, "type": "electric_scooter", "fusion_lat": 0.0, "lat": 38.9028015, "name": "9904d65bbcb4f7aee429be97382b46b8", "fusion_lon": 0.0, "bike_id": "9904d65bbcb4f7aee429be97382b46b8", "is_disabled": 0, "is_reserved": 0}, {"rental_uris": {"ios": "https://dc.lft.to/lastmile_qr_scan", "android": "https://dc.lft.to/lastmile_qr_scan"}, "lon": -76.996819, "type": "electric_scooter", "fusion_lat": 0.0, "lat": 38.90496366666667, "name": "ed03ba1242e07cabda752433188ca0d8", "fusion_lon": 0.0, "bike_id": "ed03ba1242e07cabda752433188ca0d8", "is_disabled": 0, "is_reserved": 0}, {"rental_uris": {"ios": "https://dc.lft.to/lastmile_qr_scan", "android": "https://dc.lft.to/lastmile_qr_scan"}, "lon": -77.02715583333334, "type": "electric_scooter", "fusion_lat": 0.0, "lat": 38.906721, "name": "55dc9d5eeddc7b41fe31213271216420", "fusion_lon": 0.0, "bike_id": "55dc9d5eeddc7b41fe31213271216420", "is_disabled": 0, "is_reserved": 0}, {"rental_uris": {"ios": "https://dc.lft.to/lastmile_qr_scan", "android": "https://dc.lft.to/lastmile_qr_scan"}, "lon": -77.03457316666666, "type": "electric_scooter", "fusion_lat": 0.0, "lat": 38.90728466666667, "name": "4573fb62383b451694432dee54273545", "fusion_lon": 0.0, "bike_id": "4573fb62383b451694432dee54273545", "is_disabled": 0, "is_reserved": 0}, {"rental_uris": {"ios": "https://dc.lft.to/lastmile_qr_scan", "android": "https://dc.lft.to/lastmile_qr_scan"}, "lon": -77.07686166666667, "type": "electric_bike", "fusion_lat": 0.0, "lat": 38.831953, "name": "8c3d3419a329f1bdaac7190cb8079805", "fusion_lon": 0.0, "bike_id": "8c3d3419a329f1bdaac7190cb8079805", "is_disabled": 0, "is_reserved": 0}, {"rental_uris": {"ios": "https://dc.lft.to/lastmile_qr_scan", "android": "https://dc.lft.to/lastmile_qr_scan"}, "lon": -77.04761116666667, "type": "electric_scooter", "fusion_lat": 0.0, "lat": 38.90264883333333, "name": "a3d63181894d092f197eb2679cf2c83a", "fusion_lon": 0.0, "bike_id": "a3d63181894d092f197eb2679cf2c83a", "is_disabled": 0, "is_reserved": 0}, {"rental_uris": {"ios": "https://dc.lft.to/lastmile_qr_scan", "android": "https://dc.lft.to/lastmile_qr_scan"}, "lon": -77.0021025, "type": "electric_scooter", "fusion_lat": 0.0, "lat": 38.9002885, "name": "a0c8b1306bad42cb27ce815c9efead21", "fusion_lon": 0.0, "bike_id": "a0c8b1306bad42cb27ce815c9efead21", "is_disabled": 0, "is_reserved": 0}, {"rental_uris": {"ios": "https://dc.lft.to/lastmile_qr_scan", "android": "https://dc.lft.to/lastmile_qr_scan"}, "lon": -77.04160216666666, "type": "electric_scooter", "fusion_lat": 0.0, "lat": 38.9193255, "name": "8860eb90ad20853bdd39c04dac8fe0d2", "fusion_lon": 0.0, "bike_id": "8860eb90ad20853bdd39c04dac8fe0d2", "is_disabled": 0, "is_reserved": 0}, {"rental_uris": {"ios": "https://dc.lft.to/lastmile_qr_scan", "android": "https://dc.lft.to/lastmile_qr_scan"}, "lon": -77.03359616666667, "type": "electric_scooter", "fusion_lat": 0.0, "lat": 38.92446316666667, "name": "0463d83d5d0fe683e49cf66be364ab4b", "fusion_lon": 0.0, "bike_id": "0463d83d5d0fe683e49cf66be364ab4b", "is_disabled": 0, "is_reserved": 0}, {"rental_uris": {"ios": "https://dc.lft.to/lastmile_qr_scan", "android": "https://dc.lft.to/lastmile_qr_scan"}, "lon": -77.1226275, "type": "electric_bike", "fusion_lat": 0.0, "lat": 38.89190716666667, "name": "547b77e384b418c2d917765811c51488", "fusion_lon": 0.0, "bike_id": "547b77e384b418c2d917765811c51488", "is_disabled": 0, "is_reserved": 0}, {"rental_uris": {"ios": "https://dc.lft.to/lastmile_qr_scan", "android": "https://dc.lft.to/lastmile_qr_scan"}, "lon": -77.024034, "type": "electric_scooter", "fusion_lat": 0.0, "lat": 38.916051833333334, "name": "9ffdd58061e2c6e1de17c7c065ce4c7c", "fusion_lon": 0.0, "bike_id": "9ffdd58061e2c6e1de17c7c065ce4c7c", "is_disabled": 0, "is_reserved": 0}, {"rental_uris": {"ios": "https://dc.lft.to/lastmile_qr_scan", "android": "https://dc.lft.to/lastmile_qr_scan"}, "lon": -77.11225766666666, "type": "electric_bike", "fusion_lat": 0.0, "lat": 38.8287955, "name": "adf94e57eade5a519a868d84cd271327", "fusion_lon": 0.0, "bike_id": "adf94e57eade5a519a868d84cd271327", "is_disabled": 0, "is_reserved": 0}, {"rental_uris": {"ios": "https://dc.lft.to/lastmile_qr_scan", "android": "https://dc.lft.to/lastmile_qr_scan"}, "lon": -76.93545533333334, "type": "electric_bike", "fusion_lat": 0.0, "lat": 38.95552583333333, "name": "beccca6e813bc65b94a3fd8e6edfb57c", "fusion_lon": 0.0, "bike_id": "beccca6e813bc65b94a3fd8e6edfb57c", "is_disabled": 0, "is_reserved": 0}, {"rental_uris": {"ios": "https://dc.lft.to/lastmile_qr_scan", "android": "https://dc.lft.to/lastmile_qr_scan"}, "lon": -77.00705666666667, "type": "electric_scooter", "fusion_lat": 0.0, "lat": 38.90584166666667, "name": "61d878b06b24da492482cb82a302eb39", "fusion_lon": 0.0, "bike_id": "61d878b06b24da492482cb82a302eb39", "is_disabled": 0, "is_reserved": 0}, {"rental_uris": {"ios": "https://dc.lft.to/lastmile_qr_scan", "android": "https://dc.lft.to/lastmile_qr_scan"}, "lon": -77.05006233333333, "type": "electric_scooter", "fusion_lat": 0.0, "lat": 38.898998166666665, "name": "777b8147c0084ae9ff524af1195864f5", "fusion_lon": 0.0, "bike_id": "777b8147c0084ae9ff524af1195864f5", "is_disabled": 0, "is_reserved": 0}, {"rental_uris": {"ios": "https://dc.lft.to/lastmile_qr_scan", "android": "https://dc.lft.to/lastmile_qr_scan"}, "lon": -76.99487266666667, "type": "electric_scooter", "fusion_lat": 0.0, "lat": 38.93201633333334, "name": "b003daf85bf7c74556fe215e79f0bb11", "fusion_lon": 0.0, "bike_id": "b003daf85bf7c74556fe215e79f0bb11", "is_disabled": 0, "is_reserved": 0}, {"rental_uris": {"ios": "https://dc.lft.to/lastmile_qr_scan", "android": "https://dc.lft.to/lastmile_qr_scan"}, "lon": -77.02216016666667, "type": "electric_scooter", "fusion_lat": 0.0, "lat": 38.905768, "name": "4a3c97aecc4f1b96782e2f391591a6db", "fusion_lon": 0.0, "bike_id": "4a3c97aecc4f1b96782e2f391591a6db", "is_disabled": 0, "is_reserved": 0}, {"rental_uris": {"ios": "https://dc.lft.to/lastmile_qr_scan", "android": "https://dc.lft.to/lastmile_qr_scan"}, "lon": -77.03923466666667, "type": "electric_scooter", "fusion_lat": 0.0, "lat": 38.898550666666665, "name": "2f83f3f34122184e6e28f316fdc4a4e8", "fusion_lon": 0.0, "bike_id": "2f83f3f34122184e6e28f316fdc4a4e8", "is_disabled": 0, "is_reserved": 0}, {"rental_uris": {"ios": "https://dc.lft.to/lastmile_qr_scan", "android": "https://dc.lft.to/lastmile_qr_scan"}, "lon": -77.02422033333333, "type": "electric_scooter", "fusion_lat": 0.0, "lat": 38.91708783333333, "name": "a60c4a7516d89ca9c89f67fd6409ebe5", "fusion_lon": 0.0, "bike_id": "a60c4a7516d89ca9c89f67fd6409ebe5", "is_disabled": 0, "is_reserved": 0}, {"rental_uris": {"ios": "https://dc.lft.to/lastmile_qr_scan", "android": "https://dc.lft.to/lastmile_qr_scan"}, "lon": -77.02517283333333, "type": "electric_scooter", "fusion_lat": 0.0, "lat": 38.93096233333333, "name": "f7c992452134f6052228b69331b26294", "fusion_lon": 0.0, "bike_id": "f7c992452134f6052228b69331b26294", "is_disabled": 0, "is_reserved": 0}, {"rental_uris": {"ios": "https://dc.lft.to/lastmile_qr_scan", "android": "https://dc.lft.to/lastmile_qr_scan"}, "lon": -77.03133266666667, "type": "electric_scooter", "fusion_lat": 0.0, "lat": 38.92377883333333, "name": "d7a8948526d1455fc1ed17f0e48df775", "fusion_lon": 0.0, "bike_id": "d7a8948526d1455fc1ed17f0e48df775", "is_disabled": 0, "is_reserved": 0}, {"rental_uris": {"ios": "https://dc.lft.to/lastmile_qr_scan", "android": "https://dc.lft.to/lastmile_qr_scan"}, "lon": -76.938237, "type": "electric_scooter", "fusion_lat": 0.0, "lat": 38.8975505, "name": "83058cf8a6551db56c5753e7f5b629c0", "fusion_lon": 0.0, "bike_id": "83058cf8a6551db56c5753e7f5b629c0", "is_disabled": 0, "is_reserved": 0}, {"rental_uris": {"ios": "https://dc.lft.to/lastmile_qr_scan", "android": "https://dc.lft.to/lastmile_qr_scan"}, "lon": -77.050029, "type": "electric_scooter", "fusion_lat": 0.0, "lat": 38.8923005, "name": "d05b716aa9f01d2df49af723214b073d", "fusion_lon": 0.0, "bike_id": "d05b716aa9f01d2df49af723214b073d", "is_disabled": 0, "is_reserved": 0}, {"rental_uris": {"ios": "https://dc.lft.to/lastmile_qr_scan", "android": "https://dc.lft.to/lastmile_qr_scan"}, "lon": -77.03425216666666, "type": "electric_scooter", "fusion_lat": 0.0, "lat": 38.9191275, "name": "8a95447f39adaadc73cf809a2fe31805", "fusion_lon": 0.0, "bike_id": "8a95447f39adaadc73cf809a2fe31805", "is_disabled": 0, "is_reserved": 0}, {"rental_uris": {"ios": "https://dc.lft.to/lastmile_qr_scan", "android": "https://dc.lft.to/lastmile_qr_scan"}, "lon": -77.00113466666667, "type": "electric_scooter", "fusion_lat": 0.0, "lat": 38.8943835, "name": "3933cec28363f1bc4eaae4d2dd1bd776", "fusion_lon": 0.0, "bike_id": "3933cec28363f1bc4eaae4d2dd1bd776", "is_disabled": 0, "is_reserved": 0}, {"rental_uris": {"ios": "https://dc.lft.to/lastmile_qr_scan", "android": "https://dc.lft.to/lastmile_qr_scan"}, "lon": -77.04421533333333, "type": "electric_scooter", "fusion_lat": 0.0, "lat": 38.92118816666667, "name": "117198de8f6297a4a7c6e1b99b166161", "fusion_lon": 0.0, "bike_id": "117198de8f6297a4a7c6e1b99b166161", "is_disabled": 0, "is_reserved": 0}, {"rental_uris": {"ios": "https://dc.lft.to/lastmile_qr_scan", "android": "https://dc.lft.to/lastmile_qr_scan"}, "lon": -77.03418483333333, "type": "electric_scooter", "fusion_lat": 0.0, "lat": 38.91924, "name": "c6cb40851a2e7885c7f1c014ebd2ff2c", "fusion_lon": 0.0, "bike_id": "c6cb40851a2e7885c7f1c014ebd2ff2c", "is_disabled": 0, "is_reserved": 0}, {"rental_uris": {"ios": "https://dc.lft.to/lastmile_qr_scan", "android": "https://dc.lft.to/lastmile_qr_scan"}, "lon": -77.03539966666666, "type": "electric_scooter", "fusion_lat": 0.0, "lat": 38.924104666666665, "name": "7df836d50aff897b75f6ecd15c973eaa", "fusion_lon": 0.0, "bike_id": "7df836d50aff897b75f6ecd15c973eaa", "is_disabled": 0, "is_reserved": 0}, {"rental_uris": {"ios": "https://dc.lft.to/lastmile_qr_scan", "android": "https://dc.lft.to/lastmile_qr_scan"}, "lon": -77.02720183333334, "type": "electric_scooter", "fusion_lat": 0.0, "lat": 38.89224683333333, "name": "35451216185129272c47a215e7325824", "fusion_lon": 0.0, "bike_id": "35451216185129272c47a215e7325824", "is_disabled": 0, "is_reserved": 0}, {"rental_uris": {"ios": "https://dc.lft.to/lastmile_qr_scan", "android": "https://dc.lft.to/lastmile_qr_scan"}, "lon": -76.93530816666667, "type": "electric_scooter", "fusion_lat": 0.0, "lat": 38.896784, "name": "99288156adc1469ce602ac08ab59e1ce", "fusion_lon": 0.0, "bike_id": "99288156adc1469ce602ac08ab59e1ce", "is_disabled": 0, "is_reserved": 0}, {"rental_uris": {"ios": "https://dc.lft.to/lastmile_qr_scan", "android": "https://dc.lft.to/lastmile_qr_scan"}, "lon": -77.06103316666666, "type": "electric_scooter", "fusion_lat": 0.0, "lat": 38.912208, "name": "d015c04f86eb63ad435e3904931113be", "fusion_lon": 0.0, "bike_id": "d015c04f86eb63ad435e3904931113be", "is_disabled": 0, "is_reserved": 0}, {"rental_uris": {"ios": "https://dc.lft.to/lastmile_qr_scan", "android": "https://dc.lft.to/lastmile_qr_scan"}, "lon": -77.0058755, "type": "electric_scooter", "fusion_lat": 0.0, "lat": 38.905718, "name": "927d6226d9482349e97797df63e04847", "fusion_lon": 0.0, "bike_id": "927d6226d9482349e97797df63e04847", "is_disabled": 0, "is_reserved": 0}, {"rental_uris": {"ios": "https://dc.lft.to/lastmile_qr_scan", "android": "https://dc.lft.to/lastmile_qr_scan"}, "lon": -77.04542183333334, "type": "electric_scooter", "fusion_lat": 0.0, "lat": 38.9193945, "name": "1a5ddb8ff8f441028a16146e7043c569", "fusion_lon": 0.0, "bike_id": "1a5ddb8ff8f441028a16146e7043c569", "is_disabled": 0, "is_reserved": 0}, {"rental_uris": {"ios": "https://dc.lft.to/lastmile_qr_scan", "android": "https://dc.lft.to/lastmile_qr_scan"}, "lon": -77.0257435, "type": "electric_scooter", "fusion_lat": 0.0, "lat": 38.884059666666666, "name": "019b1260561e1e67d6a877afa75e35c6", "fusion_lon": 0.0, "bike_id": "019b1260561e1e67d6a877afa75e35c6", "is_disabled": 0, "is_reserved": 0}, {"rental_uris": {"ios": "https://dc.lft.to/lastmile_qr_scan", "android": "https://dc.lft.to/lastmile_qr_scan"}, "lon": -77.0525035, "type": "electric_scooter", "fusion_lat": 0.0, "lat": 38.9101525, "name": "80014d137b656104f65375ab6b45f2ba", "fusion_lon": 0.0, "bike_id": "80014d137b656104f65375ab6b45f2ba", "is_disabled": 0, "is_reserved": 0}, {"rental_uris": {"ios": "https://dc.lft.to/lastmile_qr_scan", "android": "https://dc.lft.to/lastmile_qr_scan"}, "lon": -76.97328016666667, "type": "electric_bike", "fusion_lat": 0.0, "lat": 38.85066033333333, "name": "3d44937b331639edf2395cbc09efa4b9", "fusion_lon": 0.0, "bike_id": "3d44937b331639edf2395cbc09efa4b9", "is_disabled": 0, "is_reserved": 0}, {"rental_uris": {"ios": "https://dc.lft.to/lastmile_qr_scan", "android": "https://dc.lft.to/lastmile_qr_scan"}, "lon": -77.0318745, "type": "electric_scooter", "fusion_lat": 0.0, "lat": 38.91734733333333, "name": "3ac628e976440b3e7db9acfd32708806", "fusion_lon": 0.0, "bike_id": "3ac628e976440b3e7db9acfd32708806", "is_disabled": 0, "is_reserved": 0}, {"rental_uris": {"ios": "https://dc.lft.to/lastmile_qr_scan", "android": "https://dc.lft.to/lastmile_qr_scan"}, "lon": -77.03987016666666, "type": "electric_scooter", "fusion_lat": 0.0, "lat": 38.90287466666667, "name": "ddeb70cfcc9a5bff77c1fb1670b4ade6", "fusion_lon": 0.0, "bike_id": "ddeb70cfcc9a5bff77c1fb1670b4ade6", "is_disabled": 0, "is_reserved": 0}, {"rental_uris": {"ios": "https://dc.lft.to/lastmile_qr_scan", "android": "https://dc.lft.to/lastmile_qr_scan"}, "lon": -77.02727333333333, "type": "electric_scooter", "fusion_lat": 0.0, "lat": 38.924798333333335, "name": "4d91d4ff91e74a265eb730aaf165e15c", "fusion_lon": 0.0, "bike_id": "4d91d4ff91e74a265eb730aaf165e15c", "is_disabled": 0, "is_reserved": 0}, {"rental_uris": {"ios": "https://dc.lft.to/lastmile_qr_scan", "android": "https://dc.lft.to/lastmile_qr_scan"}, "lon": -77.04734, "type": "electric_scooter", "fusion_lat": 0.0, "lat": 38.907206, "name": "1477189b23d83864a0076f26b653cfc4", "fusion_lon": 0.0, "bike_id": "1477189b23d83864a0076f26b653cfc4", "is_disabled": 0, "is_reserved": 0}, {"rental_uris": {"ios": "https://dc.lft.to/lastmile_qr_scan", "android": "https://dc.lft.to/lastmile_qr_scan"}, "lon": -77.00894183333334, "type": "electric_scooter", "fusion_lat": 0.0, "lat": 38.92415716666667, "name": "668b7f031c922f9bbc444b5a44a7610f", "fusion_lon": 0.0, "bike_id": "668b7f031c922f9bbc444b5a44a7610f", "is_disabled": 0, "is_reserved": 0}, {"rental_uris": {"ios": "https://dc.lft.to/lastmile_qr_scan", "android": "https://dc.lft.to/lastmile_qr_scan"}, "lon": -77.00786416666666, "type": "electric_scooter", "fusion_lat": 0.0, "lat": 38.907551166666664, "name": "93c150aaf10efaf85df34389200d7f00", "fusion_lon": 0.0, "bike_id": "93c150aaf10efaf85df34389200d7f00", "is_disabled": 0, "is_reserved": 0}, {"rental_uris": {"ios": "https://dc.lft.to/lastmile_qr_scan", "android": "https://dc.lft.to/lastmile_qr_scan"}, "lon": -77.03212083333334, "type": "electric_scooter", "fusion_lat": 0.0, "lat": 38.9200735, "name": "c8d956a8a81d8f0e7e2727c45bc7e390", "fusion_lon": 0.0, "bike_id": "c8d956a8a81d8f0e7e2727c45bc7e390", "is_disabled": 0, "is_reserved": 0}, {"rental_uris": {"ios": "https://dc.lft.to/lastmile_qr_scan", "android": "https://dc.lft.to/lastmile_qr_scan"}, "lon": -76.98368866666667, "type": "electric_scooter", "fusion_lat": 0.0, "lat": 38.91529383333334, "name": "a81ab2dc65c3facae46f1ed7f7fe0a7f", "fusion_lon": 0.0, "bike_id": "a81ab2dc65c3facae46f1ed7f7fe0a7f", "is_disabled": 0, "is_reserved": 0}, {"rental_uris": {"ios": "https://dc.lft.to/lastmile_qr_scan", "android": "https://dc.lft.to/lastmile_qr_scan"}, "lon": -77.01226483333333, "type": "electric_scooter", "fusion_lat": 0.0, "lat": 38.8639675, "name": "758423b668eab6e2581004b90f41c6fb", "fusion_lon": 0.0, "bike_id": "758423b668eab6e2581004b90f41c6fb", "is_disabled": 0, "is_reserved": 0}, {"rental_uris": {"ios": "https://dc.lft.to/lastmile_qr_scan", "android": "https://dc.lft.to/lastmile_qr_scan"}, "lon": -77.00955783333333, "type": "electric_scooter", "fusion_lat": 0.0, "lat": 38.90733516666667, "name": "ced96f0cf5475ba4026455bc7050db07", "fusion_lon": 0.0, "bike_id": "ced96f0cf5475ba4026455bc7050db07", "is_disabled": 0, "is_reserved": 0}, {"rental_uris": {"ios": "https://dc.lft.to/lastmile_qr_scan", "android": "https://dc.lft.to/lastmile_qr_scan"}, "lon": -76.93347216666666, "type": "electric_scooter", "fusion_lat": 0.0, "lat": 38.899143, "name": "bb9f1d9932c00c1ff5698a908c63d063", "fusion_lon": 0.0, "bike_id": "bb9f1d9932c00c1ff5698a908c63d063", "is_disabled": 0, "is_reserved": 0}, {"rental_uris": {"ios": "https://dc.lft.to/lastmile_qr_scan", "android": "https://dc.lft.to/lastmile_qr_scan"}, "lon": -77.04083116666666, "type": "electric_scooter", "fusion_lat": 0.0, "lat": 38.9073125, "name": "2bddbdc061daf1c7d876dbb94ec9ce09", "fusion_lon": 0.0, "bike_id": "2bddbdc061daf1c7d876dbb94ec9ce09", "is_disabled": 0, "is_reserved": 0}, {"rental_uris": {"ios": "https://dc.lft.to/lastmile_qr_scan", "android": "https://dc.lft.to/lastmile_qr_scan"}, "lon": -77.02550816666667, "type": "electric_scooter", "fusion_lat": 0.0, "lat": 38.895004, "name": "5f6818fe43200f1083b2576b44c392de", "fusion_lon": 0.0, "bike_id": "5f6818fe43200f1083b2576b44c392de", "is_disabled": 0, "is_reserved": 0}, {"rental_uris": {"ios": "https://dc.lft.to/lastmile_qr_scan", "android": "https://dc.lft.to/lastmile_qr_scan"}, "lon": -77.04427166666666, "type": "electric_scooter", "fusion_lat": 0.0, "lat": 38.92602466666666, "name": "6a65cb3f4e26c772ccceeaaaaae807f1", "fusion_lon": 0.0, "bike_id": "6a65cb3f4e26c772ccceeaaaaae807f1", "is_disabled": 0, "is_reserved": 0}, {"rental_uris": {"ios": "https://dc.lft.to/lastmile_qr_scan", "android": "https://dc.lft.to/lastmile_qr_scan"}, "lon": -77.01357666666667, "type": "electric_scooter", "fusion_lat": 0.0, "lat": 38.95289566666667, "name": "9020d4266a573db42d12a41e779c0508", "fusion_lon": 0.0, "bike_id": "9020d4266a573db42d12a41e779c0508", "is_disabled": 0, "is_reserved": 0}, {"rental_uris": {"ios": "https://dc.lft.to/lastmile_qr_scan", "android": "https://dc.lft.to/lastmile_qr_scan"}, "lon": -77.024237, "type": "electric_scooter", "fusion_lat": 0.0, "lat": 38.89221766666667, "name": "661c3afbb2c2b38cbc79882eec6a93ac", "fusion_lon": 0.0, "bike_id": "661c3afbb2c2b38cbc79882eec6a93ac", "is_disabled": 0, "is_reserved": 0}, {"rental_uris": {"ios": "https://dc.lft.to/lastmile_qr_scan", "android": "https://dc.lft.to/lastmile_qr_scan"}, "lon": -77.04371783333333, "type": "electric_scooter", "fusion_lat": 0.0, "lat": 38.917966, "name": "ffaf09fac492c467df67b30c0c356b86", "fusion_lon": 0.0, "bike_id": "ffaf09fac492c467df67b30c0c356b86", "is_disabled": 0, "is_reserved": 0}, {"rental_uris": {"ios": "https://dc.lft.to/lastmile_qr_scan", "android": "https://dc.lft.to/lastmile_qr_scan"}, "lon": -77.0257325, "type": "electric_scooter", "fusion_lat": 0.0, "lat": 38.884232833333336, "name": "8cdf7cd8aacdfb65fa14fb4b535071fc", "fusion_lon": 0.0, "bike_id": "8cdf7cd8aacdfb65fa14fb4b535071fc", "is_disabled": 0, "is_reserved": 0}, {"rental_uris": {"ios": "https://dc.lft.to/lastmile_qr_scan", "android": "https://dc.lft.to/lastmile_qr_scan"}, "lon": -76.98516066666667, "type": "electric_scooter", "fusion_lat": 0.0, "lat": 38.90609533333333, "name": "9c28e989d2a95d861ebc883238b05461", "fusion_lon": 0.0, "bike_id": "9c28e989d2a95d861ebc883238b05461", "is_disabled": 0, "is_reserved": 0}, {"rental_uris": {"ios": "https://dc.lft.to/lastmile_qr_scan", "android": "https://dc.lft.to/lastmile_qr_scan"}, "lon": -76.9998215, "type": "electric_scooter", "fusion_lat": 0.0, "lat": 38.90935566666667, "name": "b742ef7f2ec30941e8d9aae0935e6458", "fusion_lon": 0.0, "bike_id": "b742ef7f2ec30941e8d9aae0935e6458", "is_disabled": 0, "is_reserved": 0}, {"rental_uris": {"ios": "https://dc.lft.to/lastmile_qr_scan", "android": "https://dc.lft.to/lastmile_qr_scan"}, "lon": -77.0187935, "type": "electric_scooter", "fusion_lat": 0.0, "lat": 38.9060805, "name": "359c45a8ff231594dddad78d61f0c60b", "fusion_lon": 0.0, "bike_id": "359c45a8ff231594dddad78d61f0c60b", "is_disabled": 0, "is_reserved": 0}, {"rental_uris": {"ios": "https://dc.lft.to/lastmile_qr_scan", "android": "https://dc.lft.to/lastmile_qr_scan"}, "lon": -77.00567083333334, "type": "electric_scooter", "fusion_lat": 0.0, "lat": 38.877023666666666, "name": "cded4f69901d219c61df2fe5a891cbcf", "fusion_lon": 0.0, "bike_id": "cded4f69901d219c61df2fe5a891cbcf", "is_disabled": 0, "is_reserved": 0}, {"rental_uris": {"ios": "https://dc.lft.to/lastmile_qr_scan", "android": "https://dc.lft.to/lastmile_qr_scan"}, "lon": -77.00217716666667, "type": "electric_scooter", "fusion_lat": 0.0, "lat": 38.90029783333333, "name": "358b63f9a82d33651bbe3687500c009a", "fusion_lon": 0.0, "bike_id": "358b63f9a82d33651bbe3687500c009a", "is_disabled": 0, "is_reserved": 0}, {"rental_uris": {"ios": "https://dc.lft.to/lastmile_qr_scan", "android": "https://dc.lft.to/lastmile_qr_scan"}, "lon": -77.0351285, "type": "electric_scooter", "fusion_lat": 0.0, "lat": 38.922184, "name": "d9fcbb85f8d0a3be01c4216fdbca4c72", "fusion_lon": 0.0, "bike_id": "d9fcbb85f8d0a3be01c4216fdbca4c72", "is_disabled": 0, "is_reserved": 0}, {"rental_uris": {"ios": "https://dc.lft.to/lastmile_qr_scan", "android": "https://dc.lft.to/lastmile_qr_scan"}, "lon": -77.04134283333333, "type": "electric_scooter", "fusion_lat": 0.0, "lat": 38.921681, "name": "68effeb473608fb03d9551aa54e5013b", "fusion_lon": 0.0, "bike_id": "68effeb473608fb03d9551aa54e5013b", "is_disabled": 0, "is_reserved": 0}, {"rental_uris": {"ios": "https://dc.lft.to/lastmile_qr_scan", "android": "https://dc.lft.to/lastmile_qr_scan"}, "lon": -76.99819833333333, "type": "electric_scooter", "fusion_lat": 0.0, "lat": 38.888754166666665, "name": "7df1a6791f439b238d225a47eecdaf03", "fusion_lon": 0.0, "bike_id": "7df1a6791f439b238d225a47eecdaf03", "is_disabled": 0, "is_reserved": 0}, {"rental_uris": {"ios": "https://dc.lft.to/lastmile_qr_scan", "android": "https://dc.lft.to/lastmile_qr_scan"}, "lon": -77.03561166666667, "type": "electric_bike", "fusion_lat": 0.0, "lat": 38.964737, "name": "a404ef816f74ac8f0e9058677f9e78aa", "fusion_lon": 0.0, "bike_id": "a404ef816f74ac8f0e9058677f9e78aa", "is_disabled": 0, "is_reserved": 0}, {"rental_uris": {"ios": "https://dc.lft.to/lastmile_qr_scan", "android": "https://dc.lft.to/lastmile_qr_scan"}, "lon": -77.0435135, "type": "electric_scooter", "fusion_lat": 0.0, "lat": 38.8965975, "name": "a3a15d6505594ce8f9aefe1de82cc674", "fusion_lon": 0.0, "bike_id": "a3a15d6505594ce8f9aefe1de82cc674", "is_disabled": 0, "is_reserved": 0}, {"rental_uris": {"ios": "https://dc.lft.to/lastmile_qr_scan", "android": "https://dc.lft.to/lastmile_qr_scan"}, "lon": -77.0162215, "type": "electric_scooter", "fusion_lat": 0.0, "lat": 38.907096833333334, "name": "52ee460f74c300bac5dded96f0d2b9d4", "fusion_lon": 0.0, "bike_id": "52ee460f74c300bac5dded96f0d2b9d4", "is_disabled": 0, "is_reserved": 0}, {"rental_uris": {"ios": "https://dc.lft.to/lastmile_qr_scan", "android": "https://dc.lft.to/lastmile_qr_scan"}, "lon": -77.018872, "type": "electric_scooter", "fusion_lat": 0.0, "lat": 38.91187083333333, "name": "3722155fc5e4ce428eb984ed8d33f769", "fusion_lon": 0.0, "bike_id": "3722155fc5e4ce428eb984ed8d33f769", "is_disabled": 0, "is_reserved": 0}, {"rental_uris": {"ios": "https://dc.lft.to/lastmile_qr_scan", "android": "https://dc.lft.to/lastmile_qr_scan"}, "lon": -77.15269416666666, "type": "electric_bike", "fusion_lat": 0.0, "lat": 39.105669166666665, "name": "8f5ead72ad3fee9794afe71cb64fe2db", "fusion_lon": 0.0, "bike_id": "8f5ead72ad3fee9794afe71cb64fe2db", "is_disabled": 0, "is_reserved": 0}, {"rental_uris": {"ios": "https://dc.lft.to/lastmile_qr_scan", "android": "https://dc.lft.to/lastmile_qr_scan"}, "lon": -76.95755083333333, "type": "electric_scooter", "fusion_lat": 0.0, "lat": 38.8842925, "name": "fe7bee305cad33014510cabb94b33952", "fusion_lon": 0.0, "bike_id": "fe7bee305cad33014510cabb94b33952", "is_disabled": 0, "is_reserved": 0}, {"rental_uris": {"ios": "https://dc.lft.to/lastmile_qr_scan", "android": "https://dc.lft.to/lastmile_qr_scan"}, "lon": -77.0140555, "type": "electric_scooter", "fusion_lat": 0.0, "lat": 38.928605, "name": "21a74d55e06bb2a23e489fbd1c679d9c", "fusion_lon": 0.0, "bike_id": "21a74d55e06bb2a23e489fbd1c679d9c", "is_disabled": 0, "is_reserved": 0}, {"rental_uris": {"ios": "https://dc.lft.to/lastmile_qr_scan", "android": "https://dc.lft.to/lastmile_qr_scan"}, "lon": -76.98327566666667, "type": "electric_scooter", "fusion_lat": 0.0, "lat": 38.86171183333333, "name": "f226e0ec70addec74dc499a166ea702b", "fusion_lon": 0.0, "bike_id": "f226e0ec70addec74dc499a166ea702b", "is_disabled": 0, "is_reserved": 0}, {"rental_uris": {"ios": "https://dc.lft.to/lastmile_qr_scan", "android": "https://dc.lft.to/lastmile_qr_scan"}, "lon": -77.02426116666666, "type": "electric_scooter", "fusion_lat": 0.0, "lat": 38.9170775, "name": "093a9cac0df0645a0d1d3e8ddf3a7b0e", "fusion_lon": 0.0, "bike_id": "093a9cac0df0645a0d1d3e8ddf3a7b0e", "is_disabled": 0, "is_reserved": 0}, {"rental_uris": {"ios": "https://dc.lft.to/lastmile_qr_scan", "android": "https://dc.lft.to/lastmile_qr_scan"}, "lon": -77.00264866666667, "type": "electric_scooter", "fusion_lat": 0.0, "lat": 38.87747733333333, "name": "7171c663fd732154a07ad8f2134a2bd1", "fusion_lon": 0.0, "bike_id": "7171c663fd732154a07ad8f2134a2bd1", "is_disabled": 0, "is_reserved": 0}, {"rental_uris": {"ios": "https://dc.lft.to/lastmile_qr_scan", "android": "https://dc.lft.to/lastmile_qr_scan"}, "lon": -77.02968033333333, "type": "electric_scooter", "fusion_lat": 0.0, "lat": 38.922554166666664, "name": "56cb8eea74508f8867439b69f5979929", "fusion_lon": 0.0, "bike_id": "56cb8eea74508f8867439b69f5979929", "is_disabled": 0, "is_reserved": 0}, {"rental_uris": {"ios": "https://dc.lft.to/lastmile_qr_scan", "android": "https://dc.lft.to/lastmile_qr_scan"}, "lon": -77.02361883333333, "type": "electric_scooter", "fusion_lat": 0.0, "lat": 38.925141833333335, "name": "7f1b5b4b39ef25ffc91d7f97e02956e3", "fusion_lon": 0.0, "bike_id": "7f1b5b4b39ef25ffc91d7f97e02956e3", "is_disabled": 0, "is_reserved": 0}, {"rental_uris": {"ios": "https://dc.lft.to/lastmile_qr_scan", "android": "https://dc.lft.to/lastmile_qr_scan"}, "lon": -77.04179416666666, "type": "electric_scooter", "fusion_lat": 0.0, "lat": 38.90333283333333, "name": "b6c483caea644ae6260997db68465f64", "fusion_lon": 0.0, "bike_id": "b6c483caea644ae6260997db68465f64", "is_disabled": 0, "is_reserved": 0}, {"rental_uris": {"ios": "https://dc.lft.to/lastmile_qr_scan", "android": "https://dc.lft.to/lastmile_qr_scan"}, "lon": -77.02534733333333, "type": "electric_scooter", "fusion_lat": 0.0, "lat": 38.91821633333333, "name": "b2c082788516f4e89420777831eb0d70", "fusion_lon": 0.0, "bike_id": "b2c082788516f4e89420777831eb0d70", "is_disabled": 0, "is_reserved": 0}, {"rental_uris": {"ios": "https://dc.lft.to/lastmile_qr_scan", "android": "https://dc.lft.to/lastmile_qr_scan"}, "lon": -77.04171383333333, "type": "electric_scooter", "fusion_lat": 0.0, "lat": 38.91927783333333, "name": "4238c9a226cd75bc2e3e6d62ed99a32b", "fusion_lon": 0.0, "bike_id": "4238c9a226cd75bc2e3e6d62ed99a32b", "is_disabled": 0, "is_reserved": 0}, {"rental_uris": {"ios": "https://dc.lft.to/lastmile_qr_scan", "android": "https://dc.lft.to/lastmile_qr_scan"}, "lon": -77.03000083333333, "type": "electric_scooter", "fusion_lat": 0.0, "lat": 38.910249666666665, "name": "258028fd51f0ba61490fc8e99a60a1b6", "fusion_lon": 0.0, "bike_id": "258028fd51f0ba61490fc8e99a60a1b6", "is_disabled": 0, "is_reserved": 0}, {"rental_uris": {"ios": "https://dc.lft.to/lastmile_qr_scan", "android": "https://dc.lft.to/lastmile_qr_scan"}, "lon": -77.038523, "type": "electric_scooter", "fusion_lat": 0.0, "lat": 38.92643833333333, "name": "179823d3a718487bd17a0d8ec54efaf3", "fusion_lon": 0.0, "bike_id": "179823d3a718487bd17a0d8ec54efaf3", "is_disabled": 0, "is_reserved": 0}, {"rental_uris": {"ios": "https://dc.lft.to/lastmile_qr_scan", "android": "https://dc.lft.to/lastmile_qr_scan"}, "lon": -77.0366265, "type": "electric_scooter", "fusion_lat": 0.0, "lat": 38.91315683333333, "name": "9e681e6b9a9e830c4d6b8fd0480cb54a", "fusion_lon": 0.0, "bike_id": "9e681e6b9a9e830c4d6b8fd0480cb54a", "is_disabled": 0, "is_reserved": 0}, {"rental_uris": {"ios": "https://dc.lft.to/lastmile_qr_scan", "android": "https://dc.lft.to/lastmile_qr_scan"}, "lon": -77.0548365, "type": "electric_scooter", "fusion_lat": 0.0, "lat": 38.899689333333335, "name": "2ff76e856221f56d673ce59785bff477", "fusion_lon": 0.0, "bike_id": "2ff76e856221f56d673ce59785bff477", "is_disabled": 0, "is_reserved": 0}, {"rental_uris": {"ios": "https://dc.lft.to/lastmile_qr_scan", "android": "https://dc.lft.to/lastmile_qr_scan"}, "lon": -77.045431, "type": "electric_scooter", "fusion_lat": 0.0, "lat": 38.894783333333336, "name": "c7be1fdf4be62643324311e0e1c69577", "fusion_lon": 0.0, "bike_id": "c7be1fdf4be62643324311e0e1c69577", "is_disabled": 0, "is_reserved": 0}, {"rental_uris": {"ios": "https://dc.lft.to/lastmile_qr_scan", "android": "https://dc.lft.to/lastmile_qr_scan"}, "lon": -77.032019, "type": "electric_scooter", "fusion_lat": 0.0, "lat": 38.89834283333333, "name": "08ca645ec4ace7f346140955fc032cb0", "fusion_lon": 0.0, "bike_id": "08ca645ec4ace7f346140955fc032cb0", "is_disabled": 0, "is_reserved": 0}, {"rental_uris": {"ios": "https://dc.lft.to/lastmile_qr_scan", "android": "https://dc.lft.to/lastmile_qr_scan"}, "lon": -77.02710983333333, "type": "electric_scooter", "fusion_lat": 0.0, "lat": 38.9093975, "name": "0d9fe1671d057655e3a32408e75aaef8", "fusion_lon": 0.0, "bike_id": "0d9fe1671d057655e3a32408e75aaef8", "is_disabled": 0, "is_reserved": 0}, {"rental_uris": {"ios": "https://dc.lft.to/lastmile_qr_scan", "android": "https://dc.lft.to/lastmile_qr_scan"}, "lon": -76.98353483333334, "type": "electric_scooter", "fusion_lat": 0.0, "lat": 38.91534933333333, "name": "611f905c0596a5e8d7188911b2de7185", "fusion_lon": 0.0, "bike_id": "611f905c0596a5e8d7188911b2de7185", "is_disabled": 0, "is_reserved": 0}, {"rental_uris": {"ios": "https://dc.lft.to/lastmile_qr_scan", "android": "https://dc.lft.to/lastmile_qr_scan"}, "lon": -77.02718616666667, "type": "electric_scooter", "fusion_lat": 0.0, "lat": 38.9067865, "name": "e11aad141c92cb298365a550f7a71c15", "fusion_lon": 0.0, "bike_id": "e11aad141c92cb298365a550f7a71c15", "is_disabled": 0, "is_reserved": 0}, {"rental_uris": {"ios": "https://dc.lft.to/lastmile_qr_scan", "android": "https://dc.lft.to/lastmile_qr_scan"}, "lon": -77.03209133333333, "type": "electric_scooter", "fusion_lat": 0.0, "lat": 38.90035816666666, "name": "fd0b96d4070b7eb39241cfcbac86e582", "fusion_lon": 0.0, "bike_id": "fd0b96d4070b7eb39241cfcbac86e582", "is_disabled": 0, "is_reserved": 0}, {"rental_uris": {"ios": "https://dc.lft.to/lastmile_qr_scan", "android": "https://dc.lft.to/lastmile_qr_scan"}, "lon": -77.02849366666666, "type": "electric_scooter", "fusion_lat": 0.0, "lat": 38.934529166666664, "name": "cdcec50d5c9ad422fbf5608ed996f4ab", "fusion_lon": 0.0, "bike_id": "cdcec50d5c9ad422fbf5608ed996f4ab", "is_disabled": 0, "is_reserved": 0}, {"rental_uris": {"ios": "https://dc.lft.to/lastmile_qr_scan", "android": "https://dc.lft.to/lastmile_qr_scan"}, "lon": -77.02651016666667, "type": "electric_scooter", "fusion_lat": 0.0, "lat": 38.88111216666667, "name": "431ad8b3fabb54065b4339f944e9f06f", "fusion_lon": 0.0, "bike_id": "431ad8b3fabb54065b4339f944e9f06f", "is_disabled": 0, "is_reserved": 0}, {"rental_uris": {"ios": "https://dc.lft.to/lastmile_qr_scan", "android": "https://dc.lft.to/lastmile_qr_scan"}, "lon": -77.07306, "type": "electric_scooter", "fusion_lat": 0.0, "lat": 38.936141, "name": "caab1feaf2108f3c019141f2601deea1", "fusion_lon": 0.0, "bike_id": "caab1feaf2108f3c019141f2601deea1", "is_disabled": 0, "is_reserved": 0}, {"rental_uris": {"ios": "https://dc.lft.to/lastmile_qr_scan", "android": "https://dc.lft.to/lastmile_qr_scan"}, "lon": -77.00642616666667, "type": "electric_scooter", "fusion_lat": 0.0, "lat": 38.8764515, "name": "08478b75a8409caf86a223c5e0d34e19", "fusion_lon": 0.0, "bike_id": "08478b75a8409caf86a223c5e0d34e19", "is_disabled": 0, "is_reserved": 0}, {"rental_uris": {"ios": "https://dc.lft.to/lastmile_qr_scan", "android": "https://dc.lft.to/lastmile_qr_scan"}, "lon": -76.99066966666666, "type": "electric_scooter", "fusion_lat": 0.0, "lat": 38.863691, "name": "732d1b550d958e3e4088cb0cb24a6c47", "fusion_lon": 0.0, "bike_id": "732d1b550d958e3e4088cb0cb24a6c47", "is_disabled": 0, "is_reserved": 0}, {"rental_uris": {"ios": "https://dc.lft.to/lastmile_qr_scan", "android": "https://dc.lft.to/lastmile_qr_scan"}, "lon": -77.03307166666667, "type": "electric_scooter", "fusion_lat": 0.0, "lat": 38.909052833333334, "name": "dec16a8c904f2deedb1f2c12232c5aaf", "fusion_lon": 0.0, "bike_id": "dec16a8c904f2deedb1f2c12232c5aaf", "is_disabled": 0, "is_reserved": 0}, {"rental_uris": {"ios": "https://dc.lft.to/lastmile_qr_scan", "android": "https://dc.lft.to/lastmile_qr_scan"}, "lon": -77.026383, "type": "electric_scooter", "fusion_lat": 0.0, "lat": 38.92787766666667, "name": "ef2bbb4768c5a23640b732ca3fdf33e1", "fusion_lon": 0.0, "bike_id": "ef2bbb4768c5a23640b732ca3fdf33e1", "is_disabled": 0, "is_reserved": 0}, {"rental_uris": {"ios": "https://dc.lft.to/lastmile_qr_scan", "android": "https://dc.lft.to/lastmile_qr_scan"}, "lon": -77.05513266666667, "type": "electric_scooter", "fusion_lat": 0.0, "lat": 38.930014166666666, "name": "49fdb21c764f23fbdda6927811200eb3", "fusion_lon": 0.0, "bike_id": "49fdb21c764f23fbdda6927811200eb3", "is_disabled": 0, "is_reserved": 0}, {"rental_uris": {"ios": "https://dc.lft.to/lastmile_qr_scan", "android": "https://dc.lft.to/lastmile_qr_scan"}, "lon": -76.996315, "type": "electric_scooter", "fusion_lat": 0.0, "lat": 38.88551833333333, "name": "a39e5e4ef3781f59fb0852f842394417", "fusion_lon": 0.0, "bike_id": "a39e5e4ef3781f59fb0852f842394417", "is_disabled": 0, "is_reserved": 0}, {"rental_uris": {"ios": "https://dc.lft.to/lastmile_qr_scan", "android": "https://dc.lft.to/lastmile_qr_scan"}, "lon": -77.04487016666667, "type": "electric_scooter", "fusion_lat": 0.0, "lat": 38.909360166666666, "name": "2d0c4235d9ffca6230e57d3e392e4ba5", "fusion_lon": 0.0, "bike_id": "2d0c4235d9ffca6230e57d3e392e4ba5", "is_disabled": 0, "is_reserved": 0}, {"rental_uris": {"ios": "https://dc.lft.to/lastmile_qr_scan", "android": "https://dc.lft.to/lastmile_qr_scan"}, "lon": -77.00577633333333, "type": "electric_scooter", "fusion_lat": 0.0, "lat": 38.84495033333334, "name": "1ee6525b6984b6ed4c7a2e323d78bb24", "fusion_lon": 0.0, "bike_id": "1ee6525b6984b6ed4c7a2e323d78bb24", "is_disabled": 0, "is_reserved": 0}, {"rental_uris": {"ios": "https://dc.lft.to/lastmile_qr_scan", "android": "https://dc.lft.to/lastmile_qr_scan"}, "lon": -77.02389216666667, "type": "electric_scooter", "fusion_lat": 0.0, "lat": 38.95736633333333, "name": "ed65e26dd1dcb383d01527c6f1af6d14", "fusion_lon": 0.0, "bike_id": "ed65e26dd1dcb383d01527c6f1af6d14", "is_disabled": 0, "is_reserved": 0}, {"rental_uris": {"ios": "https://dc.lft.to/lastmile_qr_scan", "android": "https://dc.lft.to/lastmile_qr_scan"}, "lon": -77.050073, "type": "electric_scooter", "fusion_lat": 0.0, "lat": 38.901609, "name": "3cd9572bc555891bb2bb567251da12e3", "fusion_lon": 0.0, "bike_id": "3cd9572bc555891bb2bb567251da12e3", "is_disabled": 0, "is_reserved": 0}, {"rental_uris": {"ios": "https://dc.lft.to/lastmile_qr_scan", "android": "https://dc.lft.to/lastmile_qr_scan"}, "lon": -76.99251233333334, "type": "electric_scooter", "fusion_lat": 0.0, "lat": 38.919827833333336, "name": "b339695e84ea324bff24b0008bb18c3c", "fusion_lon": 0.0, "bike_id": "b339695e84ea324bff24b0008bb18c3c", "is_disabled": 0, "is_reserved": 0}, {"rental_uris": {"ios": "https://dc.lft.to/lastmile_qr_scan", "android": "https://dc.lft.to/lastmile_qr_scan"}, "lon": -76.98721283333333, "type": "electric_scooter", "fusion_lat": 0.0, "lat": 38.867131, "name": "efe79d2810e4445237741acd9ec7c2af", "fusion_lon": 0.0, "bike_id": "efe79d2810e4445237741acd9ec7c2af", "is_disabled": 0, "is_reserved": 0}, {"rental_uris": {"ios": "https://dc.lft.to/lastmile_qr_scan", "android": "https://dc.lft.to/lastmile_qr_scan"}, "lon": -77.03508083333334, "type": "electric_scooter", "fusion_lat": 0.0, "lat": 38.923483833333336, "name": "3455fd3f241116d0fbee70ea0b223e64", "fusion_lon": 0.0, "bike_id": "3455fd3f241116d0fbee70ea0b223e64", "is_disabled": 0, "is_reserved": 0}, {"rental_uris": {"ios": "https://dc.lft.to/lastmile_qr_scan", "android": "https://dc.lft.to/lastmile_qr_scan"}, "lon": -77.0386335, "type": "electric_scooter", "fusion_lat": 0.0, "lat": 38.9155615, "name": "809cc80a431d3ad1470d8038ab95a1f1", "fusion_lon": 0.0, "bike_id": "809cc80a431d3ad1470d8038ab95a1f1", "is_disabled": 0, "is_reserved": 0}, {"rental_uris": {"ios": "https://dc.lft.to/lastmile_qr_scan", "android": "https://dc.lft.to/lastmile_qr_scan"}, "lon": -77.07169283333333, "type": "electric_scooter", "fusion_lat": 0.0, "lat": 38.91450716666667, "name": "9516ae088de153769a4f3b6ccf6156c5", "fusion_lon": 0.0, "bike_id": "9516ae088de153769a4f3b6ccf6156c5", "is_disabled": 0, "is_reserved": 0}, {"rental_uris": {"ios": "https://dc.lft.to/lastmile_qr_scan", "android": "https://dc.lft.to/lastmile_qr_scan"}, "lon": -77.02599216666667, "type": "electric_scooter", "fusion_lat": 0.0, "lat": 38.90750383333334, "name": "5fe25bb78b4d3cf5d4d0e80bb20da3c4", "fusion_lon": 0.0, "bike_id": "5fe25bb78b4d3cf5d4d0e80bb20da3c4", "is_disabled": 0, "is_reserved": 0}, {"rental_uris": {"ios": "https://dc.lft.to/lastmile_qr_scan", "android": "https://dc.lft.to/lastmile_qr_scan"}, "lon": -76.98091766666667, "type": "electric_bike", "fusion_lat": 0.0, "lat": 38.963606, "name": "a928bd9e7ee382a2d8a54681f4745c96", "fusion_lon": 0.0, "bike_id": "a928bd9e7ee382a2d8a54681f4745c96", "is_disabled": 0, "is_reserved": 0}, {"rental_uris": {"ios": "https://dc.lft.to/lastmile_qr_scan", "android": "https://dc.lft.to/lastmile_qr_scan"}, "lon": -77.04452466666666, "type": "electric_scooter", "fusion_lat": 0.0, "lat": 38.91890333333333, "name": "91e13618069af725c5e7b70ce3566813", "fusion_lon": 0.0, "bike_id": "91e13618069af725c5e7b70ce3566813", "is_disabled": 0, "is_reserved": 0}, {"rental_uris": {"ios": "https://dc.lft.to/lastmile_qr_scan", "android": "https://dc.lft.to/lastmile_qr_scan"}, "lon": -77.0440595, "type": "electric_scooter", "fusion_lat": 0.0, "lat": 38.905974666666665, "name": "08fff3117d562a19636100f89ed073ae", "fusion_lon": 0.0, "bike_id": "08fff3117d562a19636100f89ed073ae", "is_disabled": 0, "is_reserved": 0}, {"rental_uris": {"ios": "https://dc.lft.to/lastmile_qr_scan", "android": "https://dc.lft.to/lastmile_qr_scan"}, "lon": -77.03008383333334, "type": "electric_scooter", "fusion_lat": 0.0, "lat": 38.919234333333335, "name": "68dc0950c2ab99c13be891717912218f", "fusion_lon": 0.0, "bike_id": "68dc0950c2ab99c13be891717912218f", "is_disabled": 0, "is_reserved": 0}, {"rental_uris": {"ios": "https://dc.lft.to/lastmile_qr_scan", "android": "https://dc.lft.to/lastmile_qr_scan"}, "lon": -77.0271515, "type": "electric_scooter", "fusion_lat": 0.0, "lat": 38.918229, "name": "cc9174baa2ff49d525d75078f5d82581", "fusion_lon": 0.0, "bike_id": "cc9174baa2ff49d525d75078f5d82581", "is_disabled": 0, "is_reserved": 0}, {"rental_uris": {"ios": "https://dc.lft.to/lastmile_qr_scan", "android": "https://dc.lft.to/lastmile_qr_scan"}, "lon": -76.996285, "type": "electric_scooter", "fusion_lat": 0.0, "lat": 38.84683716666667, "name": "c0d7c48e6282d50ac213a74ca6214ca7", "fusion_lon": 0.0, "bike_id": "c0d7c48e6282d50ac213a74ca6214ca7", "is_disabled": 0, "is_reserved": 0}, {"rental_uris": {"ios": "https://dc.lft.to/lastmile_qr_scan", "android": "https://dc.lft.to/lastmile_qr_scan"}, "lon": -77.032669, "type": "electric_scooter", "fusion_lat": 0.0, "lat": 38.934510333333336, "name": "e8b579ecdde71ea2979343fcd174da36", "fusion_lon": 0.0, "bike_id": "e8b579ecdde71ea2979343fcd174da36", "is_disabled": 0, "is_reserved": 0}, {"rental_uris": {"ios": "https://dc.lft.to/lastmile_qr_scan", "android": "https://dc.lft.to/lastmile_qr_scan"}, "lon": -77.05022416666667, "type": "electric_scooter", "fusion_lat": 0.0, "lat": 38.923557, "name": "3b9bb8b6002e81b6d4854bd12a59acec", "fusion_lon": 0.0, "bike_id": "3b9bb8b6002e81b6d4854bd12a59acec", "is_disabled": 0, "is_reserved": 0}, {"rental_uris": {"ios": "https://dc.lft.to/lastmile_qr_scan", "android": "https://dc.lft.to/lastmile_qr_scan"}, "lon": -77.03666516666667, "type": "electric_scooter", "fusion_lat": 0.0, "lat": 38.91724516666667, "name": "7b505b7e77a50837e415324b1a000d47", "fusion_lon": 0.0, "bike_id": "7b505b7e77a50837e415324b1a000d47", "is_disabled": 0, "is_reserved": 0}, {"rental_uris": {"ios": "https://dc.lft.to/lastmile_qr_scan", "android": "https://dc.lft.to/lastmile_qr_scan"}, "lon": -77.04268816666666, "type": "electric_scooter", "fusion_lat": 0.0, "lat": 38.922394, "name": "35cd1bda94cc9afc258f8def316fd371", "fusion_lon": 0.0, "bike_id": "35cd1bda94cc9afc258f8def316fd371", "is_disabled": 0, "is_reserved": 0}, {"rental_uris": {"ios": "https://dc.lft.to/lastmile_qr_scan", "android": "https://dc.lft.to/lastmile_qr_scan"}, "lon": -77.043515, "type": "electric_scooter", "fusion_lat": 0.0, "lat": 38.93159416666667, "name": "12b41475cb7ca1265869043b445bdbcf", "fusion_lon": 0.0, "bike_id": "12b41475cb7ca1265869043b445bdbcf", "is_disabled": 0, "is_reserved": 0}, {"rental_uris": {"ios": "https://dc.lft.to/lastmile_qr_scan", "android": "https://dc.lft.to/lastmile_qr_scan"}, "lon": -77.038423, "type": "electric_scooter", "fusion_lat": 0.0, "lat": 38.902488, "name": "f460aefa660c567e83a5addfa9431a0b", "fusion_lon": 0.0, "bike_id": "f460aefa660c567e83a5addfa9431a0b", "is_disabled": 0, "is_reserved": 0}, {"rental_uris": {"ios": "https://dc.lft.to/lastmile_qr_scan", "android": "https://dc.lft.to/lastmile_qr_scan"}, "lon": -77.0920555, "type": "electric_scooter", "fusion_lat": 0.0, "lat": 38.91718733333333, "name": "83878673ae05eb235615b0f0b3b5f812", "fusion_lon": 0.0, "bike_id": "83878673ae05eb235615b0f0b3b5f812", "is_disabled": 0, "is_reserved": 0}, {"rental_uris": {"ios": "https://dc.lft.to/lastmile_qr_scan", "android": "https://dc.lft.to/lastmile_qr_scan"}, "lon": -77.0283535, "type": "electric_scooter", "fusion_lat": 0.0, "lat": 38.887680833333334, "name": "cb1b95cd6a4bcee00b57a9f371d7b087", "fusion_lon": 0.0, "bike_id": "cb1b95cd6a4bcee00b57a9f371d7b087", "is_disabled": 0, "is_reserved": 0}, {"rental_uris": {"ios": "https://dc.lft.to/lastmile_qr_scan", "android": "https://dc.lft.to/lastmile_qr_scan"}, "lon": -77.03263616666666, "type": "electric_scooter", "fusion_lat": 0.0, "lat": 38.93275933333334, "name": "49bfcd2e78c83a820bd1ec965d3b0623", "fusion_lon": 0.0, "bike_id": "49bfcd2e78c83a820bd1ec965d3b0623", "is_disabled": 0, "is_reserved": 0}, {"rental_uris": {"ios": "https://dc.lft.to/lastmile_qr_scan", "android": "https://dc.lft.to/lastmile_qr_scan"}, "lon": -77.01430333333333, "type": "electric_scooter", "fusion_lat": 0.0, "lat": 38.929921666666665, "name": "b9b22d64504ee32671288839f22290e6", "fusion_lon": 0.0, "bike_id": "b9b22d64504ee32671288839f22290e6", "is_disabled": 0, "is_reserved": 0}, {"rental_uris": {"ios": "https://dc.lft.to/lastmile_qr_scan", "android": "https://dc.lft.to/lastmile_qr_scan"},