{"data": {"bikes": [{"is_disabled": 0, "is_reserved": 0, "fusion_lat": 0.0, "lat": 38.93026033333334, "fusion_lon": 0.0, "rental_uris": {"ios": "https://dc.lft.to/lastmile_qr_scan", "android": "https://dc.lft.to/lastmile_qr_scan"}, "lon": -77.0233855, "bike_id": "2bf71e489978f4d1c91a13735a95b289", "type": "electric_scooter", "name": "2bf71e489978f4d1c91a13735a95b289"}, {"is_disabled": 0, "is_reserved": 0, "fusion_lat": 0.0, "lat": 38.943344, "fusion_lon": 0.0, "rental_uris": {"ios": "https://dc.lft.to/lastmile_qr_scan", "android": "https://dc.lft.to/lastmile_qr_scan"}, "lon": -77.02692066666667, "bike_id": "9dedab07b2ea9b099396dc1bc5ea9154", "type": "electric_scooter", "name": "9dedab07b2ea9b099396dc1bc5ea9154"}, {"is_disabled": 0, "is_reserved": 0, "fusion_lat": 0.0, "lat": 38.91417533333333, "fusion_lon": 0.0, "rental_uris": {"ios": "https://dc.lft.to/lastmile_qr_scan", "android": "https://dc.lft.to/lastmile_qr_scan"}, "lon": -77.0521295, "bike_id": "94eddb4e715cffd4bf10814661270d28", "type": "electric_scooter", "name": "94eddb4e715cffd4bf10814661270d28"}, {"is_disabled": 0, "is_reserved": 0, "fusion_lat": 0.0, "lat": 38.9051555, "fusion_lon": 0.0, "rental_uris": {"ios": "https://dc.lft.to/lastmile_qr_scan", "android": "https://dc.lft.to/lastmile_qr_scan"}, "lon": -76.95204516666666, "bike_id": "791c1753ac0a52fc26daf03e1560ba93", "type": "electric_scooter", "name": "791c1753ac0a52fc26daf03e1560ba93"}, {"is_disabled": 0, "is_reserved": 0, "fusion_lat": 0.0, "lat": 38.886225833333334, "fusion_lon": 0.0, "rental_uris": {"ios": "https://dc.lft.to/lastmile_qr_scan", "android": "https://dc.lft.to/lastmile_qr_scan"}, "lon": -76.92636733333333, "bike_id": "14a237cbec0f80dfdacc6ba7e9701fd0", "type": "electric_scooter", "name": "14a237cbec0f80dfdacc6ba7e9701fd0"}, {"is_disabled": 0, "is_reserved": 0, "fusion_lat": 0.0, "lat": 38.923650333333335, "fusion_lon": 0.0, "rental_uris": {"ios": "https://dc.lft.to/lastmile_qr_scan", "android": "https://dc.lft.to/lastmile_qr_scan"}, "lon": -77.02145233333333, "bike_id": "7a3ee6e3f05201238b2352bf6a879e2c", "type": "electric_scooter", "name": "7a3ee6e3f05201238b2352bf6a879e2c"}, {"is_disabled": 0, "is_reserved": 0, "fusion_lat": 0.0, "lat": 38.900007, "fusion_lon": 0.0, "rental_uris": {"ios": "https://dc.lft.to/lastmile_qr_scan", "android": "https://dc.lft.to/lastmile_qr_scan"}, "lon": -77.02715883333333, "bike_id": "6e03c153d66434d469d2c738e6c74cb9", "type": "electric_scooter", "name": "6e03c153d66434d469d2c738e6c74cb9"}, {"is_disabled": 0, "is_reserved": 0, "fusion_lat": 0.0, "lat": 39.026466, "fusion_lon": 0.0, "rental_uris": {"ios": "https://dc.lft.to/lastmile_qr_scan", "android": "https://dc.lft.to/lastmile_qr_scan"}, "lon": -77.03688566666666, "bike_id": "42e52b2c0fbb5fbef94cfeb5f6e390e5", "type": "electric_bike", "name": "42e52b2c0fbb5fbef94cfeb5f6e390e5"}, {"is_disabled": 0, "is_reserved": 0, "fusion_lat": 0.0, "lat": 38.93061066666667, "fusion_lon": 0.0, "rental_uris": {"ios": "https://dc.lft.to/lastmile_qr_scan", "android": "https://dc.lft.to/lastmile_qr_scan"}, "lon": -77.0405425, "bike_id": "65248c105888e7c3363f9f7f5bbe49d5", "type": "electric_scooter", "name": "65248c105888e7c3363f9f7f5bbe49d5"}, {"is_disabled": 0, "is_reserved": 0, "fusion_lat": 0.0, "lat": 38.914738166666666, "fusion_lon": 0.0, "rental_uris": {"ios": "https://dc.lft.to/lastmile_qr_scan", "android": "https://dc.lft.to/lastmile_qr_scan"}, "lon": -77.0092135, "bike_id": "c3706a5b9697719b86c05298cde36030", "type": "electric_scooter", "name": "c3706a5b9697719b86c05298cde36030"}, {"is_disabled": 0, "is_reserved": 0, "fusion_lat": 0.0, "lat": 38.91465433333333, "fusion_lon": 0.0, "rental_uris": {"ios": "https://dc.lft.to/lastmile_qr_scan", "android": "https://dc.lft.to/lastmile_qr_scan"}, "lon": -77.0319295, "bike_id": "42d92f6d96369ed294b05e07f61064f3", "type": "electric_scooter", "name": "42d92f6d96369ed294b05e07f61064f3"}, {"is_disabled": 0, "is_reserved": 0, "fusion_lat": 0.0, "lat": 38.92597633333333, "fusion_lon": 0.0, "rental_uris": {"ios": "https://dc.lft.to/lastmile_qr_scan", "android": "https://dc.lft.to/lastmile_qr_scan"}, "lon": -77.05316566666667, "bike_id": "7b914087125ec7514dac96988dea55ab", "type": "electric_scooter", "name": "7b914087125ec7514dac96988dea55ab"}, {"is_disabled": 0, "is_reserved": 0, "fusion_lat": 0.0, "lat": 38.902581166666664, "fusion_lon": 0.0, "rental_uris": {"ios": "https://dc.lft.to/lastmile_qr_scan", "android": "https://dc.lft.to/lastmile_qr_scan"}, "lon": -77.00166383333334, "bike_id": "fd502f0c53873e9b91fa3008b666bd28", "type": "electric_scooter", "name": "fd502f0c53873e9b91fa3008b666bd28"}, {"is_disabled": 0, "is_reserved": 0, "fusion_lat": 0.0, "lat": 38.90834316666667, "fusion_lon": 0.0, "rental_uris": {"ios": "https://dc.lft.to/lastmile_qr_scan", "android": "https://dc.lft.to/lastmile_qr_scan"}, "lon": -77.07304616666667, "bike_id": "b8991fcc62013e562619cee08886e74b", "type": "electric_scooter", "name": "b8991fcc62013e562619cee08886e74b"}, {"is_disabled": 0, "is_reserved": 0, "fusion_lat": 0.0, "lat": 38.920596, "fusion_lon": 0.0, "rental_uris": {"ios": "https://dc.lft.to/lastmile_qr_scan", "android": "https://dc.lft.to/lastmile_qr_scan"}, "lon": -77.02511016666666, "bike_id": "f57d477fd6d44dbe10551135a00a9dbe", "type": "electric_scooter", "name": "f57d477fd6d44dbe10551135a00a9dbe"}, {"is_disabled": 0, "is_reserved": 0, "fusion_lat": 0.0, "lat": 38.924765666666666, "fusion_lon": 0.0, "rental_uris": {"ios": "https://dc.lft.to/lastmile_qr_scan", "android": "https://dc.lft.to/lastmile_qr_scan"}, "lon": -77.02792066666666, "bike_id": "f0d05403b3b2a924725bf19418fabda2", "type": "electric_scooter", "name": "f0d05403b3b2a924725bf19418fabda2"}, {"is_disabled": 0, "is_reserved": 0, "fusion_lat": 0.0, "lat": 38.934528666666665, "fusion_lon": 0.0, "rental_uris": {"ios": "https://dc.lft.to/lastmile_qr_scan", "android": "https://dc.lft.to/lastmile_qr_scan"}, "lon": -77.02837266666667, "bike_id": "22f5eacbb306900d8ce57ff1ba035cc8", "type": "electric_scooter", "name": "22f5eacbb306900d8ce57ff1ba035cc8"}, {"is_disabled": 0, "is_reserved": 0, "fusion_lat": 0.0, "lat": 38.927863333333335, "fusion_lon": 0.0, "rental_uris": {"ios": "https://dc.lft.to/lastmile_qr_scan", "android": "https://dc.lft.to/lastmile_qr_scan"}, "lon": -77.03140166666667, "bike_id": "00c60022f21c2d54e86439f235008202", "type": "electric_scooter", "name": "00c60022f21c2d54e86439f235008202"}, {"is_disabled": 0, "is_reserved": 0, "fusion_lat": 0.0, "lat": 38.896909666666666, "fusion_lon": 0.0, "rental_uris": {"ios": "https://dc.lft.to/lastmile_qr_scan", "android": "https://dc.lft.to/lastmile_qr_scan"}, "lon": -77.02400016666667, "bike_id": "c23a8d972e79596d78bf808b0666c5ae", "type": "electric_scooter", "name": "c23a8d972e79596d78bf808b0666c5ae"}, {"is_disabled": 0, "is_reserved": 0, "fusion_lat": 0.0, "lat": 38.911098833333334, "fusion_lon": 0.0, "rental_uris": {"ios": "https://dc.lft.to/lastmile_qr_scan", "android": "https://dc.lft.to/lastmile_qr_scan"}, "lon": -77.0115905, "bike_id": "81c6c3d518f43d5cc0dac17b37648950", "type": "electric_scooter", "name": "81c6c3d518f43d5cc0dac17b37648950"}, {"is_disabled": 0, "is_reserved": 0, "fusion_lat": 0.0, "lat": 38.91725516666666, "fusion_lon": 0.0, "rental_uris": {"ios": "https://dc.lft.to/lastmile_qr_scan", "android": "https://dc.lft.to/lastmile_qr_scan"}, "lon": -77.03333283333333, "bike_id": "fc9c9d4859c25499369bada9f6afca37", "type": "electric_scooter", "name": "fc9c9d4859c25499369bada9f6afca37"}, {"is_disabled": 0, "is_reserved": 0, "fusion_lat": 0.0, "lat": 38.905867, "fusion_lon": 0.0, "rental_uris": {"ios": "https://dc.lft.to/lastmile_qr_scan", "android": "https://dc.lft.to/lastmile_qr_scan"}, "lon": -77.05154783333333, "bike_id": "3b99a4024d5d93ad36f524a1ecb12ff3", "type": "electric_scooter", "name": "3b99a4024d5d93ad36f524a1ecb12ff3"}, {"is_disabled": 0, "is_reserved": 0, "fusion_lat": 0.0, "lat": 38.84859433333333, "fusion_lon": 0.0, "rental_uris": {"ios": "https://dc.lft.to/lastmile_qr_scan", "android": "https://dc.lft.to/lastmile_qr_scan"}, "lon": -77.068316, "bike_id": "1982b242afc9f89915e4f6257d0a669c", "type": "electric_bike", "name": "1982b242afc9f89915e4f6257d0a669c"}, {"is_disabled": 0, "is_reserved": 0, "fusion_lat": 0.0, "lat": 38.927685833333335, "fusion_lon": 0.0, "rental_uris": {"ios": "https://dc.lft.to/lastmile_qr_scan", "android": "https://dc.lft.to/lastmile_qr_scan"}, "lon": -77.02885216666667, "bike_id": "1b7610107e888d3b669abfee69418c5c", "type": "electric_scooter", "name": "1b7610107e888d3b669abfee69418c5c"}, {"is_disabled": 0, "is_reserved": 0, "fusion_lat": 0.0, "lat": 38.8974165, "fusion_lon": 0.0, "rental_uris": {"ios": "https://dc.lft.to/lastmile_qr_scan", "android": "https://dc.lft.to/lastmile_qr_scan"}, "lon": -76.99219533333333, "bike_id": "7b447f22eccdd89696edfc875bb834d0", "type": "electric_bike", "name": "7b447f22eccdd89696edfc875bb834d0"}, {"is_disabled": 0, "is_reserved": 0, "fusion_lat": 0.0, "lat": 38.929009, "fusion_lon": 0.0, "rental_uris": {"ios": "https://dc.lft.to/lastmile_qr_scan", "android": "https://dc.lft.to/lastmile_qr_scan"}, "lon": -77.0325355, "bike_id": "6e5077e87f5cbcdaddb31d0f816e6e91", "type": "electric_scooter", "name": "6e5077e87f5cbcdaddb31d0f816e6e91"}, {"is_disabled": 0, "is_reserved": 0, "fusion_lat": 0.0, "lat": 38.91554683333333, "fusion_lon": 0.0, "rental_uris": {"ios": "https://dc.lft.to/lastmile_qr_scan", "android": "https://dc.lft.to/lastmile_qr_scan"}, "lon": -77.031723, "bike_id": "dc8ae0168db62a5fd78549f7f65b00f2", "type": "electric_scooter", "name": "dc8ae0168db62a5fd78549f7f65b00f2"}, {"is_disabled": 0, "is_reserved": 0, "fusion_lat": 0.0, "lat": 38.935879, "fusion_lon": 0.0, "rental_uris": {"ios": "https://dc.lft.to/lastmile_qr_scan", "android": "https://dc.lft.to/lastmile_qr_scan"}, "lon": -77.02857183333333, "bike_id": "95e43324aecdb1a3f9ec05c38201a6ce", "type": "electric_scooter", "name": "95e43324aecdb1a3f9ec05c38201a6ce"}, {"is_disabled": 0, "is_reserved": 0, "fusion_lat": 0.0, "lat": 38.91959766666667, "fusion_lon": 0.0, "rental_uris": {"ios": "https://dc.lft.to/lastmile_qr_scan", "android": "https://dc.lft.to/lastmile_qr_scan"}, "lon": -77.078758, "bike_id": "41875e39a7efd8f17f567f0219b98164", "type": "electric_scooter", "name": "41875e39a7efd8f17f567f0219b98164"}, {"is_disabled": 0, "is_reserved": 0, "fusion_lat": 0.0, "lat": 38.89728566666667, "fusion_lon": 0.0, "rental_uris": {"ios": "https://dc.lft.to/lastmile_qr_scan", "android": "https://dc.lft.to/lastmile_qr_scan"}, "lon": -77.02801733333334, "bike_id": "1cf1084698fa4bfc9f4c2ed1cd186484", "type": "electric_scooter", "name": "1cf1084698fa4bfc9f4c2ed1cd186484"}, {"is_disabled": 0, "is_reserved": 0, "fusion_lat": 0.0, "lat": 38.907804166666665, "fusion_lon": 0.0, "rental_uris": {"ios": "https://dc.lft.to/lastmile_qr_scan", "android": "https://dc.lft.to/lastmile_qr_scan"}, "lon": -77.001218, "bike_id": "551ddc2e69f657856c5427b087fcf84a", "type": "electric_scooter", "name": "551ddc2e69f657856c5427b087fcf84a"}, {"is_disabled": 0, "is_reserved": 0, "fusion_lat": 0.0, "lat": 38.91714483333333, "fusion_lon": 0.0, "rental_uris": {"ios": "https://dc.lft.to/lastmile_qr_scan", "android": "https://dc.lft.to/lastmile_qr_scan"}, "lon": -77.038583, "bike_id": "fc4973092f9f2cf30cc8f8b8f2318025", "type": "electric_scooter", "name": "fc4973092f9f2cf30cc8f8b8f2318025"}, {"is_disabled": 0, "is_reserved": 0, "fusion_lat": 0.0, "lat": 38.87963716666667, "fusion_lon": 0.0, "rental_uris": {"ios": "https://dc.lft.to/lastmile_qr_scan", "android": "https://dc.lft.to/lastmile_qr_scan"}, "lon": -77.005755, "bike_id": "b2f79d84b0b3ed0aad240d7d36baf07a", "type": "electric_scooter", "name": "b2f79d84b0b3ed0aad240d7d36baf07a"}, {"is_disabled": 0, "is_reserved": 0, "fusion_lat": 0.0, "lat": 38.920977666666666, "fusion_lon": 0.0, "rental_uris": {"ios": "https://dc.lft.to/lastmile_qr_scan", "android": "https://dc.lft.to/lastmile_qr_scan"}, "lon": -77.01799216666667, "bike_id": "f20c6b4259fe6883c364b2f63cc6286c", "type": "electric_scooter", "name": "f20c6b4259fe6883c364b2f63cc6286c"}, {"is_disabled": 0, "is_reserved": 0, "fusion_lat": 0.0, "lat": 38.879356333333334, "fusion_lon": 0.0, "rental_uris": {"ios": "https://dc.lft.to/lastmile_qr_scan", "android": "https://dc.lft.to/lastmile_qr_scan"}, "lon": -77.00780016666667, "bike_id": "bcfbbb0b0ebad4d10050d312c6ada5c7", "type": "electric_scooter", "name": "bcfbbb0b0ebad4d10050d312c6ada5c7"}, {"is_disabled": 0, "is_reserved": 0, "fusion_lat": 0.0, "lat": 38.92842616666667, "fusion_lon": 0.0, "rental_uris": {"ios": "https://dc.lft.to/lastmile_qr_scan", "android": "https://dc.lft.to/lastmile_qr_scan"}, "lon": -77.03733733333334, "bike_id": "5b69bf2768ca9898571f141480cd45f6", "type": "electric_scooter", "name": "5b69bf2768ca9898571f141480cd45f6"}, {"is_disabled": 0, "is_reserved": 0, "fusion_lat": 0.0, "lat": 38.9113275, "fusion_lon": 0.0, "rental_uris": {"ios": "https://dc.lft.to/lastmile_qr_scan", "android": "https://dc.lft.to/lastmile_qr_scan"}, "lon": -77.02204066666667, "bike_id": "35b1fd981b1a7d6a9079fdf232639a67", "type": "electric_scooter", "name": "35b1fd981b1a7d6a9079fdf232639a67"}, {"is_disabled": 0, "is_reserved": 0, "fusion_lat": 0.0, "lat": 38.95080933333333, "fusion_lon": 0.0, "rental_uris": {"ios": "https://dc.lft.to/lastmile_qr_scan", "android": "https://dc.lft.to/lastmile_qr_scan"}, "lon": -77.01202416666666, "bike_id": "ed4afad1b4965d83c6369cd919d75cac", "type": "electric_bike", "name": "ed4afad1b4965d83c6369cd919d75cac"}, {"is_disabled": 0, "is_reserved": 0, "fusion_lat": 0.0, "lat": 38.9232955, "fusion_lon": 0.0, "rental_uris": {"ios": "https://dc.lft.to/lastmile_qr_scan", "android": "https://dc.lft.to/lastmile_qr_scan"}, "lon": -77.00890483333333, "bike_id": "e401989a1002d92e81e00ba1246cd36f", "type": "electric_scooter", "name": "e401989a1002d92e81e00ba1246cd36f"}, {"is_disabled": 0, "is_reserved": 0, "fusion_lat": 0.0, "lat": 38.913440666666666, "fusion_lon": 0.0, "rental_uris": {"ios": "https://dc.lft.to/lastmile_qr_scan", "android": "https://dc.lft.to/lastmile_qr_scan"}, "lon": -77.002327, "bike_id": "50635ea0fafae3dd8b036d49b569c8a2", "type": "electric_scooter", "name": "50635ea0fafae3dd8b036d49b569c8a2"}, {"is_disabled": 0, "is_reserved": 0, "fusion_lat": 0.0, "lat": 38.89253633333333, "fusion_lon": 0.0, "rental_uris": {"ios": "https://dc.lft.to/lastmile_qr_scan", "android": "https://dc.lft.to/lastmile_qr_scan"}, "lon": -77.050265, "bike_id": "4ba03893f0aa8e66f33f2603dd3ea90d", "type": "electric_scooter", "name": "4ba03893f0aa8e66f33f2603dd3ea90d"}, {"is_disabled": 0, "is_reserved": 0, "fusion_lat": 0.0, "lat": 38.8919705, "fusion_lon": 0.0, "rental_uris": {"ios": "https://dc.lft.to/lastmile_qr_scan", "android": "https://dc.lft.to/lastmile_qr_scan"}, "lon": -77.02474483333333, "bike_id": "5c1a243b3808cff96d2f14420b704206", "type": "electric_scooter", "name": "5c1a243b3808cff96d2f14420b704206"}, {"is_disabled": 0, "is_reserved": 0, "fusion_lat": 0.0, "lat": 38.91767216666667, "fusion_lon": 0.0, "rental_uris": {"ios": "https://dc.lft.to/lastmile_qr_scan", "android": "https://dc.lft.to/lastmile_qr_scan"}, "lon": -77.00452866666667, "bike_id": "b8e818e3c3577072d66c6ddb6de5a24e", "type": "electric_scooter", "name": "b8e818e3c3577072d66c6ddb6de5a24e"}, {"is_disabled": 0, "is_reserved": 0, "fusion_lat": 0.0, "lat": 38.912044, "fusion_lon": 0.0, "rental_uris": {"ios": "https://dc.lft.to/lastmile_qr_scan", "android": "https://dc.lft.to/lastmile_qr_scan"}, "lon": -77.02099516666667, "bike_id": "b6c5ab58cbd73a1e434e37dbd013d2d2", "type": "electric_scooter", "name": "b6c5ab58cbd73a1e434e37dbd013d2d2"}, {"is_disabled": 0, "is_reserved": 0, "fusion_lat": 0.0, "lat": 38.921636, "fusion_lon": 0.0, "rental_uris": {"ios": "https://dc.lft.to/lastmile_qr_scan", "android": "https://dc.lft.to/lastmile_qr_scan"}, "lon": -77.036707, "bike_id": "d7cb72a0d6089dfd2f244aa113af6d92", "type": "electric_scooter", "name": "d7cb72a0d6089dfd2f244aa113af6d92"}, {"is_disabled": 0, "is_reserved": 0, "fusion_lat": 0.0, "lat": 38.876697666666665, "fusion_lon": 0.0, "rental_uris": {"ios": "https://dc.lft.to/lastmile_qr_scan", "android": "https://dc.lft.to/lastmile_qr_scan"}, "lon": -77.01761266666666, "bike_id": "16b2d83e09ef73204e93919e2dd96e66", "type": "electric_scooter", "name": "16b2d83e09ef73204e93919e2dd96e66"}, {"is_disabled": 0, "is_reserved": 0, "fusion_lat": 0.0, "lat": 38.92149916666666, "fusion_lon": 0.0, "rental_uris": {"ios": "https://dc.lft.to/lastmile_qr_scan", "android": "https://dc.lft.to/lastmile_qr_scan"}, "lon": -77.03469433333333, "bike_id": "2bd0208e58b732476386b2c916b184b7", "type": "electric_scooter", "name": "2bd0208e58b732476386b2c916b184b7"}, {"is_disabled": 0, "is_reserved": 0, "fusion_lat": 0.0, "lat": 38.90721666666666, "fusion_lon": 0.0, "rental_uris": {"ios": "https://dc.lft.to/lastmile_qr_scan", "android": "https://dc.lft.to/lastmile_qr_scan"}, "lon": -77.0531325, "bike_id": "69b236ca2d431ee5013aed19d0353771", "type": "electric_scooter", "name": "69b236ca2d431ee5013aed19d0353771"}, {"is_disabled": 0, "is_reserved": 0, "fusion_lat": 0.0, "lat": 38.9353185, "fusion_lon": 0.0, "rental_uris": {"ios": "https://dc.lft.to/lastmile_qr_scan", "android": "https://dc.lft.to/lastmile_qr_scan"}, "lon": -77.08164066666667, "bike_id": "dfdd01d58d96b5b8c83476784d594a80", "type": "electric_scooter", "name": "dfdd01d58d96b5b8c83476784d594a80"}, {"is_disabled": 0, "is_reserved": 0, "fusion_lat": 0.0, "lat": 38.91621383333333, "fusion_lon": 0.0, "rental_uris": {"ios": "https://dc.lft.to/lastmile_qr_scan", "android": "https://dc.lft.to/lastmile_qr_scan"}, "lon": -77.02406683333334, "bike_id": "d9329a00de8f9370a243a5c4f3c10b5c", "type": "electric_scooter", "name": "d9329a00de8f9370a243a5c4f3c10b5c"}, {"is_disabled": 0, "is_reserved": 0, "fusion_lat": 0.0, "lat": 38.9313355, "fusion_lon": 0.0, "rental_uris": {"ios": "https://dc.lft.to/lastmile_qr_scan", "android": "https://dc.lft.to/lastmile_qr_scan"}, "lon": -77.02808016666667, "bike_id": "0383ad635b1247574c376a87bc2df3d0", "type": "electric_scooter", "name": "0383ad635b1247574c376a87bc2df3d0"}, {"is_disabled": 0, "is_reserved": 0, "fusion_lat": 0.0, "lat": 38.93061333333333, "fusion_lon": 0.0, "rental_uris": {"ios": "https://dc.lft.to/lastmile_qr_scan", "android": "https://dc.lft.to/lastmile_qr_scan"}, "lon": -77.03195166666667, "bike_id": "b077c03c5e1aaa758aa16af35d9ed669", "type": "electric_scooter", "name": "b077c03c5e1aaa758aa16af35d9ed669"}, {"is_disabled": 0, "is_reserved": 0, "fusion_lat": 0.0, "lat": 38.8935755, "fusion_lon": 0.0, "rental_uris": {"ios": "https://dc.lft.to/lastmile_qr_scan", "android": "https://dc.lft.to/lastmile_qr_scan"}, "lon": -76.99215283333334, "bike_id": "54729defbc4576a2a475b7b0c120dd76", "type": "electric_scooter", "name": "54729defbc4576a2a475b7b0c120dd76"}, {"is_disabled": 0, "is_reserved": 0, "fusion_lat": 0.0, "lat": 38.933142833333335, "fusion_lon": 0.0, "rental_uris": {"ios": "https://dc.lft.to/lastmile_qr_scan", "android": "https://dc.lft.to/lastmile_qr_scan"}, "lon": -77.031827, "bike_id": "57ee9d978747d45074423da867531f90", "type": "electric_scooter", "name": "57ee9d978747d45074423da867531f90"}, {"is_disabled": 0, "is_reserved": 0, "fusion_lat": 0.0, "lat": 38.884811666666664, "fusion_lon": 0.0, "rental_uris": {"ios": "https://dc.lft.to/lastmile_qr_scan", "android": "https://dc.lft.to/lastmile_qr_scan"}, "lon": -77.0335645, "bike_id": "8507e11684381c55e8d42a1503ebc042", "type": "electric_scooter", "name": "8507e11684381c55e8d42a1503ebc042"}, {"is_disabled": 0, "is_reserved": 0, "fusion_lat": 0.0, "lat": 38.949787, "fusion_lon": 0.0, "rental_uris": {"ios": "https://dc.lft.to/lastmile_qr_scan", "android": "https://dc.lft.to/lastmile_qr_scan"}, "lon": -77.02433166666667, "bike_id": "8c408c886f4962486761001d626ca548", "type": "electric_scooter", "name": "8c408c886f4962486761001d626ca548"}, {"is_disabled": 0, "is_reserved": 0, "fusion_lat": 0.0, "lat": 38.916377833333335, "fusion_lon": 0.0, "rental_uris": {"ios": "https://dc.lft.to/lastmile_qr_scan", "android": "https://dc.lft.to/lastmile_qr_scan"}, "lon": -77.03973466666666, "bike_id": "648b42eb671077735f06dabc51e81e77", "type": "electric_scooter", "name": "648b42eb671077735f06dabc51e81e77"}, {"is_disabled": 0, "is_reserved": 0, "fusion_lat": 0.0, "lat": 38.926473333333334, "fusion_lon": 0.0, "rental_uris": {"ios": "https://dc.lft.to/lastmile_qr_scan", "android": "https://dc.lft.to/lastmile_qr_scan"}, "lon": -77.03841666666666, "bike_id": "7684e34e3e61f77a357f9a42b225864c", "type": "electric_scooter", "name": "7684e34e3e61f77a357f9a42b225864c"}, {"is_disabled": 0, "is_reserved": 0, "fusion_lat": 0.0, "lat": 38.97154533333333, "fusion_lon": 0.0, "rental_uris": {"ios": "https://dc.lft.to/lastmile_qr_scan", "android": "https://dc.lft.to/lastmile_qr_scan"}, "lon": -76.9836305, "bike_id": "ca8ac87ef260fa6d62d32c7cdb4c246c", "type": "electric_bike", "name": "ca8ac87ef260fa6d62d32c7cdb4c246c"}, {"is_disabled": 0, "is_reserved": 0, "fusion_lat": 0.0, "lat": 38.897094, "fusion_lon": 0.0, "rental_uris": {"ios": "https://dc.lft.to/lastmile_qr_scan", "android": "https://dc.lft.to/lastmile_qr_scan"}, "lon": -76.93910733333334, "bike_id": "82ad1078c2bce8dc9b2a709b4e4072fa", "type": "electric_scooter", "name": "82ad1078c2bce8dc9b2a709b4e4072fa"}, {"is_disabled": 0, "is_reserved": 0, "fusion_lat": 0.0, "lat": 38.923305, "fusion_lon": 0.0, "rental_uris": {"ios": "https://dc.lft.to/lastmile_qr_scan", "android": "https://dc.lft.to/lastmile_qr_scan"}, "lon": -77.03670466666667, "bike_id": "9d0a88df388954b8e78264d93d6816d1", "type": "electric_scooter", "name": "9d0a88df388954b8e78264d93d6816d1"}, {"is_disabled": 0, "is_reserved": 0, "fusion_lat": 0.0, "lat": 38.9047085, "fusion_lon": 0.0, "rental_uris": {"ios": "https://dc.lft.to/lastmile_qr_scan", "android": "https://dc.lft.to/lastmile_qr_scan"}, "lon": -77.05920683333333, "bike_id": "36dffb28b99e4ee029edfa90d8d95754", "type": "electric_scooter", "name": "36dffb28b99e4ee029edfa90d8d95754"}, {"is_disabled": 0, "is_reserved": 0, "fusion_lat": 0.0, "lat": 38.91920833333333, "fusion_lon": 0.0, "rental_uris": {"ios": "https://dc.lft.to/lastmile_qr_scan", "android": "https://dc.lft.to/lastmile_qr_scan"}, "lon": -77.02489233333333, "bike_id": "4fec504334dfd5a21ea43e6de7bdc503", "type": "electric_scooter", "name": "4fec504334dfd5a21ea43e6de7bdc503"}, {"is_disabled": 0, "is_reserved": 0, "fusion_lat": 0.0, "lat": 38.9264945, "fusion_lon": 0.0, "rental_uris": {"ios": "https://dc.lft.to/lastmile_qr_scan", "android": "https://dc.lft.to/lastmile_qr_scan"}, "lon": -77.09020083333333, "bike_id": "4f14bad0a669ff1e2b73f4dcb654af16", "type": "electric_bike", "name": "4f14bad0a669ff1e2b73f4dcb654af16"}, {"is_disabled": 0, "is_reserved": 0, "fusion_lat": 0.0, "lat": 38.913482333333334, "fusion_lon": 0.0, "rental_uris": {"ios": "https://dc.lft.to/lastmile_qr_scan", "android": "https://dc.lft.to/lastmile_qr_scan"}, "lon": -77.03209683333333, "bike_id": "bc0ddf512e5962087539ba4d782fc005", "type": "electric_scooter", "name": "bc0ddf512e5962087539ba4d782fc005"}, {"is_disabled": 0, "is_reserved": 0, "fusion_lat": 0.0, "lat": 38.9019745, "fusion_lon": 0.0, "rental_uris": {"ios": "https://dc.lft.to/lastmile_qr_scan", "android": "https://dc.lft.to/lastmile_qr_scan"}, "lon": -77.02208683333333, "bike_id": "bcacba6e69874ccf17fdaaaffc8e1767", "type": "electric_scooter", "name": "bcacba6e69874ccf17fdaaaffc8e1767"}, {"is_disabled": 0, "is_reserved": 0, "fusion_lat": 0.0, "lat": 38.91164766666667, "fusion_lon": 0.0, "rental_uris": {"ios": "https://dc.lft.to/lastmile_qr_scan", "android": "https://dc.lft.to/lastmile_qr_scan"}, "lon": -77.01079583333333, "bike_id": "44ccdc2febb2d5058a7439c9bc6ccbf0", "type": "electric_scooter", "name": "44ccdc2febb2d5058a7439c9bc6ccbf0"}, {"is_disabled": 0, "is_reserved": 0, "fusion_lat": 0.0, "lat": 38.8956525, "fusion_lon": 0.0, "rental_uris": {"ios": "https://dc.lft.to/lastmile_qr_scan", "android": "https://dc.lft.to/lastmile_qr_scan"}, "lon": -77.12735516666666, "bike_id": "f305f06d51b1b23631db24636ace9c93", "type": "electric_bike", "name": "f305f06d51b1b23631db24636ace9c93"}, {"is_disabled": 0, "is_reserved": 0, "fusion_lat": 0.0, "lat": 38.932409, "fusion_lon": 0.0, "rental_uris": {"ios": "https://dc.lft.to/lastmile_qr_scan", "android": "https://dc.lft.to/lastmile_qr_scan"}, "lon": -76.9920065, "bike_id": "68679283e9c04d2fbe54ce47a00d6f8d", "type": "electric_scooter", "name": "68679283e9c04d2fbe54ce47a00d6f8d"}, {"is_disabled": 0, "is_reserved": 0, "fusion_lat": 0.0, "lat": 38.93934266666667, "fusion_lon": 0.0, "rental_uris": {"ios": "https://dc.lft.to/lastmile_qr_scan", "android": "https://dc.lft.to/lastmile_qr_scan"}, "lon": -77.0258575, "bike_id": "1575d87479ead946d6d58c0c40b5dd9d", "type": "electric_scooter", "name": "1575d87479ead946d6d58c0c40b5dd9d"}, {"is_disabled": 0, "is_reserved": 0, "fusion_lat": 0.0, "lat": 38.88036483333333, "fusion_lon": 0.0, "rental_uris": {"ios": "https://dc.lft.to/lastmile_qr_scan", "android": "https://dc.lft.to/lastmile_qr_scan"}, "lon": -76.9271625, "bike_id": "a63c2dffff9f55ca7fd7a520f37437d5", "type": "electric_scooter", "name": "a63c2dffff9f55ca7fd7a520f37437d5"}, {"is_disabled": 0, "is_reserved": 0, "fusion_lat": 0.0, "lat": 38.91805983333333, "fusion_lon": 0.0, "rental_uris": {"ios": "https://dc.lft.to/lastmile_qr_scan", "android": "https://dc.lft.to/lastmile_qr_scan"}, "lon": -77.03437183333334, "bike_id": "9f0cc193c71a82f24078a2d715725c1b", "type": "electric_scooter", "name": "9f0cc193c71a82f24078a2d715725c1b"}, {"is_disabled": 0, "is_reserved": 0, "fusion_lat": 0.0, "lat": 38.90256316666667, "fusion_lon": 0.0, "rental_uris": {"ios": "https://dc.lft.to/lastmile_qr_scan", "android": "https://dc.lft.to/lastmile_qr_scan"}, "lon": -77.03260616666667, "bike_id": "19fce8d7d89bd5b4ccc192150ca0db57", "type": "electric_scooter", "name": "19fce8d7d89bd5b4ccc192150ca0db57"}, {"is_disabled": 0, "is_reserved": 0, "fusion_lat": 0.0, "lat": 38.883173, "fusion_lon": 0.0, "rental_uris": {"ios": "https://dc.lft.to/lastmile_qr_scan", "android": "https://dc.lft.to/lastmile_qr_scan"}, "lon": -76.93501916666666, "bike_id": "a52107c4dfe65f889bd18bec6cb0afbd", "type": "electric_scooter", "name": "a52107c4dfe65f889bd18bec6cb0afbd"}, {"is_disabled": 0, "is_reserved": 0, "fusion_lat": 0.0, "lat": 38.94653516666666, "fusion_lon": 0.0, "rental_uris": {"ios": "https://dc.lft.to/lastmile_qr_scan", "android": "https://dc.lft.to/lastmile_qr_scan"}, "lon": -77.06473816666667, "bike_id": "b201099fc7467d1e8047d313b98ac9c6", "type": "electric_scooter", "name": "b201099fc7467d1e8047d313b98ac9c6"}, {"is_disabled": 0, "is_reserved": 0, "fusion_lat": 0.0, "lat": 38.9204985, "fusion_lon": 0.0, "rental_uris": {"ios": "https://dc.lft.to/lastmile_qr_scan", "android": "https://dc.lft.to/lastmile_qr_scan"}, "lon": -77.0173335, "bike_id": "2607f0ca4879de25e02526e292f8d332", "type": "electric_scooter", "name": "2607f0ca4879de25e02526e292f8d332"}, {"is_disabled": 0, "is_reserved": 0, "fusion_lat": 0.0, "lat": 38.892347666666666, "fusion_lon": 0.0, "rental_uris": {"ios": "https://dc.lft.to/lastmile_qr_scan", "android": "https://dc.lft.to/lastmile_qr_scan"}, "lon": -77.0487495, "bike_id": "8c56206a090f350f4f76b1bb24bc11a1", "type": "electric_scooter", "name": "8c56206a090f350f4f76b1bb24bc11a1"}, {"is_disabled": 0, "is_reserved": 0, "fusion_lat": 0.0, "lat": 38.91568866666667, "fusion_lon": 0.0, "rental_uris": {"ios": "https://dc.lft.to/lastmile_qr_scan", "android": "https://dc.lft.to/lastmile_qr_scan"}, "lon": -77.03662733333333, "bike_id": "5e5dc6e2e8829e5ba46ac005af41687c", "type": "electric_scooter", "name": "5e5dc6e2e8829e5ba46ac005af41687c"}, {"is_disabled": 0, "is_reserved": 0, "fusion_lat": 0.0, "lat": 38.93198133333333, "fusion_lon": 0.0, "rental_uris": {"ios": "https://dc.lft.to/lastmile_qr_scan", "android": "https://dc.lft.to/lastmile_qr_scan"}, "lon": -77.02389133333334, "bike_id": "52d0040ef2b32ee4b657c4265cdc7cae", "type": "electric_scooter", "name": "52d0040ef2b32ee4b657c4265cdc7cae"}, {"is_disabled": 0, "is_reserved": 0, "fusion_lat": 0.0, "lat": 38.90471316666667, "fusion_lon": 0.0, "rental_uris": {"ios": "https://dc.lft.to/lastmile_qr_scan", "android": "https://dc.lft.to/lastmile_qr_scan"}, "lon": -77.06595733333333, "bike_id": "76f8c17cad77cd2072ef12a47882e28e", "type": "electric_scooter", "name": "76f8c17cad77cd2072ef12a47882e28e"}, {"is_disabled": 0, "is_reserved": 0, "fusion_lat": 0.0, "lat": 38.90463366666667, "fusion_lon": 0.0, "rental_uris": {"ios": "https://dc.lft.to/lastmile_qr_scan", "android": "https://dc.lft.to/lastmile_qr_scan"}, "lon": -77.04322366666666, "bike_id": "e89a988edcad460233c66f4b4d22feeb", "type": "electric_scooter", "name": "e89a988edcad460233c66f4b4d22feeb"}, {"is_disabled": 0, "is_reserved": 0, "fusion_lat": 0.0, "lat": 38.9168105, "fusion_lon": 0.0, "rental_uris": {"ios": "https://dc.lft.to/lastmile_qr_scan", "android": "https://dc.lft.to/lastmile_qr_scan"}, "lon": -77.02972516666667, "bike_id": "1cacbac42a2982d82c3a58f56b68574c", "type": "electric_scooter", "name": "1cacbac42a2982d82c3a58f56b68574c"}, {"is_disabled": 0, "is_reserved": 0, "fusion_lat": 0.0, "lat": 38.892051333333335, "fusion_lon": 0.0, "rental_uris": {"ios": "https://dc.lft.to/lastmile_qr_scan", "android": "https://dc.lft.to/lastmile_qr_scan"}, "lon": -76.99931516666666, "bike_id": "9e2231ccba9928e1c7a4a05673ac9a01", "type": "electric_scooter", "name": "9e2231ccba9928e1c7a4a05673ac9a01"}, {"is_disabled": 0, "is_reserved": 0, "fusion_lat": 0.0, "lat": 38.923315333333335, "fusion_lon": 0.0, "rental_uris": {"ios": "https://dc.lft.to/lastmile_qr_scan", "android": "https://dc.lft.to/lastmile_qr_scan"}, "lon": -77.05684983333333, "bike_id": "c118f2f2bd80c5a7eca3cbe131519b23", "type": "electric_scooter", "name": "c118f2f2bd80c5a7eca3cbe131519b23"}, {"is_disabled": 0, "is_reserved": 0, "fusion_lat": 0.0, "lat": 38.9232, "fusion_lon": 0.0, "rental_uris": {"ios": "https://dc.lft.to/lastmile_qr_scan", "android": "https://dc.lft.to/lastmile_qr_scan"}, "lon": -77.0291015, "bike_id": "7def64ac7f0ad1f875071d13254dda51", "type": "electric_scooter", "name": "7def64ac7f0ad1f875071d13254dda51"}, {"is_disabled": 0, "is_reserved": 0, "fusion_lat": 0.0, "lat": 38.91916783333333, "fusion_lon": 0.0, "rental_uris": {"ios": "https://dc.lft.to/lastmile_qr_scan", "android": "https://dc.lft.to/lastmile_qr_scan"}, "lon": -77.03181883333333, "bike_id": "aad7334d976ee98d4fdb276407998347", "type": "electric_scooter", "name": "aad7334d976ee98d4fdb276407998347"}, {"is_disabled": 0, "is_reserved": 0, "fusion_lat": 0.0, "lat": 38.8524655, "fusion_lon": 0.0, "rental_uris": {"ios": "https://dc.lft.to/lastmile_qr_scan", "android": "https://dc.lft.to/lastmile_qr_scan"}, "lon": -77.11412966666667, "bike_id": "ba4b678e195a66d1f7db1482842d6a86", "type": "electric_bike", "name": "ba4b678e195a66d1f7db1482842d6a86"}, {"is_disabled": 0, "is_reserved": 0, "fusion_lat": 0.0, "lat": 38.91824033333333, "fusion_lon": 0.0, "rental_uris": {"ios": "https://dc.lft.to/lastmile_qr_scan", "android": "https://dc.lft.to/lastmile_qr_scan"}, "lon": -77.0121055, "bike_id": "e216376bfaf926283355b30200fedb55", "type": "electric_scooter", "name": "e216376bfaf926283355b30200fedb55"}, {"is_disabled": 0, "is_reserved": 0, "fusion_lat": 0.0, "lat": 38.93751783333333, "fusion_lon": 0.0, "rental_uris": {"ios": "https://dc.lft.to/lastmile_qr_scan", "android": "https://dc.lft.to/lastmile_qr_scan"}, "lon": -77.03262966666667, "bike_id": "7029f50aba95810832e1fe05c5d29d3f", "type": "electric_scooter", "name": "7029f50aba95810832e1fe05c5d29d3f"}, {"is_disabled": 0, "is_reserved": 0, "fusion_lat": 0.0, "lat": 38.88877866666667, "fusion_lon": 0.0, "rental_uris": {"ios": "https://dc.lft.to/lastmile_qr_scan", "android": "https://dc.lft.to/lastmile_qr_scan"}, "lon": -76.957054, "bike_id": "5cb7d2d3e1517e4be9f1a41c8d5f00d1", "type": "electric_bike", "name": "5cb7d2d3e1517e4be9f1a41c8d5f00d1"}, {"is_disabled": 0, "is_reserved": 0, "fusion_lat": 0.0, "lat": 38.916806, "fusion_lon": 0.0, "rental_uris": {"ios": "https://dc.lft.to/lastmile_qr_scan", "android": "https://dc.lft.to/lastmile_qr_scan"}, "lon": -77.02291783333334, "bike_id": "0bc143d88de84c6d2f8ef1aa61a12524", "type": "electric_scooter", "name": "0bc143d88de84c6d2f8ef1aa61a12524"}, {"is_disabled": 0, "is_reserved": 0, "fusion_lat": 0.0, "lat": 38.94979283333333, "fusion_lon": 0.0, "rental_uris": {"ios": "https://dc.lft.to/lastmile_qr_scan", "android": "https://dc.lft.to/lastmile_qr_scan"}, "lon": -77.02430433333333, "bike_id": "dab2feda111f03f22fc3655edf1a2de8", "type": "electric_scooter", "name": "dab2feda111f03f22fc3655edf1a2de8"}, {"is_disabled": 0, "is_reserved": 0, "fusion_lat": 0.0, "lat": 38.88996916666667, "fusion_lon": 0.0, "rental_uris": {"ios": "https://dc.lft.to/lastmile_qr_scan", "android": "https://dc.lft.to/lastmile_qr_scan"}, "lon": -77.00036366666667, "bike_id": "0344116718e62198ab30a572aaa2e015", "type": "electric_bike", "name": "0344116718e62198ab30a572aaa2e015"}, {"is_disabled": 0, "is_reserved": 0, "fusion_lat": 0.0, "lat": 38.92858, "fusion_lon": 0.0, "rental_uris": {"ios": "https://dc.lft.to/lastmile_qr_scan", "android": "https://dc.lft.to/lastmile_qr_scan"}, "lon": -77.03050066666667, "bike_id": "9227a4dfebb771f21263dc04cdef4eb4", "type": "electric_scooter", "name": "9227a4dfebb771f21263dc04cdef4eb4"}, {"is_disabled": 0, "is_reserved": 0, "fusion_lat": 0.0, "lat": 38.915691, "fusion_lon": 0.0, "rental_uris": {"ios": "https://dc.lft.to/lastmile_qr_scan", "android": "https://dc.lft.to/lastmile_qr_scan"}, "lon": -77.03211733333333, "bike_id": "119125716d058d7dac0b5cf7da6856db", "type": "electric_scooter", "name": "119125716d058d7dac0b5cf7da6856db"}, {"is_disabled": 0, "is_reserved": 0, "fusion_lat": 0.0, "lat": 38.881848166666664, "fusion_lon": 0.0, "rental_uris": {"ios": "https://dc.lft.to/lastmile_qr_scan", "android": "https://dc.lft.to/lastmile_qr_scan"}, "lon": -77.00596516666667, "bike_id": "f8b23d1acb30c1d5a2ff00931c46d537", "type": "electric_scooter", "name": "f8b23d1acb30c1d5a2ff00931c46d537"}, {"is_disabled": 0, "is_reserved": 0, "fusion_lat": 0.0, "lat": 38.93057233333333, "fusion_lon": 0.0, "rental_uris": {"ios": "https://dc.lft.to/lastmile_qr_scan", "android": "https://dc.lft.to/lastmile_qr_scan"}, "lon": -77.03369416666666, "bike_id": "b71b69ebdfcfe77e3bfb170530a1f382", "type": "electric_scooter", "name": "b71b69ebdfcfe77e3bfb170530a1f382"}, {"is_disabled": 0, "is_reserved": 0, "fusion_lat": 0.0, "lat": 38.92340216666667, "fusion_lon": 0.0, "rental_uris": {"ios": "https://dc.lft.to/lastmile_qr_scan", "android": "https://dc.lft.to/lastmile_qr_scan"}, "lon": -77.0351845, "bike_id": "b5e5f3a856cc260b1f1f5ad2b057ab1b", "type": "electric_scooter", "name": "b5e5f3a856cc260b1f1f5ad2b057ab1b"}, {"is_disabled": 0, "is_reserved": 0, "fusion_lat": 0.0, "lat": 38.90252616666667, "fusion_lon": 0.0, "rental_uris": {"ios": "https://dc.lft.to/lastmile_qr_scan", "android": "https://dc.lft.to/lastmile_qr_scan"}, "lon": -77.02826716666667, "bike_id": "a07b8dcbeeb5ab25096003999051bf9c", "type": "electric_scooter", "name": "a07b8dcbeeb5ab25096003999051bf9c"}, {"is_disabled": 0, "is_reserved": 0, "fusion_lat": 0.0, "lat": 38.89221716666667, "fusion_lon": 0.0, "rental_uris": {"ios": "https://dc.lft.to/lastmile_qr_scan", "android": "https://dc.lft.to/lastmile_qr_scan"}, "lon": -77.024213, "bike_id": "d980d2e1a64ea7c21b45c56ffbaa2713", "type": "electric_scooter", "name": "d980d2e1a64ea7c21b45c56ffbaa2713"}, {"is_disabled": 0, "is_reserved": 0, "fusion_lat": 0.0, "lat": 38.921501666666664, "fusion_lon": 0.0, "rental_uris": {"ios": "https://dc.lft.to/lastmile_qr_scan", "android": "https://dc.lft.to/lastmile_qr_scan"}, "lon": -77.03878733333333, "bike_id": "c56add80707a59d4fb858259cfa6be9e", "type": "electric_scooter", "name": "c56add80707a59d4fb858259cfa6be9e"}, {"is_disabled": 0, "is_reserved": 0, "fusion_lat": 0.0, "lat": 38.941009, "fusion_lon": 0.0, "rental_uris": {"ios": "https://dc.lft.to/lastmile_qr_scan", "android": "https://dc.lft.to/lastmile_qr_scan"}, "lon": -77.02511933333334, "bike_id": "50800ff28a05f5f47e452425f04fa346", "type": "electric_scooter", "name": "50800ff28a05f5f47e452425f04fa346"}, {"is_disabled": 0, "is_reserved": 0, "fusion_lat": 0.0, "lat": 38.92059116666667, "fusion_lon": 0.0, "rental_uris": {"ios": "https://dc.lft.to/lastmile_qr_scan", "android": "https://dc.lft.to/lastmile_qr_scan"}, "lon": -77.025104, "bike_id": "bbe72c3fec91740ce3ef6d849aedb839", "type": "electric_scooter", "name": "bbe72c3fec91740ce3ef6d849aedb839"}, {"is_disabled": 0, "is_reserved": 0, "fusion_lat": 0.0, "lat": 38.912566166666664, "fusion_lon": 0.0, "rental_uris": {"ios": "https://dc.lft.to/lastmile_qr_scan", "android": "https://dc.lft.to/lastmile_qr_scan"}, "lon": -77.0382785, "bike_id": "e95feeb5b5514e9f7bcb08766f61786a", "type": "electric_scooter", "name": "e95feeb5b5514e9f7bcb08766f61786a"}, {"is_disabled": 0, "is_reserved": 0, "fusion_lat": 0.0, "lat": 38.95356066666667, "fusion_lon": 0.0, "rental_uris": {"ios": "https://dc.lft.to/lastmile_qr_scan", "android": "https://dc.lft.to/lastmile_qr_scan"}, "lon": -76.98089533333334, "bike_id": "09d05585873b47baccaa45f459b9bdb7", "type": "electric_bike", "name": "09d05585873b47baccaa45f459b9bdb7"}, {"is_disabled": 0, "is_reserved": 0, "fusion_lat": 0.0, "lat": 38.92854583333333, "fusion_lon": 0.0, "rental_uris": {"ios": "https://dc.lft.to/lastmile_qr_scan", "android": "https://dc.lft.to/lastmile_qr_scan"}, "lon": -77.035996, "bike_id": "973c30c4f7d914a3bea708ac6e62a47c", "type": "electric_scooter", "name": "973c30c4f7d914a3bea708ac6e62a47c"}, {"is_disabled": 0, "is_reserved": 0, "fusion_lat": 0.0, "lat": 38.912027, "fusion_lon": 0.0, "rental_uris": {"ios": "https://dc.lft.to/lastmile_qr_scan", "android": "https://dc.lft.to/lastmile_qr_scan"}, "lon": -77.04470883333333, "bike_id": "2713d1fd093e582b2892670efba4cfa7", "type": "electric_scooter", "name": "2713d1fd093e582b2892670efba4cfa7"}, {"is_disabled": 0, "is_reserved": 0, "fusion_lat": 0.0, "lat": 38.928769833333334, "fusion_lon": 0.0, "rental_uris": {"ios": "https://dc.lft.to/lastmile_qr_scan", "android": "https://dc.lft.to/lastmile_qr_scan"}, "lon": -77.033079, "bike_id": "3998743bb02980e40a9f7f49067d17e1", "type": "electric_scooter", "name": "3998743bb02980e40a9f7f49067d17e1"}, {"is_disabled": 0, "is_reserved": 0, "fusion_lat": 0.0, "lat": 38.89859333333333, "fusion_lon": 0.0, "rental_uris": {"ios": "https://dc.lft.to/lastmile_qr_scan", "android": "https://dc.lft.to/lastmile_qr_scan"}, "lon": -77.04993183333333, "bike_id": "b5b20b1ebcb6c71ae8070cc53d47f7ca", "type": "electric_scooter", "name": "b5b20b1ebcb6c71ae8070cc53d47f7ca"}, {"is_disabled": 0, "is_reserved": 0, "fusion_lat": 0.0, "lat": 38.8098135, "fusion_lon": 0.0, "rental_uris": {"ios": "https://dc.lft.to/lastmile_qr_scan", "android": "https://dc.lft.to/lastmile_qr_scan"}, "lon": -77.07661033333333, "bike_id": "6d5494a809aaf2008308acfcec9f6ccc", "type": "electric_bike", "name": "6d5494a809aaf2008308acfcec9f6ccc"}, {"is_disabled": 0, "is_reserved": 0, "fusion_lat": 0.0, "lat": 38.917072833333336, "fusion_lon": 0.0, "rental_uris": {"ios": "https://dc.lft.to/lastmile_qr_scan", "android": "https://dc.lft.to/lastmile_qr_scan"}, "lon": -77.03162216666666, "bike_id": "eb64a06c1b0971844915f81ee377a384", "type": "electric_scooter", "name": "eb64a06c1b0971844915f81ee377a384"}, {"is_disabled": 0, "is_reserved": 0, "fusion_lat": 0.0, "lat": 38.91401166666667, "fusion_lon": 0.0, "rental_uris": {"ios": "https://dc.lft.to/lastmile_qr_scan", "android": "https://dc.lft.to/lastmile_qr_scan"}, "lon": -77.01143116666667, "bike_id": "d9bd8c4be4712150ce6375110603339d", "type": "electric_scooter", "name": "d9bd8c4be4712150ce6375110603339d"}, {"is_disabled": 0, "is_reserved": 0, "fusion_lat": 0.0, "lat": 38.88360933333333, "fusion_lon": 0.0, "rental_uris": {"ios": "https://dc.lft.to/lastmile_qr_scan", "android": "https://dc.lft.to/lastmile_qr_scan"}, "lon": -76.92791483333333, "bike_id": "d99c0eb62447921ca10ab770c46a99fe", "type": "electric_scooter", "name": "d99c0eb62447921ca10ab770c46a99fe"}, {"is_disabled": 0, "is_reserved": 0, "fusion_lat": 0.0, "lat": 38.92333583333333, "fusion_lon": 0.0, "rental_uris": {"ios": "https://dc.lft.to/lastmile_qr_scan", "android": "https://dc.lft.to/lastmile_qr_scan"}, "lon": -77.05682566666667, "bike_id": "afc5ff7845048bc871c2a704bbf77924", "type": "electric_scooter", "name": "afc5ff7845048bc871c2a704bbf77924"}, {"is_disabled": 0, "is_reserved": 0, "fusion_lat": 0.0, "lat": 38.918324166666665, "fusion_lon": 0.0, "rental_uris": {"ios": "https://dc.lft.to/lastmile_qr_scan", "android": "https://dc.lft.to/lastmile_qr_scan"}, "lon": -77.03916266666667, "bike_id": "2efea4e07008a03dad6ae30c01920c5f", "type": "electric_scooter", "name": "2efea4e07008a03dad6ae30c01920c5f"}, {"is_disabled": 0, "is_reserved": 0, "fusion_lat": 0.0, "lat": 38.92235983333333, "fusion_lon": 0.0, "rental_uris": {"ios": "https://dc.lft.to/lastmile_qr_scan", "android": "https://dc.lft.to/lastmile_qr_scan"}, "lon": -77.02714266666666, "bike_id": "561f2e254f5bdb1f30d68b8d6ad55242", "type": "electric_scooter", "name": "561f2e254f5bdb1f30d68b8d6ad55242"}, {"is_disabled": 0, "is_reserved": 0, "fusion_lat": 0.0, "lat": 38.92388566666666, "fusion_lon": 0.0, "rental_uris": {"ios": "https://dc.lft.to/lastmile_qr_scan", "android": "https://dc.lft.to/lastmile_qr_scan"}, "lon": -77.02586366666667, "bike_id": "c4bca0bc7bd94764c0a3d66cb4a7a9e6", "type": "electric_scooter", "name": "c4bca0bc7bd94764c0a3d66cb4a7a9e6"}, {"is_disabled": 0, "is_reserved": 0, "fusion_lat": 0.0, "lat": 38.91844916666667, "fusion_lon": 0.0, "rental_uris": {"ios": "https://dc.lft.to/lastmile_qr_scan", "android": "https://dc.lft.to/lastmile_qr_scan"}, "lon": -77.04180433333333, "bike_id": "cb3a5d7cfbc21262745bd15e925656e5", "type": "electric_scooter", "name": "cb3a5d7cfbc21262745bd15e925656e5"}, {"is_disabled": 0, "is_reserved": 0, "fusion_lat": 0.0, "lat": 38.928670333333336, "fusion_lon": 0.0, "rental_uris": {"ios": "https://dc.lft.to/lastmile_qr_scan", "android": "https://dc.lft.to/lastmile_qr_scan"}, "lon": -77.07893266666666, "bike_id": "36a8cf1062df3e7029e94fd6e45a8375", "type": "electric_scooter", "name": "36a8cf1062df3e7029e94fd6e45a8375"}, {"is_disabled": 0, "is_reserved": 0, "fusion_lat": 0.0, "lat": 38.90465016666667, "fusion_lon": 0.0, "rental_uris": {"ios": "https://dc.lft.to/lastmile_qr_scan", "android": "https://dc.lft.to/lastmile_qr_scan"}, "lon": -77.04896783333334, "bike_id": "a6d3ce949fc86fe461ac1c923032338b", "type": "electric_scooter", "name": "a6d3ce949fc86fe461ac1c923032338b"}, {"is_disabled": 0, "is_reserved": 0, "fusion_lat": 0.0, "lat": 38.917118333333335, "fusion_lon": 0.0, "rental_uris": {"ios": "https://dc.lft.to/lastmile_qr_scan", "android": "https://dc.lft.to/lastmile_qr_scan"}, "lon": -77.0386985, "bike_id": "fb5e0f9f5cbb50216d5f123b19816ff6", "type": "electric_scooter", "name": "fb5e0f9f5cbb50216d5f123b19816ff6"}, {"is_disabled": 0, "is_reserved": 0, "fusion_lat": 0.0, "lat": 38.877964666666664, "fusion_lon": 0.0, "rental_uris": {"ios": "https://dc.lft.to/lastmile_qr_scan", "android": "https://dc.lft.to/lastmile_qr_scan"}, "lon": -77.00121133333333, "bike_id": "8947210c6e249573b56fd0fb5c01396a", "type": "electric_scooter", "name": "8947210c6e249573b56fd0fb5c01396a"}, {"is_disabled": 0, "is_reserved": 0, "fusion_lat": 0.0, "lat": 38.95242283333333, "fusion_lon": 0.0, "rental_uris": {"ios": "https://dc.lft.to/lastmile_qr_scan", "android": "https://dc.lft.to/lastmile_qr_scan"}, "lon": -76.98250316666666, "bike_id": "ef2ff6c4df04ea8b4efcdd8b13efdf55", "type": "electric_bike", "name": "ef2ff6c4df04ea8b4efcdd8b13efdf55"}, {"is_disabled": 0, "is_reserved": 0, "fusion_lat": 0.0, "lat": 38.91542833333333, "fusion_lon": 0.0, "rental_uris": {"ios": "https://dc.lft.to/lastmile_qr_scan", "android": "https://dc.lft.to/lastmile_qr_scan"}, "lon": -77.04452916666666, "bike_id": "6a4f884410e8ab7bee1b2bcbb3f61d97", "type": "electric_scooter", "name": "6a4f884410e8ab7bee1b2bcbb3f61d97"}, {"is_disabled": 0, "is_reserved": 0, "fusion_lat": 0.0, "lat": 38.8793745, "fusion_lon": 0.0, "rental_uris": {"ios": "https://dc.lft.to/lastmile_qr_scan", "android": "https://dc.lft.to/lastmile_qr_scan"}, "lon": -77.00846533333333, "bike_id": "4f8598d950e50009661e970280452aa5", "type": "electric_bike", "name": "4f8598d950e50009661e970280452aa5"}, {"is_disabled": 0, "is_reserved": 0, "fusion_lat": 0.0, "lat": 38.915826833333334, "fusion_lon": 0.0, "rental_uris": {"ios": "https://dc.lft.to/lastmile_qr_scan", "android": "https://dc.lft.to/lastmile_qr_scan"}, "lon": -77.0200595, "bike_id": "95b15519f812088a0f28318ddcdfe903", "type": "electric_scooter", "name": "95b15519f812088a0f28318ddcdfe903"}, {"is_disabled": 0, "is_reserved": 0, "fusion_lat": 0.0, "lat": 38.93060883333333, "fusion_lon": 0.0, "rental_uris": {"ios": "https://dc.lft.to/lastmile_qr_scan", "android": "https://dc.lft.to/lastmile_qr_scan"}, "lon": -77.039478, "bike_id": "bc730a1508aa627f54147b1e13d361ac", "type": "electric_scooter", "name": "bc730a1508aa627f54147b1e13d361ac"}, {"is_disabled": 0, "is_reserved": 0, "fusion_lat": 0.0, "lat": 38.900664166666665, "fusion_lon": 0.0, "rental_uris": {"ios": "https://dc.lft.to/lastmile_qr_scan", "android": "https://dc.lft.to/lastmile_qr_scan"}, "lon": -76.9498265, "bike_id": "c277b86eba795aa6750459c9b297419a", "type": "electric_scooter", "name": "c277b86eba795aa6750459c9b297419a"}, {"is_disabled": 0, "is_reserved": 0, "fusion_lat": 0.0, "lat": 38.920561166666666, "fusion_lon": 0.0, "rental_uris": {"ios": "https://dc.lft.to/lastmile_qr_scan", "android": "https://dc.lft.to/lastmile_qr_scan"}, "lon": -77.02380333333333, "bike_id": "ccb4106f6e31b89a4349aeb470320c54", "type": "electric_scooter", "name": "ccb4106f6e31b89a4349aeb470320c54"}, {"is_disabled": 0, "is_reserved": 0, "fusion_lat": 0.0, "lat": 38.91878416666667, "fusion_lon": 0.0, "rental_uris": {"ios": "https://dc.lft.to/lastmile_qr_scan", "android": "https://dc.lft.to/lastmile_qr_scan"}, "lon": -77.0350315, "bike_id": "8f22452e90b58e710588425113408470", "type": "electric_scooter", "name": "8f22452e90b58e710588425113408470"}, {"is_disabled": 0, "is_reserved": 0, "fusion_lat": 0.0, "lat": 38.906479166666664, "fusion_lon": 0.0, "rental_uris": {"ios": "https://dc.lft.to/lastmile_qr_scan", "android": "https://dc.lft.to/lastmile_qr_scan"}, "lon": -77.00577066666666, "bike_id": "10b07b4b98e20c19785ef02bbc52562b", "type": "electric_scooter", "name": "10b07b4b98e20c19785ef02bbc52562b"}, {"is_disabled": 0, "is_reserved": 0, "fusion_lat": 0.0, "lat": 38.92700716666667, "fusion_lon": 0.0, "rental_uris": {"ios": "https://dc.lft.to/lastmile_qr_scan", "android": "https://dc.lft.to/lastmile_qr_scan"}, "lon": -76.99795533333334, "bike_id": "a4562c6bc497a54cadd62894596ad50e", "type": "electric_scooter", "name": "a4562c6bc497a54cadd62894596ad50e"}, {"is_disabled": 0, "is_reserved": 0, "fusion_lat": 0.0, "lat": 38.9250225, "fusion_lon": 0.0, "rental_uris": {"ios": "https://dc.lft.to/lastmile_qr_scan", "android": "https://dc.lft.to/lastmile_qr_scan"}, "lon": -77.0243755, "bike_id": "ac71c160aad500a13f4a22f69ae4c05b", "type": "electric_scooter", "name": "ac71c160aad500a13f4a22f69ae4c05b"}, {"is_disabled": 0, "is_reserved": 0, "fusion_lat": 0.0, "lat": 38.855163166666664, "fusion_lon": 0.0, "rental_uris": {"ios": "https://dc.lft.to/lastmile_qr_scan", "android": "https://dc.lft.to/lastmile_qr_scan"}, "lon": -77.10159816666666, "bike_id": "e7154fa5c1ce9e54abae92ffa1579d93", "type": "electric_bike", "name": "e7154fa5c1ce9e54abae92ffa1579d93"}, {"is_disabled": 0, "is_reserved": 0, "fusion_lat": 0.0, "lat": 38.863755166666664, "fusion_lon": 0.0, "rental_uris": {"ios": "https://dc.lft.to/lastmile_qr_scan", "android": "https://dc.lft.to/lastmile_qr_scan"}, "lon": -77.0136775, "bike_id": "9e7249290b8bd854e9840aa553d3f494", "type": "electric_scooter", "name": "9e7249290b8bd854e9840aa553d3f494"}, {"is_disabled": 0, "is_reserved": 0, "fusion_lat": 0.0, "lat": 38.93257933333334, "fusion_lon": 0.0, "rental_uris": {"ios": "https://dc.lft.to/lastmile_qr_scan", "android": "https://dc.lft.to/lastmile_qr_scan"}, "lon": -77.03286566666667, "bike_id": "72334c51b692ef2440f1965dc9335bcd", "type": "electric_scooter", "name": "72334c51b692ef2440f1965dc9335bcd"}, {"is_disabled": 0, "is_reserved": 0, "fusion_lat": 0.0, "lat": 38.92722, "fusion_lon": 0.0, "rental_uris": {"ios": "https://dc.lft.to/lastmile_qr_scan", "android": "https://dc.lft.to/lastmile_qr_scan"}, "lon": -77.05142783333334, "bike_id": "ec08dda23fc452dcd6f703035e994282", "type": "electric_scooter", "name": "ec08dda23fc452dcd6f703035e994282"}, {"is_disabled": 0, "is_reserved": 0, "fusion_lat": 0.0, "lat": 38.90002966666667, "fusion_lon": 0.0, "rental_uris": {"ios": "https://dc.lft.to/lastmile_qr_scan", "android": "https://dc.lft.to/lastmile_qr_scan"}, "lon": -77.02704333333334, "bike_id": "10d604f160608ba649a3fe35aecd07f4", "type": "electric_scooter", "name": "10d604f160608ba649a3fe35aecd07f4"}, {"is_disabled": 0, "is_reserved": 0, "fusion_lat": 0.0, "lat": 38.927254, "fusion_lon": 0.0, "rental_uris": {"ios": "https://dc.lft.to/lastmile_qr_scan", "android": "https://dc.lft.to/lastmile_qr_scan"}, "lon": -77.02303966666666, "bike_id": "512b924ed2c7d15d2cfda619f9128dbb", "type": "electric_scooter", "name": "512b924ed2c7d15d2cfda619f9128dbb"}, {"is_disabled": 0, "is_reserved": 0, "fusion_lat": 0.0, "lat": 38.892769333333334, "fusion_lon": 0.0, "rental_uris": {"ios": "https://dc.lft.to/lastmile_qr_scan", "android": "https://dc.lft.to/lastmile_qr_scan"}, "lon": -77.04659916666667, "bike_id": "a68ee9fc414bff7757317bfa58ed72d5", "type": "electric_scooter", "name": "a68ee9fc414bff7757317bfa58ed72d5"}, {"is_disabled": 0, "is_reserved": 0, "fusion_lat": 0.0, "lat": 38.92478216666667, "fusion_lon": 0.0, "rental_uris": {"ios": "https://dc.lft.to/lastmile_qr_scan", "android": "https://dc.lft.to/lastmile_qr_scan"}, "lon": -77.02622133333334, "bike_id": "bd511b7aba7403e7b2b57ca94c3abaec", "type": "electric_scooter", "name": "bd511b7aba7403e7b2b57ca94c3abaec"}, {"is_disabled": 0, "is_reserved": 0, "fusion_lat": 0.0, "lat": 38.95927533333333, "fusion_lon": 0.0, "rental_uris": {"ios": "https://dc.lft.to/lastmile_qr_scan", "android": "https://dc.lft.to/lastmile_qr_scan"}, "lon": -76.925392, "bike_id": "c2175d95363d455093b658e64dc76fe8", "type": "electric_bike", "name": "c2175d95363d455093b658e64dc76fe8"}, {"is_disabled": 0, "is_reserved": 0, "fusion_lat": 0.0, "lat": 38.88734866666667, "fusion_lon": 0.0, "rental_uris": {"ios": "https://dc.lft.to/lastmile_qr_scan", "android": "https://dc.lft.to/lastmile_qr_scan"}, "lon": -76.9835435, "bike_id": "ccf3b9ced20b958ff79ba4df5c09fe45", "type": "electric_bike", "name": "ccf3b9ced20b958ff79ba4df5c09fe45"}, {"is_disabled": 0, "is_reserved": 0, "fusion_lat": 0.0, "lat": 38.87859616666667, "fusion_lon": 0.0, "rental_uris": {"ios": "https://dc.lft.to/lastmile_qr_scan", "android": "https://dc.lft.to/lastmile_qr_scan"}, "lon": -77.01886416666666, "bike_id": "df0ad0c2aa3751073f9ac654539b0f6a", "type": "electric_scooter", "name": "df0ad0c2aa3751073f9ac654539b0f6a"}, {"is_disabled": 0, "is_reserved": 0, "fusion_lat": 0.0, "lat": 38.921228166666666, "fusion_lon": 0.0, "rental_uris": {"ios": "https://dc.lft.to/lastmile_qr_scan", "android": "https://dc.lft.to/lastmile_qr_scan"}, "lon": -77.03187866666667, "bike_id": "d4897838292d364a603cf6fb84d2481d", "type": "electric_scooter", "name": "d4897838292d364a603cf6fb84d2481d"}, {"is_disabled": 0, "is_reserved": 0, "fusion_lat": 0.0, "lat": 38.86890833333333, "fusion_lon": 0.0, "rental_uris": {"ios": "https://dc.lft.to/lastmile_qr_scan", "android": "https://dc.lft.to/lastmile_qr_scan"}, "lon": -76.9900395, "bike_id": "874bb4b43c5bd6b09e545ce64cdd2fc6", "type": "electric_scooter", "name": "874bb4b43c5bd6b09e545ce64cdd2fc6"}, {"is_disabled": 0, "is_reserved": 0, "fusion_lat": 0.0, "lat": 38.886602333333336, "fusion_lon": 0.0, "rental_uris": {"ios": "https://dc.lft.to/lastmile_qr_scan", "android": "https://dc.lft.to/lastmile_qr_scan"}, "lon": -77.02840683333334, "bike_id": "b8dfc9343daf8ce57d28aa60ccb1a1fe", "type": "electric_scooter", "name": "b8dfc9343daf8ce57d28aa60ccb1a1fe"}, {"is_disabled": 0, "is_reserved": 0, "fusion_lat": 0.0, "lat": 38.896007166666664, "fusion_lon": 0.0, "rental_uris": {"ios": "https://dc.lft.to/lastmile_qr_scan", "android": "https://dc.lft.to/lastmile_qr_scan"}, "lon": -76.9832435, "bike_id": "bc77a328cd749e52a86a37d907618ae1", "type": "electric_scooter", "name": "bc77a328cd749e52a86a37d907618ae1"}, {"is_disabled": 0, "is_reserved": 0, "fusion_lat": 0.0, "lat": 38.90454166666667, "fusion_lon": 0.0, "rental_uris": {"ios": "https://dc.lft.to/lastmile_qr_scan", "android": "https://dc.lft.to/lastmile_qr_scan"}, "lon": -77.0269995, "bike_id": "12de2c452ad35e9db43e67f605804765", "type": "electric_scooter", "name": "12de2c452ad35e9db43e67f605804765"}, {"is_disabled": 0, "is_reserved": 0, "fusion_lat": 0.0, "lat": 38.87566616666667, "fusion_lon": 0.0, "rental_uris": {"ios": "https://dc.lft.to/lastmile_qr_scan", "android": "https://dc.lft.to/lastmile_qr_scan"}, "lon": -77.00592733333333, "bike_id": "7bd02eaea19b092c876f05c9bd6eb5e3", "type": "electric_scooter", "name": "7bd02eaea19b092c876f05c9bd6eb5e3"}, {"is_disabled": 0, "is_reserved": 0, "fusion_lat": 0.0, "lat": 38.91575016666667, "fusion_lon": 0.0, "rental_uris": {"ios": "https://dc.lft.to/lastmile_qr_scan", "android": "https://dc.lft.to/lastmile_qr_scan"}, "lon": -77.0504355, "bike_id": "cef2d8b5e0fcfa11ea716fb1d5bdcd59", "type": "electric_scooter", "name": "cef2d8b5e0fcfa11ea716fb1d5bdcd59"}, {"is_disabled": 0, "is_reserved": 0, "fusion_lat": 0.0, "lat": 39.07472466666667, "fusion_lon": 0.0, "rental_uris": {"ios": "https://dc.lft.to/lastmile_qr_scan", "android": "https://dc.lft.to/lastmile_qr_scan"}, "lon": -77.1152835, "bike_id": "e2c8aeb269279d3ccd2c2fd05da508f4", "type": "electric_bike", "name": "e2c8aeb269279d3ccd2c2fd05da508f4"}, {"is_disabled": 0, "is_reserved": 0, "fusion_lat": 0.0, "lat": 38.936364833333336, "fusion_lon": 0.0, "rental_uris": {"ios": "https://dc.lft.to/lastmile_qr_scan", "android": "https://dc.lft.to/lastmile_qr_scan"}, "lon": -77.036647, "bike_id": "75c4840dba517624847bb2bcf2b22486", "type": "electric_scooter", "name": "75c4840dba517624847bb2bcf2b22486"}, {"is_disabled": 0, "is_reserved": 0, "fusion_lat": 0.0, "lat": 38.855913, "fusion_lon": 0.0, "rental_uris": {"ios": "https://dc.lft.to/lastmile_qr_scan", "android": "https://dc.lft.to/lastmile_qr_scan"}, "lon": -76.972823, "bike_id": "ccde83f74578122551b9aac7ce2e87d9", "type": "electric_bike", "name": "ccde83f74578122551b9aac7ce2e87d9"}, {"is_disabled": 0, "is_reserved": 0, "fusion_lat": 0.0, "lat": 38.9299035, "fusion_lon": 0.0, "rental_uris": {"ios": "https://dc.lft.to/lastmile_qr_scan", "android": "https://dc.lft.to/lastmile_qr_scan"}, "lon": -77.02210416666667, "bike_id": "36f0ed262b30ae173de90905530888ab", "type": "electric_scooter", "name": "36f0ed262b30ae173de90905530888ab"}, {"is_disabled": 0, "is_reserved": 0, "fusion_lat": 0.0, "lat": 38.892526333333336, "fusion_lon": 0.0, "rental_uris": {"ios": "https://dc.lft.to/lastmile_qr_scan", "android": "https://dc.lft.to/lastmile_qr_scan"}, "lon": -77.0465655, "bike_id": "26c7b58b83c034686209d489d53fd928", "type": "electric_scooter", "name": "26c7b58b83c034686209d489d53fd928"}, {"is_disabled": 0, "is_reserved": 0, "fusion_lat": 0.0, "lat": 38.804052666666664, "fusion_lon": 0.0, "rental_uris": {"ios": "https://dc.lft.to/lastmile_qr_scan", "android": "https://dc.lft.to/lastmile_qr_scan"}, "lon": -77.1132775, "bike_id": "53d63805c64e9eb3ef94273422919e75", "type": "electric_bike", "name": "53d63805c64e9eb3ef94273422919e75"}, {"is_disabled": 0, "is_reserved": 0, "fusion_lat": 0.0, "lat": 38.918200666666664, "fusion_lon": 0.0, "rental_uris": {"ios": "https://dc.lft.to/lastmile_qr_scan", "android": "https://dc.lft.to/lastmile_qr_scan"}, "lon": -77.02525733333333, "bike_id": "215a08d356b5a1aad57037d2b9c453db", "type": "electric_scooter", "name": "215a08d356b5a1aad57037d2b9c453db"}, {"is_disabled": 0, "is_reserved": 0, "fusion_lat": 0.0, "lat": 38.91611433333333, "fusion_lon": 0.0, "rental_uris": {"ios": "https://dc.lft.to/lastmile_qr_scan", "android": "https://dc.lft.to/lastmile_qr_scan"}, "lon": -77.02302233333333, "bike_id": "c7657b790946478006492dcb51835781", "type": "electric_scooter", "name": "c7657b790946478006492dcb51835781"}, {"is_disabled": 0, "is_reserved": 0, "fusion_lat": 0.0, "lat": 38.9019585, "fusion_lon": 0.0, "rental_uris": {"ios": "https://dc.lft.to/lastmile_qr_scan", "android": "https://dc.lft.to/lastmile_qr_scan"}, "lon": -77.0222045, "bike_id": "7a2a370b70f3408f5bf656dbc347c740", "type": "electric_scooter", "name": "7a2a370b70f3408f5bf656dbc347c740"}, {"is_disabled": 0, "is_reserved": 0, "fusion_lat": 0.0, "lat": 38.92107683333333, "fusion_lon": 0.0, "rental_uris": {"ios": "https://dc.lft.to/lastmile_qr_scan", "android": "https://dc.lft.to/lastmile_qr_scan"}, "lon": -77.04694783333333, "bike_id": "2ee9f177e9997150c02636e64be8d17b", "type": "electric_scooter", "name": "2ee9f177e9997150c02636e64be8d17b"}, {"is_disabled": 0, "is_reserved": 0, "fusion_lat": 0.0, "lat": 38.9079045, "fusion_lon": 0.0, "rental_uris": {"ios": "https://dc.lft.to/lastmile_qr_scan", "android": "https://dc.lft.to/lastmile_qr_scan"}, "lon": -77.01067633333334, "bike_id": "7acba18dcee83b15c156e7e05b050a5f", "type": "electric_scooter", "name": "7acba18dcee83b15c156e7e05b050a5f"}, {"is_disabled": 0, "is_reserved": 0, "fusion_lat": 0.0, "lat": 38.947475, "fusion_lon": 0.0, "rental_uris": {"ios": "https://dc.lft.to/lastmile_qr_scan", "android": "https://dc.lft.to/lastmile_qr_scan"}, "lon": -77.0235645, "bike_id": "5c765d1dcc18a63c4f96e035376cd7e0", "type": "electric_scooter", "name": "5c765d1dcc18a63c4f96e035376cd7e0"}, {"is_disabled": 0, "is_reserved": 0, "fusion_lat": 0.0, "lat": 38.896909666666666, "fusion_lon": 0.0, "rental_uris": {"ios": "https://dc.lft.to/lastmile_qr_scan", "android": "https://dc.lft.to/lastmile_qr_scan"}, "lon": -77.024048, "bike_id": "67c443c54c19ec47aea218bd308e1bb2", "type": "electric_scooter", "name": "67c443c54c19ec47aea218bd308e1bb2"}, {"is_disabled": 0, "is_reserved": 0, "fusion_lat": 0.0, "lat": 38.877258166666664, "fusion_lon": 0.0, "rental_uris": {"ios": "https://dc.lft.to/lastmile_qr_scan", "android": "https://dc.lft.to/lastmile_qr_scan"}, "lon": -77.016509, "bike_id": "ff59171bcfa22140018a5f049b4cd05d", "type": "electric_scooter", "name": "ff59171bcfa22140018a5f049b4cd05d"}, {"is_disabled": 0, "is_reserved": 0, "fusion_lat": 0.0, "lat": 38.915676166666664, "fusion_lon": 0.0, "rental_uris": {"ios": "https://dc.lft.to/lastmile_qr_scan", "android": "https://dc.lft.to/lastmile_qr_scan"}, "lon": -77.03144233333333, "bike_id": "1c96886f428db42a4abdfa23e25920d5", "type": "electric_scooter", "name": "1c96886f428db42a4abdfa23e25920d5"}, {"is_disabled": 0, "is_reserved": 0, "fusion_lat": 0.0, "lat": 38.89223833333333, "fusion_lon": 0.0, "rental_uris": {"ios": "https://dc.lft.to/lastmile_qr_scan", "android": "https://dc.lft.to/lastmile_qr_scan"}, "lon": -77.04687566666666, "bike_id": "76131738d61837dccd24f5fc7830f69c", "type": "electric_scooter", "name": "76131738d61837dccd24f5fc7830f69c"}, {"is_disabled": 0, "is_reserved": 0, "fusion_lat": 0.0, "lat": 38.92521983333334, "fusion_lon": 0.0, "rental_uris": {"ios": "https://dc.lft.to/lastmile_qr_scan", "android": "https://dc.lft.to/lastmile_qr_scan"}, "lon": -77.02962016666666, "bike_id": "3b0a1a2204b9004ae8be80e0d0f3c902", "type": "electric_scooter", "name": "3b0a1a2204b9004ae8be80e0d0f3c902"}, {"is_disabled": 0, "is_reserved": 0, "fusion_lat": 0.0, "lat": 38.961853, "fusion_lon": 0.0, "rental_uris": {"ios": "https://dc.lft.to/lastmile_qr_scan", "android": "https://dc.lft.to/lastmile_qr_scan"}, "lon": -77.09903183333333, "bike_id": "c5b2460a76dc9b1ef05cedbee64e86a9", "type": "electric_bike", "name": "c5b2460a76dc9b1ef05cedbee64e86a9"}, {"is_disabled": 0, "is_reserved": 0, "fusion_lat": 0.0, "lat": 38.89332816666667, "fusion_lon": 0.0, "rental_uris": {"ios": "https://dc.lft.to/lastmile_qr_scan", "android": "https://dc.lft.to/lastmile_qr_scan"}, "lon": -76.92891633333333, "bike_id": "27c362f7e6c5f80529fb5327e90e53b6", "type": "electric_scooter", "name": "27c362f7e6c5f80529fb5327e90e53b6"}, {"is_disabled": 0, "is_reserved": 0, "fusion_lat": 0.0, "lat": 38.896102666666664, "fusion_lon": 0.0, "rental_uris": {"ios": "https://dc.lft.to/lastmile_qr_scan", "android": "https://dc.lft.to/lastmile_qr_scan"}, "lon": -77.04542016666667, "bike_id": "68faaf41b69512e8769d2091b3d980ef", "type": "electric_scooter", "name": "68faaf41b69512e8769d2091b3d980ef"}, {"is_disabled": 0, "is_reserved": 0, "fusion_lat": 0.0, "lat": 38.866831, "fusion_lon": 0.0, "rental_uris": {"ios": "https://dc.lft.to/lastmile_qr_scan", "android": "https://dc.lft.to/lastmile_qr_scan"}, "lon": -76.9485735, "bike_id": "48f33fb0233278ecc6eda57a15d9186b", "type": "electric_scooter", "name": "48f33fb0233278ecc6eda57a15d9186b"}, {"is_disabled": 0, "is_reserved": 0, "fusion_lat": 0.0, "lat": 38.924401833333334, "fusion_lon": 0.0, "rental_uris": {"ios": "https://dc.lft.to/lastmile_qr_scan", "android": "https://dc.lft.to/lastmile_qr_scan"}, "lon": -77.03405466666666, "bike_id": "592380270b1356b35ea82f4ec3216900", "type": "electric_scooter", "name": "592380270b1356b35ea82f4ec3216900"}, {"is_disabled": 0, "is_reserved": 0, "fusion_lat": 0.0, "lat": 38.857173333333336, "fusion_lon": 0.0, "rental_uris": {"ios": "https://dc.lft.to/lastmile_qr_scan", "android": "https://dc.lft.to/lastmile_qr_scan"}, "lon": -76.98099166666667, "bike_id": "8413e23e556c46fc5b0034582e1d0040", "type": "electric_scooter", "name": "8413e23e556c46fc5b0034582e1d0040"}, {"is_disabled": 0, "is_reserved": 0, "fusion_lat": 0.0, "lat": 38.871704666666666, "fusion_lon": 0.0, "rental_uris": {"ios": "https://dc.lft.to/lastmile_qr_scan", "android": "https://dc.lft.to/lastmile_qr_scan"}, "lon": -77.00627133333333, "bike_id": "2cf8cf261d0975899f22f2a4dd098cea", "type": "electric_scooter", "name": "2cf8cf261d0975899f22f2a4dd098cea"}, {"is_disabled": 0, "is_reserved": 0, "fusion_lat": 0.0, "lat": 38.907732, "fusion_lon": 0.0, "rental_uris": {"ios": "https://dc.lft.to/lastmile_qr_scan", "android": "https://dc.lft.to/lastmile_qr_scan"}, "lon": -77.04239566666666, "bike_id": "2193b6d5fd367ddfd4c8bc62277d6ffa", "type": "electric_scooter", "name": "2193b6d5fd367ddfd4c8bc62277d6ffa"}, {"is_disabled": 0, "is_reserved": 0, "fusion_lat": 0.0, "lat": 38.9340295, "fusion_lon": 0.0, "rental_uris": {"ios": "https://dc.lft.to/lastmile_qr_scan", "android": "https://dc.lft.to/lastmile_qr_scan"}, "lon": -77.03540416666667, "bike_id": "57c560d1cc96e8b57343614e6461f93b", "type": "electric_bike", "name": "57c560d1cc96e8b57343614e6461f93b"}, {"is_disabled": 0, "is_reserved": 0, "fusion_lat": 0.0, "lat": 38.8967655, "fusion_lon": 0.0, "rental_uris": {"ios": "https://dc.lft.to/lastmile_qr_scan", "android": "https://dc.lft.to/lastmile_qr_scan"}, "lon": -77.05467116666667, "bike_id": "f90e1fb1960a7ed28b89ce92a60a3355", "type": "electric_scooter", "name": "f90e1fb1960a7ed28b89ce92a60a3355"}, {"is_disabled": 0, "is_reserved": 0, "fusion_lat": 0.0, "lat": 38.884808666666665, "fusion_lon": 0.0, "rental_uris": {"ios": "https://dc.lft.to/lastmile_qr_scan", "android": "https://dc.lft.to/lastmile_qr_scan"}, "lon": -77.02631566666666, "bike_id": "8e267f747686e95d67cb7460707e46e0", "type": "electric_scooter", "name": "8e267f747686e95d67cb7460707e46e0"}, {"is_disabled": 0, "is_reserved": 0, "fusion_lat": 0.0, "lat": 38.90578083333333, "fusion_lon": 0.0, "rental_uris": {"ios": "https://dc.lft.to/lastmile_qr_scan", "android": "https://dc.lft.to/lastmile_qr_scan"}, "lon": -77.0072905, "bike_id": "2b79998861e02f93284f021b3ac522b8", "type": "electric_scooter", "name": "2b79998861e02f93284f021b3ac522b8"}, {"is_disabled": 0, "is_reserved": 0, "fusion_lat": 0.0, "lat": 38.902484, "fusion_lon": 0.0, "rental_uris": {"ios": "https://dc.lft.to/lastmile_qr_scan", "android": "https://dc.lft.to/lastmile_qr_scan"}, "lon": -77.01764233333333, "bike_id": "725d1a4d57ca74d443ec8cf66616bf21", "type": "electric_scooter", "name": "725d1a4d57ca74d443ec8cf66616bf21"}, {"is_disabled": 0, "is_reserved": 0, "fusion_lat": 0.0, "lat": 38.949206333333336, "fusion_lon": 0.0, "rental_uris": {"ios": "https://dc.lft.to/lastmile_qr_scan", "android": "https://dc.lft.to/lastmile_qr_scan"}, "lon": -77.02312066666667, "bike_id": "076952c6584f9151f19111101b252e9b", "type": "electric_scooter", "name": "076952c6584f9151f19111101b252e9b"}, {"is_disabled": 0, "is_reserved": 0, "fusion_lat": 0.0, "lat": 38.89752816666667, "fusion_lon": 0.0, "rental_uris": {"ios": "https://dc.lft.to/lastmile_qr_scan", "android": "https://dc.lft.to/lastmile_qr_scan"}, "lon": -77.0212505, "bike_id": "120185e5f0bffc897e8ae3cfcfe7a2fa", "type": "electric_scooter", "name": "120185e5f0bffc897e8ae3cfcfe7a2fa"}, {"is_disabled": 0, "is_reserved": 0, "fusion_lat": 0.0, "lat": 38.8076915, "fusion_lon": 0.0, "rental_uris": {"ios": "https://dc.lft.to/lastmile_qr_scan", "android": "https://dc.lft.to/lastmile_qr_scan"}, "lon": -77.05740933333334, "bike_id": "895f96cb3dcff2fc745ce7e3d031c0c5", "type": "electric_bike", "name": "895f96cb3dcff2fc745ce7e3d031c0c5"}, {"is_disabled": 0, "is_reserved": 0, "fusion_lat": 0.0, "lat": 38.90490883333333, "fusion_lon": 0.0, "rental_uris": {"ios": "https://dc.lft.to/lastmile_qr_scan", "android": "https://dc.lft.to/lastmile_qr_scan"}, "lon": -76.949615, "bike_id": "c730c88392a4ab19b43055a343856815", "type": "electric_scooter", "name": "c730c88392a4ab19b43055a343856815"}, {"is_disabled": 0, "is_reserved": 0, "fusion_lat": 0.0, "lat": 38.939071, "fusion_lon": 0.0, "rental_uris": {"ios": "https://dc.lft.to/lastmile_qr_scan", "android": "https://dc.lft.to/lastmile_qr_scan"}, "lon": -77.077642, "bike_id": "f0eaedd9191a7680556aa305c13d4ea4", "type": "electric_scooter", "name": "f0eaedd9191a7680556aa305c13d4ea4"}, {"is_disabled": 0, "is_reserved": 0, "fusion_lat": 0.0, "lat": 38.90678166666667, "fusion_lon": 0.0, "rental_uris": {"ios": "https://dc.lft.to/lastmile_qr_scan", "android": "https://dc.lft.to/lastmile_qr_scan"}, "lon": -77.02719416666666, "bike_id": "068e615444f5a2acc7e48eadd68f3996", "type": "electric_scooter", "name": "068e615444f5a2acc7e48eadd68f3996"}, {"is_disabled": 0, "is_reserved": 0, "fusion_lat": 0.0, "lat": 38.92543216666667, "fusion_lon": 0.0, "rental_uris": {"ios": "https://dc.lft.to/lastmile_qr_scan", "android": "https://dc.lft.to/lastmile_qr_scan"}, "lon": -77.0256275, "bike_id": "86faba8366f605d7f4c9d7b33c28eb2d", "type": "electric_scooter", "name": "86faba8366f605d7f4c9d7b33c28eb2d"}, {"is_disabled": 0, "is_reserved": 0, "fusion_lat": 0.0, "lat": 38.95585783333333, "fusion_lon": 0.0, "rental_uris": {"ios": "https://dc.lft.to/lastmile_qr_scan", "android": "https://dc.lft.to/lastmile_qr_scan"}, "lon": -77.02809233333333, "bike_id": "bf742ecdba4ce5528f558e29674dbd84", "type": "electric_scooter", "name": "bf742ecdba4ce5528f558e29674dbd84"}, {"is_disabled": 0, "is_reserved": 0, "fusion_lat": 0.0, "lat": 38.85793, "fusion_lon": 0.0, "rental_uris": {"ios": "https://dc.lft.to/lastmile_qr_scan", "android": "https://dc.lft.to/lastmile_qr_scan"}, "lon": -77.09960833333334, "bike_id": "9288ce9cd8eb28cfbeae0220a70cc80c", "type": "electric_bike", "name": "9288ce9cd8eb28cfbeae0220a70cc80c"}, {"is_disabled": 0, "is_reserved": 0, "fusion_lat": 0.0, "lat": 38.95137733333333, "fusion_lon": 0.0, "rental_uris": {"ios": "https://dc.lft.to/lastmile_qr_scan", "android": "https://dc.lft.to/lastmile_qr_scan"}, "lon": -76.9662775, "bike_id": "d1a2ce1c555414c4b1ca7fa24751d721", "type": "electric_bike", "name": "d1a2ce1c555414c4b1ca7fa24751d721"}, {"is_disabled": 0, "is_reserved": 0, "fusion_lat": 0.0, "lat": 38.9073375, "fusion_lon": 0.0, "rental_uris": {"ios": "https://dc.lft.to/lastmile_qr_scan", "android": "https://dc.lft.to/lastmile_qr_scan"}, "lon": -77.02727683333333, "bike_id": "5f4d3afc5c2471d2687c24df85dbcb88", "type": "electric_scooter", "name": "5f4d3afc5c2471d2687c24df85dbcb88"}, {"is_disabled": 0, "is_reserved": 0, "fusion_lat": 0.0, "lat": 38.900295, "fusion_lon": 0.0, "rental_uris": {"ios": "https://dc.lft.to/lastmile_qr_scan", "android": "https://dc.lft.to/lastmile_qr_scan"}, "lon": -77.00197466666667, "bike_id": "5e25674444ad0eb8c5d29a2318e39f97", "type": "electric_scooter", "name": "5e25674444ad0eb8c5d29a2318e39f97"}, {"is_disabled": 0, "is_reserved": 0, "fusion_lat": 0.0, "lat": 38.917703833333334, "fusion_lon": 0.0, "rental_uris": {"ios": "https://dc.lft.to/lastmile_qr_scan", "android": "https://dc.lft.to/lastmile_qr_scan"}, "lon": -77.02950766666666, "bike_id": "c2f904a91e4c38e876892e1befe5cd17", "type": "electric_scooter", "name": "c2f904a91e4c38e876892e1befe5cd17"}, {"is_disabled": 0, "is_reserved": 0, "fusion_lat": 0.0, "lat": 38.918049, "fusion_lon": 0.0, "rental_uris": {"ios": "https://dc.lft.to/lastmile_qr_scan", "android": "https://dc.lft.to/lastmile_qr_scan"}, "lon": -77.02495033333334, "bike_id": "a8b99270fd1b9b716b4b715894d02012", "type": "electric_scooter", "name": "a8b99270fd1b9b716b4b715894d02012"}, {"is_disabled": 0, "is_reserved": 0, "fusion_lat": 0.0, "lat": 38.9125795, "fusion_lon": 0.0, "rental_uris": {"ios": "https://dc.lft.to/lastmile_qr_scan", "android": "https://dc.lft.to/lastmile_qr_scan"}, "lon": -77.03829866666666, "bike_id": "566b87a05f0b733648dd7ce4ca3c614c", "type": "electric_scooter", "name": "566b87a05f0b733648dd7ce4ca3c614c"}, {"is_disabled": 0, "is_reserved": 0, "fusion_lat": 0.0, "lat": 38.896063833333336, "fusion_lon": 0.0, "rental_uris": {"ios": "https://dc.lft.to/lastmile_qr_scan", "android": "https://dc.lft.to/lastmile_qr_scan"}, "lon": -77.04508033333333, "bike_id": "80369f826420af374b5baa7414c27d5e", "type": "electric_scooter", "name": "80369f826420af374b5baa7414c27d5e"}, {"is_disabled": 0, "is_reserved": 0, "fusion_lat": 0.0, "lat": 38.9000065, "fusion_lon": 0.0, "rental_uris": {"ios": "https://dc.lft.to/lastmile_qr_scan", "android": "https://dc.lft.to/lastmile_qr_scan"}, "lon": -77.02710616666667, "bike_id": "d97cbc13d5b6fc835ddbdb565f41ca9d", "type": "electric_scooter", "name": "d97cbc13d5b6fc835ddbdb565f41ca9d"}, {"is_disabled": 0, "is_reserved": 0, "fusion_lat": 0.0, "lat": 38.905255333333336, "fusion_lon": 0.0, "rental_uris": {"ios": "https://dc.lft.to/lastmile_qr_scan", "android": "https://dc.lft.to/lastmile_qr_scan"}, "lon": -77.04853333333334, "bike_id": "7784b91ee37d09b447f905df6a500d19", "type": "electric_scooter", "name": "7784b91ee37d09b447f905df6a500d19"}, {"is_disabled": 0, "is_reserved": 0, "fusion_lat": 0.0, "lat": 38.92110866666667, "fusion_lon": 0.0, "rental_uris": {"ios": "https://dc.lft.to/lastmile_qr_scan", "android": "https://dc.lft.to/lastmile_qr_scan"}, "lon": -77.02194833333333, "bike_id": "46ba43ba210097324a9aadcfdb7fad40", "type": "electric_scooter", "name": "46ba43ba210097324a9aadcfdb7fad40"}, {"is_disabled": 0, "is_reserved": 0, "fusion_lat": 0.0, "lat": 38.91212, "fusion_lon": 0.0, "rental_uris": {"ios": "https://dc.lft.to/lastmile_qr_scan", "android": "https://dc.lft.to/lastmile_qr_scan"}, "lon": -77.07591766666667, "bike_id": "0ef2cdaf40a3e6651b2ef6ca98996b78", "type": "electric_scooter", "name": "0ef2cdaf40a3e6651b2ef6ca98996b78"}, {"is_disabled": 0, "is_reserved": 0, "fusion_lat": 0.0, "lat": 38.90512983333333, "fusion_lon": 0.0, "rental_uris": {"ios": "https://dc.lft.to/lastmile_qr_scan", "android": "https://dc.lft.to/lastmile_qr_scan"}, "lon": -76.95205833333333, "bike_id": "50e58f4400fbc0ddf305d41e916e1413", "type": "electric_scooter", "name": "50e58f4400fbc0ddf305d41e916e1413"}, {"is_disabled": 0, "is_reserved": 0, "fusion_lat": 0.0, "lat": 38.92293466666667, "fusion_lon": 0.0, "rental_uris": {"ios": "https://dc.lft.to/lastmile_qr_scan", "android": "https://dc.lft.to/lastmile_qr_scan"}, "lon": -77.04229766666667, "bike_id": "7757aaacfed6b406f3f0f666313e006d", "type": "electric_scooter", "name": "7757aaacfed6b406f3f0f666313e006d"}, {"is_disabled": 0, "is_reserved": 0, "fusion_lat": 0.0, "lat": 38.948184, "fusion_lon": 0.0, "rental_uris": {"ios": "https://dc.lft.to/lastmile_qr_scan", "android": "https://dc.lft.to/lastmile_qr_scan"}, "lon": -77.0254475, "bike_id": "4bc69c5ee8d794c70e67b898cc61e5b5", "type": "electric_scooter", "name": "4bc69c5ee8d794c70e67b898cc61e5b5"}, {"is_disabled": 0, "is_reserved": 0, "fusion_lat": 0.0, "lat": 38.90277483333333, "fusion_lon": 0.0, "rental_uris": {"ios": "https://dc.lft.to/lastmile_qr_scan", "android": "https://dc.lft.to/lastmile_qr_scan"}, "lon": -77.0591695, "bike_id": "b14910d93c1a01cfe5542fc67c691d0f", "type": "electric_scooter", "name": "b14910d93c1a01cfe5542fc67c691d0f"}, {"is_disabled": 0, "is_reserved": 0, "fusion_lat": 0.0, "lat": 38.938633833333334, "fusion_lon": 0.0, "rental_uris": {"ios": "https://dc.lft.to/lastmile_qr_scan", "android": "https://dc.lft.to/lastmile_qr_scan"}, "lon": -77.03045183333333, "bike_id": "04e9a66bdad80109e19bdff170c78e83", "type": "electric_scooter", "name": "04e9a66bdad80109e19bdff170c78e83"}, {"is_disabled": 0, "is_reserved": 0, "fusion_lat": 0.0, "lat": 38.906811166666664, "fusion_lon": 0.0, "rental_uris": {"ios": "https://dc.lft.to/lastmile_qr_scan", "android": "https://dc.lft.to/lastmile_qr_scan"}, "lon": -77.053185, "bike_id": "835ee1a87d5b7141bb1ffe2a6a5efed1", "type": "electric_scooter", "name": "835ee1a87d5b7141bb1ffe2a6a5efed1"}, {"is_disabled": 0, "is_reserved": 0, "fusion_lat": 0.0, "lat": 38.852208833333336, "fusion_lon": 0.0, "rental_uris": {"ios": "https://dc.lft.to/lastmile_qr_scan", "android": "https://dc.lft.to/lastmile_qr_scan"}, "lon": -76.99374466666667, "bike_id": "3d71ddd03d437e670f7b2f324e0ac529", "type": "electric_bike", "name": "3d71ddd03d437e670f7b2f324e0ac529"}, {"is_disabled": 0, "is_reserved": 0, "fusion_lat": 0.0, "lat": 38.92007516666666, "fusion_lon": 0.0, "rental_uris": {"ios": "https://dc.lft.to/lastmile_qr_scan", "android": "https://dc.lft.to/lastmile_qr_scan"}, "lon": -77.04171483333333, "bike_id": "3a0446f7d4dcd64d0d62cb2f678f145d", "type": "electric_scooter", "name": "3a0446f7d4dcd64d0d62cb2f678f145d"}, {"is_disabled": 0, "is_reserved": 0, "fusion_lat": 0.0, "lat": 38.905910166666665, "fusion_lon": 0.0, "rental_uris": {"ios": "https://dc.lft.to/lastmile_qr_scan", "android": "https://dc.lft.to/lastmile_qr_scan"}, "lon": -77.00717816666666, "bike_id": "a892ef4496eb3ea0eb3b65131241e6eb", "type": "electric_scooter", "name": "a892ef4496eb3ea0eb3b65131241e6eb"}, {"is_disabled": 0, "is_reserved": 0, "fusion_lat": 0.0, "lat": 38.88282483333333, "fusion_lon": 0.0, "rental_uris": {"ios": "https://dc.lft.to/lastmile_qr_scan", "android": "https://dc.lft.to/lastmile_qr_scan"}, "lon": -76.9323655, "bike_id": "382fb4994ccc7066ac05712988f6ce22", "type": "electric_bike", "name": "382fb4994ccc7066ac05712988f6ce22"}, {"is_disabled": 0, "is_reserved": 0, "fusion_lat": 0.0, "lat": 38.924756, "fusion_lon": 0.0, "rental_uris": {"ios": "https://dc.lft.to/lastmile_qr_scan", "android": "https://dc.lft.to/lastmile_qr_scan"}, "lon": -77.03528033333333, "bike_id": "71608d36f79848afb7cd6df4a1076e3e", "type": "electric_scooter", "name": "71608d36f79848afb7cd6df4a1076e3e"}, {"is_disabled": 0, "is_reserved": 0, "fusion_lat": 0.0, "lat": 38.902023666666665, "fusion_lon": 0.0, "rental_uris": {"ios": "https://dc.lft.to/lastmile_qr_scan", "android": "https://dc.lft.to/lastmile_qr_scan"}, "lon": -77.05011516666667, "bike_id": "17414273de5511d5f8936a5a6a8c63ef", "type": "electric_scooter", "name": "17414273de5511d5f8936a5a6a8c63ef"}, {"is_disabled": 0, "is_reserved": 0, "fusion_lat": 0.0, "lat": 38.909741333333336, "fusion_lon": 0.0, "rental_uris": {"ios": "https://dc.lft.to/lastmile_qr_scan", "android": "https://dc.lft.to/lastmile_qr_scan"}, "lon": -77.02416283333334, "bike_id": "fb6fd4a0625fa942410a0639b32f7d44", "type": "electric_scooter", "name": "fb6fd4a0625fa942410a0639b32f7d44"}, {"is_disabled": 0, "is_reserved": 0, "fusion_lat": 0.0, "lat": 38.914193166666664, "fusion_lon": 0.0, "rental_uris": {"ios": "https://dc.lft.to/lastmile_qr_scan", "android": "https://dc.lft.to/lastmile_qr_scan"}, "lon": -77.03175416666667, "bike_id": "505c4f13ac40c914156a54cb772301f4", "type": "electric_scooter", "name": "505c4f13ac40c914156a54cb772301f4"}, {"is_disabled": 0, "is_reserved": 0, "fusion_lat": 0.0, "lat": 38.921657833333335, "fusion_lon": 0.0, "rental_uris": {"ios": "https://dc.lft.to/lastmile_qr_scan", "android": "https://dc.lft.to/lastmile_qr_scan"}, "lon": -77.04230766666667, "bike_id": "6f9e5b69cb3eb77dab300e840001eeb2", "type": "electric_scooter", "name": "6f9e5b69cb3eb77dab300e840001eeb2"}, {"is_disabled": 0, "is_reserved": 0, "fusion_lat": 0.0, "lat": 38.942915, "fusion_lon": 0.0, "rental_uris": {"ios": "https://dc.lft.to/lastmile_qr_scan", "android": "https://dc.lft.to/lastmile_qr_scan"}, "lon": -77.02175083333333, "bike_id": "f81d0d6c939f65ee7b458b87c44017be", "type": "electric_scooter", "name": "f81d0d6c939f65ee7b458b87c44017be"}, {"is_disabled": 0, "is_reserved": 0, "fusion_lat": 0.0, "lat": 38.896665666666664, "fusion_lon": 0.0, "rental_uris": {"ios": "https://dc.lft.to/lastmile_qr_scan", "android": "https://dc.lft.to/lastmile_qr_scan"}, "lon": -76.94909416666667, "bike_id": "5861059220b6539f661f2f49772f9d08", "type": "electric_scooter", "name": "5861059220b6539f661f2f49772f9d08"}, {"is_disabled": 0, "is_reserved": 0, "fusion_lat": 0.0, "lat": 38.94172866666667, "fusion_lon": 0.0, "rental_uris": {"ios": "https://dc.lft.to/lastmile_qr_scan", "android": "https://dc.lft.to/lastmile_qr_scan"}, "lon": -77.01530566666666, "bike_id": "40b5ec545ad40541eb51ea46fb59f91d", "type": "electric_scooter", "name": "40b5ec545ad40541eb51ea46fb59f91d"}, {"is_disabled": 0, "is_reserved": 0, "fusion_lat": 0.0, "lat": 38.90960583333333, "fusion_lon": 0.0, "rental_uris": {"ios": "https://dc.lft.to/lastmile_qr_scan", "android": "https://dc.lft.to/lastmile_qr_scan"}, "lon": -77.0473095, "bike_id": "c3709bef4c98b45ee7190a03d8589d65", "type": "electric_scooter", "name": "c3709bef4c98b45ee7190a03d8589d65"}, {"is_disabled": 0, "is_reserved": 0, "fusion_lat": 0.0, "lat": 38.9147945, "fusion_lon": 0.0, "rental_uris": {"ios": "https://dc.lft.to/lastmile_qr_scan", "android": "https://dc.lft.to/lastmile_qr_scan"}, "lon": -77.01885366666667, "bike_id": "e76d977ded46f28ba9b06e500286cb89", "type": "electric_scooter", "name": "e76d977ded46f28ba9b06e500286cb89"}, {"is_disabled": 0, "is_reserved": 0, "fusion_lat": 0.0, "lat": 38.915427666666666, "fusion_lon": 0.0, "rental_uris": {"ios": "https://dc.lft.to/lastmile_qr_scan", "android": "https://dc.lft.to/lastmile_qr_scan"}, "lon": -77.04453, "bike_id": "8b49d7cd212e54ddaf2461c29c791418", "type": "electric_scooter", "name": "8b49d7cd212e54ddaf2461c29c791418"}, {"is_disabled": 0, "is_reserved": 0, "fusion_lat": 0.0, "lat": 38.926707666666665, "fusion_lon": 0.0, "rental_uris": {"ios": "https://dc.lft.to/lastmile_qr_scan", "android": "https://dc.lft.to/lastmile_qr_scan"}, "lon": -77.03088883333334, "bike_id": "9d760a46f7befe2eaf112ade587c5f2e", "type": "electric_scooter", "name": "9d760a46f7befe2eaf112ade587c5f2e"}, {"is_disabled": 0, "is_reserved": 0, "fusion_lat": 0.0, "lat": 38.9043835, "fusion_lon": 0.0, "rental_uris": {"ios": "https://dc.lft.to/lastmile_qr_scan", "android": "https://dc.lft.to/lastmile_qr_scan"}, "lon": -76.972303, "bike_id": "8b87dc37c11d401da1d25729b5bc9d70", "type": "electric_bike", "name": "8b87dc37c11d401da1d25729b5bc9d70"}, {"is_disabled": 0, "is_reserved": 0, "fusion_lat": 0.0, "lat": 38.918167833333335, "fusion_lon": 0.0, "rental_uris": {"ios": "https://dc.lft.to/lastmile_qr_scan", "android": "https://dc.lft.to/lastmile_qr_scan"}, "lon": -77.03792983333334, "bike_id": "e8ab9348bff6f0e709bd612f78419767", "type": "electric_scooter", "name": "e8ab9348bff6f0e709bd612f78419767"}, {"is_disabled": 0, "is_reserved": 0, "fusion_lat": 0.0, "lat": 38.91842583333333, "fusion_lon": 0.0, "rental_uris": {"ios": "https://dc.lft.to/lastmile_qr_scan", "android": "https://dc.lft.to/lastmile_qr_scan"}, "lon": -77.039102, "bike_id": "1ff132306839f0d370ef7ce4c155fd65", "type": "electric_scooter", "name": "1ff132306839f0d370ef7ce4c155fd65"}, {"is_disabled": 0, "is_reserved": 0, "fusion_lat": 0.0, "lat": 38.93000716666667, "fusion_lon": 0.0, "rental_uris": {"ios": "https://dc.lft.to/lastmile_qr_scan", "android": "https://dc.lft.to/lastmile_qr_scan"}, "lon": -77.03196183333333, "bike_id": "7bb2da049e563e1849dd843b48f02226", "type": "electric_scooter", "name": "7bb2da049e563e1849dd843b48f02226"}, {"is_disabled": 0, "is_reserved": 0, "fusion_lat": 0.0, "lat": 38.9033475, "fusion_lon": 0.0, "rental_uris": {"ios": "https://dc.lft.to/lastmile_qr_scan", "android": "https://dc.lft.to/lastmile_qr_scan"}, "lon": -77.03656383333333, "bike_id": "26b03fef3531257bb32e69aca37cd7cd", "type": "electric_scooter", "name": "26b03fef3531257bb32e69aca37cd7cd"}, {"is_disabled": 0, "is_reserved": 0, "fusion_lat": 0.0, "lat": 38.93283816666667, "fusion_lon": 0.0, "rental_uris": {"ios": "https://dc.lft.to/lastmile_qr_scan", "android": "https://dc.lft.to/lastmile_qr_scan"}, "lon": -77.03507133333333, "bike_id": "be5b79b086224858f6bcd07c47bdc53a", "type": "electric_scooter", "name": "be5b79b086224858f6bcd07c47bdc53a"}, {"is_disabled": 0, "is_reserved": 0, "fusion_lat": 0.0, "lat": 38.92258283333334, "fusion_lon": 0.0, "rental_uris": {"ios": "https://dc.lft.to/lastmile_qr_scan", "android": "https://dc.lft.to/lastmile_qr_scan"}, "lon": -77.0430305, "bike_id": "2123630fe08884672a149fff093ed498", "type": "electric_scooter", "name": "2123630fe08884672a149fff093ed498"}, {"is_disabled": 0, "is_reserved": 0, "fusion_lat": 0.0, "lat": 38.922850333333336, "fusion_lon": 0.0, "rental_uris": {"ios": "https://dc.lft.to/lastmile_qr_scan", "android": "https://dc.lft.to/lastmile_qr_scan"}, "lon": -77.03664466666666, "bike_id": "d567db36faae316142e2440f62dddd6f", "type": "electric_scooter", "name": "d567db36faae316142e2440f62dddd6f"}, {"is_disabled": 0, "is_reserved": 0, "fusion_lat": 0.0, "lat": 38.829106333333335, "fusion_lon": 0.0, "rental_uris": {"ios": "https://dc.lft.to/lastmile_qr_scan", "android": "https://dc.lft.to/lastmile_qr_scan"}, "lon": -77.07281233333333, "bike_id": "c9372d4dbdc12cdc970c899789cff63b", "type": "electric_bike", "name": "c9372d4dbdc12cdc970c899789cff63b"}, {"is_disabled": 0, "is_reserved": 0, "fusion_lat": 0.0, "lat": 38.94226916666667, "fusion_lon": 0.0, "rental_uris": {"ios": "https://dc.lft.to/lastmile_qr_scan", "android": "https://dc.lft.to/lastmile_qr_scan"}, "lon": -77.01439583333334, "bike_id": "d64b3408ed6a84dffc5a3f85ac2b97d2", "type": "electric_scooter", "name": "d64b3408ed6a84dffc5a3f85ac2b97d2"}, {"is_disabled": 0, "is_reserved": 0, "fusion_lat": 0.0, "lat": 38.9265315, "fusion_lon": 0.0, "rental_uris": {"ios": "https://dc.lft.to/lastmile_qr_scan", "android": "https://dc.lft.to/lastmile_qr_scan"}, "lon": -77.03725783333333, "bike_id": "099e215c449b37f489dff1fc5167924f", "type": "electric_scooter", "name": "099e215c449b37f489dff1fc5167924f"}, {"is_disabled": 0, "is_reserved": 0, "fusion_lat": 0.0, "lat": 38.8874005, "fusion_lon": 0.0, "rental_uris": {"ios": "https://dc.lft.to/lastmile_qr_scan", "android": "https://dc.lft.to/lastmile_qr_scan"}, "lon": -76.9835785, "bike_id": "65020bd55bc404efed2d27805eb0cfd3", "type": "electric_scooter", "name": "65020bd55bc404efed2d27805eb0cfd3"}, {"is_disabled": 0, "is_reserved": 0, "fusion_lat": 0.0, "lat": 38.91215033333334, "fusion_lon": 0.0, "rental_uris": {"ios": "https://dc.lft.to/lastmile_qr_scan", "android": "https://dc.lft.to/lastmile_qr_scan"}, "lon": -77.03201916666667, "bike_id": "ba2f47dc1ec46a5529f89a3e5baabea9", "type": "electric_scooter", "name": "ba2f47dc1ec46a5529f89a3e5baabea9"}, {"is_disabled": 0, "is_reserved": 0, "fusion_lat": 0.0, "lat": 38.928759666666664, "fusion_lon": 0.0, "rental_uris": {"ios": "https://dc.lft.to/lastmile_qr_scan", "android": "https://dc.lft.to/lastmile_qr_scan"}, "lon": -77.03442366666667, "bike_id": "e0f2d130e88fb830a2ca81f7f33bf15d", "type": "electric_scooter", "name": "e0f2d130e88fb830a2ca81f7f33bf15d"}, {"is_disabled": 0, "is_reserved": 0, "fusion_lat": 0.0, "lat": 38.92048233333333, "fusion_lon": 0.0, "rental_uris": {"ios": "https://dc.lft.to/lastmile_qr_scan", "android": "https://dc.lft.to/lastmile_qr_scan"}, "lon": -77.0242795, "bike_id": "6a600e31e2cbb6ca549efcece76fa015", "type": "electric_bike", "name": "6a600e31e2cbb6ca549efcece76fa015"}, {"is_disabled": 0, "is_reserved": 0, "fusion_lat": 0.0, "lat": 38.913113, "fusion_lon": 0.0, "rental_uris": {"ios": "https://dc.lft.to/lastmile_qr_scan", "android": "https://dc.lft.to/lastmile_qr_scan"}, "lon": -77.0084965, "bike_id": "2c875e427c3e711d58551898c25b4bec", "type": "electric_scooter", "name": "2c875e427c3e711d58551898c25b4bec"}, {"is_disabled": 0, "is_reserved": 0, "fusion_lat": 0.0, "lat": 38.9180835, "fusion_lon": 0.0, "rental_uris": {"ios": "https://dc.lft.to/lastmile_qr_scan", "android": "https://dc.lft.to/lastmile_qr_scan"}, "lon": -77.000063, "bike_id": "9c114254c6e9be3789d57724bd4fe5d3", "type": "electric_scooter", "name": "9c114254c6e9be3789d57724bd4fe5d3"}, {"is_disabled": 0, "is_reserved": 0, "fusion_lat": 0.0, "lat": 38.91179233333333, "fusion_lon": 0.0, "rental_uris": {"ios": "https://dc.lft.to/lastmile_qr_scan", "android": "https://dc.lft.to/lastmile_qr_scan"}, "lon": -77.01213066666666, "bike_id": "c91e4e52648b26e7cdc78dc585877daf", "type": "electric_scooter", "name": "c91e4e52648b26e7cdc78dc585877daf"}, {"is_disabled": 0, "is_reserved": 0, "fusion_lat": 0.0, "lat": 38.898858833333335, "fusion_lon": 0.0, "rental_uris": {"ios": "https://dc.lft.to/lastmile_qr_scan", "android": "https://dc.lft.to/lastmile_qr_scan"}, "lon": -76.986856, "bike_id": "218c98cf603543a213da375cb0e3dcd8", "type": "electric_scooter", "name": "218c98cf603543a213da375cb0e3dcd8"}, {"is_disabled": 0, "is_reserved": 0, "fusion_lat": 0.0, "lat": 38.928201333333334, "fusion_lon": 0.0, "rental_uris": {"ios": "https://dc.lft.to/lastmile_qr_scan", "android": "https://dc.lft.to/lastmile_qr_scan"}, "lon": -77.059693, "bike_id": "dbbbcd778e19d0af6d4bd2cdfb9b723c", "type": "electric_bike", "name": "dbbbcd778e19d0af6d4bd2cdfb9b723c"}, {"is_disabled": 0, "is_reserved": 0, "fusion_lat": 0.0, "lat": 38.902630333333335, "fusion_lon": 0.0, "rental_uris": {"ios": "https://dc.lft.to/lastmile_qr_scan", "android": "https://dc.lft.to/lastmile_qr_scan"}, "lon": -77.01763933333334, "bike_id": "0ad54f5d803df579e364f38ee55f5c29", "type": "electric_scooter", "name": "0ad54f5d803df579e364f38ee55f5c29"}, {"is_disabled": 0, "is_reserved": 0, "fusion_lat": 0.0, "lat": 38.876293833333335, "fusion_lon": 0.0, "rental_uris": {"ios": "https://dc.lft.to/lastmile_qr_scan", "android": "https://dc.lft.to/lastmile_qr_scan"}, "lon": -77.02062066666667, "bike_id": "f21817126219077865d21525deaf9ca2", "type": "electric_scooter", "name": "f21817126219077865d21525deaf9ca2"}, {"is_disabled": 0, "is_reserved": 0, "fusion_lat": 0.0, "lat": 38.934608, "fusion_lon": 0.0, "rental_uris": {"ios": "https://dc.lft.to/lastmile_qr_scan", "android": "https://dc.lft.to/lastmile_qr_scan"}, "lon": -77.0291335, "bike_id": "5341dda05975f469785f77acdd6b5abf", "type": "electric_scooter", "name": "5341dda05975f469785f77acdd6b5abf"}, {"is_disabled": 0, "is_reserved": 0, "fusion_lat": 0.0, "lat": 38.91716616666667, "fusion_lon": 0.0, "rental_uris": {"ios": "https://dc.lft.to/lastmile_qr_scan", "android": "https://dc.lft.to/lastmile_qr_scan"}, "lon": -77.0347455, "bike_id": "e8119fcfddcc4406f6d687249fa8be20", "type": "electric_scooter", "name": "e8119fcfddcc4406f6d687249fa8be20"}, {"is_disabled": 0, "is_reserved": 0, "fusion_lat": 0.0, "lat": 38.91649066666667, "fusion_lon": 0.0, "rental_uris": {"ios": "https://dc.lft.to/lastmile_qr_scan", "android": "https://dc.lft.to/lastmile_qr_scan"}, "lon": -77.04671316666666, "bike_id": "3137bad3bf4ae85ddd69786cbc095937", "type": "electric_scooter", "name": "3137bad3bf4ae85ddd69786cbc095937"}, {"is_disabled": 0, "is_reserved": 0, "fusion_lat": 0.0, "lat": 38.88974416666667, "fusion_lon": 0.0, "rental_uris": {"ios": "https://dc.lft.to/lastmile_qr_scan", "android": "https://dc.lft.to/lastmile_qr_scan"}, "lon": -76.98180116666667, "bike_id": "f58950fba14fcd9a92c33c35a37aef7e", "type": "electric_scooter", "name": "f58950fba14fcd9a92c33c35a37aef7e"}, {"is_disabled": 0, "is_reserved": 0, "fusion_lat": 0.0, "lat": 38.899401, "fusion_lon": 0.0, "rental_uris": {"ios": "https://dc.lft.to/lastmile_qr_scan", "android": "https://dc.lft.to/lastmile_qr_scan"}, "lon": -76.9375815, "bike_id": "08c0d4165e44cf02aee26b5067f55101", "type": "electric_scooter", "name": "08c0d4165e44cf02aee26b5067f55101"}, {"is_disabled": 0, "is_reserved": 0, "fusion_lat": 0.0, "lat": 38.92526633333333, "fusion_lon": 0.0, "rental_uris": {"ios": "https://dc.lft.to/lastmile_qr_scan", "android": "https://dc.lft.to/lastmile_qr_scan"}, "lon": -77.03884883333333, "bike_id": "1d0781058b81558d9232635a2045006f", "type": "electric_scooter", "name": "1d0781058b81558d9232635a2045006f"}, {"is_disabled": 0, "is_reserved": 0, "fusion_lat": 0.0, "lat": 38.92346916666666, "fusion_lon": 0.0, "rental_uris": {"ios": "https://dc.lft.to/lastmile_qr_scan", "android": "https://dc.lft.to/lastmile_qr_scan"}, "lon": -77.03521866666667, "bike_id": "d8364b03aebc691a2ca52a505074fc71", "type": "electric_scooter", "name": "d8364b03aebc691a2ca52a505074fc71"}, {"is_disabled": 0, "is_reserved": 0, "fusion_lat": 0.0, "lat": 38.90159, "fusion_lon": 0.0, "rental_uris": {"ios": "https://dc.lft.to/lastmile_qr_scan", "android": "https://dc.lft.to/lastmile_qr_scan"}, "lon": -77.053336, "bike_id": "cf6ee1890811edeab063d8b464091874", "type": "electric_scooter", "name": "cf6ee1890811edeab063d8b464091874"}, {"is_disabled": 0, "is_reserved": 0, "fusion_lat": 0.0, "lat": 38.95879566666667, "fusion_lon": 0.0, "rental_uris": {"ios": "https://dc.lft.to/lastmile_qr_scan", "android": "https://dc.lft.to/lastmile_qr_scan"}, "lon": -77.01405966666667, "bike_id": "2a5cd1669c2a30830a8a96b2f4c49dd4", "type": "electric_bike", "name": "2a5cd1669c2a30830a8a96b2f4c49dd4"}, {"is_disabled": 0, "is_reserved": 0, "fusion_lat": 0.0, "lat": 38.919161833333334, "fusion_lon": 0.0, "rental_uris": {"ios": "https://dc.lft.to/lastmile_qr_scan", "android": "https://dc.lft.to/lastmile_qr_scan"}, "lon": -77.01184816666667, "bike_id": "fab6662db0c3c66da472089b8d244ba2", "type": "electric_scooter", "name": "fab6662db0c3c66da472089b8d244ba2"}, {"is_disabled": 0, "is_reserved": 0, "fusion_lat": 0.0, "lat": 38.92242933333333, "fusion_lon": 0.0, "rental_uris": {"ios": "https://dc.lft.to/lastmile_qr_scan", "android": "https://dc.lft.to/lastmile_qr_scan"}, "lon": -77.0342015, "bike_id": "00e634692c8f191a6a51f0ddaf5aa368", "type": "electric_scooter", "name": "00e634692c8f191a6a51f0ddaf5aa368"}, {"is_disabled": 0, "is_reserved": 0, "fusion_lat": 0.0, "lat": 38.8788555, "fusion_lon": 0.0, "rental_uris": {"ios": "https://dc.lft.to/lastmile_qr_scan", "android": "https://dc.lft.to/lastmile_qr_scan"}, "lon": -76.9654515, "bike_id": "a82085904966d2a0bddba279f2062870", "type": "electric_scooter", "name": "a82085904966d2a0bddba279f2062870"}, {"is_disabled": 0, "is_reserved": 0, "fusion_lat": 0.0, "lat": 38.92328633333333, "fusion_lon": 0.0, "rental_uris": {"ios": "https://dc.lft.to/lastmile_qr_scan", "android": "https://dc.lft.to/lastmile_qr_scan"}, "lon": -77.03670883333334, "bike_id": "5e0fe46bca5d48945f613c4f84918504", "type": "electric_scooter", "name": "5e0fe46bca5d48945f613c4f84918504"}, {"is_disabled": 0, "is_reserved": 0, "fusion_lat": 0.0, "lat": 38.95689016666667, "fusion_lon": 0.0, "rental_uris": {"ios": "https://dc.lft.to/lastmile_qr_scan", "android": "https://dc.lft.to/lastmile_qr_scan"}, "lon": -77.02233683333333, "bike_id": "13f6c6796accdd63631fe1c64b05368c", "type": "electric_scooter", "name": "13f6c6796accdd63631fe1c64b05368c"}, {"is_disabled": 0, "is_reserved": 0, "fusion_lat": 0.0, "lat": 38.9198995, "fusion_lon": 0.0, "rental_uris": {"ios": "https://dc.lft.to/lastmile_qr_scan", "android": "https://dc.lft.to/lastmile_qr_scan"}, "lon": -77.01792183333333, "bike_id": "6a16355e554534230f4196fd0660d309", "type": "electric_scooter", "name": "6a16355e554534230f4196fd0660d309"}, {"is_disabled": 0, "is_reserved": 0, "fusion_lat": 0.0, "lat": 38.917096, "fusion_lon": 0.0, "rental_uris": {"ios": "https://dc.lft.to/lastmile_qr_scan", "android": "https://dc.lft.to/lastmile_qr_scan"}, "lon": -77.03476683333334, "bike_id": "c5412f5704de8465199b91a57ad6c7cc", "type": "electric_scooter", "name": "c5412f5704de8465199b91a57ad6c7cc"}, {"is_disabled": 0, "is_reserved": 0, "fusion_lat": 0.0, "lat": 38.931984666666665, "fusion_lon": 0.0, "rental_uris": {"ios": "https://dc.lft.to/lastmile_qr_scan", "android": "https://dc.lft.to/lastmile_qr_scan"}, "lon": -77.02356433333334, "bike_id": "4806c61d3705808a2f19a4ee8d8910cf", "type": "electric_scooter", "name": "4806c61d3705808a2f19a4ee8d8910cf"}, {"is_disabled": 0, "is_reserved": 0, "fusion_lat": 0.0, "lat": 38.917744, "fusion_lon": 0.0, "rental_uris": {"ios": "https://dc.lft.to/lastmile_qr_scan", "android": "https://dc.lft.to/lastmile_qr_scan"}, "lon": -77.02311483333334, "bike_id": "3f1a57ca9d52cbde16f2dca388383ac6", "type": "electric_scooter", "name": "3f1a57ca9d52cbde16f2dca388383ac6"}, {"is_disabled": 0, "is_reserved": 0, "fusion_lat": 0.0, "lat": 38.896244333333335, "fusion_lon": 0.0, "rental_uris": {"ios": "https://dc.lft.to/lastmile_qr_scan", "android": "https://dc.lft.to/lastmile_qr_scan"}, "lon": -76.90756633333334, "bike_id": "4cedd269e48791169223f4975f3bca10", "type": "electric_bike", "name": "4cedd269e48791169223f4975f3bca10"}, {"is_disabled": 0, "is_reserved": 0, "fusion_lat": 0.0, "lat": 38.89221933333334, "fusion_lon": 0.0, "rental_uris": {"ios": "https://dc.lft.to/lastmile_qr_scan", "android": "https://dc.lft.to/lastmile_qr_scan"}, "lon": -77.04686816666667, "bike_id": "a6d0a206c2eeca9497118b5852192b91", "type": "electric_scooter", "name": "a6d0a206c2eeca9497118b5852192b91"}, {"is_disabled": 0, "is_reserved": 0, "fusion_lat": 0.0, "lat": 38.90272366666667, "fusion_lon": 0.0, "rental_uris": {"ios": "https://dc.lft.to/lastmile_qr_scan", "android": "https://dc.lft.to/lastmile_qr_scan"}, "lon": -77.02768783333333, "bike_id": "fa93fc4fc055bb03efbcc1fdf3ed7c6d", "type": "electric_scooter", "name": "fa93fc4fc055bb03efbcc1fdf3ed7c6d"}, {"is_disabled": 0, "is_reserved": 0, "fusion_lat": 0.0, "lat": 38.96779733333333, "fusion_lon": 0.0, "rental_uris": {"ios": "https://dc.lft.to/lastmile_qr_scan", "android": "https://dc.lft.to/lastmile_qr_scan"}, "lon": -76.996471, "bike_id": "9640bf3b439fdfd3129b3413761c8d09", "type": "electric_bike", "name": "9640bf3b439fdfd3129b3413761c8d09"}, {"is_disabled": 0, "is_reserved": 0, "fusion_lat": 0.0, "lat": 38.920523, "fusion_lon": 0.0, "rental_uris": {"ios": "https://dc.lft.to/lastmile_qr_scan", "android": "https://dc.lft.to/lastmile_qr_scan"}, "lon": -77.033962, "bike_id": "8fed1660ba88815f14971509bc7718f4", "type": "electric_scooter", "name": "8fed1660ba88815f14971509bc7718f4"}, {"is_disabled": 0, "is_reserved": 0, "fusion_lat": 0.0, "lat": 38.93906416666667, "fusion_lon": 0.0, "rental_uris": {"ios": "https://dc.lft.to/lastmile_qr_scan", "android": "https://dc.lft.to/lastmile_qr_scan"}, "lon": -77.03285483333333, "bike_id": "7ffca0a657d4b24c97062399defb0e39", "type": "electric_scooter", "name": "7ffca0a657d4b24c97062399defb0e39"}, {"is_disabled": 0, "is_reserved": 0, "fusion_lat": 0.0, "lat": 38.91129816666667, "fusion_lon": 0.0, "rental_uris": {"ios": "https://dc.lft.to/lastmile_qr_scan", "android": "https://dc.lft.to/lastmile_qr_scan"}, "lon": -76.99747883333333, "bike_id": "cdc03521e71ebe7b7ce2d7b5c99b6b94", "type": "electric_scooter", "name": "cdc03521e71ebe7b7ce2d7b5c99b6b94"}, {"is_disabled": 0, "is_reserved": 0, "fusion_lat": 0.0, "lat": 38.93229766666666, "fusion_lon": 0.0, "rental_uris": {"ios": "https://dc.lft.to/lastmile_qr_scan", "android": "https://dc.lft.to/lastmile_qr_scan"}, "lon": -77.03363383333334, "bike_id": "09a8de773a9d3ab8e6279c6ed75b37aa", "type": "electric_scooter", "name": "09a8de773a9d3ab8e6279c6ed75b37aa"}, {"is_disabled": 0, "is_reserved": 0, "fusion_lat": 0.0, "lat": 38.93866033333333, "fusion_lon": 0.0, "rental_uris": {"ios": "https://dc.lft.to/lastmile_qr_scan", "android": "https://dc.lft.to/lastmile_qr_scan"}, "lon": -77.02592733333333, "bike_id": "740a366ab13226647f2138dd3264d212", "type": "electric_scooter", "name": "740a366ab13226647f2138dd3264d212"}, {"is_disabled": 0, "is_reserved": 0, "fusion_lat": 0.0, "lat": 38.927799, "fusion_lon": 0.0, "rental_uris": {"ios": "https://dc.lft.to/lastmile_qr_scan", "android": "https://dc.lft.to/lastmile_qr_scan"}, "lon": -77.05261566666667, "bike_id": "a059708c58666b1f98dae7b36c59c3ca", "type": "electric_scooter", "name": "a059708c58666b1f98dae7b36c59c3ca"}, {"is_disabled": 0, "is_reserved": 0, "fusion_lat": 0.0, "lat": 38.925205166666665, "fusion_lon": 0.0, "rental_uris": {"ios": "https://dc.lft.to/lastmile_qr_scan", "android": "https://dc.lft.to/lastmile_qr_scan"}, "lon": -77.02132083333333, "bike_id": "fd5cb19e8d7b6252b1b9acf6700b57d7", "type": "electric_scooter", "name": "fd5cb19e8d7b6252b1b9acf6700b57d7"}, {"is_disabled": 0, "is_reserved": 0, "fusion_lat": 0.0, "lat": 38.906768166666666, "fusion_lon": 0.0, "rental_uris": {"ios": "https://dc.lft.to/lastmile_qr_scan", "android": "https://dc.lft.to/lastmile_qr_scan"}, "lon": -77.02718766666666, "bike_id": "61a47c151b1bd53174e08ad7a9ba02e2", "type": "electric_scooter", "name": "61a47c151b1bd53174e08ad7a9ba02e2"}, {"is_disabled": 0, "is_reserved": 0, "fusion_lat": 0.0, "lat": 38.93689033333333, "fusion_lon": 0.0, "rental_uris": {"ios": "https://dc.lft.to/lastmile_qr_scan", "android": "https://dc.lft.to/lastmile_qr_scan"}, "lon": -77.032797, "bike_id": "f24b88ecdae306711fb25235964ec09d", "type": "electric_scooter", "name": "f24b88ecdae306711fb25235964ec09d"}, {"is_disabled": 0, "is_reserved": 0, "fusion_lat": 0.0, "lat": 38.926160333333335, "fusion_lon": 0.0, "rental_uris": {"ios": "https://dc.lft.to/lastmile_qr_scan", "android": "https://dc.lft.to/lastmile_qr_scan"}, "lon": -77.02267366666666, "bike_id": "3365dfe71c506635bf0a0df931bcf88e", "type": "electric_scooter", "name": "3365dfe71c506635bf0a0df931bcf88e"}, {"is_disabled": 0, "is_reserved": 0, "fusion_lat": 0.0, "lat": 38.94294416666666, "fusion_lon": 0.0, "rental_uris": {"ios": "https://dc.lft.to/lastmile_qr_scan", "android": "https://dc.lft.to/lastmile_qr_scan"}, "lon": -77.07705916666667, "bike_id": "c68e4f4ca71d101d88ec806d708ff80b", "type": "electric_scooter", "name": "c68e4f4ca71d101d88ec806d708ff80b"}, {"is_disabled": 0, "is_reserved": 0, "fusion_lat": 0.0, "lat": 38.9676445, "fusion_lon": 0.0, "rental_uris": {"ios": "https://dc.lft.to/lastmile_qr_scan", "android": "https://dc.lft.to/lastmile_qr_scan"}, "lon": -77.03335816666667, "bike_id": "2e024ec68be3f52dd3644adb33901cea", "type": "electric_scooter", "name": "2e024ec68be3f52dd3644adb33901cea"}, {"is_disabled": 0, "is_reserved": 0, "fusion_lat": 0.0, "lat": 38.916232666666666, "fusion_lon": 0.0, "rental_uris": {"ios": "https://dc.lft.to/lastmile_qr_scan", "android": "https://dc.lft.to/lastmile_qr_scan"}, "lon": -77.05060516666667, "bike_id": "dca90d012fc04efda16ac975e5d2ba42", "type": "electric_scooter", "name": "dca90d012fc04efda16ac975e5d2ba42"}, {"is_disabled": 0, "is_reserved": 0, "fusion_lat": 0.0, "lat": 38.936447333333334, "fusion_lon": 0.0, "rental_uris": {"ios": "https://dc.lft.to/lastmile_qr_scan", "android": "https://dc.lft.to/lastmile_qr_scan"}, "lon": -77.036987, "bike_id": "b3198f5be262c5274852e1f3db21c4ff", "type": "electric_scooter", "name": "b3198f5be262c5274852e1f3db21c4ff"}, {"is_disabled": 0, "is_reserved": 0, "fusion_lat": 0.0, "lat": 38.89204066666667, "fusion_lon": 0.0, "rental_uris": {"ios": "https://dc.lft.to/lastmile_qr_scan", "android": "https://dc.lft.to/lastmile_qr_scan"}, "lon": -77.0439435, "bike_id": "0b99f494a413c9fedbcdd5a2ecb7efc5", "type": "electric_scooter", "name": "0b99f494a413c9fedbcdd5a2ecb7efc5"},