{"data": {"bikes": [{"bike_id": "bc8d31a726bae4ce8d9f0dd04b013400", "type": "electric_scooter", "is_disabled": 0, "lat": 38.9110765, "rental_uris": {"ios": "https://dc.lft.to/lastmile_qr_scan", "android": "https://dc.lft.to/lastmile_qr_scan"}, "is_reserved": 0, "fusion_lon": 0.0, "fusion_lat": 0.0, "lon": -77.04487483333334, "name": "bc8d31a726bae4ce8d9f0dd04b013400"}, {"bike_id": "474bd27bcca289e14ea5e41899e9db33", "type": "electric_scooter", "is_disabled": 0, "lat": 38.9568905, "rental_uris": {"ios": "https://dc.lft.to/lastmile_qr_scan", "android": "https://dc.lft.to/lastmile_qr_scan"}, "is_reserved": 0, "fusion_lon": 0.0, "fusion_lat": 0.0, "lon": -77.0239965, "name": "474bd27bcca289e14ea5e41899e9db33"}, {"bike_id": "9559a2c8c4a737fc1d981648d8102c22", "type": "electric_scooter", "is_disabled": 0, "lat": 38.907308666666665, "rental_uris": {"ios": "https://dc.lft.to/lastmile_qr_scan", "android": "https://dc.lft.to/lastmile_qr_scan"}, "is_reserved": 0, "fusion_lon": 0.0, "fusion_lat": 0.0, "lon": -77.05325916666666, "name": "9559a2c8c4a737fc1d981648d8102c22"}, {"bike_id": "f87e75c3dc56686eec929a149b456a51", "type": "electric_scooter", "is_disabled": 0, "lat": 38.914270333333334, "rental_uris": {"ios": "https://dc.lft.to/lastmile_qr_scan", "android": "https://dc.lft.to/lastmile_qr_scan"}, "is_reserved": 0, "fusion_lon": 0.0, "fusion_lat": 0.0, "lon": -77.01887683333334, "name": "f87e75c3dc56686eec929a149b456a51"}, {"bike_id": "5dd978ae92ce19a7dce624adaa076bb7", "type": "electric_scooter", "is_disabled": 0, "lat": 38.9268615, "rental_uris": {"ios": "https://dc.lft.to/lastmile_qr_scan", "android": "https://dc.lft.to/lastmile_qr_scan"}, "is_reserved": 0, "fusion_lon": 0.0, "fusion_lat": 0.0, "lon": -77.02157616666666, "name": "5dd978ae92ce19a7dce624adaa076bb7"}, {"bike_id": "fc4018e1205ff729ee274709809de17f", "type": "electric_scooter", "is_disabled": 0, "lat": 38.932369, "rental_uris": {"ios": "https://dc.lft.to/lastmile_qr_scan", "android": "https://dc.lft.to/lastmile_qr_scan"}, "is_reserved": 0, "fusion_lon": 0.0, "fusion_lat": 0.0, "lon": -77.03588366666666, "name": "fc4018e1205ff729ee274709809de17f"}, {"bike_id": "d253fef7e78d95805740f27f7fae463c", "type": "electric_scooter", "is_disabled": 0, "lat": 38.920565, "rental_uris": {"ios": "https://dc.lft.to/lastmile_qr_scan", "android": "https://dc.lft.to/lastmile_qr_scan"}, "is_reserved": 0, "fusion_lon": 0.0, "fusion_lat": 0.0, "lon": -77.03463483333333, "name": "d253fef7e78d95805740f27f7fae463c"}, {"bike_id": "4f86c406b0a02b75184d35a11b013531", "type": "electric_scooter", "is_disabled": 0, "lat": 38.88491883333333, "rental_uris": {"ios": "https://dc.lft.to/lastmile_qr_scan", "android": "https://dc.lft.to/lastmile_qr_scan"}, "is_reserved": 0, "fusion_lon": 0.0, "fusion_lat": 0.0, "lon": -77.01524633333334, "name": "4f86c406b0a02b75184d35a11b013531"}, {"bike_id": "c1da0ed9ebb150177c6b6e8adc364b2f", "type": "electric_scooter", "is_disabled": 0, "lat": 38.917099666666665, "rental_uris": {"ios": "https://dc.lft.to/lastmile_qr_scan", "android": "https://dc.lft.to/lastmile_qr_scan"}, "is_reserved": 0, "fusion_lon": 0.0, "fusion_lat": 0.0, "lon": -77.04124366666667, "name": "c1da0ed9ebb150177c6b6e8adc364b2f"}, {"bike_id": "624cbbe05b244ac81d93fcb3f446dc57", "type": "electric_scooter", "is_disabled": 0, "lat": 38.866846333333335, "rental_uris": {"ios": "https://dc.lft.to/lastmile_qr_scan", "android": "https://dc.lft.to/lastmile_qr_scan"}, "is_reserved": 0, "fusion_lon": 0.0, "fusion_lat": 0.0, "lon": -76.9857865, "name": "624cbbe05b244ac81d93fcb3f446dc57"}, {"bike_id": "542542be926d22408b33796ac8c0558d", "type": "electric_scooter", "is_disabled": 0, "lat": 38.908400666666665, "rental_uris": {"ios": "https://dc.lft.to/lastmile_qr_scan", "android": "https://dc.lft.to/lastmile_qr_scan"}, "is_reserved": 0, "fusion_lon": 0.0, "fusion_lat": 0.0, "lon": -77.01280366666667, "name": "542542be926d22408b33796ac8c0558d"}, {"bike_id": "661192162b68d04725db3bd212e0cfe8", "type": "electric_scooter", "is_disabled": 0, "lat": 38.917660166666664, "rental_uris": {"ios": "https://dc.lft.to/lastmile_qr_scan", "android": "https://dc.lft.to/lastmile_qr_scan"}, "is_reserved": 0, "fusion_lon": 0.0, "fusion_lat": 0.0, "lon": -77.04551283333333, "name": "661192162b68d04725db3bd212e0cfe8"}, {"bike_id": "6c0033349d5fda1ec197a49b7be63438", "type": "electric_scooter", "is_disabled": 0, "lat": 38.900365, "rental_uris": {"ios": "https://dc.lft.to/lastmile_qr_scan", "android": "https://dc.lft.to/lastmile_qr_scan"}, "is_reserved": 0, "fusion_lon": 0.0, "fusion_lat": 0.0, "lon": -76.998489, "name": "6c0033349d5fda1ec197a49b7be63438"}, {"bike_id": "dd41949607e8427b50a0f0fb31dce6c0", "type": "electric_scooter", "is_disabled": 0, "lat": 38.9134175, "rental_uris": {"ios": "https://dc.lft.to/lastmile_qr_scan", "android": "https://dc.lft.to/lastmile_qr_scan"}, "is_reserved": 0, "fusion_lon": 0.0, "fusion_lat": 0.0, "lon": -77.027621, "name": "dd41949607e8427b50a0f0fb31dce6c0"}, {"bike_id": "011a908024bca734b10f95d23666113f", "type": "electric_scooter", "is_disabled": 0, "lat": 38.86686266666667, "rental_uris": {"ios": "https://dc.lft.to/lastmile_qr_scan", "android": "https://dc.lft.to/lastmile_qr_scan"}, "is_reserved": 0, "fusion_lon": 0.0, "fusion_lat": 0.0, "lon": -76.98575933333333, "name": "011a908024bca734b10f95d23666113f"}, {"bike_id": "5726023638bd6a60090ad9899eb5f056", "type": "electric_scooter", "is_disabled": 0, "lat": 38.91803133333333, "rental_uris": {"ios": "https://dc.lft.to/lastmile_qr_scan", "android": "https://dc.lft.to/lastmile_qr_scan"}, "is_reserved": 0, "fusion_lon": 0.0, "fusion_lat": 0.0, "lon": -77.04013016666667, "name": "5726023638bd6a60090ad9899eb5f056"}, {"bike_id": "61c9acd8160082b23460cf5a24608187", "type": "electric_scooter", "is_disabled": 0, "lat": 38.916831, "rental_uris": {"ios": "https://dc.lft.to/lastmile_qr_scan", "android": "https://dc.lft.to/lastmile_qr_scan"}, "is_reserved": 0, "fusion_lon": 0.0, "fusion_lat": 0.0, "lon": -77.02356033333334, "name": "61c9acd8160082b23460cf5a24608187"}, {"bike_id": "97b096ae6eaf26e585f8310c8148b465", "type": "electric_bike", "is_disabled": 0, "lat": 38.899678333333334, "rental_uris": {"ios": "https://dc.lft.to/lastmile_qr_scan", "android": "https://dc.lft.to/lastmile_qr_scan"}, "is_reserved": 0, "fusion_lon": 0.0, "fusion_lat": 0.0, "lon": -76.98672816666667, "name": "97b096ae6eaf26e585f8310c8148b465"}, {"bike_id": "ced96b250578d98ee9135684b2df1775", "type": "electric_scooter", "is_disabled": 0, "lat": 38.904975, "rental_uris": {"ios": "https://dc.lft.to/lastmile_qr_scan", "android": "https://dc.lft.to/lastmile_qr_scan"}, "is_reserved": 0, "fusion_lon": 0.0, "fusion_lat": 0.0, "lon": -77.0199765, "name": "ced96b250578d98ee9135684b2df1775"}, {"bike_id": "9e9f04c7eaebd23a39208b42c735a51a", "type": "electric_bike", "is_disabled": 0, "lat": 38.804142666666664, "rental_uris": {"ios": "https://dc.lft.to/lastmile_qr_scan", "android": "https://dc.lft.to/lastmile_qr_scan"}, "is_reserved": 0, "fusion_lon": 0.0, "fusion_lat": 0.0, "lon": -77.05550366666667, "name": "9e9f04c7eaebd23a39208b42c735a51a"}, {"bike_id": "bbe9af0d9b032c193cbc779443298a28", "type": "electric_bike", "is_disabled": 0, "lat": 38.80706816666667, "rental_uris": {"ios": "https://dc.lft.to/lastmile_qr_scan", "android": "https://dc.lft.to/lastmile_qr_scan"}, "is_reserved": 0, "fusion_lon": 0.0, "fusion_lat": 0.0, "lon": -77.06177233333334, "name": "bbe9af0d9b032c193cbc779443298a28"}, {"bike_id": "ad119a8120f9ba4738e3dcb18fb61db5", "type": "electric_scooter", "is_disabled": 0, "lat": 38.92253433333333, "rental_uris": {"ios": "https://dc.lft.to/lastmile_qr_scan", "android": "https://dc.lft.to/lastmile_qr_scan"}, "is_reserved": 0, "fusion_lon": 0.0, "fusion_lat": 0.0, "lon": -77.03903766666667, "name": "ad119a8120f9ba4738e3dcb18fb61db5"}, {"bike_id": "5b4f7ffcbf2b8fc58b65a68c4260df15", "type": "electric_scooter", "is_disabled": 0, "lat": 38.89550166666667, "rental_uris": {"ios": "https://dc.lft.to/lastmile_qr_scan", "android": "https://dc.lft.to/lastmile_qr_scan"}, "is_reserved": 0, "fusion_lon": 0.0, "fusion_lat": 0.0, "lon": -77.01106833333333, "name": "5b4f7ffcbf2b8fc58b65a68c4260df15"}, {"bike_id": "9162085b90ec12b0c8d8b5a1d9754c64", "type": "electric_scooter", "is_disabled": 0, "lat": 38.9227365, "rental_uris": {"ios": "https://dc.lft.to/lastmile_qr_scan", "android": "https://dc.lft.to/lastmile_qr_scan"}, "is_reserved": 0, "fusion_lon": 0.0, "fusion_lat": 0.0, "lon": -76.99453016666666, "name": "9162085b90ec12b0c8d8b5a1d9754c64"}, {"bike_id": "56b50c7941fe2afbafc88f075b69e374", "type": "electric_scooter", "is_disabled": 0, "lat": 38.928408166666664, "rental_uris": {"ios": "https://dc.lft.to/lastmile_qr_scan", "android": "https://dc.lft.to/lastmile_qr_scan"}, "is_reserved": 0, "fusion_lon": 0.0, "fusion_lat": 0.0, "lon": -77.02748733333334, "name": "56b50c7941fe2afbafc88f075b69e374"}, {"bike_id": "4d00684137165ffcf8b43835c73e0ef9", "type": "electric_scooter", "is_disabled": 0, "lat": 38.923418, "rental_uris": {"ios": "https://dc.lft.to/lastmile_qr_scan", "android": "https://dc.lft.to/lastmile_qr_scan"}, "is_reserved": 0, "fusion_lon": 0.0, "fusion_lat": 0.0, "lon": -77.00189466666667, "name": "4d00684137165ffcf8b43835c73e0ef9"}, {"bike_id": "3d9b28ba399d5d2149bf9d3a5340d5db", "type": "electric_scooter", "is_disabled": 0, "lat": 38.88937516666667, "rental_uris": {"ios": "https://dc.lft.to/lastmile_qr_scan", "android": "https://dc.lft.to/lastmile_qr_scan"}, "is_reserved": 0, "fusion_lon": 0.0, "fusion_lat": 0.0, "lon": -77.01506666666667, "name": "3d9b28ba399d5d2149bf9d3a5340d5db"}, {"bike_id": "beddc8d920a9fb39d82e73c0f6f4ba22", "type": "electric_bike", "is_disabled": 0, "lat": 38.836079, "rental_uris": {"ios": "https://dc.lft.to/lastmile_qr_scan", "android": "https://dc.lft.to/lastmile_qr_scan"}, "is_reserved": 0, "fusion_lon": 0.0, "fusion_lat": 0.0, "lon": -77.00380633333333, "name": "beddc8d920a9fb39d82e73c0f6f4ba22"}, {"bike_id": "088e5c4192b9e8f305c5b0d175746ae9", "type": "electric_scooter", "is_disabled": 0, "lat": 38.884265, "rental_uris": {"ios": "https://dc.lft.to/lastmile_qr_scan", "android": "https://dc.lft.to/lastmile_qr_scan"}, "is_reserved": 0, "fusion_lon": 0.0, "fusion_lat": 0.0, "lon": -76.95743483333334, "name": "088e5c4192b9e8f305c5b0d175746ae9"}, {"bike_id": "d22615d6518089c0a280273876f02ebb", "type": "electric_scooter", "is_disabled": 0, "lat": 38.90550533333333, "rental_uris": {"ios": "https://dc.lft.to/lastmile_qr_scan", "android": "https://dc.lft.to/lastmile_qr_scan"}, "is_reserved": 0, "fusion_lon": 0.0, "fusion_lat": 0.0, "lon": -76.99616116666667, "name": "d22615d6518089c0a280273876f02ebb"}, {"bike_id": "1da3ed0243c45765b4e9e99ce72cbf26", "type": "electric_bike", "is_disabled": 0, "lat": 38.94897516666666, "rental_uris": {"ios": "https://dc.lft.to/lastmile_qr_scan", "android": "https://dc.lft.to/lastmile_qr_scan"}, "is_reserved": 0, "fusion_lon": 0.0, "fusion_lat": 0.0, "lon": -76.96381233333334, "name": "1da3ed0243c45765b4e9e99ce72cbf26"}, {"bike_id": "c76194bac6077886df36280f359aa624", "type": "electric_scooter", "is_disabled": 0, "lat": 38.944965333333336, "rental_uris": {"ios": "https://dc.lft.to/lastmile_qr_scan", "android": "https://dc.lft.to/lastmile_qr_scan"}, "is_reserved": 0, "fusion_lon": 0.0, "fusion_lat": 0.0, "lon": -77.0262125, "name": "c76194bac6077886df36280f359aa624"}, {"bike_id": "c26506e033a10eb508b29cce08761686", "type": "electric_scooter", "is_disabled": 0, "lat": 38.91202116666667, "rental_uris": {"ios": "https://dc.lft.to/lastmile_qr_scan", "android": "https://dc.lft.to/lastmile_qr_scan"}, "is_reserved": 0, "fusion_lon": 0.0, "fusion_lat": 0.0, "lon": -77.032012, "name": "c26506e033a10eb508b29cce08761686"}, {"bike_id": "77f2f61f6a8f21900e813f6a2ca70364", "type": "electric_scooter", "is_disabled": 0, "lat": 38.91463666666667, "rental_uris": {"ios": "https://dc.lft.to/lastmile_qr_scan", "android": "https://dc.lft.to/lastmile_qr_scan"}, "is_reserved": 0, "fusion_lon": 0.0, "fusion_lat": 0.0, "lon": -77.02284483333334, "name": "77f2f61f6a8f21900e813f6a2ca70364"}, {"bike_id": "33a299f04c421f4825c8597a5a6d99db", "type": "electric_scooter", "is_disabled": 0, "lat": 38.90562233333333, "rental_uris": {"ios": "https://dc.lft.to/lastmile_qr_scan", "android": "https://dc.lft.to/lastmile_qr_scan"}, "is_reserved": 0, "fusion_lon": 0.0, "fusion_lat": 0.0, "lon": -76.99790016666667, "name": "33a299f04c421f4825c8597a5a6d99db"}, {"bike_id": "c3826e57b8b2f9ff852f9ed8437fd065", "type": "electric_scooter", "is_disabled": 0, "lat": 38.924896833333335, "rental_uris": {"ios": "https://dc.lft.to/lastmile_qr_scan", "android": "https://dc.lft.to/lastmile_qr_scan"}, "is_reserved": 0, "fusion_lon": 0.0, "fusion_lat": 0.0, "lon": -77.0220525, "name": "c3826e57b8b2f9ff852f9ed8437fd065"}, {"bike_id": "a69e45e1ed252e6ca5ab2e4fb607a147", "type": "electric_bike", "is_disabled": 0, "lat": 38.9788195, "rental_uris": {"ios": "https://dc.lft.to/lastmile_qr_scan", "android": "https://dc.lft.to/lastmile_qr_scan"}, "is_reserved": 0, "fusion_lon": 0.0, "fusion_lat": 0.0, "lon": -77.06026016666667, "name": "a69e45e1ed252e6ca5ab2e4fb607a147"}, {"bike_id": "166cefe9677ec09ce2fe80985b3dd7cb", "type": "electric_scooter", "is_disabled": 0, "lat": 38.935345833333336, "rental_uris": {"ios": "https://dc.lft.to/lastmile_qr_scan", "android": "https://dc.lft.to/lastmile_qr_scan"}, "is_reserved": 0, "fusion_lon": 0.0, "fusion_lat": 0.0, "lon": -77.02347416666667, "name": "166cefe9677ec09ce2fe80985b3dd7cb"}, {"bike_id": "7acf4d6a337954cb5767801fc31b7041", "type": "electric_scooter", "is_disabled": 0, "lat": 38.909446, "rental_uris": {"ios": "https://dc.lft.to/lastmile_qr_scan", "android": "https://dc.lft.to/lastmile_qr_scan"}, "is_reserved": 0, "fusion_lon": 0.0, "fusion_lat": 0.0, "lon": -77.04423233333333, "name": "7acf4d6a337954cb5767801fc31b7041"}, {"bike_id": "45e7b564c61947a86c8ea6e528ff3f0f", "type": "electric_scooter", "is_disabled": 0, "lat": 38.9016255, "rental_uris": {"ios": "https://dc.lft.to/lastmile_qr_scan", "android": "https://dc.lft.to/lastmile_qr_scan"}, "is_reserved": 0, "fusion_lon": 0.0, "fusion_lat": 0.0, "lon": -77.0592085, "name": "45e7b564c61947a86c8ea6e528ff3f0f"}, {"bike_id": "89c43a13c4c24a8be349ba3e583df44a", "type": "electric_scooter", "is_disabled": 0, "lat": 38.920274, "rental_uris": {"ios": "https://dc.lft.to/lastmile_qr_scan", "android": "https://dc.lft.to/lastmile_qr_scan"}, "is_reserved": 0, "fusion_lon": 0.0, "fusion_lat": 0.0, "lon": -77.03130183333333, "name": "89c43a13c4c24a8be349ba3e583df44a"}, {"bike_id": "d9402dff66862d3a01ac3306d009cc50", "type": "electric_scooter", "is_disabled": 0, "lat": 38.91060783333333, "rental_uris": {"ios": "https://dc.lft.to/lastmile_qr_scan", "android": "https://dc.lft.to/lastmile_qr_scan"}, "is_reserved": 0, "fusion_lon": 0.0, "fusion_lat": 0.0, "lon": -77.03666633333333, "name": "d9402dff66862d3a01ac3306d009cc50"}, {"bike_id": "582337aad2263e60d21d76fdc4408f6b", "type": "electric_scooter", "is_disabled": 0, "lat": 38.899153166666665, "rental_uris": {"ios": "https://dc.lft.to/lastmile_qr_scan", "android": "https://dc.lft.to/lastmile_qr_scan"}, "is_reserved": 0, "fusion_lon": 0.0, "fusion_lat": 0.0, "lon": -76.9336755, "name": "582337aad2263e60d21d76fdc4408f6b"}, {"bike_id": "9d7a4f93d483c849213ad365a74a5120", "type": "electric_scooter", "is_disabled": 0, "lat": 38.928466666666665, "rental_uris": {"ios": "https://dc.lft.to/lastmile_qr_scan", "android": "https://dc.lft.to/lastmile_qr_scan"}, "is_reserved": 0, "fusion_lon": 0.0, "fusion_lat": 0.0, "lon": -77.032881, "name": "9d7a4f93d483c849213ad365a74a5120"}, {"bike_id": "5e79a4a786047677a408ea56a49c7672", "type": "electric_scooter", "is_disabled": 0, "lat": 38.92014266666666, "rental_uris": {"ios": "https://dc.lft.to/lastmile_qr_scan", "android": "https://dc.lft.to/lastmile_qr_scan"}, "is_reserved": 0, "fusion_lon": 0.0, "fusion_lat": 0.0, "lon": -77.03139833333333, "name": "5e79a4a786047677a408ea56a49c7672"}, {"bike_id": "f458b32967007164bd420887a365cf07", "type": "electric_scooter", "is_disabled": 0, "lat": 38.927043, "rental_uris": {"ios": "https://dc.lft.to/lastmile_qr_scan", "android": "https://dc.lft.to/lastmile_qr_scan"}, "is_reserved": 0, "fusion_lon": 0.0, "fusion_lat": 0.0, "lon": -77.03727516666666, "name": "f458b32967007164bd420887a365cf07"}, {"bike_id": "5f82743183ae03b8fbbf8705fed1a9bb", "type": "electric_scooter", "is_disabled": 0, "lat": 38.958581, "rental_uris": {"ios": "https://dc.lft.to/lastmile_qr_scan", "android": "https://dc.lft.to/lastmile_qr_scan"}, "is_reserved": 0, "fusion_lon": 0.0, "fusion_lat": 0.0, "lon": -77.02793116666666, "name": "5f82743183ae03b8fbbf8705fed1a9bb"}, {"bike_id": "7c335e9b9ca0142d09685e977034cc28", "type": "electric_scooter", "is_disabled": 0, "lat": 38.9413145, "rental_uris": {"ios": "https://dc.lft.to/lastmile_qr_scan", "android": "https://dc.lft.to/lastmile_qr_scan"}, "is_reserved": 0, "fusion_lon": 0.0, "fusion_lat": 0.0, "lon": -77.01544733333333, "name": "7c335e9b9ca0142d09685e977034cc28"}, {"bike_id": "09153c801c4475ccdefa285237db0896", "type": "electric_scooter", "is_disabled": 0, "lat": 38.91608183333334, "rental_uris": {"ios": "https://dc.lft.to/lastmile_qr_scan", "android": "https://dc.lft.to/lastmile_qr_scan"}, "is_reserved": 0, "fusion_lon": 0.0, "fusion_lat": 0.0, "lon": -77.02954816666667, "name": "09153c801c4475ccdefa285237db0896"}, {"bike_id": "49ea69b35ea2f9e705e24bfc57af690f", "type": "electric_scooter", "is_disabled": 0, "lat": 38.916388, "rental_uris": {"ios": "https://dc.lft.to/lastmile_qr_scan", "android": "https://dc.lft.to/lastmile_qr_scan"}, "is_reserved": 0, "fusion_lon": 0.0, "fusion_lat": 0.0, "lon": -77.039614, "name": "49ea69b35ea2f9e705e24bfc57af690f"}, {"bike_id": "ba53ba301e7d39fec94f1422c3b79ce2", "type": "electric_scooter", "is_disabled": 0, "lat": 38.92814416666667, "rental_uris": {"ios": "https://dc.lft.to/lastmile_qr_scan", "android": "https://dc.lft.to/lastmile_qr_scan"}, "is_reserved": 0, "fusion_lon": 0.0, "fusion_lat": 0.0, "lon": -77.02813566666667, "name": "ba53ba301e7d39fec94f1422c3b79ce2"}, {"bike_id": "ba7d3d5d95734630479387c7047a14c0", "type": "electric_scooter", "is_disabled": 0, "lat": 38.91002366666667, "rental_uris": {"ios": "https://dc.lft.to/lastmile_qr_scan", "android": "https://dc.lft.to/lastmile_qr_scan"}, "is_reserved": 0, "fusion_lon": 0.0, "fusion_lat": 0.0, "lon": -77.04003233333333, "name": "ba7d3d5d95734630479387c7047a14c0"}, {"bike_id": "ca35d7803991455d3f13bbad203d60ba", "type": "electric_scooter", "is_disabled": 0, "lat": 38.905299666666664, "rental_uris": {"ios": "https://dc.lft.to/lastmile_qr_scan", "android": "https://dc.lft.to/lastmile_qr_scan"}, "is_reserved": 0, "fusion_lon": 0.0, "fusion_lat": 0.0, "lon": -77.05683183333333, "name": "ca35d7803991455d3f13bbad203d60ba"}, {"bike_id": "7bc03ae992675b5b42f2f655c294521a", "type": "electric_scooter", "is_disabled": 0, "lat": 38.93436766666667, "rental_uris": {"ios": "https://dc.lft.to/lastmile_qr_scan", "android": "https://dc.lft.to/lastmile_qr_scan"}, "is_reserved": 0, "fusion_lon": 0.0, "fusion_lat": 0.0, "lon": -77.0454175, "name": "7bc03ae992675b5b42f2f655c294521a"}, {"bike_id": "f4480515a5d4714b7b4583c5c311969f", "type": "electric_scooter", "is_disabled": 0, "lat": 38.899237, "rental_uris": {"ios": "https://dc.lft.to/lastmile_qr_scan", "android": "https://dc.lft.to/lastmile_qr_scan"}, "is_reserved": 0, "fusion_lon": 0.0, "fusion_lat": 0.0, "lon": -77.00373366666666, "name": "f4480515a5d4714b7b4583c5c311969f"}, {"bike_id": "81e114369432c940397eb10e3ab5b49e", "type": "electric_scooter", "is_disabled": 0, "lat": 38.92835266666667, "rental_uris": {"ios": "https://dc.lft.to/lastmile_qr_scan", "android": "https://dc.lft.to/lastmile_qr_scan"}, "is_reserved": 0, "fusion_lon": 0.0, "fusion_lat": 0.0, "lon": -77.0369835, "name": "81e114369432c940397eb10e3ab5b49e"}, {"bike_id": "bfef5f6b4e0bdcaf9d6e6b2a20c6ce01", "type": "electric_scooter", "is_disabled": 0, "lat": 38.90608433333333, "rental_uris": {"ios": "https://dc.lft.to/lastmile_qr_scan", "android": "https://dc.lft.to/lastmile_qr_scan"}, "is_reserved": 0, "fusion_lon": 0.0, "fusion_lat": 0.0, "lon": -77.021087, "name": "bfef5f6b4e0bdcaf9d6e6b2a20c6ce01"}, {"bike_id": "5f6c174cd338dd8ea95fe43527126308", "type": "electric_bike", "is_disabled": 0, "lat": 38.9541055, "rental_uris": {"ios": "https://dc.lft.to/lastmile_qr_scan", "android": "https://dc.lft.to/lastmile_qr_scan"}, "is_reserved": 0, "fusion_lon": 0.0, "fusion_lat": 0.0, "lon": -76.9805125, "name": "5f6c174cd338dd8ea95fe43527126308"}, {"bike_id": "42f6402e8995d03a8a66c84ea2698f1d", "type": "electric_scooter", "is_disabled": 0, "lat": 38.89892966666667, "rental_uris": {"ios": "https://dc.lft.to/lastmile_qr_scan", "android": "https://dc.lft.to/lastmile_qr_scan"}, "is_reserved": 0, "fusion_lon": 0.0, "fusion_lat": 0.0, "lon": -76.9769625, "name": "42f6402e8995d03a8a66c84ea2698f1d"}, {"bike_id": "11e1270fe56930563fc68474208ea1a1", "type": "electric_bike", "is_disabled": 0, "lat": 38.838300833333335, "rental_uris": {"ios": "https://dc.lft.to/lastmile_qr_scan", "android": "https://dc.lft.to/lastmile_qr_scan"}, "is_reserved": 0, "fusion_lon": 0.0, "fusion_lat": 0.0, "lon": -77.002826, "name": "11e1270fe56930563fc68474208ea1a1"}, {"bike_id": "85404d7c68bded2369e8cb90b9f039fb", "type": "electric_scooter", "is_disabled": 0, "lat": 38.92540733333333, "rental_uris": {"ios": "https://dc.lft.to/lastmile_qr_scan", "android": "https://dc.lft.to/lastmile_qr_scan"}, "is_reserved": 0, "fusion_lon": 0.0, "fusion_lat": 0.0, "lon": -77.04129233333333, "name": "85404d7c68bded2369e8cb90b9f039fb"}, {"bike_id": "3f9fb401658c4f760acae6cc78af2314", "type": "electric_scooter", "is_disabled": 0, "lat": 38.89859533333333, "rental_uris": {"ios": "https://dc.lft.to/lastmile_qr_scan", "android": "https://dc.lft.to/lastmile_qr_scan"}, "is_reserved": 0, "fusion_lon": 0.0, "fusion_lat": 0.0, "lon": -77.04651233333334, "name": "3f9fb401658c4f760acae6cc78af2314"}, {"bike_id": "338e07fca06dda5219fe6e344abf43b5", "type": "electric_bike", "is_disabled": 0, "lat": 38.9510525, "rental_uris": {"ios": "https://dc.lft.to/lastmile_qr_scan", "android": "https://dc.lft.to/lastmile_qr_scan"}, "is_reserved": 0, "fusion_lon": 0.0, "fusion_lat": 0.0, "lon": -77.0551305, "name": "338e07fca06dda5219fe6e344abf43b5"}, {"bike_id": "d22c8d718ece680b5ff7af61de34100f", "type": "electric_scooter", "is_disabled": 0, "lat": 38.923356166666665, "rental_uris": {"ios": "https://dc.lft.to/lastmile_qr_scan", "android": "https://dc.lft.to/lastmile_qr_scan"}, "is_reserved": 0, "fusion_lon": 0.0, "fusion_lat": 0.0, "lon": -77.0418745, "name": "d22c8d718ece680b5ff7af61de34100f"}, {"bike_id": "4c9e7edbf7374b625ea2bf5c0e567294", "type": "electric_scooter", "is_disabled": 0, "lat": 38.91542233333333, "rental_uris": {"ios": "https://dc.lft.to/lastmile_qr_scan", "android": "https://dc.lft.to/lastmile_qr_scan"}, "is_reserved": 0, "fusion_lon": 0.0, "fusion_lat": 0.0, "lon": -77.01269416666666, "name": "4c9e7edbf7374b625ea2bf5c0e567294"}, {"bike_id": "d3028b04ab0f9a789c2ee65fde4fefe5", "type": "electric_scooter", "is_disabled": 0, "lat": 38.90771016666667, "rental_uris": {"ios": "https://dc.lft.to/lastmile_qr_scan", "android": "https://dc.lft.to/lastmile_qr_scan"}, "is_reserved": 0, "fusion_lon": 0.0, "fusion_lat": 0.0, "lon": -77.0713175, "name": "d3028b04ab0f9a789c2ee65fde4fefe5"}, {"bike_id": "e08cbc58eed8c7007205d057a91b6b34", "type": "electric_scooter", "is_disabled": 0, "lat": 38.928981666666665, "rental_uris": {"ios": "https://dc.lft.to/lastmile_qr_scan", "android": "https://dc.lft.to/lastmile_qr_scan"}, "is_reserved": 0, "fusion_lon": 0.0, "fusion_lat": 0.0, "lon": -77.03268183333333, "name": "e08cbc58eed8c7007205d057a91b6b34"}, {"bike_id": "96e201b9eabfd466334750cbf5974ba8", "type": "electric_scooter", "is_disabled": 0, "lat": 38.91856033333333, "rental_uris": {"ios": "https://dc.lft.to/lastmile_qr_scan", "android": "https://dc.lft.to/lastmile_qr_scan"}, "is_reserved": 0, "fusion_lon": 0.0, "fusion_lat": 0.0, "lon": -77.02464983333333, "name": "96e201b9eabfd466334750cbf5974ba8"}, {"bike_id": "d571940d31e891c166ae6264ac52a435", "type": "electric_bike", "is_disabled": 0, "lat": 38.925484166666664, "rental_uris": {"ios": "https://dc.lft.to/lastmile_qr_scan", "android": "https://dc.lft.to/lastmile_qr_scan"}, "is_reserved": 0, "fusion_lon": 0.0, "fusion_lat": 0.0, "lon": -77.05762666666666, "name": "d571940d31e891c166ae6264ac52a435"}, {"bike_id": "d2da41a8971ab82c0cf3e5c2aec0b7c6", "type": "electric_scooter", "is_disabled": 0, "lat": 38.889175, "rental_uris": {"ios": "https://dc.lft.to/lastmile_qr_scan", "android": "https://dc.lft.to/lastmile_qr_scan"}, "is_reserved": 0, "fusion_lon": 0.0, "fusion_lat": 0.0, "lon": -76.99126633333333, "name": "d2da41a8971ab82c0cf3e5c2aec0b7c6"}, {"bike_id": "05760f7f4c61b33600e7350cd764074d", "type": "electric_scooter", "is_disabled": 0, "lat": 38.885281166666665, "rental_uris": {"ios": "https://dc.lft.to/lastmile_qr_scan", "android": "https://dc.lft.to/lastmile_qr_scan"}, "is_reserved": 0, "fusion_lon": 0.0, "fusion_lat": 0.0, "lon": -77.01729283333333, "name": "05760f7f4c61b33600e7350cd764074d"}, {"bike_id": "95cc29debe7bc89f2698b8d1d9ac5984", "type": "electric_scooter", "is_disabled": 0, "lat": 38.8668545, "rental_uris": {"ios": "https://dc.lft.to/lastmile_qr_scan", "android": "https://dc.lft.to/lastmile_qr_scan"}, "is_reserved": 0, "fusion_lon": 0.0, "fusion_lat": 0.0, "lon": -76.985761, "name": "95cc29debe7bc89f2698b8d1d9ac5984"}, {"bike_id": "26fea6a2ad12d0e744ea8ed9efb379f2", "type": "electric_scooter", "is_disabled": 0, "lat": 38.90967933333334, "rental_uris": {"ios": "https://dc.lft.to/lastmile_qr_scan", "android": "https://dc.lft.to/lastmile_qr_scan"}, "is_reserved": 0, "fusion_lon": 0.0, "fusion_lat": 0.0, "lon": -77.02737716666667, "name": "26fea6a2ad12d0e744ea8ed9efb379f2"}, {"bike_id": "6d14112e89a3a8de01e8c2ceab912d11", "type": "electric_scooter", "is_disabled": 0, "lat": 38.910793166666664, "rental_uris": {"ios": "https://dc.lft.to/lastmile_qr_scan", "android": "https://dc.lft.to/lastmile_qr_scan"}, "is_reserved": 0, "fusion_lon": 0.0, "fusion_lat": 0.0, "lon": -77.03853683333334, "name": "6d14112e89a3a8de01e8c2ceab912d11"}, {"bike_id": "ad4ebf9aeeec9831d5b71d50807a1a60", "type": "electric_scooter", "is_disabled": 0, "lat": 38.873887333333336, "rental_uris": {"ios": "https://dc.lft.to/lastmile_qr_scan", "android": "https://dc.lft.to/lastmile_qr_scan"}, "is_reserved": 0, "fusion_lon": 0.0, "fusion_lat": 0.0, "lon": -77.04346116666666, "name": "ad4ebf9aeeec9831d5b71d50807a1a60"}, {"bike_id": "f3cbf93416c9ec6c7d14203cd72f4fe9", "type": "electric_scooter", "is_disabled": 0, "lat": 38.90571033333333, "rental_uris": {"ios": "https://dc.lft.to/lastmile_qr_scan", "android": "https://dc.lft.to/lastmile_qr_scan"}, "is_reserved": 0, "fusion_lon": 0.0, "fusion_lat": 0.0, "lon": -77.02832766666667, "name": "f3cbf93416c9ec6c7d14203cd72f4fe9"}, {"bike_id": "fc99c5d7e077bb8f7627caaa91bb04e6", "type": "electric_scooter", "is_disabled": 0, "lat": 38.92467033333333, "rental_uris": {"ios": "https://dc.lft.to/lastmile_qr_scan", "android": "https://dc.lft.to/lastmile_qr_scan"}, "is_reserved": 0, "fusion_lon": 0.0, "fusion_lat": 0.0, "lon": -77.0520205, "name": "fc99c5d7e077bb8f7627caaa91bb04e6"}, {"bike_id": "f29e5e01e6a18fa127cb14fbdb85ca0c", "type": "electric_scooter", "is_disabled": 0, "lat": 38.900384333333335, "rental_uris": {"ios": "https://dc.lft.to/lastmile_qr_scan", "android": "https://dc.lft.to/lastmile_qr_scan"}, "is_reserved": 0, "fusion_lon": 0.0, "fusion_lat": 0.0, "lon": -77.03667916666667, "name": "f29e5e01e6a18fa127cb14fbdb85ca0c"}, {"bike_id": "80588c826ba88ecd476b3e12b1831df3", "type": "electric_scooter", "is_disabled": 0, "lat": 38.908678, "rental_uris": {"ios": "https://dc.lft.to/lastmile_qr_scan", "android": "https://dc.lft.to/lastmile_qr_scan"}, "is_reserved": 0, "fusion_lon": 0.0, "fusion_lat": 0.0, "lon": -77.04473433333334, "name": "80588c826ba88ecd476b3e12b1831df3"}, {"bike_id": "0a20b78c7d30a0e05ac79d36a211b25e", "type": "electric_bike", "is_disabled": 0, "lat": 38.897308333333335, "rental_uris": {"ios": "https://dc.lft.to/lastmile_qr_scan", "android": "https://dc.lft.to/lastmile_qr_scan"}, "is_reserved": 0, "fusion_lon": 0.0, "fusion_lat": 0.0, "lon": -77.02703516666666, "name": "0a20b78c7d30a0e05ac79d36a211b25e"}, {"bike_id": "53a7c5526ad9627aa1c544e2b1b9b52c", "type": "electric_scooter", "is_disabled": 0, "lat": 38.91821866666667, "rental_uris": {"ios": "https://dc.lft.to/lastmile_qr_scan", "android": "https://dc.lft.to/lastmile_qr_scan"}, "is_reserved": 0, "fusion_lon": 0.0, "fusion_lat": 0.0, "lon": -77.04945566666666, "name": "53a7c5526ad9627aa1c544e2b1b9b52c"}, {"bike_id": "b5105b8343b94b0b6fdcade462417c68", "type": "electric_scooter", "is_disabled": 0, "lat": 38.9132165, "rental_uris": {"ios": "https://dc.lft.to/lastmile_qr_scan", "android": "https://dc.lft.to/lastmile_qr_scan"}, "is_reserved": 0, "fusion_lon": 0.0, "fusion_lat": 0.0, "lon": -77.06296616666667, "name": "b5105b8343b94b0b6fdcade462417c68"}, {"bike_id": "64695a34787d155c702ff2c9f5340088", "type": "electric_scooter", "is_disabled": 0, "lat": 38.866994166666665, "rental_uris": {"ios": "https://dc.lft.to/lastmile_qr_scan", "android": "https://dc.lft.to/lastmile_qr_scan"}, "is_reserved": 0, "fusion_lon": 0.0, "fusion_lat": 0.0, "lon": -76.98719083333333, "name": "64695a34787d155c702ff2c9f5340088"}, {"bike_id": "8062d0f14f49f5ce0b980607bd19965a", "type": "electric_scooter", "is_disabled": 0, "lat": 38.900254833333335, "rental_uris": {"ios": "https://dc.lft.to/lastmile_qr_scan", "android": "https://dc.lft.to/lastmile_qr_scan"}, "is_reserved": 0, "fusion_lon": 0.0, "fusion_lat": 0.0, "lon": -77.0416145, "name": "8062d0f14f49f5ce0b980607bd19965a"}, {"bike_id": "707e56567e8ff3101bdc67e63234f5f9", "type": "electric_scooter", "is_disabled": 0, "lat": 38.95622183333333, "rental_uris": {"ios": "https://dc.lft.to/lastmile_qr_scan", "android": "https://dc.lft.to/lastmile_qr_scan"}, "is_reserved": 0, "fusion_lon": 0.0, "fusion_lat": 0.0, "lon": -77.011525, "name": "707e56567e8ff3101bdc67e63234f5f9"}, {"bike_id": "536749134a4b9c37a796739b3a7d5419", "type": "electric_bike", "is_disabled": 0, "lat": 39.05281, "rental_uris": {"ios": "https://dc.lft.to/lastmile_qr_scan", "android": "https://dc.lft.to/lastmile_qr_scan"}, "is_reserved": 0, "fusion_lon": 0.0, "fusion_lat": 0.0, "lon": -77.0807275, "name": "536749134a4b9c37a796739b3a7d5419"}, {"bike_id": "cfa07204886669dc542aea6b591b4a88", "type": "electric_scooter", "is_disabled": 0, "lat": 38.910504, "rental_uris": {"ios": "https://dc.lft.to/lastmile_qr_scan", "android": "https://dc.lft.to/lastmile_qr_scan"}, "is_reserved": 0, "fusion_lon": 0.0, "fusion_lat": 0.0, "lon": -77.026857, "name": "cfa07204886669dc542aea6b591b4a88"}, {"bike_id": "8d8f6711564cea4b105407d5f47352a8", "type": "electric_scooter", "is_disabled": 0, "lat": 38.9053075, "rental_uris": {"ios": "https://dc.lft.to/lastmile_qr_scan", "android": "https://dc.lft.to/lastmile_qr_scan"}, "is_reserved": 0, "fusion_lon": 0.0, "fusion_lat": 0.0, "lon": -77.05679633333334, "name": "8d8f6711564cea4b105407d5f47352a8"}, {"bike_id": "b13dd1fc9339c59a652cfe5df570f533", "type": "electric_scooter", "is_disabled": 0, "lat": 38.9170075, "rental_uris": {"ios": "https://dc.lft.to/lastmile_qr_scan", "android": "https://dc.lft.to/lastmile_qr_scan"}, "is_reserved": 0, "fusion_lon": 0.0, "fusion_lat": 0.0, "lon": -77.00658083333333, "name": "b13dd1fc9339c59a652cfe5df570f533"}, {"bike_id": "b2fc19e4af526bb5f84bed3c1d0f4a7d", "type": "electric_scooter", "is_disabled": 0, "lat": 38.87830433333333, "rental_uris": {"ios": "https://dc.lft.to/lastmile_qr_scan", "android": "https://dc.lft.to/lastmile_qr_scan"}, "is_reserved": 0, "fusion_lon": 0.0, "fusion_lat": 0.0, "lon": -76.9631045, "name": "b2fc19e4af526bb5f84bed3c1d0f4a7d"}, {"bike_id": "4369bd29e466d42c3a44226bd9dfbd36", "type": "electric_scooter", "is_disabled": 0, "lat": 38.912341833333336, "rental_uris": {"ios": "https://dc.lft.to/lastmile_qr_scan", "android": "https://dc.lft.to/lastmile_qr_scan"}, "is_reserved": 0, "fusion_lon": 0.0, "fusion_lat": 0.0, "lon": -77.01207983333333, "name": "4369bd29e466d42c3a44226bd9dfbd36"}, {"bike_id": "6992ab178fd880be23c426ca6764df21", "type": "electric_scooter", "is_disabled": 0, "lat": 38.93205833333333, "rental_uris": {"ios": "https://dc.lft.to/lastmile_qr_scan", "android": "https://dc.lft.to/lastmile_qr_scan"}, "is_reserved": 0, "fusion_lon": 0.0, "fusion_lat": 0.0, "lon": -77.03663466666667, "name": "6992ab178fd880be23c426ca6764df21"}, {"bike_id": "8ba9cf9dd33d4f82d402b0b4bb7ccd6e", "type": "electric_scooter", "is_disabled": 0, "lat": 38.92231116666667, "rental_uris": {"ios": "https://dc.lft.to/lastmile_qr_scan", "android": "https://dc.lft.to/lastmile_qr_scan"}, "is_reserved": 0, "fusion_lon": 0.0, "fusion_lat": 0.0, "lon": -77.04715833333333, "name": "8ba9cf9dd33d4f82d402b0b4bb7ccd6e"}, {"bike_id": "80adeddc5a460ac4abe852f57cf45905", "type": "electric_scooter", "is_disabled": 0, "lat": 38.9209795, "rental_uris": {"ios": "https://dc.lft.to/lastmile_qr_scan", "android": "https://dc.lft.to/lastmile_qr_scan"}, "is_reserved": 0, "fusion_lon": 0.0, "fusion_lat": 0.0, "lon": -77.03175216666666, "name": "80adeddc5a460ac4abe852f57cf45905"}, {"bike_id": "c462969c7007dd44138838cad59cc009", "type": "electric_bike", "is_disabled": 0, "lat": 38.859375166666666, "rental_uris": {"ios": "https://dc.lft.to/lastmile_qr_scan", "android": "https://dc.lft.to/lastmile_qr_scan"}, "is_reserved": 0, "fusion_lon": 0.0, "fusion_lat": 0.0, "lon": -77.11827366666667, "name": "c462969c7007dd44138838cad59cc009"}, {"bike_id": "df6c63b066a4efe93b65eb23352b174c", "type": "electric_bike", "is_disabled": 0, "lat": 38.82368966666667, "rental_uris": {"ios": "https://dc.lft.to/lastmile_qr_scan", "android": "https://dc.lft.to/lastmile_qr_scan"}, "is_reserved": 0, "fusion_lon": 0.0, "fusion_lat": 0.0, "lon": -77.00217733333334, "name": "df6c63b066a4efe93b65eb23352b174c"}, {"bike_id": "e260905edf3aae5e988a89047c2b5d11", "type": "electric_bike", "is_disabled": 0, "lat": 38.898151, "rental_uris": {"ios": "https://dc.lft.to/lastmile_qr_scan", "android": "https://dc.lft.to/lastmile_qr_scan"}, "is_reserved": 0, "fusion_lon": 0.0, "fusion_lat": 0.0, "lon": -76.99085316666667, "name": "e260905edf3aae5e988a89047c2b5d11"}, {"bike_id": "9556588f82fba36f46aa7d6d6415fed2", "type": "electric_scooter", "is_disabled": 0, "lat": 38.905912, "rental_uris": {"ios": "https://dc.lft.to/lastmile_qr_scan", "android": "https://dc.lft.to/lastmile_qr_scan"}, "is_reserved": 0, "fusion_lon": 0.0, "fusion_lat": 0.0, "lon": -77.06803816666667, "name": "9556588f82fba36f46aa7d6d6415fed2"}, {"bike_id": "75d1089d19ee266bd98644c3c48693cc", "type": "electric_bike", "is_disabled": 0, "lat": 38.87084266666667, "rental_uris": {"ios": "https://dc.lft.to/lastmile_qr_scan", "android": "https://dc.lft.to/lastmile_qr_scan"}, "is_reserved": 0, "fusion_lon": 0.0, "fusion_lat": 0.0, "lon": -77.01216733333334, "name": "75d1089d19ee266bd98644c3c48693cc"}, {"bike_id": "2aa4f24ee2b65dda0a811af0ec9cbef3", "type": "electric_scooter", "is_disabled": 0, "lat": 38.916867333333336, "rental_uris": {"ios": "https://dc.lft.to/lastmile_qr_scan", "android": "https://dc.lft.to/lastmile_qr_scan"}, "is_reserved": 0, "fusion_lon": 0.0, "fusion_lat": 0.0, "lon": -77.029516, "name": "2aa4f24ee2b65dda0a811af0ec9cbef3"}, {"bike_id": "f4839a0ea35829a6b24effcee0543edf", "type": "electric_scooter", "is_disabled": 0, "lat": 38.93954083333333, "rental_uris": {"ios": "https://dc.lft.to/lastmile_qr_scan", "android": "https://dc.lft.to/lastmile_qr_scan"}, "is_reserved": 0, "fusion_lon": 0.0, "fusion_lat": 0.0, "lon": -77.07241666666667, "name": "f4839a0ea35829a6b24effcee0543edf"}, {"bike_id": "c2fdcbba62a39422526256e8f71ddd1b", "type": "electric_scooter", "is_disabled": 0, "lat": 38.925929333333336, "rental_uris": {"ios": "https://dc.lft.to/lastmile_qr_scan", "android": "https://dc.lft.to/lastmile_qr_scan"}, "is_reserved": 0, "fusion_lon": 0.0, "fusion_lat": 0.0, "lon": -77.02166633333333, "name": "c2fdcbba62a39422526256e8f71ddd1b"}, {"bike_id": "988c3cb93aadeb3947fc94c95c0bfb35", "type": "electric_scooter", "is_disabled": 0, "lat": 38.90544283333333, "rental_uris": {"ios": "https://dc.lft.to/lastmile_qr_scan", "android": "https://dc.lft.to/lastmile_qr_scan"}, "is_reserved": 0, "fusion_lon": 0.0, "fusion_lat": 0.0, "lon": -77.022048, "name": "988c3cb93aadeb3947fc94c95c0bfb35"}, {"bike_id": "943be95e32382ed26a38a6cb2f5d9246", "type": "electric_bike", "is_disabled": 0, "lat": 38.905190166666664, "rental_uris": {"ios": "https://dc.lft.to/lastmile_qr_scan", "android": "https://dc.lft.to/lastmile_qr_scan"}, "is_reserved": 0, "fusion_lon": 0.0, "fusion_lat": 0.0, "lon": -77.05674683333334, "name": "943be95e32382ed26a38a6cb2f5d9246"}, {"bike_id": "6381c15a40bb9d1267219e3c009949ea", "type": "electric_scooter", "is_disabled": 0, "lat": 38.90273333333333, "rental_uris": {"ios": "https://dc.lft.to/lastmile_qr_scan", "android": "https://dc.lft.to/lastmile_qr_scan"}, "is_reserved": 0, "fusion_lon": 0.0, "fusion_lat": 0.0, "lon": -77.04470366666666, "name": "6381c15a40bb9d1267219e3c009949ea"}, {"bike_id": "9e06d04065c3c1d779dbb55791efc092", "type": "electric_scooter", "is_disabled": 0, "lat": 38.90106933333333, "rental_uris": {"ios": "https://dc.lft.to/lastmile_qr_scan", "android": "https://dc.lft.to/lastmile_qr_scan"}, "is_reserved": 0, "fusion_lon": 0.0, "fusion_lat": 0.0, "lon": -77.03837, "name": "9e06d04065c3c1d779dbb55791efc092"}, {"bike_id": "382f053a57e4c475fcb9fd61882e3956", "type": "electric_scooter", "is_disabled": 0, "lat": 38.90853633333333, "rental_uris": {"ios": "https://dc.lft.to/lastmile_qr_scan", "android": "https://dc.lft.to/lastmile_qr_scan"}, "is_reserved": 0, "fusion_lon": 0.0, "fusion_lat": 0.0, "lon": -76.99969916666667, "name": "382f053a57e4c475fcb9fd61882e3956"}, {"bike_id": "057cf7ddc6bf1b9b486039966856d468", "type": "electric_scooter", "is_disabled": 0, "lat": 38.891147333333336, "rental_uris": {"ios": "https://dc.lft.to/lastmile_qr_scan", "android": "https://dc.lft.to/lastmile_qr_scan"}, "is_reserved": 0, "fusion_lon": 0.0, "fusion_lat": 0.0, "lon": -76.9916245, "name": "057cf7ddc6bf1b9b486039966856d468"}, {"bike_id": "5e8027d028c13a0bf7cb28b9e62c5024", "type": "electric_scooter", "is_disabled": 0, "lat": 38.912601333333335, "rental_uris": {"ios": "https://dc.lft.to/lastmile_qr_scan", "android": "https://dc.lft.to/lastmile_qr_scan"}, "is_reserved": 0, "fusion_lon": 0.0, "fusion_lat": 0.0, "lon": -77.067959, "name": "5e8027d028c13a0bf7cb28b9e62c5024"}, {"bike_id": "514c0bd31ecfaa9860791ae1c15046f1", "type": "electric_scooter", "is_disabled": 0, "lat": 38.918931666666666, "rental_uris": {"ios": "https://dc.lft.to/lastmile_qr_scan", "android": "https://dc.lft.to/lastmile_qr_scan"}, "is_reserved": 0, "fusion_lon": 0.0, "fusion_lat": 0.0, "lon": -77.04618333333333, "name": "514c0bd31ecfaa9860791ae1c15046f1"}, {"bike_id": "68c878d2fc92f8f2738287555735b871", "type": "electric_scooter", "is_disabled": 0, "lat": 38.862179166666664, "rental_uris": {"ios": "https://dc.lft.to/lastmile_qr_scan", "android": "https://dc.lft.to/lastmile_qr_scan"}, "is_reserved": 0, "fusion_lon": 0.0, "fusion_lat": 0.0, "lon": -76.99485666666666, "name": "68c878d2fc92f8f2738287555735b871"}, {"bike_id": "cb504c48d1f55a2baab874f14c2814e8", "type": "electric_scooter", "is_disabled": 0, "lat": 38.9147985, "rental_uris": {"ios": "https://dc.lft.to/lastmile_qr_scan", "android": "https://dc.lft.to/lastmile_qr_scan"}, "is_reserved": 0, "fusion_lon": 0.0, "fusion_lat": 0.0, "lon": -77.00284283333333, "name": "cb504c48d1f55a2baab874f14c2814e8"}, {"bike_id": "807c7c7dfa751cb77c9be953be802487", "type": "electric_scooter", "is_disabled": 0, "lat": 38.93456366666667, "rental_uris": {"ios": "https://dc.lft.to/lastmile_qr_scan", "android": "https://dc.lft.to/lastmile_qr_scan"}, "is_reserved": 0, "fusion_lon": 0.0, "fusion_lat": 0.0, "lon": -77.0279325, "name": "807c7c7dfa751cb77c9be953be802487"}, {"bike_id": "10c32496a10fcd6b495d93b0a4f21ade", "type": "electric_scooter", "is_disabled": 0, "lat": 38.90686316666667, "rental_uris": {"ios": "https://dc.lft.to/lastmile_qr_scan", "android": "https://dc.lft.to/lastmile_qr_scan"}, "is_reserved": 0, "fusion_lon": 0.0, "fusion_lat": 0.0, "lon": -77.00575766666667, "name": "10c32496a10fcd6b495d93b0a4f21ade"}, {"bike_id": "1ed79ab111c7b08abb69860fb4dfe95a", "type": "electric_scooter", "is_disabled": 0, "lat": 38.92926933333333, "rental_uris": {"ios": "https://dc.lft.to/lastmile_qr_scan", "android": "https://dc.lft.to/lastmile_qr_scan"}, "is_reserved": 0, "fusion_lon": 0.0, "fusion_lat": 0.0, "lon": -77.0327965, "name": "1ed79ab111c7b08abb69860fb4dfe95a"}, {"bike_id": "975bfe15721a0506fd38689332533e61", "type": "electric_scooter", "is_disabled": 0, "lat": 38.871771833333334, "rental_uris": {"ios": "https://dc.lft.to/lastmile_qr_scan", "android": "https://dc.lft.to/lastmile_qr_scan"}, "is_reserved": 0, "fusion_lon": 0.0, "fusion_lat": 0.0, "lon": -77.00611, "name": "975bfe15721a0506fd38689332533e61"}, {"bike_id": "cd5ed71a7f93c12c6151fb3adf8cc292", "type": "electric_scooter", "is_disabled": 0, "lat": 38.93198683333333, "rental_uris": {"ios": "https://dc.lft.to/lastmile_qr_scan", "android": "https://dc.lft.to/lastmile_qr_scan"}, "is_reserved": 0, "fusion_lon": 0.0, "fusion_lat": 0.0, "lon": -77.02389583333333, "name": "cd5ed71a7f93c12c6151fb3adf8cc292"}, {"bike_id": "ba133c1660b6dbc8b4d6a28a727815b6", "type": "electric_scooter", "is_disabled": 0, "lat": 38.9164595, "rental_uris": {"ios": "https://dc.lft.to/lastmile_qr_scan", "android": "https://dc.lft.to/lastmile_qr_scan"}, "is_reserved": 0, "fusion_lon": 0.0, "fusion_lat": 0.0, "lon": -77.0226785, "name": "ba133c1660b6dbc8b4d6a28a727815b6"}, {"bike_id": "d471b3176b841b7b7a0e9f13aa3c2ffa", "type": "electric_scooter", "is_disabled": 0, "lat": 38.91428033333333, "rental_uris": {"ios": "https://dc.lft.to/lastmile_qr_scan", "android": "https://dc.lft.to/lastmile_qr_scan"}, "is_reserved": 0, "fusion_lon": 0.0, "fusion_lat": 0.0, "lon": -77.03213916666667, "name": "d471b3176b841b7b7a0e9f13aa3c2ffa"}, {"bike_id": "7283ee44d3b5bb0370047679b6a1a7ce", "type": "electric_scooter", "is_disabled": 0, "lat": 38.93416166666667, "rental_uris": {"ios": "https://dc.lft.to/lastmile_qr_scan", "android": "https://dc.lft.to/lastmile_qr_scan"}, "is_reserved": 0, "fusion_lon": 0.0, "fusion_lat": 0.0, "lon": -77.04148333333333, "name": "7283ee44d3b5bb0370047679b6a1a7ce"}, {"bike_id": "ce52f2ee61af9be07d9452a805c7afe4", "type": "electric_scooter", "is_disabled": 0, "lat": 38.900573, "rental_uris": {"ios": "https://dc.lft.to/lastmile_qr_scan", "android": "https://dc.lft.to/lastmile_qr_scan"}, "is_reserved": 0, "fusion_lon": 0.0, "fusion_lat": 0.0, "lon": -77.00390033333333, "name": "ce52f2ee61af9be07d9452a805c7afe4"}, {"bike_id": "4743150697db93ec65024fdb03d99eff", "type": "electric_bike", "is_disabled": 0, "lat": 38.882449333333334, "rental_uris": {"ios": "https://dc.lft.to/lastmile_qr_scan", "android": "https://dc.lft.to/lastmile_qr_scan"}, "is_reserved": 0, "fusion_lon": 0.0, "fusion_lat": 0.0, "lon": -76.96259533333334, "name": "4743150697db93ec65024fdb03d99eff"}, {"bike_id": "24779de286a3e3e0fcf6be4dd7bacb55", "type": "electric_bike", "is_disabled": 0, "lat": 38.934466666666665, "rental_uris": {"ios": "https://dc.lft.to/lastmile_qr_scan", "android": "https://dc.lft.to/lastmile_qr_scan"}, "is_reserved": 0, "fusion_lon": 0.0, "fusion_lat": 0.0, "lon": -77.04123383333334, "name": "24779de286a3e3e0fcf6be4dd7bacb55"}, {"bike_id": "9dc0ec0975ffd5f0b46fe6b12b7ef6b6", "type": "electric_scooter", "is_disabled": 0, "lat": 38.904695333333336, "rental_uris": {"ios": "https://dc.lft.to/lastmile_qr_scan", "android": "https://dc.lft.to/lastmile_qr_scan"}, "is_reserved": 0, "fusion_lon": 0.0, "fusion_lat": 0.0, "lon": -76.97608716666667, "name": "9dc0ec0975ffd5f0b46fe6b12b7ef6b6"}, {"bike_id": "4cef8f9a8d9e956f2b12f3ad68f9fde9", "type": "electric_scooter", "is_disabled": 0, "lat": 38.89224016666667, "rental_uris": {"ios": "https://dc.lft.to/lastmile_qr_scan", "android": "https://dc.lft.to/lastmile_qr_scan"}, "is_reserved": 0, "fusion_lon": 0.0, "fusion_lat": 0.0, "lon": -77.02585516666667, "name": "4cef8f9a8d9e956f2b12f3ad68f9fde9"}, {"bike_id": "7a7206810402a217c0e865ddefac6d8b", "type": "electric_scooter", "is_disabled": 0, "lat": 38.94452616666667, "rental_uris": {"ios": "https://dc.lft.to/lastmile_qr_scan", "android": "https://dc.lft.to/lastmile_qr_scan"}, "is_reserved": 0, "fusion_lon": 0.0, "fusion_lat": 0.0, "lon": -77.0634895, "name": "7a7206810402a217c0e865ddefac6d8b"}, {"bike_id": "8f381d27ca9299d1df369ca829cc767c", "type": "electric_bike", "is_disabled": 0, "lat": 38.932273333333335, "rental_uris": {"ios": "https://dc.lft.to/lastmile_qr_scan", "android": "https://dc.lft.to/lastmile_qr_scan"}, "is_reserved": 0, "fusion_lon": 0.0, "fusion_lat": 0.0, "lon": -77.18121633333334, "name": "8f381d27ca9299d1df369ca829cc767c"}, {"bike_id": "46cb7bfd2e83c1cbd17e7d9e0d58a3bb", "type": "electric_scooter", "is_disabled": 0, "lat": 38.9225225, "rental_uris": {"ios": "https://dc.lft.to/lastmile_qr_scan", "android": "https://dc.lft.to/lastmile_qr_scan"}, "is_reserved": 0, "fusion_lon": 0.0, "fusion_lat": 0.0, "lon": -77.0421255, "name": "46cb7bfd2e83c1cbd17e7d9e0d58a3bb"}, {"bike_id": "f2115bf4a0bbc81912bdac860e5d4d5d", "type": "electric_scooter", "is_disabled": 0, "lat": 38.929507666666666, "rental_uris": {"ios": "https://dc.lft.to/lastmile_qr_scan", "android": "https://dc.lft.to/lastmile_qr_scan"}, "is_reserved": 0, "fusion_lon": 0.0, "fusion_lat": 0.0, "lon": -77.04406533333334, "name": "f2115bf4a0bbc81912bdac860e5d4d5d"}, {"bike_id": "b2ea6083cb9e8af25e06647b9e433472", "type": "electric_scooter", "is_disabled": 0, "lat": 38.90737583333333, "rental_uris": {"ios": "https://dc.lft.to/lastmile_qr_scan", "android": "https://dc.lft.to/lastmile_qr_scan"}, "is_reserved": 0, "fusion_lon": 0.0, "fusion_lat": 0.0, "lon": -77.02951483333334, "name": "b2ea6083cb9e8af25e06647b9e433472"}, {"bike_id": "8b2381b31ec9dbfe1127efa60d455adb", "type": "electric_scooter", "is_disabled": 0, "lat": 38.965689, "rental_uris": {"ios": "https://dc.lft.to/lastmile_qr_scan", "android": "https://dc.lft.to/lastmile_qr_scan"}, "is_reserved": 0, "fusion_lon": 0.0, "fusion_lat": 0.0, "lon": -77.027748, "name": "8b2381b31ec9dbfe1127efa60d455adb"}, {"bike_id": "d440834be0433aab4d7cf7f7acf38940", "type": "electric_scooter", "is_disabled": 0, "lat": 38.90334466666667, "rental_uris": {"ios": "https://dc.lft.to/lastmile_qr_scan", "android": "https://dc.lft.to/lastmile_qr_scan"}, "is_reserved": 0, "fusion_lon": 0.0, "fusion_lat": 0.0, "lon": -77.06927733333333, "name": "d440834be0433aab4d7cf7f7acf38940"}, {"bike_id": "db4d4cc2e0a365748b1c9080f48cfd67", "type": "electric_scooter", "is_disabled": 0, "lat": 38.862481, "rental_uris": {"ios": "https://dc.lft.to/lastmile_qr_scan", "android": "https://dc.lft.to/lastmile_qr_scan"}, "is_reserved": 0, "fusion_lon": 0.0, "fusion_lat": 0.0, "lon": -76.99497216666667, "name": "db4d4cc2e0a365748b1c9080f48cfd67"}, {"bike_id": "185652ed024872ce25a9e55de49f18dc", "type": "electric_scooter", "is_disabled": 0, "lat": 38.984332, "rental_uris": {"ios": "https://dc.lft.to/lastmile_qr_scan", "android": "https://dc.lft.to/lastmile_qr_scan"}, "is_reserved": 0, "fusion_lon": 0.0, "fusion_lat": 0.0, "lon": -77.02673466666667, "name": "185652ed024872ce25a9e55de49f18dc"}, {"bike_id": "1398cb8e032b063612d0fc9736796f4d", "type": "electric_scooter", "is_disabled": 0, "lat": 38.882657, "rental_uris": {"ios": "https://dc.lft.to/lastmile_qr_scan", "android": "https://dc.lft.to/lastmile_qr_scan"}, "is_reserved": 0, "fusion_lon": 0.0, "fusion_lat": 0.0, "lon": -76.99509833333333, "name": "1398cb8e032b063612d0fc9736796f4d"}, {"bike_id": "e01100a0e981903a935d40b45663a3cd", "type": "electric_scooter", "is_disabled": 0, "lat": 38.8665745, "rental_uris": {"ios": "https://dc.lft.to/lastmile_qr_scan", "android": "https://dc.lft.to/lastmile_qr_scan"}, "is_reserved": 0, "fusion_lon": 0.0, "fusion_lat": 0.0, "lon": -76.98885816666666, "name": "e01100a0e981903a935d40b45663a3cd"}, {"bike_id": "495986905cc02c3e720fa842543ea1dc", "type": "electric_scooter", "is_disabled": 0, "lat": 38.90050433333333, "rental_uris": {"ios": "https://dc.lft.to/lastmile_qr_scan", "android": "https://dc.lft.to/lastmile_qr_scan"}, "is_reserved": 0, "fusion_lon": 0.0, "fusion_lat": 0.0, "lon": -77.03506633333333, "name": "495986905cc02c3e720fa842543ea1dc"}, {"bike_id": "26fe31505e7a309bc73dc3da58057a07", "type": "electric_scooter", "is_disabled": 0, "lat": 38.906525333333335, "rental_uris": {"ios": "https://dc.lft.to/lastmile_qr_scan", "android": "https://dc.lft.to/lastmile_qr_scan"}, "is_reserved": 0, "fusion_lon": 0.0, "fusion_lat": 0.0, "lon": -77.01461883333333, "name": "26fe31505e7a309bc73dc3da58057a07"}, {"bike_id": "289daf7928b97e702d29768bab96985b", "type": "electric_scooter", "is_disabled": 0, "lat": 38.927464666666665, "rental_uris": {"ios": "https://dc.lft.to/lastmile_qr_scan", "android": "https://dc.lft.to/lastmile_qr_scan"}, "is_reserved": 0, "fusion_lon": 0.0, "fusion_lat": 0.0, "lon": -77.00597116666667, "name": "289daf7928b97e702d29768bab96985b"}, {"bike_id": "ca60390b4df59ff109dcc4fb1c2efc9e", "type": "electric_scooter", "is_disabled": 0, "lat": 38.91699716666667, "rental_uris": {"ios": "https://dc.lft.to/lastmile_qr_scan", "android": "https://dc.lft.to/lastmile_qr_scan"}, "is_reserved": 0, "fusion_lon": 0.0, "fusion_lat": 0.0, "lon": -77.03771633333334, "name": "ca60390b4df59ff109dcc4fb1c2efc9e"}, {"bike_id": "dba52497b532d89d2aece1c7ad684b00", "type": "electric_scooter", "is_disabled": 0, "lat": 38.90668, "rental_uris": {"ios": "https://dc.lft.to/lastmile_qr_scan", "android": "https://dc.lft.to/lastmile_qr_scan"}, "is_reserved": 0, "fusion_lon": 0.0, "fusion_lat": 0.0, "lon": -77.07188366666666, "name": "dba52497b532d89d2aece1c7ad684b00"}, {"bike_id": "398f2af9a94ee09d83e47f9945358cfb", "type": "electric_scooter", "is_disabled": 0, "lat": 38.876501833333336, "rental_uris": {"ios": "https://dc.lft.to/lastmile_qr_scan", "android": "https://dc.lft.to/lastmile_qr_scan"}, "is_reserved": 0, "fusion_lon": 0.0, "fusion_lat": 0.0, "lon": -76.96505966666666, "name": "398f2af9a94ee09d83e47f9945358cfb"}, {"bike_id": "f53a3a5a472e5ad8f3b07676f18f7203", "type": "electric_scooter", "is_disabled": 0, "lat": 38.91125566666667, "rental_uris": {"ios": "https://dc.lft.to/lastmile_qr_scan", "android": "https://dc.lft.to/lastmile_qr_scan"}, "is_reserved": 0, "fusion_lon": 0.0, "fusion_lat": 0.0, "lon": -77.02178066666667, "name": "f53a3a5a472e5ad8f3b07676f18f7203"}, {"bike_id": "1c7d5a508da4708d5f81c2b037d1f078", "type": "electric_scooter", "is_disabled": 0, "lat": 38.93464483333333, "rental_uris": {"ios": "https://dc.lft.to/lastmile_qr_scan", "android": "https://dc.lft.to/lastmile_qr_scan"}, "is_reserved": 0, "fusion_lon": 0.0, "fusion_lat": 0.0, "lon": -77.02932383333334, "name": "1c7d5a508da4708d5f81c2b037d1f078"}, {"bike_id": "24a010d833a2ea618b3cc0f13044f91f", "type": "electric_scooter", "is_disabled": 0, "lat": 38.916626, "rental_uris": {"ios": "https://dc.lft.to/lastmile_qr_scan", "android": "https://dc.lft.to/lastmile_qr_scan"}, "is_reserved": 0, "fusion_lon": 0.0, "fusion_lat": 0.0, "lon": -77.02698066666666, "name": "24a010d833a2ea618b3cc0f13044f91f"}, {"bike_id": "e7b1921e6dbbda65ecda4da8b3fee8af", "type": "electric_scooter", "is_disabled": 0, "lat": 38.93532783333333, "rental_uris": {"ios": "https://dc.lft.to/lastmile_qr_scan", "android": "https://dc.lft.to/lastmile_qr_scan"}, "is_reserved": 0, "fusion_lon": 0.0, "fusion_lat": 0.0, "lon": -77.02351966666667, "name": "e7b1921e6dbbda65ecda4da8b3fee8af"}, {"bike_id": "570c0305dea46bc15bb5e25f807352ce", "type": "electric_scooter", "is_disabled": 0, "lat": 38.903137666666666, "rental_uris": {"ios": "https://dc.lft.to/lastmile_qr_scan", "android": "https://dc.lft.to/lastmile_qr_scan"}, "is_reserved": 0, "fusion_lon": 0.0, "fusion_lat": 0.0, "lon": -77.028992, "name": "570c0305dea46bc15bb5e25f807352ce"}, {"bike_id": "518dcf669eab8b0382d44f3a8b10dbdb", "type": "electric_scooter", "is_disabled": 0, "lat": 38.8842425, "rental_uris": {"ios": "https://dc.lft.to/lastmile_qr_scan", "android": "https://dc.lft.to/lastmile_qr_scan"}, "is_reserved": 0, "fusion_lon": 0.0, "fusion_lat": 0.0, "lon": -76.95750566666666, "name": "518dcf669eab8b0382d44f3a8b10dbdb"}, {"bike_id": "5a245ce80106da9738e916ef519975dd", "type": "electric_scooter", "is_disabled": 0, "lat": 38.941953, "rental_uris": {"ios": "https://dc.lft.to/lastmile_qr_scan", "android": "https://dc.lft.to/lastmile_qr_scan"}, "is_reserved": 0, "fusion_lon": 0.0, "fusion_lat": 0.0, "lon": -77.023442, "name": "5a245ce80106da9738e916ef519975dd"}, {"bike_id": "9530d1bc710ed94ab4f70e7a316d6b45", "type": "electric_scooter", "is_disabled": 0, "lat": 38.907199, "rental_uris": {"ios": "https://dc.lft.to/lastmile_qr_scan", "android": "https://dc.lft.to/lastmile_qr_scan"}, "is_reserved": 0, "fusion_lon": 0.0, "fusion_lat": 0.0, "lon": -77.01470383333333, "name": "9530d1bc710ed94ab4f70e7a316d6b45"}, {"bike_id": "731d54bfd6a3088adc92d5b1d5ac4519", "type": "electric_scooter", "is_disabled": 0, "lat": 38.9142025, "rental_uris": {"ios": "https://dc.lft.to/lastmile_qr_scan", "android": "https://dc.lft.to/lastmile_qr_scan"}, "is_reserved": 0, "fusion_lon": 0.0, "fusion_lat": 0.0, "lon": -77.02285666666667, "name": "731d54bfd6a3088adc92d5b1d5ac4519"}, {"bike_id": "47570e76267e7210876728cc24755ee9", "type": "electric_scooter", "is_disabled": 0, "lat": 38.9111095, "rental_uris": {"ios": "https://dc.lft.to/lastmile_qr_scan", "android": "https://dc.lft.to/lastmile_qr_scan"}, "is_reserved": 0, "fusion_lon": 0.0, "fusion_lat": 0.0, "lon": -77.00999466666667, "name": "47570e76267e7210876728cc24755ee9"}, {"bike_id": "88c14ba7cc708f2046a337cb0c5fb3c8", "type": "electric_bike", "is_disabled": 0, "lat": 39.0137125, "rental_uris": {"ios": "https://dc.lft.to/lastmile_qr_scan", "android": "https://dc.lft.to/lastmile_qr_scan"}, "is_reserved": 0, "fusion_lon": 0.0, "fusion_lat": 0.0, "lon": -76.92133633333333, "name": "88c14ba7cc708f2046a337cb0c5fb3c8"}, {"bike_id": "9a1eb1a72deb331d4b845e2103d3dce8", "type": "electric_scooter", "is_disabled": 0, "lat": 38.910101, "rental_uris": {"ios": "https://dc.lft.to/lastmile_qr_scan", "android": "https://dc.lft.to/lastmile_qr_scan"}, "is_reserved": 0, "fusion_lon": 0.0, "fusion_lat": 0.0, "lon": -77.03452166666666, "name": "9a1eb1a72deb331d4b845e2103d3dce8"}, {"bike_id": "04c7b3c023b1c12a360feb747e6e054d", "type": "electric_scooter", "is_disabled": 0, "lat": 38.92094683333333, "rental_uris": {"ios": "https://dc.lft.to/lastmile_qr_scan", "android": "https://dc.lft.to/lastmile_qr_scan"}, "is_reserved": 0, "fusion_lon": 0.0, "fusion_lat": 0.0, "lon": -77.00436516666667, "name": "04c7b3c023b1c12a360feb747e6e054d"}, {"bike_id": "59fa23caa18943adff890f0f381e8093", "type": "electric_scooter", "is_disabled": 0, "lat": 38.92281916666666, "rental_uris": {"ios": "https://dc.lft.to/lastmile_qr_scan", "android": "https://dc.lft.to/lastmile_qr_scan"}, "is_reserved": 0, "fusion_lon": 0.0, "fusion_lat": 0.0, "lon": -77.0224385, "name": "59fa23caa18943adff890f0f381e8093"}, {"bike_id": "9513306b7a4bdc82114aafcfd017a5ce", "type": "electric_bike", "is_disabled": 0, "lat": 38.956418666666664, "rental_uris": {"ios": "https://dc.lft.to/lastmile_qr_scan", "android": "https://dc.lft.to/lastmile_qr_scan"}, "is_reserved": 0, "fusion_lon": 0.0, "fusion_lat": 0.0, "lon": -76.9979545, "name": "9513306b7a4bdc82114aafcfd017a5ce"}, {"bike_id": "aa93c7b06f4f4ed4924859309c8a3d1c", "type": "electric_scooter", "is_disabled": 0, "lat": 38.929185833333335, "rental_uris": {"ios": "https://dc.lft.to/lastmile_qr_scan", "android": "https://dc.lft.to/lastmile_qr_scan"}, "is_reserved": 0, "fusion_lon": 0.0, "fusion_lat": 0.0, "lon": -77.0326465, "name": "aa93c7b06f4f4ed4924859309c8a3d1c"}, {"bike_id": "fab46d22b0ae641662042bbdcb738aca", "type": "electric_scooter", "is_disabled": 0, "lat": 38.896279666666665, "rental_uris": {"ios": "https://dc.lft.to/lastmile_qr_scan", "android": "https://dc.lft.to/lastmile_qr_scan"}, "is_reserved": 0, "fusion_lon": 0.0, "fusion_lat": 0.0, "lon": -77.03290716666666, "name": "fab46d22b0ae641662042bbdcb738aca"}, {"bike_id": "985c9f475196922b67ca65c2783b980c", "type": "electric_scooter", "is_disabled": 0, "lat": 38.905159166666664, "rental_uris": {"ios": "https://dc.lft.to/lastmile_qr_scan", "android": "https://dc.lft.to/lastmile_qr_scan"}, "is_reserved": 0, "fusion_lon": 0.0, "fusion_lat": 0.0, "lon": -77.04334416666667, "name": "985c9f475196922b67ca65c2783b980c"}, {"bike_id": "5ad6ac5b80278a705fc8d760d132de1f", "type": "electric_scooter", "is_disabled": 0, "lat": 38.900771666666664, "rental_uris": {"ios": "https://dc.lft.to/lastmile_qr_scan", "android": "https://dc.lft.to/lastmile_qr_scan"}, "is_reserved": 0, "fusion_lon": 0.0, "fusion_lat": 0.0, "lon": -77.02460416666666, "name": "5ad6ac5b80278a705fc8d760d132de1f"}, {"bike_id": "b063140a28c0835050fa21dac2c9c0b2", "type": "electric_scooter", "is_disabled": 0, "lat": 38.9156445, "rental_uris": {"ios": "https://dc.lft.to/lastmile_qr_scan", "android": "https://dc.lft.to/lastmile_qr_scan"}, "is_reserved": 0, "fusion_lon": 0.0, "fusion_lat": 0.0, "lon": -77.03161016666667, "name": "b063140a28c0835050fa21dac2c9c0b2"}, {"bike_id": "8f4942cd9275076e33d97aa8d7747a98", "type": "electric_scooter", "is_disabled": 0, "lat": 38.923515, "rental_uris": {"ios": "https://dc.lft.to/lastmile_qr_scan", "android": "https://dc.lft.to/lastmile_qr_scan"}, "is_reserved": 0, "fusion_lon": 0.0, "fusion_lat": 0.0, "lon": -77.0414425, "name": "8f4942cd9275076e33d97aa8d7747a98"}, {"bike_id": "dc3ac3953190d24bf76bada31a00a9fd", "type": "electric_scooter", "is_disabled": 0, "lat": 38.91588933333333, "rental_uris": {"ios": "https://dc.lft.to/lastmile_qr_scan", "android": "https://dc.lft.to/lastmile_qr_scan"}, "is_reserved": 0, "fusion_lon": 0.0, "fusion_lat": 0.0, "lon": -77.04525883333334, "name": "dc3ac3953190d24bf76bada31a00a9fd"}, {"bike_id": "d85765079fec2c1b47cbabc6019dc4a0", "type": "electric_scooter", "is_disabled": 0, "lat": 38.927066833333335, "rental_uris": {"ios": "https://dc.lft.to/lastmile_qr_scan", "android": "https://dc.lft.to/lastmile_qr_scan"}, "is_reserved": 0, "fusion_lon": 0.0, "fusion_lat": 0.0, "lon": -77.037408, "name": "d85765079fec2c1b47cbabc6019dc4a0"}, {"bike_id": "983828889eb1a3c7b31c87067937e91c", "type": "electric_scooter", "is_disabled": 0, "lat": 38.866266833333334, "rental_uris": {"ios": "https://dc.lft.to/lastmile_qr_scan", "android": "https://dc.lft.to/lastmile_qr_scan"}, "is_reserved": 0, "fusion_lon": 0.0, "fusion_lat": 0.0, "lon": -76.98712516666667, "name": "983828889eb1a3c7b31c87067937e91c"}, {"bike_id": "9814c70b6e482d139791eb1adb4931c0", "type": "electric_scooter", "is_disabled": 0, "lat": 38.9098825, "rental_uris": {"ios": "https://dc.lft.to/lastmile_qr_scan", "android": "https://dc.lft.to/lastmile_qr_scan"}, "is_reserved": 0, "fusion_lon": 0.0, "fusion_lat": 0.0, "lon": -77.03386766666667, "name": "9814c70b6e482d139791eb1adb4931c0"}, {"bike_id": "a5742bbb4454300819ec0c884786cbfa", "type": "electric_scooter", "is_disabled": 0, "lat": 38.89225866666666, "rental_uris": {"ios": "https://dc.lft.to/lastmile_qr_scan", "android": "https://dc.lft.to/lastmile_qr_scan"}, "is_reserved": 0, "fusion_lon": 0.0, "fusion_lat": 0.0, "lon": -77.03220166666667, "name": "a5742bbb4454300819ec0c884786cbfa"}, {"bike_id": "0dd5221b8090d78fd34a5762f77d92d3", "type": "electric_scooter", "is_disabled": 0, "lat": 38.89959666666667, "rental_uris": {"ios": "https://dc.lft.to/lastmile_qr_scan", "android": "https://dc.lft.to/lastmile_qr_scan"}, "is_reserved": 0, "fusion_lon": 0.0, "fusion_lat": 0.0, "lon": -76.926262, "name": "0dd5221b8090d78fd34a5762f77d92d3"}, {"bike_id": "3943f2610bb9cec3e9a3702fb0dac256", "type": "electric_scooter", "is_disabled": 0, "lat": 38.92483933333333, "rental_uris": {"ios": "https://dc.lft.to/lastmile_qr_scan", "android": "https://dc.lft.to/lastmile_qr_scan"}, "is_reserved": 0, "fusion_lon": 0.0, "fusion_lat": 0.0, "lon": -77.05759116666667, "name": "3943f2610bb9cec3e9a3702fb0dac256"}, {"bike_id": "617e80dfa3b2febb9d4a16be2a3d8cc3", "type": "electric_scooter", "is_disabled": 0, "lat": 38.92829033333334, "rental_uris": {"ios": "https://dc.lft.to/lastmile_qr_scan", "android": "https://dc.lft.to/lastmile_qr_scan"}, "is_reserved": 0, "fusion_lon": 0.0, "fusion_lat": 0.0, "lon": -77.04344333333333, "name": "617e80dfa3b2febb9d4a16be2a3d8cc3"}, {"bike_id": "ede1f50ceee5c7d733c397f1c8447825", "type": "electric_scooter", "is_disabled": 0, "lat": 38.91108333333333, "rental_uris": {"ios": "https://dc.lft.to/lastmile_qr_scan", "android": "https://dc.lft.to/lastmile_qr_scan"}, "is_reserved": 0, "fusion_lon": 0.0, "fusion_lat": 0.0, "lon": -77.02186383333333, "name": "ede1f50ceee5c7d733c397f1c8447825"}, {"bike_id": "b8bc22fe5137d8824e28a62fe476e650", "type": "electric_scooter", "is_disabled": 0, "lat": 38.91400383333333, "rental_uris": {"ios": "https://dc.lft.to/lastmile_qr_scan", "android": "https://dc.lft.to/lastmile_qr_scan"}, "is_reserved": 0, "fusion_lon": 0.0, "fusion_lat": 0.0, "lon": -76.98191116666666, "name": "b8bc22fe5137d8824e28a62fe476e650"}, {"bike_id": "3afc317c25de8a3acb91192f16f65304", "type": "electric_scooter", "is_disabled": 0, "lat": 38.91164366666667, "rental_uris": {"ios": "https://dc.lft.to/lastmile_qr_scan", "android": "https://dc.lft.to/lastmile_qr_scan"}, "is_reserved": 0, "fusion_lon": 0.0, "fusion_lat": 0.0, "lon": -77.06866433333333, "name": "3afc317c25de8a3acb91192f16f65304"}, {"bike_id": "f538d40654f3096bea71cd23c01c4dfb", "type": "electric_scooter", "is_disabled": 0, "lat": 38.916850333333336, "rental_uris": {"ios": "https://dc.lft.to/lastmile_qr_scan", "android": "https://dc.lft.to/lastmile_qr_scan"}, "is_reserved": 0, "fusion_lon": 0.0, "fusion_lat": 0.0, "lon": -77.02966633333334, "name": "f538d40654f3096bea71cd23c01c4dfb"}, {"bike_id": "06fcfcee6b6f308118c0260e4e08a7ef", "type": "electric_scooter", "is_disabled": 0, "lat": 38.919292, "rental_uris": {"ios": "https://dc.lft.to/lastmile_qr_scan", "android": "https://dc.lft.to/lastmile_qr_scan"}, "is_reserved": 0, "fusion_lon": 0.0, "fusion_lat": 0.0, "lon": -77.0416155, "name": "06fcfcee6b6f308118c0260e4e08a7ef"}, {"bike_id": "c76ba5f7dcf92a9484047d0ef127fc16", "type": "electric_scooter", "is_disabled": 0, "lat": 38.89224733333333, "rental_uris": {"ios": "https://dc.lft.to/lastmile_qr_scan", "android": "https://dc.lft.to/lastmile_qr_scan"}, "is_reserved": 0, "fusion_lon": 0.0, "fusion_lat": 0.0, "lon": -77.01738216666666, "name": "c76ba5f7dcf92a9484047d0ef127fc16"}, {"bike_id": "aeabb5b32bc2ac99b677109a34c597f4", "type": "electric_scooter", "is_disabled": 0, "lat": 38.917275833333335, "rental_uris": {"ios": "https://dc.lft.to/lastmile_qr_scan", "android": "https://dc.lft.to/lastmile_qr_scan"}, "is_reserved": 0, "fusion_lon": 0.0, "fusion_lat": 0.0, "lon": -77.01891516666667, "name": "aeabb5b32bc2ac99b677109a34c597f4"}, {"bike_id": "7fc5c2c0809505ee14d07bab5d7bd7af", "type": "electric_bike", "is_disabled": 0, "lat": 38.8553195, "rental_uris": {"ios": "https://dc.lft.to/lastmile_qr_scan", "android": "https://dc.lft.to/lastmile_qr_scan"}, "is_reserved": 0, "fusion_lon": 0.0, "fusion_lat": 0.0, "lon": -77.12032083333334, "name": "7fc5c2c0809505ee14d07bab5d7bd7af"}, {"bike_id": "e9875ef3166c0cd850ee667ed828c44c", "type": "electric_scooter", "is_disabled": 0, "lat": 38.90002916666667, "rental_uris": {"ios": "https://dc.lft.to/lastmile_qr_scan", "android": "https://dc.lft.to/lastmile_qr_scan"}, "is_reserved": 0, "fusion_lon": 0.0, "fusion_lat": 0.0, "lon": -76.99624733333333, "name": "e9875ef3166c0cd850ee667ed828c44c"}, {"bike_id": "fda149e0a9514fe082cdcb26dc7e57a8", "type": "electric_scooter", "is_disabled": 0, "lat": 38.92368233333333, "rental_uris": {"ios": "https://dc.lft.to/lastmile_qr_scan", "android": "https://dc.lft.to/lastmile_qr_scan"}, "is_reserved": 0, "fusion_lon": 0.0, "fusion_lat": 0.0, "lon": -77.04131716666667, "name": "fda149e0a9514fe082cdcb26dc7e57a8"}, {"bike_id": "90ec97a3976b0a2109f52cbd4cdea50e", "type": "electric_scooter", "is_disabled": 0, "lat": 38.92671983333334, "rental_uris": {"ios": "https://dc.lft.to/lastmile_qr_scan", "android": "https://dc.lft.to/lastmile_qr_scan"}, "is_reserved": 0, "fusion_lon": 0.0, "fusion_lat": 0.0, "lon": -77.015096, "name": "90ec97a3976b0a2109f52cbd4cdea50e"}, {"bike_id": "36a27d98a290a4205e8059ed3fbf05d2", "type": "electric_scooter", "is_disabled": 0, "lat": 38.901825, "rental_uris": {"ios": "https://dc.lft.to/lastmile_qr_scan", "android": "https://dc.lft.to/lastmile_qr_scan"}, "is_reserved": 0, "fusion_lon": 0.0, "fusion_lat": 0.0, "lon": -77.03915966666666, "name": "36a27d98a290a4205e8059ed3fbf05d2"}, {"bike_id": "c634f880a1fa19a81c48420da22b4315", "type": "electric_scooter", "is_disabled": 0, "lat": 38.908534333333336, "rental_uris": {"ios": "https://dc.lft.to/lastmile_qr_scan", "android": "https://dc.lft.to/lastmile_qr_scan"}, "is_reserved": 0, "fusion_lon": 0.0, "fusion_lat": 0.0, "lon": -77.02066383333333, "name": "c634f880a1fa19a81c48420da22b4315"}, {"bike_id": "ee49f20b34b5d858dadcb6d5570393de", "type": "electric_scooter", "is_disabled": 0, "lat": 38.91951133333333, "rental_uris": {"ios": "https://dc.lft.to/lastmile_qr_scan", "android": "https://dc.lft.to/lastmile_qr_scan"}, "is_reserved": 0, "fusion_lon": 0.0, "fusion_lat": 0.0, "lon": -77.04879733333334, "name": "ee49f20b34b5d858dadcb6d5570393de"}, {"bike_id": "375eb080cd4072d8e8f2f5c127b610ad", "type": "electric_scooter", "is_disabled": 0, "lat": 38.928625333333336, "rental_uris": {"ios": "https://dc.lft.to/lastmile_qr_scan", "android": "https://dc.lft.to/lastmile_qr_scan"}, "is_reserved": 0, "fusion_lon": 0.0, "fusion_lat": 0.0, "lon": -77.02172816666666, "name": "375eb080cd4072d8e8f2f5c127b610ad"}, {"bike_id": "e13a19b40c437fe3a43900ccc2bdfb80", "type": "electric_bike", "is_disabled": 0, "lat": 38.85440066666666, "rental_uris": {"ios": "https://dc.lft.to/lastmile_qr_scan", "android": "https://dc.lft.to/lastmile_qr_scan"}, "is_reserved": 0, "fusion_lon": 0.0, "fusion_lat": 0.0, "lon": -77.08304916666667, "name": "e13a19b40c437fe3a43900ccc2bdfb80"}, {"bike_id": "18a32fd33512b530e57d373ae81ff714", "type": "electric_scooter", "is_disabled": 0, "lat": 38.909678666666665, "rental_uris": {"ios": "https://dc.lft.to/lastmile_qr_scan", "android": "https://dc.lft.to/lastmile_qr_scan"}, "is_reserved": 0, "fusion_lon": 0.0, "fusion_lat": 0.0, "lon": -77.02215233333334, "name": "18a32fd33512b530e57d373ae81ff714"}, {"bike_id": "c0004c5a3dfe802210c75c9c43cb2077", "type": "electric_scooter", "is_disabled": 0, "lat": 38.93633716666667, "rental_uris": {"ios": "https://dc.lft.to/lastmile_qr_scan", "android": "https://dc.lft.to/lastmile_qr_scan"}, "is_reserved": 0, "fusion_lon": 0.0, "fusion_lat": 0.0, "lon": -77.036639, "name": "c0004c5a3dfe802210c75c9c43cb2077"}, {"bike_id": "25c58e6a6ff127a7cb6014045c0125cc", "type": "electric_scooter", "is_disabled": 0, "lat": 38.95220333333333, "rental_uris": {"ios": "https://dc.lft.to/lastmile_qr_scan", "android": "https://dc.lft.to/lastmile_qr_scan"}, "is_reserved": 0, "fusion_lon": 0.0, "fusion_lat": 0.0, "lon": -77.07064816666667, "name": "25c58e6a6ff127a7cb6014045c0125cc"}, {"bike_id": "384406538a60622a612bc14d8cefb011", "type": "electric_scooter", "is_disabled": 0, "lat": 38.87630683333333, "rental_uris": {"ios": "https://dc.lft.to/lastmile_qr_scan", "android": "https://dc.lft.to/lastmile_qr_scan"}, "is_reserved": 0, "fusion_lon": 0.0, "fusion_lat": 0.0, "lon": -77.00052933333333, "name": "384406538a60622a612bc14d8cefb011"}, {"bike_id": "8b3d3ed3942918241d809efe9b877657", "type": "electric_scooter", "is_disabled": 0, "lat": 38.91792383333333, "rental_uris": {"ios": "https://dc.lft.to/lastmile_qr_scan", "android": "https://dc.lft.to/lastmile_qr_scan"}, "is_reserved": 0, "fusion_lon": 0.0, "fusion_lat": 0.0, "lon": -77.005637, "name": "8b3d3ed3942918241d809efe9b877657"}, {"bike_id": "b44baf8cb712a4da2102405d2740ae75", "type": "electric_scooter", "is_disabled": 0, "lat": 38.90493216666667, "rental_uris": {"ios": "https://dc.lft.to/lastmile_qr_scan", "android": "https://dc.lft.to/lastmile_qr_scan"}, "is_reserved": 0, "fusion_lon": 0.0, "fusion_lat": 0.0, "lon": -76.98686816666667, "name": "b44baf8cb712a4da2102405d2740ae75"}, {"bike_id": "3f1628c8a5b3c41094493934e3e13605", "type": "electric_scooter", "is_disabled": 0, "lat": 38.89730216666667, "rental_uris": {"ios": "https://dc.lft.to/lastmile_qr_scan", "android": "https://dc.lft.to/lastmile_qr_scan"}, "is_reserved": 0, "fusion_lon": 0.0, "fusion_lat": 0.0, "lon": -77.0547535, "name": "3f1628c8a5b3c41094493934e3e13605"}, {"bike_id": "d1525fc6a3d5ac600aad8ef16a71f145", "type": "electric_bike", "is_disabled": 0, "lat": 38.929166333333335, "rental_uris": {"ios": "https://dc.lft.to/lastmile_qr_scan", "android": "https://dc.lft.to/lastmile_qr_scan"}, "is_reserved": 0, "fusion_lon": 0.0, "fusion_lat": 0.0, "lon": -77.0325955, "name": "d1525fc6a3d5ac600aad8ef16a71f145"}, {"bike_id": "70a307646aba5ce88e51c7a8ad691bcf", "type": "electric_scooter", "is_disabled": 0, "lat": 38.89986616666667, "rental_uris": {"ios": "https://dc.lft.to/lastmile_qr_scan", "android": "https://dc.lft.to/lastmile_qr_scan"}, "is_reserved": 0, "fusion_lon": 0.0, "fusion_lat": 0.0, "lon": -76.988168, "name": "70a307646aba5ce88e51c7a8ad691bcf"}, {"bike_id": "d6b6fc06349b317cda5088597513e5dc", "type": "electric_scooter", "is_disabled": 0, "lat": 38.96143416666666, "rental_uris": {"ios": "https://dc.lft.to/lastmile_qr_scan", "android": "https://dc.lft.to/lastmile_qr_scan"}, "is_reserved": 0, "fusion_lon": 0.0, "fusion_lat": 0.0, "lon": -77.02989266666667, "name": "d6b6fc06349b317cda5088597513e5dc"}, {"bike_id": "4c19ffcae9fce257d3b41c70d761ba64", "type": "electric_bike", "is_disabled": 0, "lat": 39.0399025, "rental_uris": {"ios": "https://dc.lft.to/lastmile_qr_scan", "android": "https://dc.lft.to/lastmile_qr_scan"}, "is_reserved": 0, "fusion_lon": 0.0, "fusion_lat": 0.0, "lon": -76.99926566666667, "name": "4c19ffcae9fce257d3b41c70d761ba64"}, {"bike_id": "2cca0f9b9ac1f4c1e7be8b5dc380ed6e", "type": "electric_scooter", "is_disabled": 0, "lat": 38.90069966666667, "rental_uris": {"ios": "https://dc.lft.to/lastmile_qr_scan", "android": "https://dc.lft.to/lastmile_qr_scan"}, "is_reserved": 0, "fusion_lon": 0.0, "fusion_lat": 0.0, "lon": -77.03636866666666, "name": "2cca0f9b9ac1f4c1e7be8b5dc380ed6e"}, {"bike_id": "1a721e7f9eeefbbb0bacb4f7a86ba935", "type": "electric_scooter", "is_disabled": 0, "lat": 38.90257916666667, "rental_uris": {"ios": "https://dc.lft.to/lastmile_qr_scan", "android": "https://dc.lft.to/lastmile_qr_scan"}, "is_reserved": 0, "fusion_lon": 0.0, "fusion_lat": 0.0, "lon": -76.975494, "name": "1a721e7f9eeefbbb0bacb4f7a86ba935"}, {"bike_id": "72fd3b247dda9741d15ce3af2ee2d741", "type": "electric_scooter", "is_disabled": 0, "lat": 38.906589833333335, "rental_uris": {"ios": "https://dc.lft.to/lastmile_qr_scan", "android": "https://dc.lft.to/lastmile_qr_scan"}, "is_reserved": 0, "fusion_lon": 0.0, "fusion_lat": 0.0, "lon": -77.03810633333333, "name": "72fd3b247dda9741d15ce3af2ee2d741"}, {"bike_id": "187ca648cf765cfc314a9d2742e0b9aa", "type": "electric_scooter", "is_disabled": 0, "lat": 38.92220483333333, "rental_uris": {"ios": "https://dc.lft.to/lastmile_qr_scan", "android": "https://dc.lft.to/lastmile_qr_scan"}, "is_reserved": 0, "fusion_lon": 0.0, "fusion_lat": 0.0, "lon": -77.034612, "name": "187ca648cf765cfc314a9d2742e0b9aa"}, {"bike_id": "ff00531509fd782d4dba8355fafb356e", "type": "electric_scooter", "is_disabled": 0, "lat": 38.9083865, "rental_uris": {"ios": "https://dc.lft.to/lastmile_qr_scan", "android": "https://dc.lft.to/lastmile_qr_scan"}, "is_reserved": 0, "fusion_lon": 0.0, "fusion_lat": 0.0, "lon": -77.04355933333333, "name": "ff00531509fd782d4dba8355fafb356e"}, {"bike_id": "5b639fee606239a2021f6a23a609931e", "type": "electric_scooter", "is_disabled": 0, "lat": 38.93437133333333, "rental_uris": {"ios": "https://dc.lft.to/lastmile_qr_scan", "android": "https://dc.lft.to/lastmile_qr_scan"}, "is_reserved": 0, "fusion_lon": 0.0, "fusion_lat": 0.0, "lon": -77.07250783333333, "name": "5b639fee606239a2021f6a23a609931e"}, {"bike_id": "bddf522074d64ada93818956e3250f96", "type": "electric_scooter", "is_disabled": 0, "lat": 38.923356, "rental_uris": {"ios": "https://dc.lft.to/lastmile_qr_scan", "android": "https://dc.lft.to/lastmile_qr_scan"}, "is_reserved": 0, "fusion_lon": 0.0, "fusion_lat": 0.0, "lon": -77.03614566666667, "name": "bddf522074d64ada93818956e3250f96"}, {"bike_id": "c3b408686a2b97c88c14a844ef7e688a", "type": "electric_scooter", "is_disabled": 0, "lat": 38.91362633333333, "rental_uris": {"ios": "https://dc.lft.to/lastmile_qr_scan", "android": "https://dc.lft.to/lastmile_qr_scan"}, "is_reserved": 0, "fusion_lon": 0.0, "fusion_lat": 0.0, "lon": -77.04557416666667, "name": "c3b408686a2b97c88c14a844ef7e688a"}, {"bike_id": "0cab20ed40ed5cdff4781febc108b8fd", "type": "electric_scooter", "is_disabled": 0, "lat": 38.866571666666665, "rental_uris": {"ios": "https://dc.lft.to/lastmile_qr_scan", "android": "https://dc.lft.to/lastmile_qr_scan"}, "is_reserved": 0, "fusion_lon": 0.0, "fusion_lat": 0.0, "lon": -76.98884233333334, "name": "0cab20ed40ed5cdff4781febc108b8fd"}, {"bike_id": "1d4f5e032ee21cac58b59469435aa891", "type": "electric_scooter", "is_disabled": 0, "lat": 38.92907066666667, "rental_uris": {"ios": "https://dc.lft.to/lastmile_qr_scan", "android": "https://dc.lft.to/lastmile_qr_scan"}, "is_reserved": 0, "fusion_lon": 0.0, "fusion_lat": 0.0, "lon": -77.0226875, "name": "1d4f5e032ee21cac58b59469435aa891"}, {"bike_id": "78514c9e66f2ccf1b5e0ec1b0fd85393", "type": "electric_bike", "is_disabled": 0, "lat": 38.9447295, "rental_uris": {"ios": "https://dc.lft.to/lastmile_qr_scan", "android": "https://dc.lft.to/lastmile_qr_scan"}, "is_reserved": 0, "fusion_lon": 0.0, "fusion_lat": 0.0, "lon": -76.98687616666666, "name": "78514c9e66f2ccf1b5e0ec1b0fd85393"}, {"bike_id": "a0ebbd78d4ef298b74ad827f509b87bb", "type": "electric_scooter", "is_disabled": 0, "lat": 38.90421666666667, "rental_uris": {"ios": "https://dc.lft.to/lastmile_qr_scan", "android": "https://dc.lft.to/lastmile_qr_scan"}, "is_reserved": 0, "fusion_lon": 0.0, "fusion_lat": 0.0, "lon": -77.06877566666667, "name": "a0ebbd78d4ef298b74ad827f509b87bb"}, {"bike_id": "bfd298adc8b11e313cc122d8bd4f7e52", "type": "electric_scooter", "is_disabled": 0, "lat": 38.910318833333335, "rental_uris": {"ios": "https://dc.lft.to/lastmile_qr_scan", "android": "https://dc.lft.to/lastmile_qr_scan"}, "is_reserved": 0, "fusion_lon": 0.0, "fusion_lat": 0.0, "lon": -76.98666316666667, "name": "bfd298adc8b11e313cc122d8bd4f7e52"}, {"bike_id": "1fdb8ae437f131fd1c75e408aa5ece39", "type": "electric_scooter", "is_disabled": 0, "lat": 38.909597, "rental_uris": {"ios": "https://dc.lft.to/lastmile_qr_scan", "android": "https://dc.lft.to/lastmile_qr_scan"}, "is_reserved": 0, "fusion_lon": 0.0, "fusion_lat": 0.0, "lon": -77.044744, "name": "1fdb8ae437f131fd1c75e408aa5ece39"}, {"bike_id": "acf7239f865ab207b41dfcba5deefa9a", "type": "electric_scooter", "is_disabled": 0, "lat": 38.9040315, "rental_uris": {"ios": "https://dc.lft.to/lastmile_qr_scan", "android": "https://dc.lft.to/lastmile_qr_scan"}, "is_reserved": 0, "fusion_lon": 0.0, "fusion_lat": 0.0, "lon": -77.055003, "name": "acf7239f865ab207b41dfcba5deefa9a"}, {"bike_id": "586a8a85d74d8eb9ca039973771fefac", "type": "electric_scooter", "is_disabled": 0, "lat": 38.872044333333335, "rental_uris": {"ios": "https://dc.lft.to/lastmile_qr_scan", "android": "https://dc.lft.to/lastmile_qr_scan"}, "is_reserved": 0, "fusion_lon": 0.0, "fusion_lat": 0.0, "lon": -77.0092775, "name": "586a8a85d74d8eb9ca039973771fefac"}, {"bike_id": "073a2ca0469523e946c54eb54adb585b", "type": "electric_scooter", "is_disabled": 0, "lat": 38.91697533333333, "rental_uris": {"ios": "https://dc.lft.to/lastmile_qr_scan", "android": "https://dc.lft.to/lastmile_qr_scan"}, "is_reserved": 0, "fusion_lon": 0.0, "fusion_lat": 0.0, "lon": -77.0349755, "name": "073a2ca0469523e946c54eb54adb585b"}, {"bike_id": "13225c752f64cae73bc6c155fd685ee5", "type": "electric_bike", "is_disabled": 0, "lat": 39.06295383333333, "rental_uris": {"ios": "https://dc.lft.to/lastmile_qr_scan", "android": "https://dc.lft.to/lastmile_qr_scan"}, "is_reserved": 0, "fusion_lon": 0.0, "fusion_lat": 0.0, "lon": -77.04981366666667, "name": "13225c752f64cae73bc6c155fd685ee5"}, {"bike_id": "619917e94a02f30dfcf0fa6fd7d5a4cf", "type": "electric_scooter", "is_disabled": 0, "lat": 38.90152166666667, "rental_uris": {"ios": "https://dc.lft.to/lastmile_qr_scan", "android": "https://dc.lft.to/lastmile_qr_scan"}, "is_reserved": 0, "fusion_lon": 0.0, "fusion_lat": 0.0, "lon": -76.93057733333333, "name": "619917e94a02f30dfcf0fa6fd7d5a4cf"}, {"bike_id": "e86c2af5affdf695552c2b77527a5d4f", "type": "electric_scooter", "is_disabled": 0, "lat": 38.897186166666664, "rental_uris": {"ios": "https://dc.lft.to/lastmile_qr_scan", "android": "https://dc.lft.to/lastmile_qr_scan"}, "is_reserved": 0, "fusion_lon": 0.0, "fusion_lat": 0.0, "lon": -77.03219483333334, "name": "e86c2af5affdf695552c2b77527a5d4f"}, {"bike_id": "a2389eb953a52972388ba4b5f80f20da", "type": "electric_scooter", "is_disabled": 0, "lat": 38.929609666666664, "rental_uris": {"ios": "https://dc.lft.to/lastmile_qr_scan", "android": "https://dc.lft.to/lastmile_qr_scan"}, "is_reserved": 0, "fusion_lon": 0.0, "fusion_lat": 0.0, "lon": -77.02960583333333, "name": "a2389eb953a52972388ba4b5f80f20da"}, {"bike_id": "4b2e4a828abca758081390a6e113c7bd", "type": "electric_scooter", "is_disabled": 0, "lat": 38.938487333333335, "rental_uris": {"ios": "https://dc.lft.to/lastmile_qr_scan", "android": "https://dc.lft.to/lastmile_qr_scan"}, "is_reserved": 0, "fusion_lon": 0.0, "fusion_lat": 0.0, "lon": -77.072338, "name": "4b2e4a828abca758081390a6e113c7bd"}, {"bike_id": "d1c4b6030fc5c20e0b20bf17730ae2a1", "type": "electric_scooter", "is_disabled": 0, "lat": 38.90276433333333, "rental_uris": {"ios": "https://dc.lft.to/lastmile_qr_scan", "android": "https://dc.lft.to/lastmile_qr_scan"}, "is_reserved": 0, "fusion_lon": 0.0, "fusion_lat": 0.0, "lon": -77.038403, "name": "d1c4b6030fc5c20e0b20bf17730ae2a1"}, {"bike_id": "07eeec43d834e3beaa17bdb11546463c", "type": "electric_scooter", "is_disabled": 0, "lat": 38.84434733333333, "rental_uris": {"ios": "https://dc.lft.to/lastmile_qr_scan", "android": "https://dc.lft.to/lastmile_qr_scan"}, "is_reserved": 0, "fusion_lon": 0.0, "fusion_lat": 0.0, "lon": -76.99869766666667, "name": "07eeec43d834e3beaa17bdb11546463c"}, {"bike_id": "43c2b779f2cb364e7bb97e3dd29ef5ea", "type": "electric_scooter", "is_disabled": 0, "lat": 38.9388705, "rental_uris": {"ios": "https://dc.lft.to/lastmile_qr_scan", "android": "https://dc.lft.to/lastmile_qr_scan"}, "is_reserved": 0, "fusion_lon": 0.0, "fusion_lat": 0.0, "lon": -77.02496666666667, "name": "43c2b779f2cb364e7bb97e3dd29ef5ea"}, {"bike_id": "7c83750a2dc3ca76cdc34a9756c36978", "type": "electric_scooter", "is_disabled": 0, "lat": 38.897306666666665, "rental_uris": {"ios": "https://dc.lft.to/lastmile_qr_scan", "android": "https://dc.lft.to/lastmile_qr_scan"}, "is_reserved": 0, "fusion_lon": 0.0, "fusion_lat": 0.0, "lon": -77.00753916666666, "name": "7c83750a2dc3ca76cdc34a9756c36978"}, {"bike_id": "760161aa297e0802948ffdcfa0c65054", "type": "electric_scooter", "is_disabled": 0, "lat": 38.870834, "rental_uris": {"ios": "https://dc.lft.to/lastmile_qr_scan", "android": "https://dc.lft.to/lastmile_qr_scan"}, "is_reserved": 0, "fusion_lon": 0.0, "fusion_lat": 0.0, "lon": -77.01181816666667, "name": "760161aa297e0802948ffdcfa0c65054"}, {"bike_id": "333d552e29b9015699beb93c79848d8b", "type": "electric_scooter", "is_disabled": 0, "lat": 38.931966, "rental_uris": {"ios": "https://dc.lft.to/lastmile_qr_scan", "android": "https://dc.lft.to/lastmile_qr_scan"}, "is_reserved": 0, "fusion_lon": 0.0, "fusion_lat": 0.0, "lon": -77.0195665, "name": "333d552e29b9015699beb93c79848d8b"}, {"bike_id": "37f24f5ff91d32b236d27e15c1c19a93", "type": "electric_scooter", "is_disabled": 0, "lat": 38.922694666666665, "rental_uris": {"ios": "https://dc.lft.to/lastmile_qr_scan", "android": "https://dc.lft.to/lastmile_qr_scan"}, "is_reserved": 0, "fusion_lon": 0.0, "fusion_lat": 0.0, "lon": -77.034002, "name": "37f24f5ff91d32b236d27e15c1c19a93"}, {"bike_id": "b5145c26c27fc6cd7e8338b3e3d3c3a8", "type": "electric_scooter", "is_disabled": 0, "lat": 38.941070833333335, "rental_uris": {"ios": "https://dc.lft.to/lastmile_qr_scan", "android": "https://dc.lft.to/lastmile_qr_scan"}, "is_reserved": 0, "fusion_lon": 0.0, "fusion_lat": 0.0, "lon": -77.02510683333334, "name": "b5145c26c27fc6cd7e8338b3e3d3c3a8"}, {"bike_id": "21e6afd45a02560d1a0e886071a677a5", "type": "electric_scooter", "is_disabled": 0, "lat": 38.9287, "rental_uris": {"ios": "https://dc.lft.to/lastmile_qr_scan", "android": "https://dc.lft.to/lastmile_qr_scan"}, "is_reserved": 0, "fusion_lon": 0.0, "fusion_lat": 0.0, "lon": -77.032254, "name": "21e6afd45a02560d1a0e886071a677a5"}, {"bike_id": "7260cd42e46f3f839e61127bca7fde75", "type": "electric_scooter", "is_disabled": 0, "lat": 38.912405166666666, "rental_uris": {"ios": "https://dc.lft.to/lastmile_qr_scan", "android": "https://dc.lft.to/lastmile_qr_scan"}, "is_reserved": 0, "fusion_lon": 0.0, "fusion_lat": 0.0, "lon": -77.00087, "name": "7260cd42e46f3f839e61127bca7fde75"}, {"bike_id": "d3cb8736caba8a649954d6b52283cbd3", "type": "electric_scooter", "is_disabled": 0, "lat": 38.911153166666665, "rental_uris": {"ios": "https://dc.lft.to/lastmile_qr_scan", "android": "https://dc.lft.to/lastmile_qr_scan"}, "is_reserved": 0, "fusion_lon": 0.0, "fusion_lat": 0.0, "lon": -77.0497505, "name": "d3cb8736caba8a649954d6b52283cbd3"}, {"bike_id": "13593b4f8b123f15c066f30dcd5bc34c", "type": "electric_scooter", "is_disabled": 0, "lat": 38.922180833333336, "rental_uris": {"ios": "https://dc.lft.to/lastmile_qr_scan", "android": "https://dc.lft.to/lastmile_qr_scan"}, "is_reserved": 0, "fusion_lon": 0.0, "fusion_lat": 0.0, "lon": -77.032908, "name": "13593b4f8b123f15c066f30dcd5bc34c"}, {"bike_id": "059777fa46cabd52b913134aad0666f6", "type": "electric_scooter", "is_disabled": 0, "lat": 38.90572383333333, "rental_uris": {"ios": "https://dc.lft.to/lastmile_qr_scan", "android": "https://dc.lft.to/lastmile_qr_scan"}, "is_reserved": 0, "fusion_lon": 0.0, "fusion_lat": 0.0, "lon": -77.046162, "name": "059777fa46cabd52b913134aad0666f6"}, {"bike_id": "c811d27d81b2bb064cfff3fd9c054e82", "type": "electric_scooter", "is_disabled": 0, "lat": 38.898403, "rental_uris": {"ios": "https://dc.lft.to/lastmile_qr_scan", "android": "https://dc.lft.to/lastmile_qr_scan"}, "is_reserved": 0, "fusion_lon": 0.0, "fusion_lat": 0.0, "lon": -77.02819233333334, "name": "c811d27d81b2bb064cfff3fd9c054e82"}, {"bike_id": "d5f72b0b0cd4d9652e013d7b2aa4cc97", "type": "electric_scooter", "is_disabled": 0, "lat": 38.876309666666664, "rental_uris": {"ios": "https://dc.lft.to/lastmile_qr_scan", "android": "https://dc.lft.to/lastmile_qr_scan"}, "is_reserved": 0, "fusion_lon": 0.0, "fusion_lat": 0.0, "lon": -76.96528516666666, "name": "d5f72b0b0cd4d9652e013d7b2aa4cc97"}, {"bike_id": "5a79afb28312ff33c46979b9f4da23a9", "type": "electric_scooter", "is_disabled": 0, "lat": 38.945140333333335, "rental_uris": {"ios": "https://dc.lft.to/lastmile_qr_scan", "android": "https://dc.lft.to/lastmile_qr_scan"}, "is_reserved": 0, "fusion_lon": 0.0, "fusion_lat": 0.0, "lon": -77.02173116666667, "name": "5a79afb28312ff33c46979b9f4da23a9"}, {"bike_id": "64f908bdd318575173c469680997979b", "type": "electric_scooter", "is_disabled": 0, "lat": 38.87561066666667, "rental_uris": {"ios": "https://dc.lft.to/lastmile_qr_scan", "android": "https://dc.lft.to/lastmile_qr_scan"}, "is_reserved": 0, "fusion_lon": 0.0, "fusion_lat": 0.0, "lon": -76.95869433333333, "name": "64f908bdd318575173c469680997979b"}, {"bike_id": "f21091c3c9971c3ead7c8b53842208a1", "type": "electric_scooter", "is_disabled": 0, "lat": 38.917157333333336, "rental_uris": {"ios": "https://dc.lft.to/lastmile_qr_scan", "android": "https://dc.lft.to/lastmile_qr_scan"}, "is_reserved": 0, "fusion_lon": 0.0, "fusion_lat": 0.0, "lon": -77.03665033333333, "name": "f21091c3c9971c3ead7c8b53842208a1"}, {"bike_id": "704082122ce7cc670884aae1c1cd5095", "type": "electric_scooter", "is_disabled": 0, "lat": 38.9037395, "rental_uris": {"ios": "https://dc.lft.to/lastmile_qr_scan", "android": "https://dc.lft.to/lastmile_qr_scan"}, "is_reserved": 0, "fusion_lon": 0.0, "fusion_lat": 0.0, "lon": -77.01805633333333, "name": "704082122ce7cc670884aae1c1cd5095"}, {"bike_id": "384d29ad629b68f5b8fa1c12212276a7", "type": "electric_scooter", "is_disabled": 0, "lat": 38.920064333333336, "rental_uris": {"ios": "https://dc.lft.to/lastmile_qr_scan", "android": "https://dc.lft.to/lastmile_qr_scan"}, "is_reserved": 0, "fusion_lon": 0.0, "fusion_lat": 0.0, "lon": -77.023999, "name": "384d29ad629b68f5b8fa1c12212276a7"}, {"bike_id": "aba159f895aeb91f1e0cd1d71683f5a9", "type": "electric_scooter", "is_disabled": 0, "lat": 38.89829016666667, "rental_uris": {"ios": "https://dc.lft.to/lastmile_qr_scan", "android": "https://dc.lft.to/lastmile_qr_scan"}, "is_reserved": 0, "fusion_lon": 0.0, "fusion_lat": 0.0, "lon": -77.007599, "name": "aba159f895aeb91f1e0cd1d71683f5a9"}, {"bike_id": "3828c94a78a83a2d9ed383dc3afcf157", "type": "electric_scooter", "is_disabled": 0, "lat": 38.9593415, "rental_uris": {"ios": "https://dc.lft.to/lastmile_qr_scan", "android": "https://dc.lft.to/lastmile_qr_scan"}, "is_reserved": 0, "fusion_lon": 0.0, "fusion_lat": 0.0, "lon": -77.03123866666667, "name": "3828c94a78a83a2d9ed383dc3afcf157"}, {"bike_id": "d50e96b1b54e6619f5d80f24d32d6a7c", "type": "electric_scooter", "is_disabled": 0, "lat": 38.93158066666667, "rental_uris": {"ios": "https://dc.lft.to/lastmile_qr_scan", "android": "https://dc.lft.to/lastmile_qr_scan"}, "is_reserved": 0, "fusion_lon": 0.0, "fusion_lat": 0.0, "lon": -77.0453315, "name": "d50e96b1b54e6619f5d80f24d32d6a7c"}, {"bike_id": "7616a4598d5cdf6fc4b668e10edbc946", "type": "electric_scooter", "is_disabled": 0, "lat": 38.883431333333334, "rental_uris": {"ios": "https://dc.lft.to/lastmile_qr_scan", "android": "https://dc.lft.to/lastmile_qr_scan"}, "is_reserved": 0, "fusion_lon": 0.0, "fusion_lat": 0.0, "lon": -76.99504933333333, "name": "7616a4598d5cdf6fc4b668e10edbc946"}, {"bike_id": "ef6295e66f981ecd90ee76f5e2f02544", "type": "electric_scooter", "is_disabled": 0, "lat": 38.90632733333333, "rental_uris": {"ios": "https://dc.lft.to/lastmile_qr_scan", "android": "https://dc.lft.to/lastmile_qr_scan"}, "is_reserved": 0, "fusion_lon": 0.0, "fusion_lat": 0.0, "lon": -77.0515685, "name": "ef6295e66f981ecd90ee76f5e2f02544"}, {"bike_id": "f9386352b4614c550bb0bb126aaea029", "type": "electric_bike", "is_disabled": 0, "lat": 38.955046833333334, "rental_uris": {"ios": "https://dc.lft.to/lastmile_qr_scan", "android": "https://dc.lft.to/lastmile_qr_scan"}, "is_reserved": 0, "fusion_lon": 0.0, "fusion_lat": 0.0, "lon": -76.99349916666667, "name": "f9386352b4614c550bb0bb126aaea029"}, {"bike_id": "628be7813572a05c0088b81d5349004f", "type": "electric_scooter", "is_disabled": 0, "lat": 38.923743, "rental_uris": {"ios": "https://dc.lft.to/lastmile_qr_scan", "android": "https://dc.lft.to/lastmile_qr_scan"}, "is_reserved": 0, "fusion_lon": 0.0, "fusion_lat": 0.0, "lon": -77.0302235, "name": "628be7813572a05c0088b81d5349004f"}, {"bike_id": "060892394b3c8ab87f803db994eaf497", "type": "electric_bike", "is_disabled": 0, "lat": 39.0369865, "rental_uris": {"ios": "https://dc.lft.to/lastmile_qr_scan", "android": "https://dc.lft.to/lastmile_qr_scan"}, "is_reserved": 0, "fusion_lon": 0.0, "fusion_lat": 0.0, "lon": -77.028622, "name": "060892394b3c8ab87f803db994eaf497"}, {"bike_id": "bf032377c1c08a1df1726d4c8006f99f", "type": "electric_scooter", "is_disabled": 0, "lat": 38.9232085, "rental_uris": {"ios": "https://dc.lft.to/lastmile_qr_scan", "android": "https://dc.lft.to/lastmile_qr_scan"}, "is_reserved": 0, "fusion_lon": 0.0, "fusion_lat": 0.0, "lon": -77.02142266666667, "name": "bf032377c1c08a1df1726d4c8006f99f"}, {"bike_id": "961e0a50f280d23e28e52f3fb2f74c98", "type": "electric_scooter", "is_disabled": 0, "lat": 38.950206666666666, "rental_uris": {"ios": "https://dc.lft.to/lastmile_qr_scan", "android": "https://dc.lft.to/lastmile_qr_scan"}, "is_reserved": 0, "fusion_lon": 0.0, "fusion_lat": 0.0, "lon": -77.00874766666666, "name": "961e0a50f280d23e28e52f3fb2f74c98"}, {"bike_id": "18b060c67d077aab82d49524835e18de", "type": "electric_scooter", "is_disabled": 0, "lat": 38.932113666666666, "rental_uris": {"ios": "https://dc.lft.to/lastmile_qr_scan", "android": "https://dc.lft.to/lastmile_qr_scan"}, "is_reserved": 0, "fusion_lon": 0.0, "fusion_lat": 0.0, "lon": -77.03511366666666, "name": "18b060c67d077aab82d49524835e18de"}, {"bike_id": "67969638f273f50ed165c261246159b8", "type": "electric_scooter", "is_disabled": 0, "lat": 38.92390866666667, "rental_uris": {"ios": "https://dc.lft.to/lastmile_qr_scan", "android": "https://dc.lft.to/lastmile_qr_scan"}, "is_reserved": 0, "fusion_lon": 0.0, "fusion_lat": 0.0, "lon": -77.04084216666666, "name": "67969638f273f50ed165c261246159b8"}, {"bike_id": "fabc006bf9e76c1b0eaea14ed9bd9969", "type": "electric_scooter", "is_disabled": 0, "lat": 38.928726, "rental_uris": {"ios": "https://dc.lft.to/lastmile_qr_scan", "android": "https://dc.lft.to/lastmile_qr_scan"}, "is_reserved": 0, "fusion_lon": 0.0, "fusion_lat": 0.0, "lon": -77.03294083333333, "name": "fabc006bf9e76c1b0eaea14ed9bd9969"}, {"bike_id": "15919b25d7a0939c806b63fd367e69a1", "type": "electric_scooter", "is_disabled": 0, "lat": 38.89854733333333, "rental_uris": {"ios": "https://dc.lft.to/lastmile_qr_scan", "android": "https://dc.lft.to/lastmile_qr_scan"}, "is_reserved": 0, "fusion_lon": 0.0, "fusion_lat": 0.0, "lon": -77.040397, "name": "15919b25d7a0939c806b63fd367e69a1"}, {"bike_id": "5f91d6936ab44b9f154fdd66c0a3947d", "type": "electric_scooter", "is_disabled": 0, "lat": 38.88766866666667, "rental_uris": {"ios": "https://dc.lft.to/lastmile_qr_scan", "android": "https://dc.lft.to/lastmile_qr_scan"}, "is_reserved": 0, "fusion_lon": 0.0, "fusion_lat": 0.0, "lon": -76.955981, "name": "5f91d6936ab44b9f154fdd66c0a3947d"}, {"bike_id": "d0f81779d393126cc9b557e9fceda667", "type": "electric_scooter", "is_disabled": 0, "lat": 38.92705516666667, "rental_uris": {"ios": "https://dc.lft.to/lastmile_qr_scan", "android": "https://dc.lft.to/lastmile_qr_scan"}, "is_reserved": 0, "fusion_lon": 0.0, "fusion_lat": 0.0, "lon": -77.053753, "name": "d0f81779d393126cc9b557e9fceda667"}, {"bike_id": "1e570e9ab771d9b31e22cb34a451d07b", "type": "electric_bike", "is_disabled": 0, "lat": 38.845251166666664, "rental_uris": {"ios": "https://dc.lft.to/lastmile_qr_scan", "android": "https://dc.lft.to/lastmile_qr_scan"}, "is_reserved": 0, "fusion_lon": 0.0, "fusion_lat": 0.0, "lon": -76.97396566666667, "name": "1e570e9ab771d9b31e22cb34a451d07b"}, {"bike_id": "2331a153138715a2ac1da0329dd8f487", "type": "electric_scooter", "is_disabled": 0, "lat": 38.90543366666667, "rental_uris": {"ios": "https://dc.lft.to/lastmile_qr_scan", "android": "https://dc.lft.to/lastmile_qr_scan"}, "is_reserved": 0, "fusion_lon": 0.0, "fusion_lat": 0.0, "lon": -77.056994, "name": "2331a153138715a2ac1da0329dd8f487"}, {"bike_id": "c98f6b409c18d586556489514b2edbb3", "type": "electric_scooter", "is_disabled": 0, "lat": 38.91117233333333, "rental_uris": {"ios": "https://dc.lft.to/lastmile_qr_scan", "android": "https://dc.lft.to/lastmile_qr_scan"}, "is_reserved": 0, "fusion_lon": 0.0, "fusion_lat": 0.0, "lon": -77.04654483333333, "name": "c98f6b409c18d586556489514b2edbb3"}, {"bike_id": "c859675bbeb7616b2743a255858b3b2e", "type": "electric_scooter", "is_disabled": 0, "lat": 38.90036033333333, "rental_uris": {"ios": "https://dc.lft.to/lastmile_qr_scan", "android": "https://dc.lft.to/lastmile_qr_scan"}, "is_reserved": 0, "fusion_lon": 0.0, "fusion_lat": 0.0, "lon": -76.98058966666666, "name": "c859675bbeb7616b2743a255858b3b2e"}, {"bike_id": "402b3d044afe05cac6605a9dd116a837", "type": "electric_scooter", "is_disabled": 0, "lat": 38.93177766666667, "rental_uris": {"ios": "https://dc.lft.to/lastmile_qr_scan", "android": "https://dc.lft.to/lastmile_qr_scan"}, "is_reserved": 0, "fusion_lon": 0.0, "fusion_lat": 0.0, "lon": -77.04295516666667, "name": "402b3d044afe05cac6605a9dd116a837"}, {"bike_id": "702269ef6fc9a980a6351a5d5ce1e1bb", "type": "electric_scooter", "is_disabled": 0, "lat": 38.886002500000004, "rental_uris": {"ios": "https://dc.lft.to/lastmile_qr_scan", "android": "https://dc.lft.to/lastmile_qr_scan"}, "is_reserved": 0, "fusion_lon": 0.0, "fusion_lat": 0.0, "lon": -77.02837633333333, "name": "702269ef6fc9a980a6351a5d5ce1e1bb"}, {"bike_id": "ead5c9b527e7dbebb156b28811d23b33", "type": "electric_scooter", "is_disabled": 0, "lat": 38.91491383333333, "rental_uris": {"ios": "https://dc.lft.to/lastmile_qr_scan", "android": "https://dc.lft.to/lastmile_qr_scan"}, "is_reserved": 0, "fusion_lon": 0.0, "fusion_lat": 0.0, "lon": -76.98585466666667, "name": "ead5c9b527e7dbebb156b28811d23b33"}, {"bike_id": "8a44c0000efd373642cf9b64db883b37", "type": "electric_scooter", "is_disabled": 0, "lat": 38.92276283333333, "rental_uris": {"ios": "https://dc.lft.to/lastmile_qr_scan", "android": "https://dc.lft.to/lastmile_qr_scan"}, "is_reserved": 0, "fusion_lon": 0.0, "fusion_lat": 0.0, "lon": -77.03665933333333, "name": "8a44c0000efd373642cf9b64db883b37"}, {"bike_id": "23047ae4ee3f03055946a05a7e6cc3ab", "type": "electric_scooter", "is_disabled": 0, "lat": 38.90736066666667, "rental_uris": {"ios": "https://dc.lft.to/lastmile_qr_scan", "android": "https://dc.lft.to/lastmile_qr_scan"}, "is_reserved": 0, "fusion_lon": 0.0, "fusion_lat": 0.0, "lon": -77.06357433333334, "name": "23047ae4ee3f03055946a05a7e6cc3ab"}, {"bike_id": "2c182ce2b061675dee084ec08cda9b61", "type": "electric_scooter", "is_disabled": 0, "lat": 38.887425, "rental_uris": {"ios": "https://dc.lft.to/lastmile_qr_scan", "android": "https://dc.lft.to/lastmile_qr_scan"}, "is_reserved": 0, "fusion_lon": 0.0, "fusion_lat": 0.0, "lon": -77.01399783333333, "name": "2c182ce2b061675dee084ec08cda9b61"}, {"bike_id": "f407d858046f1ea3f2c4ffd288ba69a1", "type": "electric_scooter", "is_disabled": 0, "lat": 38.844343333333335, "rental_uris": {"ios": "https://dc.lft.to/lastmile_qr_scan", "android": "https://dc.lft.to/lastmile_qr_scan"}, "is_reserved": 0, "fusion_lon": 0.0, "fusion_lat": 0.0, "lon": -76.99777133333333, "name": "f407d858046f1ea3f2c4ffd288ba69a1"}, {"bike_id": "826d4c2af6294ce915376fdf5ae19881", "type": "electric_scooter", "is_disabled": 0, "lat": 38.917694833333336, "rental_uris": {"ios": "https://dc.lft.to/lastmile_qr_scan", "android": "https://dc.lft.to/lastmile_qr_scan"}, "is_reserved": 0, "fusion_lon": 0.0, "fusion_lat": 0.0, "lon": -77.04057633333333, "name": "826d4c2af6294ce915376fdf5ae19881"}, {"bike_id": "4e91577c793a45b3172f98282efe00be", "type": "electric_scooter", "is_disabled": 0, "lat": 38.906702333333335, "rental_uris": {"ios": "https://dc.lft.to/lastmile_qr_scan", "android": "https://dc.lft.to/lastmile_qr_scan"}, "is_reserved": 0, "fusion_lon": 0.0, "fusion_lat": 0.0, "lon": -77.0719835, "name": "4e91577c793a45b3172f98282efe00be"}, {"bike_id": "1e79735406add5424cb65814af064c87", "type": "electric_scooter", "is_disabled": 0, "lat": 38.929817666666665, "rental_uris": {"ios": "https://dc.lft.to/lastmile_qr_scan", "android": "https://dc.lft.to/lastmile_qr_scan"}, "is_reserved": 0, "fusion_lon": 0.0, "fusion_lat": 0.0, "lon": -77.039472, "name": "1e79735406add5424cb65814af064c87"}, {"bike_id": "676951d2b595ccea143bfe9fcf737722", "type": "electric_scooter", "is_disabled": 0, "lat": 38.9232615, "rental_uris": {"ios": "https://dc.lft.to/lastmile_qr_scan", "android": "https://dc.lft.to/lastmile_qr_scan"}, "is_reserved": 0, "fusion_lon": 0.0, "fusion_lat": 0.0, "lon": -77.03805533333333, "name": "676951d2b595ccea143bfe9fcf737722"}, {"bike_id": "2ab5c3ef065ff46a11d7f04ab2012cc4", "type": "electric_scooter", "is_disabled": 0, "lat": 38.94766833333333, "rental_uris": {"ios": "https://dc.lft.to/lastmile_qr_scan", "android": "https://dc.lft.to/lastmile_qr_scan"}, "is_reserved": 0, "fusion_lon": 0.0, "fusion_lat": 0.0, "lon": -77.0792295, "name": "2ab5c3ef065ff46a11d7f04ab2012cc4"}, {"bike_id": "cd178d69710cffbca09715e1c449fe13", "type": "electric_scooter", "is_disabled": 0, "lat": 38.90558433333333, "rental_uris": {"ios": "https://dc.lft.to/lastmile_qr_scan", "android": "https://dc.lft.to/lastmile_qr_scan"}, "is_reserved": 0, "fusion_lon": 0.0, "fusion_lat": 0.0, "lon": -77.00602116666667, "name": "cd178d69710cffbca09715e1c449fe13"}, {"bike_id": "293cb9d01c451918b1fcc4f16b38b4e6", "type": "electric_scooter", "is_disabled": 0, "lat": 38.94213283333333, "rental_uris": {"ios": "https://dc.lft.to/lastmile_qr_scan", "android": "https://dc.lft.to/lastmile_qr_scan"}, "is_reserved": 0, "fusion_lon": 0.0, "fusion_lat": 0.0, "lon": -77.0258315, "name": "293cb9d01c451918b1fcc4f16b38b4e6"}, {"bike_id": "ad7a72961f971d6179f645dabacf23cc", "type": "electric_scooter", "is_disabled": 0, "lat": 38.929896166666666, "rental_uris": {"ios": "https://dc.lft.to/lastmile_qr_scan", "android": "https://dc.lft.to/lastmile_qr_scan"}, "is_reserved": 0, "fusion_lon": 0.0, "fusion_lat": 0.0, "lon": -77.03469216666667, "name": "ad7a72961f971d6179f645dabacf23cc"}, {"bike_id": "4427a7a78dfbefb321a3ca51da4a4753", "type": "electric_scooter", "is_disabled": 0, "lat": 38.9004655, "rental_uris": {"ios": "https://dc.lft.to/lastmile_qr_scan", "android": "https://dc.lft.to/lastmile_qr_scan"}, "is_reserved": 0, "fusion_lon": 0.0, "fusion_lat": 0.0, "lon": -77.023954, "name": "4427a7a78dfbefb321a3ca51da4a4753"}, {"bike_id": "51cd63ec71b2c0401f083527615758b6", "type": "electric_scooter", "is_disabled": 0, "lat": 38.906850666666664, "rental_uris": {"ios": "https://dc.lft.to/lastmile_qr_scan", "android": "https://dc.lft.to/lastmile_qr_scan"}, "is_reserved": 0, "fusion_lon": 0.0, "fusion_lat": 0.0, "lon": -77.06337983333333, "name": "51cd63ec71b2c0401f083527615758b6"}, {"bike_id": "c9847fd2ac7253960d6221ede46e14a4", "type": "electric_scooter", "is_disabled": 0, "lat": 38.907313333333335, "rental_uris": {"ios": "https://dc.lft.to/lastmile_qr_scan", "android": "https://dc.lft.to/lastmile_qr_scan"}, "is_reserved": 0, "fusion_lon": 0.0, "fusion_lat": 0.0, "lon": -77.01484866666667, "name": "c9847fd2ac7253960d6221ede46e14a4"}, {"bike_id": "8f1077848321bc4e5ce3a90661c873a1", "type": "electric_scooter", "is_disabled": 0, "lat": 38.89527483333333, "rental_uris": {"ios": "https://dc.lft.to/lastmile_qr_scan", "android": "https://dc.lft.to/lastmile_qr_scan"}, "is_reserved": 0, "fusion_lon": 0.0, "fusion_lat": 0.0, "lon": -77.00207816666666, "name": "8f1077848321bc4e5ce3a90661c873a1"}, {"bike_id": "96b521e0bdf68a09f61c6ae6980dac53", "type": "electric_bike", "is_disabled": 0, "lat": 39.0563275, "rental_uris": {"ios": "https://dc.lft.to/lastmile_qr_scan", "android": "https://dc.lft.to/lastmile_qr_scan"}, "is_reserved": 0, "fusion_lon": 0.0, "fusion_lat": 0.0, "lon": -77.12528766666667, "name": "96b521e0bdf68a09f61c6ae6980dac53"}, {"bike_id": "4724366890007fdea4ed4fe9f44a54ee", "type": "electric_scooter", "is_disabled": 0, "lat": 38.90063133333334, "rental_uris": {"ios": "https://dc.lft.to/lastmile_qr_scan", "android": "https://dc.lft.to/lastmile_qr_scan"}, "is_reserved": 0, "fusion_lon": 0.0, "fusion_lat": 0.0, "lon": -77.01724016666667, "name": "4724366890007fdea4ed4fe9f44a54ee"}, {"bike_id": "7f73c0fad8ba2f1887306e4b3f2c9334", "type": "electric_scooter", "is_disabled": 0, "lat": 38.9288845, "rental_uris": {"ios": "https://dc.lft.to/lastmile_qr_scan", "android": "https://dc.lft.to/lastmile_qr_scan"}, "is_reserved": 0, "fusion_lon": 0.0, "fusion_lat": 0.0, "lon": -77.01383583333333, "name": "7f73c0fad8ba2f1887306e4b3f2c9334"},