{"data": {"bikes": [{"lon": -77.02226816666666, "bike_id": "ef8a31733d3fbbab9d2820ac6a2d3b95", "lat": 38.956873, "fusion_lon": 0.0, "fusion_lat": 0.0, "type": "electric_bike", "name": "ef8a31733d3fbbab9d2820ac6a2d3b95", "is_disabled": 0, "rental_uris": {"ios": "https://dc.lft.to/lastmile_qr_scan", "android": "https://dc.lft.to/lastmile_qr_scan"}, "is_reserved": 0}, {"lon": -77.01770833333333, "bike_id": "3356df1d199036afb92ef5a6d241c9a2", "lat": 38.90376116666667, "fusion_lon": 0.0, "fusion_lat": 0.0, "type": "electric_scooter", "name": "3356df1d199036afb92ef5a6d241c9a2", "is_disabled": 0, "rental_uris": {"ios": "https://dc.lft.to/lastmile_qr_scan", "android": "https://dc.lft.to/lastmile_qr_scan"}, "is_reserved": 0}, {"lon": -77.072596, "bike_id": "0baa69501c9613176a7984d166155fed", "lat": 38.934380166666664, "fusion_lon": 0.0, "fusion_lat": 0.0, "type": "electric_scooter", "name": "0baa69501c9613176a7984d166155fed", "is_disabled": 0, "rental_uris": {"ios": "https://dc.lft.to/lastmile_qr_scan", "android": "https://dc.lft.to/lastmile_qr_scan"}, "is_reserved": 0}, {"lon": -77.03504016666666, "bike_id": "9d160bb2015f872efc72d3964ebfde75", "lat": 38.9118275, "fusion_lon": 0.0, "fusion_lat": 0.0, "type": "electric_scooter", "name": "9d160bb2015f872efc72d3964ebfde75", "is_disabled": 0, "rental_uris": {"ios": "https://dc.lft.to/lastmile_qr_scan", "android": "https://dc.lft.to/lastmile_qr_scan"}, "is_reserved": 0}, {"lon": -77.0165375, "bike_id": "0222abe066c562940e7bae799c239806", "lat": 38.89979916666667, "fusion_lon": 0.0, "fusion_lat": 0.0, "type": "electric_scooter", "name": "0222abe066c562940e7bae799c239806", "is_disabled": 0, "rental_uris": {"ios": "https://dc.lft.to/lastmile_qr_scan", "android": "https://dc.lft.to/lastmile_qr_scan"}, "is_reserved": 0}, {"lon": -77.02090533333333, "bike_id": "eb9d345093cbc65fbbad35169ca7fdab", "lat": 38.9291675, "fusion_lon": 0.0, "fusion_lat": 0.0, "type": "electric_scooter", "name": "eb9d345093cbc65fbbad35169ca7fdab", "is_disabled": 0, "rental_uris": {"ios": "https://dc.lft.to/lastmile_qr_scan", "android": "https://dc.lft.to/lastmile_qr_scan"}, "is_reserved": 0}, {"lon": -77.03212416666666, "bike_id": "b4345a83f91ecc6725ab2fbb53169bcb", "lat": 38.9361635, "fusion_lon": 0.0, "fusion_lat": 0.0, "type": "electric_scooter", "name": "b4345a83f91ecc6725ab2fbb53169bcb", "is_disabled": 0, "rental_uris": {"ios": "https://dc.lft.to/lastmile_qr_scan", "android": "https://dc.lft.to/lastmile_qr_scan"}, "is_reserved": 0}, {"lon": -77.036359, "bike_id": "177187f0c15d297c890773577bc754f3", "lat": 38.915530833333335, "fusion_lon": 0.0, "fusion_lat": 0.0, "type": "electric_scooter", "name": "177187f0c15d297c890773577bc754f3", "is_disabled": 0, "rental_uris": {"ios": "https://dc.lft.to/lastmile_qr_scan", "android": "https://dc.lft.to/lastmile_qr_scan"}, "is_reserved": 0}, {"lon": -77.005382, "bike_id": "10df156829b3d06832a647bbdec0ce6a", "lat": 38.87546583333334, "fusion_lon": 0.0, "fusion_lat": 0.0, "type": "electric_scooter", "name": "10df156829b3d06832a647bbdec0ce6a", "is_disabled": 0, "rental_uris": {"ios": "https://dc.lft.to/lastmile_qr_scan", "android": "https://dc.lft.to/lastmile_qr_scan"}, "is_reserved": 0}, {"lon": -77.0559805, "bike_id": "ed615668b8ebd21dd5b3711fdbf2f19a", "lat": 38.936992000000004, "fusion_lon": 0.0, "fusion_lat": 0.0, "type": "electric_scooter", "name": "ed615668b8ebd21dd5b3711fdbf2f19a", "is_disabled": 0, "rental_uris": {"ios": "https://dc.lft.to/lastmile_qr_scan", "android": "https://dc.lft.to/lastmile_qr_scan"}, "is_reserved": 0}, {"lon": -77.00123516666666, "bike_id": "f99f67139d86ca87ee3f0815673cc64c", "lat": 38.878173833333335, "fusion_lon": 0.0, "fusion_lat": 0.0, "type": "electric_scooter", "name": "f99f67139d86ca87ee3f0815673cc64c", "is_disabled": 0, "rental_uris": {"ios": "https://dc.lft.to/lastmile_qr_scan", "android": "https://dc.lft.to/lastmile_qr_scan"}, "is_reserved": 0}, {"lon": -76.93277483333334, "bike_id": "e0fdfee0106793f4290ec6466998c60c", "lat": 38.954213833333334, "fusion_lon": 0.0, "fusion_lat": 0.0, "type": "electric_bike", "name": "e0fdfee0106793f4290ec6466998c60c", "is_disabled": 0, "rental_uris": {"ios": "https://dc.lft.to/lastmile_qr_scan", "android": "https://dc.lft.to/lastmile_qr_scan"}, "is_reserved": 0}, {"lon": -77.02381083333333, "bike_id": "f2bb5bf5cbf78be9641cdfe189087e60", "lat": 38.90635866666667, "fusion_lon": 0.0, "fusion_lat": 0.0, "type": "electric_scooter", "name": "f2bb5bf5cbf78be9641cdfe189087e60", "is_disabled": 0, "rental_uris": {"ios": "https://dc.lft.to/lastmile_qr_scan", "android": "https://dc.lft.to/lastmile_qr_scan"}, "is_reserved": 0}, {"lon": -77.03278983333334, "bike_id": "7c503c8a94bf95edcc5a9c812271d700", "lat": 38.9409085, "fusion_lon": 0.0, "fusion_lat": 0.0, "type": "electric_scooter", "name": "7c503c8a94bf95edcc5a9c812271d700", "is_disabled": 0, "rental_uris": {"ios": "https://dc.lft.to/lastmile_qr_scan", "android": "https://dc.lft.to/lastmile_qr_scan"}, "is_reserved": 0}, {"lon": -77.166245, "bike_id": "ca3c90754be5340948069be99d12cae5", "lat": 38.888348666666666, "fusion_lon": 0.0, "fusion_lat": 0.0, "type": "electric_bike", "name": "ca3c90754be5340948069be99d12cae5", "is_disabled": 0, "rental_uris": {"ios": "https://dc.lft.to/lastmile_qr_scan", "android": "https://dc.lft.to/lastmile_qr_scan"}, "is_reserved": 0}, {"lon": -77.04655, "bike_id": "2582b2fbb0bdce531910fc037978ba4b", "lat": 38.913656333333336, "fusion_lon": 0.0, "fusion_lat": 0.0, "type": "electric_scooter", "name": "2582b2fbb0bdce531910fc037978ba4b", "is_disabled": 0, "rental_uris": {"ios": "https://dc.lft.to/lastmile_qr_scan", "android": "https://dc.lft.to/lastmile_qr_scan"}, "is_reserved": 0}, {"lon": -77.0375965, "bike_id": "721e24bf0f23af5ee1b346e42c594f28", "lat": 38.92904, "fusion_lon": 0.0, "fusion_lat": 0.0, "type": "electric_scooter", "name": "721e24bf0f23af5ee1b346e42c594f28", "is_disabled": 0, "rental_uris": {"ios": "https://dc.lft.to/lastmile_qr_scan", "android": "https://dc.lft.to/lastmile_qr_scan"}, "is_reserved": 0}, {"lon": -76.99605216666667, "bike_id": "fcd57e569725d79b2a9dc57cf2d18950", "lat": 38.93085966666666, "fusion_lon": 0.0, "fusion_lat": 0.0, "type": "electric_scooter", "name": "fcd57e569725d79b2a9dc57cf2d18950", "is_disabled": 0, "rental_uris": {"ios": "https://dc.lft.to/lastmile_qr_scan", "android": "https://dc.lft.to/lastmile_qr_scan"}, "is_reserved": 0}, {"lon": -77.02504833333333, "bike_id": "aede8ebb87e588617aceb1ac3edf8df3", "lat": 38.925982, "fusion_lon": 0.0, "fusion_lat": 0.0, "type": "electric_scooter", "name": "aede8ebb87e588617aceb1ac3edf8df3", "is_disabled": 0, "rental_uris": {"ios": "https://dc.lft.to/lastmile_qr_scan", "android": "https://dc.lft.to/lastmile_qr_scan"}, "is_reserved": 0}, {"lon": -77.03283433333333, "bike_id": "6b0452a53a237c537c471cb28575cb2a", "lat": 38.930219666666666, "fusion_lon": 0.0, "fusion_lat": 0.0, "type": "electric_scooter", "name": "6b0452a53a237c537c471cb28575cb2a", "is_disabled": 0, "rental_uris": {"ios": "https://dc.lft.to/lastmile_qr_scan", "android": "https://dc.lft.to/lastmile_qr_scan"}, "is_reserved": 0}, {"lon": -77.04659916666667, "bike_id": "2a438e75ec084d79e876d09b6e507981", "lat": 38.90788716666667, "fusion_lon": 0.0, "fusion_lat": 0.0, "type": "electric_scooter", "name": "2a438e75ec084d79e876d09b6e507981", "is_disabled": 0, "rental_uris": {"ios": "https://dc.lft.to/lastmile_qr_scan", "android": "https://dc.lft.to/lastmile_qr_scan"}, "is_reserved": 0}, {"lon": -77.04135483333333, "bike_id": "26066d42fbbc2d5b7250f185cf76ad87", "lat": 38.9426275, "fusion_lon": 0.0, "fusion_lat": 0.0, "type": "electric_scooter", "name": "26066d42fbbc2d5b7250f185cf76ad87", "is_disabled": 0, "rental_uris": {"ios": "https://dc.lft.to/lastmile_qr_scan", "android": "https://dc.lft.to/lastmile_qr_scan"}, "is_reserved": 0}, {"lon": -76.98662516666667, "bike_id": "eade971adedf0026859918b90bd9d478", "lat": 38.86722733333333, "fusion_lon": 0.0, "fusion_lat": 0.0, "type": "electric_scooter", "name": "eade971adedf0026859918b90bd9d478", "is_disabled": 0, "rental_uris": {"ios": "https://dc.lft.to/lastmile_qr_scan", "android": "https://dc.lft.to/lastmile_qr_scan"}, "is_reserved": 0}, {"lon": -77.02374316666666, "bike_id": "d35a9f3506db0f6de8ab5fdd51119435", "lat": 38.92060133333333, "fusion_lon": 0.0, "fusion_lat": 0.0, "type": "electric_scooter", "name": "d35a9f3506db0f6de8ab5fdd51119435", "is_disabled": 0, "rental_uris": {"ios": "https://dc.lft.to/lastmile_qr_scan", "android": "https://dc.lft.to/lastmile_qr_scan"}, "is_reserved": 0}, {"lon": -77.03440333333333, "bike_id": "f8e250bdcf7c5766ed3f988266c9ca3f", "lat": 38.93439883333333, "fusion_lon": 0.0, "fusion_lat": 0.0, "type": "electric_scooter", "name": "f8e250bdcf7c5766ed3f988266c9ca3f", "is_disabled": 0, "rental_uris": {"ios": "https://dc.lft.to/lastmile_qr_scan", "android": "https://dc.lft.to/lastmile_qr_scan"}, "is_reserved": 0}, {"lon": -77.03512133333334, "bike_id": "5cb47271b354869211567d922ad4b214", "lat": 38.91837916666667, "fusion_lon": 0.0, "fusion_lat": 0.0, "type": "electric_scooter", "name": "5cb47271b354869211567d922ad4b214", "is_disabled": 0, "rental_uris": {"ios": "https://dc.lft.to/lastmile_qr_scan", "android": "https://dc.lft.to/lastmile_qr_scan"}, "is_reserved": 0}, {"lon": -76.9952585, "bike_id": "fa97dcad8ceaf2f274cfbee0462ea0d1", "lat": 38.89172033333333, "fusion_lon": 0.0, "fusion_lat": 0.0, "type": "electric_scooter", "name": "fa97dcad8ceaf2f274cfbee0462ea0d1", "is_disabled": 0, "rental_uris": {"ios": "https://dc.lft.to/lastmile_qr_scan", "android": "https://dc.lft.to/lastmile_qr_scan"}, "is_reserved": 0}, {"lon": -77.053002, "bike_id": "746b66e7b909dababdd307c0c795ebc8", "lat": 38.89888116666667, "fusion_lon": 0.0, "fusion_lat": 0.0, "type": "electric_scooter", "name": "746b66e7b909dababdd307c0c795ebc8", "is_disabled": 0, "rental_uris": {"ios": "https://dc.lft.to/lastmile_qr_scan", "android": "https://dc.lft.to/lastmile_qr_scan"}, "is_reserved": 0}, {"lon": -77.02474466666666, "bike_id": "a0095d32835054da915b089bb1da5d51", "lat": 38.936210833333334, "fusion_lon": 0.0, "fusion_lat": 0.0, "type": "electric_scooter", "name": "a0095d32835054da915b089bb1da5d51", "is_disabled": 0, "rental_uris": {"ios": "https://dc.lft.to/lastmile_qr_scan", "android": "https://dc.lft.to/lastmile_qr_scan"}, "is_reserved": 0}, {"lon": -77.0237755, "bike_id": "8401c791152a70202e104be84c68a8fe", "lat": 38.90208666666667, "fusion_lon": 0.0, "fusion_lat": 0.0, "type": "electric_scooter", "name": "8401c791152a70202e104be84c68a8fe", "is_disabled": 0, "rental_uris": {"ios": "https://dc.lft.to/lastmile_qr_scan", "android": "https://dc.lft.to/lastmile_qr_scan"}, "is_reserved": 0}, {"lon": -77.0058705, "bike_id": "79d4cb8acfb9d9d5bf2ee22d5eb671db", "lat": 38.876491333333334, "fusion_lon": 0.0, "fusion_lat": 0.0, "type": "electric_scooter", "name": "79d4cb8acfb9d9d5bf2ee22d5eb671db", "is_disabled": 0, "rental_uris": {"ios": "https://dc.lft.to/lastmile_qr_scan", "android": "https://dc.lft.to/lastmile_qr_scan"}, "is_reserved": 0}, {"lon": -76.9472065, "bike_id": "961b105868717adf3bf3baadfe68b81e", "lat": 38.89742733333333, "fusion_lon": 0.0, "fusion_lat": 0.0, "type": "electric_scooter", "name": "961b105868717adf3bf3baadfe68b81e", "is_disabled": 0, "rental_uris": {"ios": "https://dc.lft.to/lastmile_qr_scan", "android": "https://dc.lft.to/lastmile_qr_scan"}, "is_reserved": 0}, {"lon": -77.03288816666667, "bike_id": "8c81dd440275c4e586bf42a6a6f438df", "lat": 38.939797166666665, "fusion_lon": 0.0, "fusion_lat": 0.0, "type": "electric_scooter", "name": "8c81dd440275c4e586bf42a6a6f438df", "is_disabled": 0, "rental_uris": {"ios": "https://dc.lft.to/lastmile_qr_scan", "android": "https://dc.lft.to/lastmile_qr_scan"}, "is_reserved": 0}, {"lon": -77.016289, "bike_id": "48a4183c0f88deaf3a36fe9165662d86", "lat": 38.965743, "fusion_lon": 0.0, "fusion_lat": 0.0, "type": "electric_scooter", "name": "48a4183c0f88deaf3a36fe9165662d86", "is_disabled": 0, "rental_uris": {"ios": "https://dc.lft.to/lastmile_qr_scan", "android": "https://dc.lft.to/lastmile_qr_scan"}, "is_reserved": 0}, {"lon": -77.02010783333333, "bike_id": "b88c858904e18f136b7e4805bd529087", "lat": 38.92418766666667, "fusion_lon": 0.0, "fusion_lat": 0.0, "type": "electric_scooter", "name": "b88c858904e18f136b7e4805bd529087", "is_disabled": 0, "rental_uris": {"ios": "https://dc.lft.to/lastmile_qr_scan", "android": "https://dc.lft.to/lastmile_qr_scan"}, "is_reserved": 0}, {"lon": -76.977078, "bike_id": "eaf437e205f81f37d5fd9bd1ee50c1c3", "lat": 38.949109, "fusion_lon": 0.0, "fusion_lat": 0.0, "type": "electric_bike", "name": "eaf437e205f81f37d5fd9bd1ee50c1c3", "is_disabled": 0, "rental_uris": {"ios": "https://dc.lft.to/lastmile_qr_scan", "android": "https://dc.lft.to/lastmile_qr_scan"}, "is_reserved": 0}, {"lon": -77.03284633333334, "bike_id": "2e940ace5b3210a08fc15a379c813b85", "lat": 38.93205583333334, "fusion_lon": 0.0, "fusion_lat": 0.0, "type": "electric_scooter", "name": "2e940ace5b3210a08fc15a379c813b85", "is_disabled": 0, "rental_uris": {"ios": "https://dc.lft.to/lastmile_qr_scan", "android": "https://dc.lft.to/lastmile_qr_scan"}, "is_reserved": 0}, {"lon": -77.02954283333334, "bike_id": "f4bed50481ddb3137ac511ccbd273582", "lat": 38.907461166666664, "fusion_lon": 0.0, "fusion_lat": 0.0, "type": "electric_scooter", "name": "f4bed50481ddb3137ac511ccbd273582", "is_disabled": 0, "rental_uris": {"ios": "https://dc.lft.to/lastmile_qr_scan", "android": "https://dc.lft.to/lastmile_qr_scan"}, "is_reserved": 0}, {"lon": -77.035599, "bike_id": "dd18d20ee064b473d44dd7a612e9606b", "lat": 38.927390833333334, "fusion_lon": 0.0, "fusion_lat": 0.0, "type": "electric_scooter", "name": "dd18d20ee064b473d44dd7a612e9606b", "is_disabled": 0, "rental_uris": {"ios": "https://dc.lft.to/lastmile_qr_scan", "android": "https://dc.lft.to/lastmile_qr_scan"}, "is_reserved": 0}, {"lon": -77.00540433333333, "bike_id": "a6eafbf5359e6d383281c3fe3d5fdf1d", "lat": 38.912685833333335, "fusion_lon": 0.0, "fusion_lat": 0.0, "type": "electric_scooter", "name": "a6eafbf5359e6d383281c3fe3d5fdf1d", "is_disabled": 0, "rental_uris": {"ios": "https://dc.lft.to/lastmile_qr_scan", "android": "https://dc.lft.to/lastmile_qr_scan"}, "is_reserved": 0}, {"lon": -77.01206133333334, "bike_id": "cddc5d59e332fb0e8d374047cbaa9abf", "lat": 38.8855445, "fusion_lon": 0.0, "fusion_lat": 0.0, "type": "electric_scooter", "name": "cddc5d59e332fb0e8d374047cbaa9abf", "is_disabled": 0, "rental_uris": {"ios": "https://dc.lft.to/lastmile_qr_scan", "android": "https://dc.lft.to/lastmile_qr_scan"}, "is_reserved": 0}, {"lon": -77.36093366666667, "bike_id": "8a7ba8ddbdd6474c0d0d9fdd72aaca4d", "lat": 38.939605, "fusion_lon": 0.0, "fusion_lat": 0.0, "type": "electric_bike", "name": "8a7ba8ddbdd6474c0d0d9fdd72aaca4d", "is_disabled": 0, "rental_uris": {"ios": "https://dc.lft.to/lastmile_qr_scan", "android": "https://dc.lft.to/lastmile_qr_scan"}, "is_reserved": 0}, {"lon": -76.90478766666666, "bike_id": "dade1fc44c6ed5accce2822a5849e4c8", "lat": 39.002956833333336, "fusion_lon": 0.0, "fusion_lat": 0.0, "type": "electric_bike", "name": "dade1fc44c6ed5accce2822a5849e4c8", "is_disabled": 0, "rental_uris": {"ios": "https://dc.lft.to/lastmile_qr_scan", "android": "https://dc.lft.to/lastmile_qr_scan"}, "is_reserved": 0}, {"lon": -77.0019865, "bike_id": "36c94614e12a3e37a3e18d5840a06e00", "lat": 38.891073166666665, "fusion_lon": 0.0, "fusion_lat": 0.0, "type": "electric_scooter", "name": "36c94614e12a3e37a3e18d5840a06e00", "is_disabled": 0, "rental_uris": {"ios": "https://dc.lft.to/lastmile_qr_scan", "android": "https://dc.lft.to/lastmile_qr_scan"}, "is_reserved": 0}, {"lon": -77.03180016666667, "bike_id": "e5a54e53f7f83e598ee71795f18af37b", "lat": 38.936046, "fusion_lon": 0.0, "fusion_lat": 0.0, "type": "electric_scooter", "name": "e5a54e53f7f83e598ee71795f18af37b", "is_disabled": 0, "rental_uris": {"ios": "https://dc.lft.to/lastmile_qr_scan", "android": "https://dc.lft.to/lastmile_qr_scan"}, "is_reserved": 0}, {"lon": -77.03165683333333, "bike_id": "62296de026e26141bfbd82ada7b6e54e", "lat": 38.929058833333336, "fusion_lon": 0.0, "fusion_lat": 0.0, "type": "electric_scooter", "name": "62296de026e26141bfbd82ada7b6e54e", "is_disabled": 0, "rental_uris": {"ios": "https://dc.lft.to/lastmile_qr_scan", "android": "https://dc.lft.to/lastmile_qr_scan"}, "is_reserved": 0}, {"lon": -77.03444283333333, "bike_id": "f61d5ab6d137cf0a9715d2d0d08074ef", "lat": 38.91008466666667, "fusion_lon": 0.0, "fusion_lat": 0.0, "type": "electric_scooter", "name": "f61d5ab6d137cf0a9715d2d0d08074ef", "is_disabled": 0, "rental_uris": {"ios": "https://dc.lft.to/lastmile_qr_scan", "android": "https://dc.lft.to/lastmile_qr_scan"}, "is_reserved": 0}, {"lon": -77.0065635, "bike_id": "3a77f8664768b3b5f3e03e52916be4f7", "lat": 38.94463783333333, "fusion_lon": 0.0, "fusion_lat": 0.0, "type": "electric_scooter", "name": "3a77f8664768b3b5f3e03e52916be4f7", "is_disabled": 0, "rental_uris": {"ios": "https://dc.lft.to/lastmile_qr_scan", "android": "https://dc.lft.to/lastmile_qr_scan"}, "is_reserved": 0}, {"lon": -77.00477316666667, "bike_id": "53682db3263a49c5a24b9538653c4fc0", "lat": 38.89581783333333, "fusion_lon": 0.0, "fusion_lat": 0.0, "type": "electric_scooter", "name": "53682db3263a49c5a24b9538653c4fc0", "is_disabled": 0, "rental_uris": {"ios": "https://dc.lft.to/lastmile_qr_scan", "android": "https://dc.lft.to/lastmile_qr_scan"}, "is_reserved": 0}, {"lon": -77.023909, "bike_id": "62a611a35071ccac3fddad3d9666affb", "lat": 38.920128166666665, "fusion_lon": 0.0, "fusion_lat": 0.0, "type": "electric_scooter", "name": "62a611a35071ccac3fddad3d9666affb", "is_disabled": 0, "rental_uris": {"ios": "https://dc.lft.to/lastmile_qr_scan", "android": "https://dc.lft.to/lastmile_qr_scan"}, "is_reserved": 0}, {"lon": -76.9877285, "bike_id": "8195a2010c21a288b1a429c0928eab3a", "lat": 38.866074833333336, "fusion_lon": 0.0, "fusion_lat": 0.0, "type": "electric_bike", "name": "8195a2010c21a288b1a429c0928eab3a", "is_disabled": 0, "rental_uris": {"ios": "https://dc.lft.to/lastmile_qr_scan", "android": "https://dc.lft.to/lastmile_qr_scan"}, "is_reserved": 0}, {"lon": -77.18562, "bike_id": "576fe67f108d68817ee2251e7baf954a", "lat": 39.09977516666667, "fusion_lon": 0.0, "fusion_lat": 0.0, "type": "electric_bike", "name": "576fe67f108d68817ee2251e7baf954a", "is_disabled": 0, "rental_uris": {"ios": "https://dc.lft.to/lastmile_qr_scan", "android": "https://dc.lft.to/lastmile_qr_scan"}, "is_reserved": 0}, {"lon": -76.96259783333333, "bike_id": "e1e73b71243dbea0e558ccaa6afb9af5", "lat": 38.88246933333333, "fusion_lon": 0.0, "fusion_lat": 0.0, "type": "electric_bike", "name": "e1e73b71243dbea0e558ccaa6afb9af5", "is_disabled": 0, "rental_uris": {"ios": "https://dc.lft.to/lastmile_qr_scan", "android": "https://dc.lft.to/lastmile_qr_scan"}, "is_reserved": 0}, {"lon": -77.02088416666666, "bike_id": "5739e9b752b74a498c792148824a8fda", "lat": 38.95748866666667, "fusion_lon": 0.0, "fusion_lat": 0.0, "type": "electric_scooter", "name": "5739e9b752b74a498c792148824a8fda", "is_disabled": 0, "rental_uris": {"ios": "https://dc.lft.to/lastmile_qr_scan", "android": "https://dc.lft.to/lastmile_qr_scan"}, "is_reserved": 0}, {"lon": -77.05576166666667, "bike_id": "04a11b493b50c6dd4a9530e1e477ce13", "lat": 38.916006333333335, "fusion_lon": 0.0, "fusion_lat": 0.0, "type": "electric_scooter", "name": "04a11b493b50c6dd4a9530e1e477ce13", "is_disabled": 0, "rental_uris": {"ios": "https://dc.lft.to/lastmile_qr_scan", "android": "https://dc.lft.to/lastmile_qr_scan"}, "is_reserved": 0}, {"lon": -77.02333716666666, "bike_id": "27d9e532473590bf33e0fdcd5c464d10", "lat": 38.92226316666667, "fusion_lon": 0.0, "fusion_lat": 0.0, "type": "electric_scooter", "name": "27d9e532473590bf33e0fdcd5c464d10", "is_disabled": 0, "rental_uris": {"ios": "https://dc.lft.to/lastmile_qr_scan", "android": "https://dc.lft.to/lastmile_qr_scan"}, "is_reserved": 0}, {"lon": -76.99001683333333, "bike_id": "fe35eaa3bab86b700b5d2547fbed1b9e", "lat": 38.8650385, "fusion_lon": 0.0, "fusion_lat": 0.0, "type": "electric_scooter", "name": "fe35eaa3bab86b700b5d2547fbed1b9e", "is_disabled": 0, "rental_uris": {"ios": "https://dc.lft.to/lastmile_qr_scan", "android": "https://dc.lft.to/lastmile_qr_scan"}, "is_reserved": 0}, {"lon": -77.04388933333334, "bike_id": "d0030aed2f3f91dfa17147c63851cc72", "lat": 38.90891383333334, "fusion_lon": 0.0, "fusion_lat": 0.0, "type": "electric_scooter", "name": "d0030aed2f3f91dfa17147c63851cc72", "is_disabled": 0, "rental_uris": {"ios": "https://dc.lft.to/lastmile_qr_scan", "android": "https://dc.lft.to/lastmile_qr_scan"}, "is_reserved": 0}, {"lon": -76.98094233333333, "bike_id": "3718bdb5f8423dbf01ff441c920df502", "lat": 38.953580333333335, "fusion_lon": 0.0, "fusion_lat": 0.0, "type": "electric_bike", "name": "3718bdb5f8423dbf01ff441c920df502", "is_disabled": 0, "rental_uris": {"ios": "https://dc.lft.to/lastmile_qr_scan", "android": "https://dc.lft.to/lastmile_qr_scan"}, "is_reserved": 0}, {"lon": -77.0333395, "bike_id": "f5736a790b67130e9757d0c48d4da71f", "lat": 38.93640633333333, "fusion_lon": 0.0, "fusion_lat": 0.0, "type": "electric_scooter", "name": "f5736a790b67130e9757d0c48d4da71f", "is_disabled": 0, "rental_uris": {"ios": "https://dc.lft.to/lastmile_qr_scan", "android": "https://dc.lft.to/lastmile_qr_scan"}, "is_reserved": 0}, {"lon": -76.99331683333334, "bike_id": "99e651168c52660c1ced368eaffc28bd", "lat": 38.8714315, "fusion_lon": 0.0, "fusion_lat": 0.0, "type": "electric_scooter", "name": "99e651168c52660c1ced368eaffc28bd", "is_disabled": 0, "rental_uris": {"ios": "https://dc.lft.to/lastmile_qr_scan", "android": "https://dc.lft.to/lastmile_qr_scan"}, "is_reserved": 0}, {"lon": -76.9872375, "bike_id": "e91c100d2ab3962298cffce29d5bd3ad", "lat": 38.867115166666665, "fusion_lon": 0.0, "fusion_lat": 0.0, "type": "electric_scooter", "name": "e91c100d2ab3962298cffce29d5bd3ad", "is_disabled": 0, "rental_uris": {"ios": "https://dc.lft.to/lastmile_qr_scan", "android": "https://dc.lft.to/lastmile_qr_scan"}, "is_reserved": 0}, {"lon": -76.98705716666667, "bike_id": "5309a23ee8050ecdfdc79192e0b3679b", "lat": 38.865361, "fusion_lon": 0.0, "fusion_lat": 0.0, "type": "electric_scooter", "name": "5309a23ee8050ecdfdc79192e0b3679b", "is_disabled": 0, "rental_uris": {"ios": "https://dc.lft.to/lastmile_qr_scan", "android": "https://dc.lft.to/lastmile_qr_scan"}, "is_reserved": 0}, {"lon": -77.0329215, "bike_id": "00bb9c7867488ca4ea47349116f7a1b2", "lat": 38.9035365, "fusion_lon": 0.0, "fusion_lat": 0.0, "type": "electric_scooter", "name": "00bb9c7867488ca4ea47349116f7a1b2", "is_disabled": 0, "rental_uris": {"ios": "https://dc.lft.to/lastmile_qr_scan", "android": "https://dc.lft.to/lastmile_qr_scan"}, "is_reserved": 0}, {"lon": -77.02650683333333, "bike_id": "537b9158a853d6bef21ddc933b7f063c", "lat": 38.89716683333333, "fusion_lon": 0.0, "fusion_lat": 0.0, "type": "electric_scooter", "name": "537b9158a853d6bef21ddc933b7f063c", "is_disabled": 0, "rental_uris": {"ios": "https://dc.lft.to/lastmile_qr_scan", "android": "https://dc.lft.to/lastmile_qr_scan"}, "is_reserved": 0}, {"lon": -76.94888016666667, "bike_id": "345b5d2327cc3b5b458ecc9c8a28f189", "lat": 38.895124333333335, "fusion_lon": 0.0, "fusion_lat": 0.0, "type": "electric_scooter", "name": "345b5d2327cc3b5b458ecc9c8a28f189", "is_disabled": 0, "rental_uris": {"ios": "https://dc.lft.to/lastmile_qr_scan", "android": "https://dc.lft.to/lastmile_qr_scan"}, "is_reserved": 0}, {"lon": -77.02740016666667, "bike_id": "33687aad030cddf6d8ac33c1efff3d86", "lat": 38.910775666666666, "fusion_lon": 0.0, "fusion_lat": 0.0, "type": "electric_scooter", "name": "33687aad030cddf6d8ac33c1efff3d86", "is_disabled": 0, "rental_uris": {"ios": "https://dc.lft.to/lastmile_qr_scan", "android": "https://dc.lft.to/lastmile_qr_scan"}, "is_reserved": 0}, {"lon": -77.01669783333334, "bike_id": "d67ad3f6e6c38ceff3cecb5c7b16cc56", "lat": 38.8811065, "fusion_lon": 0.0, "fusion_lat": 0.0, "type": "electric_scooter", "name": "d67ad3f6e6c38ceff3cecb5c7b16cc56", "is_disabled": 0, "rental_uris": {"ios": "https://dc.lft.to/lastmile_qr_scan", "android": "https://dc.lft.to/lastmile_qr_scan"}, "is_reserved": 0}, {"lon": -77.05274083333333, "bike_id": "8991bdb4169dd1868e096672951d0be8", "lat": 38.91016883333333, "fusion_lon": 0.0, "fusion_lat": 0.0, "type": "electric_scooter", "name": "8991bdb4169dd1868e096672951d0be8", "is_disabled": 0, "rental_uris": {"ios": "https://dc.lft.to/lastmile_qr_scan", "android": "https://dc.lft.to/lastmile_qr_scan"}, "is_reserved": 0}, {"lon": -77.02792966666667, "bike_id": "7ba768dbb496b891bc31755e9ef9730e", "lat": 38.956784166666665, "fusion_lon": 0.0, "fusion_lat": 0.0, "type": "electric_scooter", "name": "7ba768dbb496b891bc31755e9ef9730e", "is_disabled": 0, "rental_uris": {"ios": "https://dc.lft.to/lastmile_qr_scan", "android": "https://dc.lft.to/lastmile_qr_scan"}, "is_reserved": 0}, {"lon": -77.05230733333333, "bike_id": "60470a66a652a31760078837a5b72f87", "lat": 38.924655, "fusion_lon": 0.0, "fusion_lat": 0.0, "type": "electric_scooter", "name": "60470a66a652a31760078837a5b72f87", "is_disabled": 0, "rental_uris": {"ios": "https://dc.lft.to/lastmile_qr_scan", "android": "https://dc.lft.to/lastmile_qr_scan"}, "is_reserved": 0}, {"lon": -77.02266066666667, "bike_id": "2313483c8c5b6bf8b0d7214abe1a1520", "lat": 38.9376975, "fusion_lon": 0.0, "fusion_lat": 0.0, "type": "electric_scooter", "name": "2313483c8c5b6bf8b0d7214abe1a1520", "is_disabled": 0, "rental_uris": {"ios": "https://dc.lft.to/lastmile_qr_scan", "android": "https://dc.lft.to/lastmile_qr_scan"}, "is_reserved": 0}, {"lon": -77.0326265, "bike_id": "c41e429865857a1636bacec6e81cfd40", "lat": 38.92543333333333, "fusion_lon": 0.0, "fusion_lat": 0.0, "type": "electric_scooter", "name": "c41e429865857a1636bacec6e81cfd40", "is_disabled": 0, "rental_uris": {"ios": "https://dc.lft.to/lastmile_qr_scan", "android": "https://dc.lft.to/lastmile_qr_scan"}, "is_reserved": 0}, {"lon": -77.05024066666667, "bike_id": "52f0902183fe56c4c330311756e8f324", "lat": 38.896984, "fusion_lon": 0.0, "fusion_lat": 0.0, "type": "electric_scooter", "name": "52f0902183fe56c4c330311756e8f324", "is_disabled": 0, "rental_uris": {"ios": "https://dc.lft.to/lastmile_qr_scan", "android": "https://dc.lft.to/lastmile_qr_scan"}, "is_reserved": 0}, {"lon": -77.03271016666666, "bike_id": "151190eacb564cacecd9d0c718158422", "lat": 38.9274685, "fusion_lon": 0.0, "fusion_lat": 0.0, "type": "electric_scooter", "name": "151190eacb564cacecd9d0c718158422", "is_disabled": 0, "rental_uris": {"ios": "https://dc.lft.to/lastmile_qr_scan", "android": "https://dc.lft.to/lastmile_qr_scan"}, "is_reserved": 0}, {"lon": -77.02487033333334, "bike_id": "458f3bf71c1eb50ddb64da1d2fd18ffc", "lat": 38.904105666666666, "fusion_lon": 0.0, "fusion_lat": 0.0, "type": "electric_scooter", "name": "458f3bf71c1eb50ddb64da1d2fd18ffc", "is_disabled": 0, "rental_uris": {"ios": "https://dc.lft.to/lastmile_qr_scan", "android": "https://dc.lft.to/lastmile_qr_scan"}, "is_reserved": 0}, {"lon": -77.045879, "bike_id": "298ce27ae838874abebf0a557f5b2f37", "lat": 38.92131883333333, "fusion_lon": 0.0, "fusion_lat": 0.0, "type": "electric_scooter", "name": "298ce27ae838874abebf0a557f5b2f37", "is_disabled": 0, "rental_uris": {"ios": "https://dc.lft.to/lastmile_qr_scan", "android": "https://dc.lft.to/lastmile_qr_scan"}, "is_reserved": 0}, {"lon": -77.04398433333333, "bike_id": "dc9429221af2a9f409068647448d5a8e", "lat": 38.933254833333336, "fusion_lon": 0.0, "fusion_lat": 0.0, "type": "electric_scooter", "name": "dc9429221af2a9f409068647448d5a8e", "is_disabled": 0, "rental_uris": {"ios": "https://dc.lft.to/lastmile_qr_scan", "android": "https://dc.lft.to/lastmile_qr_scan"}, "is_reserved": 0}, {"lon": -77.04249533333333, "bike_id": "489aa854c67bbf3a42d4bf5b10e23b0f", "lat": 38.9263785, "fusion_lon": 0.0, "fusion_lat": 0.0, "type": "electric_scooter", "name": "489aa854c67bbf3a42d4bf5b10e23b0f", "is_disabled": 0, "rental_uris": {"ios": "https://dc.lft.to/lastmile_qr_scan", "android": "https://dc.lft.to/lastmile_qr_scan"}, "is_reserved": 0}, {"lon": -77.00306983333333, "bike_id": "1978ad74f9990265de0744ce9e23f1f4", "lat": 38.907422, "fusion_lon": 0.0, "fusion_lat": 0.0, "type": "electric_bike", "name": "1978ad74f9990265de0744ce9e23f1f4", "is_disabled": 0, "rental_uris": {"ios": "https://dc.lft.to/lastmile_qr_scan", "android": "https://dc.lft.to/lastmile_qr_scan"}, "is_reserved": 0}, {"lon": -77.05233266666667, "bike_id": "5de97616450252cc97a5950a02c20fcd", "lat": 38.9246585, "fusion_lon": 0.0, "fusion_lat": 0.0, "type": "electric_scooter", "name": "5de97616450252cc97a5950a02c20fcd", "is_disabled": 0, "rental_uris": {"ios": "https://dc.lft.to/lastmile_qr_scan", "android": "https://dc.lft.to/lastmile_qr_scan"}, "is_reserved": 0}, {"lon": -77.02731933333334, "bike_id": "996fb508f63aeebf0e51a96068e1efbd", "lat": 38.93207316666667, "fusion_lon": 0.0, "fusion_lat": 0.0, "type": "electric_scooter", "name": "996fb508f63aeebf0e51a96068e1efbd", "is_disabled": 0, "rental_uris": {"ios": "https://dc.lft.to/lastmile_qr_scan", "android": "https://dc.lft.to/lastmile_qr_scan"}, "is_reserved": 0}, {"lon": -77.01096766666667, "bike_id": "bf9e2da9ee87614ecb447c90c79cce2e", "lat": 38.91561083333333, "fusion_lon": 0.0, "fusion_lat": 0.0, "type": "electric_scooter", "name": "bf9e2da9ee87614ecb447c90c79cce2e", "is_disabled": 0, "rental_uris": {"ios": "https://dc.lft.to/lastmile_qr_scan", "android": "https://dc.lft.to/lastmile_qr_scan"}, "is_reserved": 0}, {"lon": -77.01472233333334, "bike_id": "8e700d914399e99228bc0c5bb554a01f", "lat": 38.9176675, "fusion_lon": 0.0, "fusion_lat": 0.0, "type": "electric_scooter", "name": "8e700d914399e99228bc0c5bb554a01f", "is_disabled": 0, "rental_uris": {"ios": "https://dc.lft.to/lastmile_qr_scan", "android": "https://dc.lft.to/lastmile_qr_scan"}, "is_reserved": 0}, {"lon": -77.02791466666666, "bike_id": "123e34dfa2b1bdb2751eed9059ad334e", "lat": 38.92027516666667, "fusion_lon": 0.0, "fusion_lat": 0.0, "type": "electric_scooter", "name": "123e34dfa2b1bdb2751eed9059ad334e", "is_disabled": 0, "rental_uris": {"ios": "https://dc.lft.to/lastmile_qr_scan", "android": "https://dc.lft.to/lastmile_qr_scan"}, "is_reserved": 0}, {"lon": -77.03681266666666, "bike_id": "edab9f4b687d40f7fc23324d7bc97dec", "lat": 38.921006166666665, "fusion_lon": 0.0, "fusion_lat": 0.0, "type": "electric_scooter", "name": "edab9f4b687d40f7fc23324d7bc97dec", "is_disabled": 0, "rental_uris": {"ios": "https://dc.lft.to/lastmile_qr_scan", "android": "https://dc.lft.to/lastmile_qr_scan"}, "is_reserved": 0}, {"lon": -77.04737016666667, "bike_id": "06ad14a0132ed227b18f832a0c953f29", "lat": 38.907234333333335, "fusion_lon": 0.0, "fusion_lat": 0.0, "type": "electric_scooter", "name": "06ad14a0132ed227b18f832a0c953f29", "is_disabled": 0, "rental_uris": {"ios": "https://dc.lft.to/lastmile_qr_scan", "android": "https://dc.lft.to/lastmile_qr_scan"}, "is_reserved": 0}, {"lon": -77.02445583333333, "bike_id": "198a4be667c3ee346f69f66f3cfc24fb", "lat": 38.91709266666667, "fusion_lon": 0.0, "fusion_lat": 0.0, "type": "electric_scooter", "name": "198a4be667c3ee346f69f66f3cfc24fb", "is_disabled": 0, "rental_uris": {"ios": "https://dc.lft.to/lastmile_qr_scan", "android": "https://dc.lft.to/lastmile_qr_scan"}, "is_reserved": 0}, {"lon": -76.94117433333334, "bike_id": "955bae7b8bfa8b3a887290f1bb0ea040", "lat": 38.886483166666665, "fusion_lon": 0.0, "fusion_lat": 0.0, "type": "electric_scooter", "name": "955bae7b8bfa8b3a887290f1bb0ea040", "is_disabled": 0, "rental_uris": {"ios": "https://dc.lft.to/lastmile_qr_scan", "android": "https://dc.lft.to/lastmile_qr_scan"}, "is_reserved": 0}, {"lon": -76.9463275, "bike_id": "7e3e97b6ed51a4b78bf967bdc4ee96d2", "lat": 38.898329333333336, "fusion_lon": 0.0, "fusion_lat": 0.0, "type": "electric_scooter", "name": "7e3e97b6ed51a4b78bf967bdc4ee96d2", "is_disabled": 0, "rental_uris": {"ios": "https://dc.lft.to/lastmile_qr_scan", "android": "https://dc.lft.to/lastmile_qr_scan"}, "is_reserved": 0}, {"lon": -77.02793316666667, "bike_id": "ea40726112579d72ad48705abaa394c3", "lat": 38.93079866666667, "fusion_lon": 0.0, "fusion_lat": 0.0, "type": "electric_scooter", "name": "ea40726112579d72ad48705abaa394c3", "is_disabled": 0, "rental_uris": {"ios": "https://dc.lft.to/lastmile_qr_scan", "android": "https://dc.lft.to/lastmile_qr_scan"}, "is_reserved": 0}, {"lon": -77.01640233333333, "bike_id": "f099d06917f0cc5136bf3de153957b2d", "lat": 38.902315, "fusion_lon": 0.0, "fusion_lat": 0.0, "type": "electric_scooter", "name": "f099d06917f0cc5136bf3de153957b2d", "is_disabled": 0, "rental_uris": {"ios": "https://dc.lft.to/lastmile_qr_scan", "android": "https://dc.lft.to/lastmile_qr_scan"}, "is_reserved": 0}, {"lon": -77.04850633333334, "bike_id": "8710b9bb5890d7713a4df402ede2076c", "lat": 38.904438999999996, "fusion_lon": 0.0, "fusion_lat": 0.0, "type": "electric_scooter", "name": "8710b9bb5890d7713a4df402ede2076c", "is_disabled": 0, "rental_uris": {"ios": "https://dc.lft.to/lastmile_qr_scan", "android": "https://dc.lft.to/lastmile_qr_scan"}, "is_reserved": 0}, {"lon": -77.03260533333334, "bike_id": "77ebd7cb6547fbbad86f27a7d0017570", "lat": 38.937732, "fusion_lon": 0.0, "fusion_lat": 0.0, "type": "electric_scooter", "name": "77ebd7cb6547fbbad86f27a7d0017570", "is_disabled": 0, "rental_uris": {"ios": "https://dc.lft.to/lastmile_qr_scan", "android": "https://dc.lft.to/lastmile_qr_scan"}, "is_reserved": 0}, {"lon": -76.98490833333334, "bike_id": "300239692ce786015f6c9f66a1d509f6", "lat": 38.87835183333333, "fusion_lon": 0.0, "fusion_lat": 0.0, "type": "electric_scooter", "name": "300239692ce786015f6c9f66a1d509f6", "is_disabled": 0, "rental_uris": {"ios": "https://dc.lft.to/lastmile_qr_scan", "android": "https://dc.lft.to/lastmile_qr_scan"}, "is_reserved": 0}, {"lon": -77.030971, "bike_id": "4202888ef41a137beb766ed0245267e8", "lat": 38.9345375, "fusion_lon": 0.0, "fusion_lat": 0.0, "type": "electric_scooter", "name": "4202888ef41a137beb766ed0245267e8", "is_disabled": 0, "rental_uris": {"ios": "https://dc.lft.to/lastmile_qr_scan", "android": "https://dc.lft.to/lastmile_qr_scan"}, "is_reserved": 0}, {"lon": -77.0521435, "bike_id": "60b29d4152f7c69be864e70bd1d80deb", "lat": 38.915651833333335, "fusion_lon": 0.0, "fusion_lat": 0.0, "type": "electric_scooter", "name": "60b29d4152f7c69be864e70bd1d80deb", "is_disabled": 0, "rental_uris": {"ios": "https://dc.lft.to/lastmile_qr_scan", "android": "https://dc.lft.to/lastmile_qr_scan"}, "is_reserved": 0}, {"lon": -76.96526833333333, "bike_id": "bf34876df8e8ff60440da425e845001b", "lat": 38.876279, "fusion_lon": 0.0, "fusion_lat": 0.0, "type": "electric_scooter", "name": "bf34876df8e8ff60440da425e845001b", "is_disabled": 0, "rental_uris": {"ios": "https://dc.lft.to/lastmile_qr_scan", "android": "https://dc.lft.to/lastmile_qr_scan"}, "is_reserved": 0}, {"lon": -77.05705216666667, "bike_id": "fa700256572cc72a959ef923d22ee49a", "lat": 38.905427, "fusion_lon": 0.0, "fusion_lat": 0.0, "type": "electric_scooter", "name": "fa700256572cc72a959ef923d22ee49a", "is_disabled": 0, "rental_uris": {"ios": "https://dc.lft.to/lastmile_qr_scan", "android": "https://dc.lft.to/lastmile_qr_scan"}, "is_reserved": 0}, {"lon": -77.014161, "bike_id": "4523dd314d5ed8df854cf3cf0dfc17d8", "lat": 38.928215, "fusion_lon": 0.0, "fusion_lat": 0.0, "type": "electric_scooter", "name": "4523dd314d5ed8df854cf3cf0dfc17d8", "is_disabled": 0, "rental_uris": {"ios": "https://dc.lft.to/lastmile_qr_scan", "android": "https://dc.lft.to/lastmile_qr_scan"}, "is_reserved": 0}, {"lon": -77.03365233333334, "bike_id": "45edeb8ffb6f7f3718873d843d74ea42", "lat": 38.89959116666667, "fusion_lon": 0.0, "fusion_lat": 0.0, "type": "electric_scooter", "name": "45edeb8ffb6f7f3718873d843d74ea42", "is_disabled": 0, "rental_uris": {"ios": "https://dc.lft.to/lastmile_qr_scan", "android": "https://dc.lft.to/lastmile_qr_scan"}, "is_reserved": 0}, {"lon": -77.01749416666667, "bike_id": "8d908975d04dc6f4fbc4c643d8105d66", "lat": 38.9025, "fusion_lon": 0.0, "fusion_lat": 0.0, "type": "electric_scooter", "name": "8d908975d04dc6f4fbc4c643d8105d66", "is_disabled": 0, "rental_uris": {"ios": "https://dc.lft.to/lastmile_qr_scan", "android": "https://dc.lft.to/lastmile_qr_scan"}, "is_reserved": 0}, {"lon": -77.0108145, "bike_id": "a5ff5c987811ae22e43728f0741672cf", "lat": 38.91704383333333, "fusion_lon": 0.0, "fusion_lat": 0.0, "type": "electric_scooter", "name": "a5ff5c987811ae22e43728f0741672cf", "is_disabled": 0, "rental_uris": {"ios": "https://dc.lft.to/lastmile_qr_scan", "android": "https://dc.lft.to/lastmile_qr_scan"}, "is_reserved": 0}, {"lon": -77.0561295, "bike_id": "4489c039daadcaaa6be18ba132a7ffc8", "lat": 38.923305, "fusion_lon": 0.0, "fusion_lat": 0.0, "type": "electric_scooter", "name": "4489c039daadcaaa6be18ba132a7ffc8", "is_disabled": 0, "rental_uris": {"ios": "https://dc.lft.to/lastmile_qr_scan", "android": "https://dc.lft.to/lastmile_qr_scan"}, "is_reserved": 0}, {"lon": -77.04444966666667, "bike_id": "a9216b971c990852c8f361f7d828ac23", "lat": 38.921612833333334, "fusion_lon": 0.0, "fusion_lat": 0.0, "type": "electric_scooter", "name": "a9216b971c990852c8f361f7d828ac23", "is_disabled": 0, "rental_uris": {"ios": "https://dc.lft.to/lastmile_qr_scan", "android": "https://dc.lft.to/lastmile_qr_scan"}, "is_reserved": 0}, {"lon": -77.032036, "bike_id": "737f037068b6af22af8537f0a8bf965c", "lat": 38.939688333333336, "fusion_lon": 0.0, "fusion_lat": 0.0, "type": "electric_scooter", "name": "737f037068b6af22af8537f0a8bf965c", "is_disabled": 0, "rental_uris": {"ios": "https://dc.lft.to/lastmile_qr_scan", "android": "https://dc.lft.to/lastmile_qr_scan"}, "is_reserved": 0}, {"lon": -77.025736, "bike_id": "c5f797f119ff0643e1df3d08d9220689", "lat": 38.913414, "fusion_lon": 0.0, "fusion_lat": 0.0, "type": "electric_scooter", "name": "c5f797f119ff0643e1df3d08d9220689", "is_disabled": 0, "rental_uris": {"ios": "https://dc.lft.to/lastmile_qr_scan", "android": "https://dc.lft.to/lastmile_qr_scan"}, "is_reserved": 0}, {"lon": -77.03698383333334, "bike_id": "bb45769616e603e419ae6775446ce437", "lat": 38.93523616666667, "fusion_lon": 0.0, "fusion_lat": 0.0, "type": "electric_scooter", "name": "bb45769616e603e419ae6775446ce437", "is_disabled": 0, "rental_uris": {"ios": "https://dc.lft.to/lastmile_qr_scan", "android": "https://dc.lft.to/lastmile_qr_scan"}, "is_reserved": 0}, {"lon": -76.98768466666667, "bike_id": "b411497b739206a230f08ba759a64939", "lat": 38.85774983333334, "fusion_lon": 0.0, "fusion_lat": 0.0, "type": "electric_bike", "name": "b411497b739206a230f08ba759a64939", "is_disabled": 0, "rental_uris": {"ios": "https://dc.lft.to/lastmile_qr_scan", "android": "https://dc.lft.to/lastmile_qr_scan"}, "is_reserved": 0}, {"lon": -77.02509383333333, "bike_id": "963b6d7078886dac47ad93a5c3e8bdb6", "lat": 38.92071966666666, "fusion_lon": 0.0, "fusion_lat": 0.0, "type": "electric_scooter", "name": "963b6d7078886dac47ad93a5c3e8bdb6", "is_disabled": 0, "rental_uris": {"ios": "https://dc.lft.to/lastmile_qr_scan", "android": "https://dc.lft.to/lastmile_qr_scan"}, "is_reserved": 0}, {"lon": -77.0558915, "bike_id": "ab5ec4ac7b7dc2f0fde0c5bb8e5e32e5", "lat": 38.89308533333333, "fusion_lon": 0.0, "fusion_lat": 0.0, "type": "electric_scooter", "name": "ab5ec4ac7b7dc2f0fde0c5bb8e5e32e5", "is_disabled": 0, "rental_uris": {"ios": "https://dc.lft.to/lastmile_qr_scan", "android": "https://dc.lft.to/lastmile_qr_scan"}, "is_reserved": 0}, {"lon": -77.03915416666666, "bike_id": "7077c667bea85522d381a058cf975147", "lat": 38.92101233333333, "fusion_lon": 0.0, "fusion_lat": 0.0, "type": "electric_scooter", "name": "7077c667bea85522d381a058cf975147", "is_disabled": 0, "rental_uris": {"ios": "https://dc.lft.to/lastmile_qr_scan", "android": "https://dc.lft.to/lastmile_qr_scan"}, "is_reserved": 0}, {"lon": -77.04037516666666, "bike_id": "84e1b4609bedc29f23f539cc792b3284", "lat": 38.904040333333334, "fusion_lon": 0.0, "fusion_lat": 0.0, "type": "electric_scooter", "name": "84e1b4609bedc29f23f539cc792b3284", "is_disabled": 0, "rental_uris": {"ios": "https://dc.lft.to/lastmile_qr_scan", "android": "https://dc.lft.to/lastmile_qr_scan"}, "is_reserved": 0}, {"lon": -77.0299195, "bike_id": "97cde128f1167123eb1a384b2b3de7c1", "lat": 38.912590333333334, "fusion_lon": 0.0, "fusion_lat": 0.0, "type": "electric_scooter", "name": "97cde128f1167123eb1a384b2b3de7c1", "is_disabled": 0, "rental_uris": {"ios": "https://dc.lft.to/lastmile_qr_scan", "android": "https://dc.lft.to/lastmile_qr_scan"}, "is_reserved": 0}, {"lon": -76.98398316666666, "bike_id": "e1e8def1e2676438d604c8325373c25f", "lat": 38.9062845, "fusion_lon": 0.0, "fusion_lat": 0.0, "type": "electric_scooter", "name": "e1e8def1e2676438d604c8325373c25f", "is_disabled": 0, "rental_uris": {"ios": "https://dc.lft.to/lastmile_qr_scan", "android": "https://dc.lft.to/lastmile_qr_scan"}, "is_reserved": 0}, {"lon": -76.98930483333334, "bike_id": "f52a6f4d72f063710b762cb35e8fc8fc", "lat": 38.91834383333333, "fusion_lon": 0.0, "fusion_lat": 0.0, "type": "electric_scooter", "name": "f52a6f4d72f063710b762cb35e8fc8fc", "is_disabled": 0, "rental_uris": {"ios": "https://dc.lft.to/lastmile_qr_scan", "android": "https://dc.lft.to/lastmile_qr_scan"}, "is_reserved": 0}, {"lon": -77.03775083333333, "bike_id": "9be172808a13864668fca59c1acf3e56", "lat": 38.929655333333336, "fusion_lon": 0.0, "fusion_lat": 0.0, "type": "electric_scooter", "name": "9be172808a13864668fca59c1acf3e56", "is_disabled": 0, "rental_uris": {"ios": "https://dc.lft.to/lastmile_qr_scan", "android": "https://dc.lft.to/lastmile_qr_scan"}, "is_reserved": 0}, {"lon": -76.99515, "bike_id": "8b13fcbffefc376489518906625062ad", "lat": 38.9002935, "fusion_lon": 0.0, "fusion_lat": 0.0, "type": "electric_scooter", "name": "8b13fcbffefc376489518906625062ad", "is_disabled": 0, "rental_uris": {"ios": "https://dc.lft.to/lastmile_qr_scan", "android": "https://dc.lft.to/lastmile_qr_scan"}, "is_reserved": 0}, {"lon": -77.12482133333333, "bike_id": "dcf72275c22d94ed1a44b50ab906e368", "lat": 38.82782916666667, "fusion_lon": 0.0, "fusion_lat": 0.0, "type": "electric_bike", "name": "dcf72275c22d94ed1a44b50ab906e368", "is_disabled": 0, "rental_uris": {"ios": "https://dc.lft.to/lastmile_qr_scan", "android": "https://dc.lft.to/lastmile_qr_scan"}, "is_reserved": 0}, {"lon": -77.051785, "bike_id": "06c6463ad854a13b205491d432a1c3c9", "lat": 38.924290166666665, "fusion_lon": 0.0, "fusion_lat": 0.0, "type": "electric_scooter", "name": "06c6463ad854a13b205491d432a1c3c9", "is_disabled": 0, "rental_uris": {"ios": "https://dc.lft.to/lastmile_qr_scan", "android": "https://dc.lft.to/lastmile_qr_scan"}, "is_reserved": 0}, {"lon": -77.02705883333333, "bike_id": "64927ff84dac2ad7e1af0e801dd73ab3", "lat": 38.93472533333333, "fusion_lon": 0.0, "fusion_lat": 0.0, "type": "electric_scooter", "name": "64927ff84dac2ad7e1af0e801dd73ab3", "is_disabled": 0, "rental_uris": {"ios": "https://dc.lft.to/lastmile_qr_scan", "android": "https://dc.lft.to/lastmile_qr_scan"}, "is_reserved": 0}, {"lon": -76.96577783333333, "bike_id": "2dabfbef49642b68521b7f11660ed30f", "lat": 38.87135583333333, "fusion_lon": 0.0, "fusion_lat": 0.0, "type": "electric_scooter", "name": "2dabfbef49642b68521b7f11660ed30f", "is_disabled": 0, "rental_uris": {"ios": "https://dc.lft.to/lastmile_qr_scan", "android": "https://dc.lft.to/lastmile_qr_scan"}, "is_reserved": 0}, {"lon": -77.03403416666667, "bike_id": "0d88635ea630fc95bd6e065dbb1aea36", "lat": 38.9602995, "fusion_lon": 0.0, "fusion_lat": 0.0, "type": "electric_bike", "name": "0d88635ea630fc95bd6e065dbb1aea36", "is_disabled": 0, "rental_uris": {"ios": "https://dc.lft.to/lastmile_qr_scan", "android": "https://dc.lft.to/lastmile_qr_scan"}, "is_reserved": 0}, {"lon": -77.00277816666667, "bike_id": "4de1c1caa32670d3412d1ef24b9b80b9", "lat": 38.95708883333333, "fusion_lon": 0.0, "fusion_lat": 0.0, "type": "electric_bike", "name": "4de1c1caa32670d3412d1ef24b9b80b9", "is_disabled": 0, "rental_uris": {"ios": "https://dc.lft.to/lastmile_qr_scan", "android": "https://dc.lft.to/lastmile_qr_scan"}, "is_reserved": 0}, {"lon": -77.028554, "bike_id": "95da560516431b0b1e5e3a4dcf71e968", "lat": 38.927629333333336, "fusion_lon": 0.0, "fusion_lat": 0.0, "type": "electric_scooter", "name": "95da560516431b0b1e5e3a4dcf71e968", "is_disabled": 0, "rental_uris": {"ios": "https://dc.lft.to/lastmile_qr_scan", "android": "https://dc.lft.to/lastmile_qr_scan"}, "is_reserved": 0}, {"lon": -76.99609416666667, "bike_id": "f21b7c0251f0102c0776cd76d0222707", "lat": 38.88712783333333, "fusion_lon": 0.0, "fusion_lat": 0.0, "type": "electric_scooter", "name": "f21b7c0251f0102c0776cd76d0222707", "is_disabled": 0, "rental_uris": {"ios": "https://dc.lft.to/lastmile_qr_scan", "android": "https://dc.lft.to/lastmile_qr_scan"}, "is_reserved": 0}, {"lon": -77.02463066666667, "bike_id": "603cea60e56d041fc70965add2375d99", "lat": 38.93855966666667, "fusion_lon": 0.0, "fusion_lat": 0.0, "type": "electric_scooter", "name": "603cea60e56d041fc70965add2375d99", "is_disabled": 0, "rental_uris": {"ios": "https://dc.lft.to/lastmile_qr_scan", "android": "https://dc.lft.to/lastmile_qr_scan"}, "is_reserved": 0}, {"lon": -77.064378, "bike_id": "92737b477299a9ee4ebfa32a34a60c3a", "lat": 38.9089295, "fusion_lon": 0.0, "fusion_lat": 0.0, "type": "electric_scooter", "name": "92737b477299a9ee4ebfa32a34a60c3a", "is_disabled": 0, "rental_uris": {"ios": "https://dc.lft.to/lastmile_qr_scan", "android": "https://dc.lft.to/lastmile_qr_scan"}, "is_reserved": 0}, {"lon": -77.02255583333333, "bike_id": "68d4232e08d4f858ccf3e6c8c66e53ec", "lat": 38.928233166666665, "fusion_lon": 0.0, "fusion_lat": 0.0, "type": "electric_scooter", "name": "68d4232e08d4f858ccf3e6c8c66e53ec", "is_disabled": 0, "rental_uris": {"ios": "https://dc.lft.to/lastmile_qr_scan", "android": "https://dc.lft.to/lastmile_qr_scan"}, "is_reserved": 0}, {"lon": -77.04327483333333, "bike_id": "417d63fd94172b6b1ee8b5162f6ee9a5", "lat": 38.91878116666667, "fusion_lon": 0.0, "fusion_lat": 0.0, "type": "electric_scooter", "name": "417d63fd94172b6b1ee8b5162f6ee9a5", "is_disabled": 0, "rental_uris": {"ios": "https://dc.lft.to/lastmile_qr_scan", "android": "https://dc.lft.to/lastmile_qr_scan"}, "is_reserved": 0}, {"lon": -76.9985285, "bike_id": "6ba2bab0243c722895da3f1092d7d9a1", "lat": 38.841597166666666, "fusion_lon": 0.0, "fusion_lat": 0.0, "type": "electric_scooter", "name": "6ba2bab0243c722895da3f1092d7d9a1", "is_disabled": 0, "rental_uris": {"ios": "https://dc.lft.to/lastmile_qr_scan", "android": "https://dc.lft.to/lastmile_qr_scan"}, "is_reserved": 0}, {"lon": -77.057649, "bike_id": "1e021a28146ab93a474b80593842ad18", "lat": 38.93618716666667, "fusion_lon": 0.0, "fusion_lat": 0.0, "type": "electric_scooter", "name": "1e021a28146ab93a474b80593842ad18", "is_disabled": 0, "rental_uris": {"ios": "https://dc.lft.to/lastmile_qr_scan", "android": "https://dc.lft.to/lastmile_qr_scan"}, "is_reserved": 0}, {"lon": -77.034182, "bike_id": "7462da7d25e7eb643be2f3440e390c05", "lat": 38.92745166666667, "fusion_lon": 0.0, "fusion_lat": 0.0, "type": "electric_scooter", "name": "7462da7d25e7eb643be2f3440e390c05", "is_disabled": 0, "rental_uris": {"ios": "https://dc.lft.to/lastmile_qr_scan", "android": "https://dc.lft.to/lastmile_qr_scan"}, "is_reserved": 0}, {"lon": -77.0260095, "bike_id": "e687aa5d665dada5ae14fec4b0b209fa", "lat": 38.900143, "fusion_lon": 0.0, "fusion_lat": 0.0, "type": "electric_scooter", "name": "e687aa5d665dada5ae14fec4b0b209fa", "is_disabled": 0, "rental_uris": {"ios": "https://dc.lft.to/lastmile_qr_scan", "android": "https://dc.lft.to/lastmile_qr_scan"}, "is_reserved": 0}, {"lon": -77.0498185, "bike_id": "2f1b52beffd7feef50cbee34906431b6", "lat": 39.06294366666667, "fusion_lon": 0.0, "fusion_lat": 0.0, "type": "electric_bike", "name": "2f1b52beffd7feef50cbee34906431b6", "is_disabled": 0, "rental_uris": {"ios": "https://dc.lft.to/lastmile_qr_scan", "android": "https://dc.lft.to/lastmile_qr_scan"}, "is_reserved": 0}, {"lon": -77.05145116666667, "bike_id": "e240904fdddaeb9e5244776813bddb4c", "lat": 38.898619, "fusion_lon": 0.0, "fusion_lat": 0.0, "type": "electric_scooter", "name": "e240904fdddaeb9e5244776813bddb4c", "is_disabled": 0, "rental_uris": {"ios": "https://dc.lft.to/lastmile_qr_scan", "android": "https://dc.lft.to/lastmile_qr_scan"}, "is_reserved": 0}, {"lon": -77.07658366666666, "bike_id": "93d36e5fb886f20eb0f7c37e23d091d9", "lat": 38.862655, "fusion_lon": 0.0, "fusion_lat": 0.0, "type": "electric_bike", "name": "93d36e5fb886f20eb0f7c37e23d091d9", "is_disabled": 0, "rental_uris": {"ios": "https://dc.lft.to/lastmile_qr_scan", "android": "https://dc.lft.to/lastmile_qr_scan"}, "is_reserved": 0}, {"lon": -77.02441066666667, "bike_id": "a8c0856a6a79d3765fa230c55fbf0b93", "lat": 38.9226275, "fusion_lon": 0.0, "fusion_lat": 0.0, "type": "electric_scooter", "name": "a8c0856a6a79d3765fa230c55fbf0b93", "is_disabled": 0, "rental_uris": {"ios": "https://dc.lft.to/lastmile_qr_scan", "android": "https://dc.lft.to/lastmile_qr_scan"}, "is_reserved": 0}, {"lon": -76.99003066666667, "bike_id": "3164968cb2973a59d376b77a0b13cb67", "lat": 38.945989833333336, "fusion_lon": 0.0, "fusion_lat": 0.0, "type": "electric_scooter", "name": "3164968cb2973a59d376b77a0b13cb67", "is_disabled": 0, "rental_uris": {"ios": "https://dc.lft.to/lastmile_qr_scan", "android": "https://dc.lft.to/lastmile_qr_scan"}, "is_reserved": 0}, {"lon": -77.03868333333334, "bike_id": "0bac6286b29268742c3a008e3bd89650", "lat": 38.9201035, "fusion_lon": 0.0, "fusion_lat": 0.0, "type": "electric_scooter", "name": "0bac6286b29268742c3a008e3bd89650", "is_disabled": 0, "rental_uris": {"ios": "https://dc.lft.to/lastmile_qr_scan", "android": "https://dc.lft.to/lastmile_qr_scan"}, "is_reserved": 0}, {"lon": -76.99486916666666, "bike_id": "7935939d04da790ee450d04d5f3c4911", "lat": 38.879479, "fusion_lon": 0.0, "fusion_lat": 0.0, "type": "electric_scooter", "name": "7935939d04da790ee450d04d5f3c4911", "is_disabled": 0, "rental_uris": {"ios": "https://dc.lft.to/lastmile_qr_scan", "android": "https://dc.lft.to/lastmile_qr_scan"}, "is_reserved": 0}, {"lon": -76.9936775, "bike_id": "d96bcb21d3558831d7b8dffe74813017", "lat": 38.940252, "fusion_lon": 0.0, "fusion_lat": 0.0, "type": "electric_scooter", "name": "d96bcb21d3558831d7b8dffe74813017", "is_disabled": 0, "rental_uris": {"ios": "https://dc.lft.to/lastmile_qr_scan", "android": "https://dc.lft.to/lastmile_qr_scan"}, "is_reserved": 0}, {"lon": -76.98986616666667, "bike_id": "85dc791b4fbcc0b0d15b71f9d2c57118", "lat": 38.859263166666665, "fusion_lon": 0.0, "fusion_lat": 0.0, "type": "electric_scooter", "name": "85dc791b4fbcc0b0d15b71f9d2c57118", "is_disabled": 0, "rental_uris": {"ios": "https://dc.lft.to/lastmile_qr_scan", "android": "https://dc.lft.to/lastmile_qr_scan"}, "is_reserved": 0}, {"lon": -77.03184083333333, "bike_id": "212b3d2953d001bd81fd24726ecfce59", "lat": 38.919256833333336, "fusion_lon": 0.0, "fusion_lat": 0.0, "type": "electric_scooter", "name": "212b3d2953d001bd81fd24726ecfce59", "is_disabled": 0, "rental_uris": {"ios": "https://dc.lft.to/lastmile_qr_scan", "android": "https://dc.lft.to/lastmile_qr_scan"}, "is_reserved": 0}, {"lon": -77.036595, "bike_id": "3acfc0a1bceda6dd40f49154053ea6b3", "lat": 38.929855, "fusion_lon": 0.0, "fusion_lat": 0.0, "type": "electric_scooter", "name": "3acfc0a1bceda6dd40f49154053ea6b3", "is_disabled": 0, "rental_uris": {"ios": "https://dc.lft.to/lastmile_qr_scan", "android": "https://dc.lft.to/lastmile_qr_scan"}, "is_reserved": 0}, {"lon": -76.9984965, "bike_id": "de95591253a12dee93473c3d8327ba07", "lat": 38.901012333333334, "fusion_lon": 0.0, "fusion_lat": 0.0, "type": "electric_scooter", "name": "de95591253a12dee93473c3d8327ba07", "is_disabled": 0, "rental_uris": {"ios": "https://dc.lft.to/lastmile_qr_scan", "android": "https://dc.lft.to/lastmile_qr_scan"}, "is_reserved": 0}, {"lon": -77.03280966666667, "bike_id": "c10c438987636de152811dca246c3cd5", "lat": 38.93262683333333, "fusion_lon": 0.0, "fusion_lat": 0.0, "type": "electric_scooter", "name": "c10c438987636de152811dca246c3cd5", "is_disabled": 0, "rental_uris": {"ios": "https://dc.lft.to/lastmile_qr_scan", "android": "https://dc.lft.to/lastmile_qr_scan"}, "is_reserved": 0}, {"lon": -77.0100025, "bike_id": "7afedc5d0a6f7f434d0df632a8514973", "lat": 38.919231, "fusion_lon": 0.0, "fusion_lat": 0.0, "type": "electric_scooter", "name": "7afedc5d0a6f7f434d0df632a8514973", "is_disabled": 0, "rental_uris": {"ios": "https://dc.lft.to/lastmile_qr_scan", "android": "https://dc.lft.to/lastmile_qr_scan"}, "is_reserved": 0}, {"lon": -77.025098, "bike_id": "1066d5e18e5caa9acca784c87e021d64", "lat": 38.930921, "fusion_lon": 0.0, "fusion_lat": 0.0, "type": "electric_scooter", "name": "1066d5e18e5caa9acca784c87e021d64", "is_disabled": 0, "rental_uris": {"ios": "https://dc.lft.to/lastmile_qr_scan", "android": "https://dc.lft.to/lastmile_qr_scan"}, "is_reserved": 0}, {"lon": -76.94879533333334, "bike_id": "e32d74631529af89678a8bc2f96c8eda", "lat": 38.895521, "fusion_lon": 0.0, "fusion_lat": 0.0, "type": "electric_scooter", "name": "e32d74631529af89678a8bc2f96c8eda", "is_disabled": 0, "rental_uris": {"ios": "https://dc.lft.to/lastmile_qr_scan", "android": "https://dc.lft.to/lastmile_qr_scan"}, "is_reserved": 0}, {"lon": -77.029489, "bike_id": "55765b04d874f57cf00f3521fcd384aa", "lat": 38.9236995, "fusion_lon": 0.0, "fusion_lat": 0.0, "type": "electric_scooter", "name": "55765b04d874f57cf00f3521fcd384aa", "is_disabled": 0, "rental_uris": {"ios": "https://dc.lft.to/lastmile_qr_scan", "android": "https://dc.lft.to/lastmile_qr_scan"}, "is_reserved": 0}, {"lon": -77.04788016666667, "bike_id": "4c31227131c3dd79ccda0d1da105b4f9", "lat": 38.9095855, "fusion_lon": 0.0, "fusion_lat": 0.0, "type": "electric_scooter", "name": "4c31227131c3dd79ccda0d1da105b4f9", "is_disabled": 0, "rental_uris": {"ios": "https://dc.lft.to/lastmile_qr_scan", "android": "https://dc.lft.to/lastmile_qr_scan"}, "is_reserved": 0}, {"lon": -77.02797483333333, "bike_id": "46ea5950ef9fd555ec45f5671d64aad7", "lat": 38.929716666666664, "fusion_lon": 0.0, "fusion_lat": 0.0, "type": "electric_scooter", "name": "46ea5950ef9fd555ec45f5671d64aad7", "is_disabled": 0, "rental_uris": {"ios": "https://dc.lft.to/lastmile_qr_scan", "android": "https://dc.lft.to/lastmile_qr_scan"}, "is_reserved": 0}, {"lon": -76.9335575, "bike_id": "dcdcf1c70ffba8fa78ed1f7030ad7141", "lat": 38.88794933333333, "fusion_lon": 0.0, "fusion_lat": 0.0, "type": "electric_scooter", "name": "dcdcf1c70ffba8fa78ed1f7030ad7141", "is_disabled": 0, "rental_uris": {"ios": "https://dc.lft.to/lastmile_qr_scan", "android": "https://dc.lft.to/lastmile_qr_scan"}, "is_reserved": 0}, {"lon": -77.04260116666667, "bike_id": "97526e6ac04d5b4f38062a6d0b9ab47b", "lat": 38.907102333333334, "fusion_lon": 0.0, "fusion_lat": 0.0, "type": "electric_scooter", "name": "97526e6ac04d5b4f38062a6d0b9ab47b", "is_disabled": 0, "rental_uris": {"ios": "https://dc.lft.to/lastmile_qr_scan", "android": "https://dc.lft.to/lastmile_qr_scan"}, "is_reserved": 0}, {"lon": -77.017672, "bike_id": "fea3c33935ac188dd6dd30e0b144401c", "lat": 38.887388333333334, "fusion_lon": 0.0, "fusion_lat": 0.0, "type": "electric_scooter", "name": "fea3c33935ac188dd6dd30e0b144401c", "is_disabled": 0, "rental_uris": {"ios": "https://dc.lft.to/lastmile_qr_scan", "android": "https://dc.lft.to/lastmile_qr_scan"}, "is_reserved": 0}, {"lon": -76.94878966666667, "bike_id": "22b4594227b5d472f74c48f62f3219db", "lat": 38.89428433333333, "fusion_lon": 0.0, "fusion_lat": 0.0, "type": "electric_scooter", "name": "22b4594227b5d472f74c48f62f3219db", "is_disabled": 0, "rental_uris": {"ios": "https://dc.lft.to/lastmile_qr_scan", "android": "https://dc.lft.to/lastmile_qr_scan"}, "is_reserved": 0}, {"lon": -76.94791066666667, "bike_id": "59dcd791b94afb4ba782bd56a79c970b", "lat": 38.861837666666666, "fusion_lon": 0.0, "fusion_lat": 0.0, "type": "electric_bike", "name": "59dcd791b94afb4ba782bd56a79c970b", "is_disabled": 0, "rental_uris": {"ios": "https://dc.lft.to/lastmile_qr_scan", "android": "https://dc.lft.to/lastmile_qr_scan"}, "is_reserved": 0}, {"lon": -76.99626333333333, "bike_id": "6979faa3685d97dd8d5c1ea36facb6c0", "lat": 38.887985, "fusion_lon": 0.0, "fusion_lat": 0.0, "type": "electric_scooter", "name": "6979faa3685d97dd8d5c1ea36facb6c0", "is_disabled": 0, "rental_uris": {"ios": "https://dc.lft.to/lastmile_qr_scan", "android": "https://dc.lft.to/lastmile_qr_scan"}, "is_reserved": 0}, {"lon": -77.022386, "bike_id": "511f46c862bfb06403775e0f47ed2b6c", "lat": 38.95529033333333, "fusion_lon": 0.0, "fusion_lat": 0.0, "type": "electric_scooter", "name": "511f46c862bfb06403775e0f47ed2b6c", "is_disabled": 0, "rental_uris": {"ios": "https://dc.lft.to/lastmile_qr_scan", "android": "https://dc.lft.to/lastmile_qr_scan"}, "is_reserved": 0}, {"lon": -77.01820333333333, "bike_id": "d4727e364448936a52570e44deb0db0a", "lat": 38.90126433333333, "fusion_lon": 0.0, "fusion_lat": 0.0, "type": "electric_scooter", "name": "d4727e364448936a52570e44deb0db0a", "is_disabled": 0, "rental_uris": {"ios": "https://dc.lft.to/lastmile_qr_scan", "android": "https://dc.lft.to/lastmile_qr_scan"}, "is_reserved": 0}, {"lon": -76.94119916666666, "bike_id": "2cc901796677614ba5b3f248662840a9", "lat": 38.90827516666667, "fusion_lon": 0.0, "fusion_lat": 0.0, "type": "electric_scooter", "name": "2cc901796677614ba5b3f248662840a9", "is_disabled": 0, "rental_uris": {"ios": "https://dc.lft.to/lastmile_qr_scan", "android": "https://dc.lft.to/lastmile_qr_scan"}, "is_reserved": 0}, {"lon": -76.9905455, "bike_id": "e73a111bcd2f2d7035b711706d084d92", "lat": 38.86378333333333, "fusion_lon": 0.0, "fusion_lat": 0.0, "type": "electric_scooter", "name": "e73a111bcd2f2d7035b711706d084d92", "is_disabled": 0, "rental_uris": {"ios": "https://dc.lft.to/lastmile_qr_scan", "android": "https://dc.lft.to/lastmile_qr_scan"}, "is_reserved": 0}, {"lon": -77.04478, "bike_id": "67cb624042f913aab69239537706ed0f", "lat": 38.919327833333334, "fusion_lon": 0.0, "fusion_lat": 0.0, "type": "electric_scooter", "name": "67cb624042f913aab69239537706ed0f", "is_disabled": 0, "rental_uris": {"ios": "https://dc.lft.to/lastmile_qr_scan", "android": "https://dc.lft.to/lastmile_qr_scan"}, "is_reserved": 0}, {"lon": -77.05292683333333, "bike_id": "e1b4201772736f219feef30fc1635154", "lat": 38.90337133333333, "fusion_lon": 0.0, "fusion_lat": 0.0, "type": "electric_scooter", "name": "e1b4201772736f219feef30fc1635154", "is_disabled": 0, "rental_uris": {"ios": "https://dc.lft.to/lastmile_qr_scan", "android": "https://dc.lft.to/lastmile_qr_scan"}, "is_reserved": 0}, {"lon": -77.00058, "bike_id": "8fbeead9b0835f85aba41c921e5733d6", "lat": 38.900839833333336, "fusion_lon": 0.0, "fusion_lat": 0.0, "type": "electric_scooter", "name": "8fbeead9b0835f85aba41c921e5733d6", "is_disabled": 0, "rental_uris": {"ios": "https://dc.lft.to/lastmile_qr_scan", "android": "https://dc.lft.to/lastmile_qr_scan"}, "is_reserved": 0}, {"lon": -77.03865316666666, "bike_id": "ac21e312b03e67aefc415965309ff8e3", "lat": 38.91255966666667, "fusion_lon": 0.0, "fusion_lat": 0.0, "type": "electric_scooter", "name": "ac21e312b03e67aefc415965309ff8e3", "is_disabled": 0, "rental_uris": {"ios": "https://dc.lft.to/lastmile_qr_scan", "android": "https://dc.lft.to/lastmile_qr_scan"}, "is_reserved": 0}, {"lon": -76.99375083333334, "bike_id": "424a57841f20829c3d058cd7c0e61e5f", "lat": 38.8936905, "fusion_lon": 0.0, "fusion_lat": 0.0, "type": "electric_scooter", "name": "424a57841f20829c3d058cd7c0e61e5f", "is_disabled": 0, "rental_uris": {"ios": "https://dc.lft.to/lastmile_qr_scan", "android": "https://dc.lft.to/lastmile_qr_scan"}, "is_reserved": 0}, {"lon": -77.02583933333334, "bike_id": "96062a27e2adf757e8a9bdcfdf938d5d", "lat": 38.887365333333335, "fusion_lon": 0.0, "fusion_lat": 0.0, "type": "electric_scooter", "name": "96062a27e2adf757e8a9bdcfdf938d5d", "is_disabled": 0, "rental_uris": {"ios": "https://dc.lft.to/lastmile_qr_scan", "android": "https://dc.lft.to/lastmile_qr_scan"}, "is_reserved": 0}, {"lon": -77.00678466666666, "bike_id": "c6c1d686e6908bf87ddda11a40b00987", "lat": 38.834959833333336, "fusion_lon": 0.0, "fusion_lat": 0.0, "type": "electric_scooter", "name": "c6c1d686e6908bf87ddda11a40b00987", "is_disabled": 0, "rental_uris": {"ios": "https://dc.lft.to/lastmile_qr_scan", "android": "https://dc.lft.to/lastmile_qr_scan"}, "is_reserved": 0}, {"lon": -76.97205166666667, "bike_id": "507c57964f8363fa3fb68666c8201376", "lat": 38.892879, "fusion_lon": 0.0, "fusion_lat": 0.0, "type": "electric_bike", "name": "507c57964f8363fa3fb68666c8201376", "is_disabled": 0, "rental_uris": {"ios": "https://dc.lft.to/lastmile_qr_scan", "android": "https://dc.lft.to/lastmile_qr_scan"}, "is_reserved": 0}, {"lon": -76.98834116666667, "bike_id": "a50430acf692a5d2f3c5c44f4ccb4092", "lat": 38.896696166666665, "fusion_lon": 0.0, "fusion_lat": 0.0, "type": "electric_scooter", "name": "a50430acf692a5d2f3c5c44f4ccb4092", "is_disabled": 0, "rental_uris": {"ios": "https://dc.lft.to/lastmile_qr_scan", "android": "https://dc.lft.to/lastmile_qr_scan"}, "is_reserved": 0}, {"lon": -77.03507233333333, "bike_id": "a0d38e1e52dd10753993cc79663b96d2", "lat": 38.9651425, "fusion_lon": 0.0, "fusion_lat": 0.0, "type": "electric_bike", "name": "a0d38e1e52dd10753993cc79663b96d2", "is_disabled": 0, "rental_uris": {"ios": "https://dc.lft.to/lastmile_qr_scan", "android": "https://dc.lft.to/lastmile_qr_scan"}, "is_reserved": 0}, {"lon": -77.02481716666667, "bike_id": "28b4aac07f519ed5aff035d37fceaf93", "lat": 38.903367, "fusion_lon": 0.0, "fusion_lat": 0.0, "type": "electric_scooter", "name": "28b4aac07f519ed5aff035d37fceaf93", "is_disabled": 0, "rental_uris": {"ios": "https://dc.lft.to/lastmile_qr_scan", "android": "https://dc.lft.to/lastmile_qr_scan"}, "is_reserved": 0}, {"lon": -77.02209816666667, "bike_id": "d1a3fe5abb1f966f554c3d169a8f33f1", "lat": 38.89355116666667, "fusion_lon": 0.0, "fusion_lat": 0.0, "type": "electric_scooter", "name": "d1a3fe5abb1f966f554c3d169a8f33f1", "is_disabled": 0, "rental_uris": {"ios": "https://dc.lft.to/lastmile_qr_scan", "android": "https://dc.lft.to/lastmile_qr_scan"}, "is_reserved": 0}, {"lon": -76.9772535, "bike_id": "e2f174a85a40491caa8ecad878ade85f", "lat": 38.8724405, "fusion_lon": 0.0, "fusion_lat": 0.0, "type": "electric_scooter", "name": "e2f174a85a40491caa8ecad878ade85f", "is_disabled": 0, "rental_uris": {"ios": "https://dc.lft.to/lastmile_qr_scan", "android": "https://dc.lft.to/lastmile_qr_scan"}, "is_reserved": 0}, {"lon": -77.054239, "bike_id": "cc0d93902f81b5c76bafc02fb2436146", "lat": 38.92841716666667, "fusion_lon": 0.0, "fusion_lat": 0.0, "type": "electric_scooter", "name": "cc0d93902f81b5c76bafc02fb2436146", "is_disabled": 0, "rental_uris": {"ios": "https://dc.lft.to/lastmile_qr_scan", "android": "https://dc.lft.to/lastmile_qr_scan"}, "is_reserved": 0}, {"lon": -77.04862216666666, "bike_id": "7b1d3075a0c85c26b00e784cc2980d35", "lat": 38.909570333333335, "fusion_lon": 0.0, "fusion_lat": 0.0, "type": "electric_scooter", "name": "7b1d3075a0c85c26b00e784cc2980d35", "is_disabled": 0, "rental_uris": {"ios": "https://dc.lft.to/lastmile_qr_scan", "android": "https://dc.lft.to/lastmile_qr_scan"}, "is_reserved": 0}, {"lon": -76.9210715, "bike_id": "f179d4336588884f838c5ef9df5cbc68", "lat": 38.89106116666667, "fusion_lon": 0.0, "fusion_lat": 0.0, "type": "electric_scooter", "name": "f179d4336588884f838c5ef9df5cbc68", "is_disabled": 0, "rental_uris": {"ios": "https://dc.lft.to/lastmile_qr_scan", "android": "https://dc.lft.to/lastmile_qr_scan"}, "is_reserved": 0}, {"lon": -77.07475783333334, "bike_id": "076273deca579b36044c1b1b8a2f9578", "lat": 38.9631535, "fusion_lon": 0.0, "fusion_lat": 0.0, "type": "electric_scooter", "name": "076273deca579b36044c1b1b8a2f9578", "is_disabled": 0, "rental_uris": {"ios": "https://dc.lft.to/lastmile_qr_scan", "android": "https://dc.lft.to/lastmile_qr_scan"}, "is_reserved": 0}, {"lon": -77.00873433333334, "bike_id": "a1c3b9c0704b5403ffc10009be5583c1", "lat": 38.825325166666666, "fusion_lon": 0.0, "fusion_lat": 0.0, "type": "electric_scooter", "name": "a1c3b9c0704b5403ffc10009be5583c1", "is_disabled": 0, "rental_uris": {"ios": "https://dc.lft.to/lastmile_qr_scan", "android": "https://dc.lft.to/lastmile_qr_scan"}, "is_reserved": 0}, {"lon": -77.0562515, "bike_id": "f1c7a2a5c0dc32f597de855e0956c633", "lat": 38.923406666666665, "fusion_lon": 0.0, "fusion_lat": 0.0, "type": "electric_scooter", "name": "f1c7a2a5c0dc32f597de855e0956c633", "is_disabled": 0, "rental_uris": {"ios": "https://dc.lft.to/lastmile_qr_scan", "android": "https://dc.lft.to/lastmile_qr_scan"}, "is_reserved": 0}, {"lon": -77.13925766666667, "bike_id": "fdc2b5efa834dd1fb902e19988b7dcc3", "lat": 38.8729685, "fusion_lon": 0.0, "fusion_lat": 0.0, "type": "electric_bike", "name": "fdc2b5efa834dd1fb902e19988b7dcc3", "is_disabled": 0, "rental_uris": {"ios": "https://dc.lft.to/lastmile_qr_scan", "android": "https://dc.lft.to/lastmile_qr_scan"}, "is_reserved": 0}, {"lon": -77.00971533333333, "bike_id": "c997e66f972c577b6b5a222a8a433574", "lat": 38.87070083333333, "fusion_lon": 0.0, "fusion_lat": 0.0, "type": "electric_scooter", "name": "c997e66f972c577b6b5a222a8a433574", "is_disabled": 0, "rental_uris": {"ios": "https://dc.lft.to/lastmile_qr_scan", "android": "https://dc.lft.to/lastmile_qr_scan"}, "is_reserved": 0}, {"lon": -77.0240425, "bike_id": "4719c1189d34a435eeed3b0aed1d433c", "lat": 38.92092, "fusion_lon": 0.0, "fusion_lat": 0.0, "type": "electric_scooter", "name": "4719c1189d34a435eeed3b0aed1d433c", "is_disabled": 0, "rental_uris": {"ios": "https://dc.lft.to/lastmile_qr_scan", "android": "https://dc.lft.to/lastmile_qr_scan"}, "is_reserved": 0}, {"lon": -77.03764066666666, "bike_id": "41e05a82acba559b127bbacc7e25200f", "lat": 38.92884166666666, "fusion_lon": 0.0, "fusion_lat": 0.0, "type": "electric_scooter", "name": "41e05a82acba559b127bbacc7e25200f", "is_disabled": 0, "rental_uris": {"ios": "https://dc.lft.to/lastmile_qr_scan", "android": "https://dc.lft.to/lastmile_qr_scan"}, "is_reserved": 0}, {"lon": -77.0222415, "bike_id": "c79f85ca20de65cd7f921f7811f45dcd", "lat": 38.92621916666667, "fusion_lon": 0.0, "fusion_lat": 0.0, "type": "electric_scooter", "name": "c79f85ca20de65cd7f921f7811f45dcd", "is_disabled": 0, "rental_uris": {"ios": "https://dc.lft.to/lastmile_qr_scan", "android": "https://dc.lft.to/lastmile_qr_scan"}, "is_reserved": 0}, {"lon": -77.02238533333333, "bike_id": "6cfc1b02bbeea4a4bcb29662bf4b334f", "lat": 38.96213916666667, "fusion_lon": 0.0, "fusion_lat": 0.0, "type": "electric_bike", "name": "6cfc1b02bbeea4a4bcb29662bf4b334f", "is_disabled": 0, "rental_uris": {"ios": "https://dc.lft.to/lastmile_qr_scan", "android": "https://dc.lft.to/lastmile_qr_scan"}, "is_reserved": 0}, {"lon": -77.0526135, "bike_id": "c68ba2941440d293eff1a0aa877a2571", "lat": 38.90007666666666, "fusion_lon": 0.0, "fusion_lat": 0.0, "type": "electric_scooter", "name": "c68ba2941440d293eff1a0aa877a2571", "is_disabled": 0, "rental_uris": {"ios": "https://dc.lft.to/lastmile_qr_scan", "android": "https://dc.lft.to/lastmile_qr_scan"}, "is_reserved": 0}, {"lon": -77.04390433333333, "bike_id": "a944ae1d64389fbeb1c7ec6eb598f5d7", "lat": 39.04715483333333, "fusion_lon": 0.0, "fusion_lat": 0.0, "type": "electric_bike", "name": "a944ae1d64389fbeb1c7ec6eb598f5d7", "is_disabled": 0, "rental_uris": {"ios": "https://dc.lft.to/lastmile_qr_scan", "android": "https://dc.lft.to/lastmile_qr_scan"}, "is_reserved": 0}, {"lon": -77.02848816666666, "bike_id": "5592289627db657ac056827a3cbbf2a8", "lat": 38.925672166666665, "fusion_lon": 0.0, "fusion_lat": 0.0, "type": "electric_scooter", "name": "5592289627db657ac056827a3cbbf2a8", "is_disabled": 0, "rental_uris": {"ios": "https://dc.lft.to/lastmile_qr_scan", "android": "https://dc.lft.to/lastmile_qr_scan"}, "is_reserved": 0}, {"lon": -76.989216, "bike_id": "09de79de46247de34604f8c8b795f0b0", "lat": 38.85809583333333, "fusion_lon": 0.0, "fusion_lat": 0.0, "type": "electric_scooter", "name": "09de79de46247de34604f8c8b795f0b0", "is_disabled": 0, "rental_uris": {"ios": "https://dc.lft.to/lastmile_qr_scan", "android": "https://dc.lft.to/lastmile_qr_scan"}, "is_reserved": 0}, {"lon": -76.97184933333334, "bike_id": "127cbcd5f377461becd9368c7eaffd8a", "lat": 38.87390833333333, "fusion_lon": 0.0, "fusion_lat": 0.0, "type": "electric_scooter", "name": "127cbcd5f377461becd9368c7eaffd8a", "is_disabled": 0, "rental_uris": {"ios": "https://dc.lft.to/lastmile_qr_scan", "android": "https://dc.lft.to/lastmile_qr_scan"}, "is_reserved": 0}, {"lon": -77.0210765, "bike_id": "89b5ff8a33770d9c3cdad5e455591e74", "lat": 38.9060135, "fusion_lon": 0.0, "fusion_lat": 0.0, "type": "electric_scooter", "name": "89b5ff8a33770d9c3cdad5e455591e74", "is_disabled": 0, "rental_uris": {"ios": "https://dc.lft.to/lastmile_qr_scan", "android": "https://dc.lft.to/lastmile_qr_scan"}, "is_reserved": 0}, {"lon": -77.03442916666667, "bike_id": "23267c5346510b17169fb835c799484d", "lat": 38.90949716666667, "fusion_lon": 0.0, "fusion_lat": 0.0, "type": "electric_scooter", "name": "23267c5346510b17169fb835c799484d", "is_disabled": 0, "rental_uris": {"ios": "https://dc.lft.to/lastmile_qr_scan", "android": "https://dc.lft.to/lastmile_qr_scan"}, "is_reserved": 0}, {"lon": -77.04339983333334, "bike_id": "fd370d0bedf4d5c71f896f1fe1b4fbb6", "lat": 38.929658833333335, "fusion_lon": 0.0, "fusion_lat": 0.0, "type": "electric_scooter", "name": "fd370d0bedf4d5c71f896f1fe1b4fbb6", "is_disabled": 0, "rental_uris": {"ios": "https://dc.lft.to/lastmile_qr_scan", "android": "https://dc.lft.to/lastmile_qr_scan"}, "is_reserved": 0}, {"lon": -77.02833316666667, "bike_id": "1dd9be9f83796bfb66c3563ae1ecf8e3", "lat": 38.90237883333333, "fusion_lon": 0.0, "fusion_lat": 0.0, "type": "electric_scooter", "name": "1dd9be9f83796bfb66c3563ae1ecf8e3", "is_disabled": 0, "rental_uris": {"ios": "https://dc.lft.to/lastmile_qr_scan", "android": "https://dc.lft.to/lastmile_qr_scan"}, "is_reserved": 0}, {"lon": -76.98366483333334, "bike_id": "6049f0f01429df504357600bebbebaae", "lat": 38.899787, "fusion_lon": 0.0, "fusion_lat": 0.0, "type": "electric_scooter", "name": "6049f0f01429df504357600bebbebaae", "is_disabled": 0, "rental_uris": {"ios": "https://dc.lft.to/lastmile_qr_scan", "android": "https://dc.lft.to/lastmile_qr_scan"}, "is_reserved": 0}, {"lon": -77.02380316666667, "bike_id": "53a6406c49d6a6abb49bfa6e316546ce", "lat": 38.90730383333333, "fusion_lon": 0.0, "fusion_lat": 0.0, "type": "electric_scooter", "name": "53a6406c49d6a6abb49bfa6e316546ce", "is_disabled": 0, "rental_uris": {"ios": "https://dc.lft.to/lastmile_qr_scan", "android": "https://dc.lft.to/lastmile_qr_scan"}, "is_reserved": 0}, {"lon": -77.02294316666666, "bike_id": "01fd05dae16a767dd6ade49a0f43aea4", "lat": 38.909804333333334, "fusion_lon": 0.0, "fusion_lat": 0.0, "type": "electric_scooter", "name": "01fd05dae16a767dd6ade49a0f43aea4", "is_disabled": 0, "rental_uris": {"ios": "https://dc.lft.to/lastmile_qr_scan", "android": "https://dc.lft.to/lastmile_qr_scan"}, "is_reserved": 0}, {"lon": -76.93369166666666, "bike_id": "e7aeebcdb9ed7b2499cfc9b62b2549a1", "lat": 38.899154333333335, "fusion_lon": 0.0, "fusion_lat": 0.0, "type": "electric_scooter", "name": "e7aeebcdb9ed7b2499cfc9b62b2549a1", "is_disabled": 0, "rental_uris": {"ios": "https://dc.lft.to/lastmile_qr_scan", "android": "https://dc.lft.to/lastmile_qr_scan"}, "is_reserved": 0}, {"lon": -77.07333033333333, "bike_id": "d75424e5e425e68939f86486623fbd91", "lat": 38.924938833333336, "fusion_lon": 0.0, "fusion_lat": 0.0, "type": "electric_bike", "name": "d75424e5e425e68939f86486623fbd91", "is_disabled": 0, "rental_uris": {"ios": "https://dc.lft.to/lastmile_qr_scan", "android": "https://dc.lft.to/lastmile_qr_scan"}, "is_reserved": 0}, {"lon": -77.06753983333333, "bike_id": "144cf00f927bc0edc738021b30bb2d1a", "lat": 38.90333783333333, "fusion_lon": 0.0, "fusion_lat": 0.0, "type": "electric_scooter", "name": "144cf00f927bc0edc738021b30bb2d1a", "is_disabled": 0, "rental_uris": {"ios": "https://dc.lft.to/lastmile_qr_scan", "android": "https://dc.lft.to/lastmile_qr_scan"}, "is_reserved": 0}, {"lon": -77.03662383333334, "bike_id": "c3ddcfe954e961df677bda8d0f2b41eb", "lat": 38.922627, "fusion_lon": 0.0, "fusion_lat": 0.0, "type": "electric_scooter", "name": "c3ddcfe954e961df677bda8d0f2b41eb", "is_disabled": 0, "rental_uris": {"ios": "https://dc.lft.to/lastmile_qr_scan", "android": "https://dc.lft.to/lastmile_qr_scan"}, "is_reserved": 0}, {"lon": -77.03937933333333, "bike_id": "4f9e08b942a0c335ced05498abf47321", "lat": 38.930583166666665, "fusion_lon": 0.0, "fusion_lat": 0.0, "type": "electric_scooter", "name": "4f9e08b942a0c335ced05498abf47321", "is_disabled": 0, "rental_uris": {"ios": "https://dc.lft.to/lastmile_qr_scan", "android": "https://dc.lft.to/lastmile_qr_scan"}, "is_reserved": 0}, {"lon": -77.0297795, "bike_id": "87fcefad2f1cbfbb1ec80b33df7584d1", "lat": 38.932838333333336, "fusion_lon": 0.0, "fusion_lat": 0.0, "type": "electric_scooter", "name": "87fcefad2f1cbfbb1ec80b33df7584d1", "is_disabled": 0, "rental_uris": {"ios": "https://dc.lft.to/lastmile_qr_scan", "android": "https://dc.lft.to/lastmile_qr_scan"}, "is_reserved": 0}, {"lon": -77.03173333333334, "bike_id": "2452b397fb7465bbae60e0401e1b1388", "lat": 38.8873385, "fusion_lon": 0.0, "fusion_lat": 0.0, "type": "electric_scooter", "name": "2452b397fb7465bbae60e0401e1b1388", "is_disabled": 0, "rental_uris": {"ios": "https://dc.lft.to/lastmile_qr_scan", "android": "https://dc.lft.to/lastmile_qr_scan"}, "is_reserved": 0}, {"lon": -76.9846705, "bike_id": "d4154a78eacf38c21ae4a29bfcc62677", "lat": 38.903966833333335, "fusion_lon": 0.0, "fusion_lat": 0.0, "type": "electric_scooter", "name": "d4154a78eacf38c21ae4a29bfcc62677", "is_disabled": 0, "rental_uris": {"ios": "https://dc.lft.to/lastmile_qr_scan", "android": "https://dc.lft.to/lastmile_qr_scan"}, "is_reserved": 0}, {"lon": -77.03655366666666, "bike_id": "7df0509d633eff17b243e657df7e0d45", "lat": 38.93626883333334, "fusion_lon": 0.0, "fusion_lat": 0.0, "type": "electric_scooter", "name": "7df0509d633eff17b243e657df7e0d45", "is_disabled": 0, "rental_uris": {"ios": "https://dc.lft.to/lastmile_qr_scan", "android": "https://dc.lft.to/lastmile_qr_scan"}, "is_reserved": 0}, {"lon": -77.04755666666667, "bike_id": "f658ffa1e3baca18ff8ae0f02b915cfe", "lat": 38.901779833333336, "fusion_lon": 0.0, "fusion_lat": 0.0, "type": "electric_scooter", "name": "f658ffa1e3baca18ff8ae0f02b915cfe", "is_disabled": 0, "rental_uris": {"ios": "https://dc.lft.to/lastmile_qr_scan", "android": "https://dc.lft.to/lastmile_qr_scan"}, "is_reserved": 0}, {"lon": -77.0117905, "bike_id": "51b25db12f31b260fb56a98ab7cf5a74", "lat": 38.8723305, "fusion_lon": 0.0, "fusion_lat": 0.0, "type": "electric_bike", "name": "51b25db12f31b260fb56a98ab7cf5a74", "is_disabled": 0, "rental_uris": {"ios": "https://dc.lft.to/lastmile_qr_scan", "android": "https://dc.lft.to/lastmile_qr_scan"}, "is_reserved": 0}, {"lon": -76.99456283333333, "bike_id": "ea66a440a7d72d67b391c13e02e68bb9", "lat": 38.862167666666664, "fusion_lon": 0.0, "fusion_lat": 0.0, "type": "electric_scooter", "name": "ea66a440a7d72d67b391c13e02e68bb9", "is_disabled": 0, "rental_uris": {"ios": "https://dc.lft.to/lastmile_qr_scan", "android": "https://dc.lft.to/lastmile_qr_scan"}, "is_reserved": 0}, {"lon": -77.0145905, "bike_id": "0ec661f46b022ab5342600b2a829b160", "lat": 38.92713216666667, "fusion_lon": 0.0, "fusion_lat": 0.0, "type": "electric_scooter", "name": "0ec661f46b022ab5342600b2a829b160", "is_disabled": 0, "rental_uris": {"ios": "https://dc.lft.to/lastmile_qr_scan", "android": "https://dc.lft.to/lastmile_qr_scan"}, "is_reserved": 0}, {"lon": -77.00332933333334, "bike_id": "f64d0277192a765473a4c801ca3e9948", "lat": 38.897281166666666, "fusion_lon": 0.0, "fusion_lat": 0.0, "type": "electric_scooter", "name": "f64d0277192a765473a4c801ca3e9948", "is_disabled": 0, "rental_uris": {"ios": "https://dc.lft.to/lastmile_qr_scan", "android": "https://dc.lft.to/lastmile_qr_scan"}, "is_reserved": 0}, {"lon": -77.0280795, "bike_id": "2712785069f63de6421b9ecb435c286b", "lat": 38.93080766666667, "fusion_lon": 0.0, "fusion_lat": 0.0, "type": "electric_scooter", "name": "2712785069f63de6421b9ecb435c286b", "is_disabled": 0, "rental_uris": {"ios": "https://dc.lft.to/lastmile_qr_scan", "android": "https://dc.lft.to/lastmile_qr_scan"}, "is_reserved": 0}, {"lon": -77.00522533333333, "bike_id": "495cfabcf0de3a5c3d33d5829df614a3", "lat": 38.87543683333333, "fusion_lon": 0.0, "fusion_lat": 0.0, "type": "electric_scooter", "name": "495cfabcf0de3a5c3d33d5829df614a3", "is_disabled": 0, "rental_uris": {"ios": "https://dc.lft.to/lastmile_qr_scan", "android": "https://dc.lft.to/lastmile_qr_scan"}, "is_reserved": 0}, {"lon": -77.02764016666667, "bike_id": "ca8c186835e867702af744193604bf29", "lat": 38.954306, "fusion_lon": 0.0, "fusion_lat": 0.0, "type": "electric_scooter", "name": "ca8c186835e867702af744193604bf29", "is_disabled": 0, "rental_uris": {"ios": "https://dc.lft.to/lastmile_qr_scan", "android": "https://dc.lft.to/lastmile_qr_scan"}, "is_reserved": 0}, {"lon": -76.98086966666666, "bike_id": "b64d5bf0a719448bf91bef418f388b6a", "lat": 38.90709866666667, "fusion_lon": 0.0, "fusion_lat": 0.0, "type": "electric_scooter", "name": "b64d5bf0a719448bf91bef418f388b6a", "is_disabled": 0, "rental_uris": {"ios": "https://dc.lft.to/lastmile_qr_scan", "android": "https://dc.lft.to/lastmile_qr_scan"}, "is_reserved": 0}, {"lon": -77.03263083333333, "bike_id": "6aa987da05c7585f20821ee39a0a73d2", "lat": 38.93699683333333, "fusion_lon": 0.0, "fusion_lat": 0.0, "type": "electric_scooter", "name": "6aa987da05c7585f20821ee39a0a73d2", "is_disabled": 0, "rental_uris": {"ios": "https://dc.lft.to/lastmile_qr_scan", "android": "https://dc.lft.to/lastmile_qr_scan"}, "is_reserved": 0}, {"lon": -77.05233816666667, "bike_id": "e21e17c8df381745798d2c4f4959060d", "lat": 38.92339716666667, "fusion_lon": 0.0, "fusion_lat": 0.0, "type": "electric_scooter", "name": "e21e17c8df381745798d2c4f4959060d", "is_disabled": 0, "rental_uris": {"ios": "https://dc.lft.to/lastmile_qr_scan", "android": "https://dc.lft.to/lastmile_qr_scan"}, "is_reserved": 0}, {"lon": -77.06831683333333, "bike_id": "1e6ee7a217afc1e96e92f3c00f1f3b58", "lat": 38.80565933333333, "fusion_lon": 0.0, "fusion_lat": 0.0, "type": "electric_bike", "name": "1e6ee7a217afc1e96e92f3c00f1f3b58", "is_disabled": 0, "rental_uris": {"ios": "https://dc.lft.to/lastmile_qr_scan", "android": "https://dc.lft.to/lastmile_qr_scan"}, "is_reserved": 0}, {"lon": -76.9900415, "bike_id": "f3807d956ea05dc106f3eb77e7012b1a", "lat": 38.865086166666664, "fusion_lon": 0.0, "fusion_lat": 0.0, "type": "electric_scooter", "name": "f3807d956ea05dc106f3eb77e7012b1a", "is_disabled": 0, "rental_uris": {"ios": "https://dc.lft.to/lastmile_qr_scan", "android": "https://dc.lft.to/lastmile_qr_scan"}, "is_reserved": 0}, {"lon": -77.0790475, "bike_id": "17e39302c419d0ad0fb38c039c9d9cb6", "lat": 38.83930683333333, "fusion_lon": 0.0, "fusion_lat": 0.0, "type": "electric_bike", "name": "17e39302c419d0ad0fb38c039c9d9cb6", "is_disabled": 0, "rental_uris": {"ios": "https://dc.lft.to/lastmile_qr_scan", "android": "https://dc.lft.to/lastmile_qr_scan"}, "is_reserved": 0}, {"lon": -76.9518605, "bike_id": "c9bd992d9f69caf5a6ed860b6e7c2cac", "lat": 38.907407166666665, "fusion_lon": 0.0, "fusion_lat": 0.0, "type": "electric_scooter", "name": "c9bd992d9f69caf5a6ed860b6e7c2cac", "is_disabled": 0, "rental_uris": {"ios": "https://dc.lft.to/lastmile_qr_scan", "android": "https://dc.lft.to/lastmile_qr_scan"}, "is_reserved": 0}, {"lon": -76.9819645, "bike_id": "952ea3d1d2551332c896e2ea663c0ffa", "lat": 38.89947816666667, "fusion_lon": 0.0, "fusion_lat": 0.0, "type": "electric_scooter", "name": "952ea3d1d2551332c896e2ea663c0ffa", "is_disabled": 0, "rental_uris": {"ios": "https://dc.lft.to/lastmile_qr_scan", "android": "https://dc.lft.to/lastmile_qr_scan"}, "is_reserved": 0}, {"lon": -77.01955083333333, "bike_id": "42100c2bc4bada9d34dec119aabd718b", "lat": 38.9225225, "fusion_lon": 0.0, "fusion_lat": 0.0, "type": "electric_scooter", "name": "42100c2bc4bada9d34dec119aabd718b", "is_disabled": 0, "rental_uris": {"ios": "https://dc.lft.to/lastmile_qr_scan", "android": "https://dc.lft.to/lastmile_qr_scan"}, "is_reserved": 0}, {"lon": -77.02795683333333, "bike_id": "16f69ddefb511b14dbaa1af9060172cb", "lat": 38.929627333333336, "fusion_lon": 0.0, "fusion_lat": 0.0, "type": "electric_scooter", "name": "16f69ddefb511b14dbaa1af9060172cb", "is_disabled": 0, "rental_uris": {"ios": "https://dc.lft.to/lastmile_qr_scan", "android": "https://dc.lft.to/lastmile_qr_scan"}, "is_reserved": 0}, {"lon": -76.98266666666666, "bike_id": "43aab7aa42e7f354a24af39aaab8f101", "lat": 38.90858566666667, "fusion_lon": 0.0, "fusion_lat": 0.0, "type": "electric_scooter", "name": "43aab7aa42e7f354a24af39aaab8f101", "is_disabled": 0, "rental_uris": {"ios": "https://dc.lft.to/lastmile_qr_scan", "android": "https://dc.lft.to/lastmile_qr_scan"}, "is_reserved": 0}, {"lon": -76.98001516666666, "bike_id": "e4f72e9d54a7ea9f556dfc6cd011a814", "lat": 38.90680233333333, "fusion_lon": 0.0, "fusion_lat": 0.0, "type": "electric_scooter", "name": "e4f72e9d54a7ea9f556dfc6cd011a814", "is_disabled": 0, "rental_uris": {"ios": "https://dc.lft.to/lastmile_qr_scan", "android": "https://dc.lft.to/lastmile_qr_scan"}, "is_reserved": 0}, {"lon": -77.02138333333333, "bike_id": "f485bb948e723a01fec96e0debb386ae", "lat": 38.924859, "fusion_lon": 0.0, "fusion_lat": 0.0, "type": "electric_scooter", "name": "f485bb948e723a01fec96e0debb386ae", "is_disabled": 0, "rental_uris": {"ios": "https://dc.lft.to/lastmile_qr_scan", "android": "https://dc.lft.to/lastmile_qr_scan"}, "is_reserved": 0}, {"lon": -77.03574316666666, "bike_id": "b0cbbe6b2a8c0eb80c1d4f666b7e9e75", "lat": 38.936774666666665, "fusion_lon": 0.0, "fusion_lat": 0.0, "type": "electric_scooter", "name": "b0cbbe6b2a8c0eb80c1d4f666b7e9e75", "is_disabled": 0, "rental_uris": {"ios": "https://dc.lft.to/lastmile_qr_scan", "android": "https://dc.lft.to/lastmile_qr_scan"}, "is_reserved": 0}, {"lon": -77.087635, "bike_id": "87fca797553026c61841daebd678d4fc", "lat": 38.88950416666667, "fusion_lon": 0.0, "fusion_lat": 0.0, "type": "electric_bike", "name": "87fca797553026c61841daebd678d4fc", "is_disabled": 0, "rental_uris": {"ios": "https://dc.lft.to/lastmile_qr_scan", "android": "https://dc.lft.to/lastmile_qr_scan"}, "is_reserved": 0}, {"lon": -76.987183, "bike_id": "f604c9d5aadacd706abde56602c86757", "lat": 38.86627883333333, "fusion_lon": 0.0, "fusion_lat": 0.0, "type": "electric_scooter", "name": "f604c9d5aadacd706abde56602c86757", "is_disabled": 0, "rental_uris": {"ios": "https://dc.lft.to/lastmile_qr_scan", "android": "https://dc.lft.to/lastmile_qr_scan"}, "is_reserved": 0}, {"lon": -77.01760283333333, "bike_id": "6413cb0c8efe467d093a76ccc7f8c1d4", "lat": 38.8781535, "fusion_lon": 0.0, "fusion_lat": 0.0, "type": "electric_scooter", "name": "6413cb0c8efe467d093a76ccc7f8c1d4", "is_disabled": 0, "rental_uris": {"ios": "https://dc.lft.to/lastmile_qr_scan", "android": "https://dc.lft.to/lastmile_qr_scan"}, "is_reserved": 0}, {"lon": -76.94179933333334, "bike_id": "0980f4b744e106f0f732c5f5e1d161b3", "lat": 38.892727, "fusion_lon": 0.0, "fusion_lat": 0.0, "type": "electric_scooter", "name": "0980f4b744e106f0f732c5f5e1d161b3", "is_disabled": 0, "rental_uris": {"ios": "https://dc.lft.to/lastmile_qr_scan", "android": "https://dc.lft.to/lastmile_qr_scan"}, "is_reserved": 0}, {"lon": -77.03589, "bike_id": "c7d38424f65fd2b165f4c1799f1c1635", "lat": 38.9267925, "fusion_lon": 0.0, "fusion_lat": 0.0, "type": "electric_scooter", "name": "c7d38424f65fd2b165f4c1799f1c1635", "is_disabled": 0, "rental_uris": {"ios": "https://dc.lft.to/lastmile_qr_scan", "android": "https://dc.lft.to/lastmile_qr_scan"}, "is_reserved": 0}, {"lon": -77.0010375, "bike_id": "aeeb705b17637269a2d7e6ed0a8ad0e4", "lat": 38.917088166666666, "fusion_lon": 0.0, "fusion_lat": 0.0, "type": "electric_scooter", "name": "aeeb705b17637269a2d7e6ed0a8ad0e4", "is_disabled": 0, "rental_uris": {"ios": "https://dc.lft.to/lastmile_qr_scan", "android": "https://dc.lft.to/lastmile_qr_scan"}, "is_reserved": 0}, {"lon": -77.0326365, "bike_id": "043fbacee03382018fe757bddc406d63", "lat": 38.932655, "fusion_lon": 0.0, "fusion_lat": 0.0, "type": "electric_scooter", "name": "043fbacee03382018fe757bddc406d63", "is_disabled": 0, "rental_uris": {"ios": "https://dc.lft.to/lastmile_qr_scan", "android": "https://dc.lft.to/lastmile_qr_scan"}, "is_reserved": 0}, {"lon": -77.03713016666667, "bike_id": "c0cd7d75d6b69bc29c38bf4f46c725c5", "lat": 38.91478566666667, "fusion_lon": 0.0, "fusion_lat": 0.0, "type": "electric_scooter", "name": "c0cd7d75d6b69bc29c38bf4f46c725c5", "is_disabled": 0, "rental_uris": {"ios": "https://dc.lft.to/lastmile_qr_scan", "android": "https://dc.lft.to/lastmile_qr_scan"}, "is_reserved": 0}, {"lon": -77.02716133333334, "bike_id": "accf16a3faacbe5e441e4c2f3936bf91", "lat": 38.906766166666664, "fusion_lon": 0.0, "fusion_lat": 0.0, "type": "electric_scooter", "name": "accf16a3faacbe5e441e4c2f3936bf91", "is_disabled": 0, "rental_uris": {"ios": "https://dc.lft.to/lastmile_qr_scan", "android": "https://dc.lft.to/lastmile_qr_scan"}, "is_reserved": 0}, {"lon": -76.996231, "bike_id": "a310503395fa26bb0146375478b70774", "lat": 38.9093855, "fusion_lon": 0.0, "fusion_lat": 0.0, "type": "electric_scooter", "name": "a310503395fa26bb0146375478b70774", "is_disabled": 0, "rental_uris": {"ios": "https://dc.lft.to/lastmile_qr_scan", "android": "https://dc.lft.to/lastmile_qr_scan"}, "is_reserved": 0}, {"lon": -77.01895833333333, "bike_id": "6e3f436c9e2f484dd4a42f4692f0f2cd", "lat": 38.874619833333334, "fusion_lon": 0.0, "fusion_lat": 0.0, "type": "electric_scooter", "name": "6e3f436c9e2f484dd4a42f4692f0f2cd", "is_disabled": 0, "rental_uris": {"ios": "https://dc.lft.to/lastmile_qr_scan", "android": "https://dc.lft.to/lastmile_qr_scan"}, "is_reserved": 0}, {"lon": -77.0026085, "bike_id": "79f10ff68ff3ab8fe676860f71a8c571", "lat": 38.918176333333335, "fusion_lon": 0.0, "fusion_lat": 0.0, "type": "electric_scooter", "name": "79f10ff68ff3ab8fe676860f71a8c571", "is_disabled": 0, "rental_uris": {"ios": "https://dc.lft.to/lastmile_qr_scan", "android": "https://dc.lft.to/lastmile_qr_scan"}, "is_reserved": 0}, {"lon": -77.11610716666667, "bike_id": "92e014062b389a24c87d34fbc5a73b12", "lat": 38.8548415, "fusion_lon": 0.0, "fusion_lat": 0.0, "type": "electric_bike", "name": "92e014062b389a24c87d34fbc5a73b12", "is_disabled": 0, "rental_uris": {"ios": "https://dc.lft.to/lastmile_qr_scan", "android": "https://dc.lft.to/lastmile_qr_scan"}, "is_reserved": 0}, {"lon": -77.02982883333334, "bike_id": "516d55a61ad8837a5bdb584be2eba256", "lat": 38.9370055, "fusion_lon": 0.0, "fusion_lat": 0.0, "type": "electric_bike", "name": "516d55a61ad8837a5bdb584be2eba256", "is_disabled": 0, "rental_uris": {"ios": "https://dc.lft.to/lastmile_qr_scan", "android": "https://dc.lft.to/lastmile_qr_scan"}, "is_reserved": 0}, {"lon": -77.03668083333334, "bike_id": "d6ffa805b33824445bce36e9e3808081", "lat": 38.92330466666667, "fusion_lon": 0.0, "fusion_lat": 0.0, "type": "electric_scooter", "name": "d6ffa805b33824445bce36e9e3808081", "is_disabled": 0, "rental_uris": {"ios": "https://dc.lft.to/lastmile_qr_scan", "android": "https://dc.lft.to/lastmile_qr_scan"}, "is_reserved": 0}, {"lon": -77.025317, "bike_id": "53e1c119ac28bd612cb8f2d5800e4eb0", "lat": 38.943037, "fusion_lon": 0.0, "fusion_lat": 0.0, "type": "electric_scooter", "name": "53e1c119ac28bd612cb8f2d5800e4eb0", "is_disabled": 0, "rental_uris": {"ios": "https://dc.lft.to/lastmile_qr_scan", "android": "https://dc.lft.to/lastmile_qr_scan"}, "is_reserved": 0}, {"lon": -77.03651266666667, "bike_id": "94b72ca4ab4362c07cd26c360fc3f01b", "lat": 38.92613716666666, "fusion_lon": 0.0, "fusion_lat": 0.0, "type": "electric_scooter", "name": "94b72ca4ab4362c07cd26c360fc3f01b", "is_disabled": 0, "rental_uris": {"ios": "https://dc.lft.to/lastmile_qr_scan", "android": "https://dc.lft.to/lastmile_qr_scan"}, "is_reserved": 0}, {"lon": -76.96992816666666, "bike_id": "0c128a58cc80bd8055a18c6c5f033c73", "lat": 38.8737095, "fusion_lon": 0.0, "fusion_lat": 0.0, "type": "electric_scooter", "name": "0c128a58cc80bd8055a18c6c5f033c73", "is_disabled": 0, "rental_uris": {"ios": "https://dc.lft.to/lastmile_qr_scan", "android": "https://dc.lft.to/lastmile_qr_scan"}, "is_reserved": 0}, {"lon": -77.02505583333334, "bike_id": "4c89cfbfd4f9ddbf1f0bb18bdde95848", "lat": 38.884277833333336, "fusion_lon": 0.0, "fusion_lat": 0.0, "type": "electric_scooter", "name": "4c89cfbfd4f9ddbf1f0bb18bdde95848", "is_disabled": 0, "rental_uris": {"ios": "https://dc.lft.to/lastmile_qr_scan", "android": "https://dc.lft.to/lastmile_qr_scan"}, "is_reserved": 0}, {"lon": -76.99617, "bike_id": "e5f4a095052cb31905534d03de94752b", "lat": 38.908954666666666, "fusion_lon": 0.0, "fusion_lat": 0.0, "type": "electric_scooter", "name": "e5f4a095052cb31905534d03de94752b", "is_disabled": 0, "rental_uris": {"ios": "https://dc.lft.to/lastmile_qr_scan", "android": "https://dc.lft.to/lastmile_qr_scan"}, "is_reserved": 0}, {"lon": -77.06136716666667, "bike_id": "6d4954c2f93ea0a95b4b035585b7fd43", "lat": 38.94354633333333, "fusion_lon": 0.0, "fusion_lat": 0.0, "type": "electric_scooter", "name": "6d4954c2f93ea0a95b4b035585b7fd43", "is_disabled": 0, "rental_uris": {"ios": "https://dc.lft.to/lastmile_qr_scan", "android": "https://dc.lft.to/lastmile_qr_scan"}, "is_reserved": 0}, {"lon": -77.03473783333334, "bike_id": "d5b713e57e62cbd95daa857fff32212b", "lat": 38.92753183333333, "fusion_lon": 0.0, "fusion_lat": 0.0, "type": "electric_scooter", "name": "d5b713e57e62cbd95daa857fff32212b", "is_disabled": 0, "rental_uris": {"ios": "https://dc.lft.to/lastmile_qr_scan", "android": "https://dc.lft.to/lastmile_qr_scan"}, "is_reserved": 0}, {"lon": -77.04992083333333, "bike_id": "067e8474baa739c9fa264aaab24c765d", "lat": 38.8999395, "fusion_lon": 0.0, "fusion_lat": 0.0, "type": "electric_scooter", "name": "067e8474baa739c9fa264aaab24c765d", "is_disabled": 0, "rental_uris": {"ios": "https://dc.lft.to/lastmile_qr_scan", "android": "https://dc.lft.to/lastmile_qr_scan"}, "is_reserved": 0}, {"lon": -77.025369, "bike_id": "5ae32d8c1286d1203792584f8dcfdbda", "lat": 38.904126166666664, "fusion_lon": 0.0, "fusion_lat": 0.0, "type": "electric_scooter", "name": "5ae32d8c1286d1203792584f8dcfdbda", "is_disabled": 0, "rental_uris": {"ios": "https://dc.lft.to/lastmile_qr_scan", "android": "https://dc.lft.to/lastmile_qr_scan"}, "is_reserved": 0}, {"lon": -77.077934, "bike_id": "7422b639913c6937f6e75b99aa660769", "lat": 38.9960145, "fusion_lon": 0.0, "fusion_lat": 0.0, "type": "electric_bike", "name": "7422b639913c6937f6e75b99aa660769", "is_disabled": 0, "rental_uris": {"ios": "https://dc.lft.to/lastmile_qr_scan", "android": "https://dc.lft.to/lastmile_qr_scan"}, "is_reserved": 0}, {"lon": -77.06580616666666, "bike_id": "51185775d77416b3b5831b1bf6cd03cf", "lat": 38.911241833333335, "fusion_lon": 0.0, "fusion_lat": 0.0, "type": "electric_bike", "name": "51185775d77416b3b5831b1bf6cd03cf", "is_disabled": 0, "rental_uris": {"ios": "https://dc.lft.to/lastmile_qr_scan", "android": "https://dc.lft.to/lastmile_qr_scan"}, "is_reserved": 0}, {"lon": -77.00130766666666, "bike_id": "a9e8b320b10b360193e94e675f9d6d12", "lat": 38.885239, "fusion_lon": 0.0, "fusion_lat": 0.0, "type": "electric_scooter", "name": "a9e8b320b10b360193e94e675f9d6d12", "is_disabled": 0, "rental_uris": {"ios": "https://dc.lft.to/lastmile_qr_scan", "android": "https://dc.lft.to/lastmile_qr_scan"}, "is_reserved": 0}, {"lon": -76.977721, "bike_id": "e3336e07e465cdcf600641d85119d82d", "lat": 38.89897933333334, "fusion_lon": 0.0, "fusion_lat": 0.0, "type": "electric_scooter", "name": "e3336e07e465cdcf600641d85119d82d", "is_disabled": 0, "rental_uris": {"ios": "https://dc.lft.to/lastmile_qr_scan", "android": "https://dc.lft.to/lastmile_qr_scan"}, "is_reserved": 0}, {"lon": -77.04340216666667, "bike_id": "65d3a1fc95d2a76860a9d797c179d657", "lat": 38.900410666666666, "fusion_lon": 0.0, "fusion_lat": 0.0, "type": "electric_scooter", "name": "65d3a1fc95d2a76860a9d797c179d657", "is_disabled": 0, "rental_uris": {"ios": "https://dc.lft.to/lastmile_qr_scan", "android": "https://dc.lft.to/lastmile_qr_scan"}, "is_reserved": 0}, {"lon": -77.00039416666667, "bike_id": "0d2b935a43e1b7f7d2583e0e2d2c002e", "lat": 38.9680975, "fusion_lon": 0.0, "fusion_lat": 0.0, "type": "electric_bike", "name": "0d2b935a43e1b7f7d2583e0e2d2c002e", "is_disabled": 0, "rental_uris": {"ios": "https://dc.lft.to/lastmile_qr_scan", "android": "https://dc.lft.to/lastmile_qr_scan"}, "is_reserved": 0}, {"lon": -77.0376725, "bike_id": "b29ef65bc579ec141f507105aa7238db", "lat": 38.9294125, "fusion_lon": 0.0, "fusion_lat": 0.0, "type": "electric_scooter", "name": "b29ef65bc579ec141f507105aa7238db", "is_disabled": 0, "rental_uris": {"ios": "https://dc.lft.to/lastmile_qr_scan", "android": "https://dc.lft.to/lastmile_qr_scan"}, "is_reserved": 0}, {"lon": -77.02376483333333, "bike_id": "be6db30e81ca60f6b02cfb267228053c", "lat": 38.90203183333333, "fusion_lon": 0.0, "fusion_lat": 0.0, "type": "electric_scooter", "name": "be6db30e81ca60f6b02cfb267228053c", "is_disabled": 0, "rental_uris": {"ios": "https://dc.lft.to/lastmile_qr_scan", "android": "https://dc.lft.to/lastmile_qr_scan"}, "is_reserved": 0}, {"lon": -77.00069116666667, "bike_id": "99270ef6885189d2a59af7f4eca1de43", "lat": 38.897317666666666, "fusion_lon": 0.0, "fusion_lat": 0.0, "type": "electric_scooter", "name": "99270ef6885189d2a59af7f4eca1de43", "is_disabled": 0, "rental_uris": {"ios": "https://dc.lft.to/lastmile_qr_scan", "android": "https://dc.lft.to/lastmile_qr_scan"}, "is_reserved": 0}, {"lon": -77.00546133333333, "bike_id": "117f964390b7b800c5a045503409a1d6", "lat": 38.874565833333335, "fusion_lon": 0.0, "fusion_lat": 0.0, "type": "electric_scooter", "name": "117f964390b7b800c5a045503409a1d6", "is_disabled": 0, "rental_uris": {"ios": "https://dc.lft.to/lastmile_qr_scan", "android": "https://dc.lft.to/lastmile_qr_scan"}, "is_reserved": 0}, {"lon": -77.03346666666667, "bike_id": "fcfb169c1fb8eecf8843daf83ccfcca6", "lat": 38.897214166666664, "fusion_lon": 0.0, "fusion_lat": 0.0, "type": "electric_scooter", "name": "fcfb169c1fb8eecf8843daf83ccfcca6", "is_disabled": 0, "rental_uris": {"ios": "https://dc.lft.to/lastmile_qr_scan", "android": "https://dc.lft.to/lastmile_qr_scan"}, "is_reserved": 0}, {"lon": -77.0541925, "bike_id": "6ac5a21aa970c2e22141f6fa6624acff", "lat": 38.901397833333334, "fusion_lon": 0.0, "fusion_lat": 0.0, "type": "electric_scooter", "name": "6ac5a21aa970c2e22141f6fa6624acff", "is_disabled": 0, "rental_uris": {"ios": "https://dc.lft.to/lastmile_qr_scan", "android": "https://dc.lft.to/lastmile_qr_scan"}, "is_reserved": 0}, {"lon": -77.0163445, "bike_id": "655348dddb755966c6325f49e9f142b4", "lat": 38.90106466666667, "fusion_lon": 0.0, "fusion_lat": 0.0, "type": "electric_scooter", "name": "655348dddb755966c6325f49e9f142b4", "is_disabled": 0, "rental_uris": {"ios": "https://dc.lft.to/lastmile_qr_scan", "android": "https://dc.lft.to/lastmile_qr_scan"}, "is_reserved": 0}, {"lon": -77.0366135, "bike_id": "196d4190f92bf7ea94f98bdd3935c5b0", "lat": 38.92094516666667, "fusion_lon": 0.0, "fusion_lat": 0.0, "type": "electric_scooter", "name": "196d4190f92bf7ea94f98bdd3935c5b0", "is_disabled": 0, "rental_uris": {"ios": "https://dc.lft.to/lastmile_qr_scan", "android": "https://dc.lft.to/lastmile_qr_scan"}, "is_reserved": 0}, {"lon": -77.03203183333333, "bike_id": "c888197107011a0947415276d7685e02", "lat": 38.944091666666665, "fusion_lon": 0.0, "fusion_lat": 0.0, "type": "electric_scooter", "name": "c888197107011a0947415276d7685e02", "is_disabled": 0, "rental_uris": {"ios": "https://dc.lft.to/lastmile_qr_scan", "android": "https://dc.lft.to/lastmile_qr_scan"}, "is_reserved": 0}, {"lon": -77.00200366666667, "bike_id": "ba57588feedcf74477df95f9c6b3ca25", "lat": 38.90241433333333, "fusion_lon": 0.0, "fusion_lat": 0.0, "type": "electric_scooter", "name": "ba57588feedcf74477df95f9c6b3ca25", "is_disabled": 0, "rental_uris": {"ios": "https://dc.lft.to/lastmile_qr_scan", "android": "https://dc.lft.to/lastmile_qr_scan"}, "is_reserved": 0}, {"lon": -77.03639366666667, "bike_id": "19dde2670379c9368baf9d555e4a8b94", "lat": 38.91829283333333, "fusion_lon": 0.0, "fusion_lat": 0.0, "type": "electric_scooter", "name": "19dde2670379c9368baf9d555e4a8b94", "is_disabled": 0, "rental_uris": {"ios": "https://dc.lft.to/lastmile_qr_scan", "android": "https://dc.lft.to/lastmile_qr_scan"}, "is_reserved": 0}, {"lon": -77.02904916666667, "bike_id": "606cb9dc0f70997a3375929bb149411e", "lat": 38.916766, "fusion_lon": 0.0, "fusion_lat": 0.0, "type": "electric_scooter", "name": "606cb9dc0f70997a3375929bb149411e", "is_disabled": 0, "rental_uris": {"ios": "https://dc.lft.to/lastmile_qr_scan", "android": "https://dc.lft.to/lastmile_qr_scan"}, "is_reserved": 0}, {"lon": -77.07382783333334, "bike_id": "8199d74bafa64786ec54a4bb4b03d473", "lat": 38.962166333333336, "fusion_lon": 0.0, "fusion_lat": 0.0, "type": "electric_scooter", "name": "8199d74bafa64786ec54a4bb4b03d473", "is_disabled": 0, "rental_uris": {"ios": "https://dc.lft.to/lastmile_qr_scan", "android": "https://dc.lft.to/lastmile_qr_scan"}, "is_reserved": 0}, {"lon": -77.02672683333333, "bike_id": "75e9b64da7bdeffbd78ad53f4f020597", "lat": 38.90251383333333, "fusion_lon": 0.0, "fusion_lat": 0.0, "type": "electric_scooter", "name": "75e9b64da7bdeffbd78ad53f4f020597", "is_disabled": 0, "rental_uris": {"ios": "https://dc.lft.to/lastmile_qr_scan", "android": "https://dc.lft.to/lastmile_qr_scan"}, "is_reserved": 0}, {"lon": -77.03445083333334, "bike_id": "b00e2b08bdb5439a8379c770e27a7505", "lat": 38.93614616666667, "fusion_lon": 0.0, "fusion_lat": 0.0, "type": "electric_scooter", "name": "b00e2b08bdb5439a8379c770e27a7505", "is_disabled": 0, "rental_uris": {"ios": "https://dc.lft.to/lastmile_qr_scan", "android": "https://dc.lft.to/lastmile_qr_scan"}, "is_reserved": 0}, {"lon": -76.98531616666666, "bike_id": "8cb21b00bc93c39ef1b3955e7df79058", "lat": 38.866839666666664, "fusion_lon": 0.0, "fusion_lat": 0.0, "type": "electric_scooter", "name": "8cb21b00bc93c39ef1b3955e7df79058", "is_disabled": 0, "rental_uris": {"ios": "https://dc.lft.to/lastmile_qr_scan", "android": "https://dc.lft.to/lastmile_qr_scan"}, "is_reserved": 0}, {"lon": -77.014823, "bike_id": "aeb94c78f499b76c702a677b1da0ef69", "lat": 38.95865583333333, "fusion_lon": 0.0, "fusion_lat": 0.0, "type": "electric_scooter", "name": "aeb94c78f499b76c702a677b1da0ef69", "is_disabled": 0, "rental_uris": {"ios": "https://dc.lft.to/lastmile_qr_scan", "android": "https://dc.lft.to/lastmile_qr_scan"}, "is_reserved": 0}, {"lon": -77.11574633333333, "bike_id": "7ba1e8f9df21b40d0c744848b7a2f5cd", "lat": 38.993471, "fusion_lon": 0.0, "fusion_lat": 0.0, "type": "electric_bike", "name": "7ba1e8f9df21b40d0c744848b7a2f5cd", "is_disabled": 0, "rental_uris": {"ios": "https://dc.lft.to/lastmile_qr_scan", "android": "https://dc.lft.to/lastmile_qr_scan"}, "is_reserved": 0}, {"lon": -77.04159783333333, "bike_id": "e1a9b1e8874c85d3aeede4ad183555dc", "lat": 38.9062955, "fusion_lon": 0.0, "fusion_lat": 0.0, "type": "electric_scooter", "name": "e1a9b1e8874c85d3aeede4ad183555dc", "is_disabled": 0, "rental_uris": {"ios": "https://dc.lft.to/lastmile_qr_scan", "android": "https://dc.lft.to/lastmile_qr_scan"}, "is_reserved": 0}, {"lon": -76.99293166666666, "bike_id": "d6e90dfd2fccbedbc09bec89ccad49ef", "lat": 38.89889133333333, "fusion_lon": 0.0, "fusion_lat": 0.0, "type": "electric_scooter", "name": "d6e90dfd2fccbedbc09bec89ccad49ef", "is_disabled": 0, "rental_uris": {"ios": "https://dc.lft.to/lastmile_qr_scan", "android": "https://dc.lft.to/lastmile_qr_scan"}, "is_reserved": 0}, {"lon": -77.031988, "bike_id": "1fddc6c6feb0f213567100a54661ca25", "lat": 38.9278305, "fusion_lon": 0.0, "fusion_lat": 0.0, "type": "electric_scooter", "name": "1fddc6c6feb0f213567100a54661ca25", "is_disabled": 0, "rental_uris": {"ios": "https://dc.lft.to/lastmile_qr_scan", "android": "https://dc.lft.to/lastmile_qr_scan"}, "is_reserved": 0},