{"data": {"bikes": [{"fusion_lat": 0.0, "name": "24bc1fec72ffb96ee1c3a5745907f090", "is_disabled": 0, "rental_uris": {"android": "https://dc.lft.to/lastmile_qr_scan", "ios": "https://dc.lft.to/lastmile_qr_scan"}, "fusion_lon": 0.0, "lat": 38.901469666666664, "bike_id": "24bc1fec72ffb96ee1c3a5745907f090", "type": "electric_scooter", "is_reserved": 0, "lon": -77.04185833333334}, {"fusion_lat": 0.0, "name": "9a093234934c5a055e95918d8894b9aa", "is_disabled": 0, "rental_uris": {"android": "https://dc.lft.to/lastmile_qr_scan", "ios": "https://dc.lft.to/lastmile_qr_scan"}, "fusion_lon": 0.0, "lat": 38.903977166666664, "bike_id": "9a093234934c5a055e95918d8894b9aa", "type": "electric_scooter", "is_reserved": 0, "lon": -77.00741083333334}, {"fusion_lat": 0.0, "name": "436715490a6a15885b83cdd0db0b8550", "is_disabled": 0, "rental_uris": {"android": "https://dc.lft.to/lastmile_qr_scan", "ios": "https://dc.lft.to/lastmile_qr_scan"}, "fusion_lon": 0.0, "lat": 38.88415233333333, "bike_id": "436715490a6a15885b83cdd0db0b8550", "type": "electric_scooter", "is_reserved": 0, "lon": -77.02319683333333}, {"fusion_lat": 0.0, "name": "626d55ba405dd271dcaffbb590afb060", "is_disabled": 0, "rental_uris": {"android": "https://dc.lft.to/lastmile_qr_scan", "ios": "https://dc.lft.to/lastmile_qr_scan"}, "fusion_lon": 0.0, "lat": 38.934162666666666, "bike_id": "626d55ba405dd271dcaffbb590afb060", "type": "electric_bike", "is_reserved": 0, "lon": -77.0430765}, {"fusion_lat": 0.0, "name": "7f34a792fca086c1d324ebedb926b529", "is_disabled": 0, "rental_uris": {"android": "https://dc.lft.to/lastmile_qr_scan", "ios": "https://dc.lft.to/lastmile_qr_scan"}, "fusion_lon": 0.0, "lat": 38.915602666666665, "bike_id": "7f34a792fca086c1d324ebedb926b529", "type": "electric_scooter", "is_reserved": 0, "lon": -77.03109666666667}, {"fusion_lat": 0.0, "name": "8349c873796b3e0483e4aa1d551fe221", "is_disabled": 0, "rental_uris": {"android": "https://dc.lft.to/lastmile_qr_scan", "ios": "https://dc.lft.to/lastmile_qr_scan"}, "fusion_lon": 0.0, "lat": 38.905458333333335, "bike_id": "8349c873796b3e0483e4aa1d551fe221", "type": "electric_scooter", "is_reserved": 0, "lon": -77.050034}, {"fusion_lat": 0.0, "name": "a473f00bb10d992e0eb5080c4165a692", "is_disabled": 0, "rental_uris": {"android": "https://dc.lft.to/lastmile_qr_scan", "ios": "https://dc.lft.to/lastmile_qr_scan"}, "fusion_lon": 0.0, "lat": 38.96669933333333, "bike_id": "a473f00bb10d992e0eb5080c4165a692", "type": "electric_scooter", "is_reserved": 0, "lon": -77.025555}, {"fusion_lat": 0.0, "name": "bcabd43cbbfda752ec9a71007d433ade", "is_disabled": 0, "rental_uris": {"android": "https://dc.lft.to/lastmile_qr_scan", "ios": "https://dc.lft.to/lastmile_qr_scan"}, "fusion_lon": 0.0, "lat": 38.920753166666664, "bike_id": "bcabd43cbbfda752ec9a71007d433ade", "type": "electric_scooter", "is_reserved": 0, "lon": -77.02312583333334}, {"fusion_lat": 0.0, "name": "5f954554b34b3175f803f6b35b8f99f4", "is_disabled": 0, "rental_uris": {"android": "https://dc.lft.to/lastmile_qr_scan", "ios": "https://dc.lft.to/lastmile_qr_scan"}, "fusion_lon": 0.0, "lat": 38.9264135, "bike_id": "5f954554b34b3175f803f6b35b8f99f4", "type": "electric_scooter", "is_reserved": 0, "lon": -77.03394666666667}, {"fusion_lat": 0.0, "name": "6725f731f0b78762808ad37357c72caf", "is_disabled": 0, "rental_uris": {"android": "https://dc.lft.to/lastmile_qr_scan", "ios": "https://dc.lft.to/lastmile_qr_scan"}, "fusion_lon": 0.0, "lat": 38.905863833333335, "bike_id": "6725f731f0b78762808ad37357c72caf", "type": "electric_scooter", "is_reserved": 0, "lon": -77.03418283333333}, {"fusion_lat": 0.0, "name": "8eb2e5a4dad0ca8ce2741993b96ec425", "is_disabled": 0, "rental_uris": {"android": "https://dc.lft.to/lastmile_qr_scan", "ios": "https://dc.lft.to/lastmile_qr_scan"}, "fusion_lon": 0.0, "lat": 38.92032183333333, "bike_id": "8eb2e5a4dad0ca8ce2741993b96ec425", "type": "electric_scooter", "is_reserved": 0, "lon": -77.07140716666666}, {"fusion_lat": 0.0, "name": "f8e167bc97d841b462ea661511319892", "is_disabled": 0, "rental_uris": {"android": "https://dc.lft.to/lastmile_qr_scan", "ios": "https://dc.lft.to/lastmile_qr_scan"}, "fusion_lon": 0.0, "lat": 38.887670166666666, "bike_id": "f8e167bc97d841b462ea661511319892", "type": "electric_scooter", "is_reserved": 0, "lon": -77.0294565}, {"fusion_lat": 0.0, "name": "71069b5c54e3fdacf2188e34dfdf7fe2", "is_disabled": 0, "rental_uris": {"android": "https://dc.lft.to/lastmile_qr_scan", "ios": "https://dc.lft.to/lastmile_qr_scan"}, "fusion_lon": 0.0, "lat": 38.91195066666667, "bike_id": "71069b5c54e3fdacf2188e34dfdf7fe2", "type": "electric_scooter", "is_reserved": 0, "lon": -77.03183916666667}, {"fusion_lat": 0.0, "name": "9ba24615f6cc9c57df30bb28b7d57f18", "is_disabled": 0, "rental_uris": {"android": "https://dc.lft.to/lastmile_qr_scan", "ios": "https://dc.lft.to/lastmile_qr_scan"}, "fusion_lon": 0.0, "lat": 38.9134135, "bike_id": "9ba24615f6cc9c57df30bb28b7d57f18", "type": "electric_bike", "is_reserved": 0, "lon": -76.988915}, {"fusion_lat": 0.0, "name": "a2e60231e264ad8f70149a3d7bac8b47", "is_disabled": 0, "rental_uris": {"android": "https://dc.lft.to/lastmile_qr_scan", "ios": "https://dc.lft.to/lastmile_qr_scan"}, "fusion_lon": 0.0, "lat": 38.903933333333335, "bike_id": "a2e60231e264ad8f70149a3d7bac8b47", "type": "electric_scooter", "is_reserved": 0, "lon": -77.048862}, {"fusion_lat": 0.0, "name": "766c2dc617619b89748f462b1f741c21", "is_disabled": 0, "rental_uris": {"android": "https://dc.lft.to/lastmile_qr_scan", "ios": "https://dc.lft.to/lastmile_qr_scan"}, "fusion_lon": 0.0, "lat": 38.942453666666665, "bike_id": "766c2dc617619b89748f462b1f741c21", "type": "electric_scooter", "is_reserved": 0, "lon": -77.03633316666667}, {"fusion_lat": 0.0, "name": "217abe1e4909af8565a685400dbacbd0", "is_disabled": 0, "rental_uris": {"android": "https://dc.lft.to/lastmile_qr_scan", "ios": "https://dc.lft.to/lastmile_qr_scan"}, "fusion_lon": 0.0, "lat": 38.91675216666667, "bike_id": "217abe1e4909af8565a685400dbacbd0", "type": "electric_scooter", "is_reserved": 0, "lon": -77.02722266666666}, {"fusion_lat": 0.0, "name": "c4231d6b28c0532dd01d8220b6eebe9b", "is_disabled": 0, "rental_uris": {"android": "https://dc.lft.to/lastmile_qr_scan", "ios": "https://dc.lft.to/lastmile_qr_scan"}, "fusion_lon": 0.0, "lat": 38.886488, "bike_id": "c4231d6b28c0532dd01d8220b6eebe9b", "type": "electric_scooter", "is_reserved": 0, "lon": -77.00199433333333}, {"fusion_lat": 0.0, "name": "cf2ab72dbac83ce582eff7398386ebe9", "is_disabled": 0, "rental_uris": {"android": "https://dc.lft.to/lastmile_qr_scan", "ios": "https://dc.lft.to/lastmile_qr_scan"}, "fusion_lon": 0.0, "lat": 38.901386, "bike_id": "cf2ab72dbac83ce582eff7398386ebe9", "type": "electric_scooter", "is_reserved": 0, "lon": -76.99120933333333}, {"fusion_lat": 0.0, "name": "309da96720528feda811bdc2bc9518cc", "is_disabled": 0, "rental_uris": {"android": "https://dc.lft.to/lastmile_qr_scan", "ios": "https://dc.lft.to/lastmile_qr_scan"}, "fusion_lon": 0.0, "lat": 38.87382616666667, "bike_id": "309da96720528feda811bdc2bc9518cc", "type": "electric_scooter", "is_reserved": 0, "lon": -77.00063816666666}, {"fusion_lat": 0.0, "name": "3b4a5b103f7ecaecfe8cc29b9898d8c1", "is_disabled": 0, "rental_uris": {"android": "https://dc.lft.to/lastmile_qr_scan", "ios": "https://dc.lft.to/lastmile_qr_scan"}, "fusion_lon": 0.0, "lat": 38.914563333333334, "bike_id": "3b4a5b103f7ecaecfe8cc29b9898d8c1", "type": "electric_scooter", "is_reserved": 0, "lon": -77.00211583333333}, {"fusion_lat": 0.0, "name": "8963f15d4d0a03de9bc9b55e1979b23b", "is_disabled": 0, "rental_uris": {"android": "https://dc.lft.to/lastmile_qr_scan", "ios": "https://dc.lft.to/lastmile_qr_scan"}, "fusion_lon": 0.0, "lat": 38.892167666666666, "bike_id": "8963f15d4d0a03de9bc9b55e1979b23b", "type": "electric_scooter", "is_reserved": 0, "lon": -77.026551}, {"fusion_lat": 0.0, "name": "16afdfda3e5e9e10f5b4628619b51eb2", "is_disabled": 0, "rental_uris": {"android": "https://dc.lft.to/lastmile_qr_scan", "ios": "https://dc.lft.to/lastmile_qr_scan"}, "fusion_lon": 0.0, "lat": 38.935001166666666, "bike_id": "16afdfda3e5e9e10f5b4628619b51eb2", "type": "electric_scooter", "is_reserved": 0, "lon": -77.03637283333333}, {"fusion_lat": 0.0, "name": "edd76f16f78ef0c953eb562330b32e61", "is_disabled": 0, "rental_uris": {"android": "https://dc.lft.to/lastmile_qr_scan", "ios": "https://dc.lft.to/lastmile_qr_scan"}, "fusion_lon": 0.0, "lat": 38.90008516666666, "bike_id": "edd76f16f78ef0c953eb562330b32e61", "type": "electric_scooter", "is_reserved": 0, "lon": -77.04492566666667}, {"fusion_lat": 0.0, "name": "c3ee98f493096de9889abeeb90ec552d", "is_disabled": 0, "rental_uris": {"android": "https://dc.lft.to/lastmile_qr_scan", "ios": "https://dc.lft.to/lastmile_qr_scan"}, "fusion_lon": 0.0, "lat": 38.91711216666667, "bike_id": "c3ee98f493096de9889abeeb90ec552d", "type": "electric_scooter", "is_reserved": 0, "lon": -77.02313383333333}, {"fusion_lat": 0.0, "name": "e0b705b1e885502a9e2353408654cc74", "is_disabled": 0, "rental_uris": {"android": "https://dc.lft.to/lastmile_qr_scan", "ios": "https://dc.lft.to/lastmile_qr_scan"}, "fusion_lon": 0.0, "lat": 38.8975545, "bike_id": "e0b705b1e885502a9e2353408654cc74", "type": "electric_scooter", "is_reserved": 0, "lon": -77.02718883333333}, {"fusion_lat": 0.0, "name": "91ae232b0a97749774d2c8063518b40e", "is_disabled": 0, "rental_uris": {"android": "https://dc.lft.to/lastmile_qr_scan", "ios": "https://dc.lft.to/lastmile_qr_scan"}, "fusion_lon": 0.0, "lat": 38.9505755, "bike_id": "91ae232b0a97749774d2c8063518b40e", "type": "electric_scooter", "is_reserved": 0, "lon": -77.08027933333334}, {"fusion_lat": 0.0, "name": "df6778983b81837d98f7a1bc5d318018", "is_disabled": 0, "rental_uris": {"android": "https://dc.lft.to/lastmile_qr_scan", "ios": "https://dc.lft.to/lastmile_qr_scan"}, "fusion_lon": 0.0, "lat": 38.92412083333333, "bike_id": "df6778983b81837d98f7a1bc5d318018", "type": "electric_scooter", "is_reserved": 0, "lon": -77.0271905}, {"fusion_lat": 0.0, "name": "978fab67cf17478d2417f99da31d76a5", "is_disabled": 0, "rental_uris": {"android": "https://dc.lft.to/lastmile_qr_scan", "ios": "https://dc.lft.to/lastmile_qr_scan"}, "fusion_lon": 0.0, "lat": 38.961197, "bike_id": "978fab67cf17478d2417f99da31d76a5", "type": "electric_scooter", "is_reserved": 0, "lon": -77.027881}, {"fusion_lat": 0.0, "name": "80e8cc2d8658ff29395016d730ab778e", "is_disabled": 0, "rental_uris": {"android": "https://dc.lft.to/lastmile_qr_scan", "ios": "https://dc.lft.to/lastmile_qr_scan"}, "fusion_lon": 0.0, "lat": 38.9181915, "bike_id": "80e8cc2d8658ff29395016d730ab778e", "type": "electric_scooter", "is_reserved": 0, "lon": -77.0368015}, {"fusion_lat": 0.0, "name": "277242aceb2ff535e550044f060d90dd", "is_disabled": 0, "rental_uris": {"android": "https://dc.lft.to/lastmile_qr_scan", "ios": "https://dc.lft.to/lastmile_qr_scan"}, "fusion_lon": 0.0, "lat": 38.925682, "bike_id": "277242aceb2ff535e550044f060d90dd", "type": "electric_scooter", "is_reserved": 0, "lon": -77.04375416666667}, {"fusion_lat": 0.0, "name": "a7d82bc336fa0d04d0b898fa6a1c76b3", "is_disabled": 0, "rental_uris": {"android": "https://dc.lft.to/lastmile_qr_scan", "ios": "https://dc.lft.to/lastmile_qr_scan"}, "fusion_lon": 0.0, "lat": 38.9335115, "bike_id": "a7d82bc336fa0d04d0b898fa6a1c76b3", "type": "electric_scooter", "is_reserved": 0, "lon": -77.02497833333334}, {"fusion_lat": 0.0, "name": "63130b45b796993a5207b42ac1bafb51", "is_disabled": 0, "rental_uris": {"android": "https://dc.lft.to/lastmile_qr_scan", "ios": "https://dc.lft.to/lastmile_qr_scan"}, "fusion_lon": 0.0, "lat": 38.892199, "bike_id": "63130b45b796993a5207b42ac1bafb51", "type": "electric_scooter", "is_reserved": 0, "lon": -77.04191416666667}, {"fusion_lat": 0.0, "name": "1987feeba7e66f850aea1f89ccefc3e9", "is_disabled": 0, "rental_uris": {"android": "https://dc.lft.to/lastmile_qr_scan", "ios": "https://dc.lft.to/lastmile_qr_scan"}, "fusion_lon": 0.0, "lat": 38.9072805, "bike_id": "1987feeba7e66f850aea1f89ccefc3e9", "type": "electric_scooter", "is_reserved": 0, "lon": -77.049881}, {"fusion_lat": 0.0, "name": "5eb88a871d6fc2d7d750e7d9bbc1ec57", "is_disabled": 0, "rental_uris": {"android": "https://dc.lft.to/lastmile_qr_scan", "ios": "https://dc.lft.to/lastmile_qr_scan"}, "fusion_lon": 0.0, "lat": 38.925989333333334, "bike_id": "5eb88a871d6fc2d7d750e7d9bbc1ec57", "type": "electric_scooter", "is_reserved": 0, "lon": -77.021616}, {"fusion_lat": 0.0, "name": "c68b64b48eb0c66eef5b1ce5ae640835", "is_disabled": 0, "rental_uris": {"android": "https://dc.lft.to/lastmile_qr_scan", "ios": "https://dc.lft.to/lastmile_qr_scan"}, "fusion_lon": 0.0, "lat": 38.952674333333334, "bike_id": "c68b64b48eb0c66eef5b1ce5ae640835", "type": "electric_bike", "is_reserved": 0, "lon": -76.9987925}, {"fusion_lat": 0.0, "name": "293c1dc31702fe20fdf74f1c28c4ad4f", "is_disabled": 0, "rental_uris": {"android": "https://dc.lft.to/lastmile_qr_scan", "ios": "https://dc.lft.to/lastmile_qr_scan"}, "fusion_lon": 0.0, "lat": 38.95510316666667, "bike_id": "293c1dc31702fe20fdf74f1c28c4ad4f", "type": "electric_scooter", "is_reserved": 0, "lon": -77.02840866666666}, {"fusion_lat": 0.0, "name": "907ae25323fabff90e0eb7d488feb41e", "is_disabled": 0, "rental_uris": {"android": "https://dc.lft.to/lastmile_qr_scan", "ios": "https://dc.lft.to/lastmile_qr_scan"}, "fusion_lon": 0.0, "lat": 38.941168166666664, "bike_id": "907ae25323fabff90e0eb7d488feb41e", "type": "electric_scooter", "is_reserved": 0, "lon": -77.00047516666666}, {"fusion_lat": 0.0, "name": "958aee20683dafe642cfe48646334c46", "is_disabled": 0, "rental_uris": {"android": "https://dc.lft.to/lastmile_qr_scan", "ios": "https://dc.lft.to/lastmile_qr_scan"}, "fusion_lon": 0.0, "lat": 38.903946833333336, "bike_id": "958aee20683dafe642cfe48646334c46", "type": "electric_scooter", "is_reserved": 0, "lon": -77.00194833333333}, {"fusion_lat": 0.0, "name": "04da1d7828127b84fc8d2bb9018cc9c5", "is_disabled": 0, "rental_uris": {"android": "https://dc.lft.to/lastmile_qr_scan", "ios": "https://dc.lft.to/lastmile_qr_scan"}, "fusion_lon": 0.0, "lat": 38.937568666666664, "bike_id": "04da1d7828127b84fc8d2bb9018cc9c5", "type": "electric_bike", "is_reserved": 0, "lon": -76.95824033333334}, {"fusion_lat": 0.0, "name": "26d7fe217803f56f5581295272c377a7", "is_disabled": 0, "rental_uris": {"android": "https://dc.lft.to/lastmile_qr_scan", "ios": "https://dc.lft.to/lastmile_qr_scan"}, "fusion_lon": 0.0, "lat": 38.891887833333335, "bike_id": "26d7fe217803f56f5581295272c377a7", "type": "electric_scooter", "is_reserved": 0, "lon": -76.9984185}, {"fusion_lat": 0.0, "name": "1a9ad83c3fd29d4cfb9b303a6211ec14", "is_disabled": 0, "rental_uris": {"android": "https://dc.lft.to/lastmile_qr_scan", "ios": "https://dc.lft.to/lastmile_qr_scan"}, "fusion_lon": 0.0, "lat": 38.8996075, "bike_id": "1a9ad83c3fd29d4cfb9b303a6211ec14", "type": "electric_bike", "is_reserved": 0, "lon": -76.98674833333334}, {"fusion_lat": 0.0, "name": "25b2a2b22417e6a3a73149a80c0f1ab8", "is_disabled": 0, "rental_uris": {"android": "https://dc.lft.to/lastmile_qr_scan", "ios": "https://dc.lft.to/lastmile_qr_scan"}, "fusion_lon": 0.0, "lat": 38.919320666666664, "bike_id": "25b2a2b22417e6a3a73149a80c0f1ab8", "type": "electric_scooter", "is_reserved": 0, "lon": -77.049031}, {"fusion_lat": 0.0, "name": "8f6e8e22aae270fb92c2ff7b2bd719f8", "is_disabled": 0, "rental_uris": {"android": "https://dc.lft.to/lastmile_qr_scan", "ios": "https://dc.lft.to/lastmile_qr_scan"}, "fusion_lon": 0.0, "lat": 38.906436, "bike_id": "8f6e8e22aae270fb92c2ff7b2bd719f8", "type": "electric_scooter", "is_reserved": 0, "lon": -77.04160516666667}, {"fusion_lat": 0.0, "name": "e9583fe19bf030be8a54e8a6e565afa3", "is_disabled": 0, "rental_uris": {"android": "https://dc.lft.to/lastmile_qr_scan", "ios": "https://dc.lft.to/lastmile_qr_scan"}, "fusion_lon": 0.0, "lat": 38.90773183333334, "bike_id": "e9583fe19bf030be8a54e8a6e565afa3", "type": "electric_scooter", "is_reserved": 0, "lon": -76.99714533333334}, {"fusion_lat": 0.0, "name": "a2471cd7cbfae1b9d9eb5b41f4a20f2d", "is_disabled": 0, "rental_uris": {"android": "https://dc.lft.to/lastmile_qr_scan", "ios": "https://dc.lft.to/lastmile_qr_scan"}, "fusion_lon": 0.0, "lat": 38.893851833333336, "bike_id": "a2471cd7cbfae1b9d9eb5b41f4a20f2d", "type": "electric_scooter", "is_reserved": 0, "lon": -76.923013}, {"fusion_lat": 0.0, "name": "b749c61f965aeadd3555bed7e9e79159", "is_disabled": 0, "rental_uris": {"android": "https://dc.lft.to/lastmile_qr_scan", "ios": "https://dc.lft.to/lastmile_qr_scan"}, "fusion_lon": 0.0, "lat": 38.9120855, "bike_id": "b749c61f965aeadd3555bed7e9e79159", "type": "electric_scooter", "is_reserved": 0, "lon": -77.03854033333333}, {"fusion_lat": 0.0, "name": "b0d932e4d2dc29b94e4547134bb7a210", "is_disabled": 0, "rental_uris": {"android": "https://dc.lft.to/lastmile_qr_scan", "ios": "https://dc.lft.to/lastmile_qr_scan"}, "fusion_lon": 0.0, "lat": 38.9102045, "bike_id": "b0d932e4d2dc29b94e4547134bb7a210", "type": "electric_scooter", "is_reserved": 0, "lon": -77.0689795}, {"fusion_lat": 0.0, "name": "bdfee9df835984413c605468f226cc7e", "is_disabled": 0, "rental_uris": {"android": "https://dc.lft.to/lastmile_qr_scan", "ios": "https://dc.lft.to/lastmile_qr_scan"}, "fusion_lon": 0.0, "lat": 38.8908965, "bike_id": "bdfee9df835984413c605468f226cc7e", "type": "electric_scooter", "is_reserved": 0, "lon": -77.003407}, {"fusion_lat": 0.0, "name": "27762b953bb33577b427a543c030c90e", "is_disabled": 0, "rental_uris": {"android": "https://dc.lft.to/lastmile_qr_scan", "ios": "https://dc.lft.to/lastmile_qr_scan"}, "fusion_lon": 0.0, "lat": 38.95423233333333, "bike_id": "27762b953bb33577b427a543c030c90e", "type": "electric_scooter", "is_reserved": 0, "lon": -77.02763266666666}, {"fusion_lat": 0.0, "name": "d2abb2cba5218e44f4b37e586f78f470", "is_disabled": 0, "rental_uris": {"android": "https://dc.lft.to/lastmile_qr_scan", "ios": "https://dc.lft.to/lastmile_qr_scan"}, "fusion_lon": 0.0, "lat": 38.91697583333333, "bike_id": "d2abb2cba5218e44f4b37e586f78f470", "type": "electric_scooter", "is_reserved": 0, "lon": -77.02351466666667}, {"fusion_lat": 0.0, "name": "849848197ea1a35a62922292331bdd17", "is_disabled": 0, "rental_uris": {"android": "https://dc.lft.to/lastmile_qr_scan", "ios": "https://dc.lft.to/lastmile_qr_scan"}, "fusion_lon": 0.0, "lat": 38.88538333333333, "bike_id": "849848197ea1a35a62922292331bdd17", "type": "electric_scooter", "is_reserved": 0, "lon": -77.00067033333333}, {"fusion_lat": 0.0, "name": "2f751d1760c477f52d2a35fb5fbb880b", "is_disabled": 0, "rental_uris": {"android": "https://dc.lft.to/lastmile_qr_scan", "ios": "https://dc.lft.to/lastmile_qr_scan"}, "fusion_lon": 0.0, "lat": 38.92374783333333, "bike_id": "2f751d1760c477f52d2a35fb5fbb880b", "type": "electric_scooter", "is_reserved": 0, "lon": -77.04318683333334}, {"fusion_lat": 0.0, "name": "696b30be71f7db5b5e25cfb83b216228", "is_disabled": 0, "rental_uris": {"android": "https://dc.lft.to/lastmile_qr_scan", "ios": "https://dc.lft.to/lastmile_qr_scan"}, "fusion_lon": 0.0, "lat": 38.885385666666664, "bike_id": "696b30be71f7db5b5e25cfb83b216228", "type": "electric_scooter", "is_reserved": 0, "lon": -77.00063516666667}, {"fusion_lat": 0.0, "name": "37d18b86c089dd1a393e1dc9adaa8438", "is_disabled": 0, "rental_uris": {"android": "https://dc.lft.to/lastmile_qr_scan", "ios": "https://dc.lft.to/lastmile_qr_scan"}, "fusion_lon": 0.0, "lat": 38.877501, "bike_id": "37d18b86c089dd1a393e1dc9adaa8438", "type": "electric_scooter", "is_reserved": 0, "lon": -76.99656433333334}, {"fusion_lat": 0.0, "name": "ea94cdbed9632c8416b269e08f3eac59", "is_disabled": 0, "rental_uris": {"android": "https://dc.lft.to/lastmile_qr_scan", "ios": "https://dc.lft.to/lastmile_qr_scan"}, "fusion_lon": 0.0, "lat": 38.90514666666667, "bike_id": "ea94cdbed9632c8416b269e08f3eac59", "type": "electric_scooter", "is_reserved": 0, "lon": -77.05679666666667}, {"fusion_lat": 0.0, "name": "9d59de2047a825b3580cf536e2591ac8", "is_disabled": 0, "rental_uris": {"android": "https://dc.lft.to/lastmile_qr_scan", "ios": "https://dc.lft.to/lastmile_qr_scan"}, "fusion_lon": 0.0, "lat": 38.904550666666665, "bike_id": "9d59de2047a825b3580cf536e2591ac8", "type": "electric_scooter", "is_reserved": 0, "lon": -77.00168216666667}, {"fusion_lat": 0.0, "name": "c37cb3684ad1a25e31b017b78bd6d58e", "is_disabled": 0, "rental_uris": {"android": "https://dc.lft.to/lastmile_qr_scan", "ios": "https://dc.lft.to/lastmile_qr_scan"}, "fusion_lon": 0.0, "lat": 38.91819733333333, "bike_id": "c37cb3684ad1a25e31b017b78bd6d58e", "type": "electric_scooter", "is_reserved": 0, "lon": -77.03909283333333}, {"fusion_lat": 0.0, "name": "f269e320e74bcdfb8d6b550b78f1f796", "is_disabled": 0, "rental_uris": {"android": "https://dc.lft.to/lastmile_qr_scan", "ios": "https://dc.lft.to/lastmile_qr_scan"}, "fusion_lon": 0.0, "lat": 38.901850333333336, "bike_id": "f269e320e74bcdfb8d6b550b78f1f796", "type": "electric_scooter", "is_reserved": 0, "lon": -77.02744816666667}, {"fusion_lat": 0.0, "name": "054f5c7b11142b17fdbc6e842cf80ac3", "is_disabled": 0, "rental_uris": {"android": "https://dc.lft.to/lastmile_qr_scan", "ios": "https://dc.lft.to/lastmile_qr_scan"}, "fusion_lon": 0.0, "lat": 38.920866333333336, "bike_id": "054f5c7b11142b17fdbc6e842cf80ac3", "type": "electric_scooter", "is_reserved": 0, "lon": -77.02222333333333}, {"fusion_lat": 0.0, "name": "3268e096b0574e680f088ef951ad7e8a", "is_disabled": 0, "rental_uris": {"android": "https://dc.lft.to/lastmile_qr_scan", "ios": "https://dc.lft.to/lastmile_qr_scan"}, "fusion_lon": 0.0, "lat": 38.909823333333335, "bike_id": "3268e096b0574e680f088ef951ad7e8a", "type": "electric_scooter", "is_reserved": 0, "lon": -77.08481866666666}, {"fusion_lat": 0.0, "name": "54a3753523f25ecbea1c0a6251a8a4a5", "is_disabled": 0, "rental_uris": {"android": "https://dc.lft.to/lastmile_qr_scan", "ios": "https://dc.lft.to/lastmile_qr_scan"}, "fusion_lon": 0.0, "lat": 38.926738, "bike_id": "54a3753523f25ecbea1c0a6251a8a4a5", "type": "electric_scooter", "is_reserved": 0, "lon": -77.02786233333333}, {"fusion_lat": 0.0, "name": "72f888edc0285021caf186fe254d957e", "is_disabled": 0, "rental_uris": {"android": "https://dc.lft.to/lastmile_qr_scan", "ios": "https://dc.lft.to/lastmile_qr_scan"}, "fusion_lon": 0.0, "lat": 38.898592, "bike_id": "72f888edc0285021caf186fe254d957e", "type": "electric_scooter", "is_reserved": 0, "lon": -77.0303135}, {"fusion_lat": 0.0, "name": "5922df2d4e272d515acf03f63771b64e", "is_disabled": 0, "rental_uris": {"android": "https://dc.lft.to/lastmile_qr_scan", "ios": "https://dc.lft.to/lastmile_qr_scan"}, "fusion_lon": 0.0, "lat": 38.9172235, "bike_id": "5922df2d4e272d515acf03f63771b64e", "type": "electric_scooter", "is_reserved": 0, "lon": -77.02697433333333}, {"fusion_lat": 0.0, "name": "e559bbc2938ab1a6c908cf4cd0d248fb", "is_disabled": 0, "rental_uris": {"android": "https://dc.lft.to/lastmile_qr_scan", "ios": "https://dc.lft.to/lastmile_qr_scan"}, "fusion_lon": 0.0, "lat": 38.96574116666667, "bike_id": "e559bbc2938ab1a6c908cf4cd0d248fb", "type": "electric_scooter", "is_reserved": 0, "lon": -77.00266033333334}, {"fusion_lat": 0.0, "name": "af0fd463591f950c1653db411f19819e", "is_disabled": 0, "rental_uris": {"android": "https://dc.lft.to/lastmile_qr_scan", "ios": "https://dc.lft.to/lastmile_qr_scan"}, "fusion_lon": 0.0, "lat": 38.86727366666667, "bike_id": "af0fd463591f950c1653db411f19819e", "type": "electric_scooter", "is_reserved": 0, "lon": -76.987929}, {"fusion_lat": 0.0, "name": "bdef6a78c8f76a4123b251c9d16a5979", "is_disabled": 0, "rental_uris": {"android": "https://dc.lft.to/lastmile_qr_scan", "ios": "https://dc.lft.to/lastmile_qr_scan"}, "fusion_lon": 0.0, "lat": 38.92436466666667, "bike_id": "bdef6a78c8f76a4123b251c9d16a5979", "type": "electric_scooter", "is_reserved": 0, "lon": -77.04449966666667}, {"fusion_lat": 0.0, "name": "bd3ed91af6ba803415bed0b2994ca760", "is_disabled": 0, "rental_uris": {"android": "https://dc.lft.to/lastmile_qr_scan", "ios": "https://dc.lft.to/lastmile_qr_scan"}, "fusion_lon": 0.0, "lat": 38.92419266666667, "bike_id": "bd3ed91af6ba803415bed0b2994ca760", "type": "electric_scooter", "is_reserved": 0, "lon": -77.057503}, {"fusion_lat": 0.0, "name": "15860ed464c837d207eb1c42dc18ef0b", "is_disabled": 0, "rental_uris": {"android": "https://dc.lft.to/lastmile_qr_scan", "ios": "https://dc.lft.to/lastmile_qr_scan"}, "fusion_lon": 0.0, "lat": 38.961834333333336, "bike_id": "15860ed464c837d207eb1c42dc18ef0b", "type": "electric_bike", "is_reserved": 0, "lon": -77.05269183333333}, {"fusion_lat": 0.0, "name": "f1f68ec38010d97f6935f2597f8d7c3e", "is_disabled": 0, "rental_uris": {"android": "https://dc.lft.to/lastmile_qr_scan", "ios": "https://dc.lft.to/lastmile_qr_scan"}, "fusion_lon": 0.0, "lat": 38.9001755, "bike_id": "f1f68ec38010d97f6935f2597f8d7c3e", "type": "electric_scooter", "is_reserved": 0, "lon": -77.01187716666666}, {"fusion_lat": 0.0, "name": "c36b91ee2b23a231fb81d6040189d3ad", "is_disabled": 0, "rental_uris": {"android": "https://dc.lft.to/lastmile_qr_scan", "ios": "https://dc.lft.to/lastmile_qr_scan"}, "fusion_lon": 0.0, "lat": 38.89705983333333, "bike_id": "c36b91ee2b23a231fb81d6040189d3ad", "type": "electric_scooter", "is_reserved": 0, "lon": -77.01317183333333}, {"fusion_lat": 0.0, "name": "b7dea528f14799c4663368292aa078e0", "is_disabled": 0, "rental_uris": {"android": "https://dc.lft.to/lastmile_qr_scan", "ios": "https://dc.lft.to/lastmile_qr_scan"}, "fusion_lon": 0.0, "lat": 38.9202795, "bike_id": "b7dea528f14799c4663368292aa078e0", "type": "electric_scooter", "is_reserved": 0, "lon": -77.01026033333333}, {"fusion_lat": 0.0, "name": "042f087f4fad8c033cf1ec22e0674c2b", "is_disabled": 0, "rental_uris": {"android": "https://dc.lft.to/lastmile_qr_scan", "ios": "https://dc.lft.to/lastmile_qr_scan"}, "fusion_lon": 0.0, "lat": 38.91128416666667, "bike_id": "042f087f4fad8c033cf1ec22e0674c2b", "type": "electric_scooter", "is_reserved": 0, "lon": -77.04501183333333}, {"fusion_lat": 0.0, "name": "71fb5d207a4930da7aecd7cc9a595680", "is_disabled": 0, "rental_uris": {"android": "https://dc.lft.to/lastmile_qr_scan", "ios": "https://dc.lft.to/lastmile_qr_scan"}, "fusion_lon": 0.0, "lat": 38.9434115, "bike_id": "71fb5d207a4930da7aecd7cc9a595680", "type": "electric_scooter", "is_reserved": 0, "lon": -77.06131466666666}, {"fusion_lat": 0.0, "name": "a34c02600b9b35c1fad49f0d7ce44c8a", "is_disabled": 0, "rental_uris": {"android": "https://dc.lft.to/lastmile_qr_scan", "ios": "https://dc.lft.to/lastmile_qr_scan"}, "fusion_lon": 0.0, "lat": 38.858009333333335, "bike_id": "a34c02600b9b35c1fad49f0d7ce44c8a", "type": "electric_bike", "is_reserved": 0, "lon": -77.05149416666667}, {"fusion_lat": 0.0, "name": "c9ead3cfc1bb59906410d56e0c4be9d3", "is_disabled": 0, "rental_uris": {"android": "https://dc.lft.to/lastmile_qr_scan", "ios": "https://dc.lft.to/lastmile_qr_scan"}, "fusion_lon": 0.0, "lat": 38.943389, "bike_id": "c9ead3cfc1bb59906410d56e0c4be9d3", "type": "electric_scooter", "is_reserved": 0, "lon": -77.03246716666666}, {"fusion_lat": 0.0, "name": "44c9d9d51750119c717ce189dd58654c", "is_disabled": 0, "rental_uris": {"android": "https://dc.lft.to/lastmile_qr_scan", "ios": "https://dc.lft.to/lastmile_qr_scan"}, "fusion_lon": 0.0, "lat": 38.84281983333333, "bike_id": "44c9d9d51750119c717ce189dd58654c", "type": "electric_bike", "is_reserved": 0, "lon": -77.04499216666666}, {"fusion_lat": 0.0, "name": "8fb7a4c3136e59ad1e53ed9f4dd33173", "is_disabled": 0, "rental_uris": {"android": "https://dc.lft.to/lastmile_qr_scan", "ios": "https://dc.lft.to/lastmile_qr_scan"}, "fusion_lon": 0.0, "lat": 38.88679616666667, "bike_id": "8fb7a4c3136e59ad1e53ed9f4dd33173", "type": "electric_bike", "is_reserved": 0, "lon": -77.16246833333334}, {"fusion_lat": 0.0, "name": "58a0dbd0eba9a06d243b98b6cd2aacfd", "is_disabled": 0, "rental_uris": {"android": "https://dc.lft.to/lastmile_qr_scan", "ios": "https://dc.lft.to/lastmile_qr_scan"}, "fusion_lon": 0.0, "lat": 38.900328, "bike_id": "58a0dbd0eba9a06d243b98b6cd2aacfd", "type": "electric_scooter", "is_reserved": 0, "lon": -76.99350116666666}, {"fusion_lat": 0.0, "name": "99d8c6e85f7b2126cbbc353467d4eacf", "is_disabled": 0, "rental_uris": {"android": "https://dc.lft.to/lastmile_qr_scan", "ios": "https://dc.lft.to/lastmile_qr_scan"}, "fusion_lon": 0.0, "lat": 38.911219, "bike_id": "99d8c6e85f7b2126cbbc353467d4eacf", "type": "electric_scooter", "is_reserved": 0, "lon": -77.04833566666667}, {"fusion_lat": 0.0, "name": "8ce779e94d68db5fd2521e82c5a1a7d6", "is_disabled": 0, "rental_uris": {"android": "https://dc.lft.to/lastmile_qr_scan", "ios": "https://dc.lft.to/lastmile_qr_scan"}, "fusion_lon": 0.0, "lat": 38.924918, "bike_id": "8ce779e94d68db5fd2521e82c5a1a7d6", "type": "electric_scooter", "is_reserved": 0, "lon": -77.0218055}, {"fusion_lat": 0.0, "name": "cabcdd0974c5f59dd23b1a93376bfe68", "is_disabled": 0, "rental_uris": {"android": "https://dc.lft.to/lastmile_qr_scan", "ios": "https://dc.lft.to/lastmile_qr_scan"}, "fusion_lon": 0.0, "lat": 38.956019833333336, "bike_id": "cabcdd0974c5f59dd23b1a93376bfe68", "type": "electric_scooter", "is_reserved": 0, "lon": -77.03356716666667}, {"fusion_lat": 0.0, "name": "e689d27acd4ad776d604f094cc22a41f", "is_disabled": 0, "rental_uris": {"android": "https://dc.lft.to/lastmile_qr_scan", "ios": "https://dc.lft.to/lastmile_qr_scan"}, "fusion_lon": 0.0, "lat": 38.90804983333334, "bike_id": "e689d27acd4ad776d604f094cc22a41f", "type": "electric_scooter", "is_reserved": 0, "lon": -77.04288933333333}, {"fusion_lat": 0.0, "name": "cb6b6ea1488e4463e8877dbf7ac0deec", "is_disabled": 0, "rental_uris": {"android": "https://dc.lft.to/lastmile_qr_scan", "ios": "https://dc.lft.to/lastmile_qr_scan"}, "fusion_lon": 0.0, "lat": 38.92754166666667, "bike_id": "cb6b6ea1488e4463e8877dbf7ac0deec", "type": "electric_scooter", "is_reserved": 0, "lon": -77.024515}, {"fusion_lat": 0.0, "name": "a6a4498694fe30c49873007ee791759d", "is_disabled": 0, "rental_uris": {"android": "https://dc.lft.to/lastmile_qr_scan", "ios": "https://dc.lft.to/lastmile_qr_scan"}, "fusion_lon": 0.0, "lat": 38.944109166666664, "bike_id": "a6a4498694fe30c49873007ee791759d", "type": "electric_scooter", "is_reserved": 0, "lon": -77.06328766666667}, {"fusion_lat": 0.0, "name": "27079b92c9c77e4cbdb071d9ed597d90", "is_disabled": 0, "rental_uris": {"android": "https://dc.lft.to/lastmile_qr_scan", "ios": "https://dc.lft.to/lastmile_qr_scan"}, "fusion_lon": 0.0, "lat": 38.892147, "bike_id": "27079b92c9c77e4cbdb071d9ed597d90", "type": "electric_scooter", "is_reserved": 0, "lon": -77.026408}, {"fusion_lat": 0.0, "name": "c910818a6057cb1bec0a1a9f8e611ed6", "is_disabled": 0, "rental_uris": {"android": "https://dc.lft.to/lastmile_qr_scan", "ios": "https://dc.lft.to/lastmile_qr_scan"}, "fusion_lon": 0.0, "lat": 38.91707183333333, "bike_id": "c910818a6057cb1bec0a1a9f8e611ed6", "type": "electric_scooter", "is_reserved": 0, "lon": -77.04002966666667}, {"fusion_lat": 0.0, "name": "d29b467620bf1d92e68422a4d905a6fa", "is_disabled": 0, "rental_uris": {"android": "https://dc.lft.to/lastmile_qr_scan", "ios": "https://dc.lft.to/lastmile_qr_scan"}, "fusion_lon": 0.0, "lat": 38.90331166666667, "bike_id": "d29b467620bf1d92e68422a4d905a6fa", "type": "electric_bike", "is_reserved": 0, "lon": -76.97529983333334}, {"fusion_lat": 0.0, "name": "e179227d2b3ea29a8affb6dc97da438c", "is_disabled": 0, "rental_uris": {"android": "https://dc.lft.to/lastmile_qr_scan", "ios": "https://dc.lft.to/lastmile_qr_scan"}, "fusion_lon": 0.0, "lat": 38.9102895, "bike_id": "e179227d2b3ea29a8affb6dc97da438c", "type": "electric_scooter", "is_reserved": 0, "lon": -77.03299383333334}, {"fusion_lat": 0.0, "name": "86eef8fde53bc7ddcc88e8499ed0e432", "is_disabled": 0, "rental_uris": {"android": "https://dc.lft.to/lastmile_qr_scan", "ios": "https://dc.lft.to/lastmile_qr_scan"}, "fusion_lon": 0.0, "lat": 38.90334566666667, "bike_id": "86eef8fde53bc7ddcc88e8499ed0e432", "type": "electric_scooter", "is_reserved": 0, "lon": -77.06292383333333}, {"fusion_lat": 0.0, "name": "803ec980d55b3b449f4ef04d7827a6f9", "is_disabled": 0, "rental_uris": {"android": "https://dc.lft.to/lastmile_qr_scan", "ios": "https://dc.lft.to/lastmile_qr_scan"}, "fusion_lon": 0.0, "lat": 38.84755116666667, "bike_id": "803ec980d55b3b449f4ef04d7827a6f9", "type": "electric_scooter", "is_reserved": 0, "lon": -76.9950155}, {"fusion_lat": 0.0, "name": "a2ccaabd272afd620cc28137b097394e", "is_disabled": 0, "rental_uris": {"android": "https://dc.lft.to/lastmile_qr_scan", "ios": "https://dc.lft.to/lastmile_qr_scan"}, "fusion_lon": 0.0, "lat": 38.898744, "bike_id": "a2ccaabd272afd620cc28137b097394e", "type": "electric_scooter", "is_reserved": 0, "lon": -76.9318865}, {"fusion_lat": 0.0, "name": "0accf13c203c70f8d53aa09f7b78a40e", "is_disabled": 0, "rental_uris": {"android": "https://dc.lft.to/lastmile_qr_scan", "ios": "https://dc.lft.to/lastmile_qr_scan"}, "fusion_lon": 0.0, "lat": 38.9006925, "bike_id": "0accf13c203c70f8d53aa09f7b78a40e", "type": "electric_scooter", "is_reserved": 0, "lon": -77.03830883333333}, {"fusion_lat": 0.0, "name": "dcd1bffd3d76c9fb4804cd90a20c49ab", "is_disabled": 0, "rental_uris": {"android": "https://dc.lft.to/lastmile_qr_scan", "ios": "https://dc.lft.to/lastmile_qr_scan"}, "fusion_lon": 0.0, "lat": 38.901109166666664, "bike_id": "dcd1bffd3d76c9fb4804cd90a20c49ab", "type": "electric_scooter", "is_reserved": 0, "lon": -77.02607266666666}, {"fusion_lat": 0.0, "name": "10e88accef1735a3b26229e50ceba601", "is_disabled": 0, "rental_uris": {"android": "https://dc.lft.to/lastmile_qr_scan", "ios": "https://dc.lft.to/lastmile_qr_scan"}, "fusion_lon": 0.0, "lat": 38.915397, "bike_id": "10e88accef1735a3b26229e50ceba601", "type": "electric_scooter", "is_reserved": 0, "lon": -77.03208016666666}, {"fusion_lat": 0.0, "name": "c4bb114bb4d5059b75b990ff8d4bdeac", "is_disabled": 0, "rental_uris": {"android": "https://dc.lft.to/lastmile_qr_scan", "ios": "https://dc.lft.to/lastmile_qr_scan"}, "fusion_lon": 0.0, "lat": 38.923413333333336, "bike_id": "c4bb114bb4d5059b75b990ff8d4bdeac", "type": "electric_scooter", "is_reserved": 0, "lon": -77.0517545}, {"fusion_lat": 0.0, "name": "96b0c363600886b1119824fd754cc9ef", "is_disabled": 0, "rental_uris": {"android": "https://dc.lft.to/lastmile_qr_scan", "ios": "https://dc.lft.to/lastmile_qr_scan"}, "fusion_lon": 0.0, "lat": 38.921541, "bike_id": "96b0c363600886b1119824fd754cc9ef", "type": "electric_scooter", "is_reserved": 0, "lon": -77.04208116666666}, {"fusion_lat": 0.0, "name": "e7bf5b11bca3efdd6b4d4cebff120d76", "is_disabled": 0, "rental_uris": {"android": "https://dc.lft.to/lastmile_qr_scan", "ios": "https://dc.lft.to/lastmile_qr_scan"}, "fusion_lon": 0.0, "lat": 38.910046, "bike_id": "e7bf5b11bca3efdd6b4d4cebff120d76", "type": "electric_scooter", "is_reserved": 0, "lon": -77.04911516666667}, {"fusion_lat": 0.0, "name": "d7030714ce5a202a59bd7f52f37ff510", "is_disabled": 0, "rental_uris": {"android": "https://dc.lft.to/lastmile_qr_scan", "ios": "https://dc.lft.to/lastmile_qr_scan"}, "fusion_lon": 0.0, "lat": 39.05253116666667, "bike_id": "d7030714ce5a202a59bd7f52f37ff510", "type": "electric_bike", "is_reserved": 0, "lon": -77.08067683333333}, {"fusion_lat": 0.0, "name": "507454bbf4ccc4ab6e5ca9c417674e85", "is_disabled": 0, "rental_uris": {"android": "https://dc.lft.to/lastmile_qr_scan", "ios": "https://dc.lft.to/lastmile_qr_scan"}, "fusion_lon": 0.0, "lat": 38.88746583333333, "bike_id": "507454bbf4ccc4ab6e5ca9c417674e85", "type": "electric_scooter", "is_reserved": 0, "lon": -77.02782983333333}, {"fusion_lat": 0.0, "name": "ea4f6f9631b9618dfdc847580132c159", "is_disabled": 0, "rental_uris": {"android": "https://dc.lft.to/lastmile_qr_scan", "ios": "https://dc.lft.to/lastmile_qr_scan"}, "fusion_lon": 0.0, "lat": 38.88444166666667, "bike_id": "ea4f6f9631b9618dfdc847580132c159", "type": "electric_scooter", "is_reserved": 0, "lon": -76.9962665}, {"fusion_lat": 0.0, "name": "1f30ac02deea84d01458648a9a30666d", "is_disabled": 0, "rental_uris": {"android": "https://dc.lft.to/lastmile_qr_scan", "ios": "https://dc.lft.to/lastmile_qr_scan"}, "fusion_lon": 0.0, "lat": 38.895472166666664, "bike_id": "1f30ac02deea84d01458648a9a30666d", "type": "electric_scooter", "is_reserved": 0, "lon": -76.9809375}, {"fusion_lat": 0.0, "name": "a2bb6ce3ae2fe03db5af1c2ab25b2fb5", "is_disabled": 0, "rental_uris": {"android": "https://dc.lft.to/lastmile_qr_scan", "ios": "https://dc.lft.to/lastmile_qr_scan"}, "fusion_lon": 0.0, "lat": 38.901438, "bike_id": "a2bb6ce3ae2fe03db5af1c2ab25b2fb5", "type": "electric_scooter", "is_reserved": 0, "lon": -77.03925033333333}, {"fusion_lat": 0.0, "name": "ac827b3eaf2b71d4d20002c127fd4aff", "is_disabled": 0, "rental_uris": {"android": "https://dc.lft.to/lastmile_qr_scan", "ios": "https://dc.lft.to/lastmile_qr_scan"}, "fusion_lon": 0.0, "lat": 38.924956333333334, "bike_id": "ac827b3eaf2b71d4d20002c127fd4aff", "type": "electric_scooter", "is_reserved": 0, "lon": -77.02165066666667}, {"fusion_lat": 0.0, "name": "df580a5a03679f2feb35ded8c60ac00b", "is_disabled": 0, "rental_uris": {"android": "https://dc.lft.to/lastmile_qr_scan", "ios": "https://dc.lft.to/lastmile_qr_scan"}, "fusion_lon": 0.0, "lat": 38.90129483333333, "bike_id": "df580a5a03679f2feb35ded8c60ac00b", "type": "electric_scooter", "is_reserved": 0, "lon": -77.04154416666667}, {"fusion_lat": 0.0, "name": "b330f240cbb085481ecf9d2fe8a0b467", "is_disabled": 0, "rental_uris": {"android": "https://dc.lft.to/lastmile_qr_scan", "ios": "https://dc.lft.to/lastmile_qr_scan"}, "fusion_lon": 0.0, "lat": 38.93465916666667, "bike_id": "b330f240cbb085481ecf9d2fe8a0b467", "type": "electric_scooter", "is_reserved": 0, "lon": -77.07215083333334}, {"fusion_lat": 0.0, "name": "6afa7d506384ab0609f41c309ca3dc47", "is_disabled": 0, "rental_uris": {"android": "https://dc.lft.to/lastmile_qr_scan", "ios": "https://dc.lft.to/lastmile_qr_scan"}, "fusion_lon": 0.0, "lat": 38.895008, "bike_id": "6afa7d506384ab0609f41c309ca3dc47", "type": "electric_scooter", "is_reserved": 0, "lon": -77.00332316666666}, {"fusion_lat": 0.0, "name": "fb8aabe67ad8ecfb8993d7675555ec7e", "is_disabled": 0, "rental_uris": {"android": "https://dc.lft.to/lastmile_qr_scan", "ios": "https://dc.lft.to/lastmile_qr_scan"}, "fusion_lon": 0.0, "lat": 38.90084516666667, "bike_id": "fb8aabe67ad8ecfb8993d7675555ec7e", "type": "electric_scooter", "is_reserved": 0, "lon": -76.9833675}, {"fusion_lat": 0.0, "name": "f311c4f95ba7d9f1a79fb264e5326f09", "is_disabled": 0, "rental_uris": {"android": "https://dc.lft.to/lastmile_qr_scan", "ios": "https://dc.lft.to/lastmile_qr_scan"}, "fusion_lon": 0.0, "lat": 38.905907166666665, "bike_id": "f311c4f95ba7d9f1a79fb264e5326f09", "type": "electric_scooter", "is_reserved": 0, "lon": -77.042708}, {"fusion_lat": 0.0, "name": "17d7a7b4545c6638d6208ca0e0ca1225", "is_disabled": 0, "rental_uris": {"android": "https://dc.lft.to/lastmile_qr_scan", "ios": "https://dc.lft.to/lastmile_qr_scan"}, "fusion_lon": 0.0, "lat": 38.90727916666667, "bike_id": "17d7a7b4545c6638d6208ca0e0ca1225", "type": "electric_scooter", "is_reserved": 0, "lon": -77.04339366666666}, {"fusion_lat": 0.0, "name": "63df0ffa61574dae0944eed8511652ad", "is_disabled": 0, "rental_uris": {"android": "https://dc.lft.to/lastmile_qr_scan", "ios": "https://dc.lft.to/lastmile_qr_scan"}, "fusion_lon": 0.0, "lat": 38.92322683333333, "bike_id": "63df0ffa61574dae0944eed8511652ad", "type": "electric_scooter", "is_reserved": 0, "lon": -77.04035433333334}, {"fusion_lat": 0.0, "name": "19a3a43e0f3d16b2786d18796670cc95", "is_disabled": 0, "rental_uris": {"android": "https://dc.lft.to/lastmile_qr_scan", "ios": "https://dc.lft.to/lastmile_qr_scan"}, "fusion_lon": 0.0, "lat": 38.8924915, "bike_id": "19a3a43e0f3d16b2786d18796670cc95", "type": "electric_scooter", "is_reserved": 0, "lon": -77.03956616666666}, {"fusion_lat": 0.0, "name": "32bf7c6e5c76200752a0bfd6b2de607f", "is_disabled": 0, "rental_uris": {"android": "https://dc.lft.to/lastmile_qr_scan", "ios": "https://dc.lft.to/lastmile_qr_scan"}, "fusion_lon": 0.0, "lat": 38.904306166666665, "bike_id": "32bf7c6e5c76200752a0bfd6b2de607f", "type": "electric_scooter", "is_reserved": 0, "lon": -77.05818316666667}, {"fusion_lat": 0.0, "name": "8754504a3afd3becfb51c0de5e6275df", "is_disabled": 0, "rental_uris": {"android": "https://dc.lft.to/lastmile_qr_scan", "ios": "https://dc.lft.to/lastmile_qr_scan"}, "fusion_lon": 0.0, "lat": 38.9325345, "bike_id": "8754504a3afd3becfb51c0de5e6275df", "type": "electric_scooter", "is_reserved": 0, "lon": -77.032693}, {"fusion_lat": 0.0, "name": "711d36bddfae1757cba2d60cf0bdea5f", "is_disabled": 0, "rental_uris": {"android": "https://dc.lft.to/lastmile_qr_scan", "ios": "https://dc.lft.to/lastmile_qr_scan"}, "fusion_lon": 0.0, "lat": 38.92612533333333, "bike_id": "711d36bddfae1757cba2d60cf0bdea5f", "type": "electric_scooter", "is_reserved": 0, "lon": -77.036729}, {"fusion_lat": 0.0, "name": "03c95726f15d546da91d277584586536", "is_disabled": 0, "rental_uris": {"android": "https://dc.lft.to/lastmile_qr_scan", "ios": "https://dc.lft.to/lastmile_qr_scan"}, "fusion_lon": 0.0, "lat": 38.91761316666667, "bike_id": "03c95726f15d546da91d277584586536", "type": "electric_scooter", "is_reserved": 0, "lon": -77.06953833333333}, {"fusion_lat": 0.0, "name": "218a341b740bb591e7962976a40d8019", "is_disabled": 0, "rental_uris": {"android": "https://dc.lft.to/lastmile_qr_scan", "ios": "https://dc.lft.to/lastmile_qr_scan"}, "fusion_lon": 0.0, "lat": 38.9201645, "bike_id": "218a341b740bb591e7962976a40d8019", "type": "electric_scooter", "is_reserved": 0, "lon": -77.01312483333334}, {"fusion_lat": 0.0, "name": "39909038ac3e2c40ac9a0e6cda85fb6d", "is_disabled": 0, "rental_uris": {"android": "https://dc.lft.to/lastmile_qr_scan", "ios": "https://dc.lft.to/lastmile_qr_scan"}, "fusion_lon": 0.0, "lat": 38.90031233333333, "bike_id": "39909038ac3e2c40ac9a0e6cda85fb6d", "type": "electric_scooter", "is_reserved": 0, "lon": -76.9891905}, {"fusion_lat": 0.0, "name": "484736d8a9116b827883dca96272ce50", "is_disabled": 0, "rental_uris": {"android": "https://dc.lft.to/lastmile_qr_scan", "ios": "https://dc.lft.to/lastmile_qr_scan"}, "fusion_lon": 0.0, "lat": 38.9112075, "bike_id": "484736d8a9116b827883dca96272ce50", "type": "electric_scooter", "is_reserved": 0, "lon": -77.00757233333333}, {"fusion_lat": 0.0, "name": "5ed24237d11749fda217d0dc645f387e", "is_disabled": 0, "rental_uris": {"android": "https://dc.lft.to/lastmile_qr_scan", "ios": "https://dc.lft.to/lastmile_qr_scan"}, "fusion_lon": 0.0, "lat": 38.934817833333334, "bike_id": "5ed24237d11749fda217d0dc645f387e", "type": "electric_scooter", "is_reserved": 0, "lon": -77.07277333333333}, {"fusion_lat": 0.0, "name": "c33a9fd9cd2dd00ffb325708fda6bd0c", "is_disabled": 0, "rental_uris": {"android": "https://dc.lft.to/lastmile_qr_scan", "ios": "https://dc.lft.to/lastmile_qr_scan"}, "fusion_lon": 0.0, "lat": 38.898732833333334, "bike_id": "c33a9fd9cd2dd00ffb325708fda6bd0c", "type": "electric_scooter", "is_reserved": 0, "lon": -76.93187416666666}, {"fusion_lat": 0.0, "name": "40859d1be4a482bdb6d544d63ee6e6bd", "is_disabled": 0, "rental_uris": {"android": "https://dc.lft.to/lastmile_qr_scan", "ios": "https://dc.lft.to/lastmile_qr_scan"}, "fusion_lon": 0.0, "lat": 38.92233383333333, "bike_id": "40859d1be4a482bdb6d544d63ee6e6bd", "type": "electric_scooter", "is_reserved": 0, "lon": -77.03910533333334}, {"fusion_lat": 0.0, "name": "a1037fa3c58330da34b37955021af87a", "is_disabled": 0, "rental_uris": {"android": "https://dc.lft.to/lastmile_qr_scan", "ios": "https://dc.lft.to/lastmile_qr_scan"}, "fusion_lon": 0.0, "lat": 38.9318105, "bike_id": "a1037fa3c58330da34b37955021af87a", "type": "electric_scooter", "is_reserved": 0, "lon": -77.0200515}, {"fusion_lat": 0.0, "name": "681989cfa4738dfa3796e46304e0c564", "is_disabled": 0, "rental_uris": {"android": "https://dc.lft.to/lastmile_qr_scan", "ios": "https://dc.lft.to/lastmile_qr_scan"}, "fusion_lon": 0.0, "lat": 38.92471466666667, "bike_id": "681989cfa4738dfa3796e46304e0c564", "type": "electric_scooter", "is_reserved": 0, "lon": -77.02074666666667}, {"fusion_lat": 0.0, "name": "cfec5b4f85a0112edabc43fe03f4dc8b", "is_disabled": 0, "rental_uris": {"android": "https://dc.lft.to/lastmile_qr_scan", "ios": "https://dc.lft.to/lastmile_qr_scan"}, "fusion_lon": 0.0, "lat": 38.92708483333333, "bike_id": "cfec5b4f85a0112edabc43fe03f4dc8b", "type": "electric_scooter", "is_reserved": 0, "lon": -77.0210785}, {"fusion_lat": 0.0, "name": "81bace8facf73b6713d34eead5a0ef62", "is_disabled": 0, "rental_uris": {"android": "https://dc.lft.to/lastmile_qr_scan", "ios": "https://dc.lft.to/lastmile_qr_scan"}, "fusion_lon": 0.0, "lat": 38.879821166666666, "bike_id": "81bace8facf73b6713d34eead5a0ef62", "type": "electric_scooter", "is_reserved": 0, "lon": -76.9839035}, {"fusion_lat": 0.0, "name": "014ebb5e7108ae742460615e326a4b3d", "is_disabled": 0, "rental_uris": {"android": "https://dc.lft.to/lastmile_qr_scan", "ios": "https://dc.lft.to/lastmile_qr_scan"}, "fusion_lon": 0.0, "lat": 38.911085666666665, "bike_id": "014ebb5e7108ae742460615e326a4b3d", "type": "electric_scooter", "is_reserved": 0, "lon": -77.0315625}, {"fusion_lat": 0.0, "name": "4f66fac17c3dab66454866c3181e7a28", "is_disabled": 0, "rental_uris": {"android": "https://dc.lft.to/lastmile_qr_scan", "ios": "https://dc.lft.to/lastmile_qr_scan"}, "fusion_lon": 0.0, "lat": 38.9346465, "bike_id": "4f66fac17c3dab66454866c3181e7a28", "type": "electric_scooter", "is_reserved": 0, "lon": -77.041162}, {"fusion_lat": 0.0, "name": "7af7720277e600b29000095e7486ba4b", "is_disabled": 0, "rental_uris": {"android": "https://dc.lft.to/lastmile_qr_scan", "ios": "https://dc.lft.to/lastmile_qr_scan"}, "fusion_lon": 0.0, "lat": 38.899735166666666, "bike_id": "7af7720277e600b29000095e7486ba4b", "type": "electric_scooter", "is_reserved": 0, "lon": -77.052674}, {"fusion_lat": 0.0, "name": "62271a22546eb22a0b97b9afbd92354c", "is_disabled": 0, "rental_uris": {"android": "https://dc.lft.to/lastmile_qr_scan", "ios": "https://dc.lft.to/lastmile_qr_scan"}, "fusion_lon": 0.0, "lat": 38.930914, "bike_id": "62271a22546eb22a0b97b9afbd92354c", "type": "electric_scooter", "is_reserved": 0, "lon": -77.01995083333334}, {"fusion_lat": 0.0, "name": "45a441fb1beb3cb11405f4a2e1777890", "is_disabled": 0, "rental_uris": {"android": "https://dc.lft.to/lastmile_qr_scan", "ios": "https://dc.lft.to/lastmile_qr_scan"}, "fusion_lon": 0.0, "lat": 38.9010245, "bike_id": "45a441fb1beb3cb11405f4a2e1777890", "type": "electric_scooter", "is_reserved": 0, "lon": -76.93047583333333}, {"fusion_lat": 0.0, "name": "f788f14aaebd0892d2a81dc4287c8561", "is_disabled": 0, "rental_uris": {"android": "https://dc.lft.to/lastmile_qr_scan", "ios": "https://dc.lft.to/lastmile_qr_scan"}, "fusion_lon": 0.0, "lat": 38.90391533333333, "bike_id": "f788f14aaebd0892d2a81dc4287c8561", "type": "electric_scooter", "is_reserved": 0, "lon": -77.01784033333334}, {"fusion_lat": 0.0, "name": "442069438af99dd3fb908e13e9d56dcc", "is_disabled": 0, "rental_uris": {"android": "https://dc.lft.to/lastmile_qr_scan", "ios": "https://dc.lft.to/lastmile_qr_scan"}, "fusion_lon": 0.0, "lat": 38.876651833333334, "bike_id": "442069438af99dd3fb908e13e9d56dcc", "type": "electric_scooter", "is_reserved": 0, "lon": -77.00347383333333}, {"fusion_lat": 0.0, "name": "cc9d68bdfe85a050563d4ed1dc460a83", "is_disabled": 0, "rental_uris": {"android": "https://dc.lft.to/lastmile_qr_scan", "ios": "https://dc.lft.to/lastmile_qr_scan"}, "fusion_lon": 0.0, "lat": 38.92320333333333, "bike_id": "cc9d68bdfe85a050563d4ed1dc460a83", "type": "electric_scooter", "is_reserved": 0, "lon": -77.035345}, {"fusion_lat": 0.0, "name": "995f233ad220f15ef360fe1780bebef2", "is_disabled": 0, "rental_uris": {"android": "https://dc.lft.to/lastmile_qr_scan", "ios": "https://dc.lft.to/lastmile_qr_scan"}, "fusion_lon": 0.0, "lat": 38.92333566666667, "bike_id": "995f233ad220f15ef360fe1780bebef2", "type": "electric_scooter", "is_reserved": 0, "lon": -77.05223716666667}, {"fusion_lat": 0.0, "name": "9d5da4cf6f0023c72e9ecf30e9184596", "is_disabled": 0, "rental_uris": {"android": "https://dc.lft.to/lastmile_qr_scan", "ios": "https://dc.lft.to/lastmile_qr_scan"}, "fusion_lon": 0.0, "lat": 38.923170999999996, "bike_id": "9d5da4cf6f0023c72e9ecf30e9184596", "type": "electric_scooter", "is_reserved": 0, "lon": -77.04039316666666}, {"fusion_lat": 0.0, "name": "eed571c5a1ececee8ec64d7bf1c3383e", "is_disabled": 0, "rental_uris": {"android": "https://dc.lft.to/lastmile_qr_scan", "ios": "https://dc.lft.to/lastmile_qr_scan"}, "fusion_lon": 0.0, "lat": 38.897503666666665, "bike_id": "eed571c5a1ececee8ec64d7bf1c3383e", "type": "electric_scooter", "is_reserved": 0, "lon": -77.0243875}, {"fusion_lat": 0.0, "name": "4ae4acbf5cb4403255f79f4359b0dc80", "is_disabled": 0, "rental_uris": {"android": "https://dc.lft.to/lastmile_qr_scan", "ios": "https://dc.lft.to/lastmile_qr_scan"}, "fusion_lon": 0.0, "lat": 38.903475666666665, "bike_id": "4ae4acbf5cb4403255f79f4359b0dc80", "type": "electric_scooter", "is_reserved": 0, "lon": -76.97478216666667}, {"fusion_lat": 0.0, "name": "977f3ace39281485d9155f8ae79a0d75", "is_disabled": 0, "rental_uris": {"android": "https://dc.lft.to/lastmile_qr_scan", "ios": "https://dc.lft.to/lastmile_qr_scan"}, "fusion_lon": 0.0, "lat": 38.90787733333333, "bike_id": "977f3ace39281485d9155f8ae79a0d75", "type": "electric_scooter", "is_reserved": 0, "lon": -77.04268966666666}, {"fusion_lat": 0.0, "name": "be4dc84e9f836ceb19d40df0e7254d43", "is_disabled": 0, "rental_uris": {"android": "https://dc.lft.to/lastmile_qr_scan", "ios": "https://dc.lft.to/lastmile_qr_scan"}, "fusion_lon": 0.0, "lat": 38.911186666666666, "bike_id": "be4dc84e9f836ceb19d40df0e7254d43", "type": "electric_scooter", "is_reserved": 0, "lon": -77.01883566666666}, {"fusion_lat": 0.0, "name": "5741806db468eb598a0ae4f99f29b7a4", "is_disabled": 0, "rental_uris": {"android": "https://dc.lft.to/lastmile_qr_scan", "ios": "https://dc.lft.to/lastmile_qr_scan"}, "fusion_lon": 0.0, "lat": 38.911243, "bike_id": "5741806db468eb598a0ae4f99f29b7a4", "type": "electric_scooter", "is_reserved": 0, "lon": -77.0437365}, {"fusion_lat": 0.0, "name": "f2d910279ac2d108bccc7a8b5e70c1fe", "is_disabled": 0, "rental_uris": {"android": "https://dc.lft.to/lastmile_qr_scan", "ios": "https://dc.lft.to/lastmile_qr_scan"}, "fusion_lon": 0.0, "lat": 38.906257, "bike_id": "f2d910279ac2d108bccc7a8b5e70c1fe", "type": "electric_scooter", "is_reserved": 0, "lon": -77.02602716666667}, {"fusion_lat": 0.0, "name": "37e1f32050e3340a3ae628fa411d006d", "is_disabled": 0, "rental_uris": {"android": "https://dc.lft.to/lastmile_qr_scan", "ios": "https://dc.lft.to/lastmile_qr_scan"}, "fusion_lon": 0.0, "lat": 38.95237766666666, "bike_id": "37e1f32050e3340a3ae628fa411d006d", "type": "electric_bike", "is_reserved": 0, "lon": -76.97953666666666}, {"fusion_lat": 0.0, "name": "28e8d7b5455f6e5dc536886451050a53", "is_disabled": 0, "rental_uris": {"android": "https://dc.lft.to/lastmile_qr_scan", "ios": "https://dc.lft.to/lastmile_qr_scan"}, "fusion_lon": 0.0, "lat": 38.916315833333336, "bike_id": "28e8d7b5455f6e5dc536886451050a53", "type": "electric_scooter", "is_reserved": 0, "lon": -77.02970733333333}, {"fusion_lat": 0.0, "name": "e74db9432bbdc15b02ca5c3bfcd73c15", "is_disabled": 0, "rental_uris": {"android": "https://dc.lft.to/lastmile_qr_scan", "ios": "https://dc.lft.to/lastmile_qr_scan"}, "fusion_lon": 0.0, "lat": 38.880149333333335, "bike_id": "e74db9432bbdc15b02ca5c3bfcd73c15", "type": "electric_scooter", "is_reserved": 0, "lon": -76.98076866666666}, {"fusion_lat": 0.0, "name": "e7a018f31c7e087850aabce10eb350fe", "is_disabled": 0, "rental_uris": {"android": "https://dc.lft.to/lastmile_qr_scan", "ios": "https://dc.lft.to/lastmile_qr_scan"}, "fusion_lon": 0.0, "lat": 38.91924566666667, "bike_id": "e7a018f31c7e087850aabce10eb350fe", "type": "electric_scooter", "is_reserved": 0, "lon": -77.02475983333333}, {"fusion_lat": 0.0, "name": "7734eb6a66928a8d6e1f1d06c7298323", "is_disabled": 0, "rental_uris": {"android": "https://dc.lft.to/lastmile_qr_scan", "ios": "https://dc.lft.to/lastmile_qr_scan"}, "fusion_lon": 0.0, "lat": 38.90241416666667, "bike_id": "7734eb6a66928a8d6e1f1d06c7298323", "type": "electric_scooter", "is_reserved": 0, "lon": -77.00202116666667}, {"fusion_lat": 0.0, "name": "aa0b985847b1741e7fe375e2cfb45e71", "is_disabled": 0, "rental_uris": {"android": "https://dc.lft.to/lastmile_qr_scan", "ios": "https://dc.lft.to/lastmile_qr_scan"}, "fusion_lon": 0.0, "lat": 38.906476833333336, "bike_id": "aa0b985847b1741e7fe375e2cfb45e71", "type": "electric_scooter", "is_reserved": 0, "lon": -77.0219165}, {"fusion_lat": 0.0, "name": "c8482c52f476dbddd8db90818780a4a1", "is_disabled": 0, "rental_uris": {"android": "https://dc.lft.to/lastmile_qr_scan", "ios": "https://dc.lft.to/lastmile_qr_scan"}, "fusion_lon": 0.0, "lat": 38.917521666666666, "bike_id": "c8482c52f476dbddd8db90818780a4a1", "type": "electric_scooter", "is_reserved": 0, "lon": -77.069391}, {"fusion_lat": 0.0, "name": "bcb6ca6a46049f6461f38adf2db10247", "is_disabled": 0, "rental_uris": {"android": "https://dc.lft.to/lastmile_qr_scan", "ios": "https://dc.lft.to/lastmile_qr_scan"}, "fusion_lon": 0.0, "lat": 38.90760816666667, "bike_id": "bcb6ca6a46049f6461f38adf2db10247", "type": "electric_scooter", "is_reserved": 0, "lon": -77.00406316666667}, {"fusion_lat": 0.0, "name": "7be91bd60176606ded71bf14a0093407", "is_disabled": 0, "rental_uris": {"android": "https://dc.lft.to/lastmile_qr_scan", "ios": "https://dc.lft.to/lastmile_qr_scan"}, "fusion_lon": 0.0, "lat": 38.9217775, "bike_id": "7be91bd60176606ded71bf14a0093407", "type": "electric_scooter", "is_reserved": 0, "lon": -77.0384645}, {"fusion_lat": 0.0, "name": "30317a468ecb811d6843122accee5f2e", "is_disabled": 0, "rental_uris": {"android": "https://dc.lft.to/lastmile_qr_scan", "ios": "https://dc.lft.to/lastmile_qr_scan"}, "fusion_lon": 0.0, "lat": 38.922258666666664, "bike_id": "30317a468ecb811d6843122accee5f2e", "type": "electric_scooter", "is_reserved": 0, "lon": -77.02981466666667}, {"fusion_lat": 0.0, "name": "d0e442fa9da0070f20003d38c9697cd2", "is_disabled": 0, "rental_uris": {"android": "https://dc.lft.to/lastmile_qr_scan", "ios": "https://dc.lft.to/lastmile_qr_scan"}, "fusion_lon": 0.0, "lat": 38.86391, "bike_id": "d0e442fa9da0070f20003d38c9697cd2", "type": "electric_bike", "is_reserved": 0, "lon": -76.98997433333334}, {"fusion_lat": 0.0, "name": "a1350a2477c1e3c06623f21100554ba3", "is_disabled": 0, "rental_uris": {"android": "https://dc.lft.to/lastmile_qr_scan", "ios": "https://dc.lft.to/lastmile_qr_scan"}, "fusion_lon": 0.0, "lat": 38.90960716666667, "bike_id": "a1350a2477c1e3c06623f21100554ba3", "type": "electric_scooter", "is_reserved": 0, "lon": -77.0394095}, {"fusion_lat": 0.0, "name": "6d8c4fd078141114f200b4d96a734fb6", "is_disabled": 0, "rental_uris": {"android": "https://dc.lft.to/lastmile_qr_scan", "ios": "https://dc.lft.to/lastmile_qr_scan"}, "fusion_lon": 0.0, "lat": 38.91680516666667, "bike_id": "6d8c4fd078141114f200b4d96a734fb6", "type": "electric_scooter", "is_reserved": 0, "lon": -77.02290116666667}, {"fusion_lat": 0.0, "name": "8dc7888a8abe39032b283989b37c007f", "is_disabled": 0, "rental_uris": {"android": "https://dc.lft.to/lastmile_qr_scan", "ios": "https://dc.lft.to/lastmile_qr_scan"}, "fusion_lon": 0.0, "lat": 38.91991566666667, "bike_id": "8dc7888a8abe39032b283989b37c007f", "type": "electric_scooter", "is_reserved": 0, "lon": -77.032877}, {"fusion_lat": 0.0, "name": "567dd58aa6101c71c37c0c25a83495e7", "is_disabled": 0, "rental_uris": {"android": "https://dc.lft.to/lastmile_qr_scan", "ios": "https://dc.lft.to/lastmile_qr_scan"}, "fusion_lon": 0.0, "lat": 38.914147666666665, "bike_id": "567dd58aa6101c71c37c0c25a83495e7", "type": "electric_scooter", "is_reserved": 0, "lon": -77.01077316666667}, {"fusion_lat": 0.0, "name": "47f580df1a0c8f4c293d247cde64155a", "is_disabled": 0, "rental_uris": {"android": "https://dc.lft.to/lastmile_qr_scan", "ios": "https://dc.lft.to/lastmile_qr_scan"}, "fusion_lon": 0.0, "lat": 38.88727516666667, "bike_id": "47f580df1a0c8f4c293d247cde64155a", "type": "electric_scooter", "is_reserved": 0, "lon": -77.0321385}, {"fusion_lat": 0.0, "name": "c07fb38838b76e64e33d85fdd17dffc0", "is_disabled": 0, "rental_uris": {"android": "https://dc.lft.to/lastmile_qr_scan", "ios": "https://dc.lft.to/lastmile_qr_scan"}, "fusion_lon": 0.0, "lat": 38.84275916666667, "bike_id": "c07fb38838b76e64e33d85fdd17dffc0", "type": "electric_bike", "is_reserved": 0, "lon": -76.98844616666666}, {"fusion_lat": 0.0, "name": "413e9804ec5614d817890bed7b38b066", "is_disabled": 0, "rental_uris": {"android": "https://dc.lft.to/lastmile_qr_scan", "ios": "https://dc.lft.to/lastmile_qr_scan"}, "fusion_lon": 0.0, "lat": 38.91793666666667, "bike_id": "413e9804ec5614d817890bed7b38b066", "type": "electric_scooter", "is_reserved": 0, "lon": -77.0411605}, {"fusion_lat": 0.0, "name": "0e2a81936a83a4d18a9a1a92d2b9d7eb", "is_disabled": 0, "rental_uris": {"android": "https://dc.lft.to/lastmile_qr_scan", "ios": "https://dc.lft.to/lastmile_qr_scan"}, "fusion_lon": 0.0, "lat": 38.899361999999996, "bike_id": "0e2a81936a83a4d18a9a1a92d2b9d7eb", "type": "electric_scooter", "is_reserved": 0, "lon": -77.03931633333333}, {"fusion_lat": 0.0, "name": "30ec6bef030e5e4de0ffb4defa9e0db0", "is_disabled": 0, "rental_uris": {"android": "https://dc.lft.to/lastmile_qr_scan", "ios": "https://dc.lft.to/lastmile_qr_scan"}, "fusion_lon": 0.0, "lat": 38.89837716666667, "bike_id": "30ec6bef030e5e4de0ffb4defa9e0db0", "type": "electric_scooter", "is_reserved": 0, "lon": -77.02480316666667}, {"fusion_lat": 0.0, "name": "f081161bccda22eb13fa953ef1fe5bdb", "is_disabled": 0, "rental_uris": {"android": "https://dc.lft.to/lastmile_qr_scan", "ios": "https://dc.lft.to/lastmile_qr_scan"}, "fusion_lon": 0.0, "lat": 38.913126166666665, "bike_id": "f081161bccda22eb13fa953ef1fe5bdb", "type": "electric_scooter", "is_reserved": 0, "lon": -77.03197766666666}, {"fusion_lat": 0.0, "name": "321ac20d74c5ddbcf0bccda59d28f89b", "is_disabled": 0, "rental_uris": {"android": "https://dc.lft.to/lastmile_qr_scan", "ios": "https://dc.lft.to/lastmile_qr_scan"}, "fusion_lon": 0.0, "lat": 38.93020816666667, "bike_id": "321ac20d74c5ddbcf0bccda59d28f89b", "type": "electric_scooter", "is_reserved": 0, "lon": -77.0379025}, {"fusion_lat": 0.0, "name": "1037576b70bead53633bda59d0746f12", "is_disabled": 0, "rental_uris": {"android": "https://dc.lft.to/lastmile_qr_scan", "ios": "https://dc.lft.to/lastmile_qr_scan"}, "fusion_lon": 0.0, "lat": 38.92018633333333, "bike_id": "1037576b70bead53633bda59d0746f12", "type": "electric_scooter", "is_reserved": 0, "lon": -77.0389025}, {"fusion_lat": 0.0, "name": "ac63978042cf167ef435432eaac045b1", "is_disabled": 0, "rental_uris": {"android": "https://dc.lft.to/lastmile_qr_scan", "ios": "https://dc.lft.to/lastmile_qr_scan"}, "fusion_lon": 0.0, "lat": 38.90379433333333, "bike_id": "ac63978042cf167ef435432eaac045b1", "type": "electric_scooter", "is_reserved": 0, "lon": -76.976188}, {"fusion_lat": 0.0, "name": "8b82e8f2a1ad67c96ad8d032c132d65f", "is_disabled": 0, "rental_uris": {"android": "https://dc.lft.to/lastmile_qr_scan", "ios": "https://dc.lft.to/lastmile_qr_scan"}, "fusion_lon": 0.0, "lat": 38.9309065, "bike_id": "8b82e8f2a1ad67c96ad8d032c132d65f", "type": "electric_scooter", "is_reserved": 0, "lon": -77.02555}, {"fusion_lat": 0.0, "name": "0cbdf138da3b3acf046eacbd61f5f3a3", "is_disabled": 0, "rental_uris": {"android": "https://dc.lft.to/lastmile_qr_scan", "ios": "https://dc.lft.to/lastmile_qr_scan"}, "fusion_lon": 0.0, "lat": 38.9217425, "bike_id": "0cbdf138da3b3acf046eacbd61f5f3a3", "type": "electric_scooter", "is_reserved": 0, "lon": -77.03512066666667}, {"fusion_lat": 0.0, "name": "8a6bfbd9e2fdbcc69e6c7bf72f5b49ca", "is_disabled": 0, "rental_uris": {"android": "https://dc.lft.to/lastmile_qr_scan", "ios": "https://dc.lft.to/lastmile_qr_scan"}, "fusion_lon": 0.0, "lat": 38.905251, "bike_id": "8a6bfbd9e2fdbcc69e6c7bf72f5b49ca", "type": "electric_scooter", "is_reserved": 0, "lon": -77.02983633333334}, {"fusion_lat": 0.0, "name": "034569251f33df09f6ca2dae3b4c33dd", "is_disabled": 0, "rental_uris": {"android": "https://dc.lft.to/lastmile_qr_scan", "ios": "https://dc.lft.to/lastmile_qr_scan"}, "fusion_lon": 0.0, "lat": 38.8818395, "bike_id": "034569251f33df09f6ca2dae3b4c33dd", "type": "electric_scooter", "is_reserved": 0, "lon": -77.003552}, {"fusion_lat": 0.0, "name": "c9078db904d1def2888458795d364924", "is_disabled": 0, "rental_uris": {"android": "https://dc.lft.to/lastmile_qr_scan", "ios": "https://dc.lft.to/lastmile_qr_scan"}, "fusion_lon": 0.0, "lat": 38.904266666666665, "bike_id": "c9078db904d1def2888458795d364924", "type": "electric_scooter", "is_reserved": 0, "lon": -77.05151}, {"fusion_lat": 0.0, "name": "17d53b32e83f36b65f7e7051649d2cde", "is_disabled": 0, "rental_uris": {"android": "https://dc.lft.to/lastmile_qr_scan", "ios": "https://dc.lft.to/lastmile_qr_scan"}, "fusion_lon": 0.0, "lat": 38.91913066666667, "bike_id": "17d53b32e83f36b65f7e7051649d2cde", "type": "electric_scooter", "is_reserved": 0, "lon": -77.02459916666666}, {"fusion_lat": 0.0, "name": "b2b3f89de2093d904ea2b8b0ac6fb97a", "is_disabled": 0, "rental_uris": {"android": "https://dc.lft.to/lastmile_qr_scan", "ios": "https://dc.lft.to/lastmile_qr_scan"}, "fusion_lon": 0.0, "lat": 38.891980833333335, "bike_id": "b2b3f89de2093d904ea2b8b0ac6fb97a", "type": "electric_scooter", "is_reserved": 0, "lon": -77.01199366666667}, {"fusion_lat": 0.0, "name": "79fae7e58ecf04fb54081efa4a53e38f", "is_disabled": 0, "rental_uris": {"android": "https://dc.lft.to/lastmile_qr_scan", "ios": "https://dc.lft.to/lastmile_qr_scan"}, "fusion_lon": 0.0, "lat": 38.90899983333333, "bike_id": "79fae7e58ecf04fb54081efa4a53e38f", "type": "electric_scooter", "is_reserved": 0, "lon": -77.0441225}, {"fusion_lat": 0.0, "name": "cf11215ccee0dcacf7c905de50f019af", "is_disabled": 0, "rental_uris": {"android": "https://dc.lft.to/lastmile_qr_scan", "ios": "https://dc.lft.to/lastmile_qr_scan"}, "fusion_lon": 0.0, "lat": 38.8935545, "bike_id": "cf11215ccee0dcacf7c905de50f019af", "type": "electric_scooter", "is_reserved": 0, "lon": -76.98650416666666}, {"fusion_lat": 0.0, "name": "25a4d37ac1b5a6c99818dfe03af4a458", "is_disabled": 0, "rental_uris": {"android": "https://dc.lft.to/lastmile_qr_scan", "ios": "https://dc.lft.to/lastmile_qr_scan"}, "fusion_lon": 0.0, "lat": 38.91631016666667, "bike_id": "25a4d37ac1b5a6c99818dfe03af4a458", "type": "electric_scooter", "is_reserved": 0, "lon": -77.05073366666667}, {"fusion_lat": 0.0, "name": "304b3eea84e3b5c1ee782886a2e70187", "is_disabled": 0, "rental_uris": {"android": "https://dc.lft.to/lastmile_qr_scan", "ios": "https://dc.lft.to/lastmile_qr_scan"}, "fusion_lon": 0.0, "lat": 38.89998933333333, "bike_id": "304b3eea84e3b5c1ee782886a2e70187", "type": "electric_scooter", "is_reserved": 0, "lon": -76.99853033333333}, {"fusion_lat": 0.0, "name": "318e9b8ca2fde183d93d5f1db75dc494", "is_disabled": 0, "rental_uris": {"android": "https://dc.lft.to/lastmile_qr_scan", "ios": "https://dc.lft.to/lastmile_qr_scan"}, "fusion_lon": 0.0, "lat": 38.91846433333333, "bike_id": "318e9b8ca2fde183d93d5f1db75dc494", "type": "electric_scooter", "is_reserved": 0, "lon": -77.02315616666667}, {"fusion_lat": 0.0, "name": "56c03aa581496b58d1bf883e426c86a9", "is_disabled": 0, "rental_uris": {"android": "https://dc.lft.to/lastmile_qr_scan", "ios": "https://dc.lft.to/lastmile_qr_scan"}, "fusion_lon": 0.0, "lat": 38.93009166666667, "bike_id": "56c03aa581496b58d1bf883e426c86a9", "type": "electric_scooter", "is_reserved": 0, "lon": -77.0325395}, {"fusion_lat": 0.0, "name": "c26da4edae63fd38989d12c77976cf09", "is_disabled": 0, "rental_uris": {"android": "https://dc.lft.to/lastmile_qr_scan", "ios": "https://dc.lft.to/lastmile_qr_scan"}, "fusion_lon": 0.0, "lat": 38.892207166666665, "bike_id": "c26da4edae63fd38989d12c77976cf09", "type": "electric_scooter", "is_reserved": 0, "lon": -77.02311566666667}, {"fusion_lat": 0.0, "name": "6cff61a7488fa68a185df220bed7a360", "is_disabled": 0, "rental_uris": {"android": "https://dc.lft.to/lastmile_qr_scan", "ios": "https://dc.lft.to/lastmile_qr_scan"}, "fusion_lon": 0.0, "lat": 38.900189833333336, "bike_id": "6cff61a7488fa68a185df220bed7a360", "type": "electric_scooter", "is_reserved": 0, "lon": -76.9930895}, {"fusion_lat": 0.0, "name": "73a25ead2a22daa5760a692ea2ceece2", "is_disabled": 0, "rental_uris": {"android": "https://dc.lft.to/lastmile_qr_scan", "ios": "https://dc.lft.to/lastmile_qr_scan"}, "fusion_lon": 0.0, "lat": 38.931788, "bike_id": "73a25ead2a22daa5760a692ea2ceece2", "type": "electric_scooter", "is_reserved": 0, "lon": -77.0330755}, {"fusion_lat": 0.0, "name": "109c6267fadbc8fe3094a45cd76bdf44", "is_disabled": 0, "rental_uris": {"android": "https://dc.lft.to/lastmile_qr_scan", "ios": "https://dc.lft.to/lastmile_qr_scan"}, "fusion_lon": 0.0, "lat": 38.93404266666667, "bike_id": "109c6267fadbc8fe3094a45cd76bdf44", "type": "electric_scooter", "is_reserved": 0, "lon": -77.0220375}, {"fusion_lat": 0.0, "name": "cabc4a6632942f46452753c4db9ba0a2", "is_disabled": 0, "rental_uris": {"android": "https://dc.lft.to/lastmile_qr_scan", "ios": "https://dc.lft.to/lastmile_qr_scan"}, "fusion_lon": 0.0, "lat": 38.905474, "bike_id": "cabc4a6632942f46452753c4db9ba0a2", "type": "electric_scooter", "is_reserved": 0, "lon": -77.0467525}, {"fusion_lat": 0.0, "name": "bdbd69c361bed7597f1c3e1b6b12b5bc", "is_disabled": 0, "rental_uris": {"android": "https://dc.lft.to/lastmile_qr_scan", "ios": "https://dc.lft.to/lastmile_qr_scan"}, "fusion_lon": 0.0, "lat": 38.901424, "bike_id": "bdbd69c361bed7597f1c3e1b6b12b5bc", "type": "electric_scooter", "is_reserved": 0, "lon": -77.02603333333333}, {"fusion_lat": 0.0, "name": "6a0d924ec00ffbacec6e73ff662f82ba", "is_disabled": 0, "rental_uris": {"android": "https://dc.lft.to/lastmile_qr_scan", "ios": "https://dc.lft.to/lastmile_qr_scan"}, "fusion_lon": 0.0, "lat": 38.9096125, "bike_id": "6a0d924ec00ffbacec6e73ff662f82ba", "type": "electric_scooter", "is_reserved": 0, "lon": -77.02760633333334}, {"fusion_lat": 0.0, "name": "139ff1e74533ca824b526762ea0a367d", "is_disabled": 0, "rental_uris": {"android": "https://dc.lft.to/lastmile_qr_scan", "ios": "https://dc.lft.to/lastmile_qr_scan"}, "fusion_lon": 0.0, "lat": 38.900105, "bike_id": "139ff1e74533ca824b526762ea0a367d", "type": "electric_scooter", "is_reserved": 0, "lon": -77.006788}, {"fusion_lat": 0.0, "name": "9f960526a5b4e1c2ec5aaa3bcc600182", "is_disabled": 0, "rental_uris": {"android": "https://dc.lft.to/lastmile_qr_scan", "ios": "https://dc.lft.to/lastmile_qr_scan"}, "fusion_lon": 0.0, "lat": 38.90074083333333, "bike_id": "9f960526a5b4e1c2ec5aaa3bcc600182", "type": "electric_scooter", "is_reserved": 0, "lon": -76.94690966666667}, {"fusion_lat": 0.0, "name": "0701ba3ccd5bb36ab79d8181ff1fef79", "is_disabled": 0, "rental_uris": {"android": "https://dc.lft.to/lastmile_qr_scan", "ios": "https://dc.lft.to/lastmile_qr_scan"}, "fusion_lon": 0.0, "lat": 38.9542, "bike_id": "0701ba3ccd5bb36ab79d8181ff1fef79", "type": "electric_scooter", "is_reserved": 0, "lon": -77.0276575}, {"fusion_lat": 0.0, "name": "32e82cd0efb27491d2e7995a71b5e214", "is_disabled": 0, "rental_uris": {"android": "https://dc.lft.to/lastmile_qr_scan", "ios": "https://dc.lft.to/lastmile_qr_scan"}, "fusion_lon": 0.0, "lat": 38.90073666666667, "bike_id": "32e82cd0efb27491d2e7995a71b5e214", "type": "electric_scooter", "is_reserved": 0, "lon": -77.02812533333334}, {"fusion_lat": 0.0, "name": "ad8113507bdbb14044c8c6335ce4a990", "is_disabled": 0, "rental_uris": {"android": "https://dc.lft.to/lastmile_qr_scan", "ios": "https://dc.lft.to/lastmile_qr_scan"}, "fusion_lon": 0.0, "lat": 38.89759466666667, "bike_id": "ad8113507bdbb14044c8c6335ce4a990", "type": "electric_scooter", "is_reserved": 0, "lon": -77.04532283333333}, {"fusion_lat": 0.0, "name": "c536f83c90ace9cc5e431d85d918b64b", "is_disabled": 0, "rental_uris": {"android": "https://dc.lft.to/lastmile_qr_scan", "ios": "https://dc.lft.to/lastmile_qr_scan"}, "fusion_lon": 0.0, "lat": 38.92430516666667, "bike_id": "c536f83c90ace9cc5e431d85d918b64b", "type": "electric_scooter", "is_reserved": 0, "lon": -77.05175266666667}, {"fusion_lat": 0.0, "name": "22c0d73353230e2d2f315e3f76a9dae5", "is_disabled": 0, "rental_uris": {"android": "https://dc.lft.to/lastmile_qr_scan", "ios": "https://dc.lft.to/lastmile_qr_scan"}, "fusion_lon": 0.0, "lat": 38.90029666666667, "bike_id": "22c0d73353230e2d2f315e3f76a9dae5", "type": "electric_scooter", "is_reserved": 0, "lon": -77.0033075}, {"fusion_lat": 0.0, "name": "a2aecf634b500bb268b0daa75f0b6a4e", "is_disabled": 0, "rental_uris": {"android": "https://dc.lft.to/lastmile_qr_scan", "ios": "https://dc.lft.to/lastmile_qr_scan"}, "fusion_lon": 0.0, "lat": 38.896657166666664, "bike_id": "a2aecf634b500bb268b0daa75f0b6a4e", "type": "electric_scooter", "is_reserved": 0, "lon": -77.01186866666667}, {"fusion_lat": 0.0, "name": "6269e503d1eb28c86f82d077dca45dd9", "is_disabled": 0, "rental_uris": {"android": "https://dc.lft.to/lastmile_qr_scan", "ios": "https://dc.lft.to/lastmile_qr_scan"}, "fusion_lon": 0.0, "lat": 38.87126683333334, "bike_id": "6269e503d1eb28c86f82d077dca45dd9", "type": "electric_scooter", "is_reserved": 0, "lon": -77.0122765}, {"fusion_lat": 0.0, "name": "812ea13db007fc30fc73b2ae3e56fafb", "is_disabled": 0, "rental_uris": {"android": "https://dc.lft.to/lastmile_qr_scan", "ios": "https://dc.lft.to/lastmile_qr_scan"}, "fusion_lon": 0.0, "lat": 38.910493833333334, "bike_id": "812ea13db007fc30fc73b2ae3e56fafb", "type": "electric_scooter", "is_reserved": 0, "lon": -77.04371316666666}, {"fusion_lat": 0.0, "name": "d20f3df06e37c683ab3e84c7a82d528f", "is_disabled": 0, "rental_uris": {"android": "https://dc.lft.to/lastmile_qr_scan", "ios": "https://dc.lft.to/lastmile_qr_scan"}, "fusion_lon": 0.0, "lat": 38.926123833333335, "bike_id": "d20f3df06e37c683ab3e84c7a82d528f", "type": "electric_scooter", "is_reserved": 0, "lon": -77.07568916666666}, {"fusion_lat": 0.0, "name": "fbb1aa9f9903b0e39fefa27073b2d842", "is_disabled": 0, "rental_uris": {"android": "https://dc.lft.to/lastmile_qr_scan", "ios": "https://dc.lft.to/lastmile_qr_scan"}, "fusion_lon": 0.0, "lat": 38.905210333333336, "bike_id": "fbb1aa9f9903b0e39fefa27073b2d842", "type": "electric_scooter", "is_reserved": 0, "lon": -77.06135716666667}, {"fusion_lat": 0.0, "name": "962c01a3cf6d2761a3cf2ceccb83878c", "is_disabled": 0, "rental_uris": {"android": "https://dc.lft.to/lastmile_qr_scan", "ios": "https://dc.lft.to/lastmile_qr_scan"}, "fusion_lon": 0.0, "lat": 38.91599166666666, "bike_id": "962c01a3cf6d2761a3cf2ceccb83878c", "type": "electric_scooter", "is_reserved": 0, "lon": -77.045602}, {"fusion_lat": 0.0, "name": "568b45e13aab81de6180e186e06c1cdd", "is_disabled": 0, "rental_uris": {"android": "https://dc.lft.to/lastmile_qr_scan", "ios": "https://dc.lft.to/lastmile_qr_scan"}, "fusion_lon": 0.0, "lat": 38.9230055, "bike_id": "568b45e13aab81de6180e186e06c1cdd", "type": "electric_scooter", "is_reserved": 0, "lon": -77.02330466666666}, {"fusion_lat": 0.0, "name": "4af1542a0128826f4ee380cebda8c7ac", "is_disabled": 0, "rental_uris": {"android": "https://dc.lft.to/lastmile_qr_scan", "ios": "https://dc.lft.to/lastmile_qr_scan"}, "fusion_lon": 0.0, "lat": 38.9010975, "bike_id": "4af1542a0128826f4ee380cebda8c7ac", "type": "electric_scooter", "is_reserved": 0, "lon": -76.9742725}, {"fusion_lat": 0.0, "name": "a97bb5636538dbce31a3bedd9ef42d92", "is_disabled": 0, "rental_uris": {"android": "https://dc.lft.to/lastmile_qr_scan", "ios": "https://dc.lft.to/lastmile_qr_scan"}, "fusion_lon": 0.0, "lat": 38.92826483333333, "bike_id": "a97bb5636538dbce31a3bedd9ef42d92", "type": "electric_scooter", "is_reserved": 0, "lon": -77.02253916666666}, {"fusion_lat": 0.0, "name": "c01aff4f82a575a966031b49bc33ee30", "is_disabled": 0, "rental_uris": {"android": "https://dc.lft.to/lastmile_qr_scan", "ios": "https://dc.lft.to/lastmile_qr_scan"}, "fusion_lon": 0.0, "lat": 38.8837425, "bike_id": "c01aff4f82a575a966031b49bc33ee30", "type": "electric_scooter", "is_reserved": 0, "lon": -77.01364266666667}, {"fusion_lat": 0.0, "name": "d108f5fb3631822b2d42b4b015a0bcec", "is_disabled": 0, "rental_uris": {"android": "https://dc.lft.to/lastmile_qr_scan", "ios": "https://dc.lft.to/lastmile_qr_scan"}, "fusion_lon": 0.0, "lat": 38.897667, "bike_id": "d108f5fb3631822b2d42b4b015a0bcec", "type": "electric_scooter", "is_reserved": 0, "lon": -77.002058}, {"fusion_lat": 0.0, "name": "cb6b68589510f245b99fe1160c352256", "is_disabled": 0, "rental_uris": {"android": "https://dc.lft.to/lastmile_qr_scan", "ios": "https://dc.lft.to/lastmile_qr_scan"}, "fusion_lon": 0.0, "lat": 38.907006, "bike_id": "cb6b68589510f245b99fe1160c352256", "type": "electric_scooter", "is_reserved": 0, "lon": -77.07166766666667}, {"fusion_lat": 0.0, "name": "0b483fa9500c307e70035e39dba7bc15", "is_disabled": 0, "rental_uris": {"android": "https://dc.lft.to/lastmile_qr_scan", "ios": "https://dc.lft.to/lastmile_qr_scan"}, "fusion_lon": 0.0, "lat": 38.92295516666667, "bike_id": "0b483fa9500c307e70035e39dba7bc15", "type": "electric_scooter", "is_reserved": 0, "lon": -77.04209516666667}, {"fusion_lat": 0.0, "name": "0c5a3309c1b5df3ad57df5ae12fcee9c", "is_disabled": 0, "rental_uris": {"android": "https://dc.lft.to/lastmile_qr_scan", "ios": "https://dc.lft.to/lastmile_qr_scan"}, "fusion_lon": 0.0, "lat": 38.907307333333335, "bike_id": "0c5a3309c1b5df3ad57df5ae12fcee9c", "type": "electric_scooter", "is_reserved": 0, "lon": -77.043379}, {"fusion_lat": 0.0, "name": "d12e5523d600db0e6616770c31192589", "is_disabled": 0, "rental_uris": {"android": "https://dc.lft.to/lastmile_qr_scan", "ios": "https://dc.lft.to/lastmile_qr_scan"}, "fusion_lon": 0.0, "lat": 38.91923333333333, "bike_id": "d12e5523d600db0e6616770c31192589", "type": "electric_scooter", "is_reserved": 0, "lon": -77.02661933333333}, {"fusion_lat": 0.0, "name": "3db02e94fb6f0aa578eebeecc1fd3eb2", "is_disabled": 0, "rental_uris": {"android": "https://dc.lft.to/lastmile_qr_scan", "ios": "https://dc.lft.to/lastmile_qr_scan"}, "fusion_lon": 0.0, "lat": 38.900480333333334, "bike_id": "3db02e94fb6f0aa578eebeecc1fd3eb2", "type": "electric_scooter", "is_reserved": 0, "lon": -77.0162525}, {"fusion_lat": 0.0, "name": "cdad6c8c410b45c98e545272b0d9beb5", "is_disabled": 0, "rental_uris": {"android": "https://dc.lft.to/lastmile_qr_scan", "ios": "https://dc.lft.to/lastmile_qr_scan"}, "fusion_lon": 0.0, "lat": 38.91011133333333, "bike_id": "cdad6c8c410b45c98e545272b0d9beb5", "type": "electric_scooter", "is_reserved": 0, "lon": -77.052783}, {"fusion_lat": 0.0, "name": "b0bf8ecb051b566f85ba04a6b7302118", "is_disabled": 0, "rental_uris": {"android": "https://dc.lft.to/lastmile_qr_scan", "ios": "https://dc.lft.to/lastmile_qr_scan"}, "fusion_lon": 0.0, "lat": 38.88391416666666, "bike_id": "b0bf8ecb051b566f85ba04a6b7302118", "type": "electric_scooter", "is_reserved": 0, "lon": -76.93045383333333}, {"fusion_lat": 0.0, "name": "72237afdd0db932740a0f00766e700cf", "is_disabled": 0, "rental_uris": {"android": "https://dc.lft.to/lastmile_qr_scan", "ios": "https://dc.lft.to/lastmile_qr_scan"}, "fusion_lon": 0.0, "lat": 38.93035, "bike_id": "72237afdd0db932740a0f00766e700cf", "type": "electric_scooter", "is_reserved": 0, "lon": -77.03789}, {"fusion_lat": 0.0, "name": "26d25b1ae88b6fb11a13cfe56dfba750", "is_disabled": 0, "rental_uris": {"android": "https://dc.lft.to/lastmile_qr_scan", "ios": "https://dc.lft.to/lastmile_qr_scan"}, "fusion_lon": 0.0, "lat": 38.914027, "bike_id": "26d25b1ae88b6fb11a13cfe56dfba750", "type": "electric_scooter", "is_reserved": 0, "lon": -77.07553866666667}, {"fusion_lat": 0.0, "name": "5f06c2fdc00800cb181681b0a479a632", "is_disabled": 0, "rental_uris": {"android": "https://dc.lft.to/lastmile_qr_scan", "ios": "https://dc.lft.to/lastmile_qr_scan"}, "fusion_lon": 0.0, "lat": 38.887446833333335, "bike_id": "5f06c2fdc00800cb181681b0a479a632", "type": "electric_scooter", "is_reserved": 0, "lon": -77.02135866666667}, {"fusion_lat": 0.0, "name": "6d5b3d88b7288575c9eb40f8744a19e3", "is_disabled": 0, "rental_uris": {"android": "https://dc.lft.to/lastmile_qr_scan", "ios": "https://dc.lft.to/lastmile_qr_scan"}, "fusion_lon": 0.0, "lat": 38.896821333333335, "bike_id": "6d5b3d88b7288575c9eb40f8744a19e3", "type": "electric_scooter", "is_reserved": 0, "lon": -77.02460766666667}, {"fusion_lat": 0.0, "name": "04bce33fac6054f99c9e94381456064b", "is_disabled": 0, "rental_uris": {"android": "https://dc.lft.to/lastmile_qr_scan", "ios": "https://dc.lft.to/lastmile_qr_scan"}, "fusion_lon": 0.0, "lat": 38.92287616666667, "bike_id": "04bce33fac6054f99c9e94381456064b", "type": "electric_scooter", "is_reserved": 0, "lon": -77.036624}, {"fusion_lat": 0.0, "name": "ae9bb2d0be63d0097315a90bec39ba8e", "is_disabled": 0, "rental_uris": {"android": "https://dc.lft.to/lastmile_qr_scan", "ios": "https://dc.lft.to/lastmile_qr_scan"}, "fusion_lon": 0.0, "lat": 38.917648, "bike_id": "ae9bb2d0be63d0097315a90bec39ba8e", "type": "electric_scooter", "is_reserved": 0, "lon": -77.03585316666667}, {"fusion_lat": 0.0, "name": "b2ce4816b7a0436fcec8535d73aa7bf6", "is_disabled": 0, "rental_uris": {"android": "https://dc.lft.to/lastmile_qr_scan", "ios": "https://dc.lft.to/lastmile_qr_scan"}, "fusion_lon": 0.0, "lat": 38.8995045, "bike_id": "b2ce4816b7a0436fcec8535d73aa7bf6", "type": "electric_scooter", "is_reserved": 0, "lon": -77.05705883333333}, {"fusion_lat": 0.0, "name": "00757c2f525f273713d27dc21c29171b", "is_disabled": 0, "rental_uris": {"android": "https://dc.lft.to/lastmile_qr_scan", "ios": "https://dc.lft.to/lastmile_qr_scan"}, "fusion_lon": 0.0, "lat": 38.9028635, "bike_id": "00757c2f525f273713d27dc21c29171b", "type": "electric_scooter", "is_reserved": 0, "lon": -77.03646516666667}, {"fusion_lat": 0.0, "name": "c54461c604a4d9cf4042799a7016e5ce", "is_disabled": 0, "rental_uris": {"android": "https://dc.lft.to/lastmile_qr_scan", "ios": "https://dc.lft.to/lastmile_qr_scan"}, "fusion_lon": 0.0, "lat": 38.921752833333336, "bike_id": "c54461c604a4d9cf4042799a7016e5ce", "type": "electric_scooter", "is_reserved": 0, "lon": -77.026642}, {"fusion_lat": 0.0, "name": "ca1336a32c1e2f2717d76c2987eaa11a", "is_disabled": 0, "rental_uris": {"android": "https://dc.lft.to/lastmile_qr_scan", "ios": "https://dc.lft.to/lastmile_qr_scan"}, "fusion_lon": 0.0, "lat": 38.90436366666667, "bike_id": "ca1336a32c1e2f2717d76c2987eaa11a", "type": "electric_scooter", "is_reserved": 0, "lon": -76.97949583333333}, {"fusion_lat": 0.0, "name": "8a3fdd5084cb8f2fd9212f5d03bff0d1", "is_disabled": 0, "rental_uris": {"android": "https://dc.lft.to/lastmile_qr_scan", "ios": "https://dc.lft.to/lastmile_qr_scan"}, "fusion_lon": 0.0, "lat": 38.9038475, "bike_id": "8a3fdd5084cb8f2fd9212f5d03bff0d1", "type": "electric_scooter", "is_reserved": 0, "lon": -77.03414383333333}, {"fusion_lat": 0.0, "name": "e8eb3cc47d19ccdd4d0bfd406dfa4dc6", "is_disabled": 0, "rental_uris": {"android": "https://dc.lft.to/lastmile_qr_scan", "ios": "https://dc.lft.to/lastmile_qr_scan"}, "fusion_lon": 0.0, "lat": 38.876372333333336, "bike_id": "e8eb3cc47d19ccdd4d0bfd406dfa4dc6", "type": "electric_scooter", "is_reserved": 0, "lon": -77.00920733333334}, {"fusion_lat": 0.0, "name": "620d525217614582f35ceb47c373622a", "is_disabled": 0, "rental_uris": {"android": "https://dc.lft.to/lastmile_qr_scan", "ios": "https://dc.lft.to/lastmile_qr_scan"}, "fusion_lon": 0.0, "lat": 38.929849, "bike_id": "620d525217614582f35ceb47c373622a", "type": "electric_scooter", "is_reserved": 0, "lon": -77.0346875}, {"fusion_lat": 0.0, "name": "b4bb26cffa9edae1d969a5a4a584574a", "is_disabled": 0, "rental_uris": {"android": "https://dc.lft.to/lastmile_qr_scan", "ios": "https://dc.lft.to/lastmile_qr_scan"}, "fusion_lon": 0.0, "lat": 38.929957333333334, "bike_id": "b4bb26cffa9edae1d969a5a4a584574a", "type": "electric_scooter", "is_reserved": 0, "lon": -77.03799083333334}, {"fusion_lat": 0.0, "name": "e5bcfa237806ac75f85392937549cbeb", "is_disabled": 0, "rental_uris": {"android": "https://dc.lft.to/lastmile_qr_scan", "ios": "https://dc.lft.to/lastmile_qr_scan"}, "fusion_lon": 0.0, "lat": 38.908036333333335, "bike_id": "e5bcfa237806ac75f85392937549cbeb", "type": "electric_scooter", "is_reserved": 0, "lon": -77.04349416666666}, {"fusion_lat": 0.0, "name": "85b3bc483bae6d99750ded7a5b84de08", "is_disabled": 0, "rental_uris": {"android": "https://dc.lft.to/lastmile_qr_scan", "ios": "https://dc.lft.to/lastmile_qr_scan"}, "fusion_lon": 0.0, "lat": 38.8840215, "bike_id": "85b3bc483bae6d99750ded7a5b84de08", "type": "electric_scooter", "is_reserved": 0, "lon": -77.02996066666667}, {"fusion_lat": 0.0, "name": "e75a331a724492391bbe445b15304cd0", "is_disabled": 0, "rental_uris": {"android": "https://dc.lft.to/lastmile_qr_scan", "ios": "https://dc.lft.to/lastmile_qr_scan"}, "fusion_lon": 0.0, "lat": 38.915397, "bike_id": "e75a331a724492391bbe445b15304cd0", "type": "electric_scooter", "is_reserved": 0, "lon": -77.0320585}, {"fusion_lat": 0.0, "name": "fdd7f5f46528a827a02980e5ecd7cc9f", "is_disabled": 0, "rental_uris": {"android": "https://dc.lft.to/lastmile_qr_scan", "ios": "https://dc.lft.to/lastmile_qr_scan"}, "fusion_lon": 0.0, "lat": 38.89574833333333, "bike_id": "fdd7f5f46528a827a02980e5ecd7cc9f", "type": "electric_scooter", "is_reserved": 0, "lon": -77.02313}, {"fusion_lat": 0.0, "name": "36eaadd9461fc83e299e2e7066f41419", "is_disabled": 0, "rental_uris": {"android": "https://dc.lft.to/lastmile_qr_scan", "ios": "https://dc.lft.to/lastmile_qr_scan"}, "fusion_lon": 0.0, "lat": 38.90665466666667, "bike_id": "36eaadd9461fc83e299e2e7066f41419", "type": "electric_scooter", "is_reserved": 0, "lon": -77.03862233333334}, {"fusion_lat": 0.0, "name": "c483119887e86efc23c01dd90cbc355b", "is_disabled": 0, "rental_uris": {"android": "https://dc.lft.to/lastmile_qr_scan", "ios": "https://dc.lft.to/lastmile_qr_scan"}, "fusion_lon": 0.0, "lat": 38.9024585, "bike_id": "c483119887e86efc23c01dd90cbc355b", "type": "electric_scooter", "is_reserved": 0, "lon": -77.01849333333334}, {"fusion_lat": 0.0, "name": "b253e93321834102410159049d160a73", "is_disabled": 0, "rental_uris": {"android": "https://dc.lft.to/lastmile_qr_scan", "ios": "https://dc.lft.to/lastmile_qr_scan"}, "fusion_lon": 0.0, "lat": 38.88745883333333, "bike_id": "b253e93321834102410159049d160a73", "type": "electric_scooter", "is_reserved": 0, "lon": -76.99847316666667}, {"fusion_lat": 0.0, "name": "1939f30dbb00bc573f31e76d5179f5fa", "is_disabled": 0, "rental_uris": {"android": "https://dc.lft.to/lastmile_qr_scan", "ios": "https://dc.lft.to/lastmile_qr_scan"}, "fusion_lon": 0.0, "lat": 38.92121933333333, "bike_id": "1939f30dbb00bc573f31e76d5179f5fa", "type": "electric_scooter", "is_reserved": 0, "lon": -77.04431066666666}, {"fusion_lat": 0.0, "name": "f9cebed8076cc25430375fc7efde7aad", "is_disabled": 0, "rental_uris": {"android": "https://dc.lft.to/lastmile_qr_scan", "ios": "https://dc.lft.to/lastmile_qr_scan"}, "fusion_lon": 0.0, "lat": 38.83366733333333, "bike_id": "f9cebed8076cc25430375fc7efde7aad", "type": "electric_bike", "is_reserved": 0, "lon": -77.00303533333333}, {"fusion_lat": 0.0, "name": "4c61e2b514d378b935052bc419736194", "is_disabled": 0, "rental_uris": {"android": "https://dc.lft.to/lastmile_qr_scan", "ios": "https://dc.lft.to/lastmile_qr_scan"}, "fusion_lon": 0.0, "lat": 38.91557866666667, "bike_id": "4c61e2b514d378b935052bc419736194", "type": "electric_scooter", "is_reserved": 0, "lon": -77.03144166666667}, {"fusion_lat": 0.0, "name": "b31be5f317e9502bb477949968208cdc", "is_disabled": 0, "rental_uris": {"android": "https://dc.lft.to/lastmile_qr_scan", "ios": "https://dc.lft.to/lastmile_qr_scan"}, "fusion_lon": 0.0, "lat": 38.907974, "bike_id": "b31be5f317e9502bb477949968208cdc", "type": "electric_scooter", "is_reserved": 0, "lon": -77.0319565}, {"fusion_lat": 0.0, "name": "e15dde7c71eb5e27c66dabd58d17674e", "is_disabled": 0, "rental_uris": {"android": "https://dc.lft.to/lastmile_qr_scan", "ios": "https://dc.lft.to/lastmile_qr_scan"}, "fusion_lon": 0.0, "lat": 38.917097, "bike_id": "e15dde7c71eb5e27c66dabd58d17674e", "type": "electric_scooter", "is_reserved": 0, "lon": -76.97663566666667}, {"fusion_lat": 0.0, "name": "7d3f7a2b02b5cbc3e01699a220bf7ee6", "is_disabled": 0, "rental_uris": {"android": "https://dc.lft.to/lastmile_qr_scan", "ios": "https://dc.lft.to/lastmile_qr_scan"}, "fusion_lon": 0.0, "lat": 38.87965416666667, "bike_id": "7d3f7a2b02b5cbc3e01699a220bf7ee6", "type": "electric_bike", "is_reserved": 0, "lon": -76.91619716666666}, {"fusion_lat": 0.0, "name": "33b41c69e8886c7f4c0ec0ae362896df", "is_disabled": 0, "rental_uris": {"android": "https://dc.lft.to/lastmile_qr_scan", "ios": "https://dc.lft.to/lastmile_qr_scan"}, "fusion_lon": 0.0, "lat": 38.940862333333335, "bike_id": "33b41c69e8886c7f4c0ec0ae362896df", "type": "electric_scooter", "is_reserved": 0, "lon": -77.02991033333333}, {"fusion_lat": 0.0, "name": "7dba44a3f6b772e62e5b643bc5f6de58", "is_disabled": 0, "rental_uris": {"android": "https://dc.lft.to/lastmile_qr_scan", "ios": "https://dc.lft.to/lastmile_qr_scan"}, "fusion_lon": 0.0, "lat": 38.90088733333333, "bike_id": "7dba44a3f6b772e62e5b643bc5f6de58", "type": "electric_scooter", "is_reserved": 0, "lon": -76.98329183333334}, {"fusion_lat": 0.0, "name": "6f4925cc3b02f215f8f1b449cc209dd7", "is_disabled": 0, "rental_uris": {"android": "https://dc.lft.to/lastmile_qr_scan", "ios": "https://dc.lft.to/lastmile_qr_scan"}, "fusion_lon": 0.0, "lat": 38.917905833333336, "bike_id": "6f4925cc3b02f215f8f1b449cc209dd7", "type": "electric_bike", "is_reserved": 0, "lon": -77.03202366666666}, {"fusion_lat": 0.0, "name": "fd6b33294cc5379e5526a4c963f33e8a", "is_disabled": 0, "rental_uris": {"android": "https://dc.lft.to/lastmile_qr_scan", "ios": "https://dc.lft.to/lastmile_qr_scan"}, "fusion_lon": 0.0, "lat": 38.9560285, "bike_id": "fd6b33294cc5379e5526a4c963f33e8a", "type": "electric_scooter", "is_reserved": 0, "lon": -77.03356633333334}, {"fusion_lat": 0.0, "name": "b1136a933f8d05039d79bcfd634599d8", "is_disabled": 0, "rental_uris": {"android": "https://dc.lft.to/lastmile_qr_scan", "ios": "https://dc.lft.to/lastmile_qr_scan"}, "fusion_lon": 0.0, "lat": 38.91702133333333, "bike_id": "b1136a933f8d05039d79bcfd634599d8", "type": "electric_scooter", "is_reserved": 0, "lon": -77.0240075}, {"fusion_lat": 0.0, "name": "130550618b14b26db8e3c406469983c7", "is_disabled": 0, "rental_uris": {"android": "https://dc.lft.to/lastmile_qr_scan", "ios": "https://dc.lft.to/lastmile_qr_scan"}, "fusion_lon": 0.0, "lat": 38.917707166666666, "bike_id": "130550618b14b26db8e3c406469983c7", "type": "electric_scooter", "is_reserved": 0, "lon": -77.01453366666667}, {"fusion_lat": 0.0, "name": "298f424a76197efe91133b3d0521838b", "is_disabled": 0, "rental_uris": {"android": "https://dc.lft.to/lastmile_qr_scan", "ios": "https://dc.lft.to/lastmile_qr_scan"}, "fusion_lon": 0.0, "lat": 38.9369845, "bike_id": "298f424a76197efe91133b3d0521838b", "type": "electric_scooter", "is_reserved": 0, "lon": -77.03283633333334}, {"fusion_lat": 0.0, "name": "f4d10f180e98b355ba0d7eaf5430ba41", "is_disabled": 0, "rental_uris": {"android": "https://dc.lft.to/lastmile_qr_scan", "ios": "https://dc.lft.to/lastmile_qr_scan"}, "fusion_lon": 0.0, "lat": 38.886264, "bike_id": "f4d10f180e98b355ba0d7eaf5430ba41", "type": "electric_scooter", "is_reserved": 0, "lon": -77.02837583333333}, {"fusion_lat": 0.0, "name": "63560ab94ed9362c39b53c72b14dfc3b", "is_disabled": 0, "rental_uris": {"android": "https://dc.lft.to/lastmile_qr_scan", "ios": "https://dc.lft.to/lastmile_qr_scan"}, "fusion_lon": 0.0, "lat": 38.915540666666665, "bike_id": "63560ab94ed9362c39b53c72b14dfc3b", "type": "electric_scooter", "is_reserved": 0, "lon": -77.01057733333333}, {"fusion_lat": 0.0, "name": "386c021a3896af6cbb71d767ea605842", "is_disabled": 0, "rental_uris": {"android": "https://dc.lft.to/lastmile_qr_scan", "ios": "https://dc.lft.to/lastmile_qr_scan"}, "fusion_lon": 0.0, "lat": 38.8922565, "bike_id": "386c021a3896af6cbb71d767ea605842", "type": "electric_scooter", "is_reserved": 0, "lon": -77.04093066666667}, {"fusion_lat": 0.0, "name": "847c383ac61fd556a1d40f8c01ba00fe", "is_disabled": 0, "rental_uris": {"android": "https://dc.lft.to/lastmile_qr_scan", "ios": "https://dc.lft.to/lastmile_qr_scan"}, "fusion_lon": 0.0, "lat": 38.90219116666667, "bike_id": "847c383ac61fd556a1d40f8c01ba00fe", "type": "electric_scooter", "is_reserved": 0, "lon": -77.05973833333333}, {"fusion_lat": 0.0, "name": "c8b370dde8886404b2e33b4fcf6283ba", "is_disabled": 0, "rental_uris": {"android": "https://dc.lft.to/lastmile_qr_scan", "ios": "https://dc.lft.to/lastmile_qr_scan"}, "fusion_lon": 0.0, "lat": 38.904110833333334, "bike_id": "c8b370dde8886404b2e33b4fcf6283ba", "type": "electric_scooter", "is_reserved": 0, "lon": -77.024814}, {"fusion_lat": 0.0, "name": "8c01a56d7cdb95ea020ff1719592ff04", "is_disabled": 0, "rental_uris": {"android": "https://dc.lft.to/lastmile_qr_scan", "ios": "https://dc.lft.to/lastmile_qr_scan"}, "fusion_lon": 0.0, "lat": 38.90578716666667, "bike_id": "8c01a56d7cdb95ea020ff1719592ff04", "type": "electric_scooter", "is_reserved": 0, "lon": -77.044486}, {"fusion_lat": 0.0, "name": "366831e4ef4104134fcf7e20a85079d7", "is_disabled": 0, "rental_uris": {"android": "https://dc.lft.to/lastmile_qr_scan", "ios": "https://dc.lft.to/lastmile_qr_scan"}, "fusion_lon": 0.0, "lat": 38.91818583333333, "bike_id": "366831e4ef4104134fcf7e20a85079d7", "type": "electric_scooter", "is_reserved": 0, "lon": -77.03753333333333}, {"fusion_lat": 0.0, "name": "dbbceb5191deb404c43d6ecad76e5161", "is_disabled": 0, "rental_uris": {"android": "https://dc.lft.to/lastmile_qr_scan", "ios": "https://dc.lft.to/lastmile_qr_scan"}, "fusion_lon": 0.0, "lat": 38.918173833333334, "bike_id": "dbbceb5191deb404c43d6ecad76e5161", "type": "electric_scooter", "is_reserved": 0, "lon": -77.03069683333334}, {"fusion_lat": 0.0, "name": "76c649417fe482e16b1dd701d05e7d73", "is_disabled": 0, "rental_uris": {"android": "https://dc.lft.to/lastmile_qr_scan", "ios": "https://dc.lft.to/lastmile_qr_scan"}, "fusion_lon": 0.0, "lat": 38.9231785, "bike_id": "76c649417fe482e16b1dd701d05e7d73", "type": "electric_scooter", "is_reserved": 0, "lon": -77.04027966666666}, {"fusion_lat": 0.0, "name": "82b2ea25a1b1ac8046ba61b6bb479a89", "is_disabled": 0, "rental_uris": {"android": "https://dc.lft.to/lastmile_qr_scan", "ios": "https://dc.lft.to/lastmile_qr_scan"}, "fusion_lon": 0.0, "lat": 38.87649483333333, "bike_id": "82b2ea25a1b1ac8046ba61b6bb479a89", "type": "electric_scooter", "is_reserved": 0, "lon": -77.0011215}, {"fusion_lat": 0.0, "name": "0456f2777c9f44be756a5ef82aec4be9", "is_disabled": 0, "rental_uris": {"android": "https://dc.lft.to/lastmile_qr_scan", "ios": "https://dc.lft.to/lastmile_qr_scan"}, "fusion_lon": 0.0, "lat": 38.92503816666667, "bike_id": "0456f2777c9f44be756a5ef82aec4be9", "type": "electric_scooter", "is_reserved": 0, "lon": -77.02168433333334}, {"fusion_lat": 0.0, "name": "f6f7b52c1c5b011f1c3e594cf494e2c0", "is_disabled": 0, "rental_uris": {"android": "https://dc.lft.to/lastmile_qr_scan", "ios": "https://dc.lft.to/lastmile_qr_scan"}, "fusion_lon": 0.0, "lat": 38.91333483333333, "bike_id": "f6f7b52c1c5b011f1c3e594cf494e2c0", "type": "electric_scooter", "is_reserved": 0, "lon": -77.047932}, {"fusion_lat": 0.0, "name": "c8b372c5fb6857e9f77fc70346c2e4dc", "is_disabled": 0, "rental_uris": {"android": "https://dc.lft.to/lastmile_qr_scan", "ios": "https://dc.lft.to/lastmile_qr_scan"}, "fusion_lon": 0.0, "lat": 38.9178135, "bike_id": "c8b372c5fb6857e9f77fc70346c2e4dc", "type": "electric_scooter", "is_reserved": 0, "lon": -77.0231015}, {"fusion_lat": 0.0, "name": "ca70d94208023c29ea5abefef10c84e2", "is_disabled": 0, "rental_uris": {"android": "https://dc.lft.to/lastmile_qr_scan", "ios": "https://dc.lft.to/lastmile_qr_scan"}, "fusion_lon": 0.0, "lat": 38.877463, "bike_id": "ca70d94208023c29ea5abefef10c84e2", "type": "electric_scooter", "is_reserved": 0, "lon": -77.00738116666666}, {"fusion_lat": 0.0, "name": "da7f3d48e7397a8ccc3a1693b4bb97a2", "is_disabled": 0, "rental_uris": {"android": "https://dc.lft.to/lastmile_qr_scan", "ios": "https://dc.lft.to/lastmile_qr_scan"}, "fusion_lon": 0.0, "lat": 38.92554916666667, "bike_id": "da7f3d48e7397a8ccc3a1693b4bb97a2", "type": "electric_scooter", "is_reserved": 0, "lon": -77.04289666666666}, {"fusion_lat": 0.0, "name": "f3951ce4d0067632fb2215fedacf79f6", "is_disabled": 0, "rental_uris": {"android": "https://dc.lft.to/lastmile_qr_scan", "ios": "https://dc.lft.to/lastmile_qr_scan"}, "fusion_lon": 0.0, "lat": 38.901071333333334, "bike_id": "f3951ce4d0067632fb2215fedacf79f6", "type": "electric_scooter", "is_reserved": 0, "lon": -77.0256815}, {"fusion_lat": 0.0, "name": "7ce4de8aedc02d261571eed76a2bb5ff", "is_disabled": 0, "rental_uris": {"android": "https://dc.lft.to/lastmile_qr_scan", "ios": "https://dc.lft.to/lastmile_qr_scan"}, "fusion_lon": 0.0, "lat": 38.91420566666667, "bike_id": "7ce4de8aedc02d261571eed76a2bb5ff", "type": "electric_scooter", "is_reserved": 0, "lon": -77.0450355}, {"fusion_lat": 0.0, "name": "3b7a7d6debcbb02083a243b9976b35dd", "is_disabled": 0, "rental_uris": {"android": "https://dc.lft.to/lastmile_qr_scan", "ios": "https://dc.lft.to/lastmile_qr_scan"}, "fusion_lon": 0.0, "lat": 38.91810616666667, "bike_id": "3b7a7d6debcbb02083a243b9976b35dd", "type": "electric_scooter", "is_reserved": 0, "lon": -77.0267975}, {"fusion_lat": 0.0, "name": "3a4a7a56607074a30a624bbb7d92f46f", "is_disabled": 0, "rental_uris": {"android": "https://dc.lft.to/lastmile_qr_scan", "ios": "https://dc.lft.to/lastmile_qr_scan"}, "fusion_lon": 0.0, "lat": 38.91839566666667, "bike_id": "3a4a7a56607074a30a624bbb7d92f46f", "type": "electric_scooter", "is_reserved": 0, "lon": -77.01612933333334}, {"fusion_lat": 0.0, "name": "f8316d5db28384b5a2ba7e881d26fa3d", "is_disabled": 0, "rental_uris": {"android": "https://dc.lft.to/lastmile_qr_scan", "ios": "https://dc.lft.to/lastmile_qr_scan"}, "fusion_lon": 0.0, "lat": 38.917027, "bike_id": "f8316d5db28384b5a2ba7e881d26fa3d", "type": "electric_scooter", "is_reserved": 0, "lon": -77.02433933333333}, {"fusion_lat": 0.0, "name": "7001c1c78f97ce0660900c526af9c3a3", "is_disabled": 0, "rental_uris": {"android": "https://dc.lft.to/lastmile_qr_scan", "ios": "https://dc.lft.to/lastmile_qr_scan"}, "fusion_lon": 0.0, "lat": 38.920117166666664, "bike_id": "7001c1c78f97ce0660900c526af9c3a3", "type": "electric_scooter", "is_reserved": 0, "lon": -77.08199166666667}, {"fusion_lat": 0.0, "name": "bbd9525c5b8f5576bb878637ada427fa", "is_disabled": 0, "rental_uris": {"android": "https://dc.lft.to/lastmile_qr_scan", "ios": "https://dc.lft.to/lastmile_qr_scan"}, "fusion_lon": 0.0, "lat": 38.905180333333334, "bike_id": "bbd9525c5b8f5576bb878637ada427fa", "type": "electric_scooter", "is_reserved": 0, "lon": -77.06133166666666}, {"fusion_lat": 0.0, "name": "ea849fcbe3a2d59a230f29c15508fcd2", "is_disabled": 0, "rental_uris": {"android": "https://dc.lft.to/lastmile_qr_scan", "ios": "https://dc.lft.to/lastmile_qr_scan"}, "fusion_lon": 0.0, "lat": 38.931034333333336, "bike_id": "ea849fcbe3a2d59a230f29c15508fcd2", "type": "electric_scooter", "is_reserved": 0, "lon": -77.03804133333334}, {"fusion_lat": 0.0, "name": "4c7a8fb61383aaf4dad814e8ebe00b12", "is_disabled": 0, "rental_uris": {"android": "https://dc.lft.to/lastmile_qr_scan", "ios": "https://dc.lft.to/lastmile_qr_scan"}, "fusion_lon": 0.0, "lat": 38.91811166666667, "bike_id": "4c7a8fb61383aaf4dad814e8ebe00b12", "type": "electric_scooter", "is_reserved": 0, "lon": -77.02677466666667}, {"fusion_lat": 0.0, "name": "fe5950259205a29cf26b734493abcaf0", "is_disabled": 0, "rental_uris": {"android": "https://dc.lft.to/lastmile_qr_scan", "ios": "https://dc.lft.to/lastmile_qr_scan"}, "fusion_lon": 0.0, "lat": 38.964381, "bike_id": "fe5950259205a29cf26b734493abcaf0", "type": "electric_bike", "is_reserved": 0, "lon": -77.02071483333333}, {"fusion_lat": 0.0, "name": "8fe9ca1af11255b2ff2acb7f8848602b", "is_disabled": 0, "rental_uris": {"android": "https://dc.lft.to/lastmile_qr_scan", "ios": "https://dc.lft.to/lastmile_qr_scan"}, "fusion_lon": 0.0, "lat": 38.917085166666666, "bike_id": "8fe9ca1af11255b2ff2acb7f8848602b", "type": "electric_scooter", "is_reserved": 0, "lon": -77.02614466666667}, {"fusion_lat": 0.0, "name": "2c41a8d127928bdaadeab0f1c5b9a9ef", "is_disabled": 0, "rental_uris": {"android": "https://dc.lft.to/lastmile_qr_scan", "ios": "https://dc.lft.to/lastmile_qr_scan"}, "fusion_lon": 0.0, "lat": 38.933556, "bike_id": "2c41a8d127928bdaadeab0f1c5b9a9ef", "type": "electric_scooter", "is_reserved": 0, "lon": -77.07216366666667}, {"fusion_lat": 0.0, "name": "15fb21870697cac800fb144d11aa0371", "is_disabled": 0, "rental_uris": {"android": "https://dc.lft.to/lastmile_qr_scan", "ios": "https://dc.lft.to/lastmile_qr_scan"}, "fusion_lon": 0.0, "lat": 38.9050775, "bike_id": "15fb21870697cac800fb144d11aa0371", "type": "electric_scooter", "is_reserved": 0, "lon": -77.0060275}, {"fusion_lat": 0.0, "name": "630cc536f122260fe70c43c884763ecb", "is_disabled": 0, "rental_uris": {"android": "https://dc.lft.to/lastmile_qr_scan", "ios": "https://dc.lft.to/lastmile_qr_scan"}, "fusion_lon": 0.0, "lat": 38.9244635, "bike_id": "630cc536f122260fe70c43c884763ecb", "type": "electric_scooter", "is_reserved": 0, "lon": -77.03974116666667}, {"fusion_lat": 0.0, "name": "bf334929d2bef00d8640b9492083544a", "is_disabled": 0, "rental_uris": {"android": "https://dc.lft.to/lastmile_qr_scan", "ios": "https://dc.lft.to/lastmile_qr_scan"}, "fusion_lon": 0.0, "lat": 38.9059365, "bike_id": "bf334929d2bef00d8640b9492083544a", "type": "electric_scooter", "is_reserved": 0, "lon": -77.00294466666666}, {"fusion_lat": 0.0, "name": "222f00873fcbb862ee0f7e771b02ed7a", "is_disabled": 0, "rental_uris": {"android": "https://dc.lft.to/lastmile_qr_scan", "ios": "https://dc.lft.to/lastmile_qr_scan"}, "fusion_lon": 0.0, "lat": 38.88745616666667, "bike_id": "222f00873fcbb862ee0f7e771b02ed7a", "type": "electric_scooter", "is_reserved": 0, "lon": -77.021323}, {"fusion_lat": 0.0, "name": "6e8f74b61948ea6e0533ca16135b3a52", "is_disabled": 0, "rental_uris": {"android": "https://dc.lft.to/lastmile_qr_scan", "ios": "https://dc.lft.to/lastmile_qr_scan"}, "fusion_lon": 0.0, "lat": 38.90958366666667, "bike_id": "6e8f74b61948ea6e0533ca16135b3a52", "type": "electric_scooter", "is_reserved": 0, "lon": -77.0238045}, {"fusion_lat": 0.0, "name": "5265ed91fa235a54bf1a3b0cc0145425", "is_disabled": 0, "rental_uris": {"android": "https://dc.lft.to/lastmile_qr_scan", "ios": "https://dc.lft.to/lastmile_qr_scan"}, "fusion_lon": 0.0, "lat": 38.92134433333333, "bike_id": "5265ed91fa235a54bf1a3b0cc0145425", "type": "electric_scooter", "is_reserved": 0, "lon": -77.04420433333334}, {"fusion_lat": 0.0, "name": "7d639f93c70c44425716d4a9024d1c48", "is_disabled": 0, "rental_uris": {"android": "https://dc.lft.to/lastmile_qr_scan", "ios": "https://dc.lft.to/lastmile_qr_scan"}, "fusion_lon": 0.0, "lat": 38.89933933333333, "bike_id": "7d639f93c70c44425716d4a9024d1c48", "type": "electric_scooter", "is_reserved": 0, "lon": -77.02199916666666}, {"fusion_lat": 0.0, "name": "cb61cf61ff475fb8fc5e136ba122a5d5", "is_disabled": 0, "rental_uris": {"android": "https://dc.lft.to/lastmile_qr_scan", "ios": "https://dc.lft.to/lastmile_qr_scan"}, "fusion_lon": 0.0, "lat": 38.92642266666667, "bike_id": "cb61cf61ff475fb8fc5e136ba122a5d5", "type": "electric_scooter", "is_reserved": 0, "lon": -77.04149883333334}, {"fusion_lat": 0.0, "name": "0a06c3fa3f960d2d68ebd499647d3de9", "is_disabled": 0, "rental_uris": {"android": "https://dc.lft.to/lastmile_qr_scan", "ios": "https://dc.lft.to/lastmile_qr_scan"}, "fusion_lon": 0.0, "lat": 38.926669, "bike_id": "0a06c3fa3f960d2d68ebd499647d3de9", "type": "electric_scooter", "is_reserved": 0, "lon": -77.0230735}, {"fusion_lat": 0.0, "name": "e523adba197b59861220ed2495355959", "is_disabled": 0, "rental_uris": {"android": "https://dc.lft.to/lastmile_qr_scan", "ios": "https://dc.lft.to/lastmile_qr_scan"}, "fusion_lon": 0.0, "lat": 38.907825833333334, "bike_id": "e523adba197b59861220ed2495355959", "type": "electric_scooter", "is_reserved": 0, "lon": -76.99402166666667},