{"data": {"bikes": [{"lon": -77.02209033333334, "is_disabled": 0, "lat": 38.915637833333335, "fusion_lat": 0.0, "is_reserved": 0, "rental_uris": {"ios": "https://dc.lft.to/lastmile_qr_scan", "android": "https://dc.lft.to/lastmile_qr_scan"}, "fusion_lon": 0.0, "type": "electric_scooter", "bike_id": "7fa25fd8bd7bef3e678d4194a058686e", "name": "7fa25fd8bd7bef3e678d4194a058686e"}, {"lon": -77.031521, "is_disabled": 0, "lat": 38.96441566666667, "fusion_lat": 0.0, "is_reserved": 0, "rental_uris": {"ios": "https://dc.lft.to/lastmile_qr_scan", "android": "https://dc.lft.to/lastmile_qr_scan"}, "fusion_lon": 0.0, "type": "electric_bike", "bike_id": "9cc0633a21c5b6f8bcf2bf648cbb1c2a", "name": "9cc0633a21c5b6f8bcf2bf648cbb1c2a"}, {"lon": -77.04746433333334, "is_disabled": 0, "lat": 38.91871666666667, "fusion_lat": 0.0, "is_reserved": 0, "rental_uris": {"ios": "https://dc.lft.to/lastmile_qr_scan", "android": "https://dc.lft.to/lastmile_qr_scan"}, "fusion_lon": 0.0, "type": "electric_scooter", "bike_id": "72a96955d2503773dd90d43df30626eb", "name": "72a96955d2503773dd90d43df30626eb"}, {"lon": -77.05741566666667, "is_disabled": 0, "lat": 38.933902333333336, "fusion_lat": 0.0, "is_reserved": 0, "rental_uris": {"ios": "https://dc.lft.to/lastmile_qr_scan", "android": "https://dc.lft.to/lastmile_qr_scan"}, "fusion_lon": 0.0, "type": "electric_scooter", "bike_id": "1642089156111c07cbacaf7eb460c828", "name": "1642089156111c07cbacaf7eb460c828"}, {"lon": -77.04672916666667, "is_disabled": 0, "lat": 38.89330133333333, "fusion_lat": 0.0, "is_reserved": 0, "rental_uris": {"ios": "https://dc.lft.to/lastmile_qr_scan", "android": "https://dc.lft.to/lastmile_qr_scan"}, "fusion_lon": 0.0, "type": "electric_scooter", "bike_id": "dbf5b51e953de5ee7f46d7b10627d503", "name": "dbf5b51e953de5ee7f46d7b10627d503"}, {"lon": -77.02406583333334, "is_disabled": 0, "lat": 38.91761916666667, "fusion_lat": 0.0, "is_reserved": 0, "rental_uris": {"ios": "https://dc.lft.to/lastmile_qr_scan", "android": "https://dc.lft.to/lastmile_qr_scan"}, "fusion_lon": 0.0, "type": "electric_scooter", "bike_id": "645e1dc6aabd6a3cc8b8124e662f2da8", "name": "645e1dc6aabd6a3cc8b8124e662f2da8"}, {"lon": -76.97097383333333, "is_disabled": 0, "lat": 38.87061833333333, "fusion_lat": 0.0, "is_reserved": 0, "rental_uris": {"ios": "https://dc.lft.to/lastmile_qr_scan", "android": "https://dc.lft.to/lastmile_qr_scan"}, "fusion_lon": 0.0, "type": "electric_scooter", "bike_id": "9a042ab237bc9e1bd1deab7eee28219a", "name": "9a042ab237bc9e1bd1deab7eee28219a"}, {"lon": -76.94637783333333, "is_disabled": 0, "lat": 38.898687333333335, "fusion_lat": 0.0, "is_reserved": 0, "rental_uris": {"ios": "https://dc.lft.to/lastmile_qr_scan", "android": "https://dc.lft.to/lastmile_qr_scan"}, "fusion_lon": 0.0, "type": "electric_scooter", "bike_id": "c615f2d06c4a45b0b47cef0f6fd5848e", "name": "c615f2d06c4a45b0b47cef0f6fd5848e"}, {"lon": -77.02232516666666, "is_disabled": 0, "lat": 38.934779666666664, "fusion_lat": 0.0, "is_reserved": 0, "rental_uris": {"ios": "https://dc.lft.to/lastmile_qr_scan", "android": "https://dc.lft.to/lastmile_qr_scan"}, "fusion_lon": 0.0, "type": "electric_scooter", "bike_id": "547b2a9a678322a3bcbb88d8de4040cc", "name": "547b2a9a678322a3bcbb88d8de4040cc"}, {"lon": -77.20138633333333, "is_disabled": 0, "lat": 38.92220616666667, "fusion_lat": 0.0, "is_reserved": 0, "rental_uris": {"ios": "https://dc.lft.to/lastmile_qr_scan", "android": "https://dc.lft.to/lastmile_qr_scan"}, "fusion_lon": 0.0, "type": "electric_bike", "bike_id": "e6b89ce24c87ab2f7cb038ca72973c89", "name": "e6b89ce24c87ab2f7cb038ca72973c89"}, {"lon": -77.032876, "is_disabled": 0, "lat": 38.9225855, "fusion_lat": 0.0, "is_reserved": 0, "rental_uris": {"ios": "https://dc.lft.to/lastmile_qr_scan", "android": "https://dc.lft.to/lastmile_qr_scan"}, "fusion_lon": 0.0, "type": "electric_scooter", "bike_id": "8d90904d985111f2c274ac81c775f88c", "name": "8d90904d985111f2c274ac81c775f88c"}, {"lon": -77.09143783333333, "is_disabled": 0, "lat": 38.861505333333334, "fusion_lat": 0.0, "is_reserved": 0, "rental_uris": {"ios": "https://dc.lft.to/lastmile_qr_scan", "android": "https://dc.lft.to/lastmile_qr_scan"}, "fusion_lon": 0.0, "type": "electric_bike", "bike_id": "422e06d02646713dc1e52384b3cc0fb2", "name": "422e06d02646713dc1e52384b3cc0fb2"}, {"lon": -77.0258605, "is_disabled": 0, "lat": 38.9421235, "fusion_lat": 0.0, "is_reserved": 0, "rental_uris": {"ios": "https://dc.lft.to/lastmile_qr_scan", "android": "https://dc.lft.to/lastmile_qr_scan"}, "fusion_lon": 0.0, "type": "electric_scooter", "bike_id": "d25d3fe46004d38f51c2f83243a4eb74", "name": "d25d3fe46004d38f51c2f83243a4eb74"}, {"lon": -77.04031066666667, "is_disabled": 0, "lat": 38.903808, "fusion_lat": 0.0, "is_reserved": 0, "rental_uris": {"ios": "https://dc.lft.to/lastmile_qr_scan", "android": "https://dc.lft.to/lastmile_qr_scan"}, "fusion_lon": 0.0, "type": "electric_scooter", "bike_id": "71b2c4be3a55c8473257426d440bebbb", "name": "71b2c4be3a55c8473257426d440bebbb"}, {"lon": -76.98190516666666, "is_disabled": 0, "lat": 38.862039333333335, "fusion_lat": 0.0, "is_reserved": 0, "rental_uris": {"ios": "https://dc.lft.to/lastmile_qr_scan", "android": "https://dc.lft.to/lastmile_qr_scan"}, "fusion_lon": 0.0, "type": "electric_scooter", "bike_id": "b91b9df343e2891533fadf91544e32dd", "name": "b91b9df343e2891533fadf91544e32dd"}, {"lon": -77.0230755, "is_disabled": 0, "lat": 38.917748, "fusion_lat": 0.0, "is_reserved": 0, "rental_uris": {"ios": "https://dc.lft.to/lastmile_qr_scan", "android": "https://dc.lft.to/lastmile_qr_scan"}, "fusion_lon": 0.0, "type": "electric_scooter", "bike_id": "56729d0b19a851cf9b780f77552bc0e0", "name": "56729d0b19a851cf9b780f77552bc0e0"}, {"lon": -77.05313, "is_disabled": 0, "lat": 38.902618833333335, "fusion_lat": 0.0, "is_reserved": 0, "rental_uris": {"ios": "https://dc.lft.to/lastmile_qr_scan", "android": "https://dc.lft.to/lastmile_qr_scan"}, "fusion_lon": 0.0, "type": "electric_scooter", "bike_id": "41f0dae433846e35b94723090fdd3639", "name": "41f0dae433846e35b94723090fdd3639"}, {"lon": -77.03663366666666, "is_disabled": 0, "lat": 38.922593666666664, "fusion_lat": 0.0, "is_reserved": 0, "rental_uris": {"ios": "https://dc.lft.to/lastmile_qr_scan", "android": "https://dc.lft.to/lastmile_qr_scan"}, "fusion_lon": 0.0, "type": "electric_scooter", "bike_id": "ab1d470527a4504f8b2158c1e195ea8d", "name": "ab1d470527a4504f8b2158c1e195ea8d"}, {"lon": -77.02305083333333, "is_disabled": 0, "lat": 38.909562666666666, "fusion_lat": 0.0, "is_reserved": 0, "rental_uris": {"ios": "https://dc.lft.to/lastmile_qr_scan", "android": "https://dc.lft.to/lastmile_qr_scan"}, "fusion_lon": 0.0, "type": "electric_scooter", "bike_id": "def9edec989c342528a0f28377398a8c", "name": "def9edec989c342528a0f28377398a8c"}, {"lon": -77.0200615, "is_disabled": 0, "lat": 38.914047, "fusion_lat": 0.0, "is_reserved": 0, "rental_uris": {"ios": "https://dc.lft.to/lastmile_qr_scan", "android": "https://dc.lft.to/lastmile_qr_scan"}, "fusion_lon": 0.0, "type": "electric_scooter", "bike_id": "599a36529042b8b30a7c731e5d5e47d2", "name": "599a36529042b8b30a7c731e5d5e47d2"}, {"lon": -77.0572125, "is_disabled": 0, "lat": 38.9048705, "fusion_lat": 0.0, "is_reserved": 0, "rental_uris": {"ios": "https://dc.lft.to/lastmile_qr_scan", "android": "https://dc.lft.to/lastmile_qr_scan"}, "fusion_lon": 0.0, "type": "electric_scooter", "bike_id": "b8a3dd9e781c60b1f1df7b2ea111aa0f", "name": "b8a3dd9e781c60b1f1df7b2ea111aa0f"}, {"lon": -77.04174216666667, "is_disabled": 0, "lat": 38.911300833333335, "fusion_lat": 0.0, "is_reserved": 0, "rental_uris": {"ios": "https://dc.lft.to/lastmile_qr_scan", "android": "https://dc.lft.to/lastmile_qr_scan"}, "fusion_lon": 0.0, "type": "electric_scooter", "bike_id": "61550b3e9c63269ee13c3780310ca5ae", "name": "61550b3e9c63269ee13c3780310ca5ae"}, {"lon": -77.02359366666667, "is_disabled": 0, "lat": 38.8961375, "fusion_lat": 0.0, "is_reserved": 0, "rental_uris": {"ios": "https://dc.lft.to/lastmile_qr_scan", "android": "https://dc.lft.to/lastmile_qr_scan"}, "fusion_lon": 0.0, "type": "electric_scooter", "bike_id": "f57215114dac4ef0140ef698aba35d2a", "name": "f57215114dac4ef0140ef698aba35d2a"}, {"lon": -77.02486983333333, "is_disabled": 0, "lat": 38.94184683333334, "fusion_lat": 0.0, "is_reserved": 0, "rental_uris": {"ios": "https://dc.lft.to/lastmile_qr_scan", "android": "https://dc.lft.to/lastmile_qr_scan"}, "fusion_lon": 0.0, "type": "electric_scooter", "bike_id": "9fab251912fb33375fd3e9e987497806", "name": "9fab251912fb33375fd3e9e987497806"}, {"lon": -77.00329333333333, "is_disabled": 0, "lat": 38.87718016666667, "fusion_lat": 0.0, "is_reserved": 0, "rental_uris": {"ios": "https://dc.lft.to/lastmile_qr_scan", "android": "https://dc.lft.to/lastmile_qr_scan"}, "fusion_lon": 0.0, "type": "electric_scooter", "bike_id": "4412a578250e90609d85a61ee42a7a40", "name": "4412a578250e90609d85a61ee42a7a40"}, {"lon": -77.0386775, "is_disabled": 0, "lat": 38.912552166666664, "fusion_lat": 0.0, "is_reserved": 0, "rental_uris": {"ios": "https://dc.lft.to/lastmile_qr_scan", "android": "https://dc.lft.to/lastmile_qr_scan"}, "fusion_lon": 0.0, "type": "electric_scooter", "bike_id": "cba1f11d1757534ca7d87615c33a09f9", "name": "cba1f11d1757534ca7d87615c33a09f9"}, {"lon": -77.0122865, "is_disabled": 0, "lat": 38.897734666666665, "fusion_lat": 0.0, "is_reserved": 0, "rental_uris": {"ios": "https://dc.lft.to/lastmile_qr_scan", "android": "https://dc.lft.to/lastmile_qr_scan"}, "fusion_lon": 0.0, "type": "electric_scooter", "bike_id": "0ac1268fc29d39261eaecc39c76a3211", "name": "0ac1268fc29d39261eaecc39c76a3211"}, {"lon": -77.00442183333334, "is_disabled": 0, "lat": 38.9117505, "fusion_lat": 0.0, "is_reserved": 0, "rental_uris": {"ios": "https://dc.lft.to/lastmile_qr_scan", "android": "https://dc.lft.to/lastmile_qr_scan"}, "fusion_lon": 0.0, "type": "electric_scooter", "bike_id": "0c46a8a84428fc99c2229f0781a8fd0e", "name": "0c46a8a84428fc99c2229f0781a8fd0e"}, {"lon": -77.02663333333334, "is_disabled": 0, "lat": 38.97206583333333, "fusion_lat": 0.0, "is_reserved": 0, "rental_uris": {"ios": "https://dc.lft.to/lastmile_qr_scan", "android": "https://dc.lft.to/lastmile_qr_scan"}, "fusion_lon": 0.0, "type": "electric_scooter", "bike_id": "41ff31bec8e259dfabb0b321dca23d6d", "name": "41ff31bec8e259dfabb0b321dca23d6d"}, {"lon": -77.002808, "is_disabled": 0, "lat": 38.9191305, "fusion_lat": 0.0, "is_reserved": 0, "rental_uris": {"ios": "https://dc.lft.to/lastmile_qr_scan", "android": "https://dc.lft.to/lastmile_qr_scan"}, "fusion_lon": 0.0, "type": "electric_scooter", "bike_id": "c5abb8ae483dfae6f7bcc6c97e0bd924", "name": "c5abb8ae483dfae6f7bcc6c97e0bd924"}, {"lon": -77.02405266666666, "is_disabled": 0, "lat": 38.915459, "fusion_lat": 0.0, "is_reserved": 0, "rental_uris": {"ios": "https://dc.lft.to/lastmile_qr_scan", "android": "https://dc.lft.to/lastmile_qr_scan"}, "fusion_lon": 0.0, "type": "electric_scooter", "bike_id": "ef7a51703811b1fbf9ca292533b3616c", "name": "ef7a51703811b1fbf9ca292533b3616c"}, {"lon": -76.977088, "is_disabled": 0, "lat": 38.88522283333333, "fusion_lat": 0.0, "is_reserved": 0, "rental_uris": {"ios": "https://dc.lft.to/lastmile_qr_scan", "android": "https://dc.lft.to/lastmile_qr_scan"}, "fusion_lon": 0.0, "type": "electric_scooter", "bike_id": "5ccdc4b650734b0471f641a120d6091f", "name": "5ccdc4b650734b0471f641a120d6091f"}, {"lon": -77.04534983333333, "is_disabled": 0, "lat": 38.9133295, "fusion_lat": 0.0, "is_reserved": 0, "rental_uris": {"ios": "https://dc.lft.to/lastmile_qr_scan", "android": "https://dc.lft.to/lastmile_qr_scan"}, "fusion_lon": 0.0, "type": "electric_scooter", "bike_id": "ba7cc1b0d100a7d06e29b09742700baf", "name": "ba7cc1b0d100a7d06e29b09742700baf"}, {"lon": -77.05308916666667, "is_disabled": 0, "lat": 38.90255033333333, "fusion_lat": 0.0, "is_reserved": 0, "rental_uris": {"ios": "https://dc.lft.to/lastmile_qr_scan", "android": "https://dc.lft.to/lastmile_qr_scan"}, "fusion_lon": 0.0, "type": "electric_scooter", "bike_id": "6f0d6ea7110151d6025d0bceadef01b1", "name": "6f0d6ea7110151d6025d0bceadef01b1"}, {"lon": -77.04156483333334, "is_disabled": 0, "lat": 38.918586166666664, "fusion_lat": 0.0, "is_reserved": 0, "rental_uris": {"ios": "https://dc.lft.to/lastmile_qr_scan", "android": "https://dc.lft.to/lastmile_qr_scan"}, "fusion_lon": 0.0, "type": "electric_scooter", "bike_id": "0b07bda40358bf1c7555a2fdd8cab907", "name": "0b07bda40358bf1c7555a2fdd8cab907"}, {"lon": -76.987196, "is_disabled": 0, "lat": 38.866282166666664, "fusion_lat": 0.0, "is_reserved": 0, "rental_uris": {"ios": "https://dc.lft.to/lastmile_qr_scan", "android": "https://dc.lft.to/lastmile_qr_scan"}, "fusion_lon": 0.0, "type": "electric_scooter", "bike_id": "2a029006a467f860113dac208f286cf1", "name": "2a029006a467f860113dac208f286cf1"}, {"lon": -77.02720033333334, "is_disabled": 0, "lat": 38.916759166666665, "fusion_lat": 0.0, "is_reserved": 0, "rental_uris": {"ios": "https://dc.lft.to/lastmile_qr_scan", "android": "https://dc.lft.to/lastmile_qr_scan"}, "fusion_lon": 0.0, "type": "electric_scooter", "bike_id": "47e870ee6153593c09bbca37d926582e", "name": "47e870ee6153593c09bbca37d926582e"}, {"lon": -77.03865233333333, "is_disabled": 0, "lat": 38.91691633333333, "fusion_lat": 0.0, "is_reserved": 0, "rental_uris": {"ios": "https://dc.lft.to/lastmile_qr_scan", "android": "https://dc.lft.to/lastmile_qr_scan"}, "fusion_lon": 0.0, "type": "electric_scooter", "bike_id": "84f3a4166a64008cb19d6ea10e476843", "name": "84f3a4166a64008cb19d6ea10e476843"}, {"lon": -77.0140785, "is_disabled": 0, "lat": 38.928238666666665, "fusion_lat": 0.0, "is_reserved": 0, "rental_uris": {"ios": "https://dc.lft.to/lastmile_qr_scan", "android": "https://dc.lft.to/lastmile_qr_scan"}, "fusion_lon": 0.0, "type": "electric_scooter", "bike_id": "087fc0811ae10fe79d689c7fd05c2c61", "name": "087fc0811ae10fe79d689c7fd05c2c61"}, {"lon": -77.03798283333333, "is_disabled": 0, "lat": 38.90255333333333, "fusion_lat": 0.0, "is_reserved": 0, "rental_uris": {"ios": "https://dc.lft.to/lastmile_qr_scan", "android": "https://dc.lft.to/lastmile_qr_scan"}, "fusion_lon": 0.0, "type": "electric_scooter", "bike_id": "e4bdf4ba7143285dfecb3ed5ae5eab5d", "name": "e4bdf4ba7143285dfecb3ed5ae5eab5d"}, {"lon": -76.99262433333334, "is_disabled": 0, "lat": 38.86250533333333, "fusion_lat": 0.0, "is_reserved": 0, "rental_uris": {"ios": "https://dc.lft.to/lastmile_qr_scan", "android": "https://dc.lft.to/lastmile_qr_scan"}, "fusion_lon": 0.0, "type": "electric_scooter", "bike_id": "2a43dd3a2a76abd296cbb7f33c6974fd", "name": "2a43dd3a2a76abd296cbb7f33c6974fd"}, {"lon": -77.04031966666666, "is_disabled": 0, "lat": 38.90375083333333, "fusion_lat": 0.0, "is_reserved": 0, "rental_uris": {"ios": "https://dc.lft.to/lastmile_qr_scan", "android": "https://dc.lft.to/lastmile_qr_scan"}, "fusion_lon": 0.0, "type": "electric_scooter", "bike_id": "1f5dfb412814cbbc5b3a80eb34167748", "name": "1f5dfb412814cbbc5b3a80eb34167748"}, {"lon": -77.0604165, "is_disabled": 0, "lat": 38.93913533333333, "fusion_lat": 0.0, "is_reserved": 0, "rental_uris": {"ios": "https://dc.lft.to/lastmile_qr_scan", "android": "https://dc.lft.to/lastmile_qr_scan"}, "fusion_lon": 0.0, "type": "electric_scooter", "bike_id": "df6c1ac95ce1df92bf3546e71558c5fd", "name": "df6c1ac95ce1df92bf3546e71558c5fd"}, {"lon": -76.9900525, "is_disabled": 0, "lat": 38.865090333333335, "fusion_lat": 0.0, "is_reserved": 0, "rental_uris": {"ios": "https://dc.lft.to/lastmile_qr_scan", "android": "https://dc.lft.to/lastmile_qr_scan"}, "fusion_lon": 0.0, "type": "electric_scooter", "bike_id": "090cc83db255a4999e8603f3d326e788", "name": "090cc83db255a4999e8603f3d326e788"}, {"lon": -77.029705, "is_disabled": 0, "lat": 38.92181683333333, "fusion_lat": 0.0, "is_reserved": 0, "rental_uris": {"ios": "https://dc.lft.to/lastmile_qr_scan", "android": "https://dc.lft.to/lastmile_qr_scan"}, "fusion_lon": 0.0, "type": "electric_scooter", "bike_id": "c4ad5a99a9a03fe5c83cc2dcf1e11bb3", "name": "c4ad5a99a9a03fe5c83cc2dcf1e11bb3"}, {"lon": -77.00342266666667, "is_disabled": 0, "lat": 38.884373833333335, "fusion_lat": 0.0, "is_reserved": 0, "rental_uris": {"ios": "https://dc.lft.to/lastmile_qr_scan", "android": "https://dc.lft.to/lastmile_qr_scan"}, "fusion_lon": 0.0, "type": "electric_scooter", "bike_id": "82e23a95f3024ad11a411c1c612db42c", "name": "82e23a95f3024ad11a411c1c612db42c"}, {"lon": -77.05258016666667, "is_disabled": 0, "lat": 38.92787366666667, "fusion_lat": 0.0, "is_reserved": 0, "rental_uris": {"ios": "https://dc.lft.to/lastmile_qr_scan", "android": "https://dc.lft.to/lastmile_qr_scan"}, "fusion_lon": 0.0, "type": "electric_scooter", "bike_id": "a3ccc599345a8c0b8cef49991e562b59", "name": "a3ccc599345a8c0b8cef49991e562b59"}, {"lon": -77.02421666666666, "is_disabled": 0, "lat": 38.920462, "fusion_lat": 0.0, "is_reserved": 0, "rental_uris": {"ios": "https://dc.lft.to/lastmile_qr_scan", "android": "https://dc.lft.to/lastmile_qr_scan"}, "fusion_lon": 0.0, "type": "electric_scooter", "bike_id": "89cd3fb803d20e143021da05961a08c9", "name": "89cd3fb803d20e143021da05961a08c9"}, {"lon": -77.01665033333333, "is_disabled": 0, "lat": 38.907209333333334, "fusion_lat": 0.0, "is_reserved": 0, "rental_uris": {"ios": "https://dc.lft.to/lastmile_qr_scan", "android": "https://dc.lft.to/lastmile_qr_scan"}, "fusion_lon": 0.0, "type": "electric_scooter", "bike_id": "01202d5e19476a3ce4dc797fe5ee2f6a", "name": "01202d5e19476a3ce4dc797fe5ee2f6a"}, {"lon": -77.01680633333334, "is_disabled": 0, "lat": 38.91269033333333, "fusion_lat": 0.0, "is_reserved": 0, "rental_uris": {"ios": "https://dc.lft.to/lastmile_qr_scan", "android": "https://dc.lft.to/lastmile_qr_scan"}, "fusion_lon": 0.0, "type": "electric_scooter", "bike_id": "f2c68a51f0e5351d6739c52905a8c733", "name": "f2c68a51f0e5351d6739c52905a8c733"}, {"lon": -76.9871335, "is_disabled": 0, "lat": 38.863417, "fusion_lat": 0.0, "is_reserved": 0, "rental_uris": {"ios": "https://dc.lft.to/lastmile_qr_scan", "android": "https://dc.lft.to/lastmile_qr_scan"}, "fusion_lon": 0.0, "type": "electric_scooter", "bike_id": "0673622c6cf3170188ef40d6c8f82573", "name": "0673622c6cf3170188ef40d6c8f82573"}, {"lon": -77.025778, "is_disabled": 0, "lat": 38.9181895, "fusion_lat": 0.0, "is_reserved": 0, "rental_uris": {"ios": "https://dc.lft.to/lastmile_qr_scan", "android": "https://dc.lft.to/lastmile_qr_scan"}, "fusion_lon": 0.0, "type": "electric_scooter", "bike_id": "65c0ab45d1f05ee01cd4cb4dda29e134", "name": "65c0ab45d1f05ee01cd4cb4dda29e134"}, {"lon": -77.03862033333333, "is_disabled": 0, "lat": 38.916926333333336, "fusion_lat": 0.0, "is_reserved": 0, "rental_uris": {"ios": "https://dc.lft.to/lastmile_qr_scan", "android": "https://dc.lft.to/lastmile_qr_scan"}, "fusion_lon": 0.0, "type": "electric_scooter", "bike_id": "3622f80533ea9c681b948f5308650923", "name": "3622f80533ea9c681b948f5308650923"}, {"lon": -77.02074333333333, "is_disabled": 0, "lat": 38.92142583333333, "fusion_lat": 0.0, "is_reserved": 0, "rental_uris": {"ios": "https://dc.lft.to/lastmile_qr_scan", "android": "https://dc.lft.to/lastmile_qr_scan"}, "fusion_lon": 0.0, "type": "electric_scooter", "bike_id": "0d3f48ff2d137d821d03bc8436f84f89", "name": "0d3f48ff2d137d821d03bc8436f84f89"}, {"lon": -77.03341566666667, "is_disabled": 0, "lat": 38.921628, "fusion_lat": 0.0, "is_reserved": 0, "rental_uris": {"ios": "https://dc.lft.to/lastmile_qr_scan", "android": "https://dc.lft.to/lastmile_qr_scan"}, "fusion_lon": 0.0, "type": "electric_scooter", "bike_id": "784db534e5742b2763322be5fc16972c", "name": "784db534e5742b2763322be5fc16972c"}, {"lon": -77.003109, "is_disabled": 0, "lat": 38.87726116666666, "fusion_lat": 0.0, "is_reserved": 0, "rental_uris": {"ios": "https://dc.lft.to/lastmile_qr_scan", "android": "https://dc.lft.to/lastmile_qr_scan"}, "fusion_lon": 0.0, "type": "electric_scooter", "bike_id": "88af2e943a9157104136e7fa6641aba3", "name": "88af2e943a9157104136e7fa6641aba3"}, {"lon": -76.98229716666667, "is_disabled": 0, "lat": 38.86468833333333, "fusion_lat": 0.0, "is_reserved": 0, "rental_uris": {"ios": "https://dc.lft.to/lastmile_qr_scan", "android": "https://dc.lft.to/lastmile_qr_scan"}, "fusion_lon": 0.0, "type": "electric_scooter", "bike_id": "c3cdf6b4b7747fe7d078e95426de8b04", "name": "c3cdf6b4b7747fe7d078e95426de8b04"}, {"lon": -77.0220245, "is_disabled": 0, "lat": 38.909794166666664, "fusion_lat": 0.0, "is_reserved": 0, "rental_uris": {"ios": "https://dc.lft.to/lastmile_qr_scan", "android": "https://dc.lft.to/lastmile_qr_scan"}, "fusion_lon": 0.0, "type": "electric_scooter", "bike_id": "6db13bb415e4bdfa26c15d91a87053c2", "name": "6db13bb415e4bdfa26c15d91a87053c2"}, {"lon": -77.04893933333334, "is_disabled": 0, "lat": 38.90654083333333, "fusion_lat": 0.0, "is_reserved": 0, "rental_uris": {"ios": "https://dc.lft.to/lastmile_qr_scan", "android": "https://dc.lft.to/lastmile_qr_scan"}, "fusion_lon": 0.0, "type": "electric_scooter", "bike_id": "2f4df52b92b0ab431ca4eb7d48e2d536", "name": "2f4df52b92b0ab431ca4eb7d48e2d536"}, {"lon": -77.024748, "is_disabled": 0, "lat": 38.936196833333334, "fusion_lat": 0.0, "is_reserved": 0, "rental_uris": {"ios": "https://dc.lft.to/lastmile_qr_scan", "android": "https://dc.lft.to/lastmile_qr_scan"}, "fusion_lon": 0.0, "type": "electric_scooter", "bike_id": "a27b43b0bcc9bb3afff315ce60eb00fb", "name": "a27b43b0bcc9bb3afff315ce60eb00fb"}, {"lon": -77.04828483333333, "is_disabled": 0, "lat": 38.90965966666667, "fusion_lat": 0.0, "is_reserved": 0, "rental_uris": {"ios": "https://dc.lft.to/lastmile_qr_scan", "android": "https://dc.lft.to/lastmile_qr_scan"}, "fusion_lon": 0.0, "type": "electric_scooter", "bike_id": "1516a4630c15df18436325348cc42dce", "name": "1516a4630c15df18436325348cc42dce"}, {"lon": -77.01387633333333, "is_disabled": 0, "lat": 38.91913233333333, "fusion_lat": 0.0, "is_reserved": 0, "rental_uris": {"ios": "https://dc.lft.to/lastmile_qr_scan", "android": "https://dc.lft.to/lastmile_qr_scan"}, "fusion_lon": 0.0, "type": "electric_scooter", "bike_id": "f6af477ca37012b5ab385c7cb33285d6", "name": "f6af477ca37012b5ab385c7cb33285d6"}, {"lon": -77.03622566666667, "is_disabled": 0, "lat": 38.931628833333335, "fusion_lat": 0.0, "is_reserved": 0, "rental_uris": {"ios": "https://dc.lft.to/lastmile_qr_scan", "android": "https://dc.lft.to/lastmile_qr_scan"}, "fusion_lon": 0.0, "type": "electric_scooter", "bike_id": "746bc3b2eab5243ddcedad0ef097bd4f", "name": "746bc3b2eab5243ddcedad0ef097bd4f"}, {"lon": -77.02992616666667, "is_disabled": 0, "lat": 38.89752766666667, "fusion_lat": 0.0, "is_reserved": 0, "rental_uris": {"ios": "https://dc.lft.to/lastmile_qr_scan", "android": "https://dc.lft.to/lastmile_qr_scan"}, "fusion_lon": 0.0, "type": "electric_scooter", "bike_id": "d58bbdadc997b33409c94c734a731b43", "name": "d58bbdadc997b33409c94c734a731b43"}, {"lon": -77.04291216666667, "is_disabled": 0, "lat": 38.83096366666667, "fusion_lat": 0.0, "is_reserved": 0, "rental_uris": {"ios": "https://dc.lft.to/lastmile_qr_scan", "android": "https://dc.lft.to/lastmile_qr_scan"}, "fusion_lon": 0.0, "type": "electric_bike", "bike_id": "ec9b30c47903167edd245a6ba022859c", "name": "ec9b30c47903167edd245a6ba022859c"}, {"lon": -77.02377616666666, "is_disabled": 0, "lat": 38.891978, "fusion_lat": 0.0, "is_reserved": 0, "rental_uris": {"ios": "https://dc.lft.to/lastmile_qr_scan", "android": "https://dc.lft.to/lastmile_qr_scan"}, "fusion_lon": 0.0, "type": "electric_scooter", "bike_id": "dacff3427d49db7b00c7c2acebabb5ab", "name": "dacff3427d49db7b00c7c2acebabb5ab"}, {"lon": -76.94825483333334, "is_disabled": 0, "lat": 38.88413966666667, "fusion_lat": 0.0, "is_reserved": 0, "rental_uris": {"ios": "https://dc.lft.to/lastmile_qr_scan", "android": "https://dc.lft.to/lastmile_qr_scan"}, "fusion_lon": 0.0, "type": "electric_scooter", "bike_id": "408c1a472c1517ab1bfecedd5feda07b", "name": "408c1a472c1517ab1bfecedd5feda07b"}, {"lon": -77.03483933333334, "is_disabled": 0, "lat": 38.923434666666665, "fusion_lat": 0.0, "is_reserved": 0, "rental_uris": {"ios": "https://dc.lft.to/lastmile_qr_scan", "android": "https://dc.lft.to/lastmile_qr_scan"}, "fusion_lon": 0.0, "type": "electric_scooter", "bike_id": "21ded61c5d55068bf16cdffcfb9f4ad8", "name": "21ded61c5d55068bf16cdffcfb9f4ad8"}, {"lon": -77.05743566666666, "is_disabled": 0, "lat": 38.93400333333334, "fusion_lat": 0.0, "is_reserved": 0, "rental_uris": {"ios": "https://dc.lft.to/lastmile_qr_scan", "android": "https://dc.lft.to/lastmile_qr_scan"}, "fusion_lon": 0.0, "type": "electric_scooter", "bike_id": "d60e3e3ea62ff3230df52ee40fe000ae", "name": "d60e3e3ea62ff3230df52ee40fe000ae"}, {"lon": -77.02198833333334, "is_disabled": 0, "lat": 38.9112675, "fusion_lat": 0.0, "is_reserved": 0, "rental_uris": {"ios": "https://dc.lft.to/lastmile_qr_scan", "android": "https://dc.lft.to/lastmile_qr_scan"}, "fusion_lon": 0.0, "type": "electric_scooter", "bike_id": "120ac844560f7ac7e32e28c0461662cc", "name": "120ac844560f7ac7e32e28c0461662cc"}, {"lon": -77.028388, "is_disabled": 0, "lat": 38.89366716666667, "fusion_lat": 0.0, "is_reserved": 0, "rental_uris": {"ios": "https://dc.lft.to/lastmile_qr_scan", "android": "https://dc.lft.to/lastmile_qr_scan"}, "fusion_lon": 0.0, "type": "electric_scooter", "bike_id": "76c062e912cdb144693b2ea25f492dd6", "name": "76c062e912cdb144693b2ea25f492dd6"}, {"lon": -77.02599533333333, "is_disabled": 0, "lat": 38.89629583333333, "fusion_lat": 0.0, "is_reserved": 0, "rental_uris": {"ios": "https://dc.lft.to/lastmile_qr_scan", "android": "https://dc.lft.to/lastmile_qr_scan"}, "fusion_lon": 0.0, "type": "electric_scooter", "bike_id": "a64cd1f50f29e0453be678f546b389d7", "name": "a64cd1f50f29e0453be678f546b389d7"}, {"lon": -77.01949466666667, "is_disabled": 0, "lat": 38.9242125, "fusion_lat": 0.0, "is_reserved": 0, "rental_uris": {"ios": "https://dc.lft.to/lastmile_qr_scan", "android": "https://dc.lft.to/lastmile_qr_scan"}, "fusion_lon": 0.0, "type": "electric_scooter", "bike_id": "5e062628a54153072bf7d0ea7dc349de", "name": "5e062628a54153072bf7d0ea7dc349de"}, {"lon": -77.05430033333333, "is_disabled": 0, "lat": 38.928465833333334, "fusion_lat": 0.0, "is_reserved": 0, "rental_uris": {"ios": "https://dc.lft.to/lastmile_qr_scan", "android": "https://dc.lft.to/lastmile_qr_scan"}, "fusion_lon": 0.0, "type": "electric_scooter", "bike_id": "50f17a5f362d13c77f0f22cbc5a6afa8", "name": "50f17a5f362d13c77f0f22cbc5a6afa8"}, {"lon": -77.04455583333333, "is_disabled": 0, "lat": 38.923064333333336, "fusion_lat": 0.0, "is_reserved": 0, "rental_uris": {"ios": "https://dc.lft.to/lastmile_qr_scan", "android": "https://dc.lft.to/lastmile_qr_scan"}, "fusion_lon": 0.0, "type": "electric_scooter", "bike_id": "4dc04ac90455b311f3f65a8505f19848", "name": "4dc04ac90455b311f3f65a8505f19848"}, {"lon": -77.02641833333334, "is_disabled": 0, "lat": 38.89604966666667, "fusion_lat": 0.0, "is_reserved": 0, "rental_uris": {"ios": "https://dc.lft.to/lastmile_qr_scan", "android": "https://dc.lft.to/lastmile_qr_scan"}, "fusion_lon": 0.0, "type": "electric_scooter", "bike_id": "c2c0253a353f7306f5f82bb8edd036d9", "name": "c2c0253a353f7306f5f82bb8edd036d9"}, {"lon": -77.034448, "is_disabled": 0, "lat": 38.90692, "fusion_lat": 0.0, "is_reserved": 0, "rental_uris": {"ios": "https://dc.lft.to/lastmile_qr_scan", "android": "https://dc.lft.to/lastmile_qr_scan"}, "fusion_lon": 0.0, "type": "electric_scooter", "bike_id": "1168f09319709b781fc9f570f0642ba8", "name": "1168f09319709b781fc9f570f0642ba8"}, {"lon": -77.04432766666666, "is_disabled": 0, "lat": 38.89823633333334, "fusion_lat": 0.0, "is_reserved": 0, "rental_uris": {"ios": "https://dc.lft.to/lastmile_qr_scan", "android": "https://dc.lft.to/lastmile_qr_scan"}, "fusion_lon": 0.0, "type": "electric_scooter", "bike_id": "c0bd08ccb531da80e1bce4dea238062b", "name": "c0bd08ccb531da80e1bce4dea238062b"}, {"lon": -77.03650533333334, "is_disabled": 0, "lat": 38.91245166666667, "fusion_lat": 0.0, "is_reserved": 0, "rental_uris": {"ios": "https://dc.lft.to/lastmile_qr_scan", "android": "https://dc.lft.to/lastmile_qr_scan"}, "fusion_lon": 0.0, "type": "electric_scooter", "bike_id": "1bede176c6fb38650796a33dca1ce051", "name": "1bede176c6fb38650796a33dca1ce051"}, {"lon": -76.98842333333333, "is_disabled": 0, "lat": 38.89662833333333, "fusion_lat": 0.0, "is_reserved": 0, "rental_uris": {"ios": "https://dc.lft.to/lastmile_qr_scan", "android": "https://dc.lft.to/lastmile_qr_scan"}, "fusion_lon": 0.0, "type": "electric_scooter", "bike_id": "6df942e264f90aa33e2dd1e5213d237f", "name": "6df942e264f90aa33e2dd1e5213d237f"}, {"lon": -76.9962935, "is_disabled": 0, "lat": 38.88719433333333, "fusion_lat": 0.0, "is_reserved": 0, "rental_uris": {"ios": "https://dc.lft.to/lastmile_qr_scan", "android": "https://dc.lft.to/lastmile_qr_scan"}, "fusion_lon": 0.0, "type": "electric_scooter", "bike_id": "af7c74d2cb080f677fa674db8ba9963f", "name": "af7c74d2cb080f677fa674db8ba9963f"}, {"lon": -77.02170866666667, "is_disabled": 0, "lat": 38.94290933333333, "fusion_lat": 0.0, "is_reserved": 0, "rental_uris": {"ios": "https://dc.lft.to/lastmile_qr_scan", "android": "https://dc.lft.to/lastmile_qr_scan"}, "fusion_lon": 0.0, "type": "electric_scooter", "bike_id": "c804bbd156f23fd17d198d9274f2c469", "name": "c804bbd156f23fd17d198d9274f2c469"}, {"lon": -77.02541066666667, "is_disabled": 0, "lat": 38.9240825, "fusion_lat": 0.0, "is_reserved": 0, "rental_uris": {"ios": "https://dc.lft.to/lastmile_qr_scan", "android": "https://dc.lft.to/lastmile_qr_scan"}, "fusion_lon": 0.0, "type": "electric_scooter", "bike_id": "4bb211506dd563572c3b036b893eb9cb", "name": "4bb211506dd563572c3b036b893eb9cb"}, {"lon": -77.04224183333334, "is_disabled": 0, "lat": 38.92622216666667, "fusion_lat": 0.0, "is_reserved": 0, "rental_uris": {"ios": "https://dc.lft.to/lastmile_qr_scan", "android": "https://dc.lft.to/lastmile_qr_scan"}, "fusion_lon": 0.0, "type": "electric_scooter", "bike_id": "de5434f04e108335b4f9957addb70e8c", "name": "de5434f04e108335b4f9957addb70e8c"}, {"lon": -77.00344283333334, "is_disabled": 0, "lat": 38.895252666666664, "fusion_lat": 0.0, "is_reserved": 0, "rental_uris": {"ios": "https://dc.lft.to/lastmile_qr_scan", "android": "https://dc.lft.to/lastmile_qr_scan"}, "fusion_lon": 0.0, "type": "electric_scooter", "bike_id": "9652a8fa430428758ec1e92fdfdca950", "name": "9652a8fa430428758ec1e92fdfdca950"}, {"lon": -76.992183, "is_disabled": 0, "lat": 38.9402595, "fusion_lat": 0.0, "is_reserved": 0, "rental_uris": {"ios": "https://dc.lft.to/lastmile_qr_scan", "android": "https://dc.lft.to/lastmile_qr_scan"}, "fusion_lon": 0.0, "type": "electric_bike", "bike_id": "365c26145096b21201512d337823c29a", "name": "365c26145096b21201512d337823c29a"}, {"lon": -77.05227616666667, "is_disabled": 0, "lat": 38.92505966666667, "fusion_lat": 0.0, "is_reserved": 0, "rental_uris": {"ios": "https://dc.lft.to/lastmile_qr_scan", "android": "https://dc.lft.to/lastmile_qr_scan"}, "fusion_lon": 0.0, "type": "electric_scooter", "bike_id": "0d408a9796a6a8e6e86839a4dca834d4", "name": "0d408a9796a6a8e6e86839a4dca834d4"}, {"lon": -77.023763, "is_disabled": 0, "lat": 38.914058, "fusion_lat": 0.0, "is_reserved": 0, "rental_uris": {"ios": "https://dc.lft.to/lastmile_qr_scan", "android": "https://dc.lft.to/lastmile_qr_scan"}, "fusion_lon": 0.0, "type": "electric_scooter", "bike_id": "65ac1508ec9a2c7cc1aed283d53ec59d", "name": "65ac1508ec9a2c7cc1aed283d53ec59d"}, {"lon": -77.08573233333334, "is_disabled": 0, "lat": 38.8742135, "fusion_lat": 0.0, "is_reserved": 0, "rental_uris": {"ios": "https://dc.lft.to/lastmile_qr_scan", "android": "https://dc.lft.to/lastmile_qr_scan"}, "fusion_lon": 0.0, "type": "electric_bike", "bike_id": "d3a8e4bc21fc9a2fbcb4917a5f95c2e5", "name": "d3a8e4bc21fc9a2fbcb4917a5f95c2e5"}, {"lon": -77.00049233333333, "is_disabled": 0, "lat": 38.87418433333333, "fusion_lat": 0.0, "is_reserved": 0, "rental_uris": {"ios": "https://dc.lft.to/lastmile_qr_scan", "android": "https://dc.lft.to/lastmile_qr_scan"}, "fusion_lon": 0.0, "type": "electric_scooter", "bike_id": "43937eaa0f6eb83083c9ee514db8bfa7", "name": "43937eaa0f6eb83083c9ee514db8bfa7"}, {"lon": -77.02184516666667, "is_disabled": 0, "lat": 38.91307183333333, "fusion_lat": 0.0, "is_reserved": 0, "rental_uris": {"ios": "https://dc.lft.to/lastmile_qr_scan", "android": "https://dc.lft.to/lastmile_qr_scan"}, "fusion_lon": 0.0, "type": "electric_scooter", "bike_id": "e6bc7904b159807fc48fe263051482e1", "name": "e6bc7904b159807fc48fe263051482e1"}, {"lon": -77.06658416666667, "is_disabled": 0, "lat": 38.95067266666667, "fusion_lat": 0.0, "is_reserved": 0, "rental_uris": {"ios": "https://dc.lft.to/lastmile_qr_scan", "android": "https://dc.lft.to/lastmile_qr_scan"}, "fusion_lon": 0.0, "type": "electric_bike", "bike_id": "d00df3d33427f55b86748aae587180cf", "name": "d00df3d33427f55b86748aae587180cf"}, {"lon": -76.99569733333334, "is_disabled": 0, "lat": 38.9401495, "fusion_lat": 0.0, "is_reserved": 0, "rental_uris": {"ios": "https://dc.lft.to/lastmile_qr_scan", "android": "https://dc.lft.to/lastmile_qr_scan"}, "fusion_lon": 0.0, "type": "electric_bike", "bike_id": "33fae36d34cc81bc47b8a33ec7a02bad", "name": "33fae36d34cc81bc47b8a33ec7a02bad"}, {"lon": -77.0612505, "is_disabled": 0, "lat": 38.943453833333336, "fusion_lat": 0.0, "is_reserved": 0, "rental_uris": {"ios": "https://dc.lft.to/lastmile_qr_scan", "android": "https://dc.lft.to/lastmile_qr_scan"}, "fusion_lon": 0.0, "type": "electric_scooter", "bike_id": "1a550c51080df70304fffdb082ee6a01", "name": "1a550c51080df70304fffdb082ee6a01"}, {"lon": -77.0627235, "is_disabled": 0, "lat": 38.905826, "fusion_lat": 0.0, "is_reserved": 0, "rental_uris": {"ios": "https://dc.lft.to/lastmile_qr_scan", "android": "https://dc.lft.to/lastmile_qr_scan"}, "fusion_lon": 0.0, "type": "electric_scooter", "bike_id": "1e9e1e17e49cf3b4ac2cd20426c8de29", "name": "1e9e1e17e49cf3b4ac2cd20426c8de29"}, {"lon": -77.04338366666667, "is_disabled": 0, "lat": 38.9073075, "fusion_lat": 0.0, "is_reserved": 0, "rental_uris": {"ios": "https://dc.lft.to/lastmile_qr_scan", "android": "https://dc.lft.to/lastmile_qr_scan"}, "fusion_lon": 0.0, "type": "electric_scooter", "bike_id": "237f077a53c54d5839d5bca6393009ae", "name": "237f077a53c54d5839d5bca6393009ae"}, {"lon": -77.05682183333333, "is_disabled": 0, "lat": 38.951612, "fusion_lat": 0.0, "is_reserved": 0, "rental_uris": {"ios": "https://dc.lft.to/lastmile_qr_scan", "android": "https://dc.lft.to/lastmile_qr_scan"}, "fusion_lon": 0.0, "type": "electric_scooter", "bike_id": "09c146c9de8ab8ded9b7160740645a7f", "name": "09c146c9de8ab8ded9b7160740645a7f"}, {"lon": -77.03641133333333, "is_disabled": 0, "lat": 38.9028415, "fusion_lat": 0.0, "is_reserved": 0, "rental_uris": {"ios": "https://dc.lft.to/lastmile_qr_scan", "android": "https://dc.lft.to/lastmile_qr_scan"}, "fusion_lon": 0.0, "type": "electric_scooter", "bike_id": "57db417c079f1abcd75dd60d4d0c4ca1", "name": "57db417c079f1abcd75dd60d4d0c4ca1"}, {"lon": -76.98538783333333, "is_disabled": 0, "lat": 38.86676033333333, "fusion_lat": 0.0, "is_reserved": 0, "rental_uris": {"ios": "https://dc.lft.to/lastmile_qr_scan", "android": "https://dc.lft.to/lastmile_qr_scan"}, "fusion_lon": 0.0, "type": "electric_scooter", "bike_id": "2ac30fb291c60beae589c4bfafb35427", "name": "2ac30fb291c60beae589c4bfafb35427"}, {"lon": -76.9307425, "is_disabled": 0, "lat": 38.9016325, "fusion_lat": 0.0, "is_reserved": 0, "rental_uris": {"ios": "https://dc.lft.to/lastmile_qr_scan", "android": "https://dc.lft.to/lastmile_qr_scan"}, "fusion_lon": 0.0, "type": "electric_scooter", "bike_id": "f4151304cd092018e552475ee16e1375", "name": "f4151304cd092018e552475ee16e1375"}, {"lon": -77.03427333333333, "is_disabled": 0, "lat": 38.9191355, "fusion_lat": 0.0, "is_reserved": 0, "rental_uris": {"ios": "https://dc.lft.to/lastmile_qr_scan", "android": "https://dc.lft.to/lastmile_qr_scan"}, "fusion_lon": 0.0, "type": "electric_scooter", "bike_id": "f8e8b9f1908424bda16ab795952f28ed", "name": "f8e8b9f1908424bda16ab795952f28ed"}, {"lon": -77.02699766666667, "is_disabled": 0, "lat": 38.916604666666665, "fusion_lat": 0.0, "is_reserved": 0, "rental_uris": {"ios": "https://dc.lft.to/lastmile_qr_scan", "android": "https://dc.lft.to/lastmile_qr_scan"}, "fusion_lon": 0.0, "type": "electric_scooter", "bike_id": "3e5408cdab06671cf5172c0da3ba2385", "name": "3e5408cdab06671cf5172c0da3ba2385"}, {"lon": -77.03430983333334, "is_disabled": 0, "lat": 38.91915266666667, "fusion_lat": 0.0, "is_reserved": 0, "rental_uris": {"ios": "https://dc.lft.to/lastmile_qr_scan", "android": "https://dc.lft.to/lastmile_qr_scan"}, "fusion_lon": 0.0, "type": "electric_scooter", "bike_id": "26c68d3506fd8e245f0ba86aafd6b907", "name": "26c68d3506fd8e245f0ba86aafd6b907"}, {"lon": -77.03303266666667, "is_disabled": 0, "lat": 38.9246055, "fusion_lat": 0.0, "is_reserved": 0, "rental_uris": {"ios": "https://dc.lft.to/lastmile_qr_scan", "android": "https://dc.lft.to/lastmile_qr_scan"}, "fusion_lon": 0.0, "type": "electric_scooter", "bike_id": "c90c721be8508de0157f57d50a80420c", "name": "c90c721be8508de0157f57d50a80420c"}, {"lon": -77.0304945, "is_disabled": 0, "lat": 38.90730533333333, "fusion_lat": 0.0, "is_reserved": 0, "rental_uris": {"ios": "https://dc.lft.to/lastmile_qr_scan", "android": "https://dc.lft.to/lastmile_qr_scan"}, "fusion_lon": 0.0, "type": "electric_scooter", "bike_id": "00d68fd36b67ab8f02441c03b516c9b9", "name": "00d68fd36b67ab8f02441c03b516c9b9"}, {"lon": -77.02280333333333, "is_disabled": 0, "lat": 38.9171035, "fusion_lat": 0.0, "is_reserved": 0, "rental_uris": {"ios": "https://dc.lft.to/lastmile_qr_scan", "android": "https://dc.lft.to/lastmile_qr_scan"}, "fusion_lon": 0.0, "type": "electric_scooter", "bike_id": "4afaef85d977f62e0a315c0eeae00a88", "name": "4afaef85d977f62e0a315c0eeae00a88"}, {"lon": -77.0145315, "is_disabled": 0, "lat": 38.917697833333335, "fusion_lat": 0.0, "is_reserved": 0, "rental_uris": {"ios": "https://dc.lft.to/lastmile_qr_scan", "android": "https://dc.lft.to/lastmile_qr_scan"}, "fusion_lon": 0.0, "type": "electric_scooter", "bike_id": "cda25055e485823a90f583348bd14feb", "name": "cda25055e485823a90f583348bd14feb"}, {"lon": -77.05001466666667, "is_disabled": 0, "lat": 38.8923455, "fusion_lat": 0.0, "is_reserved": 0, "rental_uris": {"ios": "https://dc.lft.to/lastmile_qr_scan", "android": "https://dc.lft.to/lastmile_qr_scan"}, "fusion_lon": 0.0, "type": "electric_scooter", "bike_id": "3d8b6e26623c3a78e56f583b3cd4b658", "name": "3d8b6e26623c3a78e56f583b3cd4b658"}, {"lon": -77.01769366666667, "is_disabled": 0, "lat": 38.9205045, "fusion_lat": 0.0, "is_reserved": 0, "rental_uris": {"ios": "https://dc.lft.to/lastmile_qr_scan", "android": "https://dc.lft.to/lastmile_qr_scan"}, "fusion_lon": 0.0, "type": "electric_scooter", "bike_id": "7aebb18729262cd9da888c721c162a59", "name": "7aebb18729262cd9da888c721c162a59"}, {"lon": -77.02879366666667, "is_disabled": 0, "lat": 38.9987675, "fusion_lat": 0.0, "is_reserved": 0, "rental_uris": {"ios": "https://dc.lft.to/lastmile_qr_scan", "android": "https://dc.lft.to/lastmile_qr_scan"}, "fusion_lon": 0.0, "type": "electric_bike", "bike_id": "ab40651c7daa36be95c9c148dbd8c12f", "name": "ab40651c7daa36be95c9c148dbd8c12f"}, {"lon": -77.0187905, "is_disabled": 0, "lat": 38.9112785, "fusion_lat": 0.0, "is_reserved": 0, "rental_uris": {"ios": "https://dc.lft.to/lastmile_qr_scan", "android": "https://dc.lft.to/lastmile_qr_scan"}, "fusion_lon": 0.0, "type": "electric_scooter", "bike_id": "54b1e63a99d452364452f90828163969", "name": "54b1e63a99d452364452f90828163969"}, {"lon": -77.04760083333333, "is_disabled": 0, "lat": 38.917539166666664, "fusion_lat": 0.0, "is_reserved": 0, "rental_uris": {"ios": "https://dc.lft.to/lastmile_qr_scan", "android": "https://dc.lft.to/lastmile_qr_scan"}, "fusion_lon": 0.0, "type": "electric_scooter", "bike_id": "b4c50696603b44aa7e4f794aaeeb2926", "name": "b4c50696603b44aa7e4f794aaeeb2926"}, {"lon": -77.02362883333333, "is_disabled": 0, "lat": 38.915497333333334, "fusion_lat": 0.0, "is_reserved": 0, "rental_uris": {"ios": "https://dc.lft.to/lastmile_qr_scan", "android": "https://dc.lft.to/lastmile_qr_scan"}, "fusion_lon": 0.0, "type": "electric_scooter", "bike_id": "297e432edf38a50af37fc7559d78142b", "name": "297e432edf38a50af37fc7559d78142b"}, {"lon": -77.03509016666666, "is_disabled": 0, "lat": 38.9235405, "fusion_lat": 0.0, "is_reserved": 0, "rental_uris": {"ios": "https://dc.lft.to/lastmile_qr_scan", "android": "https://dc.lft.to/lastmile_qr_scan"}, "fusion_lon": 0.0, "type": "electric_scooter", "bike_id": "c06f51e782ec4289b2676c46722ba1fe", "name": "c06f51e782ec4289b2676c46722ba1fe"}, {"lon": -77.03517016666666, "is_disabled": 0, "lat": 38.922594333333336, "fusion_lat": 0.0, "is_reserved": 0, "rental_uris": {"ios": "https://dc.lft.to/lastmile_qr_scan", "android": "https://dc.lft.to/lastmile_qr_scan"}, "fusion_lon": 0.0, "type": "electric_scooter", "bike_id": "96ddc1ed98f995a2f18c663a5bc667f8", "name": "96ddc1ed98f995a2f18c663a5bc667f8"}, {"lon": -77.00931083333333, "is_disabled": 0, "lat": 38.918036, "fusion_lat": 0.0, "is_reserved": 0, "rental_uris": {"ios": "https://dc.lft.to/lastmile_qr_scan", "android": "https://dc.lft.to/lastmile_qr_scan"}, "fusion_lon": 0.0, "type": "electric_scooter", "bike_id": "b00eb5932eec8ac90cb006a79cc04d3f", "name": "b00eb5932eec8ac90cb006a79cc04d3f"}, {"lon": -77.03750333333333, "is_disabled": 0, "lat": 38.92188866666667, "fusion_lat": 0.0, "is_reserved": 0, "rental_uris": {"ios": "https://dc.lft.to/lastmile_qr_scan", "android": "https://dc.lft.to/lastmile_qr_scan"}, "fusion_lon": 0.0, "type": "electric_scooter", "bike_id": "20a03fe1aae6c081201f82e588f0610e", "name": "20a03fe1aae6c081201f82e588f0610e"}, {"lon": -77.086281, "is_disabled": 0, "lat": 38.80975633333333, "fusion_lat": 0.0, "is_reserved": 0, "rental_uris": {"ios": "https://dc.lft.to/lastmile_qr_scan", "android": "https://dc.lft.to/lastmile_qr_scan"}, "fusion_lon": 0.0, "type": "electric_bike", "bike_id": "bc4d589ca245ad475067c34cf73f0629", "name": "bc4d589ca245ad475067c34cf73f0629"}, {"lon": -77.058856, "is_disabled": 0, "lat": 38.936391666666665, "fusion_lat": 0.0, "is_reserved": 0, "rental_uris": {"ios": "https://dc.lft.to/lastmile_qr_scan", "android": "https://dc.lft.to/lastmile_qr_scan"}, "fusion_lon": 0.0, "type": "electric_scooter", "bike_id": "b42e207f0c6426530584cffd2fc2b5a6", "name": "b42e207f0c6426530584cffd2fc2b5a6"}, {"lon": -77.02827866666667, "is_disabled": 0, "lat": 38.88651933333333, "fusion_lat": 0.0, "is_reserved": 0, "rental_uris": {"ios": "https://dc.lft.to/lastmile_qr_scan", "android": "https://dc.lft.to/lastmile_qr_scan"}, "fusion_lon": 0.0, "type": "electric_scooter", "bike_id": "8b1d9c65d4de09c19ad0f0f1841cf4db", "name": "8b1d9c65d4de09c19ad0f0f1841cf4db"}, {"lon": -76.98509616666666, "is_disabled": 0, "lat": 38.860584833333334, "fusion_lat": 0.0, "is_reserved": 0, "rental_uris": {"ios": "https://dc.lft.to/lastmile_qr_scan", "android": "https://dc.lft.to/lastmile_qr_scan"}, "fusion_lon": 0.0, "type": "electric_scooter", "bike_id": "5da9d319f6912b73e8815147cf986142", "name": "5da9d319f6912b73e8815147cf986142"}, {"lon": -76.98091816666667, "is_disabled": 0, "lat": 38.9535635, "fusion_lat": 0.0, "is_reserved": 0, "rental_uris": {"ios": "https://dc.lft.to/lastmile_qr_scan", "android": "https://dc.lft.to/lastmile_qr_scan"}, "fusion_lon": 0.0, "type": "electric_bike", "bike_id": "656e13b910bad740c435e96fea2bc48e", "name": "656e13b910bad740c435e96fea2bc48e"}, {"lon": -77.00584766666667, "is_disabled": 0, "lat": 38.90569083333333, "fusion_lat": 0.0, "is_reserved": 0, "rental_uris": {"ios": "https://dc.lft.to/lastmile_qr_scan", "android": "https://dc.lft.to/lastmile_qr_scan"}, "fusion_lon": 0.0, "type": "electric_scooter", "bike_id": "5757d332be9e203845194440a975c797", "name": "5757d332be9e203845194440a975c797"}, {"lon": -77.02279916666667, "is_disabled": 0, "lat": 38.91562483333333, "fusion_lat": 0.0, "is_reserved": 0, "rental_uris": {"ios": "https://dc.lft.to/lastmile_qr_scan", "android": "https://dc.lft.to/lastmile_qr_scan"}, "fusion_lon": 0.0, "type": "electric_scooter", "bike_id": "7a444527e06ba6bb55553866de94684f", "name": "7a444527e06ba6bb55553866de94684f"}, {"lon": -77.0121745, "is_disabled": 0, "lat": 38.89850966666667, "fusion_lat": 0.0, "is_reserved": 0, "rental_uris": {"ios": "https://dc.lft.to/lastmile_qr_scan", "android": "https://dc.lft.to/lastmile_qr_scan"}, "fusion_lon": 0.0, "type": "electric_scooter", "bike_id": "fdfa9d35f0af30fea870ae8d444206ae", "name": "fdfa9d35f0af30fea870ae8d444206ae"}, {"lon": -76.98377233333333, "is_disabled": 0, "lat": 38.87944233333333, "fusion_lat": 0.0, "is_reserved": 0, "rental_uris": {"ios": "https://dc.lft.to/lastmile_qr_scan", "android": "https://dc.lft.to/lastmile_qr_scan"}, "fusion_lon": 0.0, "type": "electric_scooter", "bike_id": "463e806ed72c85ee3d8f00945ccfbb4f", "name": "463e806ed72c85ee3d8f00945ccfbb4f"}, {"lon": -77.03479066666667, "is_disabled": 0, "lat": 38.884869333333334, "fusion_lat": 0.0, "is_reserved": 0, "rental_uris": {"ios": "https://dc.lft.to/lastmile_qr_scan", "android": "https://dc.lft.to/lastmile_qr_scan"}, "fusion_lon": 0.0, "type": "electric_scooter", "bike_id": "7f0906aa01faafaed96937ea81730c3f", "name": "7f0906aa01faafaed96937ea81730c3f"}, {"lon": -77.02252266666666, "is_disabled": 0, "lat": 38.966871833333336, "fusion_lat": 0.0, "is_reserved": 0, "rental_uris": {"ios": "https://dc.lft.to/lastmile_qr_scan", "android": "https://dc.lft.to/lastmile_qr_scan"}, "fusion_lon": 0.0, "type": "electric_bike", "bike_id": "1bb8f97477787fe63d1fe5174cc3c428", "name": "1bb8f97477787fe63d1fe5174cc3c428"}, {"lon": -77.0255865, "is_disabled": 0, "lat": 38.909602, "fusion_lat": 0.0, "is_reserved": 0, "rental_uris": {"ios": "https://dc.lft.to/lastmile_qr_scan", "android": "https://dc.lft.to/lastmile_qr_scan"}, "fusion_lon": 0.0, "type": "electric_scooter", "bike_id": "014c242dd2eb966787955f6ca28673af", "name": "014c242dd2eb966787955f6ca28673af"}, {"lon": -77.05660366666666, "is_disabled": 0, "lat": 38.9060135, "fusion_lat": 0.0, "is_reserved": 0, "rental_uris": {"ios": "https://dc.lft.to/lastmile_qr_scan", "android": "https://dc.lft.to/lastmile_qr_scan"}, "fusion_lon": 0.0, "type": "electric_scooter", "bike_id": "786e01ffa59f1e6cbc0b06e00bda00e1", "name": "786e01ffa59f1e6cbc0b06e00bda00e1"}, {"lon": -77.05727083333333, "is_disabled": 0, "lat": 38.9336695, "fusion_lat": 0.0, "is_reserved": 0, "rental_uris": {"ios": "https://dc.lft.to/lastmile_qr_scan", "android": "https://dc.lft.to/lastmile_qr_scan"}, "fusion_lon": 0.0, "type": "electric_scooter", "bike_id": "2d306a756d2f68deb65132515fc8630b", "name": "2d306a756d2f68deb65132515fc8630b"}, {"lon": -76.9788155, "is_disabled": 0, "lat": 38.90192833333333, "fusion_lat": 0.0, "is_reserved": 0, "rental_uris": {"ios": "https://dc.lft.to/lastmile_qr_scan", "android": "https://dc.lft.to/lastmile_qr_scan"}, "fusion_lon": 0.0, "type": "electric_scooter", "bike_id": "9d91da52a825c78c1b9413fe06b00295", "name": "9d91da52a825c78c1b9413fe06b00295"}, {"lon": -77.00844483333333, "is_disabled": 0, "lat": 38.922331666666665, "fusion_lat": 0.0, "is_reserved": 0, "rental_uris": {"ios": "https://dc.lft.to/lastmile_qr_scan", "android": "https://dc.lft.to/lastmile_qr_scan"}, "fusion_lon": 0.0, "type": "electric_scooter", "bike_id": "8a164cf2b5d55db8021723159dc02cad", "name": "8a164cf2b5d55db8021723159dc02cad"}, {"lon": -77.03832033333333, "is_disabled": 0, "lat": 38.911106, "fusion_lat": 0.0, "is_reserved": 0, "rental_uris": {"ios": "https://dc.lft.to/lastmile_qr_scan", "android": "https://dc.lft.to/lastmile_qr_scan"}, "fusion_lon": 0.0, "type": "electric_scooter", "bike_id": "617bd05066997e6fb09b6b867ec8e9cd", "name": "617bd05066997e6fb09b6b867ec8e9cd"}, {"lon": -77.00583583333334, "is_disabled": 0, "lat": 38.876552, "fusion_lat": 0.0, "is_reserved": 0, "rental_uris": {"ios": "https://dc.lft.to/lastmile_qr_scan", "android": "https://dc.lft.to/lastmile_qr_scan"}, "fusion_lon": 0.0, "type": "electric_scooter", "bike_id": "455d6328133381b26da04236e14aa2db", "name": "455d6328133381b26da04236e14aa2db"}, {"lon": -77.02496066666667, "is_disabled": 0, "lat": 38.918076666666664, "fusion_lat": 0.0, "is_reserved": 0, "rental_uris": {"ios": "https://dc.lft.to/lastmile_qr_scan", "android": "https://dc.lft.to/lastmile_qr_scan"}, "fusion_lon": 0.0, "type": "electric_scooter", "bike_id": "85865f22690bf8d90824d18a02236031", "name": "85865f22690bf8d90824d18a02236031"}, {"lon": -76.97854633333333, "is_disabled": 0, "lat": 38.8446705, "fusion_lat": 0.0, "is_reserved": 0, "rental_uris": {"ios": "https://dc.lft.to/lastmile_qr_scan", "android": "https://dc.lft.to/lastmile_qr_scan"}, "fusion_lon": 0.0, "type": "electric_bike", "bike_id": "83a12302eb7e999f8343c557387dd9e5", "name": "83a12302eb7e999f8343c557387dd9e5"}, {"lon": -76.98228966666667, "is_disabled": 0, "lat": 38.86622066666666, "fusion_lat": 0.0, "is_reserved": 0, "rental_uris": {"ios": "https://dc.lft.to/lastmile_qr_scan", "android": "https://dc.lft.to/lastmile_qr_scan"}, "fusion_lon": 0.0, "type": "electric_scooter", "bike_id": "807b51f3bff20800e34734a45294fac6", "name": "807b51f3bff20800e34734a45294fac6"}, {"lon": -77.032634, "is_disabled": 0, "lat": 38.93579616666667, "fusion_lat": 0.0, "is_reserved": 0, "rental_uris": {"ios": "https://dc.lft.to/lastmile_qr_scan", "android": "https://dc.lft.to/lastmile_qr_scan"}, "fusion_lon": 0.0, "type": "electric_scooter", "bike_id": "93b85c3437b23eea22ce6eb989c5e2e0", "name": "93b85c3437b23eea22ce6eb989c5e2e0"}, {"lon": -77.06950966666666, "is_disabled": 0, "lat": 38.99532833333333, "fusion_lat": 0.0, "is_reserved": 0, "rental_uris": {"ios": "https://dc.lft.to/lastmile_qr_scan", "android": "https://dc.lft.to/lastmile_qr_scan"}, "fusion_lon": 0.0, "type": "electric_bike", "bike_id": "4b48a6c985286878d581e6c8e5d2d7f9", "name": "4b48a6c985286878d581e6c8e5d2d7f9"}, {"lon": -77.012485, "is_disabled": 0, "lat": 38.9157375, "fusion_lat": 0.0, "is_reserved": 0, "rental_uris": {"ios": "https://dc.lft.to/lastmile_qr_scan", "android": "https://dc.lft.to/lastmile_qr_scan"}, "fusion_lon": 0.0, "type": "electric_scooter", "bike_id": "15c2dd31cd31ccf8c6d8ca354fdeea6f", "name": "15c2dd31cd31ccf8c6d8ca354fdeea6f"}, {"lon": -77.02482783333333, "is_disabled": 0, "lat": 38.93883316666667, "fusion_lat": 0.0, "is_reserved": 0, "rental_uris": {"ios": "https://dc.lft.to/lastmile_qr_scan", "android": "https://dc.lft.to/lastmile_qr_scan"}, "fusion_lon": 0.0, "type": "electric_scooter", "bike_id": "06e7b36081ff290f6904f980c4546e49", "name": "06e7b36081ff290f6904f980c4546e49"}, {"lon": -77.04532516666667, "is_disabled": 0, "lat": 38.899527166666665, "fusion_lat": 0.0, "is_reserved": 0, "rental_uris": {"ios": "https://dc.lft.to/lastmile_qr_scan", "android": "https://dc.lft.to/lastmile_qr_scan"}, "fusion_lon": 0.0, "type": "electric_scooter", "bike_id": "456616ca61d12d5b660cd4e082bcdad6", "name": "456616ca61d12d5b660cd4e082bcdad6"}, {"lon": -76.994492, "is_disabled": 0, "lat": 38.900220166666664, "fusion_lat": 0.0, "is_reserved": 0, "rental_uris": {"ios": "https://dc.lft.to/lastmile_qr_scan", "android": "https://dc.lft.to/lastmile_qr_scan"}, "fusion_lon": 0.0, "type": "electric_scooter", "bike_id": "aa341085826c518ef79b5db24c7fad43", "name": "aa341085826c518ef79b5db24c7fad43"}, {"lon": -77.02861833333333, "is_disabled": 0, "lat": 38.926811666666666, "fusion_lat": 0.0, "is_reserved": 0, "rental_uris": {"ios": "https://dc.lft.to/lastmile_qr_scan", "android": "https://dc.lft.to/lastmile_qr_scan"}, "fusion_lon": 0.0, "type": "electric_scooter", "bike_id": "0fccdea3e4c872f7e717664d40e36370", "name": "0fccdea3e4c872f7e717664d40e36370"}, {"lon": -77.04662266666666, "is_disabled": 0, "lat": 38.89877116666667, "fusion_lat": 0.0, "is_reserved": 0, "rental_uris": {"ios": "https://dc.lft.to/lastmile_qr_scan", "android": "https://dc.lft.to/lastmile_qr_scan"}, "fusion_lon": 0.0, "type": "electric_scooter", "bike_id": "60add2d24119c6d6504b6d48a8ee94eb", "name": "60add2d24119c6d6504b6d48a8ee94eb"}, {"lon": -77.03657933333334, "is_disabled": 0, "lat": 38.94196316666667, "fusion_lat": 0.0, "is_reserved": 0, "rental_uris": {"ios": "https://dc.lft.to/lastmile_qr_scan", "android": "https://dc.lft.to/lastmile_qr_scan"}, "fusion_lon": 0.0, "type": "electric_scooter", "bike_id": "e19e01cd56398f4fe684e63358dc4e0d", "name": "e19e01cd56398f4fe684e63358dc4e0d"}, {"lon": -77.03619983333333, "is_disabled": 0, "lat": 38.91480766666667, "fusion_lat": 0.0, "is_reserved": 0, "rental_uris": {"ios": "https://dc.lft.to/lastmile_qr_scan", "android": "https://dc.lft.to/lastmile_qr_scan"}, "fusion_lon": 0.0, "type": "electric_scooter", "bike_id": "aed51747232db54b0e8b10096904138d", "name": "aed51747232db54b0e8b10096904138d"}, {"lon": -76.9554155, "is_disabled": 0, "lat": 38.948003166666666, "fusion_lat": 0.0, "is_reserved": 0, "rental_uris": {"ios": "https://dc.lft.to/lastmile_qr_scan", "android": "https://dc.lft.to/lastmile_qr_scan"}, "fusion_lon": 0.0, "type": "electric_bike", "bike_id": "5b6adea0a7dce57615bd2eb4e1313477", "name": "5b6adea0a7dce57615bd2eb4e1313477"}, {"lon": -77.000638, "is_disabled": 0, "lat": 38.83890483333333, "fusion_lat": 0.0, "is_reserved": 0, "rental_uris": {"ios": "https://dc.lft.to/lastmile_qr_scan", "android": "https://dc.lft.to/lastmile_qr_scan"}, "fusion_lon": 0.0, "type": "electric_scooter", "bike_id": "ad4a8c7b377a4d2add9335a92a3951e1", "name": "ad4a8c7b377a4d2add9335a92a3951e1"}, {"lon": -77.03358316666667, "is_disabled": 0, "lat": 38.89834533333333, "fusion_lat": 0.0, "is_reserved": 0, "rental_uris": {"ios": "https://dc.lft.to/lastmile_qr_scan", "android": "https://dc.lft.to/lastmile_qr_scan"}, "fusion_lon": 0.0, "type": "electric_scooter", "bike_id": "5551d9453f2c2e0151ee1047fd0cf50a", "name": "5551d9453f2c2e0151ee1047fd0cf50a"}, {"lon": -77.00196683333333, "is_disabled": 0, "lat": 38.90267816666667, "fusion_lat": 0.0, "is_reserved": 0, "rental_uris": {"ios": "https://dc.lft.to/lastmile_qr_scan", "android": "https://dc.lft.to/lastmile_qr_scan"}, "fusion_lon": 0.0, "type": "electric_scooter", "bike_id": "dc51e74749e01282cbb7551f7888adc5", "name": "dc51e74749e01282cbb7551f7888adc5"}, {"lon": -77.01855233333333, "is_disabled": 0, "lat": 38.949188, "fusion_lat": 0.0, "is_reserved": 0, "rental_uris": {"ios": "https://dc.lft.to/lastmile_qr_scan", "android": "https://dc.lft.to/lastmile_qr_scan"}, "fusion_lon": 0.0, "type": "electric_scooter", "bike_id": "f5d480c09bb11e4d2326c9747b176f5c", "name": "f5d480c09bb11e4d2326c9747b176f5c"}, {"lon": -77.039692, "is_disabled": 0, "lat": 38.90254683333333, "fusion_lat": 0.0, "is_reserved": 0, "rental_uris": {"ios": "https://dc.lft.to/lastmile_qr_scan", "android": "https://dc.lft.to/lastmile_qr_scan"}, "fusion_lon": 0.0, "type": "electric_scooter", "bike_id": "a4ffa91470f1292eb1fa8beba37998a5", "name": "a4ffa91470f1292eb1fa8beba37998a5"}, {"lon": -77.0271425, "is_disabled": 0, "lat": 38.89711583333333, "fusion_lat": 0.0, "is_reserved": 0, "rental_uris": {"ios": "https://dc.lft.to/lastmile_qr_scan", "android": "https://dc.lft.to/lastmile_qr_scan"}, "fusion_lon": 0.0, "type": "electric_scooter", "bike_id": "d11c5430d2115a19291c6fe2d9ee2621", "name": "d11c5430d2115a19291c6fe2d9ee2621"}, {"lon": -77.02215883333334, "is_disabled": 0, "lat": 38.897255333333334, "fusion_lat": 0.0, "is_reserved": 0, "rental_uris": {"ios": "https://dc.lft.to/lastmile_qr_scan", "android": "https://dc.lft.to/lastmile_qr_scan"}, "fusion_lon": 0.0, "type": "electric_scooter", "bike_id": "53c06aac62c1ab39fe48de534101f97c", "name": "53c06aac62c1ab39fe48de534101f97c"}, {"lon": -77.04329866666667, "is_disabled": 0, "lat": 38.896382, "fusion_lat": 0.0, "is_reserved": 0, "rental_uris": {"ios": "https://dc.lft.to/lastmile_qr_scan", "android": "https://dc.lft.to/lastmile_qr_scan"}, "fusion_lon": 0.0, "type": "electric_scooter", "bike_id": "293d1ee6fb9dbd240d16aa909b58d25c", "name": "293d1ee6fb9dbd240d16aa909b58d25c"}, {"lon": -77.02427483333334, "is_disabled": 0, "lat": 38.92042166666667, "fusion_lat": 0.0, "is_reserved": 0, "rental_uris": {"ios": "https://dc.lft.to/lastmile_qr_scan", "android": "https://dc.lft.to/lastmile_qr_scan"}, "fusion_lon": 0.0, "type": "electric_scooter", "bike_id": "969faf421f776455dd7fd4268b629895", "name": "969faf421f776455dd7fd4268b629895"}, {"lon": -77.01039183333333, "is_disabled": 0, "lat": 38.915647666666665, "fusion_lat": 0.0, "is_reserved": 0, "rental_uris": {"ios": "https://dc.lft.to/lastmile_qr_scan", "android": "https://dc.lft.to/lastmile_qr_scan"}, "fusion_lon": 0.0, "type": "electric_scooter", "bike_id": "e6114b2c080b9889f76acb01e9f48ce8", "name": "e6114b2c080b9889f76acb01e9f48ce8"}, {"lon": -77.03123366666667, "is_disabled": 0, "lat": 38.93089033333333, "fusion_lat": 0.0, "is_reserved": 0, "rental_uris": {"ios": "https://dc.lft.to/lastmile_qr_scan", "android": "https://dc.lft.to/lastmile_qr_scan"}, "fusion_lon": 0.0, "type": "electric_scooter", "bike_id": "25b98020a05cd84f6a460a610c26b630", "name": "25b98020a05cd84f6a460a610c26b630"}, {"lon": -77.02180316666667, "is_disabled": 0, "lat": 38.9068355, "fusion_lat": 0.0, "is_reserved": 0, "rental_uris": {"ios": "https://dc.lft.to/lastmile_qr_scan", "android": "https://dc.lft.to/lastmile_qr_scan"}, "fusion_lon": 0.0, "type": "electric_scooter", "bike_id": "a57ceabf9de8e1d01037cbc6980517ac", "name": "a57ceabf9de8e1d01037cbc6980517ac"}, {"lon": -77.00591766666666, "is_disabled": 0, "lat": 38.90308433333333, "fusion_lat": 0.0, "is_reserved": 0, "rental_uris": {"ios": "https://dc.lft.to/lastmile_qr_scan", "android": "https://dc.lft.to/lastmile_qr_scan"}, "fusion_lon": 0.0, "type": "electric_scooter", "bike_id": "162212dc9aa04d8b9cccada3b0197cd3", "name": "162212dc9aa04d8b9cccada3b0197cd3"}, {"lon": -77.03279333333333, "is_disabled": 0, "lat": 38.926440166666666, "fusion_lat": 0.0, "is_reserved": 0, "rental_uris": {"ios": "https://dc.lft.to/lastmile_qr_scan", "android": "https://dc.lft.to/lastmile_qr_scan"}, "fusion_lon": 0.0, "type": "electric_scooter", "bike_id": "4fdbd3aede6d1d010399880a05ef9957", "name": "4fdbd3aede6d1d010399880a05ef9957"}, {"lon": -77.02121366666667, "is_disabled": 0, "lat": 38.9141035, "fusion_lat": 0.0, "is_reserved": 0, "rental_uris": {"ios": "https://dc.lft.to/lastmile_qr_scan", "android": "https://dc.lft.to/lastmile_qr_scan"}, "fusion_lon": 0.0, "type": "electric_scooter", "bike_id": "ca3ac300c1f58d4281fdbf5add56e7ca", "name": "ca3ac300c1f58d4281fdbf5add56e7ca"}, {"lon": -77.04455516666667, "is_disabled": 0, "lat": 38.915422, "fusion_lat": 0.0, "is_reserved": 0, "rental_uris": {"ios": "https://dc.lft.to/lastmile_qr_scan", "android": "https://dc.lft.to/lastmile_qr_scan"}, "fusion_lon": 0.0, "type": "electric_scooter", "bike_id": "bbaf361fc0dacc568f90024c7d25fcac", "name": "bbaf361fc0dacc568f90024c7d25fcac"}, {"lon": -77.03968783333333, "is_disabled": 0, "lat": 38.894219166666666, "fusion_lat": 0.0, "is_reserved": 0, "rental_uris": {"ios": "https://dc.lft.to/lastmile_qr_scan", "android": "https://dc.lft.to/lastmile_qr_scan"}, "fusion_lon": 0.0, "type": "electric_scooter", "bike_id": "3f1b228ebdda1b67e07e4ca35bd77b29", "name": "3f1b228ebdda1b67e07e4ca35bd77b29"}, {"lon": -77.0220105, "is_disabled": 0, "lat": 38.91049066666667, "fusion_lat": 0.0, "is_reserved": 0, "rental_uris": {"ios": "https://dc.lft.to/lastmile_qr_scan", "android": "https://dc.lft.to/lastmile_qr_scan"}, "fusion_lon": 0.0, "type": "electric_scooter", "bike_id": "b293703205c073b015f75a9c97c01252", "name": "b293703205c073b015f75a9c97c01252"}, {"lon": -76.99640966666666, "is_disabled": 0, "lat": 38.90524416666667, "fusion_lat": 0.0, "is_reserved": 0, "rental_uris": {"ios": "https://dc.lft.to/lastmile_qr_scan", "android": "https://dc.lft.to/lastmile_qr_scan"}, "fusion_lon": 0.0, "type": "electric_scooter", "bike_id": "eed677ee21dd01468b09f613f4600998", "name": "eed677ee21dd01468b09f613f4600998"}, {"lon": -77.01781666666666, "is_disabled": 0, "lat": 38.87711266666667, "fusion_lat": 0.0, "is_reserved": 0, "rental_uris": {"ios": "https://dc.lft.to/lastmile_qr_scan", "android": "https://dc.lft.to/lastmile_qr_scan"}, "fusion_lon": 0.0, "type": "electric_scooter", "bike_id": "71bb0e7af609186947555113c68b5f7e", "name": "71bb0e7af609186947555113c68b5f7e"}, {"lon": -76.93009983333333, "is_disabled": 0, "lat": 38.88822166666667, "fusion_lat": 0.0, "is_reserved": 0, "rental_uris": {"ios": "https://dc.lft.to/lastmile_qr_scan", "android": "https://dc.lft.to/lastmile_qr_scan"}, "fusion_lon": 0.0, "type": "electric_scooter", "bike_id": "2de9179d97bd68c8baed86aeda8c5986", "name": "2de9179d97bd68c8baed86aeda8c5986"}, {"lon": -77.03184283333333, "is_disabled": 0, "lat": 38.91744333333333, "fusion_lat": 0.0, "is_reserved": 0, "rental_uris": {"ios": "https://dc.lft.to/lastmile_qr_scan", "android": "https://dc.lft.to/lastmile_qr_scan"}, "fusion_lon": 0.0, "type": "electric_scooter", "bike_id": "979f8e54e4a7fc6e1400258f962e5ab1", "name": "979f8e54e4a7fc6e1400258f962e5ab1"}, {"lon": -76.99924683333333, "is_disabled": 0, "lat": 39.039852, "fusion_lat": 0.0, "is_reserved": 0, "rental_uris": {"ios": "https://dc.lft.to/lastmile_qr_scan", "android": "https://dc.lft.to/lastmile_qr_scan"}, "fusion_lon": 0.0, "type": "electric_bike", "bike_id": "e245021ebd8e2957e90bcae979ad3e26", "name": "e245021ebd8e2957e90bcae979ad3e26"}, {"lon": -77.03305916666666, "is_disabled": 0, "lat": 38.9235015, "fusion_lat": 0.0, "is_reserved": 0, "rental_uris": {"ios": "https://dc.lft.to/lastmile_qr_scan", "android": "https://dc.lft.to/lastmile_qr_scan"}, "fusion_lon": 0.0, "type": "electric_scooter", "bike_id": "2c3329d31ea6ee60342d7ad460c62028", "name": "2c3329d31ea6ee60342d7ad460c62028"}, {"lon": -77.04227616666667, "is_disabled": 0, "lat": 38.920582333333336, "fusion_lat": 0.0, "is_reserved": 0, "rental_uris": {"ios": "https://dc.lft.to/lastmile_qr_scan", "android": "https://dc.lft.to/lastmile_qr_scan"}, "fusion_lon": 0.0, "type": "electric_scooter", "bike_id": "a3c0102934bb305334ed17a5e6a0cb6f", "name": "a3c0102934bb305334ed17a5e6a0cb6f"}, {"lon": -77.034549, "is_disabled": 0, "lat": 38.922175333333335, "fusion_lat": 0.0, "is_reserved": 0, "rental_uris": {"ios": "https://dc.lft.to/lastmile_qr_scan", "android": "https://dc.lft.to/lastmile_qr_scan"}, "fusion_lon": 0.0, "type": "electric_scooter", "bike_id": "60fc26aa260d10c42361ad3d7b437591", "name": "60fc26aa260d10c42361ad3d7b437591"}, {"lon": -77.00806433333334, "is_disabled": 0, "lat": 38.831642, "fusion_lat": 0.0, "is_reserved": 0, "rental_uris": {"ios": "https://dc.lft.to/lastmile_qr_scan", "android": "https://dc.lft.to/lastmile_qr_scan"}, "fusion_lon": 0.0, "type": "electric_scooter", "bike_id": "c17653705351d263012799eb64727fb6", "name": "c17653705351d263012799eb64727fb6"}, {"lon": -77.03429766666666, "is_disabled": 0, "lat": 38.92731916666666, "fusion_lat": 0.0, "is_reserved": 0, "rental_uris": {"ios": "https://dc.lft.to/lastmile_qr_scan", "android": "https://dc.lft.to/lastmile_qr_scan"}, "fusion_lon": 0.0, "type": "electric_scooter", "bike_id": "fb58eb53d1739e63df71c75ea9f132b8", "name": "fb58eb53d1739e63df71c75ea9f132b8"}, {"lon": -77.02444616666666, "is_disabled": 0, "lat": 38.949550333333335, "fusion_lat": 0.0, "is_reserved": 0, "rental_uris": {"ios": "https://dc.lft.to/lastmile_qr_scan", "android": "https://dc.lft.to/lastmile_qr_scan"}, "fusion_lon": 0.0, "type": "electric_scooter", "bike_id": "2f5974ec96d9235a17c7aa0a38afc602", "name": "2f5974ec96d9235a17c7aa0a38afc602"}, {"lon": -76.89069833333333, "is_disabled": 0, "lat": 38.92068916666667, "fusion_lat": 0.0, "is_reserved": 0, "rental_uris": {"ios": "https://dc.lft.to/lastmile_qr_scan", "android": "https://dc.lft.to/lastmile_qr_scan"}, "fusion_lon": 0.0, "type": "electric_bike", "bike_id": "4a65d671e168b5b2a1cc8463d65b6771", "name": "4a65d671e168b5b2a1cc8463d65b6771"}, {"lon": -77.02213066666667, "is_disabled": 0, "lat": 38.91269, "fusion_lat": 0.0, "is_reserved": 0, "rental_uris": {"ios": "https://dc.lft.to/lastmile_qr_scan", "android": "https://dc.lft.to/lastmile_qr_scan"}, "fusion_lon": 0.0, "type": "electric_scooter", "bike_id": "f95d0b4e06eb134215d6954ed9e5188d", "name": "f95d0b4e06eb134215d6954ed9e5188d"}, {"lon": -76.960183, "is_disabled": 0, "lat": 38.869339833333335, "fusion_lat": 0.0, "is_reserved": 0, "rental_uris": {"ios": "https://dc.lft.to/lastmile_qr_scan", "android": "https://dc.lft.to/lastmile_qr_scan"}, "fusion_lon": 0.0, "type": "electric_scooter", "bike_id": "a4f452a49b4e3d4f45f395e973c86ecc", "name": "a4f452a49b4e3d4f45f395e973c86ecc"}, {"lon": -77.04388516666667, "is_disabled": 0, "lat": 38.923589666666665, "fusion_lat": 0.0, "is_reserved": 0, "rental_uris": {"ios": "https://dc.lft.to/lastmile_qr_scan", "android": "https://dc.lft.to/lastmile_qr_scan"}, "fusion_lon": 0.0, "type": "electric_scooter", "bike_id": "62ad450bddd8050cad9b0ee406321cd1", "name": "62ad450bddd8050cad9b0ee406321cd1"}, {"lon": -77.05595616666666, "is_disabled": 0, "lat": 38.93703633333333, "fusion_lat": 0.0, "is_reserved": 0, "rental_uris": {"ios": "https://dc.lft.to/lastmile_qr_scan", "android": "https://dc.lft.to/lastmile_qr_scan"}, "fusion_lon": 0.0, "type": "electric_bike", "bike_id": "fe8fc6ce9205f55f9f671070c98e7bc7", "name": "fe8fc6ce9205f55f9f671070c98e7bc7"}, {"lon": -76.99496083333334, "is_disabled": 0, "lat": 38.883555, "fusion_lat": 0.0, "is_reserved": 0, "rental_uris": {"ios": "https://dc.lft.to/lastmile_qr_scan", "android": "https://dc.lft.to/lastmile_qr_scan"}, "fusion_lon": 0.0, "type": "electric_bike", "bike_id": "02de39a34ec3be061c31341ab1bfb633", "name": "02de39a34ec3be061c31341ab1bfb633"}, {"lon": -77.03307166666667, "is_disabled": 0, "lat": 38.911179, "fusion_lat": 0.0, "is_reserved": 0, "rental_uris": {"ios": "https://dc.lft.to/lastmile_qr_scan", "android": "https://dc.lft.to/lastmile_qr_scan"}, "fusion_lon": 0.0, "type": "electric_scooter", "bike_id": "af56716fd55a41957b32738c5d959298", "name": "af56716fd55a41957b32738c5d959298"}, {"lon": -77.03839, "is_disabled": 0, "lat": 38.90985216666667, "fusion_lat": 0.0, "is_reserved": 0, "rental_uris": {"ios": "https://dc.lft.to/lastmile_qr_scan", "android": "https://dc.lft.to/lastmile_qr_scan"}, "fusion_lon": 0.0, "type": "electric_scooter", "bike_id": "de92681c48ffd6954c6220be61aa7fcb", "name": "de92681c48ffd6954c6220be61aa7fcb"}, {"lon": -77.02305066666666, "is_disabled": 0, "lat": 38.9205915, "fusion_lat": 0.0, "is_reserved": 0, "rental_uris": {"ios": "https://dc.lft.to/lastmile_qr_scan", "android": "https://dc.lft.to/lastmile_qr_scan"}, "fusion_lon": 0.0, "type": "electric_scooter", "bike_id": "089b9721338afcb50a0e2cbf5c137360", "name": "089b9721338afcb50a0e2cbf5c137360"}, {"lon": -77.02953233333334, "is_disabled": 0, "lat": 38.9049715, "fusion_lat": 0.0, "is_reserved": 0, "rental_uris": {"ios": "https://dc.lft.to/lastmile_qr_scan", "android": "https://dc.lft.to/lastmile_qr_scan"}, "fusion_lon": 0.0, "type": "electric_scooter", "bike_id": "66d75ec8262b6ecbfd528bd6d7d7ad03", "name": "66d75ec8262b6ecbfd528bd6d7d7ad03"}, {"lon": -77.02612683333334, "is_disabled": 0, "lat": 38.92578683333333, "fusion_lat": 0.0, "is_reserved": 0, "rental_uris": {"ios": "https://dc.lft.to/lastmile_qr_scan", "android": "https://dc.lft.to/lastmile_qr_scan"}, "fusion_lon": 0.0, "type": "electric_scooter", "bike_id": "0343cb1b77fca37f202afed9ddb098ab", "name": "0343cb1b77fca37f202afed9ddb098ab"}, {"lon": -77.03870483333333, "is_disabled": 0, "lat": 38.92150016666667, "fusion_lat": 0.0, "is_reserved": 0, "rental_uris": {"ios": "https://dc.lft.to/lastmile_qr_scan", "android": "https://dc.lft.to/lastmile_qr_scan"}, "fusion_lon": 0.0, "type": "electric_scooter", "bike_id": "37f6166603b3bfc5742ac19988725f80", "name": "37f6166603b3bfc5742ac19988725f80"}, {"lon": -77.04486433333334, "is_disabled": 0, "lat": 38.89954566666667, "fusion_lat": 0.0, "is_reserved": 0, "rental_uris": {"ios": "https://dc.lft.to/lastmile_qr_scan", "android": "https://dc.lft.to/lastmile_qr_scan"}, "fusion_lon": 0.0, "type": "electric_scooter", "bike_id": "56ea991b3ae2d5fa279b08a8b21d91bf", "name": "56ea991b3ae2d5fa279b08a8b21d91bf"}, {"lon": -77.02206816666667, "is_disabled": 0, "lat": 38.89747, "fusion_lat": 0.0, "is_reserved": 0, "rental_uris": {"ios": "https://dc.lft.to/lastmile_qr_scan", "android": "https://dc.lft.to/lastmile_qr_scan"}, "fusion_lon": 0.0, "type": "electric_scooter", "bike_id": "f06013e6eff23cae1faa04382813f5d0", "name": "f06013e6eff23cae1faa04382813f5d0"}, {"lon": -76.99545833333333, "is_disabled": 0, "lat": 38.84337516666667, "fusion_lat": 0.0, "is_reserved": 0, "rental_uris": {"ios": "https://dc.lft.to/lastmile_qr_scan", "android": "https://dc.lft.to/lastmile_qr_scan"}, "fusion_lon": 0.0, "type": "electric_scooter", "bike_id": "67c63179e9becc2dc58db4a72e5875df", "name": "67c63179e9becc2dc58db4a72e5875df"}, {"lon": -77.0199415, "is_disabled": 0, "lat": 38.913626666666666, "fusion_lat": 0.0, "is_reserved": 0, "rental_uris": {"ios": "https://dc.lft.to/lastmile_qr_scan", "android": "https://dc.lft.to/lastmile_qr_scan"}, "fusion_lon": 0.0, "type": "electric_scooter", "bike_id": "87920ee3b4c1ded93f12205d36b213e8", "name": "87920ee3b4c1ded93f12205d36b213e8"}, {"lon": -77.03972, "is_disabled": 0, "lat": 38.90252433333333, "fusion_lat": 0.0, "is_reserved": 0, "rental_uris": {"ios": "https://dc.lft.to/lastmile_qr_scan", "android": "https://dc.lft.to/lastmile_qr_scan"}, "fusion_lon": 0.0, "type": "electric_scooter", "bike_id": "cb7e19af97e85989c8596fbb01c76e1e", "name": "cb7e19af97e85989c8596fbb01c76e1e"}, {"lon": -77.03630933333334, "is_disabled": 0, "lat": 38.96554733333333, "fusion_lat": 0.0, "is_reserved": 0, "rental_uris": {"ios": "https://dc.lft.to/lastmile_qr_scan", "android": "https://dc.lft.to/lastmile_qr_scan"}, "fusion_lon": 0.0, "type": "electric_scooter", "bike_id": "accf908324f78fd07846cb6e71d08ed5", "name": "accf908324f78fd07846cb6e71d08ed5"}, {"lon": -77.03219233333333, "is_disabled": 0, "lat": 38.9087045, "fusion_lat": 0.0, "is_reserved": 0, "rental_uris": {"ios": "https://dc.lft.to/lastmile_qr_scan", "android": "https://dc.lft.to/lastmile_qr_scan"}, "fusion_lon": 0.0, "type": "electric_scooter", "bike_id": "2f2d52a39f4c2bc04e017122b69437c5", "name": "2f2d52a39f4c2bc04e017122b69437c5"}, {"lon": -77.0630555, "is_disabled": 0, "lat": 38.90533516666667, "fusion_lat": 0.0, "is_reserved": 0, "rental_uris": {"ios": "https://dc.lft.to/lastmile_qr_scan", "android": "https://dc.lft.to/lastmile_qr_scan"}, "fusion_lon": 0.0, "type": "electric_scooter", "bike_id": "04bcb9fbeb7e42926b4cbf708aaa57de", "name": "04bcb9fbeb7e42926b4cbf708aaa57de"}, {"lon": -77.03018266666666, "is_disabled": 0, "lat": 38.928593166666666, "fusion_lat": 0.0, "is_reserved": 0, "rental_uris": {"ios": "https://dc.lft.to/lastmile_qr_scan", "android": "https://dc.lft.to/lastmile_qr_scan"}, "fusion_lon": 0.0, "type": "electric_scooter", "bike_id": "c7b114652bf8babb9f72de4d42502b81", "name": "c7b114652bf8babb9f72de4d42502b81"}, {"lon": -77.02175783333334, "is_disabled": 0, "lat": 38.920150666666665, "fusion_lat": 0.0, "is_reserved": 0, "rental_uris": {"ios": "https://dc.lft.to/lastmile_qr_scan", "android": "https://dc.lft.to/lastmile_qr_scan"}, "fusion_lon": 0.0, "type": "electric_scooter", "bike_id": "874270a0f3dae61722b47fde47baee29", "name": "874270a0f3dae61722b47fde47baee29"}, {"lon": -77.02214483333333, "is_disabled": 0, "lat": 38.91268, "fusion_lat": 0.0, "is_reserved": 0, "rental_uris": {"ios": "https://dc.lft.to/lastmile_qr_scan", "android": "https://dc.lft.to/lastmile_qr_scan"}, "fusion_lon": 0.0, "type": "electric_scooter", "bike_id": "4d2e89c9c605a1a31d449836eaed747d", "name": "4d2e89c9c605a1a31d449836eaed747d"}, {"lon": -77.09524066666667, "is_disabled": 0, "lat": 38.83811033333333, "fusion_lat": 0.0, "is_reserved": 0, "rental_uris": {"ios": "https://dc.lft.to/lastmile_qr_scan", "android": "https://dc.lft.to/lastmile_qr_scan"}, "fusion_lon": 0.0, "type": "electric_bike", "bike_id": "daedfd1254117eb747e3390a95477339", "name": "daedfd1254117eb747e3390a95477339"}, {"lon": -77.02680016666666, "is_disabled": 0, "lat": 38.914146833333334, "fusion_lat": 0.0, "is_reserved": 0, "rental_uris": {"ios": "https://dc.lft.to/lastmile_qr_scan", "android": "https://dc.lft.to/lastmile_qr_scan"}, "fusion_lon": 0.0, "type": "electric_scooter", "bike_id": "8a55fdf9f0dbe390279dda69412bc5b7", "name": "8a55fdf9f0dbe390279dda69412bc5b7"}, {"lon": -77.02351783333333, "is_disabled": 0, "lat": 38.93534116666667, "fusion_lat": 0.0, "is_reserved": 0, "rental_uris": {"ios": "https://dc.lft.to/lastmile_qr_scan", "android": "https://dc.lft.to/lastmile_qr_scan"}, "fusion_lon": 0.0, "type": "electric_scooter", "bike_id": "8fa3d05f2db9a8d4616da6a3bebb0e69", "name": "8fa3d05f2db9a8d4616da6a3bebb0e69"}, {"lon": -77.01683033333333, "is_disabled": 0, "lat": 38.881156, "fusion_lat": 0.0, "is_reserved": 0, "rental_uris": {"ios": "https://dc.lft.to/lastmile_qr_scan", "android": "https://dc.lft.to/lastmile_qr_scan"}, "fusion_lon": 0.0, "type": "electric_bike", "bike_id": "a58e133c273e0c4574b8a4869985e652", "name": "a58e133c273e0c4574b8a4869985e652"}, {"lon": -76.99562533333334, "is_disabled": 0, "lat": 38.8860125, "fusion_lat": 0.0, "is_reserved": 0, "rental_uris": {"ios": "https://dc.lft.to/lastmile_qr_scan", "android": "https://dc.lft.to/lastmile_qr_scan"}, "fusion_lon": 0.0, "type": "electric_scooter", "bike_id": "f346e7252dad20e68ac8e0c3244f54bc", "name": "f346e7252dad20e68ac8e0c3244f54bc"}, {"lon": -76.99572616666667, "is_disabled": 0, "lat": 38.8921355, "fusion_lat": 0.0, "is_reserved": 0, "rental_uris": {"ios": "https://dc.lft.to/lastmile_qr_scan", "android": "https://dc.lft.to/lastmile_qr_scan"}, "fusion_lon": 0.0, "type": "electric_scooter", "bike_id": "07847b6a8539e644e4cd0fde56160817", "name": "07847b6a8539e644e4cd0fde56160817"}, {"lon": -77.095326, "is_disabled": 0, "lat": 38.8473225, "fusion_lat": 0.0, "is_reserved": 0, "rental_uris": {"ios": "https://dc.lft.to/lastmile_qr_scan", "android": "https://dc.lft.to/lastmile_qr_scan"}, "fusion_lon": 0.0, "type": "electric_bike", "bike_id": "1069661fdc367888a32fafd05a2d8d51", "name": "1069661fdc367888a32fafd05a2d8d51"}, {"lon": -76.97714083333334, "is_disabled": 0, "lat": 38.8920405, "fusion_lat": 0.0, "is_reserved": 0, "rental_uris": {"ios": "https://dc.lft.to/lastmile_qr_scan", "android": "https://dc.lft.to/lastmile_qr_scan"}, "fusion_lon": 0.0, "type": "electric_bike", "bike_id": "2f11afb12e7fad9fa33e3eeed6dde2df", "name": "2f11afb12e7fad9fa33e3eeed6dde2df"}, {"lon": -77.01213166666666, "is_disabled": 0, "lat": 38.9008005, "fusion_lat": 0.0, "is_reserved": 0, "rental_uris": {"ios": "https://dc.lft.to/lastmile_qr_scan", "android": "https://dc.lft.to/lastmile_qr_scan"}, "fusion_lon": 0.0, "type": "electric_scooter", "bike_id": "417430e6d6725118e27d9cbd7fb100e7", "name": "417430e6d6725118e27d9cbd7fb100e7"}, {"lon": -77.00125, "is_disabled": 0, "lat": 38.89275116666666, "fusion_lat": 0.0, "is_reserved": 0, "rental_uris": {"ios": "https://dc.lft.to/lastmile_qr_scan", "android": "https://dc.lft.to/lastmile_qr_scan"}, "fusion_lon": 0.0, "type": "electric_scooter", "bike_id": "187d88f838ea9ee2cd05989937d21b3a", "name": "187d88f838ea9ee2cd05989937d21b3a"}, {"lon": -77.02314883333334, "is_disabled": 0, "lat": 38.91775583333333, "fusion_lat": 0.0, "is_reserved": 0, "rental_uris": {"ios": "https://dc.lft.to/lastmile_qr_scan", "android": "https://dc.lft.to/lastmile_qr_scan"}, "fusion_lon": 0.0, "type": "electric_scooter", "bike_id": "7bba18acc2b0e3024ec194146fd20d50", "name": "7bba18acc2b0e3024ec194146fd20d50"}, {"lon": -77.025993, "is_disabled": 0, "lat": 38.9238105, "fusion_lat": 0.0, "is_reserved": 0, "rental_uris": {"ios": "https://dc.lft.to/lastmile_qr_scan", "android": "https://dc.lft.to/lastmile_qr_scan"}, "fusion_lon": 0.0, "type": "electric_scooter", "bike_id": "dd76ee443df89bd5f7836931fcc22fe8", "name": "dd76ee443df89bd5f7836931fcc22fe8"}, {"lon": -77.02167666666666, "is_disabled": 0, "lat": 38.901832, "fusion_lat": 0.0, "is_reserved": 0, "rental_uris": {"ios": "https://dc.lft.to/lastmile_qr_scan", "android": "https://dc.lft.to/lastmile_qr_scan"}, "fusion_lon": 0.0, "type": "electric_scooter", "bike_id": "2fb2fa5ddd42796e93ad21558b6253fe", "name": "2fb2fa5ddd42796e93ad21558b6253fe"}, {"lon": -76.96059083333333, "is_disabled": 0, "lat": 38.88403783333333, "fusion_lat": 0.0, "is_reserved": 0, "rental_uris": {"ios": "https://dc.lft.to/lastmile_qr_scan", "android": "https://dc.lft.to/lastmile_qr_scan"}, "fusion_lon": 0.0, "type": "electric_bike", "bike_id": "6baf83132ead6254f982f0a835bd43a6", "name": "6baf83132ead6254f982f0a835bd43a6"}, {"lon": -77.03836166666666, "is_disabled": 0, "lat": 38.9156255, "fusion_lat": 0.0, "is_reserved": 0, "rental_uris": {"ios": "https://dc.lft.to/lastmile_qr_scan", "android": "https://dc.lft.to/lastmile_qr_scan"}, "fusion_lon": 0.0, "type": "electric_scooter", "bike_id": "240fabe0a8cf977e18140a7ba582a102", "name": "240fabe0a8cf977e18140a7ba582a102"}, {"lon": -77.02505683333334, "is_disabled": 0, "lat": 38.91930466666667, "fusion_lat": 0.0, "is_reserved": 0, "rental_uris": {"ios": "https://dc.lft.to/lastmile_qr_scan", "android": "https://dc.lft.to/lastmile_qr_scan"}, "fusion_lon": 0.0, "type": "electric_scooter", "bike_id": "73c73d492a482ecca767914224853995", "name": "73c73d492a482ecca767914224853995"}, {"lon": -77.00671283333334, "is_disabled": 0, "lat": 38.90011283333333, "fusion_lat": 0.0, "is_reserved": 0, "rental_uris": {"ios": "https://dc.lft.to/lastmile_qr_scan", "android": "https://dc.lft.to/lastmile_qr_scan"}, "fusion_lon": 0.0, "type": "electric_scooter", "bike_id": "5e41a9dd0d2ecb3f37c3f8426adada6c", "name": "5e41a9dd0d2ecb3f37c3f8426adada6c"}, {"lon": -77.00257183333333, "is_disabled": 0, "lat": 38.87476516666667, "fusion_lat": 0.0, "is_reserved": 0, "rental_uris": {"ios": "https://dc.lft.to/lastmile_qr_scan", "android": "https://dc.lft.to/lastmile_qr_scan"}, "fusion_lon": 0.0, "type": "electric_scooter", "bike_id": "c5b24b9559e31599c58ab9917e3fcb46", "name": "c5b24b9559e31599c58ab9917e3fcb46"}, {"lon": -77.01108483333333, "is_disabled": 0, "lat": 38.909626833333334, "fusion_lat": 0.0, "is_reserved": 0, "rental_uris": {"ios": "https://dc.lft.to/lastmile_qr_scan", "android": "https://dc.lft.to/lastmile_qr_scan"}, "fusion_lon": 0.0, "type": "electric_scooter", "bike_id": "34bffc928cbee0074bf983bdb7d6dc78", "name": "34bffc928cbee0074bf983bdb7d6dc78"}, {"lon": -77.02472016666667, "is_disabled": 0, "lat": 38.918848, "fusion_lat": 0.0, "is_reserved": 0, "rental_uris": {"ios": "https://dc.lft.to/lastmile_qr_scan", "android": "https://dc.lft.to/lastmile_qr_scan"}, "fusion_lon": 0.0, "type": "electric_scooter", "bike_id": "5e6e07e92156c16d0acf822d88691a81", "name": "5e6e07e92156c16d0acf822d88691a81"}, {"lon": -77.03709733333334, "is_disabled": 0, "lat": 38.9286295, "fusion_lat": 0.0, "is_reserved": 0, "rental_uris": {"ios": "https://dc.lft.to/lastmile_qr_scan", "android": "https://dc.lft.to/lastmile_qr_scan"}, "fusion_lon": 0.0, "type": "electric_scooter", "bike_id": "e8d2fca4b593321683978425fd1b0f40", "name": "e8d2fca4b593321683978425fd1b0f40"}, {"lon": -77.00882766666666, "is_disabled": 0, "lat": 38.901106, "fusion_lat": 0.0, "is_reserved": 0, "rental_uris": {"ios": "https://dc.lft.to/lastmile_qr_scan", "android": "https://dc.lft.to/lastmile_qr_scan"}, "fusion_lon": 0.0, "type": "electric_scooter", "bike_id": "e4eefa1d13d9bbc795b387778ef3f07a", "name": "e4eefa1d13d9bbc795b387778ef3f07a"}, {"lon": -77.02625483333334, "is_disabled": 0, "lat": 38.928240833333334, "fusion_lat": 0.0, "is_reserved": 0, "rental_uris": {"ios": "https://dc.lft.to/lastmile_qr_scan", "android": "https://dc.lft.to/lastmile_qr_scan"}, "fusion_lon": 0.0, "type": "electric_scooter", "bike_id": "1f3672a179e511b734e19bd64e6e2f40", "name": "1f3672a179e511b734e19bd64e6e2f40"}, {"lon": -77.035303, "is_disabled": 0, "lat": 38.918411, "fusion_lat": 0.0, "is_reserved": 0, "rental_uris": {"ios": "https://dc.lft.to/lastmile_qr_scan", "android": "https://dc.lft.to/lastmile_qr_scan"}, "fusion_lon": 0.0, "type": "electric_scooter", "bike_id": "22046dca0727459b1e28c8a9832f4d12", "name": "22046dca0727459b1e28c8a9832f4d12"}, {"lon": -77.03784466666667, "is_disabled": 0, "lat": 38.924744833333335, "fusion_lat": 0.0, "is_reserved": 0, "rental_uris": {"ios": "https://dc.lft.to/lastmile_qr_scan", "android": "https://dc.lft.to/lastmile_qr_scan"}, "fusion_lon": 0.0, "type": "electric_scooter", "bike_id": "c2a75663b63164973f6dce4523c8e990", "name": "c2a75663b63164973f6dce4523c8e990"}, {"lon": -77.0484545, "is_disabled": 0, "lat": 38.90509266666667, "fusion_lat": 0.0, "is_reserved": 0, "rental_uris": {"ios": "https://dc.lft.to/lastmile_qr_scan", "android": "https://dc.lft.to/lastmile_qr_scan"}, "fusion_lon": 0.0, "type": "electric_scooter", "bike_id": "a885745d5b1f3361fd79f92930ff269b", "name": "a885745d5b1f3361fd79f92930ff269b"}, {"lon": -77.04636733333334, "is_disabled": 0, "lat": 38.9023835, "fusion_lat": 0.0, "is_reserved": 0, "rental_uris": {"ios": "https://dc.lft.to/lastmile_qr_scan", "android": "https://dc.lft.to/lastmile_qr_scan"}, "fusion_lon": 0.0, "type": "electric_scooter", "bike_id": "3f019bf6aabd423145cdf66c70a2f124", "name": "3f019bf6aabd423145cdf66c70a2f124"}, {"lon": -77.02404033333333, "is_disabled": 0, "lat": 38.915491333333335, "fusion_lat": 0.0, "is_reserved": 0, "rental_uris": {"ios": "https://dc.lft.to/lastmile_qr_scan", "android": "https://dc.lft.to/lastmile_qr_scan"}, "fusion_lon": 0.0, "type": "electric_scooter", "bike_id": "7cbf78c6888146b52408bae536d121db", "name": "7cbf78c6888146b52408bae536d121db"}, {"lon": -77.02952833333333, "is_disabled": 0, "lat": 38.93459816666667, "fusion_lat": 0.0, "is_reserved": 0, "rental_uris": {"ios": "https://dc.lft.to/lastmile_qr_scan", "android": "https://dc.lft.to/lastmile_qr_scan"}, "fusion_lon": 0.0, "type": "electric_scooter", "bike_id": "3f9fccb17d34255dbe80596fb7c66ab2", "name": "3f9fccb17d34255dbe80596fb7c66ab2"}, {"lon": -76.9464, "is_disabled": 0, "lat": 38.8986925, "fusion_lat": 0.0, "is_reserved": 0, "rental_uris": {"ios": "https://dc.lft.to/lastmile_qr_scan", "android": "https://dc.lft.to/lastmile_qr_scan"}, "fusion_lon": 0.0, "type": "electric_scooter", "bike_id": "2d37679a28a977bbd82603944f6e4c15", "name": "2d37679a28a977bbd82603944f6e4c15"}, {"lon": -76.94045816666667, "is_disabled": 0, "lat": 38.97859583333333, "fusion_lat": 0.0, "is_reserved": 0, "rental_uris": {"ios": "https://dc.lft.to/lastmile_qr_scan", "android": "https://dc.lft.to/lastmile_qr_scan"}, "fusion_lon": 0.0, "type": "electric_bike", "bike_id": "cfa0451fa4d6e1f675a1da09c5af4e4c", "name": "cfa0451fa4d6e1f675a1da09c5af4e4c"}, {"lon": -77.02613866666667, "is_disabled": 0, "lat": 38.887713833333336, "fusion_lat": 0.0, "is_reserved": 0, "rental_uris": {"ios": "https://dc.lft.to/lastmile_qr_scan", "android": "https://dc.lft.to/lastmile_qr_scan"}, "fusion_lon": 0.0, "type": "electric_scooter", "bike_id": "5776964d4026bbac2b1bee20c59666d2", "name": "5776964d4026bbac2b1bee20c59666d2"}, {"lon": -77.01910916666667, "is_disabled": 0, "lat": 38.87866483333333, "fusion_lat": 0.0, "is_reserved": 0, "rental_uris": {"ios": "https://dc.lft.to/lastmile_qr_scan", "android": "https://dc.lft.to/lastmile_qr_scan"}, "fusion_lon": 0.0, "type": "electric_scooter", "bike_id": "3b42f1f735c9c893a5f7b7a6fe4166a0", "name": "3b42f1f735c9c893a5f7b7a6fe4166a0"}, {"lon": -77.0386045, "is_disabled": 0, "lat": 38.91716316666667, "fusion_lat": 0.0, "is_reserved": 0, "rental_uris": {"ios": "https://dc.lft.to/lastmile_qr_scan", "android": "https://dc.lft.to/lastmile_qr_scan"}, "fusion_lon": 0.0, "type": "electric_scooter", "bike_id": "baa9bd40889b3243b399b03c039cfb06", "name": "baa9bd40889b3243b399b03c039cfb06"}, {"lon": -76.987135, "is_disabled": 0, "lat": 38.86699816666667, "fusion_lat": 0.0, "is_reserved": 0, "rental_uris": {"ios": "https://dc.lft.to/lastmile_qr_scan", "android": "https://dc.lft.to/lastmile_qr_scan"}, "fusion_lon": 0.0, "type": "electric_scooter", "bike_id": "11b889ff391aac2e5875cc6f3d798c56", "name": "11b889ff391aac2e5875cc6f3d798c56"}, {"lon": -77.0412355, "is_disabled": 0, "lat": 38.91709566666667, "fusion_lat": 0.0, "is_reserved": 0, "rental_uris": {"ios": "https://dc.lft.to/lastmile_qr_scan", "android": "https://dc.lft.to/lastmile_qr_scan"}, "fusion_lon": 0.0, "type": "electric_scooter", "bike_id": "92756378b09b35841f30c08ffc002e9a", "name": "92756378b09b35841f30c08ffc002e9a"}, {"lon": -77.02696233333333, "is_disabled": 0, "lat": 38.908722166666664, "fusion_lat": 0.0, "is_reserved": 0, "rental_uris": {"ios": "https://dc.lft.to/lastmile_qr_scan", "android": "https://dc.lft.to/lastmile_qr_scan"}, "fusion_lon": 0.0, "type": "electric_scooter", "bike_id": "1fc6ce5c7cefc69b26a6f030c24eab5d", "name": "1fc6ce5c7cefc69b26a6f030c24eab5d"}, {"lon": -76.90734966666666, "is_disabled": 0, "lat": 38.896122, "fusion_lat": 0.0, "is_reserved": 0, "rental_uris": {"ios": "https://dc.lft.to/lastmile_qr_scan", "android": "https://dc.lft.to/lastmile_qr_scan"}, "fusion_lon": 0.0, "type": "electric_bike", "bike_id": "d573b55cc5d6b6cc6fb605c1cfa2f04c", "name": "d573b55cc5d6b6cc6fb605c1cfa2f04c"}, {"lon": -77.0312165, "is_disabled": 0, "lat": 38.915662833333336, "fusion_lat": 0.0, "is_reserved": 0, "rental_uris": {"ios": "https://dc.lft.to/lastmile_qr_scan", "android": "https://dc.lft.to/lastmile_qr_scan"}, "fusion_lon": 0.0, "type": "electric_scooter", "bike_id": "ddb7fbf6c59aab7d514b2bb1264cde93", "name": "ddb7fbf6c59aab7d514b2bb1264cde93"}, {"lon": -77.03452016666667, "is_disabled": 0, "lat": 38.907657666666665, "fusion_lat": 0.0, "is_reserved": 0, "rental_uris": {"ios": "https://dc.lft.to/lastmile_qr_scan", "android": "https://dc.lft.to/lastmile_qr_scan"}, "fusion_lon": 0.0, "type": "electric_scooter", "bike_id": "5f1741c5dabc1511cca566d125af41fe", "name": "5f1741c5dabc1511cca566d125af41fe"}, {"lon": -77.04727416666667, "is_disabled": 0, "lat": 38.897423333333336, "fusion_lat": 0.0, "is_reserved": 0, "rental_uris": {"ios": "https://dc.lft.to/lastmile_qr_scan", "android": "https://dc.lft.to/lastmile_qr_scan"}, "fusion_lon": 0.0, "type": "electric_scooter", "bike_id": "fb80cd346d15e3da16e46339b1d6fbe5", "name": "fb80cd346d15e3da16e46339b1d6fbe5"}, {"lon": -77.04360966666667, "is_disabled": 0, "lat": 38.901364, "fusion_lat": 0.0, "is_reserved": 0, "rental_uris": {"ios": "https://dc.lft.to/lastmile_qr_scan", "android": "https://dc.lft.to/lastmile_qr_scan"}, "fusion_lon": 0.0, "type": "electric_scooter", "bike_id": "a80fa06f1de3d5f85188aae956ccf7fe", "name": "a80fa06f1de3d5f85188aae956ccf7fe"}, {"lon": -77.04312983333334, "is_disabled": 0, "lat": 38.912667666666664, "fusion_lat": 0.0, "is_reserved": 0, "rental_uris": {"ios": "https://dc.lft.to/lastmile_qr_scan", "android": "https://dc.lft.to/lastmile_qr_scan"}, "fusion_lon": 0.0, "type": "electric_scooter", "bike_id": "5ea6b79dac78425f25c3d88d06d797f2", "name": "5ea6b79dac78425f25c3d88d06d797f2"}, {"lon": -77.0259075, "is_disabled": 0, "lat": 38.914109833333335, "fusion_lat": 0.0, "is_reserved": 0, "rental_uris": {"ios": "https://dc.lft.to/lastmile_qr_scan", "android": "https://dc.lft.to/lastmile_qr_scan"}, "fusion_lon": 0.0, "type": "electric_scooter", "bike_id": "5a3cb21d2efe5c5efbb17b1cc3a91d09", "name": "5a3cb21d2efe5c5efbb17b1cc3a91d09"}, {"lon": -77.03382, "is_disabled": 0, "lat": 38.928798666666665, "fusion_lat": 0.0, "is_reserved": 0, "rental_uris": {"ios": "https://dc.lft.to/lastmile_qr_scan", "android": "https://dc.lft.to/lastmile_qr_scan"}, "fusion_lon": 0.0, "type": "electric_scooter", "bike_id": "da1ccbbf76b8fc1a0b8b7f0a5439a824", "name": "da1ccbbf76b8fc1a0b8b7f0a5439a824"}, {"lon": -77.042299, "is_disabled": 0, "lat": 38.913357166666664, "fusion_lat": 0.0, "is_reserved": 0, "rental_uris": {"ios": "https://dc.lft.to/lastmile_qr_scan", "android": "https://dc.lft.to/lastmile_qr_scan"}, "fusion_lon": 0.0, "type": "electric_scooter", "bike_id": "f271f6685e02c2c731982eb0abc0da04", "name": "f271f6685e02c2c731982eb0abc0da04"}, {"lon": -77.0351165, "is_disabled": 0, "lat": 38.922378, "fusion_lat": 0.0, "is_reserved": 0, "rental_uris": {"ios": "https://dc.lft.to/lastmile_qr_scan", "android": "https://dc.lft.to/lastmile_qr_scan"}, "fusion_lon": 0.0, "type": "electric_scooter", "bike_id": "83058521b5c9fe0066571962698631c2", "name": "83058521b5c9fe0066571962698631c2"}, {"lon": -77.04172983333333, "is_disabled": 0, "lat": 38.911327666666665, "fusion_lat": 0.0, "is_reserved": 0, "rental_uris": {"ios": "https://dc.lft.to/lastmile_qr_scan", "android": "https://dc.lft.to/lastmile_qr_scan"}, "fusion_lon": 0.0, "type": "electric_scooter", "bike_id": "dc8a4b8099abb323c72c963d27c1ee4f", "name": "dc8a4b8099abb323c72c963d27c1ee4f"}, {"lon": -77.034304, "is_disabled": 0, "lat": 38.905810833333334, "fusion_lat": 0.0, "is_reserved": 0, "rental_uris": {"ios": "https://dc.lft.to/lastmile_qr_scan", "android": "https://dc.lft.to/lastmile_qr_scan"}, "fusion_lon": 0.0, "type": "electric_scooter", "bike_id": "8ac329087a758291054efa0195c8f0c7", "name": "8ac329087a758291054efa0195c8f0c7"}, {"lon": -77.02211916666667, "is_disabled": 0, "lat": 38.915717666666666, "fusion_lat": 0.0, "is_reserved": 0, "rental_uris": {"ios": "https://dc.lft.to/lastmile_qr_scan", "android": "https://dc.lft.to/lastmile_qr_scan"}, "fusion_lon": 0.0, "type": "electric_scooter", "bike_id": "c4383b374c3ee7b17140866a166299fe", "name": "c4383b374c3ee7b17140866a166299fe"}, {"lon": -76.97858833333333, "is_disabled": 0, "lat": 38.867495, "fusion_lat": 0.0, "is_reserved": 0, "rental_uris": {"ios": "https://dc.lft.to/lastmile_qr_scan", "android": "https://dc.lft.to/lastmile_qr_scan"}, "fusion_lon": 0.0, "type": "electric_scooter", "bike_id": "f750367a1c6cd693bd2d58967b15f19e", "name": "f750367a1c6cd693bd2d58967b15f19e"}, {"lon": -77.03942366666666, "is_disabled": 0, "lat": 38.91413133333333, "fusion_lat": 0.0, "is_reserved": 0, "rental_uris": {"ios": "https://dc.lft.to/lastmile_qr_scan", "android": "https://dc.lft.to/lastmile_qr_scan"}, "fusion_lon": 0.0, "type": "electric_scooter", "bike_id": "5f7a55f3bf4f5726602ea2bcc92b77e4", "name": "5f7a55f3bf4f5726602ea2bcc92b77e4"}, {"lon": -76.98082383333333, "is_disabled": 0, "lat": 38.926291, "fusion_lat": 0.0, "is_reserved": 0, "rental_uris": {"ios": "https://dc.lft.to/lastmile_qr_scan", "android": "https://dc.lft.to/lastmile_qr_scan"}, "fusion_lon": 0.0, "type": "electric_scooter", "bike_id": "239d224ed8c609394d699a20988ef756", "name": "239d224ed8c609394d699a20988ef756"}, {"lon": -77.03632683333333, "is_disabled": 0, "lat": 38.91867166666667, "fusion_lat": 0.0, "is_reserved": 0, "rental_uris": {"ios": "https://dc.lft.to/lastmile_qr_scan", "android": "https://dc.lft.to/lastmile_qr_scan"}, "fusion_lon": 0.0, "type": "electric_scooter", "bike_id": "144daa57528cd1ef46c031e3a56627c0", "name": "144daa57528cd1ef46c031e3a56627c0"}, {"lon": -77.0325705, "is_disabled": 0, "lat": 38.92810733333334, "fusion_lat": 0.0, "is_reserved": 0, "rental_uris": {"ios": "https://dc.lft.to/lastmile_qr_scan", "android": "https://dc.lft.to/lastmile_qr_scan"}, "fusion_lon": 0.0, "type": "electric_scooter", "bike_id": "8914941ea4d81e5deecbe43532ba6739", "name": "8914941ea4d81e5deecbe43532ba6739"}, {"lon": -77.001068, "is_disabled": 0, "lat": 38.87376833333333, "fusion_lat": 0.0, "is_reserved": 0, "rental_uris": {"ios": "https://dc.lft.to/lastmile_qr_scan", "android": "https://dc.lft.to/lastmile_qr_scan"}, "fusion_lon": 0.0, "type": "electric_scooter", "bike_id": "c4a9bd2ba61cfd8bb59536efea3af821", "name": "c4a9bd2ba61cfd8bb59536efea3af821"}, {"lon": -77.01220766666667, "is_disabled": 0, "lat": 38.92400883333333, "fusion_lat": 0.0, "is_reserved": 0, "rental_uris": {"ios": "https://dc.lft.to/lastmile_qr_scan", "android": "https://dc.lft.to/lastmile_qr_scan"}, "fusion_lon": 0.0, "type": "electric_scooter", "bike_id": "51777b478a4ed353dc47643934053a91", "name": "51777b478a4ed353dc47643934053a91"}, {"lon": -77.03324616666667, "is_disabled": 0, "lat": 38.921523666666666, "fusion_lat": 0.0, "is_reserved": 0, "rental_uris": {"ios": "https://dc.lft.to/lastmile_qr_scan", "android": "https://dc.lft.to/lastmile_qr_scan"}, "fusion_lon": 0.0, "type": "electric_scooter", "bike_id": "71925847445a7d67a880bd51f303b65e", "name": "71925847445a7d67a880bd51f303b65e"}, {"lon": -76.99077633333333, "is_disabled": 0, "lat": 38.89810683333333, "fusion_lat": 0.0, "is_reserved": 0, "rental_uris": {"ios": "https://dc.lft.to/lastmile_qr_scan", "android": "https://dc.lft.to/lastmile_qr_scan"}, "fusion_lon": 0.0, "type": "electric_bike", "bike_id": "d20309f97ed3854b2ab52a21dc4a0c17", "name": "d20309f97ed3854b2ab52a21dc4a0c17"}, {"lon": -77.0208485, "is_disabled": 0, "lat": 38.92720516666667, "fusion_lat": 0.0, "is_reserved": 0, "rental_uris": {"ios": "https://dc.lft.to/lastmile_qr_scan", "android": "https://dc.lft.to/lastmile_qr_scan"}, "fusion_lon": 0.0, "type": "electric_scooter", "bike_id": "6c1327bef9160137afcfebc73c2d6b3c", "name": "6c1327bef9160137afcfebc73c2d6b3c"}, {"lon": -76.99283483333333, "is_disabled": 0, "lat": 38.89608283333333, "fusion_lat": 0.0, "is_reserved": 0, "rental_uris": {"ios": "https://dc.lft.to/lastmile_qr_scan", "android": "https://dc.lft.to/lastmile_qr_scan"}, "fusion_lon": 0.0, "type": "electric_bike", "bike_id": "b2fc80ae0f499116e07fe163fc0fef49", "name": "b2fc80ae0f499116e07fe163fc0fef49"}, {"lon": -77.03131966666666, "is_disabled": 0, "lat": 38.916067166666664, "fusion_lat": 0.0, "is_reserved": 0, "rental_uris": {"ios": "https://dc.lft.to/lastmile_qr_scan", "android": "https://dc.lft.to/lastmile_qr_scan"}, "fusion_lon": 0.0, "type": "electric_scooter", "bike_id": "8bdc1d6e2dc7e0da66e579a312626b7a", "name": "8bdc1d6e2dc7e0da66e579a312626b7a"}, {"lon": -76.98274083333334, "is_disabled": 0, "lat": 38.885259, "fusion_lat": 0.0, "is_reserved": 0, "rental_uris": {"ios": "https://dc.lft.to/lastmile_qr_scan", "android": "https://dc.lft.to/lastmile_qr_scan"}, "fusion_lon": 0.0, "type": "electric_scooter", "bike_id": "366b978d7b226bf2a5c4e8ec84fb9ac2", "name": "366b978d7b226bf2a5c4e8ec84fb9ac2"}, {"lon": -77.02435016666666, "is_disabled": 0, "lat": 38.8996295, "fusion_lat": 0.0, "is_reserved": 0, "rental_uris": {"ios": "https://dc.lft.to/lastmile_qr_scan", "android": "https://dc.lft.to/lastmile_qr_scan"}, "fusion_lon": 0.0, "type": "electric_scooter", "bike_id": "b3b1945ca67cfe6489de1766dfb7b7a8", "name": "b3b1945ca67cfe6489de1766dfb7b7a8"}, {"lon": -76.94699816666666, "is_disabled": 0, "lat": 38.89364466666667, "fusion_lat": 0.0, "is_reserved": 0, "rental_uris": {"ios": "https://dc.lft.to/lastmile_qr_scan", "android": "https://dc.lft.to/lastmile_qr_scan"}, "fusion_lon": 0.0, "type": "electric_scooter", "bike_id": "fb8147b9ba365ec4beac922a18e073b1", "name": "fb8147b9ba365ec4beac922a18e073b1"}, {"lon": -77.03450916666667, "is_disabled": 0, "lat": 38.9076905, "fusion_lat": 0.0, "is_reserved": 0, "rental_uris": {"ios": "https://dc.lft.to/lastmile_qr_scan", "android": "https://dc.lft.to/lastmile_qr_scan"}, "fusion_lon": 0.0, "type": "electric_scooter", "bike_id": "b4d448b5d795a83255db8f871c539bf8", "name": "b4d448b5d795a83255db8f871c539bf8"}, {"lon": -76.99033983333334, "is_disabled": 0, "lat": 38.898532833333334, "fusion_lat": 0.0, "is_reserved": 0, "rental_uris": {"ios": "https://dc.lft.to/lastmile_qr_scan", "android": "https://dc.lft.to/lastmile_qr_scan"}, "fusion_lon": 0.0, "type": "electric_scooter", "bike_id": "e56000cd73131e2bef2ff96e3dac7f46", "name": "e56000cd73131e2bef2ff96e3dac7f46"}, {"lon": -77.05263366666667, "is_disabled": 0, "lat": 38.92566083333333, "fusion_lat": 0.0, "is_reserved": 0, "rental_uris": {"ios": "https://dc.lft.to/lastmile_qr_scan", "android": "https://dc.lft.to/lastmile_qr_scan"}, "fusion_lon": 0.0, "type": "electric_scooter", "bike_id": "d55ce74e04343f0a3b8e2fff53f14a86", "name": "d55ce74e04343f0a3b8e2fff53f14a86"}, {"lon": -77.01655816666667, "is_disabled": 0, "lat": 38.91333316666667, "fusion_lat": 0.0, "is_reserved": 0, "rental_uris": {"ios": "https://dc.lft.to/lastmile_qr_scan", "android": "https://dc.lft.to/lastmile_qr_scan"}, "fusion_lon": 0.0, "type": "electric_scooter", "bike_id": "481201356abe2707f5ff5e5f9b45e60a", "name": "481201356abe2707f5ff5e5f9b45e60a"}, {"lon": -77.02663216666667, "is_disabled": 0, "lat": 38.93097316666667, "fusion_lat": 0.0, "is_reserved": 0, "rental_uris": {"ios": "https://dc.lft.to/lastmile_qr_scan", "android": "https://dc.lft.to/lastmile_qr_scan"}, "fusion_lon": 0.0, "type": "electric_scooter", "bike_id": "f7f01e4b3b418c7334db5846fde7db7c", "name": "f7f01e4b3b418c7334db5846fde7db7c"}, {"lon": -77.23408483333333, "is_disabled": 0, "lat": 38.87576633333333, "fusion_lat": 0.0, "is_reserved": 0, "rental_uris": {"ios": "https://dc.lft.to/lastmile_qr_scan", "android": "https://dc.lft.to/lastmile_qr_scan"}, "fusion_lon": 0.0, "type": "electric_bike", "bike_id": "80f87eb05e7a95d15e7848b5194f4d1c", "name": "80f87eb05e7a95d15e7848b5194f4d1c"}, {"lon": -77.04125783333333, "is_disabled": 0, "lat": 38.92374983333333, "fusion_lat": 0.0, "is_reserved": 0, "rental_uris": {"ios": "https://dc.lft.to/lastmile_qr_scan", "android": "https://dc.lft.to/lastmile_qr_scan"}, "fusion_lon": 0.0, "type": "electric_scooter", "bike_id": "6cba0ea2e47116b3879c6d15fa0a1be1", "name": "6cba0ea2e47116b3879c6d15fa0a1be1"}, {"lon": -77.030454, "is_disabled": 0, "lat": 38.90260083333333, "fusion_lat": 0.0, "is_reserved": 0, "rental_uris": {"ios": "https://dc.lft.to/lastmile_qr_scan", "android": "https://dc.lft.to/lastmile_qr_scan"}, "fusion_lon": 0.0, "type": "electric_scooter", "bike_id": "453ed3c147a068da077f5f43c51a1d5d", "name": "453ed3c147a068da077f5f43c51a1d5d"}, {"lon": -77.02074216666666, "is_disabled": 0, "lat": 38.9490155, "fusion_lat": 0.0, "is_reserved": 0, "rental_uris": {"ios": "https://dc.lft.to/lastmile_qr_scan", "android": "https://dc.lft.to/lastmile_qr_scan"}, "fusion_lon": 0.0, "type": "electric_scooter", "bike_id": "991d38dc55ed039c7ef58720d96ee316", "name": "991d38dc55ed039c7ef58720d96ee316"}, {"lon": -77.0297055, "is_disabled": 0, "lat": 38.91294283333333, "fusion_lat": 0.0, "is_reserved": 0, "rental_uris": {"ios": "https://dc.lft.to/lastmile_qr_scan", "android": "https://dc.lft.to/lastmile_qr_scan"}, "fusion_lon": 0.0, "type": "electric_scooter", "bike_id": "1f173580b7a302574e36d95057bc61dc", "name": "1f173580b7a302574e36d95057bc61dc"}, {"lon": -77.052277, "is_disabled": 0, "lat": 38.925065333333336, "fusion_lat": 0.0, "is_reserved": 0, "rental_uris": {"ios": "https://dc.lft.to/lastmile_qr_scan", "android": "https://dc.lft.to/lastmile_qr_scan"}, "fusion_lon": 0.0, "type": "electric_scooter", "bike_id": "168b836e3518256ce37a8665ab9f891b", "name": "168b836e3518256ce37a8665ab9f891b"}, {"lon": -76.973293, "is_disabled": 0, "lat": 38.904109, "fusion_lat": 0.0, "is_reserved": 0, "rental_uris": {"ios": "https://dc.lft.to/lastmile_qr_scan", "android": "https://dc.lft.to/lastmile_qr_scan"}, "fusion_lon": 0.0, "type": "electric_scooter", "bike_id": "186ad8b133892d975624828463525c14", "name": "186ad8b133892d975624828463525c14"}, {"lon": -77.00482116666667, "is_disabled": 0, "lat": 38.874653333333335, "fusion_lat": 0.0, "is_reserved": 0, "rental_uris": {"ios": "https://dc.lft.to/lastmile_qr_scan", "android": "https://dc.lft.to/lastmile_qr_scan"}, "fusion_lon": 0.0, "type": "electric_scooter", "bike_id": "65f1b6104e1754b01fc97b0fac3785b3", "name": "65f1b6104e1754b01fc97b0fac3785b3"}, {"lon": -76.98867783333333, "is_disabled": 0, "lat": 38.896066166666664, "fusion_lat": 0.0, "is_reserved": 0, "rental_uris": {"ios": "https://dc.lft.to/lastmile_qr_scan", "android": "https://dc.lft.to/lastmile_qr_scan"}, "fusion_lon": 0.0, "type": "electric_scooter", "bike_id": "a0d2b4dd4cd966f8fa0f528a45597806", "name": "a0d2b4dd4cd966f8fa0f528a45597806"}, {"lon": -77.11863416666667, "is_disabled": 0, "lat": 38.858964666666665, "fusion_lat": 0.0, "is_reserved": 0, "rental_uris": {"ios": "https://dc.lft.to/lastmile_qr_scan", "android": "https://dc.lft.to/lastmile_qr_scan"}, "fusion_lon": 0.0, "type": "electric_bike", "bike_id": "23c398e594111930e5ab247332f18bd1", "name": "23c398e594111930e5ab247332f18bd1"}, {"lon": -76.98834583333333, "is_disabled": 0, "lat": 38.89684366666667, "fusion_lat": 0.0, "is_reserved": 0, "rental_uris": {"ios": "https://dc.lft.to/lastmile_qr_scan", "android": "https://dc.lft.to/lastmile_qr_scan"},