{"data": {"bikes": [{"rental_uris": {"ios": "https://dc.lft.to/lastmile_qr_scan", "android": "https://dc.lft.to/lastmile_qr_scan"}, "lon": -77.0270325, "type": "electric_scooter", "fusion_lat": 0.0, "lat": 38.899955, "name": "e61382b9a1f91d271a1bdc8aa2bb6e51", "fusion_lon": 0.0, "bike_id": "e61382b9a1f91d271a1bdc8aa2bb6e51", "is_disabled": 0, "is_reserved": 0}, {"rental_uris": {"ios": "https://dc.lft.to/lastmile_qr_scan", "android": "https://dc.lft.to/lastmile_qr_scan"}, "lon": -76.99163916666667, "type": "electric_scooter", "fusion_lat": 0.0, "lat": 38.87925116666667, "name": "b4a8302ba73a205d397dd074f42dd7da", "fusion_lon": 0.0, "bike_id": "b4a8302ba73a205d397dd074f42dd7da", "is_disabled": 0, "is_reserved": 0}, {"rental_uris": {"ios": "https://dc.lft.to/lastmile_qr_scan", "android": "https://dc.lft.to/lastmile_qr_scan"}, "lon": -77.0238525, "type": "electric_scooter", "fusion_lat": 0.0, "lat": 38.9337405, "name": "8ec7b5f5c22a54b859513afaaaab74ea", "fusion_lon": 0.0, "bike_id": "8ec7b5f5c22a54b859513afaaaab74ea", "is_disabled": 0, "is_reserved": 0}, {"rental_uris": {"ios": "https://dc.lft.to/lastmile_qr_scan", "android": "https://dc.lft.to/lastmile_qr_scan"}, "lon": -77.02398183333334, "type": "electric_scooter", "fusion_lat": 0.0, "lat": 38.90697616666667, "name": "f9b463547106496af1275e69c52a55f3", "fusion_lon": 0.0, "bike_id": "f9b463547106496af1275e69c52a55f3", "is_disabled": 0, "is_reserved": 0}, {"rental_uris": {"ios": "https://dc.lft.to/lastmile_qr_scan", "android": "https://dc.lft.to/lastmile_qr_scan"}, "lon": -77.04622783333333, "type": "electric_bike", "fusion_lat": 0.0, "lat": 38.9991, "name": "48b41702adbad5793391cc404dbbb7a5", "fusion_lon": 0.0, "bike_id": "48b41702adbad5793391cc404dbbb7a5", "is_disabled": 0, "is_reserved": 0}, {"rental_uris": {"ios": "https://dc.lft.to/lastmile_qr_scan", "android": "https://dc.lft.to/lastmile_qr_scan"}, "lon": -77.022766, "type": "electric_scooter", "fusion_lat": 0.0, "lat": 38.91836583333333, "name": "f50aa56eb1508f5460382b963d89ad0b", "fusion_lon": 0.0, "bike_id": "f50aa56eb1508f5460382b963d89ad0b", "is_disabled": 0, "is_reserved": 0}, {"rental_uris": {"ios": "https://dc.lft.to/lastmile_qr_scan", "android": "https://dc.lft.to/lastmile_qr_scan"}, "lon": -77.033735, "type": "electric_scooter", "fusion_lat": 0.0, "lat": 38.91030083333333, "name": "0375a8c2ae33256b813e6f2dc6aa4867", "fusion_lon": 0.0, "bike_id": "0375a8c2ae33256b813e6f2dc6aa4867", "is_disabled": 0, "is_reserved": 0}, {"rental_uris": {"ios": "https://dc.lft.to/lastmile_qr_scan", "android": "https://dc.lft.to/lastmile_qr_scan"}, "lon": -77.04072233333333, "type": "electric_scooter", "fusion_lat": 0.0, "lat": 38.90563183333333, "name": "108c6ef7950866ab3334a5bf316634a7", "fusion_lon": 0.0, "bike_id": "108c6ef7950866ab3334a5bf316634a7", "is_disabled": 0, "is_reserved": 0}, {"rental_uris": {"ios": "https://dc.lft.to/lastmile_qr_scan", "android": "https://dc.lft.to/lastmile_qr_scan"}, "lon": -77.02493416666667, "type": "electric_scooter", "fusion_lat": 0.0, "lat": 38.942887, "name": "142d2f2976dd935233174e6e34d391ae", "fusion_lon": 0.0, "bike_id": "142d2f2976dd935233174e6e34d391ae", "is_disabled": 0, "is_reserved": 0}, {"rental_uris": {"ios": "https://dc.lft.to/lastmile_qr_scan", "android": "https://dc.lft.to/lastmile_qr_scan"}, "lon": -77.0646895, "type": "electric_bike", "fusion_lat": 0.0, "lat": 38.97383116666666, "name": "97b75d1d8f60f5fd988278470f4fa4f3", "fusion_lon": 0.0, "bike_id": "97b75d1d8f60f5fd988278470f4fa4f3", "is_disabled": 0, "is_reserved": 0}, {"rental_uris": {"ios": "https://dc.lft.to/lastmile_qr_scan", "android": "https://dc.lft.to/lastmile_qr_scan"}, "lon": -77.00503816666667, "type": "electric_scooter", "fusion_lat": 0.0, "lat": 38.8753445, "name": "961063a72bf2051741fd360ee9493798", "fusion_lon": 0.0, "bike_id": "961063a72bf2051741fd360ee9493798", "is_disabled": 0, "is_reserved": 0}, {"rental_uris": {"ios": "https://dc.lft.to/lastmile_qr_scan", "android": "https://dc.lft.to/lastmile_qr_scan"}, "lon": -77.078114, "type": "electric_scooter", "fusion_lat": 0.0, "lat": 38.926231666666666, "name": "af1a51dfd749efa78a569929005ba72f", "fusion_lon": 0.0, "bike_id": "af1a51dfd749efa78a569929005ba72f", "is_disabled": 0, "is_reserved": 0}, {"rental_uris": {"ios": "https://dc.lft.to/lastmile_qr_scan", "android": "https://dc.lft.to/lastmile_qr_scan"}, "lon": -77.0093195, "type": "electric_scooter", "fusion_lat": 0.0, "lat": 38.8719975, "name": "6c65c7a2a92d38b2224062c2fc402b40", "fusion_lon": 0.0, "bike_id": "6c65c7a2a92d38b2224062c2fc402b40", "is_disabled": 0, "is_reserved": 0}, {"rental_uris": {"ios": "https://dc.lft.to/lastmile_qr_scan", "android": "https://dc.lft.to/lastmile_qr_scan"}, "lon": -77.02206366666667, "type": "electric_scooter", "fusion_lat": 0.0, "lat": 38.908361666666664, "name": "2fb14c08b5ff690e4e415cff432a181c", "fusion_lon": 0.0, "bike_id": "2fb14c08b5ff690e4e415cff432a181c", "is_disabled": 0, "is_reserved": 0}, {"rental_uris": {"ios": "https://dc.lft.to/lastmile_qr_scan", "android": "https://dc.lft.to/lastmile_qr_scan"}, "lon": -76.984162, "type": "electric_scooter", "fusion_lat": 0.0, "lat": 38.9138605, "name": "6e8183737340795b5c8c4ab68991e544", "fusion_lon": 0.0, "bike_id": "6e8183737340795b5c8c4ab68991e544", "is_disabled": 0, "is_reserved": 0}, {"rental_uris": {"ios": "https://dc.lft.to/lastmile_qr_scan", "android": "https://dc.lft.to/lastmile_qr_scan"}, "lon": -77.004686, "type": "electric_scooter", "fusion_lat": 0.0, "lat": 38.911942833333335, "name": "b54919dc0839577e7b2b2373dffb4985", "fusion_lon": 0.0, "bike_id": "b54919dc0839577e7b2b2373dffb4985", "is_disabled": 0, "is_reserved": 0}, {"rental_uris": {"ios": "https://dc.lft.to/lastmile_qr_scan", "android": "https://dc.lft.to/lastmile_qr_scan"}, "lon": -77.042168, "type": "electric_scooter", "fusion_lat": 0.0, "lat": 38.92132216666667, "name": "9fe91200eef91987d07e61fd0249c8e5", "fusion_lon": 0.0, "bike_id": "9fe91200eef91987d07e61fd0249c8e5", "is_disabled": 0, "is_reserved": 0}, {"rental_uris": {"ios": "https://dc.lft.to/lastmile_qr_scan", "android": "https://dc.lft.to/lastmile_qr_scan"}, "lon": -76.9677465, "type": "electric_scooter", "fusion_lat": 0.0, "lat": 38.8614625, "name": "26b51e605ea31891713a3d3ff7f17131", "fusion_lon": 0.0, "bike_id": "26b51e605ea31891713a3d3ff7f17131", "is_disabled": 0, "is_reserved": 0}, {"rental_uris": {"ios": "https://dc.lft.to/lastmile_qr_scan", "android": "https://dc.lft.to/lastmile_qr_scan"}, "lon": -77.0281035, "type": "electric_scooter", "fusion_lat": 0.0, "lat": 38.8817775, "name": "3588db5f38eea65e683b7efcf2790490", "fusion_lon": 0.0, "bike_id": "3588db5f38eea65e683b7efcf2790490", "is_disabled": 0, "is_reserved": 0}, {"rental_uris": {"ios": "https://dc.lft.to/lastmile_qr_scan", "android": "https://dc.lft.to/lastmile_qr_scan"}, "lon": -77.01932066666667, "type": "electric_scooter", "fusion_lat": 0.0, "lat": 38.912662833333336, "name": "f640573f9b972d2e2f72b6500aeee1f1", "fusion_lon": 0.0, "bike_id": "f640573f9b972d2e2f72b6500aeee1f1", "is_disabled": 0, "is_reserved": 0}, {"rental_uris": {"ios": "https://dc.lft.to/lastmile_qr_scan", "android": "https://dc.lft.to/lastmile_qr_scan"}, "lon": -77.031862, "type": "electric_scooter", "fusion_lat": 0.0, "lat": 38.8995005, "name": "a3d20feb494b7d23799ac7493ba93ffa", "fusion_lon": 0.0, "bike_id": "a3d20feb494b7d23799ac7493ba93ffa", "is_disabled": 0, "is_reserved": 0}, {"rental_uris": {"ios": "https://dc.lft.to/lastmile_qr_scan", "android": "https://dc.lft.to/lastmile_qr_scan"}, "lon": -77.0259105, "type": "electric_scooter", "fusion_lat": 0.0, "lat": 38.88360216666667, "name": "a2e52ee0ae57ab8172992e9aab38c863", "fusion_lon": 0.0, "bike_id": "a2e52ee0ae57ab8172992e9aab38c863", "is_disabled": 0, "is_reserved": 0}, {"rental_uris": {"ios": "https://dc.lft.to/lastmile_qr_scan", "android": "https://dc.lft.to/lastmile_qr_scan"}, "lon": -77.1142555, "type": "electric_bike", "fusion_lat": 0.0, "lat": 38.852461166666664, "name": "741efbd1ef3e75771bff80efccb8fc8e", "fusion_lon": 0.0, "bike_id": "741efbd1ef3e75771bff80efccb8fc8e", "is_disabled": 0, "is_reserved": 0}, {"rental_uris": {"ios": "https://dc.lft.to/lastmile_qr_scan", "android": "https://dc.lft.to/lastmile_qr_scan"}, "lon": -77.02248833333333, "type": "electric_scooter", "fusion_lat": 0.0, "lat": 38.91645716666667, "name": "afd3c3f1db522d8afcccbb041fc43979", "fusion_lon": 0.0, "bike_id": "afd3c3f1db522d8afcccbb041fc43979", "is_disabled": 0, "is_reserved": 0}, {"rental_uris": {"ios": "https://dc.lft.to/lastmile_qr_scan", "android": "https://dc.lft.to/lastmile_qr_scan"}, "lon": -77.026321, "type": "electric_scooter", "fusion_lat": 0.0, "lat": 38.8960735, "name": "6756b809ee31d49229fcb363b1f6a15a", "fusion_lon": 0.0, "bike_id": "6756b809ee31d49229fcb363b1f6a15a", "is_disabled": 0, "is_reserved": 0}, {"rental_uris": {"ios": "https://dc.lft.to/lastmile_qr_scan", "android": "https://dc.lft.to/lastmile_qr_scan"}, "lon": -77.02381433333333, "type": "electric_scooter", "fusion_lat": 0.0, "lat": 38.93197166666667, "name": "c23982c93dc33a466dcf074b12fbf706", "fusion_lon": 0.0, "bike_id": "c23982c93dc33a466dcf074b12fbf706", "is_disabled": 0, "is_reserved": 0}, {"rental_uris": {"ios": "https://dc.lft.to/lastmile_qr_scan", "android": "https://dc.lft.to/lastmile_qr_scan"}, "lon": -77.00590283333334, "type": "electric_scooter", "fusion_lat": 0.0, "lat": 38.91567716666667, "name": "ce7d631b200cc4852203bdf93261eb99", "fusion_lon": 0.0, "bike_id": "ce7d631b200cc4852203bdf93261eb99", "is_disabled": 0, "is_reserved": 0}, {"rental_uris": {"ios": "https://dc.lft.to/lastmile_qr_scan", "android": "https://dc.lft.to/lastmile_qr_scan"}, "lon": -77.02341633333333, "type": "electric_scooter", "fusion_lat": 0.0, "lat": 38.962057, "name": "5c0fc295483be7daa5026591fb2173d8", "fusion_lon": 0.0, "bike_id": "5c0fc295483be7daa5026591fb2173d8", "is_disabled": 0, "is_reserved": 0}, {"rental_uris": {"ios": "https://dc.lft.to/lastmile_qr_scan", "android": "https://dc.lft.to/lastmile_qr_scan"}, "lon": -77.04153066666667, "type": "electric_scooter", "fusion_lat": 0.0, "lat": 38.9192215, "name": "adc2d20fee0e1e25dab9eab0c0911735", "fusion_lon": 0.0, "bike_id": "adc2d20fee0e1e25dab9eab0c0911735", "is_disabled": 0, "is_reserved": 0}, {"rental_uris": {"ios": "https://dc.lft.to/lastmile_qr_scan", "android": "https://dc.lft.to/lastmile_qr_scan"}, "lon": -77.041672, "type": "electric_scooter", "fusion_lat": 0.0, "lat": 38.91534583333333, "name": "0a5ccf57c5caaf78b1b228e61ee3493f", "fusion_lon": 0.0, "bike_id": "0a5ccf57c5caaf78b1b228e61ee3493f", "is_disabled": 0, "is_reserved": 0}, {"rental_uris": {"ios": "https://dc.lft.to/lastmile_qr_scan", "android": "https://dc.lft.to/lastmile_qr_scan"}, "lon": -77.12502283333333, "type": "electric_bike", "fusion_lat": 0.0, "lat": 39.02418183333333, "name": "0515be389a7a41599d2d8cce558fcb0b", "fusion_lon": 0.0, "bike_id": "0515be389a7a41599d2d8cce558fcb0b", "is_disabled": 0, "is_reserved": 0}, {"rental_uris": {"ios": "https://dc.lft.to/lastmile_qr_scan", "android": "https://dc.lft.to/lastmile_qr_scan"}, "lon": -77.034667, "type": "electric_scooter", "fusion_lat": 0.0, "lat": 38.917032166666665, "name": "077089dd237c271471d10db1f9753212", "fusion_lon": 0.0, "bike_id": "077089dd237c271471d10db1f9753212", "is_disabled": 0, "is_reserved": 0}, {"rental_uris": {"ios": "https://dc.lft.to/lastmile_qr_scan", "android": "https://dc.lft.to/lastmile_qr_scan"}, "lon": -77.03632683333333, "type": "electric_scooter", "fusion_lat": 0.0, "lat": 38.93279033333334, "name": "cb6bfa4b802f51afbcb23bfec2e4cebb", "fusion_lon": 0.0, "bike_id": "cb6bfa4b802f51afbcb23bfec2e4cebb", "is_disabled": 0, "is_reserved": 0}, {"rental_uris": {"ios": "https://dc.lft.to/lastmile_qr_scan", "android": "https://dc.lft.to/lastmile_qr_scan"}, "lon": -77.0297415, "type": "electric_scooter", "fusion_lat": 0.0, "lat": 38.9234075, "name": "120935d054de5e3d3e523421ac6f3ec8", "fusion_lon": 0.0, "bike_id": "120935d054de5e3d3e523421ac6f3ec8", "is_disabled": 0, "is_reserved": 0}, {"rental_uris": {"ios": "https://dc.lft.to/lastmile_qr_scan", "android": "https://dc.lft.to/lastmile_qr_scan"}, "lon": -77.04674833333333, "type": "electric_scooter", "fusion_lat": 0.0, "lat": 38.92054783333333, "name": "c542c8af2e57874456ff6cd11ad82870", "fusion_lon": 0.0, "bike_id": "c542c8af2e57874456ff6cd11ad82870", "is_disabled": 0, "is_reserved": 0}, {"rental_uris": {"ios": "https://dc.lft.to/lastmile_qr_scan", "android": "https://dc.lft.to/lastmile_qr_scan"}, "lon": -76.957536, "type": "electric_scooter", "fusion_lat": 0.0, "lat": 38.884429833333336, "name": "eb666834f94fc61969474c7f5e40f072", "fusion_lon": 0.0, "bike_id": "eb666834f94fc61969474c7f5e40f072", "is_disabled": 0, "is_reserved": 0}, {"rental_uris": {"ios": "https://dc.lft.to/lastmile_qr_scan", "android": "https://dc.lft.to/lastmile_qr_scan"}, "lon": -77.15264616666667, "type": "electric_bike", "fusion_lat": 0.0, "lat": 39.1056655, "name": "b484fd1f2f2411174a90a23165860a29", "fusion_lon": 0.0, "bike_id": "b484fd1f2f2411174a90a23165860a29", "is_disabled": 0, "is_reserved": 0}, {"rental_uris": {"ios": "https://dc.lft.to/lastmile_qr_scan", "android": "https://dc.lft.to/lastmile_qr_scan"}, "lon": -76.98327266666666, "type": "electric_scooter", "fusion_lat": 0.0, "lat": 38.861729, "name": "20db23438761899dbab1fad57ecb609d", "fusion_lon": 0.0, "bike_id": "20db23438761899dbab1fad57ecb609d", "is_disabled": 0, "is_reserved": 0}, {"rental_uris": {"ios": "https://dc.lft.to/lastmile_qr_scan", "android": "https://dc.lft.to/lastmile_qr_scan"}, "lon": -76.99611433333334, "type": "electric_scooter", "fusion_lat": 0.0, "lat": 38.88447166666667, "name": "f87d54f9c753af456b596328042391ca", "fusion_lon": 0.0, "bike_id": "f87d54f9c753af456b596328042391ca", "is_disabled": 0, "is_reserved": 0}, {"rental_uris": {"ios": "https://dc.lft.to/lastmile_qr_scan", "android": "https://dc.lft.to/lastmile_qr_scan"}, "lon": -76.93792916666666, "type": "electric_scooter", "fusion_lat": 0.0, "lat": 38.890854833333336, "name": "ad3f0359ebaabf437009e78ebc873a42", "fusion_lon": 0.0, "bike_id": "ad3f0359ebaabf437009e78ebc873a42", "is_disabled": 0, "is_reserved": 0}, {"rental_uris": {"ios": "https://dc.lft.to/lastmile_qr_scan", "android": "https://dc.lft.to/lastmile_qr_scan"}, "lon": -77.03897066666667, "type": "electric_scooter", "fusion_lat": 0.0, "lat": 38.922184666666666, "name": "2f7ce64ca2a5b90fc4e9e52aa47311e2", "fusion_lon": 0.0, "bike_id": "2f7ce64ca2a5b90fc4e9e52aa47311e2", "is_disabled": 0, "is_reserved": 0}, {"rental_uris": {"ios": "https://dc.lft.to/lastmile_qr_scan", "android": "https://dc.lft.to/lastmile_qr_scan"}, "lon": -77.01537566666667, "type": "electric_scooter", "fusion_lat": 0.0, "lat": 38.89195566666667, "name": "bf89fd66e4134d2dcdf1929a90922db4", "fusion_lon": 0.0, "bike_id": "bf89fd66e4134d2dcdf1929a90922db4", "is_disabled": 0, "is_reserved": 0}, {"rental_uris": {"ios": "https://dc.lft.to/lastmile_qr_scan", "android": "https://dc.lft.to/lastmile_qr_scan"}, "lon": -77.02186416666666, "type": "electric_scooter", "fusion_lat": 0.0, "lat": 38.897134, "name": "d6ea1623eca3c3d69fbb30e7cd82cd33", "fusion_lon": 0.0, "bike_id": "d6ea1623eca3c3d69fbb30e7cd82cd33", "is_disabled": 0, "is_reserved": 0}, {"rental_uris": {"ios": "https://dc.lft.to/lastmile_qr_scan", "android": "https://dc.lft.to/lastmile_qr_scan"}, "lon": -77.0250285, "type": "electric_scooter", "fusion_lat": 0.0, "lat": 38.8803145, "name": "8adfccc49a1bce19ac03c03280159a62", "fusion_lon": 0.0, "bike_id": "8adfccc49a1bce19ac03c03280159a62", "is_disabled": 0, "is_reserved": 0}, {"rental_uris": {"ios": "https://dc.lft.to/lastmile_qr_scan", "android": "https://dc.lft.to/lastmile_qr_scan"}, "lon": -76.96501616666667, "type": "electric_scooter", "fusion_lat": 0.0, "lat": 38.87645216666667, "name": "5e01b37f3025ac377770dd62c9c528ef", "fusion_lon": 0.0, "bike_id": "5e01b37f3025ac377770dd62c9c528ef", "is_disabled": 0, "is_reserved": 0}, {"rental_uris": {"ios": "https://dc.lft.to/lastmile_qr_scan", "android": "https://dc.lft.to/lastmile_qr_scan"}, "lon": -77.03792216666666, "type": "electric_scooter", "fusion_lat": 0.0, "lat": 38.91546116666667, "name": "b8dfd4db6464e97439558d80c4704b04", "fusion_lon": 0.0, "bike_id": "b8dfd4db6464e97439558d80c4704b04", "is_disabled": 0, "is_reserved": 0}, {"rental_uris": {"ios": "https://dc.lft.to/lastmile_qr_scan", "android": "https://dc.lft.to/lastmile_qr_scan"}, "lon": -77.03182016666666, "type": "electric_scooter", "fusion_lat": 0.0, "lat": 38.91325833333333, "name": "2064a8d882b7c39ed7a316cb4ec88b24", "fusion_lon": 0.0, "bike_id": "2064a8d882b7c39ed7a316cb4ec88b24", "is_disabled": 0, "is_reserved": 0}, {"rental_uris": {"ios": "https://dc.lft.to/lastmile_qr_scan", "android": "https://dc.lft.to/lastmile_qr_scan"}, "lon": -76.99756916666666, "type": "electric_scooter", "fusion_lat": 0.0, "lat": 38.922027666666665, "name": "39bb5b67ea05080722ac4b1f25f8ca00", "fusion_lon": 0.0, "bike_id": "39bb5b67ea05080722ac4b1f25f8ca00", "is_disabled": 0, "is_reserved": 0}, {"rental_uris": {"ios": "https://dc.lft.to/lastmile_qr_scan", "android": "https://dc.lft.to/lastmile_qr_scan"}, "lon": -77.01797883333333, "type": "electric_scooter", "fusion_lat": 0.0, "lat": 38.904005833333336, "name": "cde4f2f2ffa70987c75deffd9fbcec38", "fusion_lon": 0.0, "bike_id": "cde4f2f2ffa70987c75deffd9fbcec38", "is_disabled": 0, "is_reserved": 0}, {"rental_uris": {"ios": "https://dc.lft.to/lastmile_qr_scan", "android": "https://dc.lft.to/lastmile_qr_scan"}, "lon": -77.0318865, "type": "electric_scooter", "fusion_lat": 0.0, "lat": 38.914857166666664, "name": "b18c330c933d9861ad62aba076d02486", "fusion_lon": 0.0, "bike_id": "b18c330c933d9861ad62aba076d02486", "is_disabled": 0, "is_reserved": 0}, {"rental_uris": {"ios": "https://dc.lft.to/lastmile_qr_scan", "android": "https://dc.lft.to/lastmile_qr_scan"}, "lon": -77.01203933333333, "type": "electric_scooter", "fusion_lat": 0.0, "lat": 38.91565583333333, "name": "666569e52b71df8ac9d4a1f4381c1f4c", "fusion_lon": 0.0, "bike_id": "666569e52b71df8ac9d4a1f4381c1f4c", "is_disabled": 0, "is_reserved": 0}, {"rental_uris": {"ios": "https://dc.lft.to/lastmile_qr_scan", "android": "https://dc.lft.to/lastmile_qr_scan"}, "lon": -77.057396, "type": "electric_scooter", "fusion_lat": 0.0, "lat": 38.9339705, "name": "1580aa57f2de59220cae56af45112152", "fusion_lon": 0.0, "bike_id": "1580aa57f2de59220cae56af45112152", "is_disabled": 0, "is_reserved": 0}, {"rental_uris": {"ios": "https://dc.lft.to/lastmile_qr_scan", "android": "https://dc.lft.to/lastmile_qr_scan"}, "lon": -77.02609283333334, "type": "electric_scooter", "fusion_lat": 0.0, "lat": 38.917083833333336, "name": "2e1aae34075c3a9d4a9f0b3cd5884675", "fusion_lon": 0.0, "bike_id": "2e1aae34075c3a9d4a9f0b3cd5884675", "is_disabled": 0, "is_reserved": 0}, {"rental_uris": {"ios": "https://dc.lft.to/lastmile_qr_scan", "android": "https://dc.lft.to/lastmile_qr_scan"}, "lon": -77.11518766666667, "type": "electric_bike", "fusion_lat": 0.0, "lat": 38.854935166666664, "name": "736d52cf1401bb0a7dcfa862e2849707", "fusion_lon": 0.0, "bike_id": "736d52cf1401bb0a7dcfa862e2849707", "is_disabled": 0, "is_reserved": 0}, {"rental_uris": {"ios": "https://dc.lft.to/lastmile_qr_scan", "android": "https://dc.lft.to/lastmile_qr_scan"}, "lon": -77.032581, "type": "electric_scooter", "fusion_lat": 0.0, "lat": 38.93094216666667, "name": "085129defa815481af2f6a844a45ffb9", "fusion_lon": 0.0, "bike_id": "085129defa815481af2f6a844a45ffb9", "is_disabled": 0, "is_reserved": 0}, {"rental_uris": {"ios": "https://dc.lft.to/lastmile_qr_scan", "android": "https://dc.lft.to/lastmile_qr_scan"}, "lon": -77.0479225, "type": "electric_scooter", "fusion_lat": 0.0, "lat": 38.916373, "name": "2410fa9100f4c738ad5e230e24bff3ae", "fusion_lon": 0.0, "bike_id": "2410fa9100f4c738ad5e230e24bff3ae", "is_disabled": 0, "is_reserved": 0}, {"rental_uris": {"ios": "https://dc.lft.to/lastmile_qr_scan", "android": "https://dc.lft.to/lastmile_qr_scan"}, "lon": -77.0021375, "type": "electric_scooter", "fusion_lat": 0.0, "lat": 38.911045666666666, "name": "dee7cf044f7635855632f504d664311b", "fusion_lon": 0.0, "bike_id": "dee7cf044f7635855632f504d664311b", "is_disabled": 0, "is_reserved": 0}, {"rental_uris": {"ios": "https://dc.lft.to/lastmile_qr_scan", "android": "https://dc.lft.to/lastmile_qr_scan"}, "lon": -76.931772, "type": "electric_scooter", "fusion_lat": 0.0, "lat": 38.898859333333334, "name": "0b65be8c95a3cdf4dd9c98524472dd90", "fusion_lon": 0.0, "bike_id": "0b65be8c95a3cdf4dd9c98524472dd90", "is_disabled": 0, "is_reserved": 0}, {"rental_uris": {"ios": "https://dc.lft.to/lastmile_qr_scan", "android": "https://dc.lft.to/lastmile_qr_scan"}, "lon": -77.0486265, "type": "electric_scooter", "fusion_lat": 0.0, "lat": 38.892239833333335, "name": "34d573934e8ae294d917e6aa11e39112", "fusion_lon": 0.0, "bike_id": "34d573934e8ae294d917e6aa11e39112", "is_disabled": 0, "is_reserved": 0}, {"rental_uris": {"ios": "https://dc.lft.to/lastmile_qr_scan", "android": "https://dc.lft.to/lastmile_qr_scan"}, "lon": -77.35307166666666, "type": "electric_bike", "fusion_lat": 0.0, "lat": 38.950007166666666, "name": "370bc07146924174229016690760a4b3", "fusion_lon": 0.0, "bike_id": "370bc07146924174229016690760a4b3", "is_disabled": 0, "is_reserved": 0}, {"rental_uris": {"ios": "https://dc.lft.to/lastmile_qr_scan", "android": "https://dc.lft.to/lastmile_qr_scan"}, "lon": -76.99485483333333, "type": "electric_scooter", "fusion_lat": 0.0, "lat": 38.89950566666667, "name": "71af0befecab6153169d4c24325f6931", "fusion_lon": 0.0, "bike_id": "71af0befecab6153169d4c24325f6931", "is_disabled": 0, "is_reserved": 0}, {"rental_uris": {"ios": "https://dc.lft.to/lastmile_qr_scan", "android": "https://dc.lft.to/lastmile_qr_scan"}, "lon": -77.02840666666667, "type": "electric_scooter", "fusion_lat": 0.0, "lat": 38.942648166666665, "name": "d2eacf64033c6e1689d3d1ce49e975ba", "fusion_lon": 0.0, "bike_id": "d2eacf64033c6e1689d3d1ce49e975ba", "is_disabled": 0, "is_reserved": 0}, {"rental_uris": {"ios": "https://dc.lft.to/lastmile_qr_scan", "android": "https://dc.lft.to/lastmile_qr_scan"}, "lon": -77.04629716666666, "type": "electric_scooter", "fusion_lat": 0.0, "lat": 38.91808116666667, "name": "21db81b619df72308d6069ff294d4370", "fusion_lon": 0.0, "bike_id": "21db81b619df72308d6069ff294d4370", "is_disabled": 0, "is_reserved": 0}, {"rental_uris": {"ios": "https://dc.lft.to/lastmile_qr_scan", "android": "https://dc.lft.to/lastmile_qr_scan"}, "lon": -77.005812, "type": "electric_scooter", "fusion_lat": 0.0, "lat": 38.886011, "name": "dc3a89b441a64b03cd0cb946818b61a5", "fusion_lon": 0.0, "bike_id": "dc3a89b441a64b03cd0cb946818b61a5", "is_disabled": 0, "is_reserved": 0}, {"rental_uris": {"ios": "https://dc.lft.to/lastmile_qr_scan", "android": "https://dc.lft.to/lastmile_qr_scan"}, "lon": -77.06291883333333, "type": "electric_scooter", "fusion_lat": 0.0, "lat": 38.904022833333336, "name": "39f2cfb5d26317af18fadfc68eb56276", "fusion_lon": 0.0, "bike_id": "39f2cfb5d26317af18fadfc68eb56276", "is_disabled": 0, "is_reserved": 0}, {"rental_uris": {"ios": "https://dc.lft.to/lastmile_qr_scan", "android": "https://dc.lft.to/lastmile_qr_scan"}, "lon": -76.9949295, "type": "electric_scooter", "fusion_lat": 0.0, "lat": 38.86241016666666, "name": "43860dea406ec44a3923f9f1f4c671ca", "fusion_lon": 0.0, "bike_id": "43860dea406ec44a3923f9f1f4c671ca", "is_disabled": 0, "is_reserved": 0}, {"rental_uris": {"ios": "https://dc.lft.to/lastmile_qr_scan", "android": "https://dc.lft.to/lastmile_qr_scan"}, "lon": -77.02279583333333, "type": "electric_scooter", "fusion_lat": 0.0, "lat": 38.916956166666665, "name": "85150c0be06e582fbe66604cc340cf19", "fusion_lon": 0.0, "bike_id": "85150c0be06e582fbe66604cc340cf19", "is_disabled": 0, "is_reserved": 0}, {"rental_uris": {"ios": "https://dc.lft.to/lastmile_qr_scan", "android": "https://dc.lft.to/lastmile_qr_scan"}, "lon": -76.92712083333333, "type": "electric_scooter", "fusion_lat": 0.0, "lat": 38.887672333333335, "name": "825c69fbfb1b70c1640d673c35f8387c", "fusion_lon": 0.0, "bike_id": "825c69fbfb1b70c1640d673c35f8387c", "is_disabled": 0, "is_reserved": 0}, {"rental_uris": {"ios": "https://dc.lft.to/lastmile_qr_scan", "android": "https://dc.lft.to/lastmile_qr_scan"}, "lon": -77.01222283333334, "type": "electric_scooter", "fusion_lat": 0.0, "lat": 38.8697555, "name": "cae53e50432c2eb58927f7ece5590742", "fusion_lon": 0.0, "bike_id": "cae53e50432c2eb58927f7ece5590742", "is_disabled": 0, "is_reserved": 0}, {"rental_uris": {"ios": "https://dc.lft.to/lastmile_qr_scan", "android": "https://dc.lft.to/lastmile_qr_scan"}, "lon": -77.10779, "type": "electric_bike", "fusion_lat": 0.0, "lat": 38.8921755, "name": "4aa0feff5dbb8e3bcd04b3a340d0879f", "fusion_lon": 0.0, "bike_id": "4aa0feff5dbb8e3bcd04b3a340d0879f", "is_disabled": 0, "is_reserved": 0}, {"rental_uris": {"ios": "https://dc.lft.to/lastmile_qr_scan", "android": "https://dc.lft.to/lastmile_qr_scan"}, "lon": -77.01092533333333, "type": "electric_bike", "fusion_lat": 0.0, "lat": 38.90862083333333, "name": "d94f1c29edd704be94fa0014097bfbb3", "fusion_lon": 0.0, "bike_id": "d94f1c29edd704be94fa0014097bfbb3", "is_disabled": 0, "is_reserved": 0}, {"rental_uris": {"ios": "https://dc.lft.to/lastmile_qr_scan", "android": "https://dc.lft.to/lastmile_qr_scan"}, "lon": -77.06632766666667, "type": "electric_scooter", "fusion_lat": 0.0, "lat": 38.928052666666666, "name": "c84b53db0c4612d493affb5a8fe8ea25", "fusion_lon": 0.0, "bike_id": "c84b53db0c4612d493affb5a8fe8ea25", "is_disabled": 0, "is_reserved": 0}, {"rental_uris": {"ios": "https://dc.lft.to/lastmile_qr_scan", "android": "https://dc.lft.to/lastmile_qr_scan"}, "lon": -77.01775883333333, "type": "electric_scooter", "fusion_lat": 0.0, "lat": 38.88718883333333, "name": "76cf565e1a7657d83154ea88594eaa6c", "fusion_lon": 0.0, "bike_id": "76cf565e1a7657d83154ea88594eaa6c", "is_disabled": 0, "is_reserved": 0}, {"rental_uris": {"ios": "https://dc.lft.to/lastmile_qr_scan", "android": "https://dc.lft.to/lastmile_qr_scan"}, "lon": -77.02103666666666, "type": "electric_bike", "fusion_lat": 0.0, "lat": 38.8946675, "name": "422c5686ad3e37476872431e1988337a", "fusion_lon": 0.0, "bike_id": "422c5686ad3e37476872431e1988337a", "is_disabled": 0, "is_reserved": 0}, {"rental_uris": {"ios": "https://dc.lft.to/lastmile_qr_scan", "android": "https://dc.lft.to/lastmile_qr_scan"}, "lon": -76.989043, "type": "electric_scooter", "fusion_lat": 0.0, "lat": 38.86691583333333, "name": "8a0219b606b07be9ac36d46f371dfc8e", "fusion_lon": 0.0, "bike_id": "8a0219b606b07be9ac36d46f371dfc8e", "is_disabled": 0, "is_reserved": 0}, {"rental_uris": {"ios": "https://dc.lft.to/lastmile_qr_scan", "android": "https://dc.lft.to/lastmile_qr_scan"}, "lon": -77.04166466666666, "type": "electric_scooter", "fusion_lat": 0.0, "lat": 38.9193745, "name": "20bc80b6abf1a5a93b1739bcb355a4d4", "fusion_lon": 0.0, "bike_id": "20bc80b6abf1a5a93b1739bcb355a4d4", "is_disabled": 0, "is_reserved": 0}, {"rental_uris": {"ios": "https://dc.lft.to/lastmile_qr_scan", "android": "https://dc.lft.to/lastmile_qr_scan"}, "lon": -76.98666666666666, "type": "electric_bike", "fusion_lat": 0.0, "lat": 38.8996425, "name": "7f9349a8bd26e83d54fc381c8387c445", "fusion_lon": 0.0, "bike_id": "7f9349a8bd26e83d54fc381c8387c445", "is_disabled": 0, "is_reserved": 0}, {"rental_uris": {"ios": "https://dc.lft.to/lastmile_qr_scan", "android": "https://dc.lft.to/lastmile_qr_scan"}, "lon": -77.0134655, "type": "electric_scooter", "fusion_lat": 0.0, "lat": 38.867245833333335, "name": "889075e6fa1992c7c9a6847d35d8b79c", "fusion_lon": 0.0, "bike_id": "889075e6fa1992c7c9a6847d35d8b79c", "is_disabled": 0, "is_reserved": 0}, {"rental_uris": {"ios": "https://dc.lft.to/lastmile_qr_scan", "android": "https://dc.lft.to/lastmile_qr_scan"}, "lon": -77.04813066666667, "type": "electric_scooter", "fusion_lat": 0.0, "lat": 38.896288, "name": "da7c5773dbb9a989a605908ae3b07ce5", "fusion_lon": 0.0, "bike_id": "da7c5773dbb9a989a605908ae3b07ce5", "is_disabled": 0, "is_reserved": 0}, {"rental_uris": {"ios": "https://dc.lft.to/lastmile_qr_scan", "android": "https://dc.lft.to/lastmile_qr_scan"}, "lon": -77.058786, "type": "electric_scooter", "fusion_lat": 0.0, "lat": 38.93638466666667, "name": "3c8a9888c78d8c1caa77fad1bd0327fc", "fusion_lon": 0.0, "bike_id": "3c8a9888c78d8c1caa77fad1bd0327fc", "is_disabled": 0, "is_reserved": 0}, {"rental_uris": {"ios": "https://dc.lft.to/lastmile_qr_scan", "android": "https://dc.lft.to/lastmile_qr_scan"}, "lon": -77.02705583333334, "type": "electric_scooter", "fusion_lat": 0.0, "lat": 38.906698666666664, "name": "b18d61e906943edf2da88af281c91b9b", "fusion_lon": 0.0, "bike_id": "b18d61e906943edf2da88af281c91b9b", "is_disabled": 0, "is_reserved": 0}, {"rental_uris": {"ios": "https://dc.lft.to/lastmile_qr_scan", "android": "https://dc.lft.to/lastmile_qr_scan"}, "lon": -77.03792966666667, "type": "electric_scooter", "fusion_lat": 0.0, "lat": 38.90555833333333, "name": "a1bf6f13f21d0e79f68234e6a3fabef2", "fusion_lon": 0.0, "bike_id": "a1bf6f13f21d0e79f68234e6a3fabef2", "is_disabled": 0, "is_reserved": 0}, {"rental_uris": {"ios": "https://dc.lft.to/lastmile_qr_scan", "android": "https://dc.lft.to/lastmile_qr_scan"}, "lon": -77.00214083333333, "type": "electric_scooter", "fusion_lat": 0.0, "lat": 38.9110615, "name": "13afe4908805d93985fc400f6a3841d9", "fusion_lon": 0.0, "bike_id": "13afe4908805d93985fc400f6a3841d9", "is_disabled": 0, "is_reserved": 0}, {"rental_uris": {"ios": "https://dc.lft.to/lastmile_qr_scan", "android": "https://dc.lft.to/lastmile_qr_scan"}, "lon": -77.029533, "type": "electric_scooter", "fusion_lat": 0.0, "lat": 38.911489, "name": "0327847f951351fc6f5eb57fea4ca671", "fusion_lon": 0.0, "bike_id": "0327847f951351fc6f5eb57fea4ca671", "is_disabled": 0, "is_reserved": 0}, {"rental_uris": {"ios": "https://dc.lft.to/lastmile_qr_scan", "android": "https://dc.lft.to/lastmile_qr_scan"}, "lon": -77.02233616666666, "type": "electric_scooter", "fusion_lat": 0.0, "lat": 38.91425066666667, "name": "143a4c573869dfd3cf0108c8c082f844", "fusion_lon": 0.0, "bike_id": "143a4c573869dfd3cf0108c8c082f844", "is_disabled": 0, "is_reserved": 0}, {"rental_uris": {"ios": "https://dc.lft.to/lastmile_qr_scan", "android": "https://dc.lft.to/lastmile_qr_scan"}, "lon": -77.008326, "type": "electric_scooter", "fusion_lat": 0.0, "lat": 38.912654833333335, "name": "229a7d75fd05c880d69405fcde6220a0", "fusion_lon": 0.0, "bike_id": "229a7d75fd05c880d69405fcde6220a0", "is_disabled": 0, "is_reserved": 0}, {"rental_uris": {"ios": "https://dc.lft.to/lastmile_qr_scan", "android": "https://dc.lft.to/lastmile_qr_scan"}, "lon": -77.06952516666666, "type": "electric_bike", "fusion_lat": 0.0, "lat": 38.990404833333336, "name": "d30a85cb97ee86173543e76e0ad3e7eb", "fusion_lon": 0.0, "bike_id": "d30a85cb97ee86173543e76e0ad3e7eb", "is_disabled": 0, "is_reserved": 0}, {"rental_uris": {"ios": "https://dc.lft.to/lastmile_qr_scan", "android": "https://dc.lft.to/lastmile_qr_scan"}, "lon": -77.0215355, "type": "electric_scooter", "fusion_lat": 0.0, "lat": 38.9260545, "name": "9fa3fffb094eb518af86e7e0da5eafbe", "fusion_lon": 0.0, "bike_id": "9fa3fffb094eb518af86e7e0da5eafbe", "is_disabled": 0, "is_reserved": 0}, {"rental_uris": {"ios": "https://dc.lft.to/lastmile_qr_scan", "android": "https://dc.lft.to/lastmile_qr_scan"}, "lon": -77.02218266666667, "type": "electric_scooter", "fusion_lat": 0.0, "lat": 38.938678333333336, "name": "b256da510af9c9bd0b73cc8f50f3b8f0", "fusion_lon": 0.0, "bike_id": "b256da510af9c9bd0b73cc8f50f3b8f0", "is_disabled": 0, "is_reserved": 0}, {"rental_uris": {"ios": "https://dc.lft.to/lastmile_qr_scan", "android": "https://dc.lft.to/lastmile_qr_scan"}, "lon": -77.02757116666666, "type": "electric_scooter", "fusion_lat": 0.0, "lat": 38.956166833333334, "name": "af98e3f065b2008a8f64cda37bf3489f", "fusion_lon": 0.0, "bike_id": "af98e3f065b2008a8f64cda37bf3489f", "is_disabled": 0, "is_reserved": 0}, {"rental_uris": {"ios": "https://dc.lft.to/lastmile_qr_scan", "android": "https://dc.lft.to/lastmile_qr_scan"}, "lon": -77.00366216666667, "type": "electric_scooter", "fusion_lat": 0.0, "lat": 38.8380805, "name": "a58b4cd1c93e9896de0c5eb7d8a1f270", "fusion_lon": 0.0, "bike_id": "a58b4cd1c93e9896de0c5eb7d8a1f270", "is_disabled": 0, "is_reserved": 0}, {"rental_uris": {"ios": "https://dc.lft.to/lastmile_qr_scan", "android": "https://dc.lft.to/lastmile_qr_scan"}, "lon": -77.0519265, "type": "electric_scooter", "fusion_lat": 0.0, "lat": 38.924081, "name": "2f2bf36a73fe22ef342b57a44085caef", "fusion_lon": 0.0, "bike_id": "2f2bf36a73fe22ef342b57a44085caef", "is_disabled": 0, "is_reserved": 0}, {"rental_uris": {"ios": "https://dc.lft.to/lastmile_qr_scan", "android": "https://dc.lft.to/lastmile_qr_scan"}, "lon": -76.946315, "type": "electric_scooter", "fusion_lat": 0.0, "lat": 38.898328666666664, "name": "9f65386f65c119042fd9332ae1d5065c", "fusion_lon": 0.0, "bike_id": "9f65386f65c119042fd9332ae1d5065c", "is_disabled": 0, "is_reserved": 0}, {"rental_uris": {"ios": "https://dc.lft.to/lastmile_qr_scan", "android": "https://dc.lft.to/lastmile_qr_scan"}, "lon": -77.02197716666667, "type": "electric_scooter", "fusion_lat": 0.0, "lat": 38.90961883333333, "name": "7dd0590379fd34aeda15000e41c238cb", "fusion_lon": 0.0, "bike_id": "7dd0590379fd34aeda15000e41c238cb", "is_disabled": 0, "is_reserved": 0}, {"rental_uris": {"ios": "https://dc.lft.to/lastmile_qr_scan", "android": "https://dc.lft.to/lastmile_qr_scan"}, "lon": -77.09550066666667, "type": "electric_bike", "fusion_lat": 0.0, "lat": 38.83732933333334, "name": "ac91653fbaf1a17843a88587050a62aa", "fusion_lon": 0.0, "bike_id": "ac91653fbaf1a17843a88587050a62aa", "is_disabled": 0, "is_reserved": 0}, {"rental_uris": {"ios": "https://dc.lft.to/lastmile_qr_scan", "android": "https://dc.lft.to/lastmile_qr_scan"}, "lon": -77.003716, "type": "electric_bike", "fusion_lat": 0.0, "lat": 38.8360745, "name": "07e30d49d30aea603c3c5587d461dd11", "fusion_lon": 0.0, "bike_id": "07e30d49d30aea603c3c5587d461dd11", "is_disabled": 0, "is_reserved": 0}, {"rental_uris": {"ios": "https://dc.lft.to/lastmile_qr_scan", "android": "https://dc.lft.to/lastmile_qr_scan"}, "lon": -76.9906075, "type": "electric_scooter", "fusion_lat": 0.0, "lat": 38.863563666666664, "name": "9478c160cc2ad40f85e3511ad19107ad", "fusion_lon": 0.0, "bike_id": "9478c160cc2ad40f85e3511ad19107ad", "is_disabled": 0, "is_reserved": 0}, {"rental_uris": {"ios": "https://dc.lft.to/lastmile_qr_scan", "android": "https://dc.lft.to/lastmile_qr_scan"}, "lon": -77.018536, "type": "electric_bike", "fusion_lat": 0.0, "lat": 38.903839, "name": "dc39afcfc488314da66eecca2fefd9fd", "fusion_lon": 0.0, "bike_id": "dc39afcfc488314da66eecca2fefd9fd", "is_disabled": 0, "is_reserved": 0}, {"rental_uris": {"ios": "https://dc.lft.to/lastmile_qr_scan", "android": "https://dc.lft.to/lastmile_qr_scan"}, "lon": -76.98685933333333, "type": "electric_scooter", "fusion_lat": 0.0, "lat": 38.882129, "name": "cad3b5e24a9ab733d1d08be081f6f78d", "fusion_lon": 0.0, "bike_id": "cad3b5e24a9ab733d1d08be081f6f78d", "is_disabled": 0, "is_reserved": 0}, {"rental_uris": {"ios": "https://dc.lft.to/lastmile_qr_scan", "android": "https://dc.lft.to/lastmile_qr_scan"}, "lon": -77.04729566666667, "type": "electric_scooter", "fusion_lat": 0.0, "lat": 38.91287833333333, "name": "a80d2cc89ece6d6f7f095f40737d97f5", "fusion_lon": 0.0, "bike_id": "a80d2cc89ece6d6f7f095f40737d97f5", "is_disabled": 0, "is_reserved": 0}, {"rental_uris": {"ios": "https://dc.lft.to/lastmile_qr_scan", "android": "https://dc.lft.to/lastmile_qr_scan"}, "lon": -76.97956083333334, "type": "electric_scooter", "fusion_lat": 0.0, "lat": 38.903799, "name": "0fdc8738b6925afaf217951cfb188d36", "fusion_lon": 0.0, "bike_id": "0fdc8738b6925afaf217951cfb188d36", "is_disabled": 0, "is_reserved": 0}, {"rental_uris": {"ios": "https://dc.lft.to/lastmile_qr_scan", "android": "https://dc.lft.to/lastmile_qr_scan"}, "lon": -77.02957316666667, "type": "electric_scooter", "fusion_lat": 0.0, "lat": 38.91605283333333, "name": "f5d10743be691a045cd309851da3903e", "fusion_lon": 0.0, "bike_id": "f5d10743be691a045cd309851da3903e", "is_disabled": 0, "is_reserved": 0}, {"rental_uris": {"ios": "https://dc.lft.to/lastmile_qr_scan", "android": "https://dc.lft.to/lastmile_qr_scan"}, "lon": -77.0312155, "type": "electric_scooter", "fusion_lat": 0.0, "lat": 38.913404, "name": "83fa65eba41ed67fab56ccd4ceede3a0", "fusion_lon": 0.0, "bike_id": "83fa65eba41ed67fab56ccd4ceede3a0", "is_disabled": 0, "is_reserved": 0}, {"rental_uris": {"ios": "https://dc.lft.to/lastmile_qr_scan", "android": "https://dc.lft.to/lastmile_qr_scan"}, "lon": -77.06297916666666, "type": "electric_scooter", "fusion_lat": 0.0, "lat": 38.91334333333333, "name": "df9595808d768c62021560ebe4c9e400", "fusion_lon": 0.0, "bike_id": "df9595808d768c62021560ebe4c9e400", "is_disabled": 0, "is_reserved": 0}, {"rental_uris": {"ios": "https://dc.lft.to/lastmile_qr_scan", "android": "https://dc.lft.to/lastmile_qr_scan"}, "lon": -77.03573416666667, "type": "electric_scooter", "fusion_lat": 0.0, "lat": 38.9561875, "name": "bd0ec7ab4b17d186a0ec9e8c0c0800e9", "fusion_lon": 0.0, "bike_id": "bd0ec7ab4b17d186a0ec9e8c0c0800e9", "is_disabled": 0, "is_reserved": 0}, {"rental_uris": {"ios": "https://dc.lft.to/lastmile_qr_scan", "android": "https://dc.lft.to/lastmile_qr_scan"}, "lon": -77.02195933333333, "type": "electric_scooter", "fusion_lat": 0.0, "lat": 38.89712316666667, "name": "6aa1eca41f773fc775edf34d52eef727", "fusion_lon": 0.0, "bike_id": "6aa1eca41f773fc775edf34d52eef727", "is_disabled": 0, "is_reserved": 0}, {"rental_uris": {"ios": "https://dc.lft.to/lastmile_qr_scan", "android": "https://dc.lft.to/lastmile_qr_scan"}, "lon": -77.02125933333333, "type": "electric_scooter", "fusion_lat": 0.0, "lat": 38.931076166666664, "name": "e229151397f8d00167b51084f8e4426a", "fusion_lon": 0.0, "bike_id": "e229151397f8d00167b51084f8e4426a", "is_disabled": 0, "is_reserved": 0}, {"rental_uris": {"ios": "https://dc.lft.to/lastmile_qr_scan", "android": "https://dc.lft.to/lastmile_qr_scan"}, "lon": -77.05883833333333, "type": "electric_scooter", "fusion_lat": 0.0, "lat": 38.936326666666666, "name": "00a9c9b955ccabdff8053f556d65ba32", "fusion_lon": 0.0, "bike_id": "00a9c9b955ccabdff8053f556d65ba32", "is_disabled": 0, "is_reserved": 0}, {"rental_uris": {"ios": "https://dc.lft.to/lastmile_qr_scan", "android": "https://dc.lft.to/lastmile_qr_scan"}, "lon": -77.04052516666667, "type": "electric_scooter", "fusion_lat": 0.0, "lat": 38.924099166666664, "name": "ab8d3b0e854a8fd3e6d90c04a14b2bb5", "fusion_lon": 0.0, "bike_id": "ab8d3b0e854a8fd3e6d90c04a14b2bb5", "is_disabled": 0, "is_reserved": 0}, {"rental_uris": {"ios": "https://dc.lft.to/lastmile_qr_scan", "android": "https://dc.lft.to/lastmile_qr_scan"}, "lon": -77.01314933333333, "type": "electric_scooter", "fusion_lat": 0.0, "lat": 38.89744316666667, "name": "a9e8c448edd9216f81c3ba887a323643", "fusion_lon": 0.0, "bike_id": "a9e8c448edd9216f81c3ba887a323643", "is_disabled": 0, "is_reserved": 0}, {"rental_uris": {"ios": "https://dc.lft.to/lastmile_qr_scan", "android": "https://dc.lft.to/lastmile_qr_scan"}, "lon": -77.02327066666666, "type": "electric_scooter", "fusion_lat": 0.0, "lat": 38.89392933333333, "name": "5c62644f39786189527ce9a32c500c93", "fusion_lon": 0.0, "bike_id": "5c62644f39786189527ce9a32c500c93", "is_disabled": 0, "is_reserved": 0}, {"rental_uris": {"ios": "https://dc.lft.to/lastmile_qr_scan", "android": "https://dc.lft.to/lastmile_qr_scan"}, "lon": -77.0219735, "type": "electric_scooter", "fusion_lat": 0.0, "lat": 38.909654833333335, "name": "e143efe981e5d020d3b899393cbfe635", "fusion_lon": 0.0, "bike_id": "e143efe981e5d020d3b899393cbfe635", "is_disabled": 0, "is_reserved": 0}, {"rental_uris": {"ios": "https://dc.lft.to/lastmile_qr_scan", "android": "https://dc.lft.to/lastmile_qr_scan"}, "lon": -77.02696466666667, "type": "electric_scooter", "fusion_lat": 0.0, "lat": 38.8953625, "name": "4b870d6594c7176f3bd8a2d8cfc96669", "fusion_lon": 0.0, "bike_id": "4b870d6594c7176f3bd8a2d8cfc96669", "is_disabled": 0, "is_reserved": 0}, {"rental_uris": {"ios": "https://dc.lft.to/lastmile_qr_scan", "android": "https://dc.lft.to/lastmile_qr_scan"}, "lon": -76.99586083333334, "type": "electric_scooter", "fusion_lat": 0.0, "lat": 38.920402833333334, "name": "edefb8b5e3518e1f451c5f6a882e66a8", "fusion_lon": 0.0, "bike_id": "edefb8b5e3518e1f451c5f6a882e66a8", "is_disabled": 0, "is_reserved": 0}, {"rental_uris": {"ios": "https://dc.lft.to/lastmile_qr_scan", "android": "https://dc.lft.to/lastmile_qr_scan"}, "lon": -77.05388983333333, "type": "electric_scooter", "fusion_lat": 0.0, "lat": 38.93528666666667, "name": "ff912c023812c7b193d8bb05b035d034", "fusion_lon": 0.0, "bike_id": "ff912c023812c7b193d8bb05b035d034", "is_disabled": 0, "is_reserved": 0}, {"rental_uris": {"ios": "https://dc.lft.to/lastmile_qr_scan", "android": "https://dc.lft.to/lastmile_qr_scan"}, "lon": -77.091356, "type": "electric_bike", "fusion_lat": 0.0, "lat": 38.8041885, "name": "8fca3375d9c875623a047aea17f6605e", "fusion_lon": 0.0, "bike_id": "8fca3375d9c875623a047aea17f6605e", "is_disabled": 0, "is_reserved": 0}, {"rental_uris": {"ios": "https://dc.lft.to/lastmile_qr_scan", "android": "https://dc.lft.to/lastmile_qr_scan"}, "lon": -76.95242483333334, "type": "electric_bike", "fusion_lat": 0.0, "lat": 38.90703083333333, "name": "189304eb1364caabe2728ee5f370e8b2", "fusion_lon": 0.0, "bike_id": "189304eb1364caabe2728ee5f370e8b2", "is_disabled": 0, "is_reserved": 0}, {"rental_uris": {"ios": "https://dc.lft.to/lastmile_qr_scan", "android": "https://dc.lft.to/lastmile_qr_scan"}, "lon": -76.979999, "type": "electric_bike", "fusion_lat": 0.0, "lat": 38.900241666666666, "name": "dd8765afb22d92a9c7ea0cff0180b179", "fusion_lon": 0.0, "bike_id": "dd8765afb22d92a9c7ea0cff0180b179", "is_disabled": 0, "is_reserved": 0}, {"rental_uris": {"ios": "https://dc.lft.to/lastmile_qr_scan", "android": "https://dc.lft.to/lastmile_qr_scan"}, "lon": -77.04416133333334, "type": "electric_scooter", "fusion_lat": 0.0, "lat": 38.91322866666667, "name": "8121ecadb6eefb257da198c7264eec74", "fusion_lon": 0.0, "bike_id": "8121ecadb6eefb257da198c7264eec74", "is_disabled": 0, "is_reserved": 0}, {"rental_uris": {"ios": "https://dc.lft.to/lastmile_qr_scan", "android": "https://dc.lft.to/lastmile_qr_scan"}, "lon": -77.040255, "type": "electric_scooter", "fusion_lat": 0.0, "lat": 38.92371466666667, "name": "c9598a694337bab3b599e002ea1b18b6", "fusion_lon": 0.0, "bike_id": "c9598a694337bab3b599e002ea1b18b6", "is_disabled": 0, "is_reserved": 0}, {"rental_uris": {"ios": "https://dc.lft.to/lastmile_qr_scan", "android": "https://dc.lft.to/lastmile_qr_scan"}, "lon": -77.07563083333334, "type": "electric_scooter", "fusion_lat": 0.0, "lat": 38.9209195, "name": "18068bdaaec45ed4be56c687c08e1645", "fusion_lon": 0.0, "bike_id": "18068bdaaec45ed4be56c687c08e1645", "is_disabled": 0, "is_reserved": 0}, {"rental_uris": {"ios": "https://dc.lft.to/lastmile_qr_scan", "android": "https://dc.lft.to/lastmile_qr_scan"}, "lon": -77.12502733333334, "type": "electric_bike", "fusion_lat": 0.0, "lat": 39.02424166666667, "name": "744efb7900415b5f8c264841cc80ed5a", "fusion_lon": 0.0, "bike_id": "744efb7900415b5f8c264841cc80ed5a", "is_disabled": 0, "is_reserved": 0}, {"rental_uris": {"ios": "https://dc.lft.to/lastmile_qr_scan", "android": "https://dc.lft.to/lastmile_qr_scan"}, "lon": -77.026315, "type": "electric_scooter", "fusion_lat": 0.0, "lat": 38.89842616666667, "name": "2cd12b42bdbbb5f4b75d61d2ef7e9e43", "fusion_lon": 0.0, "bike_id": "2cd12b42bdbbb5f4b75d61d2ef7e9e43", "is_disabled": 0, "is_reserved": 0}, {"rental_uris": {"ios": "https://dc.lft.to/lastmile_qr_scan", "android": "https://dc.lft.to/lastmile_qr_scan"}, "lon": -77.0198075, "type": "electric_bike", "fusion_lat": 0.0, "lat": 38.964777833333336, "name": "b9976fb31792ff1205b62abe421e3398", "fusion_lon": 0.0, "bike_id": "b9976fb31792ff1205b62abe421e3398", "is_disabled": 0, "is_reserved": 0}, {"rental_uris": {"ios": "https://dc.lft.to/lastmile_qr_scan", "android": "https://dc.lft.to/lastmile_qr_scan"}, "lon": -77.05509516666666, "type": "electric_scooter", "fusion_lat": 0.0, "lat": 38.929726, "name": "edb641458714532acfc0b56e1041e48f", "fusion_lon": 0.0, "bike_id": "edb641458714532acfc0b56e1041e48f", "is_disabled": 0, "is_reserved": 0}, {"rental_uris": {"ios": "https://dc.lft.to/lastmile_qr_scan", "android": "https://dc.lft.to/lastmile_qr_scan"}, "lon": -77.03076033333333, "type": "electric_scooter", "fusion_lat": 0.0, "lat": 38.907577333333336, "name": "ec3708ed875a583e84b561eb13da1055", "fusion_lon": 0.0, "bike_id": "ec3708ed875a583e84b561eb13da1055", "is_disabled": 0, "is_reserved": 0}, {"rental_uris": {"ios": "https://dc.lft.to/lastmile_qr_scan", "android": "https://dc.lft.to/lastmile_qr_scan"}, "lon": -77.032276, "type": "electric_scooter", "fusion_lat": 0.0, "lat": 38.914088, "name": "516ef14dc1e695cc72638e17249bf6e7", "fusion_lon": 0.0, "bike_id": "516ef14dc1e695cc72638e17249bf6e7", "is_disabled": 0, "is_reserved": 0}, {"rental_uris": {"ios": "https://dc.lft.to/lastmile_qr_scan", "android": "https://dc.lft.to/lastmile_qr_scan"}, "lon": -76.95758883333333, "type": "electric_scooter", "fusion_lat": 0.0, "lat": 38.884316, "name": "f0f12dd51d22ea5d2206ee428c955004", "fusion_lon": 0.0, "bike_id": "f0f12dd51d22ea5d2206ee428c955004", "is_disabled": 0, "is_reserved": 0}, {"rental_uris": {"ios": "https://dc.lft.to/lastmile_qr_scan", "android": "https://dc.lft.to/lastmile_qr_scan"}, "lon": -76.98995516666666, "type": "electric_scooter", "fusion_lat": 0.0, "lat": 38.9039305, "name": "95a78e4416950d6a2424ff85a89ed2f0", "fusion_lon": 0.0, "bike_id": "95a78e4416950d6a2424ff85a89ed2f0", "is_disabled": 0, "is_reserved": 0}, {"rental_uris": {"ios": "https://dc.lft.to/lastmile_qr_scan", "android": "https://dc.lft.to/lastmile_qr_scan"}, "lon": -77.0346745, "type": "electric_scooter", "fusion_lat": 0.0, "lat": 38.9344455, "name": "0f177e516888db924ed8028eb85ca55e", "fusion_lon": 0.0, "bike_id": "0f177e516888db924ed8028eb85ca55e", "is_disabled": 0, "is_reserved": 0}, {"rental_uris": {"ios": "https://dc.lft.to/lastmile_qr_scan", "android": "https://dc.lft.to/lastmile_qr_scan"}, "lon": -77.0429615, "type": "electric_scooter", "fusion_lat": 0.0, "lat": 38.906510833333336, "name": "171f7fd5d12368cb5508ecb92e4c2f15", "fusion_lon": 0.0, "bike_id": "171f7fd5d12368cb5508ecb92e4c2f15", "is_disabled": 0, "is_reserved": 0}, {"rental_uris": {"ios": "https://dc.lft.to/lastmile_qr_scan", "android": "https://dc.lft.to/lastmile_qr_scan"}, "lon": -76.995506, "type": "electric_scooter", "fusion_lat": 0.0, "lat": 38.86233816666667, "name": "ff5f12ea540412a2607f73f633c2494d", "fusion_lon": 0.0, "bike_id": "ff5f12ea540412a2607f73f633c2494d", "is_disabled": 0, "is_reserved": 0}, {"rental_uris": {"ios": "https://dc.lft.to/lastmile_qr_scan", "android": "https://dc.lft.to/lastmile_qr_scan"}, "lon": -77.0320595, "type": "electric_scooter", "fusion_lat": 0.0, "lat": 38.91458383333333, "name": "e81238579f6c063a5cf28d796832a823", "fusion_lon": 0.0, "bike_id": "e81238579f6c063a5cf28d796832a823", "is_disabled": 0, "is_reserved": 0}, {"rental_uris": {"ios": "https://dc.lft.to/lastmile_qr_scan", "android": "https://dc.lft.to/lastmile_qr_scan"}, "lon": -77.01013283333333, "type": "electric_scooter", "fusion_lat": 0.0, "lat": 38.918087166666666, "name": "ef5007941f1f8852b81ba38607bd4a40", "fusion_lon": 0.0, "bike_id": "ef5007941f1f8852b81ba38607bd4a40", "is_disabled": 0, "is_reserved": 0}, {"rental_uris": {"ios": "https://dc.lft.to/lastmile_qr_scan", "android": "https://dc.lft.to/lastmile_qr_scan"}, "lon": -77.01990233333333, "type": "electric_scooter", "fusion_lat": 0.0, "lat": 38.937824166666665, "name": "c8fb72bc24a2d19c515c5f6f288232fb", "fusion_lon": 0.0, "bike_id": "c8fb72bc24a2d19c515c5f6f288232fb", "is_disabled": 0, "is_reserved": 0}, {"rental_uris": {"ios": "https://dc.lft.to/lastmile_qr_scan", "android": "https://dc.lft.to/lastmile_qr_scan"}, "lon": -76.98305583333334, "type": "electric_scooter", "fusion_lat": 0.0, "lat": 38.8997325, "name": "dcde0098a10c9b7741fc8ec3870f1408", "fusion_lon": 0.0, "bike_id": "dcde0098a10c9b7741fc8ec3870f1408", "is_disabled": 0, "is_reserved": 0}, {"rental_uris": {"ios": "https://dc.lft.to/lastmile_qr_scan", "android": "https://dc.lft.to/lastmile_qr_scan"}, "lon": -77.06468816666667, "type": "electric_scooter", "fusion_lat": 0.0, "lat": 38.905207, "name": "1223711081a3bde54db5166ca6961c4e", "fusion_lon": 0.0, "bike_id": "1223711081a3bde54db5166ca6961c4e", "is_disabled": 0, "is_reserved": 0}, {"rental_uris": {"ios": "https://dc.lft.to/lastmile_qr_scan", "android": "https://dc.lft.to/lastmile_qr_scan"}, "lon": -77.0314305, "type": "electric_scooter", "fusion_lat": 0.0, "lat": 38.912707833333336, "name": "afc4e5c705e82f71327b9987de57fc4c", "fusion_lon": 0.0, "bike_id": "afc4e5c705e82f71327b9987de57fc4c", "is_disabled": 0, "is_reserved": 0}, {"rental_uris": {"ios": "https://dc.lft.to/lastmile_qr_scan", "android": "https://dc.lft.to/lastmile_qr_scan"}, "lon": -77.0010595, "type": "electric_scooter", "fusion_lat": 0.0, "lat": 38.8943195, "name": "323c316f334bb3e7ff5f6a81395e8be9", "fusion_lon": 0.0, "bike_id": "323c316f334bb3e7ff5f6a81395e8be9", "is_disabled": 0, "is_reserved": 0}, {"rental_uris": {"ios": "https://dc.lft.to/lastmile_qr_scan", "android": "https://dc.lft.to/lastmile_qr_scan"}, "lon": -77.0220145, "type": "electric_scooter", "fusion_lat": 0.0, "lat": 38.914832, "name": "c5004a2182eab5560be08d93151656ed", "fusion_lon": 0.0, "bike_id": "c5004a2182eab5560be08d93151656ed", "is_disabled": 0, "is_reserved": 0}, {"rental_uris": {"ios": "https://dc.lft.to/lastmile_qr_scan", "android": "https://dc.lft.to/lastmile_qr_scan"}, "lon": -77.0735765, "type": "electric_scooter", "fusion_lat": 0.0, "lat": 38.93736233333333, "name": "ecc4fab6090aad25c8a4ee7401c9de48", "fusion_lon": 0.0, "bike_id": "ecc4fab6090aad25c8a4ee7401c9de48", "is_disabled": 0, "is_reserved": 0}, {"rental_uris": {"ios": "https://dc.lft.to/lastmile_qr_scan", "android": "https://dc.lft.to/lastmile_qr_scan"}, "lon": -77.066052, "type": "electric_scooter", "fusion_lat": 0.0, "lat": 38.905406666666664, "name": "aaf6456f599df210ba5b4234c1e8d239", "fusion_lon": 0.0, "bike_id": "aaf6456f599df210ba5b4234c1e8d239", "is_disabled": 0, "is_reserved": 0}, {"rental_uris": {"ios": "https://dc.lft.to/lastmile_qr_scan", "android": "https://dc.lft.to/lastmile_qr_scan"}, "lon": -76.96522583333334, "type": "electric_scooter", "fusion_lat": 0.0, "lat": 38.876267166666665, "name": "b236c059498c728e135f2ac95536373a", "fusion_lon": 0.0, "bike_id": "b236c059498c728e135f2ac95536373a", "is_disabled": 0, "is_reserved": 0}, {"rental_uris": {"ios": "https://dc.lft.to/lastmile_qr_scan", "android": "https://dc.lft.to/lastmile_qr_scan"}, "lon": -77.02926633333334, "type": "electric_scooter", "fusion_lat": 0.0, "lat": 38.882181833333334, "name": "96991ed0fe920f5a4fe424e1cd98141c", "fusion_lon": 0.0, "bike_id": "96991ed0fe920f5a4fe424e1cd98141c", "is_disabled": 0, "is_reserved": 0}, {"rental_uris": {"ios": "https://dc.lft.to/lastmile_qr_scan", "android": "https://dc.lft.to/lastmile_qr_scan"}, "lon": -77.01795133333333, "type": "electric_bike", "fusion_lat": 0.0, "lat": 38.902803666666664, "name": "2d95958f694209dad8ed40a52599f843", "fusion_lon": 0.0, "bike_id": "2d95958f694209dad8ed40a52599f843", "is_disabled": 0, "is_reserved": 0}, {"rental_uris": {"ios": "https://dc.lft.to/lastmile_qr_scan", "android": "https://dc.lft.to/lastmile_qr_scan"}, "lon": -76.99742383333333, "type": "electric_scooter", "fusion_lat": 0.0, "lat": 38.909318166666665, "name": "cc88abbe544ed2845d7d014439db6cd3", "fusion_lon": 0.0, "bike_id": "cc88abbe544ed2845d7d014439db6cd3", "is_disabled": 0, "is_reserved": 0}, {"rental_uris": {"ios": "https://dc.lft.to/lastmile_qr_scan", "android": "https://dc.lft.to/lastmile_qr_scan"}, "lon": -77.01870366666667, "type": "electric_scooter", "fusion_lat": 0.0, "lat": 38.94892433333333, "name": "e5eb1564af86c315427eebf282e6a0d5", "fusion_lon": 0.0, "bike_id": "e5eb1564af86c315427eebf282e6a0d5", "is_disabled": 0, "is_reserved": 0}, {"rental_uris": {"ios": "https://dc.lft.to/lastmile_qr_scan", "android": "https://dc.lft.to/lastmile_qr_scan"}, "lon": -77.04779966666666, "type": "electric_scooter", "fusion_lat": 0.0, "lat": 38.89778666666667, "name": "04327ec48770c68261ac785e1aefcecb", "fusion_lon": 0.0, "bike_id": "04327ec48770c68261ac785e1aefcecb", "is_disabled": 0, "is_reserved": 0}, {"rental_uris": {"ios": "https://dc.lft.to/lastmile_qr_scan", "android": "https://dc.lft.to/lastmile_qr_scan"}, "lon": -77.04605566666666, "type": "electric_scooter", "fusion_lat": 0.0, "lat": 38.902587833333335, "name": "7c9f5d47f73602d044bf200726ad4fa5", "fusion_lon": 0.0, "bike_id": "7c9f5d47f73602d044bf200726ad4fa5", "is_disabled": 0, "is_reserved": 0}, {"rental_uris": {"ios": "https://dc.lft.to/lastmile_qr_scan", "android": "https://dc.lft.to/lastmile_qr_scan"}, "lon": -77.02211833333334, "type": "electric_scooter", "fusion_lat": 0.0, "lat": 38.91549, "name": "9ec1c3ada4b85abd90888adfc3580dc1", "fusion_lon": 0.0, "bike_id": "9ec1c3ada4b85abd90888adfc3580dc1", "is_disabled": 0, "is_reserved": 0}, {"rental_uris": {"ios": "https://dc.lft.to/lastmile_qr_scan", "android": "https://dc.lft.to/lastmile_qr_scan"}, "lon": -77.10088383333333, "type": "electric_bike", "fusion_lat": 0.0, "lat": 38.95955766666667, "name": "6ce666046db773c1ed9e2e1bc5fbb906", "fusion_lon": 0.0, "bike_id": "6ce666046db773c1ed9e2e1bc5fbb906", "is_disabled": 0, "is_reserved": 0}, {"rental_uris": {"ios": "https://dc.lft.to/lastmile_qr_scan", "android": "https://dc.lft.to/lastmile_qr_scan"}, "lon": -76.98492016666667, "type": "electric_scooter", "fusion_lat": 0.0, "lat": 38.860457, "name": "9d9e2473935f1a781013fe15b829c4f6", "fusion_lon": 0.0, "bike_id": "9d9e2473935f1a781013fe15b829c4f6", "is_disabled": 0, "is_reserved": 0}, {"rental_uris": {"ios": "https://dc.lft.to/lastmile_qr_scan", "android": "https://dc.lft.to/lastmile_qr_scan"}, "lon": -76.995105, "type": "electric_scooter", "fusion_lat": 0.0, "lat": 38.84469133333333, "name": "4ff94f7885aa0e5f330b253d98efc800", "fusion_lon": 0.0, "bike_id": "4ff94f7885aa0e5f330b253d98efc800", "is_disabled": 0, "is_reserved": 0}, {"rental_uris": {"ios": "https://dc.lft.to/lastmile_qr_scan", "android": "https://dc.lft.to/lastmile_qr_scan"}, "lon": -77.0517115, "type": "electric_scooter", "fusion_lat": 0.0, "lat": 38.92421066666667, "name": "28f56970d7940c0e7bdf84d907165741", "fusion_lon": 0.0, "bike_id": "28f56970d7940c0e7bdf84d907165741", "is_disabled": 0, "is_reserved": 0}, {"rental_uris": {"ios": "https://dc.lft.to/lastmile_qr_scan", "android": "https://dc.lft.to/lastmile_qr_scan"}, "lon": -76.97884916666666, "type": "electric_scooter", "fusion_lat": 0.0, "lat": 38.904207666666665, "name": "b6e569426aa1ffeb8ac5b3a19215520c", "fusion_lon": 0.0, "bike_id": "b6e569426aa1ffeb8ac5b3a19215520c", "is_disabled": 0, "is_reserved": 0}, {"rental_uris": {"ios": "https://dc.lft.to/lastmile_qr_scan", "android": "https://dc.lft.to/lastmile_qr_scan"}, "lon": -77.03324216666667, "type": "electric_scooter", "fusion_lat": 0.0, "lat": 38.897631833333335, "name": "cabe81865d09f3a6ae9be9e1d38307a6", "fusion_lon": 0.0, "bike_id": "cabe81865d09f3a6ae9be9e1d38307a6", "is_disabled": 0, "is_reserved": 0}, {"rental_uris": {"ios": "https://dc.lft.to/lastmile_qr_scan", "android": "https://dc.lft.to/lastmile_qr_scan"}, "lon": -76.98837183333333, "type": "electric_bike", "fusion_lat": 0.0, "lat": 38.84269616666667, "name": "31afd6ebaa666c77db5438dd4b7d51eb", "fusion_lon": 0.0, "bike_id": "31afd6ebaa666c77db5438dd4b7d51eb", "is_disabled": 0, "is_reserved": 0}, {"rental_uris": {"ios": "https://dc.lft.to/lastmile_qr_scan", "android": "https://dc.lft.to/lastmile_qr_scan"}, "lon": -77.0500265, "type": "electric_scooter", "fusion_lat": 0.0, "lat": 38.892309, "name": "3d1b321804487434dfb46250c335d21e", "fusion_lon": 0.0, "bike_id": "3d1b321804487434dfb46250c335d21e", "is_disabled": 0, "is_reserved": 0}, {"rental_uris": {"ios": "https://dc.lft.to/lastmile_qr_scan", "android": "https://dc.lft.to/lastmile_qr_scan"}, "lon": -76.99533516666666, "type": "electric_scooter", "fusion_lat": 0.0, "lat": 38.926682666666665, "name": "800fe1f42512061e54eb9c83de7647fa", "fusion_lon": 0.0, "bike_id": "800fe1f42512061e54eb9c83de7647fa", "is_disabled": 0, "is_reserved": 0}, {"rental_uris": {"ios": "https://dc.lft.to/lastmile_qr_scan", "android": "https://dc.lft.to/lastmile_qr_scan"}, "lon": -77.05504166666667, "type": "electric_scooter", "fusion_lat": 0.0, "lat": 38.929808333333334, "name": "f26be3154ddec6be8f833f38ebf54f6c", "fusion_lon": 0.0, "bike_id": "f26be3154ddec6be8f833f38ebf54f6c", "is_disabled": 0, "is_reserved": 0}, {"rental_uris": {"ios": "https://dc.lft.to/lastmile_qr_scan", "android": "https://dc.lft.to/lastmile_qr_scan"}, "lon": -77.01392233333333, "type": "electric_scooter", "fusion_lat": 0.0, "lat": 38.97012933333333, "name": "a916dbd4370364127ad46b33fcc583c7", "fusion_lon": 0.0, "bike_id": "a916dbd4370364127ad46b33fcc583c7", "is_disabled": 0, "is_reserved": 0}, {"rental_uris": {"ios": "https://dc.lft.to/lastmile_qr_scan", "android": "https://dc.lft.to/lastmile_qr_scan"}, "lon": -76.98564716666667, "type": "electric_scooter", "fusion_lat": 0.0, "lat": 38.89205533333333, "name": "e72b108a2c2e55efa64b282e23317504", "fusion_lon": 0.0, "bike_id": "e72b108a2c2e55efa64b282e23317504", "is_disabled": 0, "is_reserved": 0}, {"rental_uris": {"ios": "https://dc.lft.to/lastmile_qr_scan", "android": "https://dc.lft.to/lastmile_qr_scan"}, "lon": -77.03164283333334, "type": "electric_scooter", "fusion_lat": 0.0, "lat": 38.915610666666666, "name": "5d331ac7887b2851420679502eb48288", "fusion_lon": 0.0, "bike_id": "5d331ac7887b2851420679502eb48288", "is_disabled": 0, "is_reserved": 0}, {"rental_uris": {"ios": "https://dc.lft.to/lastmile_qr_scan", "android": "https://dc.lft.to/lastmile_qr_scan"}, "lon": -76.92996066666667, "type": "electric_bike", "fusion_lat": 0.0, "lat": 38.887959333333335, "name": "5be909a2bea0fb343e0ef5b07056629a", "fusion_lon": 0.0, "bike_id": "5be909a2bea0fb343e0ef5b07056629a", "is_disabled": 0, "is_reserved": 0}, {"rental_uris": {"ios": "https://dc.lft.to/lastmile_qr_scan", "android": "https://dc.lft.to/lastmile_qr_scan"}, "lon": -77.07943516666667, "type": "electric_scooter", "fusion_lat": 0.0, "lat": 38.948722833333335, "name": "80091d0814e12e8dea85e60d195bc336", "fusion_lon": 0.0, "bike_id": "80091d0814e12e8dea85e60d195bc336", "is_disabled": 0, "is_reserved": 0}, {"rental_uris": {"ios": "https://dc.lft.to/lastmile_qr_scan", "android": "https://dc.lft.to/lastmile_qr_scan"}, "lon": -77.04928116666666, "type": "electric_scooter", "fusion_lat": 0.0, "lat": 38.8960715, "name": "b31c588633317316a26fcbc85ecffe30", "fusion_lon": 0.0, "bike_id": "b31c588633317316a26fcbc85ecffe30", "is_disabled": 0, "is_reserved": 0}, {"rental_uris": {"ios": "https://dc.lft.to/lastmile_qr_scan", "android": "https://dc.lft.to/lastmile_qr_scan"}, "lon": -77.02574866666667, "type": "electric_scooter", "fusion_lat": 0.0, "lat": 38.89606083333334, "name": "f694b7941d2d04fa92ce0d0b9f028838", "fusion_lon": 0.0, "bike_id": "f694b7941d2d04fa92ce0d0b9f028838", "is_disabled": 0, "is_reserved": 0}, {"rental_uris": {"ios": "https://dc.lft.to/lastmile_qr_scan", "android": "https://dc.lft.to/lastmile_qr_scan"}, "lon": -77.00713766666667, "type": "electric_scooter", "fusion_lat": 0.0, "lat": 38.9134195, "name": "798afdb29404b57a2f5835ab87517d6b", "fusion_lon": 0.0, "bike_id": "798afdb29404b57a2f5835ab87517d6b", "is_disabled": 0, "is_reserved": 0}, {"rental_uris": {"ios": "https://dc.lft.to/lastmile_qr_scan", "android": "https://dc.lft.to/lastmile_qr_scan"}, "lon": -77.052901, "type": "electric_scooter", "fusion_lat": 0.0, "lat": 38.910117, "name": "4db17d30d4977f03ced3ea5fdee20a28", "fusion_lon": 0.0, "bike_id": "4db17d30d4977f03ced3ea5fdee20a28", "is_disabled": 0, "is_reserved": 0}, {"rental_uris": {"ios": "https://dc.lft.to/lastmile_qr_scan", "android": "https://dc.lft.to/lastmile_qr_scan"}, "lon": -77.015923, "type": "electric_scooter", "fusion_lat": 0.0, "lat": 38.896201166666664, "name": "c6e1afd97aa7510fb689632ea031b4a2", "fusion_lon": 0.0, "bike_id": "c6e1afd97aa7510fb689632ea031b4a2", "is_disabled": 0, "is_reserved": 0}, {"rental_uris": {"ios": "https://dc.lft.to/lastmile_qr_scan", "android": "https://dc.lft.to/lastmile_qr_scan"}, "lon": -77.00297316666666, "type": "electric_scooter", "fusion_lat": 0.0, "lat": 38.909132666666665, "name": "7e74331d5974b64aae280a6ed68c462a", "fusion_lon": 0.0, "bike_id": "7e74331d5974b64aae280a6ed68c462a", "is_disabled": 0, "is_reserved": 0}, {"rental_uris": {"ios": "https://dc.lft.to/lastmile_qr_scan", "android": "https://dc.lft.to/lastmile_qr_scan"}, "lon": -76.939587, "type": "electric_scooter", "fusion_lat": 0.0, "lat": 38.89415866666667, "name": "d3ad5de0e78bbdb3a9a1db0a9513b3ee", "fusion_lon": 0.0, "bike_id": "d3ad5de0e78bbdb3a9a1db0a9513b3ee", "is_disabled": 0, "is_reserved": 0}, {"rental_uris": {"ios": "https://dc.lft.to/lastmile_qr_scan", "android": "https://dc.lft.to/lastmile_qr_scan"}, "lon": -77.05330633333334, "type": "electric_bike", "fusion_lat": 0.0, "lat": 38.90526533333333, "name": "652e527ea42d4a6a18ffe31e755920c4", "fusion_lon": 0.0, "bike_id": "652e527ea42d4a6a18ffe31e755920c4", "is_disabled": 0, "is_reserved": 0}, {"rental_uris": {"ios": "https://dc.lft.to/lastmile_qr_scan", "android": "https://dc.lft.to/lastmile_qr_scan"}, "lon": -76.97406983333333, "type": "electric_scooter", "fusion_lat": 0.0, "lat": 38.901573166666665, "name": "ae8c2857d677cd114e01d0bbf42261c1", "fusion_lon": 0.0, "bike_id": "ae8c2857d677cd114e01d0bbf42261c1", "is_disabled": 0, "is_reserved": 0}, {"rental_uris": {"ios": "https://dc.lft.to/lastmile_qr_scan", "android": "https://dc.lft.to/lastmile_qr_scan"}, "lon": -77.021823, "type": "electric_scooter", "fusion_lat": 0.0, "lat": 38.91489766666667, "name": "5a08b17d7d1c6b9bf8116e4d275be6bd", "fusion_lon": 0.0, "bike_id": "5a08b17d7d1c6b9bf8116e4d275be6bd", "is_disabled": 0, "is_reserved": 0}, {"rental_uris": {"ios": "https://dc.lft.to/lastmile_qr_scan", "android": "https://dc.lft.to/lastmile_qr_scan"}, "lon": -77.039467, "type": "electric_scooter", "fusion_lat": 0.0, "lat": 38.900591166666665, "name": "5e1a417ecbb937e7f2783f410bd0a272", "fusion_lon": 0.0, "bike_id": "5e1a417ecbb937e7f2783f410bd0a272", "is_disabled": 0, "is_reserved": 0}, {"rental_uris": {"ios": "https://dc.lft.to/lastmile_qr_scan", "android": "https://dc.lft.to/lastmile_qr_scan"}, "lon": -76.93718333333334, "type": "electric_scooter", "fusion_lat": 0.0, "lat": 38.89589566666667, "name": "ae47aa099d86f7bf22e915b44e08413f", "fusion_lon": 0.0, "bike_id": "ae47aa099d86f7bf22e915b44e08413f", "is_disabled": 0, "is_reserved": 0}, {"rental_uris": {"ios": "https://dc.lft.to/lastmile_qr_scan", "android": "https://dc.lft.to/lastmile_qr_scan"}, "lon": -77.03971066666666, "type": "electric_scooter", "fusion_lat": 0.0, "lat": 38.90363966666666, "name": "1489bd62340b42dc467a717a8dea069f", "fusion_lon": 0.0, "bike_id": "1489bd62340b42dc467a717a8dea069f", "is_disabled": 0, "is_reserved": 0}, {"rental_uris": {"ios": "https://dc.lft.to/lastmile_qr_scan", "android": "https://dc.lft.to/lastmile_qr_scan"}, "lon": -77.04177133333333, "type": "electric_scooter", "fusion_lat": 0.0, "lat": 38.917663, "name": "4316c58d7718e2fd4e8169d2dd6fdd1c", "fusion_lon": 0.0, "bike_id": "4316c58d7718e2fd4e8169d2dd6fdd1c", "is_disabled": 0, "is_reserved": 0}, {"rental_uris": {"ios": "https://dc.lft.to/lastmile_qr_scan", "android": "https://dc.lft.to/lastmile_qr_scan"}, "lon": -77.00246966666667, "type": "electric_scooter", "fusion_lat": 0.0, "lat": 38.911738, "name": "c13633113c124f3a7c1b1623d9e990d7", "fusion_lon": 0.0, "bike_id": "c13633113c124f3a7c1b1623d9e990d7", "is_disabled": 0, "is_reserved": 0}, {"rental_uris": {"ios": "https://dc.lft.to/lastmile_qr_scan", "android": "https://dc.lft.to/lastmile_qr_scan"}, "lon": -77.04895016666667, "type": "electric_scooter", "fusion_lat": 0.0, "lat": 38.89001616666667, "name": "1cbd223ba953508666f10f7074418c89", "fusion_lon": 0.0, "bike_id": "1cbd223ba953508666f10f7074418c89", "is_disabled": 0, "is_reserved": 0}, {"rental_uris": {"ios": "https://dc.lft.to/lastmile_qr_scan", "android": "https://dc.lft.to/lastmile_qr_scan"}, "lon": -77.04182616666667, "type": "electric_scooter", "fusion_lat": 0.0, "lat": 38.90539833333333, "name": "2253c7aba7797165d90c58def54d35fb", "fusion_lon": 0.0, "bike_id": "2253c7aba7797165d90c58def54d35fb", "is_disabled": 0, "is_reserved": 0}, {"rental_uris": {"ios": "https://dc.lft.to/lastmile_qr_scan", "android": "https://dc.lft.to/lastmile_qr_scan"}, "lon": -76.9749205, "type": "electric_bike", "fusion_lat": 0.0, "lat": 38.9200705, "name": "1f45bdeceb7a6a379f2834c05f469eb2", "fusion_lon": 0.0, "bike_id": "1f45bdeceb7a6a379f2834c05f469eb2", "is_disabled": 0, "is_reserved": 0}, {"rental_uris": {"ios": "https://dc.lft.to/lastmile_qr_scan", "android": "https://dc.lft.to/lastmile_qr_scan"}, "lon": -77.041107, "type": "electric_scooter", "fusion_lat": 0.0, "lat": 38.924465833333336, "name": "372d02dc605b64614f9393be9da7c57e", "fusion_lon": 0.0, "bike_id": "372d02dc605b64614f9393be9da7c57e", "is_disabled": 0, "is_reserved": 0}, {"rental_uris": {"ios": "https://dc.lft.to/lastmile_qr_scan", "android": "https://dc.lft.to/lastmile_qr_scan"}, "lon": -77.03464016666666, "type": "electric_scooter", "fusion_lat": 0.0, "lat": 38.912657, "name": "260d0f97a06bd2f81e5dfb0e8244a447", "fusion_lon": 0.0, "bike_id": "260d0f97a06bd2f81e5dfb0e8244a447", "is_disabled": 0, "is_reserved": 0}, {"rental_uris": {"ios": "https://dc.lft.to/lastmile_qr_scan", "android": "https://dc.lft.to/lastmile_qr_scan"}, "lon": -77.03347, "type": "electric_scooter", "fusion_lat": 0.0, "lat": 38.91184116666667, "name": "e2d4123b1d8f5523b75991f252c4c470", "fusion_lon": 0.0, "bike_id": "e2d4123b1d8f5523b75991f252c4c470", "is_disabled": 0, "is_reserved": 0}, {"rental_uris": {"ios": "https://dc.lft.to/lastmile_qr_scan", "android": "https://dc.lft.to/lastmile_qr_scan"}, "lon": -76.97613683333333, "type": "electric_scooter", "fusion_lat": 0.0, "lat": 38.903862333333336, "name": "8b217ac668c67cc8bab9c92c3092d67c", "fusion_lon": 0.0, "bike_id": "8b217ac668c67cc8bab9c92c3092d67c", "is_disabled": 0, "is_reserved": 0}, {"rental_uris": {"ios": "https://dc.lft.to/lastmile_qr_scan", "android": "https://dc.lft.to/lastmile_qr_scan"}, "lon": -76.94635966666667, "type": "electric_scooter", "fusion_lat": 0.0, "lat": 38.898364666666666, "name": "0679bd3588bf3ff16a90e4c8ea8d5a29", "fusion_lon": 0.0, "bike_id": "0679bd3588bf3ff16a90e4c8ea8d5a29", "is_disabled": 0, "is_reserved": 0}, {"rental_uris": {"ios": "https://dc.lft.to/lastmile_qr_scan", "android": "https://dc.lft.to/lastmile_qr_scan"}, "lon": -77.1073255, "type": "electric_bike", "fusion_lat": 0.0, "lat": 38.85524266666667, "name": "b0b617407168686eba3264dff3b36f3b", "fusion_lon": 0.0, "bike_id": "b0b617407168686eba3264dff3b36f3b", "is_disabled": 0, "is_reserved": 0}, {"rental_uris": {"ios": "https://dc.lft.to/lastmile_qr_scan", "android": "https://dc.lft.to/lastmile_qr_scan"}, "lon": -77.0378225, "type": "electric_scooter", "fusion_lat": 0.0, "lat": 38.92620016666667, "name": "e9986b5afcefb2f1ed9391a0f4cab1c1", "fusion_lon": 0.0, "bike_id": "e9986b5afcefb2f1ed9391a0f4cab1c1", "is_disabled": 0, "is_reserved": 0}, {"rental_uris": {"ios": "https://dc.lft.to/lastmile_qr_scan", "android": "https://dc.lft.to/lastmile_qr_scan"}, "lon": -77.03851616666667, "type": "electric_scooter", "fusion_lat": 0.0, "lat": 38.9174695, "name": "c2f95a57ead868634e56b68b3d7e1b57", "fusion_lon": 0.0, "bike_id": "c2f95a57ead868634e56b68b3d7e1b57", "is_disabled": 0, "is_reserved": 0}, {"rental_uris": {"ios": "https://dc.lft.to/lastmile_qr_scan", "android": "https://dc.lft.to/lastmile_qr_scan"}, "lon": -76.9774245, "type": "electric_scooter", "fusion_lat": 0.0, "lat": 38.900086, "name": "5de7599739df71b92893ff5774d5e7b1", "fusion_lon": 0.0, "bike_id": "5de7599739df71b92893ff5774d5e7b1", "is_disabled": 0, "is_reserved": 0}, {"rental_uris": {"ios": "https://dc.lft.to/lastmile_qr_scan", "android": "https://dc.lft.to/lastmile_qr_scan"}, "lon": -76.87813083333333, "type": "electric_bike", "fusion_lat": 0.0, "lat": 38.99238283333333, "name": "aa8f4dc20433a1341b658302fd8b6070", "fusion_lon": 0.0, "bike_id": "aa8f4dc20433a1341b658302fd8b6070", "is_disabled": 0, "is_reserved": 0}, {"rental_uris": {"ios": "https://dc.lft.to/lastmile_qr_scan", "android": "https://dc.lft.to/lastmile_qr_scan"}, "lon": -76.9575635, "type": "electric_bike", "fusion_lat": 0.0, "lat": 38.88418716666666, "name": "ddf1589f680e36ac473fb4cb4df75ce3", "fusion_lon": 0.0, "bike_id": "ddf1589f680e36ac473fb4cb4df75ce3", "is_disabled": 0, "is_reserved": 0}, {"rental_uris": {"ios": "https://dc.lft.to/lastmile_qr_scan", "android": "https://dc.lft.to/lastmile_qr_scan"}, "lon": -77.02044416666666, "type": "electric_scooter", "fusion_lat": 0.0, "lat": 38.901740333333336, "name": "4eecaec2081334241b2b5931c86ab1a0", "fusion_lon": 0.0, "bike_id": "4eecaec2081334241b2b5931c86ab1a0", "is_disabled": 0, "is_reserved": 0}, {"rental_uris": {"ios": "https://dc.lft.to/lastmile_qr_scan", "android": "https://dc.lft.to/lastmile_qr_scan"}, "lon": -77.01980883333333, "type": "electric_scooter", "fusion_lat": 0.0, "lat": 38.885926166666664, "name": "4043f1ec1be39d405fc6bf8a433bec7b", "fusion_lon": 0.0, "bike_id": "4043f1ec1be39d405fc6bf8a433bec7b", "is_disabled": 0, "is_reserved": 0}, {"rental_uris": {"ios": "https://dc.lft.to/lastmile_qr_scan", "android": "https://dc.lft.to/lastmile_qr_scan"}, "lon": -77.0249985, "type": "electric_scooter", "fusion_lat": 0.0, "lat": 38.89745766666667, "name": "2f91732a93a01d53c6ffa7ea4969bffc", "fusion_lon": 0.0, "bike_id": "2f91732a93a01d53c6ffa7ea4969bffc", "is_disabled": 0, "is_reserved": 0}, {"rental_uris": {"ios": "https://dc.lft.to/lastmile_qr_scan", "android": "https://dc.lft.to/lastmile_qr_scan"}, "lon": -77.12373116666667, "type": "electric_bike", "fusion_lat": 0.0, "lat": 38.84739483333333, "name": "c689f40df1c4440fb98f4d803bb20c98", "fusion_lon": 0.0, "bike_id": "c689f40df1c4440fb98f4d803bb20c98", "is_disabled": 0, "is_reserved": 0}, {"rental_uris": {"ios": "https://dc.lft.to/lastmile_qr_scan", "android": "https://dc.lft.to/lastmile_qr_scan"}, "lon": -77.03279566666667, "type": "electric_scooter", "fusion_lat": 0.0, "lat": 38.929065333333334, "name": "3f89cefc0e73ee56075b9ae7c1d49b25", "fusion_lon": 0.0, "bike_id": "3f89cefc0e73ee56075b9ae7c1d49b25", "is_disabled": 0, "is_reserved": 0}, {"rental_uris": {"ios": "https://dc.lft.to/lastmile_qr_scan", "android": "https://dc.lft.to/lastmile_qr_scan"}, "lon": -76.9883525, "type": "electric_scooter", "fusion_lat": 0.0, "lat": 38.880235166666665, "name": "030db5def41433dd2d08c0980622129e", "fusion_lon": 0.0, "bike_id": "030db5def41433dd2d08c0980622129e", "is_disabled": 0, "is_reserved": 0}, {"rental_uris": {"ios": "https://dc.lft.to/lastmile_qr_scan", "android": "https://dc.lft.to/lastmile_qr_scan"}, "lon": -77.02735866666667, "type": "electric_scooter", "fusion_lat": 0.0, "lat": 38.894913833333334, "name": "6cec54e35af0163873cdbc2ea2cb61e2", "fusion_lon": 0.0, "bike_id": "6cec54e35af0163873cdbc2ea2cb61e2", "is_disabled": 0, "is_reserved": 0}, {"rental_uris": {"ios": "https://dc.lft.to/lastmile_qr_scan", "android": "https://dc.lft.to/lastmile_qr_scan"}, "lon": -77.0239725, "type": "electric_scooter", "fusion_lat": 0.0, "lat": 38.884667, "name": "0f42cb0d7623836e63116e3b9fcf7354", "fusion_lon": 0.0, "bike_id": "0f42cb0d7623836e63116e3b9fcf7354", "is_disabled": 0, "is_reserved": 0}, {"rental_uris": {"ios": "https://dc.lft.to/lastmile_qr_scan", "android": "https://dc.lft.to/lastmile_qr_scan"}, "lon": -77.04473, "type": "electric_scooter", "fusion_lat": 0.0, "lat": 38.900780166666664, "name": "66aff8196eab03548c7d67f9b0f8bec1", "fusion_lon": 0.0, "bike_id": "66aff8196eab03548c7d67f9b0f8bec1", "is_disabled": 0, "is_reserved": 0}, {"rental_uris": {"ios": "https://dc.lft.to/lastmile_qr_scan", "android": "https://dc.lft.to/lastmile_qr_scan"}, "lon": -77.07060816666667, "type": "electric_scooter", "fusion_lat": 0.0, "lat": 38.901121833333335, "name": "32543b0015f5904902c781a72956960c", "fusion_lon": 0.0, "bike_id": "32543b0015f5904902c781a72956960c", "is_disabled": 0, "is_reserved": 0}, {"rental_uris": {"ios": "https://dc.lft.to/lastmile_qr_scan", "android": "https://dc.lft.to/lastmile_qr_scan"}, "lon": -77.033555, "type": "electric_scooter", "fusion_lat": 0.0, "lat": 38.89966916666667, "name": "7322b6547626a3207837e9a57d9bbf55", "fusion_lon": 0.0, "bike_id": "7322b6547626a3207837e9a57d9bbf55", "is_disabled": 0, "is_reserved": 0}, {"rental_uris": {"ios": "https://dc.lft.to/lastmile_qr_scan", "android": "https://dc.lft.to/lastmile_qr_scan"}, "lon": -77.00544733333334, "type": "electric_scooter", "fusion_lat": 0.0, "lat": 38.87456383333333, "name": "bbca0b300811c97ef2115a757e378ae5", "fusion_lon": 0.0, "bike_id": "bbca0b300811c97ef2115a757e378ae5", "is_disabled": 0, "is_reserved": 0}, {"rental_uris": {"ios": "https://dc.lft.to/lastmile_qr_scan", "android": "https://dc.lft.to/lastmile_qr_scan"}, "lon": -77.01774416666666, "type": "electric_scooter", "fusion_lat": 0.0, "lat": 38.88716016666667, "name": "4c5a6112e1406a5a6ef853afe5d304d9", "fusion_lon": 0.0, "bike_id": "4c5a6112e1406a5a6ef853afe5d304d9", "is_disabled": 0, "is_reserved": 0}, {"rental_uris": {"ios": "https://dc.lft.to/lastmile_qr_scan", "android": "https://dc.lft.to/lastmile_qr_scan"}, "lon": -77.05495366666666, "type": "electric_scooter", "fusion_lat": 0.0, "lat": 38.899151, "name": "1ceb25aac27050cb022b65af394412cd", "fusion_lon": 0.0, "bike_id": "1ceb25aac27050cb022b65af394412cd", "is_disabled": 0, "is_reserved": 0}, {"rental_uris": {"ios": "https://dc.lft.to/lastmile_qr_scan", "android": "https://dc.lft.to/lastmile_qr_scan"}, "lon": -77.055026, "type": "electric_scooter", "fusion_lat": 0.0, "lat": 38.92976683333333, "name": "5c5111d1f7d46176753f8c2f168d8358", "fusion_lon": 0.0, "bike_id": "5c5111d1f7d46176753f8c2f168d8358", "is_disabled": 0, "is_reserved": 0}, {"rental_uris": {"ios": "https://dc.lft.to/lastmile_qr_scan", "android": "https://dc.lft.to/lastmile_qr_scan"}, "lon": -76.93369616666666, "type": "electric_scooter", "fusion_lat": 0.0, "lat": 38.89920583333333, "name": "372d3c5b33cf3a728b7145d0a4dffcfb", "fusion_lon": 0.0, "bike_id": "372d3c5b33cf3a728b7145d0a4dffcfb", "is_disabled": 0, "is_reserved": 0}, {"rental_uris": {"ios": "https://dc.lft.to/lastmile_qr_scan", "android": "https://dc.lft.to/lastmile_qr_scan"}, "lon": -77.023505, "type": "electric_scooter", "fusion_lat": 0.0, "lat": 38.93539166666667, "name": "e749a66956eaee11fa65cb2f950d4201", "fusion_lon": 0.0, "bike_id": "e749a66956eaee11fa65cb2f950d4201", "is_disabled": 0, "is_reserved": 0}, {"rental_uris": {"ios": "https://dc.lft.to/lastmile_qr_scan", "android": "https://dc.lft.to/lastmile_qr_scan"}, "lon": -76.96844933333334, "type": "electric_scooter", "fusion_lat": 0.0, "lat": 38.87468716666667, "name": "3a0b48c08bdafdb63bb6b5ba4fe80164", "fusion_lon": 0.0, "bike_id": "3a0b48c08bdafdb63bb6b5ba4fe80164", "is_disabled": 0, "is_reserved": 0}, {"rental_uris": {"ios": "https://dc.lft.to/lastmile_qr_scan", "android": "https://dc.lft.to/lastmile_qr_scan"}, "lon": -77.03194683333334, "type": "electric_scooter", "fusion_lat": 0.0, "lat": 38.904273833333335, "name": "c31b7dc14aacb0c473afebe20d6fc44a", "fusion_lon": 0.0, "bike_id": "c31b7dc14aacb0c473afebe20d6fc44a", "is_disabled": 0, "is_reserved": 0}, {"rental_uris": {"ios": "https://dc.lft.to/lastmile_qr_scan", "android": "https://dc.lft.to/lastmile_qr_scan"}, "lon": -76.98991416666667, "type": "electric_bike", "fusion_lat": 0.0, "lat": 38.9122985, "name": "5de4a3df634131a1e2f54a1baea34bf2", "fusion_lon": 0.0, "bike_id": "5de4a3df634131a1e2f54a1baea34bf2", "is_disabled": 0, "is_reserved": 0}, {"rental_uris": {"ios": "https://dc.lft.to/lastmile_qr_scan", "android": "https://dc.lft.to/lastmile_qr_scan"}, "lon": -77.02455433333333, "type": "electric_scooter", "fusion_lat": 0.0, "lat": 38.897374666666664, "name": "c207458f4a349928c765b428658226cb", "fusion_lon": 0.0, "bike_id": "c207458f4a349928c765b428658226cb", "is_disabled": 0, "is_reserved": 0}, {"rental_uris": {"ios": "https://dc.lft.to/lastmile_qr_scan", "android": "https://dc.lft.to/lastmile_qr_scan"}, "lon": -77.00652466666666, "type": "electric_scooter", "fusion_lat": 0.0, "lat": 38.90862416666667, "name": "cdceb4e0e497b7472dc9d82d9cdb0473", "fusion_lon": 0.0, "bike_id": "cdceb4e0e497b7472dc9d82d9cdb0473", "is_disabled": 0, "is_reserved": 0}, {"rental_uris": {"ios": "https://dc.lft.to/lastmile_qr_scan", "android": "https://dc.lft.to/lastmile_qr_scan"}, "lon": -77.19909616666666, "type": "electric_bike", "fusion_lat": 0.0, "lat": 38.8753015, "name": "115c4f0ce73151ee16915795a8082661", "fusion_lon": 0.0, "bike_id": "115c4f0ce73151ee16915795a8082661", "is_disabled": 0, "is_reserved": 0}, {"rental_uris": {"ios": "https://dc.lft.to/lastmile_qr_scan", "android": "https://dc.lft.to/lastmile_qr_scan"}, "lon": -77.035709, "type": "electric_scooter", "fusion_lat": 0.0, "lat": 38.9163125, "name": "1c6207687a81acd4a5517edb25bd47e7", "fusion_lon": 0.0, "bike_id": "1c6207687a81acd4a5517edb25bd47e7", "is_disabled": 0, "is_reserved": 0}, {"rental_uris": {"ios": "https://dc.lft.to/lastmile_qr_scan", "android": "https://dc.lft.to/lastmile_qr_scan"}, "lon": -77.14996433333333, "type": "electric_bike", "fusion_lat": 0.0, "lat": 39.094627, "name": "8bb136b577e36a453cc39bcde83df3de", "fusion_lon": 0.0, "bike_id": "8bb136b577e36a453cc39bcde83df3de", "is_disabled": 0, "is_reserved": 0}, {"rental_uris": {"ios": "https://dc.lft.to/lastmile_qr_scan", "android": "https://dc.lft.to/lastmile_qr_scan"}, "lon": -77.02956866666666, "type": "electric_scooter", "fusion_lat": 0.0, "lat": 38.903742, "name": "c4947e5982f4ec55f11c031e261e4fc2", "fusion_lon": 0.0, "bike_id": "c4947e5982f4ec55f11c031e261e4fc2", "is_disabled": 0, "is_reserved": 0}, {"rental_uris": {"ios": "https://dc.lft.to/lastmile_qr_scan", "android": "https://dc.lft.to/lastmile_qr_scan"}, "lon": -77.0323895, "type": "electric_scooter", "fusion_lat": 0.0, "lat": 38.92877933333333, "name": "ca462ae9afbab145ee8f70edf49d3379", "fusion_lon": 0.0, "bike_id": "ca462ae9afbab145ee8f70edf49d3379", "is_disabled": 0, "is_reserved": 0}, {"rental_uris": {"ios": "https://dc.lft.to/lastmile_qr_scan", "android": "https://dc.lft.to/lastmile_qr_scan"}, "lon": -76.9885135, "type": "electric_scooter", "fusion_lat": 0.0, "lat": 38.903476, "name": "8b33fb574580a1bf2497e38a051e876f", "fusion_lon": 0.0, "bike_id": "8b33fb574580a1bf2497e38a051e876f", "is_disabled": 0, "is_reserved": 0}, {"rental_uris": {"ios": "https://dc.lft.to/lastmile_qr_scan", "android": "https://dc.lft.to/lastmile_qr_scan"}, "lon": -77.01176133333334, "type": "electric_scooter", "fusion_lat": 0.0, "lat": 38.906550833333334, "name": "81324e3842d5b83fd15ce42efe22a983", "fusion_lon": 0.0, "bike_id": "81324e3842d5b83fd15ce42efe22a983", "is_disabled": 0, "is_reserved": 0}, {"rental_uris": {"ios": "https://dc.lft.to/lastmile_qr_scan", "android": "https://dc.lft.to/lastmile_qr_scan"}, "lon": -77.03993383333334, "type": "electric_scooter", "fusion_lat": 0.0, "lat": 38.90722016666667, "name": "783e3053eb073f422bd86987ae7643b0", "fusion_lon": 0.0, "bike_id": "783e3053eb073f422bd86987ae7643b0", "is_disabled": 0, "is_reserved": 0}, {"rental_uris": {"ios": "https://dc.lft.to/lastmile_qr_scan", "android": "https://dc.lft.to/lastmile_qr_scan"}, "lon": -76.94877083333333, "type": "electric_scooter", "fusion_lat": 0.0, "lat": 38.89504516666667, "name": "d2b822637e7b780a744d38d8e4b569ec", "fusion_lon": 0.0, "bike_id": "d2b822637e7b780a744d38d8e4b569ec", "is_disabled": 0, "is_reserved": 0}, {"rental_uris": {"ios": "https://dc.lft.to/lastmile_qr_scan", "android": "https://dc.lft.to/lastmile_qr_scan"}, "lon": -77.03328916666666, "type": "electric_scooter", "fusion_lat": 0.0, "lat": 38.9011585, "name": "d140289c1efadd7a7d3a16639b180ac4", "fusion_lon": 0.0, "bike_id": "d140289c1efadd7a7d3a16639b180ac4", "is_disabled": 0, "is_reserved": 0}, {"rental_uris": {"ios": "https://dc.lft.to/lastmile_qr_scan", "android": "https://dc.lft.to/lastmile_qr_scan"}, "lon": -77.02198783333333, "type": "electric_scooter", "fusion_lat": 0.0, "lat": 38.9096885, "name": "22158ca91a7c48f77f67fcaab6d4d1fc", "fusion_lon": 0.0, "bike_id": "22158ca91a7c48f77f67fcaab6d4d1fc", "is_disabled": 0, "is_reserved": 0}, {"rental_uris": {"ios": "https://dc.lft.to/lastmile_qr_scan", "android": "https://dc.lft.to/lastmile_qr_scan"}, "lon": -77.05322883333334, "type": "electric_scooter", "fusion_lat": 0.0, "lat": 38.93965733333334, "name": "38e3ab8f61b4e01f8885ea504faf9c7d", "fusion_lon": 0.0, "bike_id": "38e3ab8f61b4e01f8885ea504faf9c7d", "is_disabled": 0, "is_reserved": 0}, {"rental_uris": {"ios": "https://dc.lft.to/lastmile_qr_scan", "android": "https://dc.lft.to/lastmile_qr_scan"}, "lon": -77.03909366666667, "type": "electric_scooter", "fusion_lat": 0.0, "lat": 38.92309933333333, "name": "d7b94973e998a4de509ef22940048354", "fusion_lon": 0.0, "bike_id": "d7b94973e998a4de509ef22940048354", "is_disabled": 0, "is_reserved": 0}, {"rental_uris": {"ios": "https://dc.lft.to/lastmile_qr_scan", "android": "https://dc.lft.to/lastmile_qr_scan"}, "lon": -77.0247955, "type": "electric_scooter", "fusion_lat": 0.0, "lat": 38.897344833333335, "name": "f836c4a17ebb62e7a5ba67cb2540e4f5", "fusion_lon": 0.0, "bike_id": "f836c4a17ebb62e7a5ba67cb2540e4f5", "is_disabled": 0, "is_reserved": 0}, {"rental_uris": {"ios": "https://dc.lft.to/lastmile_qr_scan", "android": "https://dc.lft.to/lastmile_qr_scan"}, "lon": -77.01073433333333, "type": "electric_scooter", "fusion_lat": 0.0, "lat": 38.91912833333333, "name": "3ad33f320b37bafdb752dfc5abd8c4f2", "fusion_lon": 0.0, "bike_id": "3ad33f320b37bafdb752dfc5abd8c4f2", "is_disabled": 0, "is_reserved": 0}, {"rental_uris": {"ios": "https://dc.lft.to/lastmile_qr_scan", "android": "https://dc.lft.to/lastmile_qr_scan"}, "lon": -76.947419, "type": "electric_scooter", "fusion_lat": 0.0, "lat": 38.89684533333333, "name": "7dbd2caa0722924637ba69b491755452", "fusion_lon": 0.0, "bike_id": "7dbd2caa0722924637ba69b491755452", "is_disabled": 0, "is_reserved": 0}, {"rental_uris": {"ios": "https://dc.lft.to/lastmile_qr_scan", "android": "https://dc.lft.to/lastmile_qr_scan"}, "lon": -77.0955, "type": "electric_scooter", "fusion_lat": 0.0, "lat": 38.916571166666664, "name": "7439f92a6134b87ba3ffb116af70e1ff", "fusion_lon": 0.0, "bike_id": "7439f92a6134b87ba3ffb116af70e1ff", "is_disabled": 0, "is_reserved": 0}, {"rental_uris": {"ios": "https://dc.lft.to/lastmile_qr_scan", "android": "https://dc.lft.to/lastmile_qr_scan"}, "lon": -77.0170025, "type": "electric_scooter", "fusion_lat": 0.0, "lat": 38.90529866666667, "name": "4ac85f743b7d875e0e894a55faf6562a", "fusion_lon": 0.0, "bike_id": "4ac85f743b7d875e0e894a55faf6562a", "is_disabled": 0, "is_reserved": 0}, {"rental_uris": {"ios": "https://dc.lft.to/lastmile_qr_scan", "android": "https://dc.lft.to/lastmile_qr_scan"}, "lon": -77.01295616666667, "type": "electric_scooter", "fusion_lat": 0.0, "lat": 38.956657, "name": "26fc2ab810e48fe2cd829e7933763c00", "fusion_lon": 0.0, "bike_id": "26fc2ab810e48fe2cd829e7933763c00", "is_disabled": 0, "is_reserved": 0}, {"rental_uris": {"ios": "https://dc.lft.to/lastmile_qr_scan", "android": "https://dc.lft.to/lastmile_qr_scan"}, "lon": -77.03160983333333, "type": "electric_scooter", "fusion_lat": 0.0, "lat": 38.91563466666667, "name": "0b529f10e6e73d9cac5467f14726dfee", "fusion_lon": 0.0, "bike_id": "0b529f10e6e73d9cac5467f14726dfee", "is_disabled": 0, "is_reserved": 0}, {"rental_uris": {"ios": "https://dc.lft.to/lastmile_qr_scan", "android": "https://dc.lft.to/lastmile_qr_scan"}, "lon": -77.022876, "type": "electric_scooter", "fusion_lat": 0.0, "lat": 38.91110166666667, "name": "05dcf7f172eaed4ffd3c37a6b496814b", "fusion_lon": 0.0, "bike_id": "05dcf7f172eaed4ffd3c37a6b496814b", "is_disabled": 0, "is_reserved": 0}, {"rental_uris": {"ios": "https://dc.lft.to/lastmile_qr_scan", "android": "https://dc.lft.to/lastmile_qr_scan"}, "lon": -76.99519033333333, "type": "electric_scooter", "fusion_lat": 0.0, "lat": 38.86257233333333, "name": "2763a7961cbaca464852dc2f89c9de31", "fusion_lon": 0.0, "bike_id": "2763a7961cbaca464852dc2f89c9de31", "is_disabled": 0, "is_reserved": 0}, {"rental_uris": {"ios": "https://dc.lft.to/lastmile_qr_scan", "android": "https://dc.lft.to/lastmile_qr_scan"}, "lon": -77.05008733333334, "type": "electric_scooter", "fusion_lat": 0.0, "lat": 38.92358983333333, "name": "a573fd443cb54aea8871b9a05e990143", "fusion_lon": 0.0, "bike_id": "a573fd443cb54aea8871b9a05e990143", "is_disabled": 0, "is_reserved": 0}, {"rental_uris": {"ios": "https://dc.lft.to/lastmile_qr_scan", "android": "https://dc.lft.to/lastmile_qr_scan"}, "lon": -77.00593633333334, "type": "electric_scooter", "fusion_lat": 0.0, "lat": 38.903718, "name": "53bfbb6bdf5a8d0863d579462b17fe48", "fusion_lon": 0.0, "bike_id": "53bfbb6bdf5a8d0863d579462b17fe48", "is_disabled": 0, "is_reserved": 0}, {"rental_uris": {"ios": "https://dc.lft.to/lastmile_qr_scan", "android": "https://dc.lft.to/lastmile_qr_scan"}, "lon": -77.02833683333333, "type": "electric_scooter", "fusion_lat": 0.0, "lat": 38.887698666666665, "name": "846dc32c1ce94478b738178ac1e54f2c", "fusion_lon": 0.0, "bike_id": "846dc32c1ce94478b738178ac1e54f2c", "is_disabled": 0, "is_reserved": 0}, {"rental_uris": {"ios": "https://dc.lft.to/lastmile_qr_scan", "android": "https://dc.lft.to/lastmile_qr_scan"}, "lon": -77.05684933333333, "type": "electric_scooter", "fusion_lat": 0.0, "lat": 38.905343, "name": "9984aeada7cef820aa8cdb51c116a14f", "fusion_lon": 0.0, "bike_id": "9984aeada7cef820aa8cdb51c116a14f", "is_disabled": 0, "is_reserved": 0}, {"rental_uris": {"ios": "https://dc.lft.to/lastmile_qr_scan", "android": "https://dc.lft.to/lastmile_qr_scan"}, "lon": -77.01433883333333, "type": "electric_scooter", "fusion_lat": 0.0, "lat": 38.92990116666667, "name": "8dd2a6f89c5ef0390c0db2c47d4d9714", "fusion_lon": 0.0, "bike_id": "8dd2a6f89c5ef0390c0db2c47d4d9714", "is_disabled": 0, "is_reserved": 0}, {"rental_uris": {"ios": "https://dc.lft.to/lastmile_qr_scan", "android": "https://dc.lft.to/lastmile_qr_scan"}, "lon": -77.0365245, "type": "electric_scooter", "fusion_lat": 0.0, "lat": 38.917223666666665, "name": "337dee60538bf3467f01d92f381684b0", "fusion_lon": 0.0, "bike_id": "337dee60538bf3467f01d92f381684b0", "is_disabled": 0, "is_reserved": 0}, {"rental_uris": {"ios": "https://dc.lft.to/lastmile_qr_scan", "android": "https://dc.lft.to/lastmile_qr_scan"}, "lon": -77.0455795, "type": "electric_scooter", "fusion_lat": 0.0, "lat": 38.908581, "name": "b4885efe612f85c624580a94ccc8d866", "fusion_lon": 0.0, "bike_id": "b4885efe612f85c624580a94ccc8d866", "is_disabled": 0, "is_reserved": 0}, {"rental_uris": {"ios": "https://dc.lft.to/lastmile_qr_scan", "android": "https://dc.lft.to/lastmile_qr_scan"}, "lon": -77.0450205, "type": "electric_scooter", "fusion_lat": 0.0, "lat": 38.90549216666667, "name": "3f6d1253ffdcaa7ddc4c6aa9dba234e0", "fusion_lon": 0.0, "bike_id": "3f6d1253ffdcaa7ddc4c6aa9dba234e0", "is_disabled": 0, "is_reserved": 0}, {"rental_uris": {"ios": "https://dc.lft.to/lastmile_qr_scan", "android": "https://dc.lft.to/lastmile_qr_scan"}, "lon": -77.03187366666667, "type": "electric_scooter", "fusion_lat": 0.0, "lat": 38.892442, "name": "19653f1d65cb922f18d41c9daf84b49a", "fusion_lon": 0.0, "bike_id": "19653f1d65cb922f18d41c9daf84b49a", "is_disabled": 0, "is_reserved": 0}, {"rental_uris": {"ios": "https://dc.lft.to/lastmile_qr_scan", "android": "https://dc.lft.to/lastmile_qr_scan"}, "lon": -77.089472, "type": "electric_bike", "fusion_lat": 0.0, "lat": 38.841079, "name": "ea85142e492e59afd90c74039fa86430", "fusion_lon": 0.0, "bike_id": "ea85142e492e59afd90c74039fa86430", "is_disabled": 0, "is_reserved": 0}, {"rental_uris": {"ios": "https://dc.lft.to/lastmile_qr_scan", "android": "https://dc.lft.to/lastmile_qr_scan"}, "lon": -77.03550066666666, "type": "electric_scooter", "fusion_lat": 0.0, "lat": 38.90834316666667, "name": "2e7717167991155efb3e3e147ae191e2", "fusion_lon": 0.0, "bike_id": "2e7717167991155efb3e3e147ae191e2", "is_disabled": 0, "is_reserved": 0}, {"rental_uris": {"ios": "https://dc.lft.to/lastmile_qr_scan", "android": "https://dc.lft.to/lastmile_qr_scan"}, "lon": -77.03197766666666, "type": "electric_scooter", "fusion_lat": 0.0, "lat": 38.926792166666665, "name": "ef35ac45f08fbcc83d24d107ace26a88", "fusion_lon": 0.0, "bike_id": "ef35ac45f08fbcc83d24d107ace26a88", "is_disabled": 0, "is_reserved": 0}, {"rental_uris": {"ios": "https://dc.lft.to/lastmile_qr_scan", "android": "https://dc.lft.to/lastmile_qr_scan"}, "lon": -77.040532, "type": "electric_scooter", "fusion_lat": 0.0, "lat": 38.92714933333333, "name": "1b0105fcbbf4b93f5121c1c5dbb40264", "fusion_lon": 0.0, "bike_id": "1b0105fcbbf4b93f5121c1c5dbb40264", "is_disabled": 0, "is_reserved": 0}, {"rental_uris": {"ios": "https://dc.lft.to/lastmile_qr_scan", "android": "https://dc.lft.to/lastmile_qr_scan"}, "lon": -77.098672, "type": "electric_bike", "fusion_lat": 0.0, "lat": 38.85365933333333, "name": "2ca4b2337484879c4c638872a84cd68a", "fusion_lon": 0.0, "bike_id": "2ca4b2337484879c4c638872a84cd68a", "is_disabled": 0, "is_reserved": 0}, {"rental_uris": {"ios": "https://dc.lft.to/lastmile_qr_scan", "android": "https://dc.lft.to/lastmile_qr_scan"}, "lon": -77.03189183333333, "type": "electric_scooter", "fusion_lat": 0.0, "lat": 38.911314, "name": "f835ad01353a9a37e48a4f5de48b90d0", "fusion_lon": 0.0, "bike_id": "f835ad01353a9a37e48a4f5de48b90d0", "is_disabled": 0, "is_reserved": 0}, {"rental_uris": {"ios": "https://dc.lft.to/lastmile_qr_scan", "android": "https://dc.lft.to/lastmile_qr_scan"}, "lon": -77.02800483333333, "type": "electric_scooter", "fusion_lat": 0.0, "lat": 38.92976916666667, "name": "9b86f3245e2c47a320a955fe1e7344ca", "fusion_lon": 0.0, "bike_id": "9b86f3245e2c47a320a955fe1e7344ca", "is_disabled": 0, "is_reserved": 0}, {"rental_uris": {"ios": "https://dc.lft.to/lastmile_qr_scan", "android": "https://dc.lft.to/lastmile_qr_scan"}, "lon": -77.0340785, "type": "electric_bike", "fusion_lat": 0.0, "lat": 38.9004275, "name": "24e2bc45a5f66e62b6d31a494a64215d", "fusion_lon": 0.0, "bike_id": "24e2bc45a5f66e62b6d31a494a64215d", "is_disabled": 0, "is_reserved": 0}, {"rental_uris": {"ios": "https://dc.lft.to/lastmile_qr_scan", "android": "https://dc.lft.to/lastmile_qr_scan"}, "lon": -77.06828533333334, "type": "electric_scooter", "fusion_lat": 0.0, "lat": 38.917138, "name": "eb144d3a145f343cb953c97549b5fe37", "fusion_lon": 0.0, "bike_id": "eb144d3a145f343cb953c97549b5fe37", "is_disabled": 0, "is_reserved": 0}, {"rental_uris": {"ios": "https://dc.lft.to/lastmile_qr_scan", "android": "https://dc.lft.to/lastmile_qr_scan"}, "lon": -77.02982916666667, "type": "electric_scooter", "fusion_lat": 0.0, "lat": 38.89566166666667, "name": "1aba750bd56d9f377f2509c6c11eb267", "fusion_lon": 0.0, "bike_id": "1aba750bd56d9f377f2509c6c11eb267", "is_disabled": 0, "is_reserved": 0}, {"rental_uris": {"ios": "https://dc.lft.to/lastmile_qr_scan", "android": "https://dc.lft.to/lastmile_qr_scan"}, "lon": -77.00750766666667, "type": "electric_scooter", "fusion_lat": 0.0, "lat": 38.871302, "name": "00d1442897924c0601abe7f1bdc68677", "fusion_lon": 0.0, "bike_id": "00d1442897924c0601abe7f1bdc68677", "is_disabled": 0, "is_reserved": 0}, {"rental_uris": {"ios": "https://dc.lft.to/lastmile_qr_scan", "android": "https://dc.lft.to/lastmile_qr_scan"}, "lon": -77.07901, "type": "electric_bike", "fusion_lat": 0.0, "lat": 38.83934333333333, "name": "cc9ec18d6fd50802c540f310804765c0", "fusion_lon": 0.0, "bike_id": "cc9ec18d6fd50802c540f310804765c0", "is_disabled": 0, "is_reserved": 0}, {"rental_uris": {"ios": "https://dc.lft.to/lastmile_qr_scan", "android": "https://dc.lft.to/lastmile_qr_scan"}, "lon": -77.11920833333333, "type": "electric_bike", "fusion_lat": 0.0, "lat": 38.84091766666667, "name": "1027db49ce12cc5b42b633436da82fca", "fusion_lon": 0.0, "bike_id": "1027db49ce12cc5b42b633436da82fca", "is_disabled": 0, "is_reserved": 0}, {"rental_uris": {"ios": "https://dc.lft.to/lastmile_qr_scan", "android": "https://dc.lft.to/lastmile_qr_scan"}, "lon": -77.02495183333333, "type": "electric_scooter", "fusion_lat": 0.0, "lat": 38.91805266666667, "name": "105f9c014bc07f293e2606184a106f2c", "fusion_lon": 0.0, "bike_id": "105f9c014bc07f293e2606184a106f2c", "is_disabled": 0, "is_reserved": 0}, {"rental_uris": {"ios": "https://dc.lft.to/lastmile_qr_scan", "android": "https://dc.lft.to/lastmile_qr_scan"}, "lon": -76.980874, "type": "electric_bike", "fusion_lat": 0.0, "lat": 38.902859666666664, "name": "76127095d96ac9a441ee081af0b2986c", "fusion_lon": 0.0, "bike_id": "76127095d96ac9a441ee081af0b2986c", "is_disabled": 0, "is_reserved": 0}, {"rental_uris": {"ios": "https://dc.lft.to/lastmile_qr_scan", "android": "https://dc.lft.to/lastmile_qr_scan"}, "lon": -77.02348283333333, "type": "electric_scooter", "fusion_lat": 0.0, "lat": 38.933946, "name": "02d88fa185bba168c461968bea7cdeef", "fusion_lon": 0.0, "bike_id": "02d88fa185bba168c461968bea7cdeef", "is_disabled": 0, "is_reserved": 0}, {"rental_uris": {"ios": "https://dc.lft.to/lastmile_qr_scan", "android": "https://dc.lft.to/lastmile_qr_scan"}, "lon": -76.9361435, "type": "electric_bike", "fusion_lat": 0.0, "lat": 38.970578333333336, "name": "4c96f0f7ef25df0b2bf4d90012609376", "fusion_lon": 0.0, "bike_id": "4c96f0f7ef25df0b2bf4d90012609376", "is_disabled": 0, "is_reserved": 0}, {"rental_uris": {"ios": "https://dc.lft.to/lastmile_qr_scan", "android": "https://dc.lft.to/lastmile_qr_scan"}, "lon": -77.01437766666666, "type": "electric_scooter", "fusion_lat": 0.0, "lat": 38.919614833333334, "name": "8409c023a1eeb8ecb8d1521e19f6c13e", "fusion_lon": 0.0, "bike_id": "8409c023a1eeb8ecb8d1521e19f6c13e", "is_disabled": 0, "is_reserved": 0}, {"rental_uris": {"ios": "https://dc.lft.to/lastmile_qr_scan", "android": "https://dc.lft.to/lastmile_qr_scan"}, "lon": -76.98838566666667, "type": "electric_scooter", "fusion_lat": 0.0, "lat": 38.892929, "name": "8c8a7ae673f5fe0442649a2680b7e40f", "fusion_lon": 0.0, "bike_id": "8c8a7ae673f5fe0442649a2680b7e40f", "is_disabled": 0, "is_reserved": 0}, {"rental_uris": {"ios": "https://dc.lft.to/lastmile_qr_scan", "android": "https://dc.lft.to/lastmile_qr_scan"}, "lon": -76.99730983333333, "type": "electric_scooter", "fusion_lat": 0.0, "lat": 38.9002, "name": "275fb43e51973b7c401800ad986edbe5", "fusion_lon": 0.0, "bike_id": "275fb43e51973b7c401800ad986edbe5", "is_disabled": 0, "is_reserved": 0}, {"rental_uris": {"ios": "https://dc.lft.to/lastmile_qr_scan", "android": "https://dc.lft.to/lastmile_qr_scan"}, "lon": -77.10695433333333, "type": "electric_bike", "fusion_lat": 0.0, "lat": 38.85540566666667, "name": "d373c4adb1b4d224e75dfe08485b5e36", "fusion_lon": 0.0, "bike_id": "d373c4adb1b4d224e75dfe08485b5e36", "is_disabled": 0, "is_reserved": 0}, {"rental_uris": {"ios": "https://dc.lft.to/lastmile_qr_scan", "android": "https://dc.lft.to/lastmile_qr_scan"}, "lon": -77.0289995, "type": "electric_scooter", "fusion_lat": 0.0, "lat": 38.90451983333333, "name": "b387b0e7297a49b87bb8502523ac4542", "fusion_lon": 0.0, "bike_id": "b387b0e7297a49b87bb8502523ac4542", "is_disabled": 0, "is_reserved": 0}, {"rental_uris": {"ios": "https://dc.lft.to/lastmile_qr_scan", "android": "https://dc.lft.to/lastmile_qr_scan"}, "lon": -77.06378, "type": "electric_scooter", "fusion_lat": 0.0, "lat": 38.905203666666665, "name": "caa0da87927222868192ea7aec80aa1c", "fusion_lon": 0.0, "bike_id": "caa0da87927222868192ea7aec80aa1c", "is_disabled": 0, "is_reserved": 0}, {"rental_uris": {"ios": "https://dc.lft.to/lastmile_qr_scan", "android": "https://dc.lft.to/lastmile_qr_scan"}, "lon": -77.01172766666667, "type": "electric_scooter", "fusion_lat": 0.0, "lat": 38.90025283333333, "name": "5cdc074f1563d82ee8215cac410c64fb", "fusion_lon": 0.0, "bike_id": "5cdc074f1563d82ee8215cac410c64fb", "is_disabled": 0, "is_reserved": 0}, {"rental_uris": {"ios": "https://dc.lft.to/lastmile_qr_scan", "android": "https://dc.lft.to/lastmile_qr_scan"}, "lon": -76.96848983333334, "type": "electric_scooter", "fusion_lat": 0.0, "lat": 38.87468883333333, "name": "d97f6f00dc5a48940b739a95341694b2", "fusion_lon": 0.0, "bike_id": "d97f6f00dc5a48940b739a95341694b2", "is_disabled": 0, "is_reserved": 0}, {"rental_uris": {"ios": "https://dc.lft.to/lastmile_qr_scan", "android": "https://dc.lft.to/lastmile_qr_scan"}, "lon": -77.02348866666667, "type": "electric_scooter", "fusion_lat": 0.0, "lat": 38.9316265, "name": "2dbd2266ae94de07457aa6b2f407e68e", "fusion_lon": 0.0, "bike_id": "2dbd2266ae94de07457aa6b2f407e68e", "is_disabled": 0, "is_reserved": 0}, {"rental_uris": {"ios": "https://dc.lft.to/lastmile_qr_scan", "android": "https://dc.lft.to/lastmile_qr_scan"}, "lon": -77.02388866666666, "type": "electric_scooter", "fusion_lat": 0.0, "lat": 38.906007, "name": "685d89d429321c718d6d6be5c5a9b142", "fusion_lon": 0.0, "bike_id": "685d89d429321c718d6d6be5c5a9b142", "is_disabled": 0, "is_reserved": 0}, {"rental_uris": {"ios": "https://dc.lft.to/lastmile_qr_scan", "android": "https://dc.lft.to/lastmile_qr_scan"}, "lon": -77.06918766666666, "type": "electric_bike", "fusion_lat": 0.0, "lat": 38.909776666666666, "name": "8bc6b96b82572c445b07a6383294ab93", "fusion_lon": 0.0, "bike_id": "8bc6b96b82572c445b07a6383294ab93", "is_disabled": 0, "is_reserved": 0}, {"rental_uris": {"ios": "https://dc.lft.to/lastmile_qr_scan", "android": "https://dc.lft.to/lastmile_qr_scan"}, "lon": -77.07545066666667, "type": "electric_bike", "fusion_lat": 0.0, "lat": 38.9069825, "name": "34ec0def819b6d0e3ab263bae266ce5a", "fusion_lon": 0.0, "bike_id": "34ec0def819b6d0e3ab263bae266ce5a", "is_disabled": 0, "is_reserved": 0}, {"rental_uris": {"ios": "https://dc.lft.to/lastmile_qr_scan", "android": "https://dc.lft.to/lastmile_qr_scan"}, "lon": -77.03192483333333, "type": "electric_scooter", "fusion_lat": 0.0, "lat": 38.911572666666665, "name": "47309a7198df21d0fbad032edb47d4b0", "fusion_lon": 0.0, "bike_id": "47309a7198df21d0fbad032edb47d4b0", "is_disabled": 0, "is_reserved": 0}, {"rental_uris": {"ios": "https://dc.lft.to/lastmile_qr_scan", "android": "https://dc.lft.to/lastmile_qr_scan"}, "lon": -77.03663583333334, "type": "electric_scooter", "fusion_lat": 0.0, "lat": 38.90788283333333, "name": "2868f49d4b6f27278908953702b272ca", "fusion_lon": 0.0, "bike_id": "2868f49d4b6f27278908953702b272ca", "is_disabled": 0, "is_reserved": 0}, {"rental_uris": {"ios": "https://dc.lft.to/lastmile_qr_scan", "android": "https://dc.lft.to/lastmile_qr_scan"}, "lon": -76.98904866666666, "type": "electric_scooter", "fusion_lat": 0.0, "lat": 38.900117333333334, "name": "d86afdff7f3b1e446809b8cf25d975cd", "fusion_lon": 0.0, "bike_id": "d86afdff7f3b1e446809b8cf25d975cd", "is_disabled": 0, "is_reserved": 0}, {"rental_uris": {"ios": "https://dc.lft.to/lastmile_qr_scan", "android": "https://dc.lft.to/lastmile_qr_scan"}, "lon": -77.02380116666667, "type": "electric_scooter", "fusion_lat": 0.0, "lat": 38.91592716666667, "name": "d6022482895da45e4d9db8e18cac70b9", "fusion_lon": 0.0, "bike_id": "d6022482895da45e4d9db8e18cac70b9", "is_disabled": 0, "is_reserved": 0}, {"rental_uris": {"ios": "https://dc.lft.to/lastmile_qr_scan", "android": "https://dc.lft.to/lastmile_qr_scan"}, "lon": -77.05003783333333, "type": "electric_scooter", "fusion_lat": 0.0, "lat": 38.89229516666666, "name": "766aa92ebc0c700044a14dcc0c5cc751", "fusion_lon": 0.0, "bike_id": "766aa92ebc0c700044a14dcc0c5cc751", "is_disabled": 0, "is_reserved": 0}, {"rental_uris": {"ios": "https://dc.lft.to/lastmile_qr_scan", "android": "https://dc.lft.to/lastmile_qr_scan"}, "lon": -77.037904, "type": "electric_scooter", "fusion_lat": 0.0, "lat": 38.905586166666666, "name": "f6e679c618e10f504762eb15ecd52f95", "fusion_lon": 0.0, "bike_id": "f6e679c618e10f504762eb15ecd52f95", "is_disabled": 0, "is_reserved": 0}, {"rental_uris": {"ios": "https://dc.lft.to/lastmile_qr_scan", "android": "https://dc.lft.to/lastmile_qr_scan"},