{"data": {"bikes": [{"lon": -77.05336033333333, "bike_id": "58f7cada1005b179b3b387311b2fb23d", "lat": 38.85263666666667, "fusion_lon": 0.0, "fusion_lat": 0.0, "type": "electric_bike", "name": "58f7cada1005b179b3b387311b2fb23d", "is_disabled": 0, "rental_uris": {"ios": "https://dc.lft.to/lastmile_qr_scan", "android": "https://dc.lft.to/lastmile_qr_scan"}, "is_reserved": 0}, {"lon": -77.04020966666667, "bike_id": "4fc2ed5831ddf81fc31461661c3c28df", "lat": 38.9012495, "fusion_lon": 0.0, "fusion_lat": 0.0, "type": "electric_scooter", "name": "4fc2ed5831ddf81fc31461661c3c28df", "is_disabled": 0, "rental_uris": {"ios": "https://dc.lft.to/lastmile_qr_scan", "android": "https://dc.lft.to/lastmile_qr_scan"}, "is_reserved": 0}, {"lon": -77.0417255, "bike_id": "0bd5a4f6a945c7f7cfce1d30d46cafc4", "lat": 38.91983116666667, "fusion_lon": 0.0, "fusion_lat": 0.0, "type": "electric_scooter", "name": "0bd5a4f6a945c7f7cfce1d30d46cafc4", "is_disabled": 0, "rental_uris": {"ios": "https://dc.lft.to/lastmile_qr_scan", "android": "https://dc.lft.to/lastmile_qr_scan"}, "is_reserved": 0}, {"lon": -77.02597016666667, "bike_id": "faccbbd9bd8a172a95402e11a15bc62f", "lat": 38.91696616666667, "fusion_lon": 0.0, "fusion_lat": 0.0, "type": "electric_scooter", "name": "faccbbd9bd8a172a95402e11a15bc62f", "is_disabled": 0, "rental_uris": {"ios": "https://dc.lft.to/lastmile_qr_scan", "android": "https://dc.lft.to/lastmile_qr_scan"}, "is_reserved": 0}, {"lon": -76.9208075, "bike_id": "627d53d5fc00b22b11b3f9d55a59073e", "lat": 38.89545233333333, "fusion_lon": 0.0, "fusion_lat": 0.0, "type": "electric_bike", "name": "627d53d5fc00b22b11b3f9d55a59073e", "is_disabled": 0, "rental_uris": {"ios": "https://dc.lft.to/lastmile_qr_scan", "android": "https://dc.lft.to/lastmile_qr_scan"}, "is_reserved": 0}, {"lon": -77.02779983333333, "bike_id": "79012c136e3df1151a1953fb8405ccd3", "lat": 38.892003333333335, "fusion_lon": 0.0, "fusion_lat": 0.0, "type": "electric_scooter", "name": "79012c136e3df1151a1953fb8405ccd3", "is_disabled": 0, "rental_uris": {"ios": "https://dc.lft.to/lastmile_qr_scan", "android": "https://dc.lft.to/lastmile_qr_scan"}, "is_reserved": 0}, {"lon": -76.99018533333333, "bike_id": "114772254cad89d5181b602b7b0610b7", "lat": 38.882773666666665, "fusion_lon": 0.0, "fusion_lat": 0.0, "type": "electric_scooter", "name": "114772254cad89d5181b602b7b0610b7", "is_disabled": 0, "rental_uris": {"ios": "https://dc.lft.to/lastmile_qr_scan", "android": "https://dc.lft.to/lastmile_qr_scan"}, "is_reserved": 0}, {"lon": -77.003717, "bike_id": "68d6a76b498efa4d9de6eda96946c674", "lat": 38.8974155, "fusion_lon": 0.0, "fusion_lat": 0.0, "type": "electric_scooter", "name": "68d6a76b498efa4d9de6eda96946c674", "is_disabled": 0, "rental_uris": {"ios": "https://dc.lft.to/lastmile_qr_scan", "android": "https://dc.lft.to/lastmile_qr_scan"}, "is_reserved": 0}, {"lon": -77.03276783333334, "bike_id": "4d906d7c2c946b6fe242cb85ddd76a26", "lat": 38.907181333333334, "fusion_lon": 0.0, "fusion_lat": 0.0, "type": "electric_scooter", "name": "4d906d7c2c946b6fe242cb85ddd76a26", "is_disabled": 0, "rental_uris": {"ios": "https://dc.lft.to/lastmile_qr_scan", "android": "https://dc.lft.to/lastmile_qr_scan"}, "is_reserved": 0}, {"lon": -77.07901583333333, "bike_id": "6ace4d92760a419faf6bbb1d920e78e7", "lat": 38.83934566666667, "fusion_lon": 0.0, "fusion_lat": 0.0, "type": "electric_bike", "name": "6ace4d92760a419faf6bbb1d920e78e7", "is_disabled": 0, "rental_uris": {"ios": "https://dc.lft.to/lastmile_qr_scan", "android": "https://dc.lft.to/lastmile_qr_scan"}, "is_reserved": 0}, {"lon": -76.984025, "bike_id": "8c55ba416c3970ea2c7fac2b3f7e2c96", "lat": 38.8664605, "fusion_lon": 0.0, "fusion_lat": 0.0, "type": "electric_scooter", "name": "8c55ba416c3970ea2c7fac2b3f7e2c96", "is_disabled": 0, "rental_uris": {"ios": "https://dc.lft.to/lastmile_qr_scan", "android": "https://dc.lft.to/lastmile_qr_scan"}, "is_reserved": 0}, {"lon": -77.03606966666666, "bike_id": "dd92ce961fbf3277c9a764b88f192045", "lat": 38.934867833333335, "fusion_lon": 0.0, "fusion_lat": 0.0, "type": "electric_scooter", "name": "dd92ce961fbf3277c9a764b88f192045", "is_disabled": 0, "rental_uris": {"ios": "https://dc.lft.to/lastmile_qr_scan", "android": "https://dc.lft.to/lastmile_qr_scan"}, "is_reserved": 0}, {"lon": -77.028423, "bike_id": "ec0ec59d6be4c2e7a0c70fbc7ff6bbfc", "lat": 38.932779833333335, "fusion_lon": 0.0, "fusion_lat": 0.0, "type": "electric_scooter", "name": "ec0ec59d6be4c2e7a0c70fbc7ff6bbfc", "is_disabled": 0, "rental_uris": {"ios": "https://dc.lft.to/lastmile_qr_scan", "android": "https://dc.lft.to/lastmile_qr_scan"}, "is_reserved": 0}, {"lon": -77.0382995, "bike_id": "7ef4e9a6ed3bb15b91e03e72329d3ded", "lat": 38.90679766666667, "fusion_lon": 0.0, "fusion_lat": 0.0, "type": "electric_scooter", "name": "7ef4e9a6ed3bb15b91e03e72329d3ded", "is_disabled": 0, "rental_uris": {"ios": "https://dc.lft.to/lastmile_qr_scan", "android": "https://dc.lft.to/lastmile_qr_scan"}, "is_reserved": 0}, {"lon": -77.05245016666667, "bike_id": "b10db8a061909d413028b2793c191611", "lat": 38.92550933333333, "fusion_lon": 0.0, "fusion_lat": 0.0, "type": "electric_scooter", "name": "b10db8a061909d413028b2793c191611", "is_disabled": 0, "rental_uris": {"ios": "https://dc.lft.to/lastmile_qr_scan", "android": "https://dc.lft.to/lastmile_qr_scan"}, "is_reserved": 0}, {"lon": -77.03923183333333, "bike_id": "9a2196cbbc8b085434bf595b3e8b7a09", "lat": 38.898891166666665, "fusion_lon": 0.0, "fusion_lat": 0.0, "type": "electric_scooter", "name": "9a2196cbbc8b085434bf595b3e8b7a09", "is_disabled": 0, "rental_uris": {"ios": "https://dc.lft.to/lastmile_qr_scan", "android": "https://dc.lft.to/lastmile_qr_scan"}, "is_reserved": 0}, {"lon": -77.00991033333334, "bike_id": "25c9e420d19009edf3c3638b301ac4ce", "lat": 38.87296083333333, "fusion_lon": 0.0, "fusion_lat": 0.0, "type": "electric_scooter", "name": "25c9e420d19009edf3c3638b301ac4ce", "is_disabled": 0, "rental_uris": {"ios": "https://dc.lft.to/lastmile_qr_scan", "android": "https://dc.lft.to/lastmile_qr_scan"}, "is_reserved": 0}, {"lon": -77.046632, "bike_id": "c4b96415a8331a9396361a343d80a9a1", "lat": 38.89954183333333, "fusion_lon": 0.0, "fusion_lat": 0.0, "type": "electric_scooter", "name": "c4b96415a8331a9396361a343d80a9a1", "is_disabled": 0, "rental_uris": {"ios": "https://dc.lft.to/lastmile_qr_scan", "android": "https://dc.lft.to/lastmile_qr_scan"}, "is_reserved": 0}, {"lon": -76.93759583333333, "bike_id": "7b7bc8f144e48d9f0e9c1a6f5babaaae", "lat": 38.89035633333334, "fusion_lon": 0.0, "fusion_lat": 0.0, "type": "electric_scooter", "name": "7b7bc8f144e48d9f0e9c1a6f5babaaae", "is_disabled": 0, "rental_uris": {"ios": "https://dc.lft.to/lastmile_qr_scan", "android": "https://dc.lft.to/lastmile_qr_scan"}, "is_reserved": 0}, {"lon": -77.04183266666666, "bike_id": "9a03774e59487025836ab1a84b387725", "lat": 38.89254183333333, "fusion_lon": 0.0, "fusion_lat": 0.0, "type": "electric_scooter", "name": "9a03774e59487025836ab1a84b387725", "is_disabled": 0, "rental_uris": {"ios": "https://dc.lft.to/lastmile_qr_scan", "android": "https://dc.lft.to/lastmile_qr_scan"}, "is_reserved": 0}, {"lon": -77.01956366666667, "bike_id": "663c068cc024606d9514e76a33ff7d88", "lat": 38.923131166666664, "fusion_lon": 0.0, "fusion_lat": 0.0, "type": "electric_scooter", "name": "663c068cc024606d9514e76a33ff7d88", "is_disabled": 0, "rental_uris": {"ios": "https://dc.lft.to/lastmile_qr_scan", "android": "https://dc.lft.to/lastmile_qr_scan"}, "is_reserved": 0}, {"lon": -77.0270725, "bike_id": "e5aa7de50c4a8186720f9a2fb1a83567", "lat": 38.9067085, "fusion_lon": 0.0, "fusion_lat": 0.0, "type": "electric_scooter", "name": "e5aa7de50c4a8186720f9a2fb1a83567", "is_disabled": 0, "rental_uris": {"ios": "https://dc.lft.to/lastmile_qr_scan", "android": "https://dc.lft.to/lastmile_qr_scan"}, "is_reserved": 0}, {"lon": -77.06613016666667, "bike_id": "08607f3f685550c7001fed46fc3bad8b", "lat": 38.912255, "fusion_lon": 0.0, "fusion_lat": 0.0, "type": "electric_scooter", "name": "08607f3f685550c7001fed46fc3bad8b", "is_disabled": 0, "rental_uris": {"ios": "https://dc.lft.to/lastmile_qr_scan", "android": "https://dc.lft.to/lastmile_qr_scan"}, "is_reserved": 0}, {"lon": -77.02891666666666, "bike_id": "7b8ff8f2fe2c90a8d8a01a1089cc288b", "lat": 38.91693316666667, "fusion_lon": 0.0, "fusion_lat": 0.0, "type": "electric_scooter", "name": "7b8ff8f2fe2c90a8d8a01a1089cc288b", "is_disabled": 0, "rental_uris": {"ios": "https://dc.lft.to/lastmile_qr_scan", "android": "https://dc.lft.to/lastmile_qr_scan"}, "is_reserved": 0}, {"lon": -77.03066466666667, "bike_id": "d5bf172f4753c3fb33c7c0b3ff236090", "lat": 38.9225025, "fusion_lon": 0.0, "fusion_lat": 0.0, "type": "electric_scooter", "name": "d5bf172f4753c3fb33c7c0b3ff236090", "is_disabled": 0, "rental_uris": {"ios": "https://dc.lft.to/lastmile_qr_scan", "android": "https://dc.lft.to/lastmile_qr_scan"}, "is_reserved": 0}, {"lon": -77.0296255, "bike_id": "061f7ed6e7dccaed30570333c4bf145e", "lat": 38.916768833333336, "fusion_lon": 0.0, "fusion_lat": 0.0, "type": "electric_scooter", "name": "061f7ed6e7dccaed30570333c4bf145e", "is_disabled": 0, "rental_uris": {"ios": "https://dc.lft.to/lastmile_qr_scan", "android": "https://dc.lft.to/lastmile_qr_scan"}, "is_reserved": 0}, {"lon": -76.976717, "bike_id": "5a6dfa21e9e9d8f1c918294dc901c2fb", "lat": 38.95249116666667, "fusion_lon": 0.0, "fusion_lat": 0.0, "type": "electric_bike", "name": "5a6dfa21e9e9d8f1c918294dc901c2fb", "is_disabled": 0, "rental_uris": {"ios": "https://dc.lft.to/lastmile_qr_scan", "android": "https://dc.lft.to/lastmile_qr_scan"}, "is_reserved": 0}, {"lon": -77.03108433333334, "bike_id": "6fddbca51dcd595e2ad7c81b9ec9c795", "lat": 38.915600833333336, "fusion_lon": 0.0, "fusion_lat": 0.0, "type": "electric_scooter", "name": "6fddbca51dcd595e2ad7c81b9ec9c795", "is_disabled": 0, "rental_uris": {"ios": "https://dc.lft.to/lastmile_qr_scan", "android": "https://dc.lft.to/lastmile_qr_scan"}, "is_reserved": 0}, {"lon": -77.029218, "bike_id": "8259fd010ada26db78c42b257b5aabb3", "lat": 38.934615, "fusion_lon": 0.0, "fusion_lat": 0.0, "type": "electric_scooter", "name": "8259fd010ada26db78c42b257b5aabb3", "is_disabled": 0, "rental_uris": {"ios": "https://dc.lft.to/lastmile_qr_scan", "android": "https://dc.lft.to/lastmile_qr_scan"}, "is_reserved": 0}, {"lon": -76.98784766666667, "bike_id": "b195f5a8b5cf6dfa50887b5d412fdb82", "lat": 38.86742666666667, "fusion_lon": 0.0, "fusion_lat": 0.0, "type": "electric_scooter", "name": "b195f5a8b5cf6dfa50887b5d412fdb82", "is_disabled": 0, "rental_uris": {"ios": "https://dc.lft.to/lastmile_qr_scan", "android": "https://dc.lft.to/lastmile_qr_scan"}, "is_reserved": 0}, {"lon": -77.1662575, "bike_id": "d7316e3463be25f36e84b05008ab41f7", "lat": 38.88842066666667, "fusion_lon": 0.0, "fusion_lat": 0.0, "type": "electric_bike", "name": "d7316e3463be25f36e84b05008ab41f7", "is_disabled": 0, "rental_uris": {"ios": "https://dc.lft.to/lastmile_qr_scan", "android": "https://dc.lft.to/lastmile_qr_scan"}, "is_reserved": 0}, {"lon": -77.03105466666666, "bike_id": "c6b2c05d97c9df256097c8d8dfaa0581", "lat": 38.91800833333333, "fusion_lon": 0.0, "fusion_lat": 0.0, "type": "electric_scooter", "name": "c6b2c05d97c9df256097c8d8dfaa0581", "is_disabled": 0, "rental_uris": {"ios": "https://dc.lft.to/lastmile_qr_scan", "android": "https://dc.lft.to/lastmile_qr_scan"}, "is_reserved": 0}, {"lon": -77.04263033333334, "bike_id": "416fde4e4d783a2de464b2a5df5c91be", "lat": 38.90426816666667, "fusion_lon": 0.0, "fusion_lat": 0.0, "type": "electric_scooter", "name": "416fde4e4d783a2de464b2a5df5c91be", "is_disabled": 0, "rental_uris": {"ios": "https://dc.lft.to/lastmile_qr_scan", "android": "https://dc.lft.to/lastmile_qr_scan"}, "is_reserved": 0}, {"lon": -77.03265833333333, "bike_id": "26123ac38f28099a732451d5058ac333", "lat": 38.948491833333335, "fusion_lon": 0.0, "fusion_lat": 0.0, "type": "electric_scooter", "name": "26123ac38f28099a732451d5058ac333", "is_disabled": 0, "rental_uris": {"ios": "https://dc.lft.to/lastmile_qr_scan", "android": "https://dc.lft.to/lastmile_qr_scan"}, "is_reserved": 0}, {"lon": -77.03995966666666, "bike_id": "6f77e86c3ec58593e022cf0da10e00de", "lat": 38.93278, "fusion_lon": 0.0, "fusion_lat": 0.0, "type": "electric_scooter", "name": "6f77e86c3ec58593e022cf0da10e00de", "is_disabled": 0, "rental_uris": {"ios": "https://dc.lft.to/lastmile_qr_scan", "android": "https://dc.lft.to/lastmile_qr_scan"}, "is_reserved": 0}, {"lon": -76.99366516666667, "bike_id": "bff34d19dedcf8d0bd61be831f1d8fea", "lat": 38.90028866666667, "fusion_lon": 0.0, "fusion_lat": 0.0, "type": "electric_bike", "name": "bff34d19dedcf8d0bd61be831f1d8fea", "is_disabled": 0, "rental_uris": {"ios": "https://dc.lft.to/lastmile_qr_scan", "android": "https://dc.lft.to/lastmile_qr_scan"}, "is_reserved": 0}, {"lon": -77.02535933333333, "bike_id": "a67211f462b9d6f5d23db2a849c94ba1", "lat": 38.94106516666667, "fusion_lon": 0.0, "fusion_lat": 0.0, "type": "electric_scooter", "name": "a67211f462b9d6f5d23db2a849c94ba1", "is_disabled": 0, "rental_uris": {"ios": "https://dc.lft.to/lastmile_qr_scan", "android": "https://dc.lft.to/lastmile_qr_scan"}, "is_reserved": 0}, {"lon": -76.99530483333334, "bike_id": "6ee3e8cf470eba17a0c95b496ceb60fc", "lat": 38.8917825, "fusion_lon": 0.0, "fusion_lat": 0.0, "type": "electric_scooter", "name": "6ee3e8cf470eba17a0c95b496ceb60fc", "is_disabled": 0, "rental_uris": {"ios": "https://dc.lft.to/lastmile_qr_scan", "android": "https://dc.lft.to/lastmile_qr_scan"}, "is_reserved": 0}, {"lon": -77.0272155, "bike_id": "85103fa88f9a44f512607a91aba970bf", "lat": 38.8949405, "fusion_lon": 0.0, "fusion_lat": 0.0, "type": "electric_scooter", "name": "85103fa88f9a44f512607a91aba970bf", "is_disabled": 0, "rental_uris": {"ios": "https://dc.lft.to/lastmile_qr_scan", "android": "https://dc.lft.to/lastmile_qr_scan"}, "is_reserved": 0}, {"lon": -77.03108733333333, "bike_id": "ccf5c7bcc0403119ae0beb17a8e40e97", "lat": 38.9247975, "fusion_lon": 0.0, "fusion_lat": 0.0, "type": "electric_scooter", "name": "ccf5c7bcc0403119ae0beb17a8e40e97", "is_disabled": 0, "rental_uris": {"ios": "https://dc.lft.to/lastmile_qr_scan", "android": "https://dc.lft.to/lastmile_qr_scan"}, "is_reserved": 0}, {"lon": -77.027443, "bike_id": "f406653efabcfd6cc5585b5669ed8c8f", "lat": 38.881566, "fusion_lon": 0.0, "fusion_lat": 0.0, "type": "electric_scooter", "name": "f406653efabcfd6cc5585b5669ed8c8f", "is_disabled": 0, "rental_uris": {"ios": "https://dc.lft.to/lastmile_qr_scan", "android": "https://dc.lft.to/lastmile_qr_scan"}, "is_reserved": 0}, {"lon": -77.02457233333334, "bike_id": "06b730a19ac39c2d5504077d80c507b1", "lat": 38.93861116666667, "fusion_lon": 0.0, "fusion_lat": 0.0, "type": "electric_scooter", "name": "06b730a19ac39c2d5504077d80c507b1", "is_disabled": 0, "rental_uris": {"ios": "https://dc.lft.to/lastmile_qr_scan", "android": "https://dc.lft.to/lastmile_qr_scan"}, "is_reserved": 0}, {"lon": -77.0377585, "bike_id": "2a5f4f3d09c47ac906f31042ee43dfa0", "lat": 38.916957, "fusion_lon": 0.0, "fusion_lat": 0.0, "type": "electric_scooter", "name": "2a5f4f3d09c47ac906f31042ee43dfa0", "is_disabled": 0, "rental_uris": {"ios": "https://dc.lft.to/lastmile_qr_scan", "android": "https://dc.lft.to/lastmile_qr_scan"}, "is_reserved": 0}, {"lon": -77.0279345, "bike_id": "d5cf189d6a4175b38e699175d74261b5", "lat": 38.961343, "fusion_lon": 0.0, "fusion_lat": 0.0, "type": "electric_scooter", "name": "d5cf189d6a4175b38e699175d74261b5", "is_disabled": 0, "rental_uris": {"ios": "https://dc.lft.to/lastmile_qr_scan", "android": "https://dc.lft.to/lastmile_qr_scan"}, "is_reserved": 0}, {"lon": -77.02719916666666, "bike_id": "49e13559de86a9bfc3669ff3428b0630", "lat": 38.8975, "fusion_lon": 0.0, "fusion_lat": 0.0, "type": "electric_scooter", "name": "49e13559de86a9bfc3669ff3428b0630", "is_disabled": 0, "rental_uris": {"ios": "https://dc.lft.to/lastmile_qr_scan", "android": "https://dc.lft.to/lastmile_qr_scan"}, "is_reserved": 0}, {"lon": -77.0291445, "bike_id": "926ada2a5cec18535b57e585a9519dee", "lat": 38.9403865, "fusion_lon": 0.0, "fusion_lat": 0.0, "type": "electric_scooter", "name": "926ada2a5cec18535b57e585a9519dee", "is_disabled": 0, "rental_uris": {"ios": "https://dc.lft.to/lastmile_qr_scan", "android": "https://dc.lft.to/lastmile_qr_scan"}, "is_reserved": 0}, {"lon": -77.04189166666667, "bike_id": "74647a78878ccd41a912c058613caeb1", "lat": 38.90537366666667, "fusion_lon": 0.0, "fusion_lat": 0.0, "type": "electric_scooter", "name": "74647a78878ccd41a912c058613caeb1", "is_disabled": 0, "rental_uris": {"ios": "https://dc.lft.to/lastmile_qr_scan", "android": "https://dc.lft.to/lastmile_qr_scan"}, "is_reserved": 0}, {"lon": -76.9954215, "bike_id": "f82a9cf4035681a26b36672f82096332", "lat": 38.88379366666667, "fusion_lon": 0.0, "fusion_lat": 0.0, "type": "electric_scooter", "name": "f82a9cf4035681a26b36672f82096332", "is_disabled": 0, "rental_uris": {"ios": "https://dc.lft.to/lastmile_qr_scan", "android": "https://dc.lft.to/lastmile_qr_scan"}, "is_reserved": 0}, {"lon": -77.0487115, "bike_id": "804ff03e4ecca5a7591012999c17056e", "lat": 38.892919, "fusion_lon": 0.0, "fusion_lat": 0.0, "type": "electric_scooter", "name": "804ff03e4ecca5a7591012999c17056e", "is_disabled": 0, "rental_uris": {"ios": "https://dc.lft.to/lastmile_qr_scan", "android": "https://dc.lft.to/lastmile_qr_scan"}, "is_reserved": 0}, {"lon": -77.04574, "bike_id": "661705db28efdfbb4320849c9c5abb2c", "lat": 38.9133725, "fusion_lon": 0.0, "fusion_lat": 0.0, "type": "electric_scooter", "name": "661705db28efdfbb4320849c9c5abb2c", "is_disabled": 0, "rental_uris": {"ios": "https://dc.lft.to/lastmile_qr_scan", "android": "https://dc.lft.to/lastmile_qr_scan"}, "is_reserved": 0}, {"lon": -77.02507416666667, "bike_id": "6388937b9b24e47267e9aaec254fb186", "lat": 38.9191435, "fusion_lon": 0.0, "fusion_lat": 0.0, "type": "electric_scooter", "name": "6388937b9b24e47267e9aaec254fb186", "is_disabled": 0, "rental_uris": {"ios": "https://dc.lft.to/lastmile_qr_scan", "android": "https://dc.lft.to/lastmile_qr_scan"}, "is_reserved": 0}, {"lon": -77.07514333333333, "bike_id": "065b8fe7028aa8fa41a2a0241411c768", "lat": 38.93690866666667, "fusion_lon": 0.0, "fusion_lat": 0.0, "type": "electric_bike", "name": "065b8fe7028aa8fa41a2a0241411c768", "is_disabled": 0, "rental_uris": {"ios": "https://dc.lft.to/lastmile_qr_scan", "android": "https://dc.lft.to/lastmile_qr_scan"}, "is_reserved": 0}, {"lon": -76.99486733333333, "bike_id": "58a15655005836b00ff271e16d7ea8dd", "lat": 38.89741266666667, "fusion_lon": 0.0, "fusion_lat": 0.0, "type": "electric_scooter", "name": "58a15655005836b00ff271e16d7ea8dd", "is_disabled": 0, "rental_uris": {"ios": "https://dc.lft.to/lastmile_qr_scan", "android": "https://dc.lft.to/lastmile_qr_scan"}, "is_reserved": 0}, {"lon": -77.08030833333333, "bike_id": "1e880a6598a9cea36862f6b00c1494dc", "lat": 38.95058133333333, "fusion_lon": 0.0, "fusion_lat": 0.0, "type": "electric_scooter", "name": "1e880a6598a9cea36862f6b00c1494dc", "is_disabled": 0, "rental_uris": {"ios": "https://dc.lft.to/lastmile_qr_scan", "android": "https://dc.lft.to/lastmile_qr_scan"}, "is_reserved": 0}, {"lon": -77.0327525, "bike_id": "f44fdbf8e09ca2a5b2732c1b3ad7154e", "lat": 38.93101516666667, "fusion_lon": 0.0, "fusion_lat": 0.0, "type": "electric_scooter", "name": "f44fdbf8e09ca2a5b2732c1b3ad7154e", "is_disabled": 0, "rental_uris": {"ios": "https://dc.lft.to/lastmile_qr_scan", "android": "https://dc.lft.to/lastmile_qr_scan"}, "is_reserved": 0}, {"lon": -77.03207833333333, "bike_id": "592e0d587727585df2100ad9732176bb", "lat": 38.903696, "fusion_lon": 0.0, "fusion_lat": 0.0, "type": "electric_scooter", "name": "592e0d587727585df2100ad9732176bb", "is_disabled": 0, "rental_uris": {"ios": "https://dc.lft.to/lastmile_qr_scan", "android": "https://dc.lft.to/lastmile_qr_scan"}, "is_reserved": 0}, {"lon": -76.93014766666667, "bike_id": "4c64fda2ebfee793039942470077e366", "lat": 38.8966145, "fusion_lon": 0.0, "fusion_lat": 0.0, "type": "electric_bike", "name": "4c64fda2ebfee793039942470077e366", "is_disabled": 0, "rental_uris": {"ios": "https://dc.lft.to/lastmile_qr_scan", "android": "https://dc.lft.to/lastmile_qr_scan"}, "is_reserved": 0}, {"lon": -77.03865333333333, "bike_id": "dc4343722ef73ceb22c9ce9c1a3ba6fb", "lat": 38.906586833333336, "fusion_lon": 0.0, "fusion_lat": 0.0, "type": "electric_scooter", "name": "dc4343722ef73ceb22c9ce9c1a3ba6fb", "is_disabled": 0, "rental_uris": {"ios": "https://dc.lft.to/lastmile_qr_scan", "android": "https://dc.lft.to/lastmile_qr_scan"}, "is_reserved": 0}, {"lon": -77.04173083333333, "bike_id": "65c90ac8c37d83ffdce55d466c3bb4f6", "lat": 38.90331316666666, "fusion_lon": 0.0, "fusion_lat": 0.0, "type": "electric_scooter", "name": "65c90ac8c37d83ffdce55d466c3bb4f6", "is_disabled": 0, "rental_uris": {"ios": "https://dc.lft.to/lastmile_qr_scan", "android": "https://dc.lft.to/lastmile_qr_scan"}, "is_reserved": 0}, {"lon": -77.0329525, "bike_id": "13a600a8b0c4ab4dae6bfc7bb561ba2d", "lat": 38.956512833333335, "fusion_lon": 0.0, "fusion_lat": 0.0, "type": "electric_scooter", "name": "13a600a8b0c4ab4dae6bfc7bb561ba2d", "is_disabled": 0, "rental_uris": {"ios": "https://dc.lft.to/lastmile_qr_scan", "android": "https://dc.lft.to/lastmile_qr_scan"}, "is_reserved": 0}, {"lon": -76.9317735, "bike_id": "88f0d5b55870e74ad4d28b6587486e2b", "lat": 38.89882766666667, "fusion_lon": 0.0, "fusion_lat": 0.0, "type": "electric_scooter", "name": "88f0d5b55870e74ad4d28b6587486e2b", "is_disabled": 0, "rental_uris": {"ios": "https://dc.lft.to/lastmile_qr_scan", "android": "https://dc.lft.to/lastmile_qr_scan"}, "is_reserved": 0}, {"lon": -77.02725766666667, "bike_id": "db4bb686c12026d11dfbe123071ddd0e", "lat": 38.897525333333334, "fusion_lon": 0.0, "fusion_lat": 0.0, "type": "electric_scooter", "name": "db4bb686c12026d11dfbe123071ddd0e", "is_disabled": 0, "rental_uris": {"ios": "https://dc.lft.to/lastmile_qr_scan", "android": "https://dc.lft.to/lastmile_qr_scan"}, "is_reserved": 0}, {"lon": -77.00651316666666, "bike_id": "60e15db365a8350530d8ecc93c1ca9d5", "lat": 38.83894883333333, "fusion_lon": 0.0, "fusion_lat": 0.0, "type": "electric_scooter", "name": "60e15db365a8350530d8ecc93c1ca9d5", "is_disabled": 0, "rental_uris": {"ios": "https://dc.lft.to/lastmile_qr_scan", "android": "https://dc.lft.to/lastmile_qr_scan"}, "is_reserved": 0}, {"lon": -77.0255795, "bike_id": "f57712f4325d7c8f4dfa962be747a5a6", "lat": 38.9388075, "fusion_lon": 0.0, "fusion_lat": 0.0, "type": "electric_scooter", "name": "f57712f4325d7c8f4dfa962be747a5a6", "is_disabled": 0, "rental_uris": {"ios": "https://dc.lft.to/lastmile_qr_scan", "android": "https://dc.lft.to/lastmile_qr_scan"}, "is_reserved": 0}, {"lon": -76.95752433333334, "bike_id": "dd85e4887b02d7babc9ae3db4ed98cbf", "lat": 38.884322833333336, "fusion_lon": 0.0, "fusion_lat": 0.0, "type": "electric_scooter", "name": "dd85e4887b02d7babc9ae3db4ed98cbf", "is_disabled": 0, "rental_uris": {"ios": "https://dc.lft.to/lastmile_qr_scan", "android": "https://dc.lft.to/lastmile_qr_scan"}, "is_reserved": 0}, {"lon": -76.87496366666667, "bike_id": "178b8e5bf08324ac925e964aa53f49ea", "lat": 38.990936, "fusion_lon": 0.0, "fusion_lat": 0.0, "type": "electric_bike", "name": "178b8e5bf08324ac925e964aa53f49ea", "is_disabled": 0, "rental_uris": {"ios": "https://dc.lft.to/lastmile_qr_scan", "android": "https://dc.lft.to/lastmile_qr_scan"}, "is_reserved": 0}, {"lon": -77.07248166666666, "bike_id": "763a3552a509a787ea88a52202e31fdb", "lat": 38.93423216666667, "fusion_lon": 0.0, "fusion_lat": 0.0, "type": "electric_scooter", "name": "763a3552a509a787ea88a52202e31fdb", "is_disabled": 0, "rental_uris": {"ios": "https://dc.lft.to/lastmile_qr_scan", "android": "https://dc.lft.to/lastmile_qr_scan"}, "is_reserved": 0}, {"lon": -76.99888783333333, "bike_id": "3f34fad400b7f4b8cb0fde5348d0b350", "lat": 38.92056733333333, "fusion_lon": 0.0, "fusion_lat": 0.0, "type": "electric_scooter", "name": "3f34fad400b7f4b8cb0fde5348d0b350", "is_disabled": 0, "rental_uris": {"ios": "https://dc.lft.to/lastmile_qr_scan", "android": "https://dc.lft.to/lastmile_qr_scan"}, "is_reserved": 0}, {"lon": -76.99371816666667, "bike_id": "47bd469fb7b08fb500e30a422293b27e", "lat": 38.8797515, "fusion_lon": 0.0, "fusion_lat": 0.0, "type": "electric_scooter", "name": "47bd469fb7b08fb500e30a422293b27e", "is_disabled": 0, "rental_uris": {"ios": "https://dc.lft.to/lastmile_qr_scan", "android": "https://dc.lft.to/lastmile_qr_scan"}, "is_reserved": 0}, {"lon": -77.031172, "bike_id": "ecdf7c24543f617ffb5816f4bc492f00", "lat": 38.923859666666665, "fusion_lon": 0.0, "fusion_lat": 0.0, "type": "electric_scooter", "name": "ecdf7c24543f617ffb5816f4bc492f00", "is_disabled": 0, "rental_uris": {"ios": "https://dc.lft.to/lastmile_qr_scan", "android": "https://dc.lft.to/lastmile_qr_scan"}, "is_reserved": 0}, {"lon": -77.03801883333334, "bike_id": "243b1e8f14e88d15979dc7946c4f54b7", "lat": 38.9068, "fusion_lon": 0.0, "fusion_lat": 0.0, "type": "electric_scooter", "name": "243b1e8f14e88d15979dc7946c4f54b7", "is_disabled": 0, "rental_uris": {"ios": "https://dc.lft.to/lastmile_qr_scan", "android": "https://dc.lft.to/lastmile_qr_scan"}, "is_reserved": 0}, {"lon": -76.9900215, "bike_id": "2656c03ac9299205150e5f089ea2bbc1", "lat": 38.865144, "fusion_lon": 0.0, "fusion_lat": 0.0, "type": "electric_scooter", "name": "2656c03ac9299205150e5f089ea2bbc1", "is_disabled": 0, "rental_uris": {"ios": "https://dc.lft.to/lastmile_qr_scan", "android": "https://dc.lft.to/lastmile_qr_scan"}, "is_reserved": 0}, {"lon": -76.98851816666667, "bike_id": "86222ba31bf223246acdac7fb12ce048", "lat": 38.867302, "fusion_lon": 0.0, "fusion_lat": 0.0, "type": "electric_scooter", "name": "86222ba31bf223246acdac7fb12ce048", "is_disabled": 0, "rental_uris": {"ios": "https://dc.lft.to/lastmile_qr_scan", "android": "https://dc.lft.to/lastmile_qr_scan"}, "is_reserved": 0}, {"lon": -77.0319035, "bike_id": "054c7f77c226f37d3fd153940a0fcc36", "lat": 38.917465666666665, "fusion_lon": 0.0, "fusion_lat": 0.0, "type": "electric_scooter", "name": "054c7f77c226f37d3fd153940a0fcc36", "is_disabled": 0, "rental_uris": {"ios": "https://dc.lft.to/lastmile_qr_scan", "android": "https://dc.lft.to/lastmile_qr_scan"}, "is_reserved": 0}, {"lon": -77.027202, "bike_id": "dbfa77cd6714ddd0341c8909f4e23d1c", "lat": 38.897474, "fusion_lon": 0.0, "fusion_lat": 0.0, "type": "electric_scooter", "name": "dbfa77cd6714ddd0341c8909f4e23d1c", "is_disabled": 0, "rental_uris": {"ios": "https://dc.lft.to/lastmile_qr_scan", "android": "https://dc.lft.to/lastmile_qr_scan"}, "is_reserved": 0}, {"lon": -77.022074, "bike_id": "5c2d75e3f46cfc4dfc02a97935b18dd3", "lat": 38.87894983333333, "fusion_lon": 0.0, "fusion_lat": 0.0, "type": "electric_scooter", "name": "5c2d75e3f46cfc4dfc02a97935b18dd3", "is_disabled": 0, "rental_uris": {"ios": "https://dc.lft.to/lastmile_qr_scan", "android": "https://dc.lft.to/lastmile_qr_scan"}, "is_reserved": 0}, {"lon": -77.03741183333334, "bike_id": "0d28e268c5965253b3d88a0ae1aee8ae", "lat": 38.918048166666665, "fusion_lon": 0.0, "fusion_lat": 0.0, "type": "electric_scooter", "name": "0d28e268c5965253b3d88a0ae1aee8ae", "is_disabled": 0, "rental_uris": {"ios": "https://dc.lft.to/lastmile_qr_scan", "android": "https://dc.lft.to/lastmile_qr_scan"}, "is_reserved": 0}, {"lon": -77.01737683333333, "bike_id": "99258e849898d50e1e9cdb984e356704", "lat": 38.887458333333335, "fusion_lon": 0.0, "fusion_lat": 0.0, "type": "electric_scooter", "name": "99258e849898d50e1e9cdb984e356704", "is_disabled": 0, "rental_uris": {"ios": "https://dc.lft.to/lastmile_qr_scan", "android": "https://dc.lft.to/lastmile_qr_scan"}, "is_reserved": 0}, {"lon": -77.03969883333333, "bike_id": "c973ce5c1252faa8991d068622f7f707", "lat": 38.892258166666664, "fusion_lon": 0.0, "fusion_lat": 0.0, "type": "electric_scooter", "name": "c973ce5c1252faa8991d068622f7f707", "is_disabled": 0, "rental_uris": {"ios": "https://dc.lft.to/lastmile_qr_scan", "android": "https://dc.lft.to/lastmile_qr_scan"}, "is_reserved": 0}, {"lon": -77.04338033333333, "bike_id": "0fcf6ab8008c38a82b628c006662010e", "lat": 38.89225066666667, "fusion_lon": 0.0, "fusion_lat": 0.0, "type": "electric_scooter", "name": "0fcf6ab8008c38a82b628c006662010e", "is_disabled": 0, "rental_uris": {"ios": "https://dc.lft.to/lastmile_qr_scan", "android": "https://dc.lft.to/lastmile_qr_scan"}, "is_reserved": 0}, {"lon": -77.03302516666666, "bike_id": "2feef8754717ad04083607577d9f19d5", "lat": 38.898301833333335, "fusion_lon": 0.0, "fusion_lat": 0.0, "type": "electric_scooter", "name": "2feef8754717ad04083607577d9f19d5", "is_disabled": 0, "rental_uris": {"ios": "https://dc.lft.to/lastmile_qr_scan", "android": "https://dc.lft.to/lastmile_qr_scan"}, "is_reserved": 0}, {"lon": -77.050063, "bike_id": "18f1b962f7be90cfb2ebb96331f68649", "lat": 38.892344333333334, "fusion_lon": 0.0, "fusion_lat": 0.0, "type": "electric_scooter", "name": "18f1b962f7be90cfb2ebb96331f68649", "is_disabled": 0, "rental_uris": {"ios": "https://dc.lft.to/lastmile_qr_scan", "android": "https://dc.lft.to/lastmile_qr_scan"}, "is_reserved": 0}, {"lon": -77.03075766666667, "bike_id": "555be98a683b46583cfbfd5a91235029", "lat": 38.93305866666667, "fusion_lon": 0.0, "fusion_lat": 0.0, "type": "electric_scooter", "name": "555be98a683b46583cfbfd5a91235029", "is_disabled": 0, "rental_uris": {"ios": "https://dc.lft.to/lastmile_qr_scan", "android": "https://dc.lft.to/lastmile_qr_scan"}, "is_reserved": 0}, {"lon": -77.019775, "bike_id": "9e789c69e0428bac72e17b6cda75ddf8", "lat": 38.88388483333333, "fusion_lon": 0.0, "fusion_lat": 0.0, "type": "electric_scooter", "name": "9e789c69e0428bac72e17b6cda75ddf8", "is_disabled": 0, "rental_uris": {"ios": "https://dc.lft.to/lastmile_qr_scan", "android": "https://dc.lft.to/lastmile_qr_scan"}, "is_reserved": 0}, {"lon": -77.03661066666666, "bike_id": "eeb9689b9a816194aba63ac716d5058d", "lat": 38.9037415, "fusion_lon": 0.0, "fusion_lat": 0.0, "type": "electric_scooter", "name": "eeb9689b9a816194aba63ac716d5058d", "is_disabled": 0, "rental_uris": {"ios": "https://dc.lft.to/lastmile_qr_scan", "android": "https://dc.lft.to/lastmile_qr_scan"}, "is_reserved": 0}, {"lon": -77.16235866666666, "bike_id": "549d3b3f32633bfd73f98f510bba4c37", "lat": 38.88655216666667, "fusion_lon": 0.0, "fusion_lat": 0.0, "type": "electric_bike", "name": "549d3b3f32633bfd73f98f510bba4c37", "is_disabled": 0, "rental_uris": {"ios": "https://dc.lft.to/lastmile_qr_scan", "android": "https://dc.lft.to/lastmile_qr_scan"}, "is_reserved": 0}, {"lon": -76.95658266666666, "bike_id": "15d5a7141616f67c50084db42064e2c1", "lat": 38.896289, "fusion_lon": 0.0, "fusion_lat": 0.0, "type": "electric_scooter", "name": "15d5a7141616f67c50084db42064e2c1", "is_disabled": 0, "rental_uris": {"ios": "https://dc.lft.to/lastmile_qr_scan", "android": "https://dc.lft.to/lastmile_qr_scan"}, "is_reserved": 0}, {"lon": -77.03318033333333, "bike_id": "8915aa7a1bff884ea97e0a2099311fb8", "lat": 38.90374416666667, "fusion_lon": 0.0, "fusion_lat": 0.0, "type": "electric_scooter", "name": "8915aa7a1bff884ea97e0a2099311fb8", "is_disabled": 0, "rental_uris": {"ios": "https://dc.lft.to/lastmile_qr_scan", "android": "https://dc.lft.to/lastmile_qr_scan"}, "is_reserved": 0}, {"lon": -77.02480566666667, "bike_id": "8e082f38ede1335383d8f9094f4b08d9", "lat": 38.9170725, "fusion_lon": 0.0, "fusion_lat": 0.0, "type": "electric_scooter", "name": "8e082f38ede1335383d8f9094f4b08d9", "is_disabled": 0, "rental_uris": {"ios": "https://dc.lft.to/lastmile_qr_scan", "android": "https://dc.lft.to/lastmile_qr_scan"}, "is_reserved": 0}, {"lon": -76.99852083333333, "bike_id": "6583aa436fd2ba8410e40a3f629fd3fc", "lat": 38.96254, "fusion_lon": 0.0, "fusion_lat": 0.0, "type": "electric_bike", "name": "6583aa436fd2ba8410e40a3f629fd3fc", "is_disabled": 0, "rental_uris": {"ios": "https://dc.lft.to/lastmile_qr_scan", "android": "https://dc.lft.to/lastmile_qr_scan"}, "is_reserved": 0}, {"lon": -77.05254216666667, "bike_id": "aea76298a2256d0da50a87cf50d159bc", "lat": 38.92734033333333, "fusion_lon": 0.0, "fusion_lat": 0.0, "type": "electric_scooter", "name": "aea76298a2256d0da50a87cf50d159bc", "is_disabled": 0, "rental_uris": {"ios": "https://dc.lft.to/lastmile_qr_scan", "android": "https://dc.lft.to/lastmile_qr_scan"}, "is_reserved": 0}, {"lon": -76.88405816666666, "bike_id": "75ddaae1cda479fc7747207fef058fc6", "lat": 38.931718833333335, "fusion_lon": 0.0, "fusion_lat": 0.0, "type": "electric_bike", "name": "75ddaae1cda479fc7747207fef058fc6", "is_disabled": 0, "rental_uris": {"ios": "https://dc.lft.to/lastmile_qr_scan", "android": "https://dc.lft.to/lastmile_qr_scan"}, "is_reserved": 0}, {"lon": -77.0275805, "bike_id": "4bd922e4ce91d770e05a92291358f232", "lat": 38.965721, "fusion_lon": 0.0, "fusion_lat": 0.0, "type": "electric_bike", "name": "4bd922e4ce91d770e05a92291358f232", "is_disabled": 0, "rental_uris": {"ios": "https://dc.lft.to/lastmile_qr_scan", "android": "https://dc.lft.to/lastmile_qr_scan"}, "is_reserved": 0}, {"lon": -77.02465683333334, "bike_id": "213f40fb9393bc66054285327a9edba3", "lat": 38.94197116666667, "fusion_lon": 0.0, "fusion_lat": 0.0, "type": "electric_scooter", "name": "213f40fb9393bc66054285327a9edba3", "is_disabled": 0, "rental_uris": {"ios": "https://dc.lft.to/lastmile_qr_scan", "android": "https://dc.lft.to/lastmile_qr_scan"}, "is_reserved": 0}, {"lon": -77.06033383333333, "bike_id": "408749e79ec44048a47b01a034e075fb", "lat": 38.933629333333336, "fusion_lon": 0.0, "fusion_lat": 0.0, "type": "electric_scooter", "name": "408749e79ec44048a47b01a034e075fb", "is_disabled": 0, "rental_uris": {"ios": "https://dc.lft.to/lastmile_qr_scan", "android": "https://dc.lft.to/lastmile_qr_scan"}, "is_reserved": 0}, {"lon": -77.04329416666667, "bike_id": "b545999aa86de7dbbce75dd0b480192e", "lat": 38.902468999999996, "fusion_lon": 0.0, "fusion_lat": 0.0, "type": "electric_scooter", "name": "b545999aa86de7dbbce75dd0b480192e", "is_disabled": 0, "rental_uris": {"ios": "https://dc.lft.to/lastmile_qr_scan", "android": "https://dc.lft.to/lastmile_qr_scan"}, "is_reserved": 0}, {"lon": -77.0465125, "bike_id": "6d39cd07728a3e26ad056452d90a91dc", "lat": 39.055064333333334, "fusion_lon": 0.0, "fusion_lat": 0.0, "type": "electric_bike", "name": "6d39cd07728a3e26ad056452d90a91dc", "is_disabled": 0, "rental_uris": {"ios": "https://dc.lft.to/lastmile_qr_scan", "android": "https://dc.lft.to/lastmile_qr_scan"}, "is_reserved": 0}, {"lon": -77.0388265, "bike_id": "789efada9162f3f26b2b1013d6a5d201", "lat": 38.9487185, "fusion_lon": 0.0, "fusion_lat": 0.0, "type": "electric_scooter", "name": "789efada9162f3f26b2b1013d6a5d201", "is_disabled": 0, "rental_uris": {"ios": "https://dc.lft.to/lastmile_qr_scan", "android": "https://dc.lft.to/lastmile_qr_scan"}, "is_reserved": 0}, {"lon": -77.02952116666667, "bike_id": "95cc9108c333e2858b2d84dcc4dfcf83", "lat": 38.88507883333333, "fusion_lon": 0.0, "fusion_lat": 0.0, "type": "electric_scooter", "name": "95cc9108c333e2858b2d84dcc4dfcf83", "is_disabled": 0, "rental_uris": {"ios": "https://dc.lft.to/lastmile_qr_scan", "android": "https://dc.lft.to/lastmile_qr_scan"}, "is_reserved": 0}, {"lon": -77.02210166666667, "bike_id": "cb2403577625c482aa0c8b01e5b2fcd0", "lat": 38.9056015, "fusion_lon": 0.0, "fusion_lat": 0.0, "type": "electric_scooter", "name": "cb2403577625c482aa0c8b01e5b2fcd0", "is_disabled": 0, "rental_uris": {"ios": "https://dc.lft.to/lastmile_qr_scan", "android": "https://dc.lft.to/lastmile_qr_scan"}, "is_reserved": 0}, {"lon": -76.98459133333333, "bike_id": "be716baf1a37d6d815590ade542eb60c", "lat": 38.905534, "fusion_lon": 0.0, "fusion_lat": 0.0, "type": "electric_scooter", "name": "be716baf1a37d6d815590ade542eb60c", "is_disabled": 0, "rental_uris": {"ios": "https://dc.lft.to/lastmile_qr_scan", "android": "https://dc.lft.to/lastmile_qr_scan"}, "is_reserved": 0}, {"lon": -77.0271045, "bike_id": "6d6ad289d4883ea8f39b6da56145c0e5", "lat": 38.909371, "fusion_lon": 0.0, "fusion_lat": 0.0, "type": "electric_scooter", "name": "6d6ad289d4883ea8f39b6da56145c0e5", "is_disabled": 0, "rental_uris": {"ios": "https://dc.lft.to/lastmile_qr_scan", "android": "https://dc.lft.to/lastmile_qr_scan"}, "is_reserved": 0}, {"lon": -77.0246655, "bike_id": "731bf54e228927ef651c1b8410f2d09f", "lat": 38.94195533333333, "fusion_lon": 0.0, "fusion_lat": 0.0, "type": "electric_scooter", "name": "731bf54e228927ef651c1b8410f2d09f", "is_disabled": 0, "rental_uris": {"ios": "https://dc.lft.to/lastmile_qr_scan", "android": "https://dc.lft.to/lastmile_qr_scan"}, "is_reserved": 0}, {"lon": -77.02719666666667, "bike_id": "a8bfce69fe1be309365924811308d6de", "lat": 38.897553, "fusion_lon": 0.0, "fusion_lat": 0.0, "type": "electric_scooter", "name": "a8bfce69fe1be309365924811308d6de", "is_disabled": 0, "rental_uris": {"ios": "https://dc.lft.to/lastmile_qr_scan", "android": "https://dc.lft.to/lastmile_qr_scan"}, "is_reserved": 0}, {"lon": -77.03818183333334, "bike_id": "04382885e13eacb18fb4be8ac08bc8c6", "lat": 38.93063866666667, "fusion_lon": 0.0, "fusion_lat": 0.0, "type": "electric_scooter", "name": "04382885e13eacb18fb4be8ac08bc8c6", "is_disabled": 0, "rental_uris": {"ios": "https://dc.lft.to/lastmile_qr_scan", "android": "https://dc.lft.to/lastmile_qr_scan"}, "is_reserved": 0}, {"lon": -77.03196733333333, "bike_id": "13c1b5ce4b522eb7bada8825458ab7e9", "lat": 38.916187, "fusion_lon": 0.0, "fusion_lat": 0.0, "type": "electric_scooter", "name": "13c1b5ce4b522eb7bada8825458ab7e9", "is_disabled": 0, "rental_uris": {"ios": "https://dc.lft.to/lastmile_qr_scan", "android": "https://dc.lft.to/lastmile_qr_scan"}, "is_reserved": 0}, {"lon": -77.0222425, "bike_id": "fca987ac610a1c56eaedd35e557c01fc", "lat": 38.912562, "fusion_lon": 0.0, "fusion_lat": 0.0, "type": "electric_scooter", "name": "fca987ac610a1c56eaedd35e557c01fc", "is_disabled": 0, "rental_uris": {"ios": "https://dc.lft.to/lastmile_qr_scan", "android": "https://dc.lft.to/lastmile_qr_scan"}, "is_reserved": 0}, {"lon": -77.03971216666666, "bike_id": "6a59d045a8b857b7a3e4d1ad8fa0e5a3", "lat": 38.9097105, "fusion_lon": 0.0, "fusion_lat": 0.0, "type": "electric_scooter", "name": "6a59d045a8b857b7a3e4d1ad8fa0e5a3", "is_disabled": 0, "rental_uris": {"ios": "https://dc.lft.to/lastmile_qr_scan", "android": "https://dc.lft.to/lastmile_qr_scan"}, "is_reserved": 0}, {"lon": -77.04514516666667, "bike_id": "652a59af633fa9efd50431ddbb59b6a5", "lat": 38.9038, "fusion_lon": 0.0, "fusion_lat": 0.0, "type": "electric_scooter", "name": "652a59af633fa9efd50431ddbb59b6a5", "is_disabled": 0, "rental_uris": {"ios": "https://dc.lft.to/lastmile_qr_scan", "android": "https://dc.lft.to/lastmile_qr_scan"}, "is_reserved": 0}, {"lon": -77.001426, "bike_id": "0206b4fca0544305aafcf7eadd8299da", "lat": 38.894755333333336, "fusion_lon": 0.0, "fusion_lat": 0.0, "type": "electric_scooter", "name": "0206b4fca0544305aafcf7eadd8299da", "is_disabled": 0, "rental_uris": {"ios": "https://dc.lft.to/lastmile_qr_scan", "android": "https://dc.lft.to/lastmile_qr_scan"}, "is_reserved": 0}, {"lon": -76.92669666666667, "bike_id": "2881a72dc45a6c994775a7085cc725c2", "lat": 38.88041, "fusion_lon": 0.0, "fusion_lat": 0.0, "type": "electric_scooter", "name": "2881a72dc45a6c994775a7085cc725c2", "is_disabled": 0, "rental_uris": {"ios": "https://dc.lft.to/lastmile_qr_scan", "android": "https://dc.lft.to/lastmile_qr_scan"}, "is_reserved": 0}, {"lon": -77.04597483333333, "bike_id": "23f378f5fec02ccba3a26e49a495222e", "lat": 38.90281816666667, "fusion_lon": 0.0, "fusion_lat": 0.0, "type": "electric_scooter", "name": "23f378f5fec02ccba3a26e49a495222e", "is_disabled": 0, "rental_uris": {"ios": "https://dc.lft.to/lastmile_qr_scan", "android": "https://dc.lft.to/lastmile_qr_scan"}, "is_reserved": 0}, {"lon": -77.024126, "bike_id": "07aafba5393d95bb2a54e36120e013df", "lat": 38.895293833333334, "fusion_lon": 0.0, "fusion_lat": 0.0, "type": "electric_scooter", "name": "07aafba5393d95bb2a54e36120e013df", "is_disabled": 0, "rental_uris": {"ios": "https://dc.lft.to/lastmile_qr_scan", "android": "https://dc.lft.to/lastmile_qr_scan"}, "is_reserved": 0}, {"lon": -77.043356, "bike_id": "0eb8d0e5a24d2d221cf88860297f0ff4", "lat": 38.908828166666666, "fusion_lon": 0.0, "fusion_lat": 0.0, "type": "electric_scooter", "name": "0eb8d0e5a24d2d221cf88860297f0ff4", "is_disabled": 0, "rental_uris": {"ios": "https://dc.lft.to/lastmile_qr_scan", "android": "https://dc.lft.to/lastmile_qr_scan"}, "is_reserved": 0}, {"lon": -76.999151, "bike_id": "3ca5714ae0cada1dcddef507fedb4826", "lat": 38.90744683333333, "fusion_lon": 0.0, "fusion_lat": 0.0, "type": "electric_scooter", "name": "3ca5714ae0cada1dcddef507fedb4826", "is_disabled": 0, "rental_uris": {"ios": "https://dc.lft.to/lastmile_qr_scan", "android": "https://dc.lft.to/lastmile_qr_scan"}, "is_reserved": 0}, {"lon": -77.06268866666667, "bike_id": "fe42fbc94feed31f50bba45232e0313d", "lat": 38.94307366666666, "fusion_lon": 0.0, "fusion_lat": 0.0, "type": "electric_scooter", "name": "fe42fbc94feed31f50bba45232e0313d", "is_disabled": 0, "rental_uris": {"ios": "https://dc.lft.to/lastmile_qr_scan", "android": "https://dc.lft.to/lastmile_qr_scan"}, "is_reserved": 0}, {"lon": -77.0433515, "bike_id": "be6ba3ac4abea0d62e06257c9f9b3c4b", "lat": 38.892285333333334, "fusion_lon": 0.0, "fusion_lat": 0.0, "type": "electric_scooter", "name": "be6ba3ac4abea0d62e06257c9f9b3c4b", "is_disabled": 0, "rental_uris": {"ios": "https://dc.lft.to/lastmile_qr_scan", "android": "https://dc.lft.to/lastmile_qr_scan"}, "is_reserved": 0}, {"lon": -76.93744666666667, "bike_id": "1a904886954de6ee00384d9f7d87d577", "lat": 38.89013816666667, "fusion_lon": 0.0, "fusion_lat": 0.0, "type": "electric_scooter", "name": "1a904886954de6ee00384d9f7d87d577", "is_disabled": 0, "rental_uris": {"ios": "https://dc.lft.to/lastmile_qr_scan", "android": "https://dc.lft.to/lastmile_qr_scan"}, "is_reserved": 0}, {"lon": -77.05686933333334, "bike_id": "4348b0d60c5b3f90ba975284d1091e6c", "lat": 38.864895, "fusion_lon": 0.0, "fusion_lat": 0.0, "type": "electric_bike", "name": "4348b0d60c5b3f90ba975284d1091e6c", "is_disabled": 0, "rental_uris": {"ios": "https://dc.lft.to/lastmile_qr_scan", "android": "https://dc.lft.to/lastmile_qr_scan"}, "is_reserved": 0}, {"lon": -77.03664616666667, "bike_id": "37575349e68677cedfe0cb999f96961e", "lat": 38.92139983333333, "fusion_lon": 0.0, "fusion_lat": 0.0, "type": "electric_scooter", "name": "37575349e68677cedfe0cb999f96961e", "is_disabled": 0, "rental_uris": {"ios": "https://dc.lft.to/lastmile_qr_scan", "android": "https://dc.lft.to/lastmile_qr_scan"}, "is_reserved": 0}, {"lon": -77.02385316666667, "bike_id": "31d7c719c6ccacdbcd3640f4a37ae69c", "lat": 38.89236233333333, "fusion_lon": 0.0, "fusion_lat": 0.0, "type": "electric_scooter", "name": "31d7c719c6ccacdbcd3640f4a37ae69c", "is_disabled": 0, "rental_uris": {"ios": "https://dc.lft.to/lastmile_qr_scan", "android": "https://dc.lft.to/lastmile_qr_scan"}, "is_reserved": 0}, {"lon": -77.03316883333333, "bike_id": "9e313fc0e93dbce29704792947a54f86", "lat": 38.9011685, "fusion_lon": 0.0, "fusion_lat": 0.0, "type": "electric_scooter", "name": "9e313fc0e93dbce29704792947a54f86", "is_disabled": 0, "rental_uris": {"ios": "https://dc.lft.to/lastmile_qr_scan", "android": "https://dc.lft.to/lastmile_qr_scan"}, "is_reserved": 0}, {"lon": -77.0020115, "bike_id": "ac3598afb3a28a77b39af308921ed8ed", "lat": 38.90237183333333, "fusion_lon": 0.0, "fusion_lat": 0.0, "type": "electric_scooter", "name": "ac3598afb3a28a77b39af308921ed8ed", "is_disabled": 0, "rental_uris": {"ios": "https://dc.lft.to/lastmile_qr_scan", "android": "https://dc.lft.to/lastmile_qr_scan"}, "is_reserved": 0}, {"lon": -77.02655466666667, "bike_id": "c4570f4d13ae8a600a34f438e67b86ac", "lat": 38.927800500000004, "fusion_lon": 0.0, "fusion_lat": 0.0, "type": "electric_scooter", "name": "c4570f4d13ae8a600a34f438e67b86ac", "is_disabled": 0, "rental_uris": {"ios": "https://dc.lft.to/lastmile_qr_scan", "android": "https://dc.lft.to/lastmile_qr_scan"}, "is_reserved": 0}, {"lon": -77.05046316666666, "bike_id": "579c615ea806fe5a1a6832973c41f916", "lat": 38.923672833333335, "fusion_lon": 0.0, "fusion_lat": 0.0, "type": "electric_scooter", "name": "579c615ea806fe5a1a6832973c41f916", "is_disabled": 0, "rental_uris": {"ios": "https://dc.lft.to/lastmile_qr_scan", "android": "https://dc.lft.to/lastmile_qr_scan"}, "is_reserved": 0}, {"lon": -77.038803, "bike_id": "a3aaac49ec932755e20a6dec22472128", "lat": 38.9297225, "fusion_lon": 0.0, "fusion_lat": 0.0, "type": "electric_scooter", "name": "a3aaac49ec932755e20a6dec22472128", "is_disabled": 0, "rental_uris": {"ios": "https://dc.lft.to/lastmile_qr_scan", "android": "https://dc.lft.to/lastmile_qr_scan"}, "is_reserved": 0}, {"lon": -77.00031916666667, "bike_id": "f7a42fbe2f7da83368f08553d3934386", "lat": 38.9682845, "fusion_lon": 0.0, "fusion_lat": 0.0, "type": "electric_bike", "name": "f7a42fbe2f7da83368f08553d3934386", "is_disabled": 0, "rental_uris": {"ios": "https://dc.lft.to/lastmile_qr_scan", "android": "https://dc.lft.to/lastmile_qr_scan"}, "is_reserved": 0}, {"lon": -77.03199016666667, "bike_id": "1d2fa50e4efe3ebd4dc3b2debeaa73de", "lat": 38.917483833333335, "fusion_lon": 0.0, "fusion_lat": 0.0, "type": "electric_scooter", "name": "1d2fa50e4efe3ebd4dc3b2debeaa73de", "is_disabled": 0, "rental_uris": {"ios": "https://dc.lft.to/lastmile_qr_scan", "android": "https://dc.lft.to/lastmile_qr_scan"}, "is_reserved": 0}, {"lon": -77.0433825, "bike_id": "429f142658323b9db18613271b4f0333", "lat": 38.90690933333333, "fusion_lon": 0.0, "fusion_lat": 0.0, "type": "electric_scooter", "name": "429f142658323b9db18613271b4f0333", "is_disabled": 0, "rental_uris": {"ios": "https://dc.lft.to/lastmile_qr_scan", "android": "https://dc.lft.to/lastmile_qr_scan"}, "is_reserved": 0}, {"lon": -77.03264216666666, "bike_id": "726d3cb9fb9f78caab097c8f3ee6de57", "lat": 38.902455833333335, "fusion_lon": 0.0, "fusion_lat": 0.0, "type": "electric_scooter", "name": "726d3cb9fb9f78caab097c8f3ee6de57", "is_disabled": 0, "rental_uris": {"ios": "https://dc.lft.to/lastmile_qr_scan", "android": "https://dc.lft.to/lastmile_qr_scan"}, "is_reserved": 0}, {"lon": -77.03196266666667, "bike_id": "28822ab3894f943e2e427e7e1dffbe7f", "lat": 38.91581166666667, "fusion_lon": 0.0, "fusion_lat": 0.0, "type": "electric_scooter", "name": "28822ab3894f943e2e427e7e1dffbe7f", "is_disabled": 0, "rental_uris": {"ios": "https://dc.lft.to/lastmile_qr_scan", "android": "https://dc.lft.to/lastmile_qr_scan"}, "is_reserved": 0}, {"lon": -77.02212783333333, "bike_id": "d0ba3bd70c8341f4941761a51be1227a", "lat": 38.887321, "fusion_lon": 0.0, "fusion_lat": 0.0, "type": "electric_scooter", "name": "d0ba3bd70c8341f4941761a51be1227a", "is_disabled": 0, "rental_uris": {"ios": "https://dc.lft.to/lastmile_qr_scan", "android": "https://dc.lft.to/lastmile_qr_scan"}, "is_reserved": 0}, {"lon": -77.0450065, "bike_id": "35fff3250a770d2870b45be863e27a93", "lat": 38.90382666666667, "fusion_lon": 0.0, "fusion_lat": 0.0, "type": "electric_scooter", "name": "35fff3250a770d2870b45be863e27a93", "is_disabled": 0, "rental_uris": {"ios": "https://dc.lft.to/lastmile_qr_scan", "android": "https://dc.lft.to/lastmile_qr_scan"}, "is_reserved": 0}, {"lon": -77.0329635, "bike_id": "f37f0228ed4f88d977f0d23e4c6f85a5", "lat": 38.956498333333336, "fusion_lon": 0.0, "fusion_lat": 0.0, "type": "electric_scooter", "name": "f37f0228ed4f88d977f0d23e4c6f85a5", "is_disabled": 0, "rental_uris": {"ios": "https://dc.lft.to/lastmile_qr_scan", "android": "https://dc.lft.to/lastmile_qr_scan"}, "is_reserved": 0}, {"lon": -77.03993683333333, "bike_id": "bb58425c77c326e8e3b717733dda6b37", "lat": 38.9333825, "fusion_lon": 0.0, "fusion_lat": 0.0, "type": "electric_scooter", "name": "bb58425c77c326e8e3b717733dda6b37", "is_disabled": 0, "rental_uris": {"ios": "https://dc.lft.to/lastmile_qr_scan", "android": "https://dc.lft.to/lastmile_qr_scan"}, "is_reserved": 0}, {"lon": -77.01615683333333, "bike_id": "88d2fc9b6861c3b80cc2838ae28c5365", "lat": 38.899615833333336, "fusion_lon": 0.0, "fusion_lat": 0.0, "type": "electric_scooter", "name": "88d2fc9b6861c3b80cc2838ae28c5365", "is_disabled": 0, "rental_uris": {"ios": "https://dc.lft.to/lastmile_qr_scan", "android": "https://dc.lft.to/lastmile_qr_scan"}, "is_reserved": 0}, {"lon": -77.0239935, "bike_id": "b22fd4aa1827c6446eb58012ef75234f", "lat": 38.88135916666667, "fusion_lon": 0.0, "fusion_lat": 0.0, "type": "electric_scooter", "name": "b22fd4aa1827c6446eb58012ef75234f", "is_disabled": 0, "rental_uris": {"ios": "https://dc.lft.to/lastmile_qr_scan", "android": "https://dc.lft.to/lastmile_qr_scan"}, "is_reserved": 0}, {"lon": -77.01189233333334, "bike_id": "7ceca215cc1fe9dbcf0a8675dd4693a7", "lat": 38.900343, "fusion_lon": 0.0, "fusion_lat": 0.0, "type": "electric_scooter", "name": "7ceca215cc1fe9dbcf0a8675dd4693a7", "is_disabled": 0, "rental_uris": {"ios": "https://dc.lft.to/lastmile_qr_scan", "android": "https://dc.lft.to/lastmile_qr_scan"}, "is_reserved": 0}, {"lon": -76.973291, "bike_id": "4500bd4f10be678207c2469c9e5d26c1", "lat": 38.904803, "fusion_lon": 0.0, "fusion_lat": 0.0, "type": "electric_bike", "name": "4500bd4f10be678207c2469c9e5d26c1", "is_disabled": 0, "rental_uris": {"ios": "https://dc.lft.to/lastmile_qr_scan", "android": "https://dc.lft.to/lastmile_qr_scan"}, "is_reserved": 0}, {"lon": -77.04183466666667, "bike_id": "ae035c1d0e0dcd96b7af6e0c6bb773dd", "lat": 38.919818166666666, "fusion_lon": 0.0, "fusion_lat": 0.0, "type": "electric_scooter", "name": "ae035c1d0e0dcd96b7af6e0c6bb773dd", "is_disabled": 0, "rental_uris": {"ios": "https://dc.lft.to/lastmile_qr_scan", "android": "https://dc.lft.to/lastmile_qr_scan"}, "is_reserved": 0}, {"lon": -77.04339516666667, "bike_id": "372c8a442a85d4da2e92e2f20d75e3c8", "lat": 38.90046783333333, "fusion_lon": 0.0, "fusion_lat": 0.0, "type": "electric_scooter", "name": "372c8a442a85d4da2e92e2f20d75e3c8", "is_disabled": 0, "rental_uris": {"ios": "https://dc.lft.to/lastmile_qr_scan", "android": "https://dc.lft.to/lastmile_qr_scan"}, "is_reserved": 0}, {"lon": -77.025617, "bike_id": "1ca2b188889f1fca7cc5c85c5ecbbdbe", "lat": 38.882931666666664, "fusion_lon": 0.0, "fusion_lat": 0.0, "type": "electric_scooter", "name": "1ca2b188889f1fca7cc5c85c5ecbbdbe", "is_disabled": 0, "rental_uris": {"ios": "https://dc.lft.to/lastmile_qr_scan", "android": "https://dc.lft.to/lastmile_qr_scan"}, "is_reserved": 0}, {"lon": -76.99796316666666, "bike_id": "5cc679b8e6d0bd9432839615401729db", "lat": 38.9564425, "fusion_lon": 0.0, "fusion_lat": 0.0, "type": "electric_bike", "name": "5cc679b8e6d0bd9432839615401729db", "is_disabled": 0, "rental_uris": {"ios": "https://dc.lft.to/lastmile_qr_scan", "android": "https://dc.lft.to/lastmile_qr_scan"}, "is_reserved": 0}, {"lon": -77.04189516666666, "bike_id": "93ff89f7e2b35acdd4d8c32a074204fb", "lat": 38.899848, "fusion_lon": 0.0, "fusion_lat": 0.0, "type": "electric_scooter", "name": "93ff89f7e2b35acdd4d8c32a074204fb", "is_disabled": 0, "rental_uris": {"ios": "https://dc.lft.to/lastmile_qr_scan", "android": "https://dc.lft.to/lastmile_qr_scan"}, "is_reserved": 0}, {"lon": -77.04854433333334, "bike_id": "d285766f67a80011da39bea684af2519", "lat": 38.915208166666666, "fusion_lon": 0.0, "fusion_lat": 0.0, "type": "electric_scooter", "name": "d285766f67a80011da39bea684af2519", "is_disabled": 0, "rental_uris": {"ios": "https://dc.lft.to/lastmile_qr_scan", "android": "https://dc.lft.to/lastmile_qr_scan"}, "is_reserved": 0}, {"lon": -77.05016883333333, "bike_id": "42569ec57a07cca9030f60643a9e2e7e", "lat": 38.90516816666667, "fusion_lon": 0.0, "fusion_lat": 0.0, "type": "electric_scooter", "name": "42569ec57a07cca9030f60643a9e2e7e", "is_disabled": 0, "rental_uris": {"ios": "https://dc.lft.to/lastmile_qr_scan", "android": "https://dc.lft.to/lastmile_qr_scan"}, "is_reserved": 0}, {"lon": -77.02115333333333, "bike_id": "771bacf40dcbd23a391deb531abd2e27", "lat": 38.9369975, "fusion_lon": 0.0, "fusion_lat": 0.0, "type": "electric_scooter", "name": "771bacf40dcbd23a391deb531abd2e27", "is_disabled": 0, "rental_uris": {"ios": "https://dc.lft.to/lastmile_qr_scan", "android": "https://dc.lft.to/lastmile_qr_scan"}, "is_reserved": 0}, {"lon": -77.04338083333333, "bike_id": "1b813f4b3068148815d15448a987defe", "lat": 38.89229016666667, "fusion_lon": 0.0, "fusion_lat": 0.0, "type": "electric_scooter", "name": "1b813f4b3068148815d15448a987defe", "is_disabled": 0, "rental_uris": {"ios": "https://dc.lft.to/lastmile_qr_scan", "android": "https://dc.lft.to/lastmile_qr_scan"}, "is_reserved": 0}, {"lon": -77.04691016666666, "bike_id": "46193ba98a0e7d54c2ca6022e8635cb4", "lat": 38.89222316666667, "fusion_lon": 0.0, "fusion_lat": 0.0, "type": "electric_scooter", "name": "46193ba98a0e7d54c2ca6022e8635cb4", "is_disabled": 0, "rental_uris": {"ios": "https://dc.lft.to/lastmile_qr_scan", "android": "https://dc.lft.to/lastmile_qr_scan"}, "is_reserved": 0}, {"lon": -77.04691633333333, "bike_id": "b1f7a9f600148e9e3982acf4f2856ef8", "lat": 38.892258, "fusion_lon": 0.0, "fusion_lat": 0.0, "type": "electric_scooter", "name": "b1f7a9f600148e9e3982acf4f2856ef8", "is_disabled": 0, "rental_uris": {"ios": "https://dc.lft.to/lastmile_qr_scan", "android": "https://dc.lft.to/lastmile_qr_scan"}, "is_reserved": 0}, {"lon": -77.024114, "bike_id": "bfa1cd2b6515ba8925d5dee3f727a302", "lat": 38.90428383333333, "fusion_lon": 0.0, "fusion_lat": 0.0, "type": "electric_scooter", "name": "bfa1cd2b6515ba8925d5dee3f727a302", "is_disabled": 0, "rental_uris": {"ios": "https://dc.lft.to/lastmile_qr_scan", "android": "https://dc.lft.to/lastmile_qr_scan"}, "is_reserved": 0}, {"lon": -77.03020133333334, "bike_id": "bb3aeea1fd2a04d83ea8652a2629d5b8", "lat": 38.8999925, "fusion_lon": 0.0, "fusion_lat": 0.0, "type": "electric_scooter", "name": "bb3aeea1fd2a04d83ea8652a2629d5b8", "is_disabled": 0, "rental_uris": {"ios": "https://dc.lft.to/lastmile_qr_scan", "android": "https://dc.lft.to/lastmile_qr_scan"}, "is_reserved": 0}, {"lon": -77.02581933333333, "bike_id": "7ccee1f8e0f6e6cc217684c7399ca93d", "lat": 38.8873985, "fusion_lon": 0.0, "fusion_lat": 0.0, "type": "electric_scooter", "name": "7ccee1f8e0f6e6cc217684c7399ca93d", "is_disabled": 0, "rental_uris": {"ios": "https://dc.lft.to/lastmile_qr_scan", "android": "https://dc.lft.to/lastmile_qr_scan"}, "is_reserved": 0}, {"lon": -76.95895416666667, "bike_id": "973e2ef3ea0fd861e160693e2018fb4b", "lat": 38.8901155, "fusion_lon": 0.0, "fusion_lat": 0.0, "type": "electric_scooter", "name": "973e2ef3ea0fd861e160693e2018fb4b", "is_disabled": 0, "rental_uris": {"ios": "https://dc.lft.to/lastmile_qr_scan", "android": "https://dc.lft.to/lastmile_qr_scan"}, "is_reserved": 0}, {"lon": -76.96361516666667, "bike_id": "ca1a3bef62289d25cd481b474ec11bfc", "lat": 38.93503916666667, "fusion_lon": 0.0, "fusion_lat": 0.0, "type": "electric_scooter", "name": "ca1a3bef62289d25cd481b474ec11bfc", "is_disabled": 0, "rental_uris": {"ios": "https://dc.lft.to/lastmile_qr_scan", "android": "https://dc.lft.to/lastmile_qr_scan"}, "is_reserved": 0}, {"lon": -77.038227, "bike_id": "7c06950691b645d0fc65021679ddde2d", "lat": 38.9309195, "fusion_lon": 0.0, "fusion_lat": 0.0, "type": "electric_scooter", "name": "7c06950691b645d0fc65021679ddde2d", "is_disabled": 0, "rental_uris": {"ios": "https://dc.lft.to/lastmile_qr_scan", "android": "https://dc.lft.to/lastmile_qr_scan"}, "is_reserved": 0}, {"lon": -77.00922233333333, "bike_id": "b3bb67518a5708a3dfef27320b35e89d", "lat": 38.82789433333333, "fusion_lon": 0.0, "fusion_lat": 0.0, "type": "electric_bike", "name": "b3bb67518a5708a3dfef27320b35e89d", "is_disabled": 0, "rental_uris": {"ios": "https://dc.lft.to/lastmile_qr_scan", "android": "https://dc.lft.to/lastmile_qr_scan"}, "is_reserved": 0}, {"lon": -77.0351705, "bike_id": "e0ceee89181c53e17db82abc325b89a7", "lat": 38.921424, "fusion_lon": 0.0, "fusion_lat": 0.0, "type": "electric_scooter", "name": "e0ceee89181c53e17db82abc325b89a7", "is_disabled": 0, "rental_uris": {"ios": "https://dc.lft.to/lastmile_qr_scan", "android": "https://dc.lft.to/lastmile_qr_scan"}, "is_reserved": 0}, {"lon": -77.03883466666667, "bike_id": "3df9985b633ca42f440414b7ce7656fa", "lat": 38.9063355, "fusion_lon": 0.0, "fusion_lat": 0.0, "type": "electric_scooter", "name": "3df9985b633ca42f440414b7ce7656fa", "is_disabled": 0, "rental_uris": {"ios": "https://dc.lft.to/lastmile_qr_scan", "android": "https://dc.lft.to/lastmile_qr_scan"}, "is_reserved": 0}, {"lon": -77.039326, "bike_id": "bfed9467f7940452e266d375cbf267a9", "lat": 38.89904116666666, "fusion_lon": 0.0, "fusion_lat": 0.0, "type": "electric_scooter", "name": "bfed9467f7940452e266d375cbf267a9", "is_disabled": 0, "rental_uris": {"ios": "https://dc.lft.to/lastmile_qr_scan", "android": "https://dc.lft.to/lastmile_qr_scan"}, "is_reserved": 0}, {"lon": -77.035566, "bike_id": "d4b29901741b7229ebccd132e53559d0", "lat": 38.93383, "fusion_lon": 0.0, "fusion_lat": 0.0, "type": "electric_scooter", "name": "d4b29901741b7229ebccd132e53559d0", "is_disabled": 0, "rental_uris": {"ios": "https://dc.lft.to/lastmile_qr_scan", "android": "https://dc.lft.to/lastmile_qr_scan"}, "is_reserved": 0}, {"lon": -77.02090566666666, "bike_id": "f16d2c92ea80fd9845a287ca96514623", "lat": 38.92914833333333, "fusion_lon": 0.0, "fusion_lat": 0.0, "type": "electric_scooter", "name": "f16d2c92ea80fd9845a287ca96514623", "is_disabled": 0, "rental_uris": {"ios": "https://dc.lft.to/lastmile_qr_scan", "android": "https://dc.lft.to/lastmile_qr_scan"}, "is_reserved": 0}, {"lon": -77.03300433333334, "bike_id": "a766b80a7624fdc596cd5a4d53ca3957", "lat": 38.910313, "fusion_lon": 0.0, "fusion_lat": 0.0, "type": "electric_scooter", "name": "a766b80a7624fdc596cd5a4d53ca3957", "is_disabled": 0, "rental_uris": {"ios": "https://dc.lft.to/lastmile_qr_scan", "android": "https://dc.lft.to/lastmile_qr_scan"}, "is_reserved": 0}, {"lon": -77.03440583333334, "bike_id": "554d6d9fff82d7f0dd8ce2db49fdf09d", "lat": 38.909849, "fusion_lon": 0.0, "fusion_lat": 0.0, "type": "electric_scooter", "name": "554d6d9fff82d7f0dd8ce2db49fdf09d", "is_disabled": 0, "rental_uris": {"ios": "https://dc.lft.to/lastmile_qr_scan", "android": "https://dc.lft.to/lastmile_qr_scan"}, "is_reserved": 0}, {"lon": -77.0372225, "bike_id": "c06180aa8cc840bb79872681fb778279", "lat": 38.926535333333334, "fusion_lon": 0.0, "fusion_lat": 0.0, "type": "electric_scooter", "name": "c06180aa8cc840bb79872681fb778279", "is_disabled": 0, "rental_uris": {"ios": "https://dc.lft.to/lastmile_qr_scan", "android": "https://dc.lft.to/lastmile_qr_scan"}, "is_reserved": 0}, {"lon": -76.9785795, "bike_id": "7c35b8551336d6e924c3e7686b6a613e", "lat": 38.9072515, "fusion_lon": 0.0, "fusion_lat": 0.0, "type": "electric_scooter", "name": "7c35b8551336d6e924c3e7686b6a613e", "is_disabled": 0, "rental_uris": {"ios": "https://dc.lft.to/lastmile_qr_scan", "android": "https://dc.lft.to/lastmile_qr_scan"}, "is_reserved": 0}, {"lon": -77.04676166666667, "bike_id": "e0b8877973fca47819225e6ca5505cda", "lat": 38.8923415, "fusion_lon": 0.0, "fusion_lat": 0.0, "type": "electric_scooter", "name": "e0b8877973fca47819225e6ca5505cda", "is_disabled": 0, "rental_uris": {"ios": "https://dc.lft.to/lastmile_qr_scan", "android": "https://dc.lft.to/lastmile_qr_scan"}, "is_reserved": 0}, {"lon": -77.05004916666667, "bike_id": "2a559a6f40d98de0ae61221ced4c5bab", "lat": 38.89196066666667, "fusion_lon": 0.0, "fusion_lat": 0.0, "type": "electric_scooter", "name": "2a559a6f40d98de0ae61221ced4c5bab", "is_disabled": 0, "rental_uris": {"ios": "https://dc.lft.to/lastmile_qr_scan", "android": "https://dc.lft.to/lastmile_qr_scan"}, "is_reserved": 0}, {"lon": -77.017802, "bike_id": "d8f40b5b7488534116dbfa85aabd22b3", "lat": 38.886192666666666, "fusion_lon": 0.0, "fusion_lat": 0.0, "type": "electric_scooter", "name": "d8f40b5b7488534116dbfa85aabd22b3", "is_disabled": 0, "rental_uris": {"ios": "https://dc.lft.to/lastmile_qr_scan", "android": "https://dc.lft.to/lastmile_qr_scan"}, "is_reserved": 0}, {"lon": -77.0537585, "bike_id": "b1be028f92753876855c848f2d620db1", "lat": 38.92757266666667, "fusion_lon": 0.0, "fusion_lat": 0.0, "type": "electric_scooter", "name": "b1be028f92753876855c848f2d620db1", "is_disabled": 0, "rental_uris": {"ios": "https://dc.lft.to/lastmile_qr_scan", "android": "https://dc.lft.to/lastmile_qr_scan"}, "is_reserved": 0}, {"lon": -76.97564166666666, "bike_id": "dba57f43fbf2544b3de381d4c209bb73", "lat": 38.924584, "fusion_lon": 0.0, "fusion_lat": 0.0, "type": "electric_bike", "name": "dba57f43fbf2544b3de381d4c209bb73", "is_disabled": 0, "rental_uris": {"ios": "https://dc.lft.to/lastmile_qr_scan", "android": "https://dc.lft.to/lastmile_qr_scan"}, "is_reserved": 0}, {"lon": -76.99601616666666, "bike_id": "f028303d42d47a838454a281e54d65d6", "lat": 38.950754, "fusion_lon": 0.0, "fusion_lat": 0.0, "type": "electric_bike", "name": "f028303d42d47a838454a281e54d65d6", "is_disabled": 0, "rental_uris": {"ios": "https://dc.lft.to/lastmile_qr_scan", "android": "https://dc.lft.to/lastmile_qr_scan"}, "is_reserved": 0}, {"lon": -77.05048016666667, "bike_id": "0474d75a118b70413f8279b4dff8033e", "lat": 38.923711, "fusion_lon": 0.0, "fusion_lat": 0.0, "type": "electric_scooter", "name": "0474d75a118b70413f8279b4dff8033e", "is_disabled": 0, "rental_uris": {"ios": "https://dc.lft.to/lastmile_qr_scan", "android": "https://dc.lft.to/lastmile_qr_scan"}, "is_reserved": 0}, {"lon": -76.9499645, "bike_id": "4563c48c767bb7ed47a6d7b6ca4e83d4", "lat": 38.89384033333333, "fusion_lon": 0.0, "fusion_lat": 0.0, "type": "electric_scooter", "name": "4563c48c767bb7ed47a6d7b6ca4e83d4", "is_disabled": 0, "rental_uris": {"ios": "https://dc.lft.to/lastmile_qr_scan", "android": "https://dc.lft.to/lastmile_qr_scan"}, "is_reserved": 0}, {"lon": -77.03271716666667, "bike_id": "2cd3cfa1e98746e91380ef4b9ca643ac", "lat": 38.937731166666666, "fusion_lon": 0.0, "fusion_lat": 0.0, "type": "electric_scooter", "name": "2cd3cfa1e98746e91380ef4b9ca643ac", "is_disabled": 0, "rental_uris": {"ios": "https://dc.lft.to/lastmile_qr_scan", "android": "https://dc.lft.to/lastmile_qr_scan"}, "is_reserved": 0}, {"lon": -77.04486916666667, "bike_id": "fcd19bcc305e88bbf29bcd5dbbfc3801", "lat": 38.9054385, "fusion_lon": 0.0, "fusion_lat": 0.0, "type": "electric_scooter", "name": "fcd19bcc305e88bbf29bcd5dbbfc3801", "is_disabled": 0, "rental_uris": {"ios": "https://dc.lft.to/lastmile_qr_scan", "android": "https://dc.lft.to/lastmile_qr_scan"}, "is_reserved": 0}, {"lon": -77.00347116666667, "bike_id": "8f6dfe156f769bc914931538be729b42", "lat": 38.896471166666664, "fusion_lon": 0.0, "fusion_lat": 0.0, "type": "electric_scooter", "name": "8f6dfe156f769bc914931538be729b42", "is_disabled": 0, "rental_uris": {"ios": "https://dc.lft.to/lastmile_qr_scan", "android": "https://dc.lft.to/lastmile_qr_scan"}, "is_reserved": 0}, {"lon": -77.05765583333333, "bike_id": "1670400390af58c105d1a8aa9df64b21", "lat": 38.93388366666667, "fusion_lon": 0.0, "fusion_lat": 0.0, "type": "electric_scooter", "name": "1670400390af58c105d1a8aa9df64b21", "is_disabled": 0, "rental_uris": {"ios": "https://dc.lft.to/lastmile_qr_scan", "android": "https://dc.lft.to/lastmile_qr_scan"}, "is_reserved": 0}, {"lon": -77.02129216666667, "bike_id": "4294199bb7f566e6a891c05a90a01b79", "lat": 38.8971655, "fusion_lon": 0.0, "fusion_lat": 0.0, "type": "electric_scooter", "name": "4294199bb7f566e6a891c05a90a01b79", "is_disabled": 0, "rental_uris": {"ios": "https://dc.lft.to/lastmile_qr_scan", "android": "https://dc.lft.to/lastmile_qr_scan"}, "is_reserved": 0}, {"lon": -77.02636066666666, "bike_id": "e4e14b1c5c21ea9507a4aab9832e5e17", "lat": 38.9169205, "fusion_lon": 0.0, "fusion_lat": 0.0, "type": "electric_scooter", "name": "e4e14b1c5c21ea9507a4aab9832e5e17", "is_disabled": 0, "rental_uris": {"ios": "https://dc.lft.to/lastmile_qr_scan", "android": "https://dc.lft.to/lastmile_qr_scan"}, "is_reserved": 0}, {"lon": -77.02812433333334, "bike_id": "4e62969814621cce22a7a72e3a7e8364", "lat": 38.89921316666667, "fusion_lon": 0.0, "fusion_lat": 0.0, "type": "electric_scooter", "name": "4e62969814621cce22a7a72e3a7e8364", "is_disabled": 0, "rental_uris": {"ios": "https://dc.lft.to/lastmile_qr_scan", "android": "https://dc.lft.to/lastmile_qr_scan"}, "is_reserved": 0}, {"lon": -77.0258405, "bike_id": "8e251aa14afeabc49f093fb78e9caed2", "lat": 38.920371333333335, "fusion_lon": 0.0, "fusion_lat": 0.0, "type": "electric_scooter", "name": "8e251aa14afeabc49f093fb78e9caed2", "is_disabled": 0, "rental_uris": {"ios": "https://dc.lft.to/lastmile_qr_scan", "android": "https://dc.lft.to/lastmile_qr_scan"}, "is_reserved": 0}, {"lon": -77.02732866666666, "bike_id": "a18440e921bd83d54fd465eecc987d95", "lat": 38.9321285, "fusion_lon": 0.0, "fusion_lat": 0.0, "type": "electric_scooter", "name": "a18440e921bd83d54fd465eecc987d95", "is_disabled": 0, "rental_uris": {"ios": "https://dc.lft.to/lastmile_qr_scan", "android": "https://dc.lft.to/lastmile_qr_scan"}, "is_reserved": 0}, {"lon": -77.0283495, "bike_id": "3787a86bf54531d68c9cb9edc4b05266", "lat": 38.91423016666667, "fusion_lon": 0.0, "fusion_lat": 0.0, "type": "electric_scooter", "name": "3787a86bf54531d68c9cb9edc4b05266", "is_disabled": 0, "rental_uris": {"ios": "https://dc.lft.to/lastmile_qr_scan", "android": "https://dc.lft.to/lastmile_qr_scan"}, "is_reserved": 0}, {"lon": -77.02159916666666, "bike_id": "39be425914cd808c72145ead8d35ee12", "lat": 38.9268765, "fusion_lon": 0.0, "fusion_lat": 0.0, "type": "electric_scooter", "name": "39be425914cd808c72145ead8d35ee12", "is_disabled": 0, "rental_uris": {"ios": "https://dc.lft.to/lastmile_qr_scan", "android": "https://dc.lft.to/lastmile_qr_scan"}, "is_reserved": 0}, {"lon": -77.03186666666667, "bike_id": "22347127249ae37be287fe4b6d066df9", "lat": 38.89224033333333, "fusion_lon": 0.0, "fusion_lat": 0.0, "type": "electric_scooter", "name": "22347127249ae37be287fe4b6d066df9", "is_disabled": 0, "rental_uris": {"ios": "https://dc.lft.to/lastmile_qr_scan", "android": "https://dc.lft.to/lastmile_qr_scan"}, "is_reserved": 0}, {"lon": -77.0332995, "bike_id": "68fc49eaf96362fd2e6021db1878ea66", "lat": 38.90969116666667, "fusion_lon": 0.0, "fusion_lat": 0.0, "type": "electric_scooter", "name": "68fc49eaf96362fd2e6021db1878ea66", "is_disabled": 0, "rental_uris": {"ios": "https://dc.lft.to/lastmile_qr_scan", "android": "https://dc.lft.to/lastmile_qr_scan"}, "is_reserved": 0}, {"lon": -77.0257865, "bike_id": "a066a88c35455c9f3e85290b13bb1eb9", "lat": 38.93195433333333, "fusion_lon": 0.0, "fusion_lat": 0.0, "type": "electric_scooter", "name": "a066a88c35455c9f3e85290b13bb1eb9", "is_disabled": 0, "rental_uris": {"ios": "https://dc.lft.to/lastmile_qr_scan", "android": "https://dc.lft.to/lastmile_qr_scan"}, "is_reserved": 0}, {"lon": -77.03263533333333, "bike_id": "6bb0ddcc2fd203005e29cc167c54eae8", "lat": 38.928476333333336, "fusion_lon": 0.0, "fusion_lat": 0.0, "type": "electric_scooter", "name": "6bb0ddcc2fd203005e29cc167c54eae8", "is_disabled": 0, "rental_uris": {"ios": "https://dc.lft.to/lastmile_qr_scan", "android": "https://dc.lft.to/lastmile_qr_scan"}, "is_reserved": 0}, {"lon": -77.031908, "bike_id": "c64b621c9c2225e8fc0e2dd2e35096bb", "lat": 38.93067933333333, "fusion_lon": 0.0, "fusion_lat": 0.0, "type": "electric_scooter", "name": "c64b621c9c2225e8fc0e2dd2e35096bb", "is_disabled": 0, "rental_uris": {"ios": "https://dc.lft.to/lastmile_qr_scan", "android": "https://dc.lft.to/lastmile_qr_scan"}, "is_reserved": 0}, {"lon": -77.019736, "bike_id": "a20608b129718c7641668e68262bbe94", "lat": 38.883815166666665, "fusion_lon": 0.0, "fusion_lat": 0.0, "type": "electric_scooter", "name": "a20608b129718c7641668e68262bbe94", "is_disabled": 0, "rental_uris": {"ios": "https://dc.lft.to/lastmile_qr_scan", "android": "https://dc.lft.to/lastmile_qr_scan"}, "is_reserved": 0}, {"lon": -77.0210425, "bike_id": "63e8f105fac7ad5d8098f6f6498d3135", "lat": 38.92224133333333, "fusion_lon": 0.0, "fusion_lat": 0.0, "type": "electric_scooter", "name": "63e8f105fac7ad5d8098f6f6498d3135", "is_disabled": 0, "rental_uris": {"ios": "https://dc.lft.to/lastmile_qr_scan", "android": "https://dc.lft.to/lastmile_qr_scan"}, "is_reserved": 0}, {"lon": -77.03380066666666, "bike_id": "b6fb55b4d773161021ee7b151b3b3a77", "lat": 38.921608666666664, "fusion_lon": 0.0, "fusion_lat": 0.0, "type": "electric_scooter", "name": "b6fb55b4d773161021ee7b151b3b3a77", "is_disabled": 0, "rental_uris": {"ios": "https://dc.lft.to/lastmile_qr_scan", "android": "https://dc.lft.to/lastmile_qr_scan"}, "is_reserved": 0}, {"lon": -77.02587133333333, "bike_id": "2b77f5b0137d35e233a91247c6e63337", "lat": 38.8925585, "fusion_lon": 0.0, "fusion_lat": 0.0, "type": "electric_scooter", "name": "2b77f5b0137d35e233a91247c6e63337", "is_disabled": 0, "rental_uris": {"ios": "https://dc.lft.to/lastmile_qr_scan", "android": "https://dc.lft.to/lastmile_qr_scan"}, "is_reserved": 0}, {"lon": -77.023709, "bike_id": "cac21b3b3db67e6d18d61a964a53b41a", "lat": 38.88484566666666, "fusion_lon": 0.0, "fusion_lat": 0.0, "type": "electric_scooter", "name": "cac21b3b3db67e6d18d61a964a53b41a", "is_disabled": 0, "rental_uris": {"ios": "https://dc.lft.to/lastmile_qr_scan", "android": "https://dc.lft.to/lastmile_qr_scan"}, "is_reserved": 0}, {"lon": -77.080296, "bike_id": "5de3415f150ea0c30210fa8dfbdb4c48", "lat": 38.95059366666667, "fusion_lon": 0.0, "fusion_lat": 0.0, "type": "electric_scooter", "name": "5de3415f150ea0c30210fa8dfbdb4c48", "is_disabled": 0, "rental_uris": {"ios": "https://dc.lft.to/lastmile_qr_scan", "android": "https://dc.lft.to/lastmile_qr_scan"}, "is_reserved": 0}, {"lon": -76.99474916666667, "bike_id": "aadbc831b12ccd0ed435cd235ec3bda4", "lat": 38.862185, "fusion_lon": 0.0, "fusion_lat": 0.0, "type": "electric_scooter", "name": "aadbc831b12ccd0ed435cd235ec3bda4", "is_disabled": 0, "rental_uris": {"ios": "https://dc.lft.to/lastmile_qr_scan", "android": "https://dc.lft.to/lastmile_qr_scan"}, "is_reserved": 0}, {"lon": -77.051807, "bike_id": "1135c28bd4223adca912f52ac362f37a", "lat": 38.924282833333336, "fusion_lon": 0.0, "fusion_lat": 0.0, "type": "electric_scooter", "name": "1135c28bd4223adca912f52ac362f37a", "is_disabled": 0, "rental_uris": {"ios": "https://dc.lft.to/lastmile_qr_scan", "android": "https://dc.lft.to/lastmile_qr_scan"}, "is_reserved": 0}, {"lon": -77.061164, "bike_id": "93cdfe7740e17e02098929db5a848329", "lat": 38.94366133333333, "fusion_lon": 0.0, "fusion_lat": 0.0, "type": "electric_scooter", "name": "93cdfe7740e17e02098929db5a848329", "is_disabled": 0, "rental_uris": {"ios": "https://dc.lft.to/lastmile_qr_scan", "android": "https://dc.lft.to/lastmile_qr_scan"}, "is_reserved": 0}, {"lon": -77.05614716666666, "bike_id": "87dda88594adaad5f09ac0e47ebbf260", "lat": 38.931654, "fusion_lon": 0.0, "fusion_lat": 0.0, "type": "electric_scooter", "name": "87dda88594adaad5f09ac0e47ebbf260", "is_disabled": 0, "rental_uris": {"ios": "https://dc.lft.to/lastmile_qr_scan", "android": "https://dc.lft.to/lastmile_qr_scan"}, "is_reserved": 0}, {"lon": -76.983694, "bike_id": "91462fc6076747633b7c264cd1ff367c", "lat": 38.88967266666667, "fusion_lon": 0.0, "fusion_lat": 0.0, "type": "electric_scooter", "name": "91462fc6076747633b7c264cd1ff367c", "is_disabled": 0, "rental_uris": {"ios": "https://dc.lft.to/lastmile_qr_scan", "android": "https://dc.lft.to/lastmile_qr_scan"}, "is_reserved": 0}, {"lon": -77.03158716666667, "bike_id": "119a4c2aeffad11b877adf1dcb54fee8", "lat": 38.9036975, "fusion_lon": 0.0, "fusion_lat": 0.0, "type": "electric_scooter", "name": "119a4c2aeffad11b877adf1dcb54fee8", "is_disabled": 0, "rental_uris": {"ios": "https://dc.lft.to/lastmile_qr_scan", "android": "https://dc.lft.to/lastmile_qr_scan"}, "is_reserved": 0}, {"lon": -77.0144395, "bike_id": "751dd3cf78cb66114b606ce5393677ec", "lat": 38.92074916666667, "fusion_lon": 0.0, "fusion_lat": 0.0, "type": "electric_scooter", "name": "751dd3cf78cb66114b606ce5393677ec", "is_disabled": 0, "rental_uris": {"ios": "https://dc.lft.to/lastmile_qr_scan", "android": "https://dc.lft.to/lastmile_qr_scan"}, "is_reserved": 0}, {"lon": -77.04235366666667, "bike_id": "13cb35cfe9aabc5998071d76288a014c", "lat": 38.91641666666666, "fusion_lon": 0.0, "fusion_lat": 0.0, "type": "electric_scooter", "name": "13cb35cfe9aabc5998071d76288a014c", "is_disabled": 0, "rental_uris": {"ios": "https://dc.lft.to/lastmile_qr_scan", "android": "https://dc.lft.to/lastmile_qr_scan"}, "is_reserved": 0}, {"lon": -76.98831883333334, "bike_id": "b4efbf686e9c93ab1f2c1556b52192df", "lat": 38.9008785, "fusion_lon": 0.0, "fusion_lat": 0.0, "type": "electric_scooter", "name": "b4efbf686e9c93ab1f2c1556b52192df", "is_disabled": 0, "rental_uris": {"ios": "https://dc.lft.to/lastmile_qr_scan", "android": "https://dc.lft.to/lastmile_qr_scan"}, "is_reserved": 0}, {"lon": -77.03344883333334, "bike_id": "95dbd56b378a1ee2c308ad2d9c106183", "lat": 38.91916616666666, "fusion_lon": 0.0, "fusion_lat": 0.0, "type": "electric_scooter", "name": "95dbd56b378a1ee2c308ad2d9c106183", "is_disabled": 0, "rental_uris": {"ios": "https://dc.lft.to/lastmile_qr_scan", "android": "https://dc.lft.to/lastmile_qr_scan"}, "is_reserved": 0}, {"lon": -77.0185385, "bike_id": "bc413cadf545e8517f46cef2c4ba13a8", "lat": 38.948911, "fusion_lon": 0.0, "fusion_lat": 0.0, "type": "electric_scooter", "name": "bc413cadf545e8517f46cef2c4ba13a8", "is_disabled": 0, "rental_uris": {"ios": "https://dc.lft.to/lastmile_qr_scan", "android": "https://dc.lft.to/lastmile_qr_scan"}, "is_reserved": 0}, {"lon": -77.03477683333334, "bike_id": "1675f2eca6ac3bf50914d61bcb2e315e", "lat": 38.90731566666667, "fusion_lon": 0.0, "fusion_lat": 0.0, "type": "electric_scooter", "name": "1675f2eca6ac3bf50914d61bcb2e315e", "is_disabled": 0, "rental_uris": {"ios": "https://dc.lft.to/lastmile_qr_scan", "android": "https://dc.lft.to/lastmile_qr_scan"}, "is_reserved": 0}, {"lon": -77.0464685, "bike_id": "41e335edf0b2ddd80fd98d76dd8ddce6", "lat": 38.92119616666667, "fusion_lon": 0.0, "fusion_lat": 0.0, "type": "electric_scooter", "name": "41e335edf0b2ddd80fd98d76dd8ddce6", "is_disabled": 0, "rental_uris": {"ios": "https://dc.lft.to/lastmile_qr_scan", "android": "https://dc.lft.to/lastmile_qr_scan"}, "is_reserved": 0}, {"lon": -77.04674533333333, "bike_id": "0a2ba079de3887d68f4783088aa29fa1", "lat": 38.89462666666667, "fusion_lon": 0.0, "fusion_lat": 0.0, "type": "electric_scooter", "name": "0a2ba079de3887d68f4783088aa29fa1", "is_disabled": 0, "rental_uris": {"ios": "https://dc.lft.to/lastmile_qr_scan", "android": "https://dc.lft.to/lastmile_qr_scan"}, "is_reserved": 0}, {"lon": -77.0610515, "bike_id": "25b7342733b4648f996bd07bcbf931a8", "lat": 38.9370995, "fusion_lon": 0.0, "fusion_lat": 0.0, "type": "electric_scooter", "name": "25b7342733b4648f996bd07bcbf931a8", "is_disabled": 0, "rental_uris": {"ios": "https://dc.lft.to/lastmile_qr_scan", "android": "https://dc.lft.to/lastmile_qr_scan"}, "is_reserved": 0}, {"lon": -77.04156083333334, "bike_id": "bf3a0bf5e7f6536ce3903e8bccce1154", "lat": 38.9181475, "fusion_lon": 0.0, "fusion_lat": 0.0, "type": "electric_scooter", "name": "bf3a0bf5e7f6536ce3903e8bccce1154", "is_disabled": 0, "rental_uris": {"ios": "https://dc.lft.to/lastmile_qr_scan", "android": "https://dc.lft.to/lastmile_qr_scan"}, "is_reserved": 0}, {"lon": -77.01301966666666, "bike_id": "389a5fcca54d6cdab40f99a23a4f352e", "lat": 38.93034683333333, "fusion_lon": 0.0, "fusion_lat": 0.0, "type": "electric_scooter", "name": "389a5fcca54d6cdab40f99a23a4f352e", "is_disabled": 0, "rental_uris": {"ios": "https://dc.lft.to/lastmile_qr_scan", "android": "https://dc.lft.to/lastmile_qr_scan"}, "is_reserved": 0}, {"lon": -77.07769616666667, "bike_id": "729f3e0e9bd62e8753e0162a58d1350c", "lat": 38.93053033333333, "fusion_lon": 0.0, "fusion_lat": 0.0, "type": "electric_scooter", "name": "729f3e0e9bd62e8753e0162a58d1350c", "is_disabled": 0, "rental_uris": {"ios": "https://dc.lft.to/lastmile_qr_scan", "android": "https://dc.lft.to/lastmile_qr_scan"}, "is_reserved": 0}, {"lon": -76.94885833333333, "bike_id": "f1acaac192fd6e5b2a2485189c9847d6", "lat": 38.89512633333333, "fusion_lon": 0.0, "fusion_lat": 0.0, "type": "electric_scooter", "name": "f1acaac192fd6e5b2a2485189c9847d6", "is_disabled": 0, "rental_uris": {"ios": "https://dc.lft.to/lastmile_qr_scan", "android": "https://dc.lft.to/lastmile_qr_scan"}, "is_reserved": 0}, {"lon": -77.04038133333333, "bike_id": "289e8c2109b17f4eb859d5f33190f17c", "lat": 38.9256645, "fusion_lon": 0.0, "fusion_lat": 0.0, "type": "electric_scooter", "name": "289e8c2109b17f4eb859d5f33190f17c", "is_disabled": 0, "rental_uris": {"ios": "https://dc.lft.to/lastmile_qr_scan", "android": "https://dc.lft.to/lastmile_qr_scan"}, "is_reserved": 0}, {"lon": -77.033772, "bike_id": "0b88e9be1504107c9c7d1b5c19b7b361", "lat": 38.9214475, "fusion_lon": 0.0, "fusion_lat": 0.0, "type": "electric_scooter", "name": "0b88e9be1504107c9c7d1b5c19b7b361", "is_disabled": 0, "rental_uris": {"ios": "https://dc.lft.to/lastmile_qr_scan", "android": "https://dc.lft.to/lastmile_qr_scan"}, "is_reserved": 0}, {"lon": -77.03637283333333, "bike_id": "c7213c17fe3885fb925e8c3a65e11860", "lat": 38.904706166666664, "fusion_lon": 0.0, "fusion_lat": 0.0, "type": "electric_scooter", "name": "c7213c17fe3885fb925e8c3a65e11860", "is_disabled": 0, "rental_uris": {"ios": "https://dc.lft.to/lastmile_qr_scan", "android": "https://dc.lft.to/lastmile_qr_scan"}, "is_reserved": 0}, {"lon": -77.02712566666666, "bike_id": "09678754b4ad94f9c4b656c654f70ff3", "lat": 38.911418166666664, "fusion_lon": 0.0, "fusion_lat": 0.0, "type": "electric_scooter", "name": "09678754b4ad94f9c4b656c654f70ff3", "is_disabled": 0, "rental_uris": {"ios": "https://dc.lft.to/lastmile_qr_scan", "android": "https://dc.lft.to/lastmile_qr_scan"}, "is_reserved": 0}, {"lon": -77.0551165, "bike_id": "8f44e9604e178ab236b3afd324ab6ff3", "lat": 38.915353, "fusion_lon": 0.0, "fusion_lat": 0.0, "type": "electric_scooter", "name": "8f44e9604e178ab236b3afd324ab6ff3", "is_disabled": 0, "rental_uris": {"ios": "https://dc.lft.to/lastmile_qr_scan", "android": "https://dc.lft.to/lastmile_qr_scan"}, "is_reserved": 0}, {"lon": -77.02161566666666, "bike_id": "360993ab20443197a6db7171f69e5e1a", "lat": 38.926177833333334, "fusion_lon": 0.0, "fusion_lat": 0.0, "type": "electric_scooter", "name": "360993ab20443197a6db7171f69e5e1a", "is_disabled": 0, "rental_uris": {"ios": "https://dc.lft.to/lastmile_qr_scan", "android": "https://dc.lft.to/lastmile_qr_scan"}, "is_reserved": 0}, {"lon": -77.03187366666667, "bike_id": "81ac7ee2f29e0b815d60a022f0aec624", "lat": 38.912704, "fusion_lon": 0.0, "fusion_lat": 0.0, "type": "electric_scooter", "name": "81ac7ee2f29e0b815d60a022f0aec624", "is_disabled": 0, "rental_uris": {"ios": "https://dc.lft.to/lastmile_qr_scan", "android": "https://dc.lft.to/lastmile_qr_scan"}, "is_reserved": 0}, {"lon": -77.03406233333334, "bike_id": "934b9b9b7e58418b3430954283cb1349", "lat": 38.934240333333335, "fusion_lon": 0.0, "fusion_lat": 0.0, "type": "electric_scooter", "name": "934b9b9b7e58418b3430954283cb1349", "is_disabled": 0, "rental_uris": {"ios": "https://dc.lft.to/lastmile_qr_scan", "android": "https://dc.lft.to/lastmile_qr_scan"}, "is_reserved": 0}, {"lon": -77.04474583333334, "bike_id": "67e84fff371f462cc9d53e0eb24b30db", "lat": 38.90058533333333, "fusion_lon": 0.0, "fusion_lat": 0.0, "type": "electric_scooter", "name": "67e84fff371f462cc9d53e0eb24b30db", "is_disabled": 0, "rental_uris": {"ios": "https://dc.lft.to/lastmile_qr_scan", "android": "https://dc.lft.to/lastmile_qr_scan"}, "is_reserved": 0}, {"lon": -77.032646, "bike_id": "438c3c4da1f3461bddc6c2591e36971a", "lat": 38.9377595, "fusion_lon": 0.0, "fusion_lat": 0.0, "type": "electric_scooter", "name": "438c3c4da1f3461bddc6c2591e36971a", "is_disabled": 0, "rental_uris": {"ios": "https://dc.lft.to/lastmile_qr_scan", "android": "https://dc.lft.to/lastmile_qr_scan"}, "is_reserved": 0}, {"lon": -77.03643716666667, "bike_id": "3735d981ad387fc9c065ab8db6018f6b", "lat": 38.91338983333333, "fusion_lon": 0.0, "fusion_lat": 0.0, "type": "electric_scooter", "name": "3735d981ad387fc9c065ab8db6018f6b", "is_disabled": 0, "rental_uris": {"ios": "https://dc.lft.to/lastmile_qr_scan", "android": "https://dc.lft.to/lastmile_qr_scan"}, "is_reserved": 0}, {"lon": -76.98338283333334, "bike_id": "038bcf8c80babb1132c1ce9337d15667", "lat": 38.89546416666666, "fusion_lon": 0.0, "fusion_lat": 0.0, "type": "electric_scooter", "name": "038bcf8c80babb1132c1ce9337d15667", "is_disabled": 0, "rental_uris": {"ios": "https://dc.lft.to/lastmile_qr_scan", "android": "https://dc.lft.to/lastmile_qr_scan"}, "is_reserved": 0}, {"lon": -76.96151333333333, "bike_id": "1c80f0414635bdf2bf73a681285dc018", "lat": 38.883588, "fusion_lon": 0.0, "fusion_lat": 0.0, "type": "electric_scooter", "name": "1c80f0414635bdf2bf73a681285dc018", "is_disabled": 0, "rental_uris": {"ios": "https://dc.lft.to/lastmile_qr_scan", "android": "https://dc.lft.to/lastmile_qr_scan"}, "is_reserved": 0}, {"lon": -77.03341433333334, "bike_id": "c249b31fbca2ddc88b3e101ac7aa68b4", "lat": 38.898962, "fusion_lon": 0.0, "fusion_lat": 0.0, "type": "electric_scooter", "name": "c249b31fbca2ddc88b3e101ac7aa68b4", "is_disabled": 0, "rental_uris": {"ios": "https://dc.lft.to/lastmile_qr_scan", "android": "https://dc.lft.to/lastmile_qr_scan"}, "is_reserved": 0}, {"lon": -77.04452733333333, "bike_id": "20bfb6cba9f049c41f390276e0489699", "lat": 38.8972955, "fusion_lon": 0.0, "fusion_lat": 0.0, "type": "electric_scooter", "name": "20bfb6cba9f049c41f390276e0489699", "is_disabled": 0, "rental_uris": {"ios": "https://dc.lft.to/lastmile_qr_scan", "android": "https://dc.lft.to/lastmile_qr_scan"}, "is_reserved": 0}, {"lon": -77.06771066666667, "bike_id": "69a528828f1b2f9b15d670e674f19792", "lat": 38.90357783333333, "fusion_lon": 0.0, "fusion_lat": 0.0, "type": "electric_scooter", "name": "69a528828f1b2f9b15d670e674f19792", "is_disabled": 0, "rental_uris": {"ios": "https://dc.lft.to/lastmile_qr_scan", "android": "https://dc.lft.to/lastmile_qr_scan"}, "is_reserved": 0}, {"lon": -76.9691085, "bike_id": "2eb4cf584c7f0d6d386f194ea029c171", "lat": 38.84613983333333, "fusion_lon": 0.0, "fusion_lat": 0.0, "type": "electric_bike", "name": "2eb4cf584c7f0d6d386f194ea029c171", "is_disabled": 0, "rental_uris": {"ios": "https://dc.lft.to/lastmile_qr_scan", "android": "https://dc.lft.to/lastmile_qr_scan"}, "is_reserved": 0}, {"lon": -77.027232, "bike_id": "3b820040cc1736035628f700d463f574", "lat": 38.924827, "fusion_lon": 0.0, "fusion_lat": 0.0, "type": "electric_scooter", "name": "3b820040cc1736035628f700d463f574", "is_disabled": 0, "rental_uris": {"ios": "https://dc.lft.to/lastmile_qr_scan", "android": "https://dc.lft.to/lastmile_qr_scan"}, "is_reserved": 0}, {"lon": -77.04667683333334, "bike_id": "b1696cc885cbc9de690d1030a73f7021", "lat": 38.896550166666664, "fusion_lon": 0.0, "fusion_lat": 0.0, "type": "electric_scooter", "name": "b1696cc885cbc9de690d1030a73f7021", "is_disabled": 0, "rental_uris": {"ios": "https://dc.lft.to/lastmile_qr_scan", "android": "https://dc.lft.to/lastmile_qr_scan"}, "is_reserved": 0}, {"lon": -77.034136, "bike_id": "2408638619adcf12624de50c279e6aad", "lat": 38.922427, "fusion_lon": 0.0, "fusion_lat": 0.0, "type": "electric_scooter", "name": "2408638619adcf12624de50c279e6aad", "is_disabled": 0, "rental_uris": {"ios": "https://dc.lft.to/lastmile_qr_scan", "android": "https://dc.lft.to/lastmile_qr_scan"}, "is_reserved": 0}, {"lon": -76.94637083333333, "bike_id": "b43d17fb0edcec16bd47623ec408fda1", "lat": 38.89833483333334, "fusion_lon": 0.0, "fusion_lat": 0.0, "type": "electric_scooter", "name": "b43d17fb0edcec16bd47623ec408fda1", "is_disabled": 0, "rental_uris": {"ios": "https://dc.lft.to/lastmile_qr_scan", "android": "https://dc.lft.to/lastmile_qr_scan"}, "is_reserved": 0}, {"lon": -77.03854616666666, "bike_id": "d95fdd741947db4e28b6daeae6e73d54", "lat": 38.910197833333335, "fusion_lon": 0.0, "fusion_lat": 0.0, "type": "electric_scooter", "name": "d95fdd741947db4e28b6daeae6e73d54", "is_disabled": 0, "rental_uris": {"ios": "https://dc.lft.to/lastmile_qr_scan", "android": "https://dc.lft.to/lastmile_qr_scan"}, "is_reserved": 0}, {"lon": -76.97549416666666, "bike_id": "9381c5f4b6838373c2bb8ed0809bee24", "lat": 38.903268, "fusion_lon": 0.0, "fusion_lat": 0.0, "type": "electric_scooter", "name": "9381c5f4b6838373c2bb8ed0809bee24", "is_disabled": 0, "rental_uris": {"ios": "https://dc.lft.to/lastmile_qr_scan", "android": "https://dc.lft.to/lastmile_qr_scan"}, "is_reserved": 0}, {"lon": -76.9915085, "bike_id": "7f962194e81d49241f8023ec09c51043", "lat": 38.900413, "fusion_lon": 0.0, "fusion_lat": 0.0, "type": "electric_scooter", "name": "7f962194e81d49241f8023ec09c51043", "is_disabled": 0, "rental_uris": {"ios": "https://dc.lft.to/lastmile_qr_scan", "android": "https://dc.lft.to/lastmile_qr_scan"}, "is_reserved": 0}, {"lon": -76.97392783333333, "bike_id": "2f5679aa20210f41bfccbfa1f1ade56d", "lat": 38.90557233333333, "fusion_lon": 0.0, "fusion_lat": 0.0, "type": "electric_scooter", "name": "2f5679aa20210f41bfccbfa1f1ade56d", "is_disabled": 0, "rental_uris": {"ios": "https://dc.lft.to/lastmile_qr_scan", "android": "https://dc.lft.to/lastmile_qr_scan"}, "is_reserved": 0}, {"lon": -77.02304816666667, "bike_id": "90a7afc5a455c6aef1741d3d043f634d", "lat": 38.940921333333335, "fusion_lon": 0.0, "fusion_lat": 0.0, "type": "electric_scooter", "name": "90a7afc5a455c6aef1741d3d043f634d", "is_disabled": 0, "rental_uris": {"ios": "https://dc.lft.to/lastmile_qr_scan", "android": "https://dc.lft.to/lastmile_qr_scan"}, "is_reserved": 0}, {"lon": -77.0045265, "bike_id": "ebf92cc6af191a9cd3f423e1f3667718", "lat": 38.87661666666666, "fusion_lon": 0.0, "fusion_lat": 0.0, "type": "electric_scooter", "name": "ebf92cc6af191a9cd3f423e1f3667718", "is_disabled": 0, "rental_uris": {"ios": "https://dc.lft.to/lastmile_qr_scan", "android": "https://dc.lft.to/lastmile_qr_scan"}, "is_reserved": 0}, {"lon": -77.02825083333333, "bike_id": "ea9ddc70897ca9d205de8d93567d9111", "lat": 38.88745333333333, "fusion_lon": 0.0, "fusion_lat": 0.0, "type": "electric_scooter", "name": "ea9ddc70897ca9d205de8d93567d9111", "is_disabled": 0, "rental_uris": {"ios": "https://dc.lft.to/lastmile_qr_scan", "android": "https://dc.lft.to/lastmile_qr_scan"}, "is_reserved": 0}, {"lon": -77.02142916666666, "bike_id": "b450b9db866f320983bc380cb9417a67", "lat": 38.8972125, "fusion_lon": 0.0, "fusion_lat": 0.0, "type": "electric_scooter", "name": "b450b9db866f320983bc380cb9417a67", "is_disabled": 0, "rental_uris": {"ios": "https://dc.lft.to/lastmile_qr_scan", "android": "https://dc.lft.to/lastmile_qr_scan"}, "is_reserved": 0}, {"lon": -77.02406833333333, "bike_id": "a5dc0099b3a7decd4b1649cdb721b45f", "lat": 38.9275835, "fusion_lon": 0.0, "fusion_lat": 0.0, "type": "electric_scooter", "name": "a5dc0099b3a7decd4b1649cdb721b45f", "is_disabled": 0, "rental_uris": {"ios": "https://dc.lft.to/lastmile_qr_scan", "android": "https://dc.lft.to/lastmile_qr_scan"}, "is_reserved": 0}, {"lon": -77.09845466666667, "bike_id": "7f2973c72c80d30983b5658bc3160dab", "lat": 38.84841566666667, "fusion_lon": 0.0, "fusion_lat": 0.0, "type": "electric_bike", "name": "7f2973c72c80d30983b5658bc3160dab", "is_disabled": 0, "rental_uris": {"ios": "https://dc.lft.to/lastmile_qr_scan", "android": "https://dc.lft.to/lastmile_qr_scan"}, "is_reserved": 0}, {"lon": -77.04381416666666, "bike_id": "230025ec4751cce87c1cf86d7cfbf36e", "lat": 38.911136666666664, "fusion_lon": 0.0, "fusion_lat": 0.0, "type": "electric_scooter", "name": "230025ec4751cce87c1cf86d7cfbf36e", "is_disabled": 0, "rental_uris": {"ios": "https://dc.lft.to/lastmile_qr_scan", "android": "https://dc.lft.to/lastmile_qr_scan"}, "is_reserved": 0}, {"lon": -77.06341266666666, "bike_id": "51ca2c03bc7ff0f3088a9a4cbff6696b", "lat": 38.90683083333333, "fusion_lon": 0.0, "fusion_lat": 0.0, "type": "electric_scooter", "name": "51ca2c03bc7ff0f3088a9a4cbff6696b", "is_disabled": 0, "rental_uris": {"ios": "https://dc.lft.to/lastmile_qr_scan", "android": "https://dc.lft.to/lastmile_qr_scan"}, "is_reserved": 0}, {"lon": -77.0349925, "bike_id": "1c396104463d929fdd1f321734bbb720", "lat": 38.93758966666667, "fusion_lon": 0.0, "fusion_lat": 0.0, "type": "electric_scooter", "name": "1c396104463d929fdd1f321734bbb720", "is_disabled": 0, "rental_uris": {"ios": "https://dc.lft.to/lastmile_qr_scan", "android": "https://dc.lft.to/lastmile_qr_scan"}, "is_reserved": 0}, {"lon": -76.983523, "bike_id": "8107c9c060afa50e35e262e9d7ee1950", "lat": 38.8877265, "fusion_lon": 0.0, "fusion_lat": 0.0, "type": "electric_scooter", "name": "8107c9c060afa50e35e262e9d7ee1950", "is_disabled": 0, "rental_uris": {"ios": "https://dc.lft.to/lastmile_qr_scan", "android": "https://dc.lft.to/lastmile_qr_scan"}, "is_reserved": 0}, {"lon": -77.04158816666667, "bike_id": "f49aacde8c78929910078ddbd9a9aced", "lat": 38.9142115, "fusion_lon": 0.0, "fusion_lat": 0.0, "type": "electric_scooter", "name": "f49aacde8c78929910078ddbd9a9aced", "is_disabled": 0, "rental_uris": {"ios": "https://dc.lft.to/lastmile_qr_scan", "android": "https://dc.lft.to/lastmile_qr_scan"}, "is_reserved": 0}, {"lon": -76.9330445, "bike_id": "2cd79bb024b414f9d51cc9b98b467b73", "lat": 38.89197466666667, "fusion_lon": 0.0, "fusion_lat": 0.0, "type": "electric_scooter", "name": "2cd79bb024b414f9d51cc9b98b467b73", "is_disabled": 0, "rental_uris": {"ios": "https://dc.lft.to/lastmile_qr_scan", "android": "https://dc.lft.to/lastmile_qr_scan"}, "is_reserved": 0}, {"lon": -77.0569535, "bike_id": "abf15c51f00516991b69b09a0f6c8743", "lat": 38.93723133333334, "fusion_lon": 0.0, "fusion_lat": 0.0, "type": "electric_scooter", "name": "abf15c51f00516991b69b09a0f6c8743", "is_disabled": 0, "rental_uris": {"ios": "https://dc.lft.to/lastmile_qr_scan", "android": "https://dc.lft.to/lastmile_qr_scan"}, "is_reserved": 0}, {"lon": -76.98230033333333, "bike_id": "a0867fb3d7551148af5c15a565b1d0fc", "lat": 38.886465333333334, "fusion_lon": 0.0, "fusion_lat": 0.0, "type": "electric_scooter", "name": "a0867fb3d7551148af5c15a565b1d0fc", "is_disabled": 0, "rental_uris": {"ios": "https://dc.lft.to/lastmile_qr_scan", "android": "https://dc.lft.to/lastmile_qr_scan"}, "is_reserved": 0}, {"lon": -76.98580716666666, "bike_id": "d080b53d0ee47bedf98ff38c0bb8cce7", "lat": 38.90808766666667, "fusion_lon": 0.0, "fusion_lat": 0.0, "type": "electric_scooter", "name": "d080b53d0ee47bedf98ff38c0bb8cce7", "is_disabled": 0, "rental_uris": {"ios": "https://dc.lft.to/lastmile_qr_scan", "android": "https://dc.lft.to/lastmile_qr_scan"}, "is_reserved": 0}, {"lon": -77.02779083333333, "bike_id": "dbb5767bcc40f21451e7dd16238618eb", "lat": 38.89223833333333, "fusion_lon": 0.0, "fusion_lat": 0.0, "type": "electric_scooter", "name": "dbb5767bcc40f21451e7dd16238618eb", "is_disabled": 0, "rental_uris": {"ios": "https://dc.lft.to/lastmile_qr_scan", "android": "https://dc.lft.to/lastmile_qr_scan"}, "is_reserved": 0}, {"lon": -77.0321105, "bike_id": "9490ccabba831ea01d8e05fda5263ca9", "lat": 38.916365666666664, "fusion_lon": 0.0, "fusion_lat": 0.0, "type": "electric_scooter", "name": "9490ccabba831ea01d8e05fda5263ca9", "is_disabled": 0, "rental_uris": {"ios": "https://dc.lft.to/lastmile_qr_scan", "android": "https://dc.lft.to/lastmile_qr_scan"}, "is_reserved": 0}, {"lon": -77.01700966666667, "bike_id": "8280345f6748cf1af0fd3a779c886dff", "lat": 38.920549333333334, "fusion_lon": 0.0, "fusion_lat": 0.0, "type": "electric_scooter", "name": "8280345f6748cf1af0fd3a779c886dff", "is_disabled": 0, "rental_uris": {"ios": "https://dc.lft.to/lastmile_qr_scan", "android": "https://dc.lft.to/lastmile_qr_scan"}, "is_reserved": 0}, {"lon": -77.04271683333333, "bike_id": "82e7e5eb4a43ff8ebae44a725eee51b5", "lat": 38.907306166666665, "fusion_lon": 0.0, "fusion_lat": 0.0, "type": "electric_scooter", "name": "82e7e5eb4a43ff8ebae44a725eee51b5", "is_disabled": 0, "rental_uris": {"ios": "https://dc.lft.to/lastmile_qr_scan", "android": "https://dc.lft.to/lastmile_qr_scan"}, "is_reserved": 0}, {"lon": -77.051604, "bike_id": "7499f568130e2e8fc39a38daedd4ec95", "lat": 39.04314766666667, "fusion_lon": 0.0, "fusion_lat": 0.0, "type": "electric_bike", "name": "7499f568130e2e8fc39a38daedd4ec95", "is_disabled": 0, "rental_uris": {"ios": "https://dc.lft.to/lastmile_qr_scan", "android": "https://dc.lft.to/lastmile_qr_scan"}, "is_reserved": 0}, {"lon": -77.0258685, "bike_id": "fe3cdfb0ad903eb00bfad22ab3cc9ebc", "lat": 38.92037716666667, "fusion_lon": 0.0, "fusion_lat": 0.0, "type": "electric_scooter", "name": "fe3cdfb0ad903eb00bfad22ab3cc9ebc", "is_disabled": 0, "rental_uris": {"ios": "https://dc.lft.to/lastmile_qr_scan", "android": "https://dc.lft.to/lastmile_qr_scan"}, "is_reserved": 0}, {"lon": -77.015098, "bike_id": "f06c4fcd16f6592cceb233fd44f7105c", "lat": 38.910046, "fusion_lon": 0.0, "fusion_lat": 0.0, "type": "electric_scooter", "name": "f06c4fcd16f6592cceb233fd44f7105c", "is_disabled": 0, "rental_uris": {"ios": "https://dc.lft.to/lastmile_qr_scan", "android": "https://dc.lft.to/lastmile_qr_scan"}, "is_reserved": 0}, {"lon": -77.04334466666667, "bike_id": "5e7b585ff7b774ff588fc7f8af77d14b", "lat": 38.92223333333333, "fusion_lon": 0.0, "fusion_lat": 0.0, "type": "electric_scooter", "name": "5e7b585ff7b774ff588fc7f8af77d14b", "is_disabled": 0, "rental_uris": {"ios": "https://dc.lft.to/lastmile_qr_scan", "android": "https://dc.lft.to/lastmile_qr_scan"}, "is_reserved": 0}, {"lon": -77.04943883333334, "bike_id": "fd44937d995cb9374f7fb51312ed83b8", "lat": 38.90944533333333, "fusion_lon": 0.0, "fusion_lat": 0.0, "type": "electric_scooter", "name": "fd44937d995cb9374f7fb51312ed83b8", "is_disabled": 0, "rental_uris": {"ios": "https://dc.lft.to/lastmile_qr_scan", "android": "https://dc.lft.to/lastmile_qr_scan"}, "is_reserved": 0}, {"lon": -77.06380916666667, "bike_id": "d91b031c17acbfa8546a12f97fbcc157", "lat": 38.9052845, "fusion_lon": 0.0, "fusion_lat": 0.0, "type": "electric_scooter", "name": "d91b031c17acbfa8546a12f97fbcc157", "is_disabled": 0, "rental_uris": {"ios": "https://dc.lft.to/lastmile_qr_scan", "android": "https://dc.lft.to/lastmile_qr_scan"}, "is_reserved": 0}, {"lon": -77.01494716666667, "bike_id": "2b2adc9b9f2e5196bad95419e427c80f", "lat": 38.892231833333334, "fusion_lon": 0.0, "fusion_lat": 0.0, "type": "electric_scooter", "name": "2b2adc9b9f2e5196bad95419e427c80f", "is_disabled": 0, "rental_uris": {"ios": "https://dc.lft.to/lastmile_qr_scan", "android": "https://dc.lft.to/lastmile_qr_scan"}, "is_reserved": 0}, {"lon": -77.04899683333333, "bike_id": "8775aae49fe342f17053856d25ad3d7d", "lat": 38.905448166666666, "fusion_lon": 0.0, "fusion_lat": 0.0, "type": "electric_scooter", "name": "8775aae49fe342f17053856d25ad3d7d", "is_disabled": 0, "rental_uris": {"ios": "https://dc.lft.to/lastmile_qr_scan", "android": "https://dc.lft.to/lastmile_qr_scan"}, "is_reserved": 0}, {"lon": -77.10493783333334, "bike_id": "e63785a76908eebdb7185dbf85b1e81d", "lat": 38.8561115, "fusion_lon": 0.0, "fusion_lat": 0.0, "type": "electric_bike", "name": "e63785a76908eebdb7185dbf85b1e81d", "is_disabled": 0, "rental_uris": {"ios": "https://dc.lft.to/lastmile_qr_scan", "android": "https://dc.lft.to/lastmile_qr_scan"}, "is_reserved": 0}, {"lon": -77.11158216666666, "bike_id": "b49d7d853fe960867aa1c1544ee0d22d", "lat": 38.8551165, "fusion_lon": 0.0, "fusion_lat": 0.0, "type": "electric_bike", "name": "b49d7d853fe960867aa1c1544ee0d22d", "is_disabled": 0, "rental_uris": {"ios": "https://dc.lft.to/lastmile_qr_scan", "android": "https://dc.lft.to/lastmile_qr_scan"}, "is_reserved": 0}, {"lon": -77.04183716666667, "bike_id": "d235905ab8fa157c457674a8acbadf43", "lat": 38.892281, "fusion_lon": 0.0, "fusion_lat": 0.0, "type": "electric_scooter", "name": "d235905ab8fa157c457674a8acbadf43", "is_disabled": 0, "rental_uris": {"ios": "https://dc.lft.to/lastmile_qr_scan", "android": "https://dc.lft.to/lastmile_qr_scan"}, "is_reserved": 0}, {"lon": -76.9375035, "bike_id": "d7bb3168288166a683041455f56e8119", "lat": 38.89038083333333, "fusion_lon": 0.0, "fusion_lat": 0.0, "type": "electric_scooter", "name": "d7bb3168288166a683041455f56e8119", "is_disabled": 0, "rental_uris": {"ios": "https://dc.lft.to/lastmile_qr_scan", "android": "https://dc.lft.to/lastmile_qr_scan"}, "is_reserved": 0}, {"lon": -76.98226, "bike_id": "73ccdaa9a574c34e1c4c4b6bb3a5e4a3", "lat": 38.86650383333333, "fusion_lon": 0.0, "fusion_lat": 0.0, "type": "electric_scooter", "name": "73ccdaa9a574c34e1c4c4b6bb3a5e4a3", "is_disabled": 0, "rental_uris": {"ios": "https://dc.lft.to/lastmile_qr_scan", "android": "https://dc.lft.to/lastmile_qr_scan"}, "is_reserved": 0}, {"lon": -77.024032, "bike_id": "082da77c7f17b0e7655f1c319a49eafc", "lat": 38.89197566666667, "fusion_lon": 0.0, "fusion_lat": 0.0, "type": "electric_scooter", "name": "082da77c7f17b0e7655f1c319a49eafc", "is_disabled": 0, "rental_uris": {"ios": "https://dc.lft.to/lastmile_qr_scan", "android": "https://dc.lft.to/lastmile_qr_scan"}, "is_reserved": 0}, {"lon": -77.00060933333333, "bike_id": "791f4dd71794a49b36d4bdbfe3f75fc7", "lat": 38.89504766666667, "fusion_lon": 0.0, "fusion_lat": 0.0, "type": "electric_scooter", "name": "791f4dd71794a49b36d4bdbfe3f75fc7", "is_disabled": 0, "rental_uris": {"ios": "https://dc.lft.to/lastmile_qr_scan", "android": "https://dc.lft.to/lastmile_qr_scan"}, "is_reserved": 0}, {"lon": -77.04346233333334, "bike_id": "01ec773534cb5be808bc00de1b5dfba2", "lat": 38.90148633333333, "fusion_lon": 0.0, "fusion_lat": 0.0, "type": "electric_scooter", "name": "01ec773534cb5be808bc00de1b5dfba2", "is_disabled": 0, "rental_uris": {"ios": "https://dc.lft.to/lastmile_qr_scan", "android": "https://dc.lft.to/lastmile_qr_scan"}, "is_reserved": 0}, {"lon": -77.05210666666666, "bike_id": "0cf6303477ebb0a07f30149c7585e5f4", "lat": 38.924869666666666, "fusion_lon": 0.0, "fusion_lat": 0.0, "type": "electric_scooter", "name": "0cf6303477ebb0a07f30149c7585e5f4", "is_disabled": 0, "rental_uris": {"ios": "https://dc.lft.to/lastmile_qr_scan", "android": "https://dc.lft.to/lastmile_qr_scan"}, "is_reserved": 0}, {"lon": -77.0257935, "bike_id": "028a5663f7f467f7294b2aee627613dd", "lat": 38.89261666666667, "fusion_lon": 0.0, "fusion_lat": 0.0, "type": "electric_scooter", "name": "028a5663f7f467f7294b2aee627613dd", "is_disabled": 0, "rental_uris": {"ios": "https://dc.lft.to/lastmile_qr_scan", "android": "https://dc.lft.to/lastmile_qr_scan"}, "is_reserved": 0}, {"lon": -77.07434933333333, "bike_id": "09384d9716593eacb9e414d7c2eb37e1", "lat": 38.99948083333334, "fusion_lon": 0.0, "fusion_lat": 0.0, "type": "electric_bike", "name": "09384d9716593eacb9e414d7c2eb37e1", "is_disabled": 0, "rental_uris": {"ios": "https://dc.lft.to/lastmile_qr_scan", "android": "https://dc.lft.to/lastmile_qr_scan"}, "is_reserved": 0}, {"lon": -76.98940816666666, "bike_id": "abaf03294c110639ac681b541b553c8c", "lat": 38.90393233333333, "fusion_lon": 0.0, "fusion_lat": 0.0, "type": "electric_scooter", "name": "abaf03294c110639ac681b541b553c8c", "is_disabled": 0, "rental_uris": {"ios": "https://dc.lft.to/lastmile_qr_scan", "android": "https://dc.lft.to/lastmile_qr_scan"}, "is_reserved": 0}, {"lon": -76.94925233333333, "bike_id": "821ce0a73df08b33d4f12807236ccb81", "lat": 38.89356083333333, "fusion_lon": 0.0, "fusion_lat": 0.0, "type": "electric_scooter", "name": "821ce0a73df08b33d4f12807236ccb81", "is_disabled": 0, "rental_uris": {"ios": "https://dc.lft.to/lastmile_qr_scan", "android": "https://dc.lft.to/lastmile_qr_scan"}, "is_reserved": 0}, {"lon": -77.0492335, "bike_id": "4b859bb6bbe4557feb0bc52cfa18bfef", "lat": 38.90079433333333, "fusion_lon": 0.0, "fusion_lat": 0.0, "type": "electric_scooter", "name": "4b859bb6bbe4557feb0bc52cfa18bfef", "is_disabled": 0, "rental_uris": {"ios": "https://dc.lft.to/lastmile_qr_scan", "android": "https://dc.lft.to/lastmile_qr_scan"}, "is_reserved": 0}, {"lon": -77.033716, "bike_id": "78f61885875b27a01884bf314010f91a", "lat": 38.90170166666667, "fusion_lon": 0.0, "fusion_lat": 0.0, "type": "electric_scooter", "name": "78f61885875b27a01884bf314010f91a", "is_disabled": 0, "rental_uris": {"ios": "https://dc.lft.to/lastmile_qr_scan", "android": "https://dc.lft.to/lastmile_qr_scan"}, "is_reserved": 0},