{"data": {"bikes": [{"fusion_lon": 0.0, "name": "e97d57d859174c752173bd46fd74428d", "rental_uris": {"android": "https://dc.lft.to/lastmile_qr_scan", "ios": "https://dc.lft.to/lastmile_qr_scan"}, "lat": 38.90528, "bike_id": "e97d57d859174c752173bd46fd74428d", "is_disabled": 0, "lon": -77.06174483333334, "is_reserved": 0, "fusion_lat": 0.0, "type": "electric_scooter"}, {"fusion_lon": 0.0, "name": "241f6f752da544977442acc5bc8884cb", "rental_uris": {"android": "https://dc.lft.to/lastmile_qr_scan", "ios": "https://dc.lft.to/lastmile_qr_scan"}, "lat": 38.87174683333333, "bike_id": "241f6f752da544977442acc5bc8884cb", "is_disabled": 0, "lon": -77.00623566666667, "is_reserved": 0, "fusion_lat": 0.0, "type": "electric_scooter"}, {"fusion_lon": 0.0, "name": "159e2414cbaa8b850c64a46a3d87a2ad", "rental_uris": {"android": "https://dc.lft.to/lastmile_qr_scan", "ios": "https://dc.lft.to/lastmile_qr_scan"}, "lat": 38.911227833333335, "bike_id": "159e2414cbaa8b850c64a46a3d87a2ad", "is_disabled": 0, "lon": -77.021974, "is_reserved": 0, "fusion_lat": 0.0, "type": "electric_scooter"}, {"fusion_lon": 0.0, "name": "a84f4781c6148a8de310e80f39d2f3b7", "rental_uris": {"android": "https://dc.lft.to/lastmile_qr_scan", "ios": "https://dc.lft.to/lastmile_qr_scan"}, "lat": 38.9038095, "bike_id": "a84f4781c6148a8de310e80f39d2f3b7", "is_disabled": 0, "lon": -77.01773783333333, "is_reserved": 0, "fusion_lat": 0.0, "type": "electric_scooter"}, {"fusion_lon": 0.0, "name": "f5b1e2862cd61dcddd10dc90eb23992f", "rental_uris": {"android": "https://dc.lft.to/lastmile_qr_scan", "ios": "https://dc.lft.to/lastmile_qr_scan"}, "lat": 38.913441, "bike_id": "f5b1e2862cd61dcddd10dc90eb23992f", "is_disabled": 0, "lon": -76.98894783333333, "is_reserved": 0, "fusion_lat": 0.0, "type": "electric_scooter"}, {"fusion_lon": 0.0, "name": "38607d3bbf267c9f728d929bf6d571e1", "rental_uris": {"android": "https://dc.lft.to/lastmile_qr_scan", "ios": "https://dc.lft.to/lastmile_qr_scan"}, "lat": 38.907658166666664, "bike_id": "38607d3bbf267c9f728d929bf6d571e1", "is_disabled": 0, "lon": -77.017998, "is_reserved": 0, "fusion_lat": 0.0, "type": "electric_scooter"}, {"fusion_lon": 0.0, "name": "4bde0d2f488b5e124ca9b02d9480af07", "rental_uris": {"android": "https://dc.lft.to/lastmile_qr_scan", "ios": "https://dc.lft.to/lastmile_qr_scan"}, "lat": 38.8754645, "bike_id": "4bde0d2f488b5e124ca9b02d9480af07", "is_disabled": 0, "lon": -77.00584283333333, "is_reserved": 0, "fusion_lat": 0.0, "type": "electric_scooter"}, {"fusion_lon": 0.0, "name": "d152d4772a9e65bc10e585597e1de458", "rental_uris": {"android": "https://dc.lft.to/lastmile_qr_scan", "ios": "https://dc.lft.to/lastmile_qr_scan"}, "lat": 38.8521855, "bike_id": "d152d4772a9e65bc10e585597e1de458", "is_disabled": 0, "lon": -76.99432483333334, "is_reserved": 0, "fusion_lat": 0.0, "type": "electric_scooter"}, {"fusion_lon": 0.0, "name": "775d11e092f5771783fbd81dfb12e30f", "rental_uris": {"android": "https://dc.lft.to/lastmile_qr_scan", "ios": "https://dc.lft.to/lastmile_qr_scan"}, "lat": 38.936185, "bike_id": "775d11e092f5771783fbd81dfb12e30f", "is_disabled": 0, "lon": -77.03213383333333, "is_reserved": 0, "fusion_lat": 0.0, "type": "electric_scooter"}, {"fusion_lon": 0.0, "name": "5af8c3fea99e7886a7f109dafe405664", "rental_uris": {"android": "https://dc.lft.to/lastmile_qr_scan", "ios": "https://dc.lft.to/lastmile_qr_scan"}, "lat": 38.90157, "bike_id": "5af8c3fea99e7886a7f109dafe405664", "is_disabled": 0, "lon": -76.9213735, "is_reserved": 0, "fusion_lat": 0.0, "type": "electric_scooter"}, {"fusion_lon": 0.0, "name": "5fb9420e19122a77faabf0e5c7fb7043", "rental_uris": {"android": "https://dc.lft.to/lastmile_qr_scan", "ios": "https://dc.lft.to/lastmile_qr_scan"}, "lat": 38.9285545, "bike_id": "5fb9420e19122a77faabf0e5c7fb7043", "is_disabled": 0, "lon": -77.05435916666667, "is_reserved": 0, "fusion_lat": 0.0, "type": "electric_scooter"}, {"fusion_lon": 0.0, "name": "72e3defa6fdab23e549c031934078593", "rental_uris": {"android": "https://dc.lft.to/lastmile_qr_scan", "ios": "https://dc.lft.to/lastmile_qr_scan"}, "lat": 38.909600833333336, "bike_id": "72e3defa6fdab23e549c031934078593", "is_disabled": 0, "lon": -77.02279316666667, "is_reserved": 0, "fusion_lat": 0.0, "type": "electric_scooter"}, {"fusion_lon": 0.0, "name": "b94747207e65d7100dd12e4fa56526d0", "rental_uris": {"android": "https://dc.lft.to/lastmile_qr_scan", "ios": "https://dc.lft.to/lastmile_qr_scan"}, "lat": 38.914274, "bike_id": "b94747207e65d7100dd12e4fa56526d0", "is_disabled": 0, "lon": -77.03188066666667, "is_reserved": 0, "fusion_lat": 0.0, "type": "electric_scooter"}, {"fusion_lon": 0.0, "name": "89cb46a7c46bc8b5e4561a3b06782e29", "rental_uris": {"android": "https://dc.lft.to/lastmile_qr_scan", "ios": "https://dc.lft.to/lastmile_qr_scan"}, "lat": 38.91514083333333, "bike_id": "89cb46a7c46bc8b5e4561a3b06782e29", "is_disabled": 0, "lon": -77.04334683333333, "is_reserved": 0, "fusion_lat": 0.0, "type": "electric_scooter"}, {"fusion_lon": 0.0, "name": "2ed90ccbc22afece7b33ae7b3e225771", "rental_uris": {"android": "https://dc.lft.to/lastmile_qr_scan", "ios": "https://dc.lft.to/lastmile_qr_scan"}, "lat": 38.924062666666664, "bike_id": "2ed90ccbc22afece7b33ae7b3e225771", "is_disabled": 0, "lon": -77.02719766666667, "is_reserved": 0, "fusion_lat": 0.0, "type": "electric_scooter"}, {"fusion_lon": 0.0, "name": "15ca77a5a30a798c1671f5eefbd09701", "rental_uris": {"android": "https://dc.lft.to/lastmile_qr_scan", "ios": "https://dc.lft.to/lastmile_qr_scan"}, "lat": 38.8421825, "bike_id": "15ca77a5a30a798c1671f5eefbd09701", "is_disabled": 0, "lon": -76.94903783333334, "is_reserved": 0, "fusion_lat": 0.0, "type": "electric_bike"}, {"fusion_lon": 0.0, "name": "2d1dfe9b9340ab866854ee573adf44d6", "rental_uris": {"android": "https://dc.lft.to/lastmile_qr_scan", "ios": "https://dc.lft.to/lastmile_qr_scan"}, "lat": 38.9169175, "bike_id": "2d1dfe9b9340ab866854ee573adf44d6", "is_disabled": 0, "lon": -77.03833116666667, "is_reserved": 0, "fusion_lat": 0.0, "type": "electric_scooter"}, {"fusion_lon": 0.0, "name": "f529b3199088472a61098881e53cc519", "rental_uris": {"android": "https://dc.lft.to/lastmile_qr_scan", "ios": "https://dc.lft.to/lastmile_qr_scan"}, "lat": 38.92086883333333, "bike_id": "f529b3199088472a61098881e53cc519", "is_disabled": 0, "lon": -77.02322683333334, "is_reserved": 0, "fusion_lat": 0.0, "type": "electric_scooter"}, {"fusion_lon": 0.0, "name": "86df62fee176965f65d40ae021606c71", "rental_uris": {"android": "https://dc.lft.to/lastmile_qr_scan", "ios": "https://dc.lft.to/lastmile_qr_scan"}, "lat": 38.915695, "bike_id": "86df62fee176965f65d40ae021606c71", "is_disabled": 0, "lon": -77.01969516666666, "is_reserved": 0, "fusion_lat": 0.0, "type": "electric_scooter"}, {"fusion_lon": 0.0, "name": "bdea33c3601db9a91dfceb2a5715647e", "rental_uris": {"android": "https://dc.lft.to/lastmile_qr_scan", "ios": "https://dc.lft.to/lastmile_qr_scan"}, "lat": 38.89725716666667, "bike_id": "bdea33c3601db9a91dfceb2a5715647e", "is_disabled": 0, "lon": -77.04591733333334, "is_reserved": 0, "fusion_lat": 0.0, "type": "electric_scooter"}, {"fusion_lon": 0.0, "name": "4f650177c0fecd3cf7f3892e5d0556b3", "rental_uris": {"android": "https://dc.lft.to/lastmile_qr_scan", "ios": "https://dc.lft.to/lastmile_qr_scan"}, "lat": 38.9256465, "bike_id": "4f650177c0fecd3cf7f3892e5d0556b3", "is_disabled": 0, "lon": -77.02695416666667, "is_reserved": 0, "fusion_lat": 0.0, "type": "electric_scooter"}, {"fusion_lon": 0.0, "name": "a923914d092387e84810495f72d7131b", "rental_uris": {"android": "https://dc.lft.to/lastmile_qr_scan", "ios": "https://dc.lft.to/lastmile_qr_scan"}, "lat": 38.912972, "bike_id": "a923914d092387e84810495f72d7131b", "is_disabled": 0, "lon": -77.04038016666667, "is_reserved": 0, "fusion_lat": 0.0, "type": "electric_scooter"}, {"fusion_lon": 0.0, "name": "a1ab0d3684f6bea3728f7fe653291699", "rental_uris": {"android": "https://dc.lft.to/lastmile_qr_scan", "ios": "https://dc.lft.to/lastmile_qr_scan"}, "lat": 38.949696333333335, "bike_id": "a1ab0d3684f6bea3728f7fe653291699", "is_disabled": 0, "lon": -77.02340983333333, "is_reserved": 0, "fusion_lat": 0.0, "type": "electric_scooter"}, {"fusion_lon": 0.0, "name": "2fb91070462fad4630a131170f2f6a1c", "rental_uris": {"android": "https://dc.lft.to/lastmile_qr_scan", "ios": "https://dc.lft.to/lastmile_qr_scan"}, "lat": 38.94541683333333, "bike_id": "2fb91070462fad4630a131170f2f6a1c", "is_disabled": 0, "lon": -77.34464266666667, "is_reserved": 0, "fusion_lat": 0.0, "type": "electric_bike"}, {"fusion_lon": 0.0, "name": "75727214d1121d84025636ab06b0d3e6", "rental_uris": {"android": "https://dc.lft.to/lastmile_qr_scan", "ios": "https://dc.lft.to/lastmile_qr_scan"}, "lat": 38.90532783333333, "bike_id": "75727214d1121d84025636ab06b0d3e6", "is_disabled": 0, "lon": -77.06521833333333, "is_reserved": 0, "fusion_lat": 0.0, "type": "electric_scooter"}, {"fusion_lon": 0.0, "name": "831a10fbe280dc2349c6f7665a96b613", "rental_uris": {"android": "https://dc.lft.to/lastmile_qr_scan", "ios": "https://dc.lft.to/lastmile_qr_scan"}, "lat": 38.89227266666666, "bike_id": "831a10fbe280dc2349c6f7665a96b613", "is_disabled": 0, "lon": -77.04500983333334, "is_reserved": 0, "fusion_lat": 0.0, "type": "electric_scooter"}, {"fusion_lon": 0.0, "name": "0334a7f1b1d66e8cdd4a286433a7e7c2", "rental_uris": {"android": "https://dc.lft.to/lastmile_qr_scan", "ios": "https://dc.lft.to/lastmile_qr_scan"}, "lat": 38.89599, "bike_id": "0334a7f1b1d66e8cdd4a286433a7e7c2", "is_disabled": 0, "lon": -77.02553116666667, "is_reserved": 0, "fusion_lat": 0.0, "type": "electric_scooter"}, {"fusion_lon": 0.0, "name": "793b6e16132cb11d3465091b90f3eaf1", "rental_uris": {"android": "https://dc.lft.to/lastmile_qr_scan", "ios": "https://dc.lft.to/lastmile_qr_scan"}, "lat": 38.90972883333333, "bike_id": "793b6e16132cb11d3465091b90f3eaf1", "is_disabled": 0, "lon": -77.032161, "is_reserved": 0, "fusion_lat": 0.0, "type": "electric_scooter"}, {"fusion_lon": 0.0, "name": "95cf541f442bb3f337d20aef4dede06c", "rental_uris": {"android": "https://dc.lft.to/lastmile_qr_scan", "ios": "https://dc.lft.to/lastmile_qr_scan"}, "lat": 38.9312495, "bike_id": "95cf541f442bb3f337d20aef4dede06c", "is_disabled": 0, "lon": -77.03606033333334, "is_reserved": 0, "fusion_lat": 0.0, "type": "electric_scooter"}, {"fusion_lon": 0.0, "name": "6f47124a87ee502ad974a496c3607e50", "rental_uris": {"android": "https://dc.lft.to/lastmile_qr_scan", "ios": "https://dc.lft.to/lastmile_qr_scan"}, "lat": 38.9245505, "bike_id": "6f47124a87ee502ad974a496c3607e50", "is_disabled": 0, "lon": -77.02165516666666, "is_reserved": 0, "fusion_lat": 0.0, "type": "electric_scooter"}, {"fusion_lon": 0.0, "name": "4c85cacd554feac4b4ede3fe128c9c12", "rental_uris": {"android": "https://dc.lft.to/lastmile_qr_scan", "ios": "https://dc.lft.to/lastmile_qr_scan"}, "lat": 38.8866375, "bike_id": "4c85cacd554feac4b4ede3fe128c9c12", "is_disabled": 0, "lon": -76.93675416666666, "is_reserved": 0, "fusion_lat": 0.0, "type": "electric_scooter"}, {"fusion_lon": 0.0, "name": "2b13bf0fc07d344b5dd8811e07752085", "rental_uris": {"android": "https://dc.lft.to/lastmile_qr_scan", "ios": "https://dc.lft.to/lastmile_qr_scan"}, "lat": 39.0843385, "bike_id": "2b13bf0fc07d344b5dd8811e07752085", "is_disabled": 0, "lon": -76.9514655, "is_reserved": 0, "fusion_lat": 0.0, "type": "electric_bike"}, {"fusion_lon": 0.0, "name": "652595c5d2b40f54f66bcca49c0c1bef", "rental_uris": {"android": "https://dc.lft.to/lastmile_qr_scan", "ios": "https://dc.lft.to/lastmile_qr_scan"}, "lat": 38.91814133333333, "bike_id": "652595c5d2b40f54f66bcca49c0c1bef", "is_disabled": 0, "lon": -77.0247945, "is_reserved": 0, "fusion_lat": 0.0, "type": "electric_scooter"}, {"fusion_lon": 0.0, "name": "f14c87408721444409f313dc4dab815e", "rental_uris": {"android": "https://dc.lft.to/lastmile_qr_scan", "ios": "https://dc.lft.to/lastmile_qr_scan"}, "lat": 38.919261, "bike_id": "f14c87408721444409f313dc4dab815e", "is_disabled": 0, "lon": -77.00997033333333, "is_reserved": 0, "fusion_lat": 0.0, "type": "electric_scooter"}, {"fusion_lon": 0.0, "name": "3fb02874c91e5c7400601ec3cdfe929a", "rental_uris": {"android": "https://dc.lft.to/lastmile_qr_scan", "ios": "https://dc.lft.to/lastmile_qr_scan"}, "lat": 38.918574, "bike_id": "3fb02874c91e5c7400601ec3cdfe929a", "is_disabled": 0, "lon": -77.02528216666667, "is_reserved": 0, "fusion_lat": 0.0, "type": "electric_scooter"}, {"fusion_lon": 0.0, "name": "c9518ec7c2c5dcbca4032f1104bac15e", "rental_uris": {"android": "https://dc.lft.to/lastmile_qr_scan", "ios": "https://dc.lft.to/lastmile_qr_scan"}, "lat": 38.8922345, "bike_id": "c9518ec7c2c5dcbca4032f1104bac15e", "is_disabled": 0, "lon": -77.04368483333333, "is_reserved": 0, "fusion_lat": 0.0, "type": "electric_scooter"}, {"fusion_lon": 0.0, "name": "6d583de52b8ce988d7cf27cd350397a1", "rental_uris": {"android": "https://dc.lft.to/lastmile_qr_scan", "ios": "https://dc.lft.to/lastmile_qr_scan"}, "lat": 38.924096, "bike_id": "6d583de52b8ce988d7cf27cd350397a1", "is_disabled": 0, "lon": -77.05171616666667, "is_reserved": 0, "fusion_lat": 0.0, "type": "electric_scooter"}, {"fusion_lon": 0.0, "name": "fe5801d6b96fb062d5c8b51d6a7714a3", "rental_uris": {"android": "https://dc.lft.to/lastmile_qr_scan", "ios": "https://dc.lft.to/lastmile_qr_scan"}, "lat": 38.8942405, "bike_id": "fe5801d6b96fb062d5c8b51d6a7714a3", "is_disabled": 0, "lon": -76.99776683333333, "is_reserved": 0, "fusion_lat": 0.0, "type": "electric_scooter"}, {"fusion_lon": 0.0, "name": "5f468a4d130a792de0b88a9f22289236", "rental_uris": {"android": "https://dc.lft.to/lastmile_qr_scan", "ios": "https://dc.lft.to/lastmile_qr_scan"}, "lat": 38.90244783333333, "bike_id": "5f468a4d130a792de0b88a9f22289236", "is_disabled": 0, "lon": -76.97411066666666, "is_reserved": 0, "fusion_lat": 0.0, "type": "electric_scooter"}, {"fusion_lon": 0.0, "name": "4d8be3e734acc0fa9cb6121cc791ba33", "rental_uris": {"android": "https://dc.lft.to/lastmile_qr_scan", "ios": "https://dc.lft.to/lastmile_qr_scan"}, "lat": 38.91578233333333, "bike_id": "4d8be3e734acc0fa9cb6121cc791ba33", "is_disabled": 0, "lon": -77.01235266666667, "is_reserved": 0, "fusion_lat": 0.0, "type": "electric_scooter"}, {"fusion_lon": 0.0, "name": "6b2c60ea488a6a301ca3e8d30e2f832a", "rental_uris": {"android": "https://dc.lft.to/lastmile_qr_scan", "ios": "https://dc.lft.to/lastmile_qr_scan"}, "lat": 38.92595816666667, "bike_id": "6b2c60ea488a6a301ca3e8d30e2f832a", "is_disabled": 0, "lon": -77.03751766666667, "is_reserved": 0, "fusion_lat": 0.0, "type": "electric_scooter"}, {"fusion_lon": 0.0, "name": "e3439e57575c6bf1cff878605f037baf", "rental_uris": {"android": "https://dc.lft.to/lastmile_qr_scan", "ios": "https://dc.lft.to/lastmile_qr_scan"}, "lat": 38.882188, "bike_id": "e3439e57575c6bf1cff878605f037baf", "is_disabled": 0, "lon": -76.93922183333333, "is_reserved": 0, "fusion_lat": 0.0, "type": "electric_scooter"}, {"fusion_lon": 0.0, "name": "eff9ad1989a416924dbde9f7d1820066", "rental_uris": {"android": "https://dc.lft.to/lastmile_qr_scan", "ios": "https://dc.lft.to/lastmile_qr_scan"}, "lat": 38.9260405, "bike_id": "eff9ad1989a416924dbde9f7d1820066", "is_disabled": 0, "lon": -77.024326, "is_reserved": 0, "fusion_lat": 0.0, "type": "electric_bike"}, {"fusion_lon": 0.0, "name": "7bab09558be0acad4d35f152f94251d8", "rental_uris": {"android": "https://dc.lft.to/lastmile_qr_scan", "ios": "https://dc.lft.to/lastmile_qr_scan"}, "lat": 38.90250066666667, "bike_id": "7bab09558be0acad4d35f152f94251d8", "is_disabled": 0, "lon": -77.04475266666667, "is_reserved": 0, "fusion_lat": 0.0, "type": "electric_scooter"}, {"fusion_lon": 0.0, "name": "a3106e86434939e1cc41b1244328fded", "rental_uris": {"android": "https://dc.lft.to/lastmile_qr_scan", "ios": "https://dc.lft.to/lastmile_qr_scan"}, "lat": 38.943024, "bike_id": "a3106e86434939e1cc41b1244328fded", "is_disabled": 0, "lon": -77.03459933333333, "is_reserved": 0, "fusion_lat": 0.0, "type": "electric_scooter"}, {"fusion_lon": 0.0, "name": "48eba3fc3b11d23f9b8d06415a834f8a", "rental_uris": {"android": "https://dc.lft.to/lastmile_qr_scan", "ios": "https://dc.lft.to/lastmile_qr_scan"}, "lat": 38.916556166666666, "bike_id": "48eba3fc3b11d23f9b8d06415a834f8a", "is_disabled": 0, "lon": -77.00926716666666, "is_reserved": 0, "fusion_lat": 0.0, "type": "electric_scooter"}, {"fusion_lon": 0.0, "name": "0a0eb9b4f3d6723d604a3aa8d91e3416", "rental_uris": {"android": "https://dc.lft.to/lastmile_qr_scan", "ios": "https://dc.lft.to/lastmile_qr_scan"}, "lat": 38.92147166666667, "bike_id": "0a0eb9b4f3d6723d604a3aa8d91e3416", "is_disabled": 0, "lon": -77.03533883333333, "is_reserved": 0, "fusion_lat": 0.0, "type": "electric_scooter"}, {"fusion_lon": 0.0, "name": "901525b560a1cd092f8b6f4606b1d9c1", "rental_uris": {"android": "https://dc.lft.to/lastmile_qr_scan", "ios": "https://dc.lft.to/lastmile_qr_scan"}, "lat": 38.914827333333335, "bike_id": "901525b560a1cd092f8b6f4606b1d9c1", "is_disabled": 0, "lon": -77.04500683333333, "is_reserved": 0, "fusion_lat": 0.0, "type": "electric_scooter"}, {"fusion_lon": 0.0, "name": "12b883b2edfbc31c2ad1a15a6a4c2e1e", "rental_uris": {"android": "https://dc.lft.to/lastmile_qr_scan", "ios": "https://dc.lft.to/lastmile_qr_scan"}, "lat": 39.0381895, "bike_id": "12b883b2edfbc31c2ad1a15a6a4c2e1e", "is_disabled": 0, "lon": -77.0422755, "is_reserved": 0, "fusion_lat": 0.0, "type": "electric_bike"}, {"fusion_lon": 0.0, "name": "d13d15fbe04edd0cf9bad150789f348e", "rental_uris": {"android": "https://dc.lft.to/lastmile_qr_scan", "ios": "https://dc.lft.to/lastmile_qr_scan"}, "lat": 38.92473716666667, "bike_id": "d13d15fbe04edd0cf9bad150789f348e", "is_disabled": 0, "lon": -77.02207033333333, "is_reserved": 0, "fusion_lat": 0.0, "type": "electric_scooter"}, {"fusion_lon": 0.0, "name": "3b1e24d9ddb47c5323f381428ed09a56", "rental_uris": {"android": "https://dc.lft.to/lastmile_qr_scan", "ios": "https://dc.lft.to/lastmile_qr_scan"}, "lat": 38.9231715, "bike_id": "3b1e24d9ddb47c5323f381428ed09a56", "is_disabled": 0, "lon": -77.0367905, "is_reserved": 0, "fusion_lat": 0.0, "type": "electric_scooter"}, {"fusion_lon": 0.0, "name": "72cc8bb324ad71904161607eef3f8838", "rental_uris": {"android": "https://dc.lft.to/lastmile_qr_scan", "ios": "https://dc.lft.to/lastmile_qr_scan"}, "lat": 38.922221666666665, "bike_id": "72cc8bb324ad71904161607eef3f8838", "is_disabled": 0, "lon": -77.02417616666666, "is_reserved": 0, "fusion_lat": 0.0, "type": "electric_scooter"}, {"fusion_lon": 0.0, "name": "668e54fcccc681ed8dfe270d3d28da5f", "rental_uris": {"android": "https://dc.lft.to/lastmile_qr_scan", "ios": "https://dc.lft.to/lastmile_qr_scan"}, "lat": 38.901899666666665, "bike_id": "668e54fcccc681ed8dfe270d3d28da5f", "is_disabled": 0, "lon": -77.00121483333334, "is_reserved": 0, "fusion_lat": 0.0, "type": "electric_scooter"}, {"fusion_lon": 0.0, "name": "f872d5fb5ba379b80905d431ad464ab8", "rental_uris": {"android": "https://dc.lft.to/lastmile_qr_scan", "ios": "https://dc.lft.to/lastmile_qr_scan"}, "lat": 38.95016733333333, "bike_id": "f872d5fb5ba379b80905d431ad464ab8", "is_disabled": 0, "lon": -77.06703466666667, "is_reserved": 0, "fusion_lat": 0.0, "type": "electric_scooter"}, {"fusion_lon": 0.0, "name": "7e5f62615cf1a31d06ebbabc427ed771", "rental_uris": {"android": "https://dc.lft.to/lastmile_qr_scan", "ios": "https://dc.lft.to/lastmile_qr_scan"}, "lat": 38.784040833333336, "bike_id": "7e5f62615cf1a31d06ebbabc427ed771", "is_disabled": 0, "lon": -77.1206145, "is_reserved": 0, "fusion_lat": 0.0, "type": "electric_bike"}, {"fusion_lon": 0.0, "name": "544350cfe9594eb93a02ab19dd507178", "rental_uris": {"android": "https://dc.lft.to/lastmile_qr_scan", "ios": "https://dc.lft.to/lastmile_qr_scan"}, "lat": 38.924825, "bike_id": "544350cfe9594eb93a02ab19dd507178", "is_disabled": 0, "lon": -77.0310215, "is_reserved": 0, "fusion_lat": 0.0, "type": "electric_scooter"}, {"fusion_lon": 0.0, "name": "0709819a09b9e972c0f57c233fe459a8", "rental_uris": {"android": "https://dc.lft.to/lastmile_qr_scan", "ios": "https://dc.lft.to/lastmile_qr_scan"}, "lat": 38.893284333333334, "bike_id": "0709819a09b9e972c0f57c233fe459a8", "is_disabled": 0, "lon": -77.04672366666667, "is_reserved": 0, "fusion_lat": 0.0, "type": "electric_scooter"}, {"fusion_lon": 0.0, "name": "c6722c1e6d9bbdb770c634959534ec29", "rental_uris": {"android": "https://dc.lft.to/lastmile_qr_scan", "ios": "https://dc.lft.to/lastmile_qr_scan"}, "lat": 38.88327266666667, "bike_id": "c6722c1e6d9bbdb770c634959534ec29", "is_disabled": 0, "lon": -77.0095745, "is_reserved": 0, "fusion_lat": 0.0, "type": "electric_scooter"}, {"fusion_lon": 0.0, "name": "4f4a3d0e4d9a4dac6a6593bdec5c89b6", "rental_uris": {"android": "https://dc.lft.to/lastmile_qr_scan", "ios": "https://dc.lft.to/lastmile_qr_scan"}, "lat": 38.915738166666664, "bike_id": "4f4a3d0e4d9a4dac6a6593bdec5c89b6", "is_disabled": 0, "lon": -77.04621483333334, "is_reserved": 0, "fusion_lat": 0.0, "type": "electric_scooter"}, {"fusion_lon": 0.0, "name": "cb8146fdcb7ced00b32d133f3a72381c", "rental_uris": {"android": "https://dc.lft.to/lastmile_qr_scan", "ios": "https://dc.lft.to/lastmile_qr_scan"}, "lat": 38.9279595, "bike_id": "cb8146fdcb7ced00b32d133f3a72381c", "is_disabled": 0, "lon": -77.03154433333333, "is_reserved": 0, "fusion_lat": 0.0, "type": "electric_scooter"}, {"fusion_lon": 0.0, "name": "a2f2a63cd1f30dd59f25255610963bb9", "rental_uris": {"android": "https://dc.lft.to/lastmile_qr_scan", "ios": "https://dc.lft.to/lastmile_qr_scan"}, "lat": 38.900551166666666, "bike_id": "a2f2a63cd1f30dd59f25255610963bb9", "is_disabled": 0, "lon": -76.98489733333334, "is_reserved": 0, "fusion_lat": 0.0, "type": "electric_scooter"}, {"fusion_lon": 0.0, "name": "41caa6cb7af6f4795c3a4e410683f97b", "rental_uris": {"android": "https://dc.lft.to/lastmile_qr_scan", "ios": "https://dc.lft.to/lastmile_qr_scan"}, "lat": 38.90896933333333, "bike_id": "41caa6cb7af6f4795c3a4e410683f97b", "is_disabled": 0, "lon": -76.98395466666666, "is_reserved": 0, "fusion_lat": 0.0, "type": "electric_scooter"}, {"fusion_lon": 0.0, "name": "5dc075bc31673617df29767584c6804a", "rental_uris": {"android": "https://dc.lft.to/lastmile_qr_scan", "ios": "https://dc.lft.to/lastmile_qr_scan"}, "lat": 38.9123975, "bike_id": "5dc075bc31673617df29767584c6804a", "is_disabled": 0, "lon": -77.03189833333333, "is_reserved": 0, "fusion_lat": 0.0, "type": "electric_scooter"}, {"fusion_lon": 0.0, "name": "b60eef2505bf3a53963d151c7c79b28f", "rental_uris": {"android": "https://dc.lft.to/lastmile_qr_scan", "ios": "https://dc.lft.to/lastmile_qr_scan"}, "lat": 38.9180125, "bike_id": "b60eef2505bf3a53963d151c7c79b28f", "is_disabled": 0, "lon": -77.03093933333334, "is_reserved": 0, "fusion_lat": 0.0, "type": "electric_scooter"}, {"fusion_lon": 0.0, "name": "aeeb12c85e2aba0ccff8af58d3e228b9", "rental_uris": {"android": "https://dc.lft.to/lastmile_qr_scan", "ios": "https://dc.lft.to/lastmile_qr_scan"}, "lat": 38.923934833333334, "bike_id": "aeeb12c85e2aba0ccff8af58d3e228b9", "is_disabled": 0, "lon": -77.04317916666666, "is_reserved": 0, "fusion_lat": 0.0, "type": "electric_scooter"}, {"fusion_lon": 0.0, "name": "cd97e0c9492b09e48b337b4a777ef046", "rental_uris": {"android": "https://dc.lft.to/lastmile_qr_scan", "ios": "https://dc.lft.to/lastmile_qr_scan"}, "lat": 38.897389833333335, "bike_id": "cd97e0c9492b09e48b337b4a777ef046", "is_disabled": 0, "lon": -77.01384883333333, "is_reserved": 0, "fusion_lat": 0.0, "type": "electric_scooter"}, {"fusion_lon": 0.0, "name": "0789862ecde12f01fbcb6b2df49e70cc", "rental_uris": {"android": "https://dc.lft.to/lastmile_qr_scan", "ios": "https://dc.lft.to/lastmile_qr_scan"}, "lat": 38.897620333333336, "bike_id": "0789862ecde12f01fbcb6b2df49e70cc", "is_disabled": 0, "lon": -77.02684133333334, "is_reserved": 0, "fusion_lat": 0.0, "type": "electric_scooter"}, {"fusion_lon": 0.0, "name": "ea071566a826f64173e1d6f5cbcfa562", "rental_uris": {"android": "https://dc.lft.to/lastmile_qr_scan", "ios": "https://dc.lft.to/lastmile_qr_scan"}, "lat": 38.886291666666665, "bike_id": "ea071566a826f64173e1d6f5cbcfa562", "is_disabled": 0, "lon": -77.03164433333333, "is_reserved": 0, "fusion_lat": 0.0, "type": "electric_scooter"}, {"fusion_lon": 0.0, "name": "3384d3a4b695754d29b07a36e9d1118a", "rental_uris": {"android": "https://dc.lft.to/lastmile_qr_scan", "ios": "https://dc.lft.to/lastmile_qr_scan"}, "lat": 38.9072015, "bike_id": "3384d3a4b695754d29b07a36e9d1118a", "is_disabled": 0, "lon": -77.04077466666666, "is_reserved": 0, "fusion_lat": 0.0, "type": "electric_scooter"}, {"fusion_lon": 0.0, "name": "42f2783e900b105819cd514212dd8351", "rental_uris": {"android": "https://dc.lft.to/lastmile_qr_scan", "ios": "https://dc.lft.to/lastmile_qr_scan"}, "lat": 38.91177533333333, "bike_id": "42f2783e900b105819cd514212dd8351", "is_disabled": 0, "lon": -77.03212966666666, "is_reserved": 0, "fusion_lat": 0.0, "type": "electric_scooter"}, {"fusion_lon": 0.0, "name": "1a2cb2168316afe61b8311a1769a979b", "rental_uris": {"android": "https://dc.lft.to/lastmile_qr_scan", "ios": "https://dc.lft.to/lastmile_qr_scan"}, "lat": 38.90977266666667, "bike_id": "1a2cb2168316afe61b8311a1769a979b", "is_disabled": 0, "lon": -77.03220983333334, "is_reserved": 0, "fusion_lat": 0.0, "type": "electric_scooter"}, {"fusion_lon": 0.0, "name": "0071d62b6ae5c3a251f6dcf694860ca9", "rental_uris": {"android": "https://dc.lft.to/lastmile_qr_scan", "ios": "https://dc.lft.to/lastmile_qr_scan"}, "lat": 38.89548666666666, "bike_id": "0071d62b6ae5c3a251f6dcf694860ca9", "is_disabled": 0, "lon": -77.01132533333333, "is_reserved": 0, "fusion_lat": 0.0, "type": "electric_scooter"}, {"fusion_lon": 0.0, "name": "8c58f70f5e25a4eab3b6dc48230ac471", "rental_uris": {"android": "https://dc.lft.to/lastmile_qr_scan", "ios": "https://dc.lft.to/lastmile_qr_scan"}, "lat": 38.915628166666664, "bike_id": "8c58f70f5e25a4eab3b6dc48230ac471", "is_disabled": 0, "lon": -77.01969116666666, "is_reserved": 0, "fusion_lat": 0.0, "type": "electric_scooter"}, {"fusion_lon": 0.0, "name": "4e235f513735e35467cba7f2146efa6a", "rental_uris": {"android": "https://dc.lft.to/lastmile_qr_scan", "ios": "https://dc.lft.to/lastmile_qr_scan"}, "lat": 38.9208915, "bike_id": "4e235f513735e35467cba7f2146efa6a", "is_disabled": 0, "lon": -77.00437466666666, "is_reserved": 0, "fusion_lat": 0.0, "type": "electric_scooter"}, {"fusion_lon": 0.0, "name": "e91323cfe87e0df11865b7ab13e15287", "rental_uris": {"android": "https://dc.lft.to/lastmile_qr_scan", "ios": "https://dc.lft.to/lastmile_qr_scan"}, "lat": 38.90978783333333, "bike_id": "e91323cfe87e0df11865b7ab13e15287", "is_disabled": 0, "lon": -77.07332483333333, "is_reserved": 0, "fusion_lat": 0.0, "type": "electric_scooter"}, {"fusion_lon": 0.0, "name": "aa44ff73176e266606f0b8c6875e30ca", "rental_uris": {"android": "https://dc.lft.to/lastmile_qr_scan", "ios": "https://dc.lft.to/lastmile_qr_scan"}, "lat": 38.894662333333336, "bike_id": "aa44ff73176e266606f0b8c6875e30ca", "is_disabled": 0, "lon": -77.02030666666667, "is_reserved": 0, "fusion_lat": 0.0, "type": "electric_scooter"}, {"fusion_lon": 0.0, "name": "2f8c699c5e1964c2274e58f698143b12", "rental_uris": {"android": "https://dc.lft.to/lastmile_qr_scan", "ios": "https://dc.lft.to/lastmile_qr_scan"}, "lat": 38.916994333333335, "bike_id": "2f8c699c5e1964c2274e58f698143b12", "is_disabled": 0, "lon": -77.03468133333334, "is_reserved": 0, "fusion_lat": 0.0, "type": "electric_scooter"}, {"fusion_lon": 0.0, "name": "19b67f36726be8b39b87280622caa157", "rental_uris": {"android": "https://dc.lft.to/lastmile_qr_scan", "ios": "https://dc.lft.to/lastmile_qr_scan"}, "lat": 38.928782166666664, "bike_id": "19b67f36726be8b39b87280622caa157", "is_disabled": 0, "lon": -77.03258, "is_reserved": 0, "fusion_lat": 0.0, "type": "electric_scooter"}, {"fusion_lon": 0.0, "name": "ae0d5782b99226cdd68160fa9f8c1f22", "rental_uris": {"android": "https://dc.lft.to/lastmile_qr_scan", "ios": "https://dc.lft.to/lastmile_qr_scan"}, "lat": 38.9225685, "bike_id": "ae0d5782b99226cdd68160fa9f8c1f22", "is_disabled": 0, "lon": -77.0365945, "is_reserved": 0, "fusion_lat": 0.0, "type": "electric_scooter"}, {"fusion_lon": 0.0, "name": "008bdc28dac9f447c6e4e7b48ff0d8a7", "rental_uris": {"android": "https://dc.lft.to/lastmile_qr_scan", "ios": "https://dc.lft.to/lastmile_qr_scan"}, "lat": 38.93059683333333, "bike_id": "008bdc28dac9f447c6e4e7b48ff0d8a7", "is_disabled": 0, "lon": -77.0278935, "is_reserved": 0, "fusion_lat": 0.0, "type": "electric_scooter"}, {"fusion_lon": 0.0, "name": "e502482f6726886971b1d1762b7f42d7", "rental_uris": {"android": "https://dc.lft.to/lastmile_qr_scan", "ios": "https://dc.lft.to/lastmile_qr_scan"}, "lat": 38.9094535, "bike_id": "e502482f6726886971b1d1762b7f42d7", "is_disabled": 0, "lon": -77.04423933333334, "is_reserved": 0, "fusion_lat": 0.0, "type": "electric_scooter"}, {"fusion_lon": 0.0, "name": "f0deb288054f96a54548a36456f5dbf3", "rental_uris": {"android": "https://dc.lft.to/lastmile_qr_scan", "ios": "https://dc.lft.to/lastmile_qr_scan"}, "lat": 38.923492, "bike_id": "f0deb288054f96a54548a36456f5dbf3", "is_disabled": 0, "lon": -77.04381116666667, "is_reserved": 0, "fusion_lat": 0.0, "type": "electric_scooter"}, {"fusion_lon": 0.0, "name": "5e488e4a76151dad2aea4c8965b8cb04", "rental_uris": {"android": "https://dc.lft.to/lastmile_qr_scan", "ios": "https://dc.lft.to/lastmile_qr_scan"}, "lat": 38.92854716666667, "bike_id": "5e488e4a76151dad2aea4c8965b8cb04", "is_disabled": 0, "lon": -77.02182216666667, "is_reserved": 0, "fusion_lat": 0.0, "type": "electric_scooter"}, {"fusion_lon": 0.0, "name": "3df9f50c1a36302bf230b570d8b17e73", "rental_uris": {"android": "https://dc.lft.to/lastmile_qr_scan", "ios": "https://dc.lft.to/lastmile_qr_scan"}, "lat": 38.90040166666667, "bike_id": "3df9f50c1a36302bf230b570d8b17e73", "is_disabled": 0, "lon": -77.00193133333333, "is_reserved": 0, "fusion_lat": 0.0, "type": "electric_scooter"}, {"fusion_lon": 0.0, "name": "e55969635881553c55e195b7013ab4d0", "rental_uris": {"android": "https://dc.lft.to/lastmile_qr_scan", "ios": "https://dc.lft.to/lastmile_qr_scan"}, "lat": 38.91983533333333, "bike_id": "e55969635881553c55e195b7013ab4d0", "is_disabled": 0, "lon": -77.07654066666667, "is_reserved": 0, "fusion_lat": 0.0, "type": "electric_scooter"}, {"fusion_lon": 0.0, "name": "f81cda347e1114d6f94b31c5ba56d725", "rental_uris": {"android": "https://dc.lft.to/lastmile_qr_scan", "ios": "https://dc.lft.to/lastmile_qr_scan"}, "lat": 38.90375183333333, "bike_id": "f81cda347e1114d6f94b31c5ba56d725", "is_disabled": 0, "lon": -76.9848455, "is_reserved": 0, "fusion_lat": 0.0, "type": "electric_scooter"}, {"fusion_lon": 0.0, "name": "f54979ac5ece4cc187088b4ca663f945", "rental_uris": {"android": "https://dc.lft.to/lastmile_qr_scan", "ios": "https://dc.lft.to/lastmile_qr_scan"}, "lat": 38.89223, "bike_id": "f54979ac5ece4cc187088b4ca663f945", "is_disabled": 0, "lon": -77.02161616666666, "is_reserved": 0, "fusion_lat": 0.0, "type": "electric_scooter"}, {"fusion_lon": 0.0, "name": "9d9459dcce55e29e8d555a4534607379", "rental_uris": {"android": "https://dc.lft.to/lastmile_qr_scan", "ios": "https://dc.lft.to/lastmile_qr_scan"}, "lat": 38.90326783333333, "bike_id": "9d9459dcce55e29e8d555a4534607379", "is_disabled": 0, "lon": -77.02470483333333, "is_reserved": 0, "fusion_lat": 0.0, "type": "electric_scooter"}, {"fusion_lon": 0.0, "name": "cca50c22db85539c3106a9be3b7f3bb0", "rental_uris": {"android": "https://dc.lft.to/lastmile_qr_scan", "ios": "https://dc.lft.to/lastmile_qr_scan"}, "lat": 38.938803166666666, "bike_id": "cca50c22db85539c3106a9be3b7f3bb0", "is_disabled": 0, "lon": -77.0248375, "is_reserved": 0, "fusion_lat": 0.0, "type": "electric_scooter"}, {"fusion_lon": 0.0, "name": "6e36419c0d0a05a92af3a1ac10e4d7f2", "rental_uris": {"android": "https://dc.lft.to/lastmile_qr_scan", "ios": "https://dc.lft.to/lastmile_qr_scan"}, "lat": 38.91926316666667, "bike_id": "6e36419c0d0a05a92af3a1ac10e4d7f2", "is_disabled": 0, "lon": -77.02478166666667, "is_reserved": 0, "fusion_lat": 0.0, "type": "electric_scooter"}, {"fusion_lon": 0.0, "name": "86c59efbf2364c8d18021670d60fd444", "rental_uris": {"android": "https://dc.lft.to/lastmile_qr_scan", "ios": "https://dc.lft.to/lastmile_qr_scan"}, "lat": 38.924913, "bike_id": "86c59efbf2364c8d18021670d60fd444", "is_disabled": 0, "lon": -77.02190916666666, "is_reserved": 0, "fusion_lat": 0.0, "type": "electric_scooter"}, {"fusion_lon": 0.0, "name": "955178cff93f3b9f66a2bc5d192062f5", "rental_uris": {"android": "https://dc.lft.to/lastmile_qr_scan", "ios": "https://dc.lft.to/lastmile_qr_scan"}, "lat": 38.90581066666667, "bike_id": "955178cff93f3b9f66a2bc5d192062f5", "is_disabled": 0, "lon": -77.03506483333334, "is_reserved": 0, "fusion_lat": 0.0, "type": "electric_scooter"}, {"fusion_lon": 0.0, "name": "9051438e5040a9955b96a6ac6e9254b3", "rental_uris": {"android": "https://dc.lft.to/lastmile_qr_scan", "ios": "https://dc.lft.to/lastmile_qr_scan"}, "lat": 38.9309455, "bike_id": "9051438e5040a9955b96a6ac6e9254b3", "is_disabled": 0, "lon": -77.02479916666667, "is_reserved": 0, "fusion_lat": 0.0, "type": "electric_scooter"}, {"fusion_lon": 0.0, "name": "3993e871a3a444eb8b6c88cc4edf142f", "rental_uris": {"android": "https://dc.lft.to/lastmile_qr_scan", "ios": "https://dc.lft.to/lastmile_qr_scan"}, "lat": 38.90556483333334, "bike_id": "3993e871a3a444eb8b6c88cc4edf142f", "is_disabled": 0, "lon": -77.03473283333334, "is_reserved": 0, "fusion_lat": 0.0, "type": "electric_scooter"}, {"fusion_lon": 0.0, "name": "24ca842f49985e17cba534b76b1f3327", "rental_uris": {"android": "https://dc.lft.to/lastmile_qr_scan", "ios": "https://dc.lft.to/lastmile_qr_scan"}, "lat": 38.93973166666667, "bike_id": "24ca842f49985e17cba534b76b1f3327", "is_disabled": 0, "lon": -77.03033833333333, "is_reserved": 0, "fusion_lat": 0.0, "type": "electric_scooter"}, {"fusion_lon": 0.0, "name": "30ca2896d4e613007211df47d2cbb4ef", "rental_uris": {"android": "https://dc.lft.to/lastmile_qr_scan", "ios": "https://dc.lft.to/lastmile_qr_scan"}, "lat": 38.938861833333334, "bike_id": "30ca2896d4e613007211df47d2cbb4ef", "is_disabled": 0, "lon": -77.03225516666667, "is_reserved": 0, "fusion_lat": 0.0, "type": "electric_scooter"}, {"fusion_lon": 0.0, "name": "78bb05a5d42f248f257eb27cc3018a5d", "rental_uris": {"android": "https://dc.lft.to/lastmile_qr_scan", "ios": "https://dc.lft.to/lastmile_qr_scan"}, "lat": 38.90335, "bike_id": "78bb05a5d42f248f257eb27cc3018a5d", "is_disabled": 0, "lon": -76.9821725, "is_reserved": 0, "fusion_lat": 0.0, "type": "electric_scooter"}, {"fusion_lon": 0.0, "name": "88412e0f51744ceda2db0c7d69587753", "rental_uris": {"android": "https://dc.lft.to/lastmile_qr_scan", "ios": "https://dc.lft.to/lastmile_qr_scan"}, "lat": 38.915529, "bike_id": "88412e0f51744ceda2db0c7d69587753", "is_disabled": 0, "lon": -77.04876, "is_reserved": 0, "fusion_lat": 0.0, "type": "electric_scooter"}, {"fusion_lon": 0.0, "name": "faee13706a62a84d1be40a59a826efb6", "rental_uris": {"android": "https://dc.lft.to/lastmile_qr_scan", "ios": "https://dc.lft.to/lastmile_qr_scan"}, "lat": 38.91195316666666, "bike_id": "faee13706a62a84d1be40a59a826efb6", "is_disabled": 0, "lon": -77.03202583333334, "is_reserved": 0, "fusion_lat": 0.0, "type": "electric_scooter"}, {"fusion_lon": 0.0, "name": "7705c5de6ea2b1a821c2dda5d854678b", "rental_uris": {"android": "https://dc.lft.to/lastmile_qr_scan", "ios": "https://dc.lft.to/lastmile_qr_scan"}, "lat": 38.89469783333333, "bike_id": "7705c5de6ea2b1a821c2dda5d854678b", "is_disabled": 0, "lon": -76.99711966666666, "is_reserved": 0, "fusion_lat": 0.0, "type": "electric_scooter"}, {"fusion_lon": 0.0, "name": "e69cc3eae8d55233da28da8b80f41f2c", "rental_uris": {"android": "https://dc.lft.to/lastmile_qr_scan", "ios": "https://dc.lft.to/lastmile_qr_scan"}, "lat": 38.904959, "bike_id": "e69cc3eae8d55233da28da8b80f41f2c", "is_disabled": 0, "lon": -76.97742466666666, "is_reserved": 0, "fusion_lat": 0.0, "type": "electric_scooter"}, {"fusion_lon": 0.0, "name": "ee360dfea50f9d2aec9229aac2e14c23", "rental_uris": {"android": "https://dc.lft.to/lastmile_qr_scan", "ios": "https://dc.lft.to/lastmile_qr_scan"}, "lat": 38.933332666666665, "bike_id": "ee360dfea50f9d2aec9229aac2e14c23", "is_disabled": 0, "lon": -77.029228, "is_reserved": 0, "fusion_lat": 0.0, "type": "electric_scooter"}, {"fusion_lon": 0.0, "name": "b157b66c4fb8e2bea09b30fe063823db", "rental_uris": {"android": "https://dc.lft.to/lastmile_qr_scan", "ios": "https://dc.lft.to/lastmile_qr_scan"}, "lat": 38.93169683333333, "bike_id": "b157b66c4fb8e2bea09b30fe063823db", "is_disabled": 0, "lon": -77.07850316666666, "is_reserved": 0, "fusion_lat": 0.0, "type": "electric_scooter"}, {"fusion_lon": 0.0, "name": "f94ae4d916ea8bef5f1920df126eefc0", "rental_uris": {"android": "https://dc.lft.to/lastmile_qr_scan", "ios": "https://dc.lft.to/lastmile_qr_scan"}, "lat": 38.95911016666667, "bike_id": "f94ae4d916ea8bef5f1920df126eefc0", "is_disabled": 0, "lon": -77.00021, "is_reserved": 0, "fusion_lat": 0.0, "type": "electric_scooter"}, {"fusion_lon": 0.0, "name": "042b3c7cf6cb64aef970d926b8186c4f", "rental_uris": {"android": "https://dc.lft.to/lastmile_qr_scan", "ios": "https://dc.lft.to/lastmile_qr_scan"}, "lat": 38.852305666666666, "bike_id": "042b3c7cf6cb64aef970d926b8186c4f", "is_disabled": 0, "lon": -77.05317833333334, "is_reserved": 0, "fusion_lat": 0.0, "type": "electric_bike"}, {"fusion_lon": 0.0, "name": "f55ec3dbafdb4809aa62592aa8a8e5a2", "rental_uris": {"android": "https://dc.lft.to/lastmile_qr_scan", "ios": "https://dc.lft.to/lastmile_qr_scan"}, "lat": 38.9007095, "bike_id": "f55ec3dbafdb4809aa62592aa8a8e5a2", "is_disabled": 0, "lon": -77.047799, "is_reserved": 0, "fusion_lat": 0.0, "type": "electric_scooter"}, {"fusion_lon": 0.0, "name": "6f28053e438992a2d4fba2591745f9e7", "rental_uris": {"android": "https://dc.lft.to/lastmile_qr_scan", "ios": "https://dc.lft.to/lastmile_qr_scan"}, "lat": 38.900355, "bike_id": "6f28053e438992a2d4fba2591745f9e7", "is_disabled": 0, "lon": -76.9962055, "is_reserved": 0, "fusion_lat": 0.0, "type": "electric_scooter"}, {"fusion_lon": 0.0, "name": "753e1bb3d2a408f24e78d5ab8e11691b", "rental_uris": {"android": "https://dc.lft.to/lastmile_qr_scan", "ios": "https://dc.lft.to/lastmile_qr_scan"}, "lat": 38.8923125, "bike_id": "753e1bb3d2a408f24e78d5ab8e11691b", "is_disabled": 0, "lon": -77.05004566666666, "is_reserved": 0, "fusion_lat": 0.0, "type": "electric_scooter"}, {"fusion_lon": 0.0, "name": "3ed24e48244674d83a193e487bb5b751", "rental_uris": {"android": "https://dc.lft.to/lastmile_qr_scan", "ios": "https://dc.lft.to/lastmile_qr_scan"}, "lat": 38.917912, "bike_id": "3ed24e48244674d83a193e487bb5b751", "is_disabled": 0, "lon": -77.04022216666667, "is_reserved": 0, "fusion_lat": 0.0, "type": "electric_scooter"}, {"fusion_lon": 0.0, "name": "cb9ece444dbc6e96ddeab48d780602c8", "rental_uris": {"android": "https://dc.lft.to/lastmile_qr_scan", "ios": "https://dc.lft.to/lastmile_qr_scan"}, "lat": 38.919775666666666, "bike_id": "cb9ece444dbc6e96ddeab48d780602c8", "is_disabled": 0, "lon": -77.03261783333333, "is_reserved": 0, "fusion_lat": 0.0, "type": "electric_scooter"}, {"fusion_lon": 0.0, "name": "bea9b1bdb65b31c1c1a0bbd88d121538", "rental_uris": {"android": "https://dc.lft.to/lastmile_qr_scan", "ios": "https://dc.lft.to/lastmile_qr_scan"}, "lat": 38.93349416666667, "bike_id": "bea9b1bdb65b31c1c1a0bbd88d121538", "is_disabled": 0, "lon": -77.085753, "is_reserved": 0, "fusion_lat": 0.0, "type": "electric_scooter"}, {"fusion_lon": 0.0, "name": "4367c75fe4bdd1978e15a902dd5796dd", "rental_uris": {"android": "https://dc.lft.to/lastmile_qr_scan", "ios": "https://dc.lft.to/lastmile_qr_scan"}, "lat": 38.89905983333333, "bike_id": "4367c75fe4bdd1978e15a902dd5796dd", "is_disabled": 0, "lon": -76.933904, "is_reserved": 0, "fusion_lat": 0.0, "type": "electric_scooter"}, {"fusion_lon": 0.0, "name": "ee5f0409d9b9dbc8b359fe0af670e9bb", "rental_uris": {"android": "https://dc.lft.to/lastmile_qr_scan", "ios": "https://dc.lft.to/lastmile_qr_scan"}, "lat": 38.987413833333335, "bike_id": "ee5f0409d9b9dbc8b359fe0af670e9bb", "is_disabled": 0, "lon": -77.00924033333334, "is_reserved": 0, "fusion_lat": 0.0, "type": "electric_bike"}, {"fusion_lon": 0.0, "name": "0ce5fc3af5030a6e9079e1aed97bd0cd", "rental_uris": {"android": "https://dc.lft.to/lastmile_qr_scan", "ios": "https://dc.lft.to/lastmile_qr_scan"}, "lat": 38.9057525, "bike_id": "0ce5fc3af5030a6e9079e1aed97bd0cd", "is_disabled": 0, "lon": -77.0218105, "is_reserved": 0, "fusion_lat": 0.0, "type": "electric_scooter"}, {"fusion_lon": 0.0, "name": "9f07b08e91146867643bc9b485166b37", "rental_uris": {"android": "https://dc.lft.to/lastmile_qr_scan", "ios": "https://dc.lft.to/lastmile_qr_scan"}, "lat": 38.904432666666665, "bike_id": "9f07b08e91146867643bc9b485166b37", "is_disabled": 0, "lon": -77.05321466666666, "is_reserved": 0, "fusion_lat": 0.0, "type": "electric_scooter"}, {"fusion_lon": 0.0, "name": "3c61c66ff6d43cb3f0f3931c0c14d928", "rental_uris": {"android": "https://dc.lft.to/lastmile_qr_scan", "ios": "https://dc.lft.to/lastmile_qr_scan"}, "lat": 38.928966833333334, "bike_id": "3c61c66ff6d43cb3f0f3931c0c14d928", "is_disabled": 0, "lon": -77.03481866666667, "is_reserved": 0, "fusion_lat": 0.0, "type": "electric_scooter"}, {"fusion_lon": 0.0, "name": "7f4ab1e3b94e031274c1b6212c38ff20", "rental_uris": {"android": "https://dc.lft.to/lastmile_qr_scan", "ios": "https://dc.lft.to/lastmile_qr_scan"}, "lat": 38.920579333333336, "bike_id": "7f4ab1e3b94e031274c1b6212c38ff20", "is_disabled": 0, "lon": -77.02303133333334, "is_reserved": 0, "fusion_lat": 0.0, "type": "electric_scooter"}, {"fusion_lon": 0.0, "name": "85041ae5f560e4dcfe86f8b3bff80e47", "rental_uris": {"android": "https://dc.lft.to/lastmile_qr_scan", "ios": "https://dc.lft.to/lastmile_qr_scan"}, "lat": 38.92055633333333, "bike_id": "85041ae5f560e4dcfe86f8b3bff80e47", "is_disabled": 0, "lon": -76.99875633333333, "is_reserved": 0, "fusion_lat": 0.0, "type": "electric_scooter"}, {"fusion_lon": 0.0, "name": "aa94f7cdfbd491a1645c7eff334c8597", "rental_uris": {"android": "https://dc.lft.to/lastmile_qr_scan", "ios": "https://dc.lft.to/lastmile_qr_scan"}, "lat": 38.920789, "bike_id": "aa94f7cdfbd491a1645c7eff334c8597", "is_disabled": 0, "lon": -77.02305416666667, "is_reserved": 0, "fusion_lat": 0.0, "type": "electric_scooter"}, {"fusion_lon": 0.0, "name": "b728a503ab2855d85cebe5842ed00f09", "rental_uris": {"android": "https://dc.lft.to/lastmile_qr_scan", "ios": "https://dc.lft.to/lastmile_qr_scan"}, "lat": 38.907288, "bike_id": "b728a503ab2855d85cebe5842ed00f09", "is_disabled": 0, "lon": -77.02797116666666, "is_reserved": 0, "fusion_lat": 0.0, "type": "electric_scooter"}, {"fusion_lon": 0.0, "name": "837fa37507dd0b5366b8d2429a88d6bd", "rental_uris": {"android": "https://dc.lft.to/lastmile_qr_scan", "ios": "https://dc.lft.to/lastmile_qr_scan"}, "lat": 38.90623766666667, "bike_id": "837fa37507dd0b5366b8d2429a88d6bd", "is_disabled": 0, "lon": -76.99330716666667, "is_reserved": 0, "fusion_lat": 0.0, "type": "electric_scooter"}, {"fusion_lon": 0.0, "name": "9a44b3393a3c1cf3a1eba613e52bad69", "rental_uris": {"android": "https://dc.lft.to/lastmile_qr_scan", "ios": "https://dc.lft.to/lastmile_qr_scan"}, "lat": 38.91695, "bike_id": "9a44b3393a3c1cf3a1eba613e52bad69", "is_disabled": 0, "lon": -77.0383095, "is_reserved": 0, "fusion_lat": 0.0, "type": "electric_scooter"}, {"fusion_lon": 0.0, "name": "8d958fe9f838785a9cd8f0d5105da7e6", "rental_uris": {"android": "https://dc.lft.to/lastmile_qr_scan", "ios": "https://dc.lft.to/lastmile_qr_scan"}, "lat": 38.916189, "bike_id": "8d958fe9f838785a9cd8f0d5105da7e6", "is_disabled": 0, "lon": -77.0416075, "is_reserved": 0, "fusion_lat": 0.0, "type": "electric_scooter"}, {"fusion_lon": 0.0, "name": "b1fb4b11f7141aaae48f2df8bccb4ae6", "rental_uris": {"android": "https://dc.lft.to/lastmile_qr_scan", "ios": "https://dc.lft.to/lastmile_qr_scan"}, "lat": 38.90068133333333, "bike_id": "b1fb4b11f7141aaae48f2df8bccb4ae6", "is_disabled": 0, "lon": -77.021692, "is_reserved": 0, "fusion_lat": 0.0, "type": "electric_scooter"}, {"fusion_lon": 0.0, "name": "4b9c2d46ed9828a2ce46bb5604ade67e", "rental_uris": {"android": "https://dc.lft.to/lastmile_qr_scan", "ios": "https://dc.lft.to/lastmile_qr_scan"}, "lat": 38.923732666666666, "bike_id": "4b9c2d46ed9828a2ce46bb5604ade67e", "is_disabled": 0, "lon": -77.0305315, "is_reserved": 0, "fusion_lat": 0.0, "type": "electric_scooter"}, {"fusion_lon": 0.0, "name": "a5f8a561346f5ebb5e19e34f2b44a009", "rental_uris": {"android": "https://dc.lft.to/lastmile_qr_scan", "ios": "https://dc.lft.to/lastmile_qr_scan"}, "lat": 38.905717833333334, "bike_id": "a5f8a561346f5ebb5e19e34f2b44a009", "is_disabled": 0, "lon": -77.02176816666666, "is_reserved": 0, "fusion_lat": 0.0, "type": "electric_scooter"}, {"fusion_lon": 0.0, "name": "2ab736aa4e01fc00c9ecc3832c03722c", "rental_uris": {"android": "https://dc.lft.to/lastmile_qr_scan", "ios": "https://dc.lft.to/lastmile_qr_scan"}, "lat": 38.908643, "bike_id": "2ab736aa4e01fc00c9ecc3832c03722c", "is_disabled": 0, "lon": -77.0322185, "is_reserved": 0, "fusion_lat": 0.0, "type": "electric_scooter"}, {"fusion_lon": 0.0, "name": "beab2309c9acc6b39c64665704ee0896", "rental_uris": {"android": "https://dc.lft.to/lastmile_qr_scan", "ios": "https://dc.lft.to/lastmile_qr_scan"}, "lat": 38.875271, "bike_id": "beab2309c9acc6b39c64665704ee0896", "is_disabled": 0, "lon": -77.01237116666667, "is_reserved": 0, "fusion_lat": 0.0, "type": "electric_scooter"}, {"fusion_lon": 0.0, "name": "6f6c2398fb77ccb81f18845183e7f5cc", "rental_uris": {"android": "https://dc.lft.to/lastmile_qr_scan", "ios": "https://dc.lft.to/lastmile_qr_scan"}, "lat": 38.922616166666664, "bike_id": "6f6c2398fb77ccb81f18845183e7f5cc", "is_disabled": 0, "lon": -76.98648816666666, "is_reserved": 0, "fusion_lat": 0.0, "type": "electric_scooter"}, {"fusion_lon": 0.0, "name": "ea7572196756e64be5984ad79597b5dd", "rental_uris": {"android": "https://dc.lft.to/lastmile_qr_scan", "ios": "https://dc.lft.to/lastmile_qr_scan"}, "lat": 38.97315533333333, "bike_id": "ea7572196756e64be5984ad79597b5dd", "is_disabled": 0, "lon": -77.02704833333334, "is_reserved": 0, "fusion_lat": 0.0, "type": "electric_scooter"}, {"fusion_lon": 0.0, "name": "8d369b1e6353a19ab750cab209ae182e", "rental_uris": {"android": "https://dc.lft.to/lastmile_qr_scan", "ios": "https://dc.lft.to/lastmile_qr_scan"}, "lat": 38.90422083333333, "bike_id": "8d369b1e6353a19ab750cab209ae182e", "is_disabled": 0, "lon": -77.05330816666667, "is_reserved": 0, "fusion_lat": 0.0, "type": "electric_scooter"}, {"fusion_lon": 0.0, "name": "82ff581145da684b1fa85747a200f8ea", "rental_uris": {"android": "https://dc.lft.to/lastmile_qr_scan", "ios": "https://dc.lft.to/lastmile_qr_scan"}, "lat": 38.8812825, "bike_id": "82ff581145da684b1fa85747a200f8ea", "is_disabled": 0, "lon": -77.01670666666666, "is_reserved": 0, "fusion_lat": 0.0, "type": "electric_bike"}, {"fusion_lon": 0.0, "name": "c7d0d69ffc0bb4a9e329c1d56bb8b16e", "rental_uris": {"android": "https://dc.lft.to/lastmile_qr_scan", "ios": "https://dc.lft.to/lastmile_qr_scan"}, "lat": 38.90166883333333, "bike_id": "c7d0d69ffc0bb4a9e329c1d56bb8b16e", "is_disabled": 0, "lon": -76.94979083333334, "is_reserved": 0, "fusion_lat": 0.0, "type": "electric_scooter"}, {"fusion_lon": 0.0, "name": "77fefa23ce41ecbe42c9745ea137ea02", "rental_uris": {"android": "https://dc.lft.to/lastmile_qr_scan", "ios": "https://dc.lft.to/lastmile_qr_scan"}, "lat": 38.92017083333333, "bike_id": "77fefa23ce41ecbe42c9745ea137ea02", "is_disabled": 0, "lon": -77.02187266666667, "is_reserved": 0, "fusion_lat": 0.0, "type": "electric_scooter"}, {"fusion_lon": 0.0, "name": "dc64789171fa86fe36fa69c8def4be75", "rental_uris": {"android": "https://dc.lft.to/lastmile_qr_scan", "ios": "https://dc.lft.to/lastmile_qr_scan"}, "lat": 38.928294333333334, "bike_id": "dc64789171fa86fe36fa69c8def4be75", "is_disabled": 0, "lon": -77.0233285, "is_reserved": 0, "fusion_lat": 0.0, "type": "electric_scooter"}, {"fusion_lon": 0.0, "name": "6b1e0c8d4a71bc85c0011e178a346446", "rental_uris": {"android": "https://dc.lft.to/lastmile_qr_scan", "ios": "https://dc.lft.to/lastmile_qr_scan"}, "lat": 38.8846825, "bike_id": "6b1e0c8d4a71bc85c0011e178a346446", "is_disabled": 0, "lon": -76.92609033333333, "is_reserved": 0, "fusion_lat": 0.0, "type": "electric_scooter"}, {"fusion_lon": 0.0, "name": "c6154280382a797d9929a7518ea910ba", "rental_uris": {"android": "https://dc.lft.to/lastmile_qr_scan", "ios": "https://dc.lft.to/lastmile_qr_scan"}, "lat": 38.892225833333335, "bike_id": "c6154280382a797d9929a7518ea910ba", "is_disabled": 0, "lon": -77.02163516666667, "is_reserved": 0, "fusion_lat": 0.0, "type": "electric_scooter"}, {"fusion_lon": 0.0, "name": "657c22626c4746432ef938f9929940cb", "rental_uris": {"android": "https://dc.lft.to/lastmile_qr_scan", "ios": "https://dc.lft.to/lastmile_qr_scan"}, "lat": 38.931953166666666, "bike_id": "657c22626c4746432ef938f9929940cb", "is_disabled": 0, "lon": -77.0282115, "is_reserved": 0, "fusion_lat": 0.0, "type": "electric_scooter"}, {"fusion_lon": 0.0, "name": "6702a8f49c86b2a1e9e394cf95136366", "rental_uris": {"android": "https://dc.lft.to/lastmile_qr_scan", "ios": "https://dc.lft.to/lastmile_qr_scan"}, "lat": 38.902401, "bike_id": "6702a8f49c86b2a1e9e394cf95136366", "is_disabled": 0, "lon": -77.04645916666666, "is_reserved": 0, "fusion_lat": 0.0, "type": "electric_scooter"}, {"fusion_lon": 0.0, "name": "3aa6ae91ef14d222b8498789972d9aba", "rental_uris": {"android": "https://dc.lft.to/lastmile_qr_scan", "ios": "https://dc.lft.to/lastmile_qr_scan"}, "lat": 38.922135, "bike_id": "3aa6ae91ef14d222b8498789972d9aba", "is_disabled": 0, "lon": -77.02658133333334, "is_reserved": 0, "fusion_lat": 0.0, "type": "electric_scooter"}, {"fusion_lon": 0.0, "name": "b559e9a36dcf39eaed067466b5114281", "rental_uris": {"android": "https://dc.lft.to/lastmile_qr_scan", "ios": "https://dc.lft.to/lastmile_qr_scan"}, "lat": 38.92397666666667, "bike_id": "b559e9a36dcf39eaed067466b5114281", "is_disabled": 0, "lon": -76.9936635, "is_reserved": 0, "fusion_lat": 0.0, "type": "electric_scooter"}, {"fusion_lon": 0.0, "name": "caea7c90bd17dfbc256cbffd8a0ce1bd", "rental_uris": {"android": "https://dc.lft.to/lastmile_qr_scan", "ios": "https://dc.lft.to/lastmile_qr_scan"}, "lat": 38.91813166666667, "bike_id": "caea7c90bd17dfbc256cbffd8a0ce1bd", "is_disabled": 0, "lon": -77.03664166666667, "is_reserved": 0, "fusion_lat": 0.0, "type": "electric_scooter"}, {"fusion_lon": 0.0, "name": "84825c8d58530aaed254d025d9131374", "rental_uris": {"android": "https://dc.lft.to/lastmile_qr_scan", "ios": "https://dc.lft.to/lastmile_qr_scan"}, "lat": 38.91422283333333, "bike_id": "84825c8d58530aaed254d025d9131374", "is_disabled": 0, "lon": -77.018039, "is_reserved": 0, "fusion_lat": 0.0, "type": "electric_scooter"}, {"fusion_lon": 0.0, "name": "e37f4439dbd0f4dcdcc4702957f2c96a", "rental_uris": {"android": "https://dc.lft.to/lastmile_qr_scan", "ios": "https://dc.lft.to/lastmile_qr_scan"}, "lat": 38.921134, "bike_id": "e37f4439dbd0f4dcdcc4702957f2c96a", "is_disabled": 0, "lon": -77.04385766666667, "is_reserved": 0, "fusion_lat": 0.0, "type": "electric_scooter"}, {"fusion_lon": 0.0, "name": "dcbff00d8a281f0fe302392c8981219a", "rental_uris": {"android": "https://dc.lft.to/lastmile_qr_scan", "ios": "https://dc.lft.to/lastmile_qr_scan"}, "lat": 38.916788833333335, "bike_id": "dcbff00d8a281f0fe302392c8981219a", "is_disabled": 0, "lon": -77.02806816666667, "is_reserved": 0, "fusion_lat": 0.0, "type": "electric_scooter"}, {"fusion_lon": 0.0, "name": "4fef0fb4d593ec5ecb0dbfae09b2b853", "rental_uris": {"android": "https://dc.lft.to/lastmile_qr_scan", "ios": "https://dc.lft.to/lastmile_qr_scan"}, "lat": 38.931501833333336, "bike_id": "4fef0fb4d593ec5ecb0dbfae09b2b853", "is_disabled": 0, "lon": -77.05706366666666, "is_reserved": 0, "fusion_lat": 0.0, "type": "electric_scooter"}, {"fusion_lon": 0.0, "name": "bda9c7af71863d35297dc8222d7aa673", "rental_uris": {"android": "https://dc.lft.to/lastmile_qr_scan", "ios": "https://dc.lft.to/lastmile_qr_scan"}, "lat": 38.90500333333333, "bike_id": "bda9c7af71863d35297dc8222d7aa673", "is_disabled": 0, "lon": -77.029471, "is_reserved": 0, "fusion_lat": 0.0, "type": "electric_scooter"}, {"fusion_lon": 0.0, "name": "40dabcef45b200c910832850592611c5", "rental_uris": {"android": "https://dc.lft.to/lastmile_qr_scan", "ios": "https://dc.lft.to/lastmile_qr_scan"}, "lat": 38.930291833333335, "bike_id": "40dabcef45b200c910832850592611c5", "is_disabled": 0, "lon": -77.05564683333333, "is_reserved": 0, "fusion_lat": 0.0, "type": "electric_scooter"}, {"fusion_lon": 0.0, "name": "77f012e7cbf333150fa379819126bd3e", "rental_uris": {"android": "https://dc.lft.to/lastmile_qr_scan", "ios": "https://dc.lft.to/lastmile_qr_scan"}, "lat": 38.92345266666667, "bike_id": "77f012e7cbf333150fa379819126bd3e", "is_disabled": 0, "lon": -77.03419233333334, "is_reserved": 0, "fusion_lat": 0.0, "type": "electric_scooter"}, {"fusion_lon": 0.0, "name": "89e3d2d6b6898f92c5b0076dbd75651b", "rental_uris": {"android": "https://dc.lft.to/lastmile_qr_scan", "ios": "https://dc.lft.to/lastmile_qr_scan"}, "lat": 38.92002266666667, "bike_id": "89e3d2d6b6898f92c5b0076dbd75651b", "is_disabled": 0, "lon": -76.98507616666667, "is_reserved": 0, "fusion_lat": 0.0, "type": "electric_scooter"}, {"fusion_lon": 0.0, "name": "4235a2626d33d1ab1097bce313f099c5", "rental_uris": {"android": "https://dc.lft.to/lastmile_qr_scan", "ios": "https://dc.lft.to/lastmile_qr_scan"}, "lat": 38.80656033333333, "bike_id": "4235a2626d33d1ab1097bce313f099c5", "is_disabled": 0, "lon": -77.08760533333333, "is_reserved": 0, "fusion_lat": 0.0, "type": "electric_bike"}, {"fusion_lon": 0.0, "name": "6b63bb67e678a5f8c3bde12f72a33f7c", "rental_uris": {"android": "https://dc.lft.to/lastmile_qr_scan", "ios": "https://dc.lft.to/lastmile_qr_scan"}, "lat": 38.907573666666664, "bike_id": "6b63bb67e678a5f8c3bde12f72a33f7c", "is_disabled": 0, "lon": -77.04536583333334, "is_reserved": 0, "fusion_lat": 0.0, "type": "electric_scooter"}, {"fusion_lon": 0.0, "name": "9fc37faaff56ff29e420ccca39f45d07", "rental_uris": {"android": "https://dc.lft.to/lastmile_qr_scan", "ios": "https://dc.lft.to/lastmile_qr_scan"}, "lat": 38.91329833333333, "bike_id": "9fc37faaff56ff29e420ccca39f45d07", "is_disabled": 0, "lon": -77.03185533333334, "is_reserved": 0, "fusion_lat": 0.0, "type": "electric_scooter"}, {"fusion_lon": 0.0, "name": "9cbe2f0f27c0de74a4a5584f7194eb94", "rental_uris": {"android": "https://dc.lft.to/lastmile_qr_scan", "ios": "https://dc.lft.to/lastmile_qr_scan"}, "lat": 38.881965, "bike_id": "9cbe2f0f27c0de74a4a5584f7194eb94", "is_disabled": 0, "lon": -77.02851316666667, "is_reserved": 0, "fusion_lat": 0.0, "type": "electric_scooter"}, {"fusion_lon": 0.0, "name": "2f1f0aed0167966f256dabddcbd5b72f", "rental_uris": {"android": "https://dc.lft.to/lastmile_qr_scan", "ios": "https://dc.lft.to/lastmile_qr_scan"}, "lat": 38.933291833333335, "bike_id": "2f1f0aed0167966f256dabddcbd5b72f", "is_disabled": 0, "lon": -77.02918466666667, "is_reserved": 0, "fusion_lat": 0.0, "type": "electric_scooter"}, {"fusion_lon": 0.0, "name": "127afee68026fa8f9303524e582178e0", "rental_uris": {"android": "https://dc.lft.to/lastmile_qr_scan", "ios": "https://dc.lft.to/lastmile_qr_scan"}, "lat": 38.877502666666665, "bike_id": "127afee68026fa8f9303524e582178e0", "is_disabled": 0, "lon": -77.00596416666667, "is_reserved": 0, "fusion_lat": 0.0, "type": "electric_scooter"}, {"fusion_lon": 0.0, "name": "23e0658622eff1acf6e5d60579eb2053", "rental_uris": {"android": "https://dc.lft.to/lastmile_qr_scan", "ios": "https://dc.lft.to/lastmile_qr_scan"}, "lat": 38.93893466666667, "bike_id": "23e0658622eff1acf6e5d60579eb2053", "is_disabled": 0, "lon": -77.01765566666667, "is_reserved": 0, "fusion_lat": 0.0, "type": "electric_scooter"}, {"fusion_lon": 0.0, "name": "63cc2fb5e4545f21e1a724e8a3acc368", "rental_uris": {"android": "https://dc.lft.to/lastmile_qr_scan", "ios": "https://dc.lft.to/lastmile_qr_scan"}, "lat": 38.90463733333333, "bike_id": "63cc2fb5e4545f21e1a724e8a3acc368", "is_disabled": 0, "lon": -77.04856766666667, "is_reserved": 0, "fusion_lat": 0.0, "type": "electric_scooter"}, {"fusion_lon": 0.0, "name": "8d16a0c154b96f09fa20c7d0943707b1", "rental_uris": {"android": "https://dc.lft.to/lastmile_qr_scan", "ios": "https://dc.lft.to/lastmile_qr_scan"}, "lat": 38.9068065, "bike_id": "8d16a0c154b96f09fa20c7d0943707b1", "is_disabled": 0, "lon": -77.02697316666666, "is_reserved": 0, "fusion_lat": 0.0, "type": "electric_scooter"}, {"fusion_lon": 0.0, "name": "45ae03bde06efb8612b314949033eeff", "rental_uris": {"android": "https://dc.lft.to/lastmile_qr_scan", "ios": "https://dc.lft.to/lastmile_qr_scan"}, "lat": 38.916693333333335, "bike_id": "45ae03bde06efb8612b314949033eeff", "is_disabled": 0, "lon": -77.0228195, "is_reserved": 0, "fusion_lat": 0.0, "type": "electric_scooter"}, {"fusion_lon": 0.0, "name": "da38720487a4564744e35c23d4ec0db3", "rental_uris": {"android": "https://dc.lft.to/lastmile_qr_scan", "ios": "https://dc.lft.to/lastmile_qr_scan"}, "lat": 38.9431765, "bike_id": "da38720487a4564744e35c23d4ec0db3", "is_disabled": 0, "lon": -76.99025366666666, "is_reserved": 0, "fusion_lat": 0.0, "type": "electric_bike"}, {"fusion_lon": 0.0, "name": "1ebbba2e83b01c56d3908fb5d38190dc", "rental_uris": {"android": "https://dc.lft.to/lastmile_qr_scan", "ios": "https://dc.lft.to/lastmile_qr_scan"}, "lat": 38.9271435, "bike_id": "1ebbba2e83b01c56d3908fb5d38190dc", "is_disabled": 0, "lon": -77.0208715, "is_reserved": 0, "fusion_lat": 0.0, "type": "electric_scooter"}, {"fusion_lon": 0.0, "name": "3dbe5fbdd49b36e71f3e9a1fbfa2242a", "rental_uris": {"android": "https://dc.lft.to/lastmile_qr_scan", "ios": "https://dc.lft.to/lastmile_qr_scan"}, "lat": 38.96024716666667, "bike_id": "3dbe5fbdd49b36e71f3e9a1fbfa2242a", "is_disabled": 0, "lon": -77.02423916666666, "is_reserved": 0, "fusion_lat": 0.0, "type": "electric_scooter"}, {"fusion_lon": 0.0, "name": "22c53df48b111420557b55c93540c1ff", "rental_uris": {"android": "https://dc.lft.to/lastmile_qr_scan", "ios": "https://dc.lft.to/lastmile_qr_scan"}, "lat": 38.85582083333333, "bike_id": "22c53df48b111420557b55c93540c1ff", "is_disabled": 0, "lon": -76.97416983333333, "is_reserved": 0, "fusion_lat": 0.0, "type": "electric_bike"}, {"fusion_lon": 0.0, "name": "8dd900dfc51abb00f3a131079aa91e65", "rental_uris": {"android": "https://dc.lft.to/lastmile_qr_scan", "ios": "https://dc.lft.to/lastmile_qr_scan"}, "lat": 38.888211, "bike_id": "8dd900dfc51abb00f3a131079aa91e65", "is_disabled": 0, "lon": -76.97711216666667, "is_reserved": 0, "fusion_lat": 0.0, "type": "electric_scooter"}, {"fusion_lon": 0.0, "name": "a3b78afa13c8420f1500565a5ecf80bf", "rental_uris": {"android": "https://dc.lft.to/lastmile_qr_scan", "ios": "https://dc.lft.to/lastmile_qr_scan"}, "lat": 38.912139833333335, "bike_id": "a3b78afa13c8420f1500565a5ecf80bf", "is_disabled": 0, "lon": -77.03190766666667, "is_reserved": 0, "fusion_lat": 0.0, "type": "electric_scooter"}, {"fusion_lon": 0.0, "name": "6ae454740b8bb55cb559bf3367c4ae9e", "rental_uris": {"android": "https://dc.lft.to/lastmile_qr_scan", "ios": "https://dc.lft.to/lastmile_qr_scan"}, "lat": 38.8851015, "bike_id": "6ae454740b8bb55cb559bf3367c4ae9e", "is_disabled": 0, "lon": -77.0111575, "is_reserved": 0, "fusion_lat": 0.0, "type": "electric_scooter"}, {"fusion_lon": 0.0, "name": "7e0af50a58f005aba704c857f3412f1d", "rental_uris": {"android": "https://dc.lft.to/lastmile_qr_scan", "ios": "https://dc.lft.to/lastmile_qr_scan"}, "lat": 38.900248500000004, "bike_id": "7e0af50a58f005aba704c857f3412f1d", "is_disabled": 0, "lon": -77.046804, "is_reserved": 0, "fusion_lat": 0.0, "type": "electric_scooter"}, {"fusion_lon": 0.0, "name": "44adb828014879b7db3d7ebf054b2a63", "rental_uris": {"android": "https://dc.lft.to/lastmile_qr_scan", "ios": "https://dc.lft.to/lastmile_qr_scan"}, "lat": 38.92364766666667, "bike_id": "44adb828014879b7db3d7ebf054b2a63", "is_disabled": 0, "lon": -77.05051916666666, "is_reserved": 0, "fusion_lat": 0.0, "type": "electric_scooter"}, {"fusion_lon": 0.0, "name": "676671a85851d95ac07aca8b0d2bf8ef", "rental_uris": {"android": "https://dc.lft.to/lastmile_qr_scan", "ios": "https://dc.lft.to/lastmile_qr_scan"}, "lat": 38.8747465, "bike_id": "676671a85851d95ac07aca8b0d2bf8ef", "is_disabled": 0, "lon": -77.009009, "is_reserved": 0, "fusion_lat": 0.0, "type": "electric_bike"}, {"fusion_lon": 0.0, "name": "b931b2ceca43c25decec736bb24ccbe7", "rental_uris": {"android": "https://dc.lft.to/lastmile_qr_scan", "ios": "https://dc.lft.to/lastmile_qr_scan"}, "lat": 38.88766666666667, "bike_id": "b931b2ceca43c25decec736bb24ccbe7", "is_disabled": 0, "lon": -76.997632, "is_reserved": 0, "fusion_lat": 0.0, "type": "electric_scooter"}, {"fusion_lon": 0.0, "name": "b2309d83077d85a68273ab03f7e681d8", "rental_uris": {"android": "https://dc.lft.to/lastmile_qr_scan", "ios": "https://dc.lft.to/lastmile_qr_scan"}, "lat": 38.8923335, "bike_id": "b2309d83077d85a68273ab03f7e681d8", "is_disabled": 0, "lon": -77.05000066666666, "is_reserved": 0, "fusion_lat": 0.0, "type": "electric_scooter"}, {"fusion_lon": 0.0, "name": "63891b540a955c8db1d8c3a58a0ab3a6", "rental_uris": {"android": "https://dc.lft.to/lastmile_qr_scan", "ios": "https://dc.lft.to/lastmile_qr_scan"}, "lat": 38.912622666666664, "bike_id": "63891b540a955c8db1d8c3a58a0ab3a6", "is_disabled": 0, "lon": -77.032771, "is_reserved": 0, "fusion_lat": 0.0, "type": "electric_scooter"}, {"fusion_lon": 0.0, "name": "c8079d5de9f3804ac29d3d7ae0cf2e56", "rental_uris": {"android": "https://dc.lft.to/lastmile_qr_scan", "ios": "https://dc.lft.to/lastmile_qr_scan"}, "lat": 38.922176666666665, "bike_id": "c8079d5de9f3804ac29d3d7ae0cf2e56", "is_disabled": 0, "lon": -77.02420833333333, "is_reserved": 0, "fusion_lat": 0.0, "type": "electric_scooter"}, {"fusion_lon": 0.0, "name": "8eb8a3e72d90d5d2848143b844d01b3a", "rental_uris": {"android": "https://dc.lft.to/lastmile_qr_scan", "ios": "https://dc.lft.to/lastmile_qr_scan"}, "lat": 38.895945, "bike_id": "8eb8a3e72d90d5d2848143b844d01b3a", "is_disabled": 0, "lon": -77.048097, "is_reserved": 0, "fusion_lat": 0.0, "type": "electric_scooter"}, {"fusion_lon": 0.0, "name": "75832c2c14356d4a0e6be82f021154b4", "rental_uris": {"android": "https://dc.lft.to/lastmile_qr_scan", "ios": "https://dc.lft.to/lastmile_qr_scan"}, "lat": 38.878804833333334, "bike_id": "75832c2c14356d4a0e6be82f021154b4", "is_disabled": 0, "lon": -77.00583083333333, "is_reserved": 0, "fusion_lat": 0.0, "type": "electric_scooter"}, {"fusion_lon": 0.0, "name": "a5fc73f163ae95fcf2fccd38d7ee5f13", "rental_uris": {"android": "https://dc.lft.to/lastmile_qr_scan", "ios": "https://dc.lft.to/lastmile_qr_scan"}, "lat": 38.90232683333333, "bike_id": "a5fc73f163ae95fcf2fccd38d7ee5f13", "is_disabled": 0, "lon": -77.05349983333333, "is_reserved": 0, "fusion_lat": 0.0, "type": "electric_scooter"}, {"fusion_lon": 0.0, "name": "b119a4c24bc1ae3907219d7debe5a0f3", "rental_uris": {"android": "https://dc.lft.to/lastmile_qr_scan", "ios": "https://dc.lft.to/lastmile_qr_scan"}, "lat": 38.91790866666667, "bike_id": "b119a4c24bc1ae3907219d7debe5a0f3", "is_disabled": 0, "lon": -77.040231, "is_reserved": 0, "fusion_lat": 0.0, "type": "electric_scooter"}, {"fusion_lon": 0.0, "name": "6888d50bb2cb878567d8b732b19486d2", "rental_uris": {"android": "https://dc.lft.to/lastmile_qr_scan", "ios": "https://dc.lft.to/lastmile_qr_scan"}, "lat": 38.9371755, "bike_id": "6888d50bb2cb878567d8b732b19486d2", "is_disabled": 0, "lon": -77.03289716666667, "is_reserved": 0, "fusion_lat": 0.0, "type": "electric_scooter"}, {"fusion_lon": 0.0, "name": "6de4d35a68622ede94dd7eab02780cf9", "rental_uris": {"android": "https://dc.lft.to/lastmile_qr_scan", "ios": "https://dc.lft.to/lastmile_qr_scan"}, "lat": 38.909522333333335, "bike_id": "6de4d35a68622ede94dd7eab02780cf9", "is_disabled": 0, "lon": -77.038519, "is_reserved": 0, "fusion_lat": 0.0, "type": "electric_scooter"}, {"fusion_lon": 0.0, "name": "1376a9b6122eac676dbc36a84211a536", "rental_uris": {"android": "https://dc.lft.to/lastmile_qr_scan", "ios": "https://dc.lft.to/lastmile_qr_scan"}, "lat": 38.927235, "bike_id": "1376a9b6122eac676dbc36a84211a536", "is_disabled": 0, "lon": -77.03556116666667, "is_reserved": 0, "fusion_lat": 0.0, "type": "electric_scooter"}, {"fusion_lon": 0.0, "name": "48881ac0c03544ac19ebc1d151357b7d", "rental_uris": {"android": "https://dc.lft.to/lastmile_qr_scan", "ios": "https://dc.lft.to/lastmile_qr_scan"}, "lat": 38.918234, "bike_id": "48881ac0c03544ac19ebc1d151357b7d", "is_disabled": 0, "lon": -77.04173283333333, "is_reserved": 0, "fusion_lat": 0.0, "type": "electric_scooter"}, {"fusion_lon": 0.0, "name": "8e5af3cade84c768c6c1a1be76c458dc", "rental_uris": {"android": "https://dc.lft.to/lastmile_qr_scan", "ios": "https://dc.lft.to/lastmile_qr_scan"}, "lat": 38.94496866666667, "bike_id": "8e5af3cade84c768c6c1a1be76c458dc", "is_disabled": 0, "lon": -77.063957, "is_reserved": 0, "fusion_lat": 0.0, "type": "electric_scooter"}, {"fusion_lon": 0.0, "name": "0c961e838f6cc5dc8b41b38340d757a4", "rental_uris": {"android": "https://dc.lft.to/lastmile_qr_scan", "ios": "https://dc.lft.to/lastmile_qr_scan"}, "lat": 38.9416815, "bike_id": "0c961e838f6cc5dc8b41b38340d757a4", "is_disabled": 0, "lon": -77.02558833333333, "is_reserved": 0, "fusion_lat": 0.0, "type": "electric_scooter"}, {"fusion_lon": 0.0, "name": "8b66dea55aed79d97d34cad1db93dde3", "rental_uris": {"android": "https://dc.lft.to/lastmile_qr_scan", "ios": "https://dc.lft.to/lastmile_qr_scan"}, "lat": 38.898414333333335, "bike_id": "8b66dea55aed79d97d34cad1db93dde3", "is_disabled": 0, "lon": -77.04364433333333, "is_reserved": 0, "fusion_lat": 0.0, "type": "electric_scooter"}, {"fusion_lon": 0.0, "name": "65fa6f9b085e607c36aa37a916cb07f5", "rental_uris": {"android": "https://dc.lft.to/lastmile_qr_scan", "ios": "https://dc.lft.to/lastmile_qr_scan"}, "lat": 38.909296, "bike_id": "65fa6f9b085e607c36aa37a916cb07f5", "is_disabled": 0, "lon": -77.03841333333334, "is_reserved": 0, "fusion_lat": 0.0, "type": "electric_scooter"}, {"fusion_lon": 0.0, "name": "80a0ccbbc343e57e1f5e128d4d32acd8", "rental_uris": {"android": "https://dc.lft.to/lastmile_qr_scan", "ios": "https://dc.lft.to/lastmile_qr_scan"}, "lat": 38.9248075, "bike_id": "80a0ccbbc343e57e1f5e128d4d32acd8", "is_disabled": 0, "lon": -77.02247733333333, "is_reserved": 0, "fusion_lat": 0.0, "type": "electric_scooter"}, {"fusion_lon": 0.0, "name": "b9223bc2228ab7ee01d78a4b43eb2c13", "rental_uris": {"android": "https://dc.lft.to/lastmile_qr_scan", "ios": "https://dc.lft.to/lastmile_qr_scan"}, "lat": 38.888744833333334, "bike_id": "b9223bc2228ab7ee01d78a4b43eb2c13", "is_disabled": 0, "lon": -76.99034966666666, "is_reserved": 0, "fusion_lat": 0.0, "type": "electric_scooter"}, {"fusion_lon": 0.0, "name": "8f0359ded74cb4002a42d2cb2db154b8", "rental_uris": {"android": "https://dc.lft.to/lastmile_qr_scan", "ios": "https://dc.lft.to/lastmile_qr_scan"}, "lat": 38.90565433333333, "bike_id": "8f0359ded74cb4002a42d2cb2db154b8", "is_disabled": 0, "lon": -77.0060675, "is_reserved": 0, "fusion_lat": 0.0, "type": "electric_scooter"}, {"fusion_lon": 0.0, "name": "b63a689138f33325d9e9d2bea4c78991", "rental_uris": {"android": "https://dc.lft.to/lastmile_qr_scan", "ios": "https://dc.lft.to/lastmile_qr_scan"}, "lat": 38.92069683333333, "bike_id": "b63a689138f33325d9e9d2bea4c78991", "is_disabled": 0, "lon": -77.03450133333334, "is_reserved": 0, "fusion_lat": 0.0, "type": "electric_scooter"}, {"fusion_lon": 0.0, "name": "d8d0553795ec9fcf4144f20bed852c33", "rental_uris": {"android": "https://dc.lft.to/lastmile_qr_scan", "ios": "https://dc.lft.to/lastmile_qr_scan"}, "lat": 38.887324166666666, "bike_id": "d8d0553795ec9fcf4144f20bed852c33", "is_disabled": 0, "lon": -77.013468, "is_reserved": 0, "fusion_lat": 0.0, "type": "electric_scooter"}, {"fusion_lon": 0.0, "name": "38755816c3cafb561314a8b6e348c1d9", "rental_uris": {"android": "https://dc.lft.to/lastmile_qr_scan", "ios": "https://dc.lft.to/lastmile_qr_scan"}, "lat": 38.900529666666664, "bike_id": "38755816c3cafb561314a8b6e348c1d9", "is_disabled": 0, "lon": -77.04904116666667, "is_reserved": 0, "fusion_lat": 0.0, "type": "electric_scooter"}, {"fusion_lon": 0.0, "name": "0aa74ff7f0537e727b1fa35ebb9fcb16", "rental_uris": {"android": "https://dc.lft.to/lastmile_qr_scan", "ios": "https://dc.lft.to/lastmile_qr_scan"}, "lat": 38.894611, "bike_id": "0aa74ff7f0537e727b1fa35ebb9fcb16", "is_disabled": 0, "lon": -77.19134233333334, "is_reserved": 0, "fusion_lat": 0.0, "type": "electric_bike"}, {"fusion_lon": 0.0, "name": "ebaab38bcf66dfd456fa333d9cebb8cf", "rental_uris": {"android": "https://dc.lft.to/lastmile_qr_scan", "ios": "https://dc.lft.to/lastmile_qr_scan"}, "lat": 38.8928575, "bike_id": "ebaab38bcf66dfd456fa333d9cebb8cf", "is_disabled": 0, "lon": -77.05043866666666, "is_reserved": 0, "fusion_lat": 0.0, "type": "electric_bike"}, {"fusion_lon": 0.0, "name": "b15713b7296228bbbacbfca72e63339e", "rental_uris": {"android": "https://dc.lft.to/lastmile_qr_scan", "ios": "https://dc.lft.to/lastmile_qr_scan"}, "lat": 38.90141283333333, "bike_id": "b15713b7296228bbbacbfca72e63339e", "is_disabled": 0, "lon": -76.98970616666666, "is_reserved": 0, "fusion_lat": 0.0, "type": "electric_scooter"}, {"fusion_lon": 0.0, "name": "612d0d6997193f6b82028ec5a51f889c", "rental_uris": {"android": "https://dc.lft.to/lastmile_qr_scan", "ios": "https://dc.lft.to/lastmile_qr_scan"}, "lat": 38.908294, "bike_id": "612d0d6997193f6b82028ec5a51f889c", "is_disabled": 0, "lon": -77.04348183333333, "is_reserved": 0, "fusion_lat": 0.0, "type": "electric_scooter"}, {"fusion_lon": 0.0, "name": "28671ceea99a1b98d67c651c56b91cb2", "rental_uris": {"android": "https://dc.lft.to/lastmile_qr_scan", "ios": "https://dc.lft.to/lastmile_qr_scan"}, "lat": 38.916273833333335, "bike_id": "28671ceea99a1b98d67c651c56b91cb2", "is_disabled": 0, "lon": -77.03498516666667, "is_reserved": 0, "fusion_lat": 0.0, "type": "electric_scooter"}, {"fusion_lon": 0.0, "name": "71af3fa790e9743d9e8c7bfd720cec25", "rental_uris": {"android": "https://dc.lft.to/lastmile_qr_scan", "ios": "https://dc.lft.to/lastmile_qr_scan"}, "lat": 38.8899135, "bike_id": "71af3fa790e9743d9e8c7bfd720cec25", "is_disabled": 0, "lon": -76.92112183333333, "is_reserved": 0, "fusion_lat": 0.0, "type": "electric_scooter"}, {"fusion_lon": 0.0, "name": "d243570588952264478b3951dfab559b", "rental_uris": {"android": "https://dc.lft.to/lastmile_qr_scan", "ios": "https://dc.lft.to/lastmile_qr_scan"}, "lat": 38.928121, "bike_id": "d243570588952264478b3951dfab559b", "is_disabled": 0, "lon": -77.01950816666667, "is_reserved": 0, "fusion_lat": 0.0, "type": "electric_scooter"}, {"fusion_lon": 0.0, "name": "257967539bd4f61677272b25d3b9aed9", "rental_uris": {"android": "https://dc.lft.to/lastmile_qr_scan", "ios": "https://dc.lft.to/lastmile_qr_scan"}, "lat": 38.87845633333333, "bike_id": "257967539bd4f61677272b25d3b9aed9", "is_disabled": 0, "lon": -77.01973433333333, "is_reserved": 0, "fusion_lat": 0.0, "type": "electric_scooter"}, {"fusion_lon": 0.0, "name": "e5d6a640629c00c90ab432b4e095a73c", "rental_uris": {"android": "https://dc.lft.to/lastmile_qr_scan", "ios": "https://dc.lft.to/lastmile_qr_scan"}, "lat": 38.898892333333336, "bike_id": "e5d6a640629c00c90ab432b4e095a73c", "is_disabled": 0, "lon": -76.93179033333334, "is_reserved": 0, "fusion_lat": 0.0, "type": "electric_scooter"}, {"fusion_lon": 0.0, "name": "5e8f9b5e3d5876c3dffee92c2423e58a", "rental_uris": {"android": "https://dc.lft.to/lastmile_qr_scan", "ios": "https://dc.lft.to/lastmile_qr_scan"}, "lat": 38.927543166666666, "bike_id": "5e8f9b5e3d5876c3dffee92c2423e58a", "is_disabled": 0, "lon": -77.029657, "is_reserved": 0, "fusion_lat": 0.0, "type": "electric_scooter"}, {"fusion_lon": 0.0, "name": "164a3f0e11db9e004555b7d2bd197fe6", "rental_uris": {"android": "https://dc.lft.to/lastmile_qr_scan", "ios": "https://dc.lft.to/lastmile_qr_scan"}, "lat": 38.9097995, "bike_id": "164a3f0e11db9e004555b7d2bd197fe6", "is_disabled": 0, "lon": -77.031926, "is_reserved": 0, "fusion_lat": 0.0, "type": "electric_scooter"}, {"fusion_lon": 0.0, "name": "0aea1b1014808d9ffcb6446c8be391f0", "rental_uris": {"android": "https://dc.lft.to/lastmile_qr_scan", "ios": "https://dc.lft.to/lastmile_qr_scan"}, "lat": 38.9057065, "bike_id": "0aea1b1014808d9ffcb6446c8be391f0", "is_disabled": 0, "lon": -77.03085183333333, "is_reserved": 0, "fusion_lat": 0.0, "type": "electric_scooter"}, {"fusion_lon": 0.0, "name": "0c0a3a81d39cdbe4c32eb6a0c7c46a5f", "rental_uris": {"android": "https://dc.lft.to/lastmile_qr_scan", "ios": "https://dc.lft.to/lastmile_qr_scan"}, "lat": 38.9191675, "bike_id": "0c0a3a81d39cdbe4c32eb6a0c7c46a5f", "is_disabled": 0, "lon": -77.04465933333333, "is_reserved": 0, "fusion_lat": 0.0, "type": "electric_scooter"}, {"fusion_lon": 0.0, "name": "9ce587622474d4de80fadffe8a25c70e", "rental_uris": {"android": "https://dc.lft.to/lastmile_qr_scan", "ios": "https://dc.lft.to/lastmile_qr_scan"}, "lat": 38.926388333333335, "bike_id": "9ce587622474d4de80fadffe8a25c70e", "is_disabled": 0, "lon": -77.037169, "is_reserved": 0, "fusion_lat": 0.0, "type": "electric_scooter"}, {"fusion_lon": 0.0, "name": "4026e35339172f1cb45579b4d524e48c", "rental_uris": {"android": "https://dc.lft.to/lastmile_qr_scan", "ios": "https://dc.lft.to/lastmile_qr_scan"}, "lat": 38.91105, "bike_id": "4026e35339172f1cb45579b4d524e48c", "is_disabled": 0, "lon": -77.01160233333333, "is_reserved": 0, "fusion_lat": 0.0, "type": "electric_scooter"}, {"fusion_lon": 0.0, "name": "eee1836dca4a51b006c6bbfa0b1e972a", "rental_uris": {"android": "https://dc.lft.to/lastmile_qr_scan", "ios": "https://dc.lft.to/lastmile_qr_scan"}, "lat": 38.83812566666667, "bike_id": "eee1836dca4a51b006c6bbfa0b1e972a", "is_disabled": 0, "lon": -77.09525716666667, "is_reserved": 0, "fusion_lat": 0.0, "type": "electric_bike"}, {"fusion_lon": 0.0, "name": "5863dfd081fb7213e45e100a7ccf2bf7", "rental_uris": {"android": "https://dc.lft.to/lastmile_qr_scan", "ios": "https://dc.lft.to/lastmile_qr_scan"}, "lat": 38.89545316666667, "bike_id": "5863dfd081fb7213e45e100a7ccf2bf7", "is_disabled": 0, "lon": -76.98339266666666, "is_reserved": 0, "fusion_lat": 0.0, "type": "electric_scooter"}, {"fusion_lon": 0.0, "name": "460c629f3471897d89586bc5f832afbe", "rental_uris": {"android": "https://dc.lft.to/lastmile_qr_scan", "ios": "https://dc.lft.to/lastmile_qr_scan"}, "lat": 38.92458716666667, "bike_id": "460c629f3471897d89586bc5f832afbe", "is_disabled": 0, "lon": -77.03538866666666, "is_reserved": 0, "fusion_lat": 0.0, "type": "electric_scooter"}, {"fusion_lon": 0.0, "name": "259231ffc1ee95e22058c0228e06c2d0", "rental_uris": {"android": "https://dc.lft.to/lastmile_qr_scan", "ios": "https://dc.lft.to/lastmile_qr_scan"}, "lat": 38.92489116666667, "bike_id": "259231ffc1ee95e22058c0228e06c2d0", "is_disabled": 0, "lon": -77.03929, "is_reserved": 0, "fusion_lat": 0.0, "type": "electric_scooter"}, {"fusion_lon": 0.0, "name": "c68d5a47cfcd4a304aaf5040d08443ca", "rental_uris": {"android": "https://dc.lft.to/lastmile_qr_scan", "ios": "https://dc.lft.to/lastmile_qr_scan"}, "lat": 38.8968825, "bike_id": "c68d5a47cfcd4a304aaf5040d08443ca", "is_disabled": 0, "lon": -76.927936, "is_reserved": 0, "fusion_lat": 0.0, "type": "electric_scooter"}, {"fusion_lon": 0.0, "name": "9b8488b5103a09efba033d824ba749d0", "rental_uris": {"android": "https://dc.lft.to/lastmile_qr_scan", "ios": "https://dc.lft.to/lastmile_qr_scan"}, "lat": 38.95347816666666, "bike_id": "9b8488b5103a09efba033d824ba749d0", "is_disabled": 0, "lon": -77.00764866666667, "is_reserved": 0, "fusion_lat": 0.0, "type": "electric_scooter"}, {"fusion_lon": 0.0, "name": "cbb0b4356dbf8df1fa3d46bfc3c75415", "rental_uris": {"android": "https://dc.lft.to/lastmile_qr_scan", "ios": "https://dc.lft.to/lastmile_qr_scan"}, "lat": 38.913309166666664, "bike_id": "cbb0b4356dbf8df1fa3d46bfc3c75415", "is_disabled": 0, "lon": -77.03985033333333, "is_reserved": 0, "fusion_lat": 0.0, "type": "electric_scooter"}, {"fusion_lon": 0.0, "name": "c113982c248a1699cc7c3bc1dc67fad4", "rental_uris": {"android": "https://dc.lft.to/lastmile_qr_scan", "ios": "https://dc.lft.to/lastmile_qr_scan"}, "lat": 38.91815966666667, "bike_id": "c113982c248a1699cc7c3bc1dc67fad4", "is_disabled": 0, "lon": -77.024779, "is_reserved": 0, "fusion_lat": 0.0, "type": "electric_scooter"}, {"fusion_lon": 0.0, "name": "77a5c301644944b91d61559271ed85a6", "rental_uris": {"android": "https://dc.lft.to/lastmile_qr_scan", "ios": "https://dc.lft.to/lastmile_qr_scan"}, "lat": 38.89230033333333, "bike_id": "77a5c301644944b91d61559271ed85a6", "is_disabled": 0, "lon": -77.023835, "is_reserved": 0, "fusion_lat": 0.0, "type": "electric_scooter"}, {"fusion_lon": 0.0, "name": "fa98cfde6e32cf835c0f5f4699fc8b32", "rental_uris": {"android": "https://dc.lft.to/lastmile_qr_scan", "ios": "https://dc.lft.to/lastmile_qr_scan"}, "lat": 38.89959533333333, "bike_id": "fa98cfde6e32cf835c0f5f4699fc8b32", "is_disabled": 0, "lon": -77.02693783333333, "is_reserved": 0, "fusion_lat": 0.0, "type": "electric_scooter"}, {"fusion_lon": 0.0, "name": "cf035ade6b466d083620bb1bf810e1c0", "rental_uris": {"android": "https://dc.lft.to/lastmile_qr_scan", "ios": "https://dc.lft.to/lastmile_qr_scan"}, "lat": 38.95656016666667, "bike_id": "cf035ade6b466d083620bb1bf810e1c0", "is_disabled": 0, "lon": -77.01280416666667, "is_reserved": 0, "fusion_lat": 0.0, "type": "electric_scooter"}, {"fusion_lon": 0.0, "name": "084d21e127b4a594c5f844a1b1266321", "rental_uris": {"android": "https://dc.lft.to/lastmile_qr_scan", "ios": "https://dc.lft.to/lastmile_qr_scan"}, "lat": 38.86246716666667, "bike_id": "084d21e127b4a594c5f844a1b1266321", "is_disabled": 0, "lon": -76.99499916666667, "is_reserved": 0, "fusion_lat": 0.0, "type": "electric_scooter"}, {"fusion_lon": 0.0, "name": "a15cbadcfff9b586401b2fd3bb3caeb9", "rental_uris": {"android": "https://dc.lft.to/lastmile_qr_scan", "ios": "https://dc.lft.to/lastmile_qr_scan"}, "lat": 38.886757, "bike_id": "a15cbadcfff9b586401b2fd3bb3caeb9", "is_disabled": 0, "lon": -77.0317405, "is_reserved": 0, "fusion_lat": 0.0, "type": "electric_scooter"}, {"fusion_lon": 0.0, "name": "219aef1936c7ab0955fd35914f3e57a7", "rental_uris": {"android": "https://dc.lft.to/lastmile_qr_scan", "ios": "https://dc.lft.to/lastmile_qr_scan"}, "lat": 38.957198, "bike_id": "219aef1936c7ab0955fd35914f3e57a7", "is_disabled": 0, "lon": -77.00230983333333, "is_reserved": 0, "fusion_lat": 0.0, "type": "electric_scooter"}, {"fusion_lon": 0.0, "name": "bd54b5fde1efafa5ee543252553b2653", "rental_uris": {"android": "https://dc.lft.to/lastmile_qr_scan", "ios": "https://dc.lft.to/lastmile_qr_scan"}, "lat": 38.947274, "bike_id": "bd54b5fde1efafa5ee543252553b2653", "is_disabled": 0, "lon": -77.03302766666667, "is_reserved": 0, "fusion_lat": 0.0, "type": "electric_scooter"}, {"fusion_lon": 0.0, "name": "7c89b7a655a874c9da6da64d589b830c", "rental_uris": {"android": "https://dc.lft.to/lastmile_qr_scan", "ios": "https://dc.lft.to/lastmile_qr_scan"}, "lat": 38.9040435, "bike_id": "7c89b7a655a874c9da6da64d589b830c", "is_disabled": 0, "lon": -76.97350816666666, "is_reserved": 0, "fusion_lat": 0.0, "type": "electric_scooter"}, {"fusion_lon": 0.0, "name": "4fc33b3be2e668a5a3b051a9c0bca13f", "rental_uris": {"android": "https://dc.lft.to/lastmile_qr_scan", "ios": "https://dc.lft.to/lastmile_qr_scan"}, "lat": 38.89627933333333, "bike_id": "4fc33b3be2e668a5a3b051a9c0bca13f", "is_disabled": 0, "lon": -76.94782516666666, "is_reserved": 0, "fusion_lat": 0.0, "type": "electric_scooter"}, {"fusion_lon": 0.0, "name": "7c423695ed896b8b55fa2a0bb8611df7", "rental_uris": {"android": "https://dc.lft.to/lastmile_qr_scan", "ios": "https://dc.lft.to/lastmile_qr_scan"}, "lat": 38.9570955, "bike_id": "7c423695ed896b8b55fa2a0bb8611df7", "is_disabled": 0, "lon": -77.0320525, "is_reserved": 0, "fusion_lat": 0.0, "type": "electric_scooter"}, {"fusion_lon": 0.0, "name": "02f7e5c59bd160a1a44d2a76f355a9ff", "rental_uris": {"android": "https://dc.lft.to/lastmile_qr_scan", "ios": "https://dc.lft.to/lastmile_qr_scan"}, "lat": 38.90026833333334, "bike_id": "02f7e5c59bd160a1a44d2a76f355a9ff", "is_disabled": 0, "lon": -77.04100083333333, "is_reserved": 0, "fusion_lat": 0.0, "type": "electric_scooter"}, {"fusion_lon": 0.0, "name": "caabe7d2c7bf00f7536ce505a2bc7430", "rental_uris": {"android": "https://dc.lft.to/lastmile_qr_scan", "ios": "https://dc.lft.to/lastmile_qr_scan"}, "lat": 38.94738666666667, "bike_id": "caabe7d2c7bf00f7536ce505a2bc7430", "is_disabled": 0, "lon": -77.06547266666666, "is_reserved": 0, "fusion_lat": 0.0, "type": "electric_scooter"}, {"fusion_lon": 0.0, "name": "07a8fc1aad177a0cb2e07c8894301b14", "rental_uris": {"android": "https://dc.lft.to/lastmile_qr_scan", "ios": "https://dc.lft.to/lastmile_qr_scan"}, "lat": 38.904198, "bike_id": "07a8fc1aad177a0cb2e07c8894301b14", "is_disabled": 0, "lon": -77.05322583333333, "is_reserved": 0, "fusion_lat": 0.0, "type": "electric_scooter"}, {"fusion_lon": 0.0, "name": "c531c9433c27db212c28c235fe5f2d75", "rental_uris": {"android": "https://dc.lft.to/lastmile_qr_scan", "ios": "https://dc.lft.to/lastmile_qr_scan"}, "lat": 38.930356, "bike_id": "c531c9433c27db212c28c235fe5f2d75", "is_disabled": 0, "lon": -77.02965316666666, "is_reserved": 0, "fusion_lat": 0.0, "type": "electric_scooter"}, {"fusion_lon": 0.0, "name": "7e9e6cc3c43f1c4cfa4a82fb57c945a1", "rental_uris": {"android": "https://dc.lft.to/lastmile_qr_scan", "ios": "https://dc.lft.to/lastmile_qr_scan"}, "lat": 38.92085433333333, "bike_id": "7e9e6cc3c43f1c4cfa4a82fb57c945a1", "is_disabled": 0, "lon": -77.024183, "is_reserved": 0, "fusion_lat": 0.0, "type": "electric_scooter"}, {"fusion_lon": 0.0, "name": "b5f342095cd7642144b2d31b927dd596", "rental_uris": {"android": "https://dc.lft.to/lastmile_qr_scan", "ios": "https://dc.lft.to/lastmile_qr_scan"}, "lat": 38.929725833333336, "bike_id": "b5f342095cd7642144b2d31b927dd596", "is_disabled": 0, "lon": -77.0420555, "is_reserved": 0, "fusion_lat": 0.0, "type": "electric_scooter"}, {"fusion_lon": 0.0, "name": "1517f649989d1a1f8ebaa470ffcb8463", "rental_uris": {"android": "https://dc.lft.to/lastmile_qr_scan", "ios": "https://dc.lft.to/lastmile_qr_scan"}, "lat": 38.907562, "bike_id": "1517f649989d1a1f8ebaa470ffcb8463", "is_disabled": 0, "lon": -77.03579016666667, "is_reserved": 0, "fusion_lat": 0.0, "type": "electric_scooter"}, {"fusion_lon": 0.0, "name": "259e5e381907e45e086e6529f0837f6e", "rental_uris": {"android": "https://dc.lft.to/lastmile_qr_scan", "ios": "https://dc.lft.to/lastmile_qr_scan"}, "lat": 38.92245333333334, "bike_id": "259e5e381907e45e086e6529f0837f6e", "is_disabled": 0, "lon": -77.02853883333333, "is_reserved": 0, "fusion_lat": 0.0, "type": "electric_scooter"}, {"fusion_lon": 0.0, "name": "406185e9a61b3c5a592840b49eda3e19", "rental_uris": {"android": "https://dc.lft.to/lastmile_qr_scan", "ios": "https://dc.lft.to/lastmile_qr_scan"}, "lat": 38.926437666666665, "bike_id": "406185e9a61b3c5a592840b49eda3e19", "is_disabled": 0, "lon": -77.02511316666667, "is_reserved": 0, "fusion_lat": 0.0, "type": "electric_scooter"}, {"fusion_lon": 0.0, "name": "373a207185d0666eb54c85b6646d5187", "rental_uris": {"android": "https://dc.lft.to/lastmile_qr_scan", "ios": "https://dc.lft.to/lastmile_qr_scan"}, "lat": 38.87714233333333, "bike_id": "373a207185d0666eb54c85b6646d5187", "is_disabled": 0, "lon": -77.01648966666667, "is_reserved": 0, "fusion_lat": 0.0, "type": "electric_scooter"}, {"fusion_lon": 0.0, "name": "a9265a3580cb92a1a677410c2208457c", "rental_uris": {"android": "https://dc.lft.to/lastmile_qr_scan", "ios": "https://dc.lft.to/lastmile_qr_scan"}, "lat": 38.91655166666666, "bike_id": "a9265a3580cb92a1a677410c2208457c", "is_disabled": 0, "lon": -77.029564, "is_reserved": 0, "fusion_lat": 0.0, "type": "electric_scooter"}, {"fusion_lon": 0.0, "name": "462459d6dd7a8f4502a31ac52c3fad65", "rental_uris": {"android": "https://dc.lft.to/lastmile_qr_scan", "ios": "https://dc.lft.to/lastmile_qr_scan"}, "lat": 38.91540966666667, "bike_id": "462459d6dd7a8f4502a31ac52c3fad65", "is_disabled": 0, "lon": -77.04472716666666, "is_reserved": 0, "fusion_lat": 0.0, "type": "electric_scooter"}, {"fusion_lon": 0.0, "name": "1af327db10b9312288f6103121f6dc9d", "rental_uris": {"android": "https://dc.lft.to/lastmile_qr_scan", "ios": "https://dc.lft.to/lastmile_qr_scan"}, "lat": 38.92871933333333, "bike_id": "1af327db10b9312288f6103121f6dc9d", "is_disabled": 0, "lon": -77.02883516666667, "is_reserved": 0, "fusion_lat": 0.0, "type": "electric_scooter"}, {"fusion_lon": 0.0, "name": "4730a4eb82b9b041e193710a2a83499f", "rental_uris": {"android": "https://dc.lft.to/lastmile_qr_scan", "ios": "https://dc.lft.to/lastmile_qr_scan"}, "lat": 38.9004085, "bike_id": "4730a4eb82b9b041e193710a2a83499f", "is_disabled": 0, "lon": -77.02616066666667, "is_reserved": 0, "fusion_lat": 0.0, "type": "electric_scooter"}, {"fusion_lon": 0.0, "name": "b63c80c62b402b28d1a26de1fb748ec7", "rental_uris": {"android": "https://dc.lft.to/lastmile_qr_scan", "ios": "https://dc.lft.to/lastmile_qr_scan"}, "lat": 38.907674666666665, "bike_id": "b63c80c62b402b28d1a26de1fb748ec7", "is_disabled": 0, "lon": -77.04541683333333, "is_reserved": 0, "fusion_lat": 0.0, "type": "electric_scooter"}, {"fusion_lon": 0.0, "name": "c54fa0fe214bd06d5c9e03f758d8bfb1", "rental_uris": {"android": "https://dc.lft.to/lastmile_qr_scan", "ios": "https://dc.lft.to/lastmile_qr_scan"}, "lat": 38.892056, "bike_id": "c54fa0fe214bd06d5c9e03f758d8bfb1", "is_disabled": 0, "lon": -77.001951, "is_reserved": 0, "fusion_lat": 0.0, "type": "electric_scooter"}, {"fusion_lon": 0.0, "name": "097d580238416baed147e0e7f5f035ac", "rental_uris": {"android": "https://dc.lft.to/lastmile_qr_scan", "ios": "https://dc.lft.to/lastmile_qr_scan"}, "lat": 38.92968783333333, "bike_id": "097d580238416baed147e0e7f5f035ac", "is_disabled": 0, "lon": -77.0317715, "is_reserved": 0, "fusion_lat": 0.0, "type": "electric_scooter"}, {"fusion_lon": 0.0, "name": "92ffc587b0f00ce875e45a72c11a7f19", "rental_uris": {"android": "https://dc.lft.to/lastmile_qr_scan", "ios": "https://dc.lft.to/lastmile_qr_scan"}, "lat": 38.942283333333336, "bike_id": "92ffc587b0f00ce875e45a72c11a7f19", "is_disabled": 0, "lon": -77.014413, "is_reserved": 0, "fusion_lat": 0.0, "type": "electric_scooter"}, {"fusion_lon": 0.0, "name": "7e58622b34c88b42250b4f2b15950ce7", "rental_uris": {"android": "https://dc.lft.to/lastmile_qr_scan", "ios": "https://dc.lft.to/lastmile_qr_scan"}, "lat": 38.906968666666664, "bike_id": "7e58622b34c88b42250b4f2b15950ce7", "is_disabled": 0, "lon": -76.95255116666667, "is_reserved": 0, "fusion_lat": 0.0, "type": "electric_bike"}, {"fusion_lon": 0.0, "name": "e45c789dea1600d21a4f33dad2506814", "rental_uris": {"android": "https://dc.lft.to/lastmile_qr_scan", "ios": "https://dc.lft.to/lastmile_qr_scan"}, "lat": 38.90022783333333, "bike_id": "e45c789dea1600d21a4f33dad2506814", "is_disabled": 0, "lon": -76.998669, "is_reserved": 0, "fusion_lat": 0.0, "type": "electric_scooter"}, {"fusion_lon": 0.0, "name": "9e26e387b2f1726fd25a2fd46fcb6b99", "rental_uris": {"android": "https://dc.lft.to/lastmile_qr_scan", "ios": "https://dc.lft.to/lastmile_qr_scan"}, "lat": 38.87999766666667, "bike_id": "9e26e387b2f1726fd25a2fd46fcb6b99", "is_disabled": 0, "lon": -77.00494183333333, "is_reserved": 0, "fusion_lat": 0.0, "type": "electric_scooter"}, {"fusion_lon": 0.0, "name": "81b61e34913999ebbe36b9ec589829f0", "rental_uris": {"android": "https://dc.lft.to/lastmile_qr_scan", "ios": "https://dc.lft.to/lastmile_qr_scan"}, "lat": 38.91675083333333, "bike_id": "81b61e34913999ebbe36b9ec589829f0", "is_disabled": 0, "lon": -77.0461355, "is_reserved": 0, "fusion_lat": 0.0, "type": "electric_scooter"}, {"fusion_lon": 0.0, "name": "0d69289222b4c4b2739d0cb441a78ea9", "rental_uris": {"android": "https://dc.lft.to/lastmile_qr_scan", "ios": "https://dc.lft.to/lastmile_qr_scan"}, "lat": 38.900020833333336, "bike_id": "0d69289222b4c4b2739d0cb441a78ea9", "is_disabled": 0, "lon": -76.99483783333334, "is_reserved": 0, "fusion_lat": 0.0, "type": "electric_scooter"}, {"fusion_lon": 0.0, "name": "0713606ee2e0e37ccc85045084900af6", "rental_uris": {"android": "https://dc.lft.to/lastmile_qr_scan", "ios": "https://dc.lft.to/lastmile_qr_scan"}, "lat": 38.915697, "bike_id": "0713606ee2e0e37ccc85045084900af6", "is_disabled": 0, "lon": -77.012623, "is_reserved": 0, "fusion_lat": 0.0, "type": "electric_scooter"}, {"fusion_lon": 0.0, "name": "5621a291a17d82c1310a06050960e10e", "rental_uris": {"android": "https://dc.lft.to/lastmile_qr_scan", "ios": "https://dc.lft.to/lastmile_qr_scan"}, "lat": 38.95596483333333, "bike_id": "5621a291a17d82c1310a06050960e10e", "is_disabled": 0, "lon": -77.01022066666667, "is_reserved": 0, "fusion_lat": 0.0, "type": "electric_bike"}, {"fusion_lon": 0.0, "name": "9dbd6420ce98e0918bdb366989b371fe", "rental_uris": {"android": "https://dc.lft.to/lastmile_qr_scan", "ios": "https://dc.lft.to/lastmile_qr_scan"}, "lat": 38.926819333333334, "bike_id": "9dbd6420ce98e0918bdb366989b371fe", "is_disabled": 0, "lon": -77.0258725, "is_reserved": 0, "fusion_lat": 0.0, "type": "electric_scooter"}, {"fusion_lon": 0.0, "name": "a43b4b3caf651ec455a64abb981fbe35", "rental_uris": {"android": "https://dc.lft.to/lastmile_qr_scan", "ios": "https://dc.lft.to/lastmile_qr_scan"}, "lat": 38.92447, "bike_id": "a43b4b3caf651ec455a64abb981fbe35", "is_disabled": 0, "lon": -77.03405833333333, "is_reserved": 0, "fusion_lat": 0.0, "type": "electric_scooter"}, {"fusion_lon": 0.0, "name": "578a33bd21eb7da3ef54dba7546b7f0b", "rental_uris": {"android": "https://dc.lft.to/lastmile_qr_scan", "ios": "https://dc.lft.to/lastmile_qr_scan"}, "lat": 38.895989166666666, "bike_id": "578a33bd21eb7da3ef54dba7546b7f0b", "is_disabled": 0, "lon": -76.96782316666666, "is_reserved": 0, "fusion_lat": 0.0, "type": "electric_bike"}, {"fusion_lon": 0.0, "name": "bc38f06793cf1f46a3a7129e8f77b5c4", "rental_uris": {"android": "https://dc.lft.to/lastmile_qr_scan", "ios": "https://dc.lft.to/lastmile_qr_scan"}, "lat": 38.892198, "bike_id": "bc38f06793cf1f46a3a7129e8f77b5c4", "is_disabled": 0, "lon": -77.02313266666667, "is_reserved": 0, "fusion_lat": 0.0, "type": "electric_scooter"}, {"fusion_lon": 0.0, "name": "bbb24bd8745397d8618c628f853ac98e", "rental_uris": {"android": "https://dc.lft.to/lastmile_qr_scan", "ios": "https://dc.lft.to/lastmile_qr_scan"}, "lat": 38.953032, "bike_id": "bbb24bd8745397d8618c628f853ac98e", "is_disabled": 0, "lon": -77.02775616666666, "is_reserved": 0, "fusion_lat": 0.0, "type": "electric_scooter"}, {"fusion_lon": 0.0, "name": "228e8bcfd40a8f1dd298c5262aed9da3", "rental_uris": {"android": "https://dc.lft.to/lastmile_qr_scan", "ios": "https://dc.lft.to/lastmile_qr_scan"}, "lat": 38.90679883333333, "bike_id": "228e8bcfd40a8f1dd298c5262aed9da3", "is_disabled": 0, "lon": -77.02692166666667, "is_reserved": 0, "fusion_lat": 0.0, "type": "electric_scooter"}, {"fusion_lon": 0.0, "name": "669dbd4e7bcf85b18a4339b51c5659a8", "rental_uris": {"android": "https://dc.lft.to/lastmile_qr_scan", "ios": "https://dc.lft.to/lastmile_qr_scan"}, "lat": 38.917101, "bike_id": "669dbd4e7bcf85b18a4339b51c5659a8", "is_disabled": 0, "lon": -77.038657, "is_reserved": 0, "fusion_lat": 0.0, "type": "electric_scooter"}, {"fusion_lon": 0.0, "name": "54ce4e333823c81f98b1c761c37126e5", "rental_uris": {"android": "https://dc.lft.to/lastmile_qr_scan", "ios": "https://dc.lft.to/lastmile_qr_scan"}, "lat": 38.92687866666667, "bike_id": "54ce4e333823c81f98b1c761c37126e5", "is_disabled": 0, "lon": -77.02963283333334, "is_reserved": 0, "fusion_lat": 0.0, "type": "electric_scooter"}, {"fusion_lon": 0.0, "name": "da92f297bee1f75840244440662fafb5", "rental_uris": {"android": "https://dc.lft.to/lastmile_qr_scan", "ios": "https://dc.lft.to/lastmile_qr_scan"}, "lat": 38.924910833333335, "bike_id": "da92f297bee1f75840244440662fafb5", "is_disabled": 0, "lon": -77.03907033333333, "is_reserved": 0, "fusion_lat": 0.0, "type": "electric_scooter"}, {"fusion_lon": 0.0, "name": "f325e4d9d29d77f2d85474cddc40e091", "rental_uris": {"android": "https://dc.lft.to/lastmile_qr_scan", "ios": "https://dc.lft.to/lastmile_qr_scan"}, "lat": 38.89649816666667, "bike_id": "f325e4d9d29d77f2d85474cddc40e091", "is_disabled": 0, "lon": -77.05037316666666, "is_reserved": 0, "fusion_lat": 0.0, "type": "electric_scooter"}, {"fusion_lon": 0.0, "name": "58bd8af4c4a9de414a3a5a7e26f84011", "rental_uris": {"android": "https://dc.lft.to/lastmile_qr_scan", "ios": "https://dc.lft.to/lastmile_qr_scan"}, "lat": 38.90420366666667, "bike_id": "58bd8af4c4a9de414a3a5a7e26f84011", "is_disabled": 0, "lon": -77.02595233333334, "is_reserved": 0, "fusion_lat": 0.0, "type": "electric_scooter"}, {"fusion_lon": 0.0, "name": "b6bf41880c2d249d8d8cd37f89557cdb", "rental_uris": {"android": "https://dc.lft.to/lastmile_qr_scan", "ios": "https://dc.lft.to/lastmile_qr_scan"}, "lat": 38.887757, "bike_id": "b6bf41880c2d249d8d8cd37f89557cdb", "is_disabled": 0, "lon": -76.93263216666666, "is_reserved": 0, "fusion_lat": 0.0, "type": "electric_scooter"}, {"fusion_lon": 0.0, "name": "c340116183cc27d94e652c0aa1f77250", "rental_uris": {"android": "https://dc.lft.to/lastmile_qr_scan", "ios": "https://dc.lft.to/lastmile_qr_scan"}, "lat": 38.908701, "bike_id": "c340116183cc27d94e652c0aa1f77250", "is_disabled": 0, "lon": -77.000423, "is_reserved": 0, "fusion_lat": 0.0, "type": "electric_scooter"}, {"fusion_lon": 0.0, "name": "f14c16ed9dfaa40b2ed18e6a403d866b", "rental_uris": {"android": "https://dc.lft.to/lastmile_qr_scan", "ios": "https://dc.lft.to/lastmile_qr_scan"}, "lat": 38.889899666666665, "bike_id": "f14c16ed9dfaa40b2ed18e6a403d866b", "is_disabled": 0, "lon": -76.9951495, "is_reserved": 0, "fusion_lat": 0.0, "type": "electric_scooter"}, {"fusion_lon": 0.0, "name": "c9b210d8657024e5057ae10b1702b20d", "rental_uris": {"android": "https://dc.lft.to/lastmile_qr_scan", "ios": "https://dc.lft.to/lastmile_qr_scan"}, "lat": 38.917036, "bike_id": "c9b210d8657024e5057ae10b1702b20d", "is_disabled": 0, "lon": -77.01203833333334, "is_reserved": 0, "fusion_lat": 0.0, "type": "electric_scooter"}, {"fusion_lon": 0.0, "name": "cf738af05fb910567703b3cfa55198c0", "rental_uris": {"android": "https://dc.lft.to/lastmile_qr_scan", "ios": "https://dc.lft.to/lastmile_qr_scan"}, "lat": 38.89613633333333, "bike_id": "cf738af05fb910567703b3cfa55198c0", "is_disabled": 0, "lon": -77.03044416666667, "is_reserved": 0, "fusion_lat": 0.0, "type": "electric_scooter"}, {"fusion_lon": 0.0, "name": "42b20940c0b4c2c54e21c80ac2d16d13", "rental_uris": {"android": "https://dc.lft.to/lastmile_qr_scan", "ios": "https://dc.lft.to/lastmile_qr_scan"}, "lat": 38.9015105, "bike_id": "42b20940c0b4c2c54e21c80ac2d16d13", "is_disabled": 0, "lon": -77.049791, "is_reserved": 0, "fusion_lat": 0.0, "type": "electric_scooter"}, {"fusion_lon": 0.0, "name": "af486069aac2b6d9c07958e466fa4314", "rental_uris": {"android": "https://dc.lft.to/lastmile_qr_scan", "ios": "https://dc.lft.to/lastmile_qr_scan"}, "lat": 38.9142075, "bike_id": "af486069aac2b6d9c07958e466fa4314", "is_disabled": 0, "lon": -77.03259133333333, "is_reserved": 0, "fusion_lat": 0.0, "type": "electric_scooter"}, {"fusion_lon": 0.0, "name": "f107a4e3b8c9d882022390418ee6ed26", "rental_uris": {"android": "https://dc.lft.to/lastmile_qr_scan", "ios": "https://dc.lft.to/lastmile_qr_scan"}, "lat": 38.92404783333333, "bike_id": "f107a4e3b8c9d882022390418ee6ed26", "is_disabled": 0, "lon": -77.02374966666666, "is_reserved": 0, "fusion_lat": 0.0, "type": "electric_scooter"}, {"fusion_lon": 0.0, "name": "9035664113553febfcb4ddf98a283c0d", "rental_uris": {"android": "https://dc.lft.to/lastmile_qr_scan", "ios": "https://dc.lft.to/lastmile_qr_scan"}, "lat": 38.92158633333333, "bike_id": "9035664113553febfcb4ddf98a283c0d", "is_disabled": 0, "lon": -77.0336505, "is_reserved": 0, "fusion_lat": 0.0, "type": "electric_scooter"}, {"fusion_lon": 0.0, "name": "47890141fd6ad8b06e70866cb20116ea", "rental_uris": {"android": "https://dc.lft.to/lastmile_qr_scan", "ios": "https://dc.lft.to/lastmile_qr_scan"}, "lat": 38.936187833333335, "bike_id": "47890141fd6ad8b06e70866cb20116ea", "is_disabled": 0, "lon": -77.0366015, "is_reserved": 0, "fusion_lat": 0.0, "type": "electric_scooter"}, {"fusion_lon": 0.0, "name": "b83a6b9ad427bdd939854e8b3f931b3d", "rental_uris": {"android": "https://dc.lft.to/lastmile_qr_scan", "ios": "https://dc.lft.to/lastmile_qr_scan"}, "lat": 38.912128833333334, "bike_id": "b83a6b9ad427bdd939854e8b3f931b3d", "is_disabled": 0, "lon": -77.04663683333334, "is_reserved": 0, "fusion_lat": 0.0, "type": "electric_scooter"}, {"fusion_lon": 0.0, "name": "44c6bbead42d8146679b17f7254d86a2", "rental_uris": {"android": "https://dc.lft.to/lastmile_qr_scan", "ios": "https://dc.lft.to/lastmile_qr_scan"}, "lat": 38.9191675, "bike_id": "44c6bbead42d8146679b17f7254d86a2", "is_disabled": 0, "lon": -77.03424383333333, "is_reserved": 0, "fusion_lat": 0.0, "type": "electric_scooter"}, {"fusion_lon": 0.0, "name": "8d47ed69a9730c89e9fbec98bb16814a", "rental_uris": {"android": "https://dc.lft.to/lastmile_qr_scan", "ios": "https://dc.lft.to/lastmile_qr_scan"}, "lat": 38.91324633333333, "bike_id": "8d47ed69a9730c89e9fbec98bb16814a", "is_disabled": 0, "lon": -77.044955, "is_reserved": 0, "fusion_lat": 0.0, "type": "electric_scooter"}, {"fusion_lon": 0.0, "name": "c400e81630a2b099cc23c0131403300d", "rental_uris": {"android": "https://dc.lft.to/lastmile_qr_scan", "ios": "https://dc.lft.to/lastmile_qr_scan"}, "lat": 38.903317666666666, "bike_id": "c400e81630a2b099cc23c0131403300d", "is_disabled": 0, "lon": -77.02526983333334, "is_reserved": 0, "fusion_lat": 0.0, "type": "electric_scooter"}, {"fusion_lon": 0.0, "name": "5dc9f45bc7f7fbd08e7f7121a287b1a1", "rental_uris": {"android": "https://dc.lft.to/lastmile_qr_scan", "ios": "https://dc.lft.to/lastmile_qr_scan"}, "lat": 38.905807333333335, "bike_id": "5dc9f45bc7f7fbd08e7f7121a287b1a1", "is_disabled": 0, "lon": -77.0059495, "is_reserved": 0, "fusion_lat": 0.0, "type": "electric_scooter"}, {"fusion_lon": 0.0, "name": "64c7e361e1122abd04e7863b3b6667ba", "rental_uris": {"android": "https://dc.lft.to/lastmile_qr_scan", "ios": "https://dc.lft.to/lastmile_qr_scan"}, "lat": 38.89604216666667, "bike_id": "64c7e361e1122abd04e7863b3b6667ba", "is_disabled": 0, "lon": -77.009351, "is_reserved": 0, "fusion_lat": 0.0, "type": "electric_scooter"}, {"fusion_lon": 0.0, "name": "6ba1939b4b3954519863e7a2daa74bfc", "rental_uris": {"android": "https://dc.lft.to/lastmile_qr_scan", "ios": "https://dc.lft.to/lastmile_qr_scan"}, "lat": 38.90245733333333, "bike_id": "6ba1939b4b3954519863e7a2daa74bfc", "is_disabled": 0, "lon": -77.03173366666667, "is_reserved": 0, "fusion_lat": 0.0, "type": "electric_scooter"}, {"fusion_lon": 0.0, "name": "bbe54466128012d6a52ffefe030095b5", "rental_uris": {"android": "https://dc.lft.to/lastmile_qr_scan", "ios": "https://dc.lft.to/lastmile_qr_scan"}, "lat": 38.90182183333334, "bike_id": "bbe54466128012d6a52ffefe030095b5", "is_disabled": 0, "lon": -76.92999866666666, "is_reserved": 0, "fusion_lat": 0.0, "type": "electric_scooter"}, {"fusion_lon": 0.0, "name": "0638c88f3a7d67a21e2a3ead907b3eb0", "rental_uris": {"android": "https://dc.lft.to/lastmile_qr_scan", "ios": "https://dc.lft.to/lastmile_qr_scan"}, "lat": 38.89748316666667, "bike_id": "0638c88f3a7d67a21e2a3ead907b3eb0", "is_disabled": 0, "lon": -76.976921, "is_reserved": 0, "fusion_lat": 0.0, "type": "electric_scooter"}, {"fusion_lon": 0.0, "name": "9f0311113611e3a3de31bd9269fbaf5a", "rental_uris": {"android": "https://dc.lft.to/lastmile_qr_scan", "ios": "https://dc.lft.to/lastmile_qr_scan"}, "lat": 38.90154483333333, "bike_id": "9f0311113611e3a3de31bd9269fbaf5a", "is_disabled": 0, "lon": -76.97425083333333, "is_reserved": 0, "fusion_lat": 0.0, "type": "electric_scooter"}, {"fusion_lon": 0.0, "name": "1743ea0fac00ac762c139b7ef118328a", "rental_uris": {"android": "https://dc.lft.to/lastmile_qr_scan", "ios": "https://dc.lft.to/lastmile_qr_scan"}, "lat": 38.958888, "bike_id": "1743ea0fac00ac762c139b7ef118328a", "is_disabled": 0, "lon": -76.97044833333334, "is_reserved": 0, "fusion_lat": 0.0, "type": "electric_bike"},