{"data": {"bikes": [{"type": "electric_scooter", "is_reserved": 0, "is_disabled": 0, "fusion_lat": 0.0, "name": "642d24a09724c54a836c427f130442f5", "rental_uris": {"android": "https://dc.lft.to/lastmile_qr_scan", "ios": "https://dc.lft.to/lastmile_qr_scan"}, "fusion_lon": 0.0, "lat": 38.919884333333336, "lon": -77.0218955, "bike_id": "642d24a09724c54a836c427f130442f5"}, {"type": "electric_bike", "is_reserved": 0, "is_disabled": 0, "fusion_lat": 0.0, "name": "43eba22878e0baca6090fc4d90372bb3", "rental_uris": {"android": "https://dc.lft.to/lastmile_qr_scan", "ios": "https://dc.lft.to/lastmile_qr_scan"}, "fusion_lon": 0.0, "lat": 38.881322, "lon": -76.980934, "bike_id": "43eba22878e0baca6090fc4d90372bb3"}, {"type": "electric_scooter", "is_reserved": 0, "is_disabled": 0, "fusion_lat": 0.0, "name": "77797665dbceaf742e395d42bc08e3e3", "rental_uris": {"android": "https://dc.lft.to/lastmile_qr_scan", "ios": "https://dc.lft.to/lastmile_qr_scan"}, "fusion_lon": 0.0, "lat": 38.91552466666667, "lon": -77.04259, "bike_id": "77797665dbceaf742e395d42bc08e3e3"}, {"type": "electric_scooter", "is_reserved": 0, "is_disabled": 0, "fusion_lat": 0.0, "name": "ba445a2ee32b82a506328df150491ed6", "rental_uris": {"android": "https://dc.lft.to/lastmile_qr_scan", "ios": "https://dc.lft.to/lastmile_qr_scan"}, "fusion_lon": 0.0, "lat": 38.90568316666667, "lon": -77.0345695, "bike_id": "ba445a2ee32b82a506328df150491ed6"}, {"type": "electric_scooter", "is_reserved": 0, "is_disabled": 0, "fusion_lat": 0.0, "name": "eea0b556c0c90a1570277d8773ce67c0", "rental_uris": {"android": "https://dc.lft.to/lastmile_qr_scan", "ios": "https://dc.lft.to/lastmile_qr_scan"}, "fusion_lon": 0.0, "lat": 38.8923115, "lon": -77.02832133333334, "bike_id": "eea0b556c0c90a1570277d8773ce67c0"}, {"type": "electric_scooter", "is_reserved": 0, "is_disabled": 0, "fusion_lat": 0.0, "name": "4490e00e4bd33bc63d68ead21fe919e7", "rental_uris": {"android": "https://dc.lft.to/lastmile_qr_scan", "ios": "https://dc.lft.to/lastmile_qr_scan"}, "fusion_lon": 0.0, "lat": 38.866552166666665, "lon": -76.99013816666667, "bike_id": "4490e00e4bd33bc63d68ead21fe919e7"}, {"type": "electric_scooter", "is_reserved": 0, "is_disabled": 0, "fusion_lat": 0.0, "name": "7fb83f05b896b02e5ec8c0843e505136", "rental_uris": {"android": "https://dc.lft.to/lastmile_qr_scan", "ios": "https://dc.lft.to/lastmile_qr_scan"}, "fusion_lon": 0.0, "lat": 38.89992316666667, "lon": -77.0524575, "bike_id": "7fb83f05b896b02e5ec8c0843e505136"}, {"type": "electric_bike", "is_reserved": 0, "is_disabled": 0, "fusion_lat": 0.0, "name": "a478b9033bd59becd52df9084b2de42b", "rental_uris": {"android": "https://dc.lft.to/lastmile_qr_scan", "ios": "https://dc.lft.to/lastmile_qr_scan"}, "fusion_lon": 0.0, "lat": 38.839865833333334, "lon": -77.005683, "bike_id": "a478b9033bd59becd52df9084b2de42b"}, {"type": "electric_scooter", "is_reserved": 0, "is_disabled": 0, "fusion_lat": 0.0, "name": "8a4dba912f08cd7e439bf342087c709d", "rental_uris": {"android": "https://dc.lft.to/lastmile_qr_scan", "ios": "https://dc.lft.to/lastmile_qr_scan"}, "fusion_lon": 0.0, "lat": 38.905577666666666, "lon": -77.022327, "bike_id": "8a4dba912f08cd7e439bf342087c709d"}, {"type": "electric_scooter", "is_reserved": 0, "is_disabled": 0, "fusion_lat": 0.0, "name": "c003a3273fd184f07fc5a5588aa03489", "rental_uris": {"android": "https://dc.lft.to/lastmile_qr_scan", "ios": "https://dc.lft.to/lastmile_qr_scan"}, "fusion_lon": 0.0, "lat": 38.90978633333334, "lon": -77.03184233333333, "bike_id": "c003a3273fd184f07fc5a5588aa03489"}, {"type": "electric_scooter", "is_reserved": 0, "is_disabled": 0, "fusion_lat": 0.0, "name": "a376441dcaffc7ddafcf9a65edabf11f", "rental_uris": {"android": "https://dc.lft.to/lastmile_qr_scan", "ios": "https://dc.lft.to/lastmile_qr_scan"}, "fusion_lon": 0.0, "lat": 38.90840333333333, "lon": -77.03192083333333, "bike_id": "a376441dcaffc7ddafcf9a65edabf11f"}, {"type": "electric_scooter", "is_reserved": 0, "is_disabled": 0, "fusion_lat": 0.0, "name": "ea5e908297aac5a6b845eebd990f1884", "rental_uris": {"android": "https://dc.lft.to/lastmile_qr_scan", "ios": "https://dc.lft.to/lastmile_qr_scan"}, "fusion_lon": 0.0, "lat": 38.93883066666667, "lon": -77.032839, "bike_id": "ea5e908297aac5a6b845eebd990f1884"}, {"type": "electric_bike", "is_reserved": 0, "is_disabled": 0, "fusion_lat": 0.0, "name": "fd23dca55c82c66d228696642751c55b", "rental_uris": {"android": "https://dc.lft.to/lastmile_qr_scan", "ios": "https://dc.lft.to/lastmile_qr_scan"}, "fusion_lon": 0.0, "lat": 38.984629, "lon": -76.95528566666667, "bike_id": "fd23dca55c82c66d228696642751c55b"}, {"type": "electric_scooter", "is_reserved": 0, "is_disabled": 0, "fusion_lat": 0.0, "name": "16254eede8025bfab5404f7ee7b025c7", "rental_uris": {"android": "https://dc.lft.to/lastmile_qr_scan", "ios": "https://dc.lft.to/lastmile_qr_scan"}, "fusion_lon": 0.0, "lat": 38.90046733333333, "lon": -77.00751066666666, "bike_id": "16254eede8025bfab5404f7ee7b025c7"}, {"type": "electric_scooter", "is_reserved": 0, "is_disabled": 0, "fusion_lat": 0.0, "name": "013b76994f457987df627fa00721e7f5", "rental_uris": {"android": "https://dc.lft.to/lastmile_qr_scan", "ios": "https://dc.lft.to/lastmile_qr_scan"}, "fusion_lon": 0.0, "lat": 38.92169533333333, "lon": -77.05136016666667, "bike_id": "013b76994f457987df627fa00721e7f5"}, {"type": "electric_scooter", "is_reserved": 0, "is_disabled": 0, "fusion_lat": 0.0, "name": "9b09f3068ec9faf598e72dc1badac1db", "rental_uris": {"android": "https://dc.lft.to/lastmile_qr_scan", "ios": "https://dc.lft.to/lastmile_qr_scan"}, "fusion_lon": 0.0, "lat": 38.89407816666667, "lon": -76.956711, "bike_id": "9b09f3068ec9faf598e72dc1badac1db"}, {"type": "electric_scooter", "is_reserved": 0, "is_disabled": 0, "fusion_lat": 0.0, "name": "c6d9ffcd81c4e978ba77f5cee491a4c9", "rental_uris": {"android": "https://dc.lft.to/lastmile_qr_scan", "ios": "https://dc.lft.to/lastmile_qr_scan"}, "fusion_lon": 0.0, "lat": 38.91547466666667, "lon": -77.03843733333333, "bike_id": "c6d9ffcd81c4e978ba77f5cee491a4c9"}, {"type": "electric_scooter", "is_reserved": 0, "is_disabled": 0, "fusion_lat": 0.0, "name": "fc1bcdc5d98e7b3b117c3eefdafffa81", "rental_uris": {"android": "https://dc.lft.to/lastmile_qr_scan", "ios": "https://dc.lft.to/lastmile_qr_scan"}, "fusion_lon": 0.0, "lat": 38.90018766666667, "lon": -76.99789016666666, "bike_id": "fc1bcdc5d98e7b3b117c3eefdafffa81"}, {"type": "electric_bike", "is_reserved": 0, "is_disabled": 0, "fusion_lat": 0.0, "name": "24b0344fd1d9f9fbadb8838fbfa5a9c1", "rental_uris": {"android": "https://dc.lft.to/lastmile_qr_scan", "ios": "https://dc.lft.to/lastmile_qr_scan"}, "fusion_lon": 0.0, "lat": 38.98593666666667, "lon": -77.037542, "bike_id": "24b0344fd1d9f9fbadb8838fbfa5a9c1"}, {"type": "electric_scooter", "is_reserved": 0, "is_disabled": 0, "fusion_lat": 0.0, "name": "c07259677e3fdbd02b85196bf525ee69", "rental_uris": {"android": "https://dc.lft.to/lastmile_qr_scan", "ios": "https://dc.lft.to/lastmile_qr_scan"}, "fusion_lon": 0.0, "lat": 38.89357716666667, "lon": -77.00335533333333, "bike_id": "c07259677e3fdbd02b85196bf525ee69"}, {"type": "electric_scooter", "is_reserved": 0, "is_disabled": 0, "fusion_lat": 0.0, "name": "722f60884dd70b0914a338cbdf3df6ac", "rental_uris": {"android": "https://dc.lft.to/lastmile_qr_scan", "ios": "https://dc.lft.to/lastmile_qr_scan"}, "fusion_lon": 0.0, "lat": 38.90052816666667, "lon": -77.04822383333334, "bike_id": "722f60884dd70b0914a338cbdf3df6ac"}, {"type": "electric_scooter", "is_reserved": 0, "is_disabled": 0, "fusion_lat": 0.0, "name": "c4590867921c07c2f092642be30f7f7c", "rental_uris": {"android": "https://dc.lft.to/lastmile_qr_scan", "ios": "https://dc.lft.to/lastmile_qr_scan"}, "fusion_lon": 0.0, "lat": 38.892179, "lon": -77.0214085, "bike_id": "c4590867921c07c2f092642be30f7f7c"}, {"type": "electric_bike", "is_reserved": 0, "is_disabled": 0, "fusion_lat": 0.0, "name": "266db82d375bf7eef51bd57da9bda061", "rental_uris": {"android": "https://dc.lft.to/lastmile_qr_scan", "ios": "https://dc.lft.to/lastmile_qr_scan"}, "fusion_lon": 0.0, "lat": 38.85222916666667, "lon": -77.12964016666666, "bike_id": "266db82d375bf7eef51bd57da9bda061"}, {"type": "electric_bike", "is_reserved": 0, "is_disabled": 0, "fusion_lat": 0.0, "name": "3292f45786fcbf4a5ce3c078444661ad", "rental_uris": {"android": "https://dc.lft.to/lastmile_qr_scan", "ios": "https://dc.lft.to/lastmile_qr_scan"}, "fusion_lon": 0.0, "lat": 38.865958, "lon": -76.93228933333333, "bike_id": "3292f45786fcbf4a5ce3c078444661ad"}, {"type": "electric_scooter", "is_reserved": 0, "is_disabled": 0, "fusion_lat": 0.0, "name": "79d286207e877f5ddebdf0137c1e21ba", "rental_uris": {"android": "https://dc.lft.to/lastmile_qr_scan", "ios": "https://dc.lft.to/lastmile_qr_scan"}, "fusion_lon": 0.0, "lat": 38.923420666666665, "lon": -77.01907416666667, "bike_id": "79d286207e877f5ddebdf0137c1e21ba"}, {"type": "electric_scooter", "is_reserved": 0, "is_disabled": 0, "fusion_lat": 0.0, "name": "63c38a8cd4a99278879be471519c1b8d", "rental_uris": {"android": "https://dc.lft.to/lastmile_qr_scan", "ios": "https://dc.lft.to/lastmile_qr_scan"}, "fusion_lon": 0.0, "lat": 38.911068666666665, "lon": -77.04505033333334, "bike_id": "63c38a8cd4a99278879be471519c1b8d"}, {"type": "electric_scooter", "is_reserved": 0, "is_disabled": 0, "fusion_lat": 0.0, "name": "d57d2cfd21e59a8952db037eb19cc329", "rental_uris": {"android": "https://dc.lft.to/lastmile_qr_scan", "ios": "https://dc.lft.to/lastmile_qr_scan"}, "fusion_lon": 0.0, "lat": 38.917092, "lon": -77.0348155, "bike_id": "d57d2cfd21e59a8952db037eb19cc329"}, {"type": "electric_scooter", "is_reserved": 0, "is_disabled": 0, "fusion_lat": 0.0, "name": "bad74a9a2ce1376dbc77dd487a722667", "rental_uris": {"android": "https://dc.lft.to/lastmile_qr_scan", "ios": "https://dc.lft.to/lastmile_qr_scan"}, "fusion_lon": 0.0, "lat": 38.9213255, "lon": -77.01797133333334, "bike_id": "bad74a9a2ce1376dbc77dd487a722667"}, {"type": "electric_scooter", "is_reserved": 0, "is_disabled": 0, "fusion_lat": 0.0, "name": "9f0969c5b82d1f7c7316c64cf0ab2682", "rental_uris": {"android": "https://dc.lft.to/lastmile_qr_scan", "ios": "https://dc.lft.to/lastmile_qr_scan"}, "fusion_lon": 0.0, "lat": 38.9102875, "lon": -77.034516, "bike_id": "9f0969c5b82d1f7c7316c64cf0ab2682"}, {"type": "electric_bike", "is_reserved": 0, "is_disabled": 0, "fusion_lat": 0.0, "name": "95641fbce29627edad6c431723cfc265", "rental_uris": {"android": "https://dc.lft.to/lastmile_qr_scan", "ios": "https://dc.lft.to/lastmile_qr_scan"}, "fusion_lon": 0.0, "lat": 38.90365216666667, "lon": -77.06757533333334, "bike_id": "95641fbce29627edad6c431723cfc265"}, {"type": "electric_bike", "is_reserved": 0, "is_disabled": 0, "fusion_lat": 0.0, "name": "f413e227ee4c03efffad0ec881a1c5d0", "rental_uris": {"android": "https://dc.lft.to/lastmile_qr_scan", "ios": "https://dc.lft.to/lastmile_qr_scan"}, "fusion_lon": 0.0, "lat": 38.876668, "lon": -77.01449, "bike_id": "f413e227ee4c03efffad0ec881a1c5d0"}, {"type": "electric_scooter", "is_reserved": 0, "is_disabled": 0, "fusion_lat": 0.0, "name": "1bc5012e28d274afa56be20c60beb1cc", "rental_uris": {"android": "https://dc.lft.to/lastmile_qr_scan", "ios": "https://dc.lft.to/lastmile_qr_scan"}, "fusion_lon": 0.0, "lat": 38.9027725, "lon": -77.042888, "bike_id": "1bc5012e28d274afa56be20c60beb1cc"}, {"type": "electric_scooter", "is_reserved": 0, "is_disabled": 0, "fusion_lat": 0.0, "name": "33d9c0499c23d5b15a48c2f75a7a653b", "rental_uris": {"android": "https://dc.lft.to/lastmile_qr_scan", "ios": "https://dc.lft.to/lastmile_qr_scan"}, "fusion_lon": 0.0, "lat": 38.93097933333333, "lon": -77.0377655, "bike_id": "33d9c0499c23d5b15a48c2f75a7a653b"}, {"type": "electric_bike", "is_reserved": 0, "is_disabled": 0, "fusion_lat": 0.0, "name": "310e2fc8fa23fe9ec5a675357af059b1", "rental_uris": {"android": "https://dc.lft.to/lastmile_qr_scan", "ios": "https://dc.lft.to/lastmile_qr_scan"}, "fusion_lon": 0.0, "lat": 38.879665, "lon": -77.01013066666667, "bike_id": "310e2fc8fa23fe9ec5a675357af059b1"}, {"type": "electric_scooter", "is_reserved": 0, "is_disabled": 0, "fusion_lat": 0.0, "name": "3c65e8ee63ada73cb90f9c951818331f", "rental_uris": {"android": "https://dc.lft.to/lastmile_qr_scan", "ios": "https://dc.lft.to/lastmile_qr_scan"}, "fusion_lon": 0.0, "lat": 38.862865, "lon": -76.99231166666667, "bike_id": "3c65e8ee63ada73cb90f9c951818331f"}, {"type": "electric_scooter", "is_reserved": 0, "is_disabled": 0, "fusion_lat": 0.0, "name": "74cbe71bd957eef0de6ff5fa2b09be82", "rental_uris": {"android": "https://dc.lft.to/lastmile_qr_scan", "ios": "https://dc.lft.to/lastmile_qr_scan"}, "fusion_lon": 0.0, "lat": 38.92578, "lon": -77.039905, "bike_id": "74cbe71bd957eef0de6ff5fa2b09be82"}, {"type": "electric_scooter", "is_reserved": 0, "is_disabled": 0, "fusion_lat": 0.0, "name": "7a79a08dd0a347bd2c4956e0305bd2c7", "rental_uris": {"android": "https://dc.lft.to/lastmile_qr_scan", "ios": "https://dc.lft.to/lastmile_qr_scan"}, "fusion_lon": 0.0, "lat": 38.887041833333335, "lon": -77.01375183333333, "bike_id": "7a79a08dd0a347bd2c4956e0305bd2c7"}, {"type": "electric_scooter", "is_reserved": 0, "is_disabled": 0, "fusion_lat": 0.0, "name": "1be24e3673ee55eb8cb8bcb720f8a547", "rental_uris": {"android": "https://dc.lft.to/lastmile_qr_scan", "ios": "https://dc.lft.to/lastmile_qr_scan"}, "fusion_lon": 0.0, "lat": 38.89920866666667, "lon": -77.03984966666667, "bike_id": "1be24e3673ee55eb8cb8bcb720f8a547"}, {"type": "electric_bike", "is_reserved": 0, "is_disabled": 0, "fusion_lat": 0.0, "name": "97b7d902efa465e16c55d241b775ee26", "rental_uris": {"android": "https://dc.lft.to/lastmile_qr_scan", "ios": "https://dc.lft.to/lastmile_qr_scan"}, "fusion_lon": 0.0, "lat": 39.094387166666664, "lon": -77.13462383333334, "bike_id": "97b7d902efa465e16c55d241b775ee26"}, {"type": "electric_scooter", "is_reserved": 0, "is_disabled": 0, "fusion_lat": 0.0, "name": "0f22ec65663b5fb45ac8fdecf9d58456", "rental_uris": {"android": "https://dc.lft.to/lastmile_qr_scan", "ios": "https://dc.lft.to/lastmile_qr_scan"}, "fusion_lon": 0.0, "lat": 38.89847833333334, "lon": -76.94477533333334, "bike_id": "0f22ec65663b5fb45ac8fdecf9d58456"}, {"type": "electric_scooter", "is_reserved": 0, "is_disabled": 0, "fusion_lat": 0.0, "name": "26ae1e81a0cb99fd14a74a284c193a48", "rental_uris": {"android": "https://dc.lft.to/lastmile_qr_scan", "ios": "https://dc.lft.to/lastmile_qr_scan"}, "fusion_lon": 0.0, "lat": 38.89236183333333, "lon": -77.02808183333333, "bike_id": "26ae1e81a0cb99fd14a74a284c193a48"}, {"type": "electric_bike", "is_reserved": 0, "is_disabled": 0, "fusion_lat": 0.0, "name": "dce0c0db5c86c2c2220cb4ed42c2af21", "rental_uris": {"android": "https://dc.lft.to/lastmile_qr_scan", "ios": "https://dc.lft.to/lastmile_qr_scan"}, "fusion_lon": 0.0, "lat": 38.85791916666667, "lon": -77.099637, "bike_id": "dce0c0db5c86c2c2220cb4ed42c2af21"}, {"type": "electric_scooter", "is_reserved": 0, "is_disabled": 0, "fusion_lat": 0.0, "name": "dc466b0982d4e159372d481cf9a3ae5f", "rental_uris": {"android": "https://dc.lft.to/lastmile_qr_scan", "ios": "https://dc.lft.to/lastmile_qr_scan"}, "fusion_lon": 0.0, "lat": 38.897561833333334, "lon": -76.94186366666666, "bike_id": "dc466b0982d4e159372d481cf9a3ae5f"}, {"type": "electric_bike", "is_reserved": 0, "is_disabled": 0, "fusion_lat": 0.0, "name": "84ee139b2a7ce72ff76c66435d982454", "rental_uris": {"android": "https://dc.lft.to/lastmile_qr_scan", "ios": "https://dc.lft.to/lastmile_qr_scan"}, "fusion_lon": 0.0, "lat": 38.85507166666667, "lon": -76.9843305, "bike_id": "84ee139b2a7ce72ff76c66435d982454"}, {"type": "electric_scooter", "is_reserved": 0, "is_disabled": 0, "fusion_lat": 0.0, "name": "f3379b13140c5d429266d51eb4cb78ca", "rental_uris": {"android": "https://dc.lft.to/lastmile_qr_scan", "ios": "https://dc.lft.to/lastmile_qr_scan"}, "fusion_lon": 0.0, "lat": 38.90617566666667, "lon": -77.04370783333333, "bike_id": "f3379b13140c5d429266d51eb4cb78ca"}, {"type": "electric_scooter", "is_reserved": 0, "is_disabled": 0, "fusion_lat": 0.0, "name": "4c9402ca4e6b58e5e3a12c8c2ee528ad", "rental_uris": {"android": "https://dc.lft.to/lastmile_qr_scan", "ios": "https://dc.lft.to/lastmile_qr_scan"}, "fusion_lon": 0.0, "lat": 38.92584866666667, "lon": -77.05057633333334, "bike_id": "4c9402ca4e6b58e5e3a12c8c2ee528ad"}, {"type": "electric_scooter", "is_reserved": 0, "is_disabled": 0, "fusion_lat": 0.0, "name": "2a8e725a15470dec4fb972d25cd37aaa", "rental_uris": {"android": "https://dc.lft.to/lastmile_qr_scan", "ios": "https://dc.lft.to/lastmile_qr_scan"}, "fusion_lon": 0.0, "lat": 38.908144, "lon": -77.0346235, "bike_id": "2a8e725a15470dec4fb972d25cd37aaa"}, {"type": "electric_scooter", "is_reserved": 0, "is_disabled": 0, "fusion_lat": 0.0, "name": "cfbf92bdfa2b97cbf1fc8804769e0222", "rental_uris": {"android": "https://dc.lft.to/lastmile_qr_scan", "ios": "https://dc.lft.to/lastmile_qr_scan"}, "fusion_lon": 0.0, "lat": 38.88435466666667, "lon": -76.95765083333333, "bike_id": "cfbf92bdfa2b97cbf1fc8804769e0222"}, {"type": "electric_scooter", "is_reserved": 0, "is_disabled": 0, "fusion_lat": 0.0, "name": "5cddbea5dd53400617c8183fcaf7f933", "rental_uris": {"android": "https://dc.lft.to/lastmile_qr_scan", "ios": "https://dc.lft.to/lastmile_qr_scan"}, "fusion_lon": 0.0, "lat": 38.8976915, "lon": -77.03204133333334, "bike_id": "5cddbea5dd53400617c8183fcaf7f933"}, {"type": "electric_scooter", "is_reserved": 0, "is_disabled": 0, "fusion_lat": 0.0, "name": "4651d0fd904ad6faf6445407481d4c71", "rental_uris": {"android": "https://dc.lft.to/lastmile_qr_scan", "ios": "https://dc.lft.to/lastmile_qr_scan"}, "fusion_lon": 0.0, "lat": 38.8904625, "lon": -76.93760066666667, "bike_id": "4651d0fd904ad6faf6445407481d4c71"}, {"type": "electric_scooter", "is_reserved": 0, "is_disabled": 0, "fusion_lat": 0.0, "name": "c79eb206bbf185075f9a68b0902c17e3", "rental_uris": {"android": "https://dc.lft.to/lastmile_qr_scan", "ios": "https://dc.lft.to/lastmile_qr_scan"}, "fusion_lon": 0.0, "lat": 38.90549466666667, "lon": -77.0465695, "bike_id": "c79eb206bbf185075f9a68b0902c17e3"}, {"type": "electric_scooter", "is_reserved": 0, "is_disabled": 0, "fusion_lat": 0.0, "name": "f8d6dacbf6a315a795b4637bbd511b48", "rental_uris": {"android": "https://dc.lft.to/lastmile_qr_scan", "ios": "https://dc.lft.to/lastmile_qr_scan"}, "fusion_lon": 0.0, "lat": 38.91666716666667, "lon": -77.027091, "bike_id": "f8d6dacbf6a315a795b4637bbd511b48"}, {"type": "electric_scooter", "is_reserved": 0, "is_disabled": 0, "fusion_lat": 0.0, "name": "ee0cf72384e5a518dccc46f79f124d98", "rental_uris": {"android": "https://dc.lft.to/lastmile_qr_scan", "ios": "https://dc.lft.to/lastmile_qr_scan"}, "fusion_lon": 0.0, "lat": 38.90529883333333, "lon": -77.06527633333333, "bike_id": "ee0cf72384e5a518dccc46f79f124d98"}, {"type": "electric_scooter", "is_reserved": 0, "is_disabled": 0, "fusion_lat": 0.0, "name": "f36c83485328bb38f58318f3436d8595", "rental_uris": {"android": "https://dc.lft.to/lastmile_qr_scan", "ios": "https://dc.lft.to/lastmile_qr_scan"}, "fusion_lon": 0.0, "lat": 38.89455816666667, "lon": -77.04676033333334, "bike_id": "f36c83485328bb38f58318f3436d8595"}, {"type": "electric_scooter", "is_reserved": 0, "is_disabled": 0, "fusion_lat": 0.0, "name": "fe4f013c220020114b357a4eff40013e", "rental_uris": {"android": "https://dc.lft.to/lastmile_qr_scan", "ios": "https://dc.lft.to/lastmile_qr_scan"}, "fusion_lon": 0.0, "lat": 38.89759466666667, "lon": -77.03194316666666, "bike_id": "fe4f013c220020114b357a4eff40013e"}, {"type": "electric_scooter", "is_reserved": 0, "is_disabled": 0, "fusion_lat": 0.0, "name": "2e6a4f25b0303ef03836dc83364b111a", "rental_uris": {"android": "https://dc.lft.to/lastmile_qr_scan", "ios": "https://dc.lft.to/lastmile_qr_scan"}, "fusion_lon": 0.0, "lat": 38.88505883333333, "lon": -77.03344866666667, "bike_id": "2e6a4f25b0303ef03836dc83364b111a"}, {"type": "electric_scooter", "is_reserved": 0, "is_disabled": 0, "fusion_lat": 0.0, "name": "0816703bf796db77758029048c7ebb9f", "rental_uris": {"android": "https://dc.lft.to/lastmile_qr_scan", "ios": "https://dc.lft.to/lastmile_qr_scan"}, "fusion_lon": 0.0, "lat": 38.898412, "lon": -77.04362633333334, "bike_id": "0816703bf796db77758029048c7ebb9f"}, {"type": "electric_scooter", "is_reserved": 0, "is_disabled": 0, "fusion_lat": 0.0, "name": "d6faa180c9fbc48e4cdcc911cdb2a8d5", "rental_uris": {"android": "https://dc.lft.to/lastmile_qr_scan", "ios": "https://dc.lft.to/lastmile_qr_scan"}, "fusion_lon": 0.0, "lat": 38.9401445, "lon": -77.0717595, "bike_id": "d6faa180c9fbc48e4cdcc911cdb2a8d5"}, {"type": "electric_scooter", "is_reserved": 0, "is_disabled": 0, "fusion_lat": 0.0, "name": "b8b413f4673c8b0ccc1f2793c7fe55b8", "rental_uris": {"android": "https://dc.lft.to/lastmile_qr_scan", "ios": "https://dc.lft.to/lastmile_qr_scan"}, "fusion_lon": 0.0, "lat": 38.891950333333334, "lon": -77.02385316666667, "bike_id": "b8b413f4673c8b0ccc1f2793c7fe55b8"}, {"type": "electric_scooter", "is_reserved": 0, "is_disabled": 0, "fusion_lat": 0.0, "name": "1afffd37f4219274d4efd1e44d30d857", "rental_uris": {"android": "https://dc.lft.to/lastmile_qr_scan", "ios": "https://dc.lft.to/lastmile_qr_scan"}, "fusion_lon": 0.0, "lat": 38.87498183333334, "lon": -76.99797833333334, "bike_id": "1afffd37f4219274d4efd1e44d30d857"}, {"type": "electric_scooter", "is_reserved": 0, "is_disabled": 0, "fusion_lat": 0.0, "name": "d7d3c2ccc837957c920206f5f09c135f", "rental_uris": {"android": "https://dc.lft.to/lastmile_qr_scan", "ios": "https://dc.lft.to/lastmile_qr_scan"}, "fusion_lon": 0.0, "lat": 38.92412016666667, "lon": -77.0224105, "bike_id": "d7d3c2ccc837957c920206f5f09c135f"}, {"type": "electric_bike", "is_reserved": 0, "is_disabled": 0, "fusion_lat": 0.0, "name": "3a0206b3845a31a9bdaa3ddfe14420d9", "rental_uris": {"android": "https://dc.lft.to/lastmile_qr_scan", "ios": "https://dc.lft.to/lastmile_qr_scan"}, "fusion_lon": 0.0, "lat": 38.8853435, "lon": -77.1412905, "bike_id": "3a0206b3845a31a9bdaa3ddfe14420d9"}, {"type": "electric_scooter", "is_reserved": 0, "is_disabled": 0, "fusion_lat": 0.0, "name": "f2511a88ea04c661d7161558176b44e3", "rental_uris": {"android": "https://dc.lft.to/lastmile_qr_scan", "ios": "https://dc.lft.to/lastmile_qr_scan"}, "fusion_lon": 0.0, "lat": 38.89903833333334, "lon": -76.93353666666667, "bike_id": "f2511a88ea04c661d7161558176b44e3"}, {"type": "electric_scooter", "is_reserved": 0, "is_disabled": 0, "fusion_lat": 0.0, "name": "7ceae190ed87ae9a34aedb40899099c6", "rental_uris": {"android": "https://dc.lft.to/lastmile_qr_scan", "ios": "https://dc.lft.to/lastmile_qr_scan"}, "fusion_lon": 0.0, "lat": 38.90419333333333, "lon": -77.02084366666666, "bike_id": "7ceae190ed87ae9a34aedb40899099c6"}, {"type": "electric_scooter", "is_reserved": 0, "is_disabled": 0, "fusion_lat": 0.0, "name": "6acb56e733395d6908bf2cafa6f52782", "rental_uris": {"android": "https://dc.lft.to/lastmile_qr_scan", "ios": "https://dc.lft.to/lastmile_qr_scan"}, "fusion_lon": 0.0, "lat": 38.908002333333336, "lon": -77.03420183333333, "bike_id": "6acb56e733395d6908bf2cafa6f52782"}, {"type": "electric_scooter", "is_reserved": 0, "is_disabled": 0, "fusion_lat": 0.0, "name": "e64546c2c80ce67a4f0abcad8aac73d2", "rental_uris": {"android": "https://dc.lft.to/lastmile_qr_scan", "ios": "https://dc.lft.to/lastmile_qr_scan"}, "fusion_lon": 0.0, "lat": 38.85811966666667, "lon": -76.9899315, "bike_id": "e64546c2c80ce67a4f0abcad8aac73d2"}, {"type": "electric_scooter", "is_reserved": 0, "is_disabled": 0, "fusion_lat": 0.0, "name": "3b2e9986f24c7179766801630adf24d1", "rental_uris": {"android": "https://dc.lft.to/lastmile_qr_scan", "ios": "https://dc.lft.to/lastmile_qr_scan"}, "fusion_lon": 0.0, "lat": 38.883233, "lon": -76.93458383333333, "bike_id": "3b2e9986f24c7179766801630adf24d1"}, {"type": "electric_scooter", "is_reserved": 0, "is_disabled": 0, "fusion_lat": 0.0, "name": "f9b9c5acd5d38db289d7af3d5243a89a", "rental_uris": {"android": "https://dc.lft.to/lastmile_qr_scan", "ios": "https://dc.lft.to/lastmile_qr_scan"}, "fusion_lon": 0.0, "lat": 38.897494333333334, "lon": -77.0453865, "bike_id": "f9b9c5acd5d38db289d7af3d5243a89a"}, {"type": "electric_scooter", "is_reserved": 0, "is_disabled": 0, "fusion_lat": 0.0, "name": "11b7b76c12ac63c25c598fc0c95ad9b6", "rental_uris": {"android": "https://dc.lft.to/lastmile_qr_scan", "ios": "https://dc.lft.to/lastmile_qr_scan"}, "fusion_lon": 0.0, "lat": 38.901355833333334, "lon": -77.0449435, "bike_id": "11b7b76c12ac63c25c598fc0c95ad9b6"}, {"type": "electric_scooter", "is_reserved": 0, "is_disabled": 0, "fusion_lat": 0.0, "name": "126afd1039ffd1e853a851e969db892d", "rental_uris": {"android": "https://dc.lft.to/lastmile_qr_scan", "ios": "https://dc.lft.to/lastmile_qr_scan"}, "fusion_lon": 0.0, "lat": 38.90525483333333, "lon": -77.06380033333333, "bike_id": "126afd1039ffd1e853a851e969db892d"}, {"type": "electric_scooter", "is_reserved": 0, "is_disabled": 0, "fusion_lat": 0.0, "name": "71551ff46b32764f90a415074e5b74b8", "rental_uris": {"android": "https://dc.lft.to/lastmile_qr_scan", "ios": "https://dc.lft.to/lastmile_qr_scan"}, "fusion_lon": 0.0, "lat": 38.891227, "lon": -76.94093583333333, "bike_id": "71551ff46b32764f90a415074e5b74b8"}, {"type": "electric_bike", "is_reserved": 0, "is_disabled": 0, "fusion_lat": 0.0, "name": "8b0a7cad196fad82c76db2afe95c61c9", "rental_uris": {"android": "https://dc.lft.to/lastmile_qr_scan", "ios": "https://dc.lft.to/lastmile_qr_scan"}, "fusion_lon": 0.0, "lat": 39.0159225, "lon": -77.044307, "bike_id": "8b0a7cad196fad82c76db2afe95c61c9"}, {"type": "electric_scooter", "is_reserved": 0, "is_disabled": 0, "fusion_lat": 0.0, "name": "ec1fb869e439a11bedf5b492d7779e22", "rental_uris": {"android": "https://dc.lft.to/lastmile_qr_scan", "ios": "https://dc.lft.to/lastmile_qr_scan"}, "fusion_lon": 0.0, "lat": 38.907839, "lon": -77.04875866666667, "bike_id": "ec1fb869e439a11bedf5b492d7779e22"}, {"type": "electric_scooter", "is_reserved": 0, "is_disabled": 0, "fusion_lat": 0.0, "name": "f2d6ca9529cc61995f944879a1298905", "rental_uris": {"android": "https://dc.lft.to/lastmile_qr_scan", "ios": "https://dc.lft.to/lastmile_qr_scan"}, "fusion_lon": 0.0, "lat": 38.91082566666667, "lon": -77.07644233333333, "bike_id": "f2d6ca9529cc61995f944879a1298905"}, {"type": "electric_scooter", "is_reserved": 0, "is_disabled": 0, "fusion_lat": 0.0, "name": "1de04eda233e9eeaf98df57f8d4fba45", "rental_uris": {"android": "https://dc.lft.to/lastmile_qr_scan", "ios": "https://dc.lft.to/lastmile_qr_scan"}, "fusion_lon": 0.0, "lat": 38.900039666666665, "lon": -76.99852716666666, "bike_id": "1de04eda233e9eeaf98df57f8d4fba45"}, {"type": "electric_scooter", "is_reserved": 0, "is_disabled": 0, "fusion_lat": 0.0, "name": "718c95a44a90625577e6cc685681c230", "rental_uris": {"android": "https://dc.lft.to/lastmile_qr_scan", "ios": "https://dc.lft.to/lastmile_qr_scan"}, "fusion_lon": 0.0, "lat": 38.9031235, "lon": -77.05170116666666, "bike_id": "718c95a44a90625577e6cc685681c230"}, {"type": "electric_scooter", "is_reserved": 0, "is_disabled": 0, "fusion_lat": 0.0, "name": "66ff5aa8eef96d46850c9df5b593f624", "rental_uris": {"android": "https://dc.lft.to/lastmile_qr_scan", "ios": "https://dc.lft.to/lastmile_qr_scan"}, "fusion_lon": 0.0, "lat": 38.8813035, "lon": -77.027084, "bike_id": "66ff5aa8eef96d46850c9df5b593f624"}, {"type": "electric_scooter", "is_reserved": 0, "is_disabled": 0, "fusion_lat": 0.0, "name": "f23115c1ea2e0b99a22d772ba0e07c65", "rental_uris": {"android": "https://dc.lft.to/lastmile_qr_scan", "ios": "https://dc.lft.to/lastmile_qr_scan"}, "fusion_lon": 0.0, "lat": 38.891985166666664, "lon": -77.02380633333334, "bike_id": "f23115c1ea2e0b99a22d772ba0e07c65"}, {"type": "electric_scooter", "is_reserved": 0, "is_disabled": 0, "fusion_lat": 0.0, "name": "2e0d210a5494f730e9e845dc16f680bd", "rental_uris": {"android": "https://dc.lft.to/lastmile_qr_scan", "ios": "https://dc.lft.to/lastmile_qr_scan"}, "fusion_lon": 0.0, "lat": 38.936107666666665, "lon": -77.0571745, "bike_id": "2e0d210a5494f730e9e845dc16f680bd"}, {"type": "electric_scooter", "is_reserved": 0, "is_disabled": 0, "fusion_lat": 0.0, "name": "dde0dff7673020edb4ad87a37d4e3ff9", "rental_uris": {"android": "https://dc.lft.to/lastmile_qr_scan", "ios": "https://dc.lft.to/lastmile_qr_scan"}, "fusion_lon": 0.0, "lat": 38.887050333333335, "lon": -77.02837383333333, "bike_id": "dde0dff7673020edb4ad87a37d4e3ff9"}, {"type": "electric_scooter", "is_reserved": 0, "is_disabled": 0, "fusion_lat": 0.0, "name": "c4b73f00d9217e34ab9bb5cd1b99360e", "rental_uris": {"android": "https://dc.lft.to/lastmile_qr_scan", "ios": "https://dc.lft.to/lastmile_qr_scan"}, "fusion_lon": 0.0, "lat": 38.9001635, "lon": -77.04030816666666, "bike_id": "c4b73f00d9217e34ab9bb5cd1b99360e"}, {"type": "electric_scooter", "is_reserved": 0, "is_disabled": 0, "fusion_lat": 0.0, "name": "ff1f19e97df3defdb8c381df1db98504", "rental_uris": {"android": "https://dc.lft.to/lastmile_qr_scan", "ios": "https://dc.lft.to/lastmile_qr_scan"}, "fusion_lon": 0.0, "lat": 38.92362933333333, "lon": -77.05132616666667, "bike_id": "ff1f19e97df3defdb8c381df1db98504"}, {"type": "electric_scooter", "is_reserved": 0, "is_disabled": 0, "fusion_lat": 0.0, "name": "cf87f3fced8d6a03e495bebb8f368c1f", "rental_uris": {"android": "https://dc.lft.to/lastmile_qr_scan", "ios": "https://dc.lft.to/lastmile_qr_scan"}, "fusion_lon": 0.0, "lat": 38.92238416666667, "lon": -77.03354666666667, "bike_id": "cf87f3fced8d6a03e495bebb8f368c1f"}, {"type": "electric_scooter", "is_reserved": 0, "is_disabled": 0, "fusion_lat": 0.0, "name": "884eeaa448ee38e936e2db739291dc1f", "rental_uris": {"android": "https://dc.lft.to/lastmile_qr_scan", "ios": "https://dc.lft.to/lastmile_qr_scan"}, "fusion_lon": 0.0, "lat": 38.931483166666666, "lon": -77.03832816666667, "bike_id": "884eeaa448ee38e936e2db739291dc1f"}, {"type": "electric_scooter", "is_reserved": 0, "is_disabled": 0, "fusion_lat": 0.0, "name": "2fa3d919defda49701c6514d81fe34e7", "rental_uris": {"android": "https://dc.lft.to/lastmile_qr_scan", "ios": "https://dc.lft.to/lastmile_qr_scan"}, "fusion_lon": 0.0, "lat": 38.8923145, "lon": -77.02207433333334, "bike_id": "2fa3d919defda49701c6514d81fe34e7"}, {"type": "electric_scooter", "is_reserved": 0, "is_disabled": 0, "fusion_lat": 0.0, "name": "672b8110bd0094432f7f5c151bb14bb8", "rental_uris": {"android": "https://dc.lft.to/lastmile_qr_scan", "ios": "https://dc.lft.to/lastmile_qr_scan"}, "fusion_lon": 0.0, "lat": 38.881985, "lon": -77.00600916666667, "bike_id": "672b8110bd0094432f7f5c151bb14bb8"}, {"type": "electric_scooter", "is_reserved": 0, "is_disabled": 0, "fusion_lat": 0.0, "name": "adf0a0a192335bfbe3207abbae173ffe", "rental_uris": {"android": "https://dc.lft.to/lastmile_qr_scan", "ios": "https://dc.lft.to/lastmile_qr_scan"}, "fusion_lon": 0.0, "lat": 38.929742, "lon": -77.02820466666667, "bike_id": "adf0a0a192335bfbe3207abbae173ffe"}, {"type": "electric_scooter", "is_reserved": 0, "is_disabled": 0, "fusion_lat": 0.0, "name": "017c9fb173edcf6d4d9f47e603699697", "rental_uris": {"android": "https://dc.lft.to/lastmile_qr_scan", "ios": "https://dc.lft.to/lastmile_qr_scan"}, "fusion_lon": 0.0, "lat": 38.9386325, "lon": -77.030474, "bike_id": "017c9fb173edcf6d4d9f47e603699697"}, {"type": "electric_scooter", "is_reserved": 0, "is_disabled": 0, "fusion_lat": 0.0, "name": "cfd63c872d0b9487a941f168f0068a5a", "rental_uris": {"android": "https://dc.lft.to/lastmile_qr_scan", "ios": "https://dc.lft.to/lastmile_qr_scan"}, "fusion_lon": 0.0, "lat": 38.907159666666665, "lon": -77.0434895, "bike_id": "cfd63c872d0b9487a941f168f0068a5a"}, {"type": "electric_scooter", "is_reserved": 0, "is_disabled": 0, "fusion_lat": 0.0, "name": "8db7512ea204f91bc5543483c529a909", "rental_uris": {"android": "https://dc.lft.to/lastmile_qr_scan", "ios": "https://dc.lft.to/lastmile_qr_scan"}, "fusion_lon": 0.0, "lat": 38.910980333333335, "lon": -77.03184016666667, "bike_id": "8db7512ea204f91bc5543483c529a909"}, {"type": "electric_scooter", "is_reserved": 0, "is_disabled": 0, "fusion_lat": 0.0, "name": "84446bf75121918b7041c1f75e8b67df", "rental_uris": {"android": "https://dc.lft.to/lastmile_qr_scan", "ios": "https://dc.lft.to/lastmile_qr_scan"}, "fusion_lon": 0.0, "lat": 38.94629883333333, "lon": -77.0252195, "bike_id": "84446bf75121918b7041c1f75e8b67df"}, {"type": "electric_scooter", "is_reserved": 0, "is_disabled": 0, "fusion_lat": 0.0, "name": "ac84054c022338834f55c5a18440db3e", "rental_uris": {"android": "https://dc.lft.to/lastmile_qr_scan", "ios": "https://dc.lft.to/lastmile_qr_scan"}, "fusion_lon": 0.0, "lat": 38.91807633333333, "lon": -77.03167633333334, "bike_id": "ac84054c022338834f55c5a18440db3e"}, {"type": "electric_scooter", "is_reserved": 0, "is_disabled": 0, "fusion_lat": 0.0, "name": "3fb84cae6fd517ad4c3bcaa6b369c335", "rental_uris": {"android": "https://dc.lft.to/lastmile_qr_scan", "ios": "https://dc.lft.to/lastmile_qr_scan"}, "fusion_lon": 0.0, "lat": 38.91705733333333, "lon": -77.02957433333333, "bike_id": "3fb84cae6fd517ad4c3bcaa6b369c335"}, {"type": "electric_scooter", "is_reserved": 0, "is_disabled": 0, "fusion_lat": 0.0, "name": "dc8d0383860c915d280ac2e376d6eb92", "rental_uris": {"android": "https://dc.lft.to/lastmile_qr_scan", "ios": "https://dc.lft.to/lastmile_qr_scan"}, "fusion_lon": 0.0, "lat": 38.9134025, "lon": -77.01063533333334, "bike_id": "dc8d0383860c915d280ac2e376d6eb92"}, {"type": "electric_scooter", "is_reserved": 0, "is_disabled": 0, "fusion_lat": 0.0, "name": "015dbe1783a945990a4e913f8d507d39", "rental_uris": {"android": "https://dc.lft.to/lastmile_qr_scan", "ios": "https://dc.lft.to/lastmile_qr_scan"}, "fusion_lon": 0.0, "lat": 38.906749166666664, "lon": -77.03830633333334, "bike_id": "015dbe1783a945990a4e913f8d507d39"}, {"type": "electric_scooter", "is_reserved": 0, "is_disabled": 0, "fusion_lat": 0.0, "name": "c45b4088d747e5ee97ac1d1658ffe5a5", "rental_uris": {"android": "https://dc.lft.to/lastmile_qr_scan", "ios": "https://dc.lft.to/lastmile_qr_scan"}, "fusion_lon": 0.0, "lat": 38.89850166666667, "lon": -77.03327316666666, "bike_id": "c45b4088d747e5ee97ac1d1658ffe5a5"}, {"type": "electric_scooter", "is_reserved": 0, "is_disabled": 0, "fusion_lat": 0.0, "name": "2739e905cff17bb8a625f50926acaacb", "rental_uris": {"android": "https://dc.lft.to/lastmile_qr_scan", "ios": "https://dc.lft.to/lastmile_qr_scan"}, "fusion_lon": 0.0, "lat": 38.939383666666664, "lon": -77.061112, "bike_id": "2739e905cff17bb8a625f50926acaacb"}, {"type": "electric_bike", "is_reserved": 0, "is_disabled": 0, "fusion_lat": 0.0, "name": "20e293a038f306c36e45e1266f8b99b1", "rental_uris": {"android": "https://dc.lft.to/lastmile_qr_scan", "ios": "https://dc.lft.to/lastmile_qr_scan"}, "fusion_lon": 0.0, "lat": 38.86398283333333, "lon": -76.9739665, "bike_id": "20e293a038f306c36e45e1266f8b99b1"}, {"type": "electric_scooter", "is_reserved": 0, "is_disabled": 0, "fusion_lat": 0.0, "name": "63115fefaa0801cddb88bb6c819a2afc", "rental_uris": {"android": "https://dc.lft.to/lastmile_qr_scan", "ios": "https://dc.lft.to/lastmile_qr_scan"}, "fusion_lon": 0.0, "lat": 38.90584583333333, "lon": -77.04874266666667, "bike_id": "63115fefaa0801cddb88bb6c819a2afc"}, {"type": "electric_scooter", "is_reserved": 0, "is_disabled": 0, "fusion_lat": 0.0, "name": "b450ddbf99dc8d2c20da789c9699b2dd", "rental_uris": {"android": "https://dc.lft.to/lastmile_qr_scan", "ios": "https://dc.lft.to/lastmile_qr_scan"}, "fusion_lon": 0.0, "lat": 38.865212666666665, "lon": -76.990408, "bike_id": "b450ddbf99dc8d2c20da789c9699b2dd"}, {"type": "electric_scooter", "is_reserved": 0, "is_disabled": 0, "fusion_lat": 0.0, "name": "d404b5a51410c338a15c02e3ab1719d9", "rental_uris": {"android": "https://dc.lft.to/lastmile_qr_scan", "ios": "https://dc.lft.to/lastmile_qr_scan"}, "fusion_lon": 0.0, "lat": 38.892231333333335, "lon": -77.04869616666667, "bike_id": "d404b5a51410c338a15c02e3ab1719d9"}, {"type": "electric_scooter", "is_reserved": 0, "is_disabled": 0, "fusion_lat": 0.0, "name": "70bdeaa39011271a9f81962c275063bf", "rental_uris": {"android": "https://dc.lft.to/lastmile_qr_scan", "ios": "https://dc.lft.to/lastmile_qr_scan"}, "fusion_lon": 0.0, "lat": 38.8927005, "lon": -77.02607333333333, "bike_id": "70bdeaa39011271a9f81962c275063bf"}, {"type": "electric_scooter", "is_reserved": 0, "is_disabled": 0, "fusion_lat": 0.0, "name": "f7122afea7d9a4803291f26d23990d4e", "rental_uris": {"android": "https://dc.lft.to/lastmile_qr_scan", "ios": "https://dc.lft.to/lastmile_qr_scan"}, "fusion_lon": 0.0, "lat": 38.86180616666667, "lon": -76.99427633333333, "bike_id": "f7122afea7d9a4803291f26d23990d4e"}, {"type": "electric_scooter", "is_reserved": 0, "is_disabled": 0, "fusion_lat": 0.0, "name": "e32ef024a3cf985d54fc807b6ba21282", "rental_uris": {"android": "https://dc.lft.to/lastmile_qr_scan", "ios": "https://dc.lft.to/lastmile_qr_scan"}, "fusion_lon": 0.0, "lat": 38.892290333333335, "lon": -77.04642, "bike_id": "e32ef024a3cf985d54fc807b6ba21282"}, {"type": "electric_scooter", "is_reserved": 0, "is_disabled": 0, "fusion_lat": 0.0, "name": "cbfa3b8cce8275cc9af7ca16c32c2de8", "rental_uris": {"android": "https://dc.lft.to/lastmile_qr_scan", "ios": "https://dc.lft.to/lastmile_qr_scan"}, "fusion_lon": 0.0, "lat": 38.903530833333335, "lon": -77.0263665, "bike_id": "cbfa3b8cce8275cc9af7ca16c32c2de8"}, {"type": "electric_scooter", "is_reserved": 0, "is_disabled": 0, "fusion_lat": 0.0, "name": "fbce1720d47a0ab16ce15871439a3095", "rental_uris": {"android": "https://dc.lft.to/lastmile_qr_scan", "ios": "https://dc.lft.to/lastmile_qr_scan"}, "fusion_lon": 0.0, "lat": 38.90721383333333, "lon": -77.02350483333333, "bike_id": "fbce1720d47a0ab16ce15871439a3095"}, {"type": "electric_scooter", "is_reserved": 0, "is_disabled": 0, "fusion_lat": 0.0, "name": "7a4a5f0ae43f14c7dd31d5277eae9a1b", "rental_uris": {"android": "https://dc.lft.to/lastmile_qr_scan", "ios": "https://dc.lft.to/lastmile_qr_scan"}, "fusion_lon": 0.0, "lat": 38.880338333333334, "lon": -77.019228, "bike_id": "7a4a5f0ae43f14c7dd31d5277eae9a1b"}, {"type": "electric_bike", "is_reserved": 0, "is_disabled": 0, "fusion_lat": 0.0, "name": "717054f2fb421977ec3ef295826e1ea5", "rental_uris": {"android": "https://dc.lft.to/lastmile_qr_scan", "ios": "https://dc.lft.to/lastmile_qr_scan"}, "fusion_lon": 0.0, "lat": 38.90558516666667, "lon": -76.997942, "bike_id": "717054f2fb421977ec3ef295826e1ea5"}, {"type": "electric_scooter", "is_reserved": 0, "is_disabled": 0, "fusion_lat": 0.0, "name": "217bc657843efada1f7cb4640a6e7f9f", "rental_uris": {"android": "https://dc.lft.to/lastmile_qr_scan", "ios": "https://dc.lft.to/lastmile_qr_scan"}, "fusion_lon": 0.0, "lat": 38.91362433333333, "lon": -77.03982083333334, "bike_id": "217bc657843efada1f7cb4640a6e7f9f"}, {"type": "electric_scooter", "is_reserved": 0, "is_disabled": 0, "fusion_lat": 0.0, "name": "56c36fbbf2343375ada94990dbba23dc", "rental_uris": {"android": "https://dc.lft.to/lastmile_qr_scan", "ios": "https://dc.lft.to/lastmile_qr_scan"}, "fusion_lon": 0.0, "lat": 38.917517333333336, "lon": -77.03181033333334, "bike_id": "56c36fbbf2343375ada94990dbba23dc"}, {"type": "electric_scooter", "is_reserved": 0, "is_disabled": 0, "fusion_lat": 0.0, "name": "2d052f6f8a7d9c76727272589f3dfdbd", "rental_uris": {"android": "https://dc.lft.to/lastmile_qr_scan", "ios": "https://dc.lft.to/lastmile_qr_scan"}, "fusion_lon": 0.0, "lat": 38.90513516666667, "lon": -77.04343433333334, "bike_id": "2d052f6f8a7d9c76727272589f3dfdbd"}, {"type": "electric_bike", "is_reserved": 0, "is_disabled": 0, "fusion_lat": 0.0, "name": "f970540b02db60f92d417ccf4ee342c8", "rental_uris": {"android": "https://dc.lft.to/lastmile_qr_scan", "ios": "https://dc.lft.to/lastmile_qr_scan"}, "fusion_lon": 0.0, "lat": 38.9367385, "lon": -76.95220733333333, "bike_id": "f970540b02db60f92d417ccf4ee342c8"}, {"type": "electric_bike", "is_reserved": 0, "is_disabled": 0, "fusion_lat": 0.0, "name": "4e537517fae167b3086d8667d670e117", "rental_uris": {"android": "https://dc.lft.to/lastmile_qr_scan", "ios": "https://dc.lft.to/lastmile_qr_scan"}, "fusion_lon": 0.0, "lat": 38.870111, "lon": -76.96023016666666, "bike_id": "4e537517fae167b3086d8667d670e117"}, {"type": "electric_scooter", "is_reserved": 0, "is_disabled": 0, "fusion_lat": 0.0, "name": "15f9e6f7fc4ff0ef029d17f4e3e3b50e", "rental_uris": {"android": "https://dc.lft.to/lastmile_qr_scan", "ios": "https://dc.lft.to/lastmile_qr_scan"}, "fusion_lon": 0.0, "lat": 38.934997333333335, "lon": -77.0580655, "bike_id": "15f9e6f7fc4ff0ef029d17f4e3e3b50e"}, {"type": "electric_scooter", "is_reserved": 0, "is_disabled": 0, "fusion_lat": 0.0, "name": "7f4d66c19c7073bb872b037761e2a15b", "rental_uris": {"android": "https://dc.lft.to/lastmile_qr_scan", "ios": "https://dc.lft.to/lastmile_qr_scan"}, "fusion_lon": 0.0, "lat": 38.912754166666666, "lon": -77.04507816666667, "bike_id": "7f4d66c19c7073bb872b037761e2a15b"}, {"type": "electric_scooter", "is_reserved": 0, "is_disabled": 0, "fusion_lat": 0.0, "name": "27b60d7abd8fccadd30d4dd90fb62ba8", "rental_uris": {"android": "https://dc.lft.to/lastmile_qr_scan", "ios": "https://dc.lft.to/lastmile_qr_scan"}, "fusion_lon": 0.0, "lat": 38.91701533333333, "lon": -77.03323733333333, "bike_id": "27b60d7abd8fccadd30d4dd90fb62ba8"}, {"type": "electric_scooter", "is_reserved": 0, "is_disabled": 0, "fusion_lat": 0.0, "name": "da82419e5fd42c2a040c1029a3e5f11e", "rental_uris": {"android": "https://dc.lft.to/lastmile_qr_scan", "ios": "https://dc.lft.to/lastmile_qr_scan"}, "fusion_lon": 0.0, "lat": 38.9362395, "lon": -77.08174083333333, "bike_id": "da82419e5fd42c2a040c1029a3e5f11e"}, {"type": "electric_scooter", "is_reserved": 0, "is_disabled": 0, "fusion_lat": 0.0, "name": "a29e4cbd49e940e16d26bc4c543fc8f4", "rental_uris": {"android": "https://dc.lft.to/lastmile_qr_scan", "ios": "https://dc.lft.to/lastmile_qr_scan"}, "fusion_lon": 0.0, "lat": 38.905002333333336, "lon": -76.97926533333333, "bike_id": "a29e4cbd49e940e16d26bc4c543fc8f4"}, {"type": "electric_scooter", "is_reserved": 0, "is_disabled": 0, "fusion_lat": 0.0, "name": "cac55bc4221d917db46e7e41fff83b5e", "rental_uris": {"android": "https://dc.lft.to/lastmile_qr_scan", "ios": "https://dc.lft.to/lastmile_qr_scan"}, "fusion_lon": 0.0, "lat": 38.913936, "lon": -77.0435505, "bike_id": "cac55bc4221d917db46e7e41fff83b5e"}, {"type": "electric_scooter", "is_reserved": 0, "is_disabled": 0, "fusion_lat": 0.0, "name": "3edeab8dd985ac78924d71b5fb53efc5", "rental_uris": {"android": "https://dc.lft.to/lastmile_qr_scan", "ios": "https://dc.lft.to/lastmile_qr_scan"}, "fusion_lon": 0.0, "lat": 38.8368825, "lon": -77.00590333333334, "bike_id": "3edeab8dd985ac78924d71b5fb53efc5"}, {"type": "electric_scooter", "is_reserved": 0, "is_disabled": 0, "fusion_lat": 0.0, "name": "a67b8cd082da2edfca8ce6075bf1fb35", "rental_uris": {"android": "https://dc.lft.to/lastmile_qr_scan", "ios": "https://dc.lft.to/lastmile_qr_scan"}, "fusion_lon": 0.0, "lat": 38.89656883333333, "lon": -77.02709633333333, "bike_id": "a67b8cd082da2edfca8ce6075bf1fb35"}, {"type": "electric_scooter", "is_reserved": 0, "is_disabled": 0, "fusion_lat": 0.0, "name": "131c884d1260f7e7f448751784557c9e", "rental_uris": {"android": "https://dc.lft.to/lastmile_qr_scan", "ios": "https://dc.lft.to/lastmile_qr_scan"}, "fusion_lon": 0.0, "lat": 38.9235395, "lon": -77.03510366666667, "bike_id": "131c884d1260f7e7f448751784557c9e"}, {"type": "electric_scooter", "is_reserved": 0, "is_disabled": 0, "fusion_lat": 0.0, "name": "0c68b51d99f30b688737f81e04f81e52", "rental_uris": {"android": "https://dc.lft.to/lastmile_qr_scan", "ios": "https://dc.lft.to/lastmile_qr_scan"}, "fusion_lon": 0.0, "lat": 38.9223795, "lon": -77.04573416666666, "bike_id": "0c68b51d99f30b688737f81e04f81e52"}, {"type": "electric_scooter", "is_reserved": 0, "is_disabled": 0, "fusion_lat": 0.0, "name": "3aad77c5a5bf3f8d1f3bd01368905230", "rental_uris": {"android": "https://dc.lft.to/lastmile_qr_scan", "ios": "https://dc.lft.to/lastmile_qr_scan"}, "fusion_lon": 0.0, "lat": 38.940209, "lon": -77.07174066666667, "bike_id": "3aad77c5a5bf3f8d1f3bd01368905230"}, {"type": "electric_scooter", "is_reserved": 0, "is_disabled": 0, "fusion_lat": 0.0, "name": "ac27a83b80e2fd83c284c2adabc2479c", "rental_uris": {"android": "https://dc.lft.to/lastmile_qr_scan", "ios": "https://dc.lft.to/lastmile_qr_scan"}, "fusion_lon": 0.0, "lat": 38.90978, "lon": -77.03177566666666, "bike_id": "ac27a83b80e2fd83c284c2adabc2479c"}, {"type": "electric_scooter", "is_reserved": 0, "is_disabled": 0, "fusion_lat": 0.0, "name": "854a4b8ebdc2b06eeaa7de829dd31a0c", "rental_uris": {"android": "https://dc.lft.to/lastmile_qr_scan", "ios": "https://dc.lft.to/lastmile_qr_scan"}, "fusion_lon": 0.0, "lat": 38.9206635, "lon": -77.04377933333333, "bike_id": "854a4b8ebdc2b06eeaa7de829dd31a0c"}, {"type": "electric_scooter", "is_reserved": 0, "is_disabled": 0, "fusion_lat": 0.0, "name": "1762866e2b6df1226fb43d48c7783190", "rental_uris": {"android": "https://dc.lft.to/lastmile_qr_scan", "ios": "https://dc.lft.to/lastmile_qr_scan"}, "fusion_lon": 0.0, "lat": 38.911057166666666, "lon": -77.04358616666667, "bike_id": "1762866e2b6df1226fb43d48c7783190"}, {"type": "electric_scooter", "is_reserved": 0, "is_disabled": 0, "fusion_lat": 0.0, "name": "edcb3de7b50e5c177cbb8efacdedfe89", "rental_uris": {"android": "https://dc.lft.to/lastmile_qr_scan", "ios": "https://dc.lft.to/lastmile_qr_scan"}, "fusion_lon": 0.0, "lat": 38.914551833333334, "lon": -77.04633533333333, "bike_id": "edcb3de7b50e5c177cbb8efacdedfe89"}, {"type": "electric_scooter", "is_reserved": 0, "is_disabled": 0, "fusion_lat": 0.0, "name": "204813e3af701f32244e7a578ba76998", "rental_uris": {"android": "https://dc.lft.to/lastmile_qr_scan", "ios": "https://dc.lft.to/lastmile_qr_scan"}, "fusion_lon": 0.0, "lat": 38.898847, "lon": -76.93176583333333, "bike_id": "204813e3af701f32244e7a578ba76998"}, {"type": "electric_scooter", "is_reserved": 0, "is_disabled": 0, "fusion_lat": 0.0, "name": "7cc5113658465f3088479e8f34640f71", "rental_uris": {"android": "https://dc.lft.to/lastmile_qr_scan", "ios": "https://dc.lft.to/lastmile_qr_scan"}, "fusion_lon": 0.0, "lat": 38.904953666666664, "lon": -77.0627975, "bike_id": "7cc5113658465f3088479e8f34640f71"}, {"type": "electric_scooter", "is_reserved": 0, "is_disabled": 0, "fusion_lat": 0.0, "name": "37164b2325f7ff78b034739c837efe5f", "rental_uris": {"android": "https://dc.lft.to/lastmile_qr_scan", "ios": "https://dc.lft.to/lastmile_qr_scan"}, "fusion_lon": 0.0, "lat": 38.90637433333333, "lon": -77.043417, "bike_id": "37164b2325f7ff78b034739c837efe5f"}, {"type": "electric_scooter", "is_reserved": 0, "is_disabled": 0, "fusion_lat": 0.0, "name": "a8de7a3a46efaa4218e391a662a7a51b", "rental_uris": {"android": "https://dc.lft.to/lastmile_qr_scan", "ios": "https://dc.lft.to/lastmile_qr_scan"}, "fusion_lon": 0.0, "lat": 38.91712033333334, "lon": -77.034832, "bike_id": "a8de7a3a46efaa4218e391a662a7a51b"}, {"type": "electric_scooter", "is_reserved": 0, "is_disabled": 0, "fusion_lat": 0.0, "name": "ded3124536065c4cb6527f5f0820c8a0", "rental_uris": {"android": "https://dc.lft.to/lastmile_qr_scan", "ios": "https://dc.lft.to/lastmile_qr_scan"}, "fusion_lon": 0.0, "lat": 38.905429833333336, "lon": -77.04650833333334, "bike_id": "ded3124536065c4cb6527f5f0820c8a0"}, {"type": "electric_bike", "is_reserved": 0, "is_disabled": 0, "fusion_lat": 0.0, "name": "3e54d53eee8e19877f1ca301ced25f72", "rental_uris": {"android": "https://dc.lft.to/lastmile_qr_scan", "ios": "https://dc.lft.to/lastmile_qr_scan"}, "fusion_lon": 0.0, "lat": 38.850599333333335, "lon": -76.9733015, "bike_id": "3e54d53eee8e19877f1ca301ced25f72"}, {"type": "electric_bike", "is_reserved": 0, "is_disabled": 0, "fusion_lat": 0.0, "name": "5d5ba6a49d86afabfdf764607a5bf130", "rental_uris": {"android": "https://dc.lft.to/lastmile_qr_scan", "ios": "https://dc.lft.to/lastmile_qr_scan"}, "fusion_lon": 0.0, "lat": 38.93252433333333, "lon": -76.99748483333333, "bike_id": "5d5ba6a49d86afabfdf764607a5bf130"}, {"type": "electric_bike", "is_reserved": 0, "is_disabled": 0, "fusion_lat": 0.0, "name": "fa7c4690c33321b3fc34e6b360df434a", "rental_uris": {"android": "https://dc.lft.to/lastmile_qr_scan", "ios": "https://dc.lft.to/lastmile_qr_scan"}, "fusion_lon": 0.0, "lat": 38.86058933333333, "lon": -77.056413, "bike_id": "fa7c4690c33321b3fc34e6b360df434a"}, {"type": "electric_scooter", "is_reserved": 0, "is_disabled": 0, "fusion_lat": 0.0, "name": "3f3fe072a4861f556b89844eecff1d84", "rental_uris": {"android": "https://dc.lft.to/lastmile_qr_scan", "ios": "https://dc.lft.to/lastmile_qr_scan"}, "fusion_lon": 0.0, "lat": 38.919120666666664, "lon": -77.02499833333333, "bike_id": "3f3fe072a4861f556b89844eecff1d84"}, {"type": "electric_scooter", "is_reserved": 0, "is_disabled": 0, "fusion_lat": 0.0, "name": "0924ef904ff08d94d9c2b945d8376b0d", "rental_uris": {"android": "https://dc.lft.to/lastmile_qr_scan", "ios": "https://dc.lft.to/lastmile_qr_scan"}, "fusion_lon": 0.0, "lat": 38.914078833333335, "lon": -77.03153883333333, "bike_id": "0924ef904ff08d94d9c2b945d8376b0d"}, {"type": "electric_scooter", "is_reserved": 0, "is_disabled": 0, "fusion_lat": 0.0, "name": "b88a5d9e8d2142dff49d2e64d748b0d6", "rental_uris": {"android": "https://dc.lft.to/lastmile_qr_scan", "ios": "https://dc.lft.to/lastmile_qr_scan"}, "fusion_lon": 0.0, "lat": 38.910321, "lon": -77.03839733333334, "bike_id": "b88a5d9e8d2142dff49d2e64d748b0d6"}, {"type": "electric_scooter", "is_reserved": 0, "is_disabled": 0, "fusion_lat": 0.0, "name": "443c0043b051d1f1a652e7135db7c3dc", "rental_uris": {"android": "https://dc.lft.to/lastmile_qr_scan", "ios": "https://dc.lft.to/lastmile_qr_scan"}, "fusion_lon": 0.0, "lat": 38.9142095, "lon": -77.03260133333333, "bike_id": "443c0043b051d1f1a652e7135db7c3dc"}, {"type": "electric_scooter", "is_reserved": 0, "is_disabled": 0, "fusion_lat": 0.0, "name": "5f085692b40e859a0a388ab9ac0087be", "rental_uris": {"android": "https://dc.lft.to/lastmile_qr_scan", "ios": "https://dc.lft.to/lastmile_qr_scan"}, "fusion_lon": 0.0, "lat": 38.9198785, "lon": -76.9730605, "bike_id": "5f085692b40e859a0a388ab9ac0087be"}, {"type": "electric_scooter", "is_reserved": 0, "is_disabled": 0, "fusion_lat": 0.0, "name": "32e6b0545988d2fc25f7380777fcdb62", "rental_uris": {"android": "https://dc.lft.to/lastmile_qr_scan", "ios": "https://dc.lft.to/lastmile_qr_scan"}, "fusion_lon": 0.0, "lat": 38.9017885, "lon": -77.000047, "bike_id": "32e6b0545988d2fc25f7380777fcdb62"}, {"type": "electric_scooter", "is_reserved": 0, "is_disabled": 0, "fusion_lat": 0.0, "name": "8952bc333b99dc7532a7e2eed1577f49", "rental_uris": {"android": "https://dc.lft.to/lastmile_qr_scan", "ios": "https://dc.lft.to/lastmile_qr_scan"}, "fusion_lon": 0.0, "lat": 38.896267, "lon": -77.02970516666667, "bike_id": "8952bc333b99dc7532a7e2eed1577f49"}, {"type": "electric_scooter", "is_reserved": 0, "is_disabled": 0, "fusion_lat": 0.0, "name": "7091f932379121282003302de7cf6f18", "rental_uris": {"android": "https://dc.lft.to/lastmile_qr_scan", "ios": "https://dc.lft.to/lastmile_qr_scan"}, "fusion_lon": 0.0, "lat": 38.9288215, "lon": -77.01384966666667, "bike_id": "7091f932379121282003302de7cf6f18"}, {"type": "electric_scooter", "is_reserved": 0, "is_disabled": 0, "fusion_lat": 0.0, "name": "f5a6e26def07ee32ab9bb7f1a77edc63", "rental_uris": {"android": "https://dc.lft.to/lastmile_qr_scan", "ios": "https://dc.lft.to/lastmile_qr_scan"}, "fusion_lon": 0.0, "lat": 38.923675833333334, "lon": -77.057605, "bike_id": "f5a6e26def07ee32ab9bb7f1a77edc63"}, {"type": "electric_scooter", "is_reserved": 0, "is_disabled": 0, "fusion_lat": 0.0, "name": "8313b58649b263dcafabf01019b8cff1", "rental_uris": {"android": "https://dc.lft.to/lastmile_qr_scan", "ios": "https://dc.lft.to/lastmile_qr_scan"}, "fusion_lon": 0.0, "lat": 38.8978645, "lon": -77.022062, "bike_id": "8313b58649b263dcafabf01019b8cff1"}, {"type": "electric_bike", "is_reserved": 0, "is_disabled": 0, "fusion_lat": 0.0, "name": "798faf42122a21616a07143403b77e52", "rental_uris": {"android": "https://dc.lft.to/lastmile_qr_scan", "ios": "https://dc.lft.to/lastmile_qr_scan"}, "fusion_lon": 0.0, "lat": 38.932062333333334, "lon": -76.974255, "bike_id": "798faf42122a21616a07143403b77e52"}, {"type": "electric_scooter", "is_reserved": 0, "is_disabled": 0, "fusion_lat": 0.0, "name": "a9f6c3e4866fdd046759f92747362685", "rental_uris": {"android": "https://dc.lft.to/lastmile_qr_scan", "ios": "https://dc.lft.to/lastmile_qr_scan"}, "fusion_lon": 0.0, "lat": 38.907387666666665, "lon": -77.0318435, "bike_id": "a9f6c3e4866fdd046759f92747362685"}, {"type": "electric_scooter", "is_reserved": 0, "is_disabled": 0, "fusion_lat": 0.0, "name": "c05381ec03b67310264246b6d310da43", "rental_uris": {"android": "https://dc.lft.to/lastmile_qr_scan", "ios": "https://dc.lft.to/lastmile_qr_scan"}, "fusion_lon": 0.0, "lat": 38.903039166666666, "lon": -77.0344465, "bike_id": "c05381ec03b67310264246b6d310da43"}, {"type": "electric_scooter", "is_reserved": 0, "is_disabled": 0, "fusion_lat": 0.0, "name": "4d1250cf2cc8c4903ca4059d75e72455", "rental_uris": {"android": "https://dc.lft.to/lastmile_qr_scan", "ios": "https://dc.lft.to/lastmile_qr_scan"}, "fusion_lon": 0.0, "lat": 38.9097715, "lon": -77.03423833333333, "bike_id": "4d1250cf2cc8c4903ca4059d75e72455"}, {"type": "electric_scooter", "is_reserved": 0, "is_disabled": 0, "fusion_lat": 0.0, "name": "6494672c91144beeb23a41c9ba2b8fc3", "rental_uris": {"android": "https://dc.lft.to/lastmile_qr_scan", "ios": "https://dc.lft.to/lastmile_qr_scan"}, "fusion_lon": 0.0, "lat": 38.87228266666666, "lon": -77.0176345, "bike_id": "6494672c91144beeb23a41c9ba2b8fc3"}, {"type": "electric_scooter", "is_reserved": 0, "is_disabled": 0, "fusion_lat": 0.0, "name": "d4945cf41cc1a532344fad7d1114cf60", "rental_uris": {"android": "https://dc.lft.to/lastmile_qr_scan", "ios": "https://dc.lft.to/lastmile_qr_scan"}, "fusion_lon": 0.0, "lat": 38.92575816666667, "lon": -77.05769766666667, "bike_id": "d4945cf41cc1a532344fad7d1114cf60"}, {"type": "electric_scooter", "is_reserved": 0, "is_disabled": 0, "fusion_lat": 0.0, "name": "666450370d3bdd4aaaaca048cc04a682", "rental_uris": {"android": "https://dc.lft.to/lastmile_qr_scan", "ios": "https://dc.lft.to/lastmile_qr_scan"}, "fusion_lon": 0.0, "lat": 38.88438983333333, "lon": -77.03039933333334, "bike_id": "666450370d3bdd4aaaaca048cc04a682"}, {"type": "electric_scooter", "is_reserved": 0, "is_disabled": 0, "fusion_lat": 0.0, "name": "d2c3e9cd066ec4885852d79fb5b81a7b", "rental_uris": {"android": "https://dc.lft.to/lastmile_qr_scan", "ios": "https://dc.lft.to/lastmile_qr_scan"}, "fusion_lon": 0.0, "lat": 38.891975, "lon": -77.03108966666667, "bike_id": "d2c3e9cd066ec4885852d79fb5b81a7b"}, {"type": "electric_scooter", "is_reserved": 0, "is_disabled": 0, "fusion_lat": 0.0, "name": "8271742d08c5bd73acf3845b02cbf0ea", "rental_uris": {"android": "https://dc.lft.to/lastmile_qr_scan", "ios": "https://dc.lft.to/lastmile_qr_scan"}, "fusion_lon": 0.0, "lat": 38.90065, "lon": -76.93389516666667, "bike_id": "8271742d08c5bd73acf3845b02cbf0ea"}, {"type": "electric_scooter", "is_reserved": 0, "is_disabled": 0, "fusion_lat": 0.0, "name": "d580f1183c0b036bfc793ca165c11daf", "rental_uris": {"android": "https://dc.lft.to/lastmile_qr_scan", "ios": "https://dc.lft.to/lastmile_qr_scan"}, "fusion_lon": 0.0, "lat": 38.91554083333333, "lon": -77.03068916666666, "bike_id": "d580f1183c0b036bfc793ca165c11daf"}, {"type": "electric_scooter", "is_reserved": 0, "is_disabled": 0, "fusion_lat": 0.0, "name": "e7df45f1702998bb1425f2df61eccfad", "rental_uris": {"android": "https://dc.lft.to/lastmile_qr_scan", "ios": "https://dc.lft.to/lastmile_qr_scan"}, "fusion_lon": 0.0, "lat": 38.916889, "lon": -77.02961533333334, "bike_id": "e7df45f1702998bb1425f2df61eccfad"}, {"type": "electric_scooter", "is_reserved": 0, "is_disabled": 0, "fusion_lat": 0.0, "name": "8474fcc24abe933bb9ad18adb7a11ccc", "rental_uris": {"android": "https://dc.lft.to/lastmile_qr_scan", "ios": "https://dc.lft.to/lastmile_qr_scan"}, "fusion_lon": 0.0, "lat": 38.931914, "lon": -77.02834966666667, "bike_id": "8474fcc24abe933bb9ad18adb7a11ccc"}, {"type": "electric_scooter", "is_reserved": 0, "is_disabled": 0, "fusion_lat": 0.0, "name": "ab9b9e84943f293325180dda61494339", "rental_uris": {"android": "https://dc.lft.to/lastmile_qr_scan", "ios": "https://dc.lft.to/lastmile_qr_scan"}, "fusion_lon": 0.0, "lat": 38.887697, "lon": -77.02229016666666, "bike_id": "ab9b9e84943f293325180dda61494339"}, {"type": "electric_scooter", "is_reserved": 0, "is_disabled": 0, "fusion_lat": 0.0, "name": "2dce6795b68f4213c26e2a2501faa921", "rental_uris": {"android": "https://dc.lft.to/lastmile_qr_scan", "ios": "https://dc.lft.to/lastmile_qr_scan"}, "fusion_lon": 0.0, "lat": 38.919373666666665, "lon": -77.0813425, "bike_id": "2dce6795b68f4213c26e2a2501faa921"}, {"type": "electric_scooter", "is_reserved": 0, "is_disabled": 0, "fusion_lat": 0.0, "name": "c3e00652d1b4e1f8276c940606b306cc", "rental_uris": {"android": "https://dc.lft.to/lastmile_qr_scan", "ios": "https://dc.lft.to/lastmile_qr_scan"}, "fusion_lon": 0.0, "lat": 38.88438033333333, "lon": -76.957583, "bike_id": "c3e00652d1b4e1f8276c940606b306cc"}, {"type": "electric_scooter", "is_reserved": 0, "is_disabled": 0, "fusion_lat": 0.0, "name": "46468a144781f1a375821c9af7256348", "rental_uris": {"android": "https://dc.lft.to/lastmile_qr_scan", "ios": "https://dc.lft.to/lastmile_qr_scan"}, "fusion_lon": 0.0, "lat": 38.922897, "lon": -77.02075383333333, "bike_id": "46468a144781f1a375821c9af7256348"}, {"type": "electric_scooter", "is_reserved": 0, "is_disabled": 0, "fusion_lat": 0.0, "name": "d256dc4ac48e023c7ad8f7d3a365a378", "rental_uris": {"android": "https://dc.lft.to/lastmile_qr_scan", "ios": "https://dc.lft.to/lastmile_qr_scan"}, "fusion_lon": 0.0, "lat": 38.8610395, "lon": -76.9833675, "bike_id": "d256dc4ac48e023c7ad8f7d3a365a378"}, {"type": "electric_bike", "is_reserved": 0, "is_disabled": 0, "fusion_lat": 0.0, "name": "6989170d211e3e517d255834d08585c8", "rental_uris": {"android": "https://dc.lft.to/lastmile_qr_scan", "ios": "https://dc.lft.to/lastmile_qr_scan"}, "fusion_lon": 0.0, "lat": 39.010504, "lon": -76.911019, "bike_id": "6989170d211e3e517d255834d08585c8"}, {"type": "electric_scooter", "is_reserved": 0, "is_disabled": 0, "fusion_lat": 0.0, "name": "32d723480f05dd2854719d0bfaa2dbca", "rental_uris": {"android": "https://dc.lft.to/lastmile_qr_scan", "ios": "https://dc.lft.to/lastmile_qr_scan"}, "fusion_lon": 0.0, "lat": 38.881224, "lon": -77.00100083333334, "bike_id": "32d723480f05dd2854719d0bfaa2dbca"}, {"type": "electric_scooter", "is_reserved": 0, "is_disabled": 0, "fusion_lat": 0.0, "name": "1f185f10a9631eb53028d214602ae283", "rental_uris": {"android": "https://dc.lft.to/lastmile_qr_scan", "ios": "https://dc.lft.to/lastmile_qr_scan"}, "fusion_lon": 0.0, "lat": 38.93471316666667, "lon": -77.01927766666667, "bike_id": "1f185f10a9631eb53028d214602ae283"}, {"type": "electric_scooter", "is_reserved": 0, "is_disabled": 0, "fusion_lat": 0.0, "name": "1a5a3d647d05813cd6ddb63f0ec1abe2", "rental_uris": {"android": "https://dc.lft.to/lastmile_qr_scan", "ios": "https://dc.lft.to/lastmile_qr_scan"}, "fusion_lon": 0.0, "lat": 38.902688, "lon": -77.038512, "bike_id": "1a5a3d647d05813cd6ddb63f0ec1abe2"}, {"type": "electric_scooter", "is_reserved": 0, "is_disabled": 0, "fusion_lat": 0.0, "name": "77cd911297d62ef0bfa9ddba82af2d33", "rental_uris": {"android": "https://dc.lft.to/lastmile_qr_scan", "ios": "https://dc.lft.to/lastmile_qr_scan"}, "fusion_lon": 0.0, "lat": 38.925348666666665, "lon": -77.035215, "bike_id": "77cd911297d62ef0bfa9ddba82af2d33"}, {"type": "electric_scooter", "is_reserved": 0, "is_disabled": 0, "fusion_lat": 0.0, "name": "1ce1512ad431b9ae1453cb351da1c248", "rental_uris": {"android": "https://dc.lft.to/lastmile_qr_scan", "ios": "https://dc.lft.to/lastmile_qr_scan"}, "fusion_lon": 0.0, "lat": 38.8922195, "lon": -77.0222435, "bike_id": "1ce1512ad431b9ae1453cb351da1c248"}, {"type": "electric_scooter", "is_reserved": 0, "is_disabled": 0, "fusion_lat": 0.0, "name": "8365a42aa2f183f9a6062483d72eed2b", "rental_uris": {"android": "https://dc.lft.to/lastmile_qr_scan", "ios": "https://dc.lft.to/lastmile_qr_scan"}, "fusion_lon": 0.0, "lat": 38.88500616666666, "lon": -77.00563116666666, "bike_id": "8365a42aa2f183f9a6062483d72eed2b"}, {"type": "electric_scooter", "is_reserved": 0, "is_disabled": 0, "fusion_lat": 0.0, "name": "ef36004652c32287eccdd072a58b2323", "rental_uris": {"android": "https://dc.lft.to/lastmile_qr_scan", "ios": "https://dc.lft.to/lastmile_qr_scan"}, "fusion_lon": 0.0, "lat": 38.92167766666667, "lon": -77.0323135, "bike_id": "ef36004652c32287eccdd072a58b2323"}, {"type": "electric_scooter", "is_reserved": 0, "is_disabled": 0, "fusion_lat": 0.0, "name": "4a3e27b510944e6542d87c4a0dea4de4", "rental_uris": {"android": "https://dc.lft.to/lastmile_qr_scan", "ios": "https://dc.lft.to/lastmile_qr_scan"}, "fusion_lon": 0.0, "lat": 38.9195175, "lon": -77.04152083333334, "bike_id": "4a3e27b510944e6542d87c4a0dea4de4"}, {"type": "electric_scooter", "is_reserved": 0, "is_disabled": 0, "fusion_lat": 0.0, "name": "09093b0b6672d28f5aff6247a83310aa", "rental_uris": {"android": "https://dc.lft.to/lastmile_qr_scan", "ios": "https://dc.lft.to/lastmile_qr_scan"}, "fusion_lon": 0.0, "lat": 38.905944833333336, "lon": -77.041268, "bike_id": "09093b0b6672d28f5aff6247a83310aa"}, {"type": "electric_scooter", "is_reserved": 0, "is_disabled": 0, "fusion_lat": 0.0, "name": "412b1d07709f398ecbae8f1100237e25", "rental_uris": {"android": "https://dc.lft.to/lastmile_qr_scan", "ios": "https://dc.lft.to/lastmile_qr_scan"}, "fusion_lon": 0.0, "lat": 38.91631483333333, "lon": -77.03209516666666, "bike_id": "412b1d07709f398ecbae8f1100237e25"}, {"type": "electric_scooter", "is_reserved": 0, "is_disabled": 0, "fusion_lat": 0.0, "name": "b7074b9c1d95af2ab7d8edeac9fba94c", "rental_uris": {"android": "https://dc.lft.to/lastmile_qr_scan", "ios": "https://dc.lft.to/lastmile_qr_scan"}, "fusion_lon": 0.0, "lat": 38.894959666666665, "lon": -77.0230465, "bike_id": "b7074b9c1d95af2ab7d8edeac9fba94c"}, {"type": "electric_scooter", "is_reserved": 0, "is_disabled": 0, "fusion_lat": 0.0, "name": "b7d260ccceef9d6227b48f4c88ace340", "rental_uris": {"android": "https://dc.lft.to/lastmile_qr_scan", "ios": "https://dc.lft.to/lastmile_qr_scan"}, "fusion_lon": 0.0, "lat": 38.893465666666664, "lon": -76.94934983333333, "bike_id": "b7d260ccceef9d6227b48f4c88ace340"}, {"type": "electric_scooter", "is_reserved": 0, "is_disabled": 0, "fusion_lat": 0.0, "name": "a6710c09d677f902199c11625cf86091", "rental_uris": {"android": "https://dc.lft.to/lastmile_qr_scan", "ios": "https://dc.lft.to/lastmile_qr_scan"}, "fusion_lon": 0.0, "lat": 38.921594666666664, "lon": -77.0338015, "bike_id": "a6710c09d677f902199c11625cf86091"}, {"type": "electric_bike", "is_reserved": 0, "is_disabled": 0, "fusion_lat": 0.0, "name": "1fc81d658b1d24c8807288b38fe5be3b", "rental_uris": {"android": "https://dc.lft.to/lastmile_qr_scan", "ios": "https://dc.lft.to/lastmile_qr_scan"}, "fusion_lon": 0.0, "lat": 38.873739, "lon": -77.1179925, "bike_id": "1fc81d658b1d24c8807288b38fe5be3b"}, {"type": "electric_scooter", "is_reserved": 0, "is_disabled": 0, "fusion_lat": 0.0, "name": "7f26fdffcde53b34e5638f38b1e964e3", "rental_uris": {"android": "https://dc.lft.to/lastmile_qr_scan", "ios": "https://dc.lft.to/lastmile_qr_scan"}, "fusion_lon": 0.0, "lat": 38.9442915, "lon": -76.992092, "bike_id": "7f26fdffcde53b34e5638f38b1e964e3"}, {"type": "electric_scooter", "is_reserved": 0, "is_disabled": 0, "fusion_lat": 0.0, "name": "443af3c8e88afc152b637a042c716db2", "rental_uris": {"android": "https://dc.lft.to/lastmile_qr_scan", "ios": "https://dc.lft.to/lastmile_qr_scan"}, "fusion_lon": 0.0, "lat": 38.926553, "lon": -77.0373155, "bike_id": "443af3c8e88afc152b637a042c716db2"}, {"type": "electric_scooter", "is_reserved": 0, "is_disabled": 0, "fusion_lat": 0.0, "name": "0a36627f7000ba632dabc211fd1953f5", "rental_uris": {"android": "https://dc.lft.to/lastmile_qr_scan", "ios": "https://dc.lft.to/lastmile_qr_scan"}, "fusion_lon": 0.0, "lat": 38.9057755, "lon": -77.005871, "bike_id": "0a36627f7000ba632dabc211fd1953f5"}, {"type": "electric_scooter", "is_reserved": 0, "is_disabled": 0, "fusion_lat": 0.0, "name": "5e67eb7f6ced2a1a4c1a4ac7a3c23b85", "rental_uris": {"android": "https://dc.lft.to/lastmile_qr_scan", "ios": "https://dc.lft.to/lastmile_qr_scan"}, "fusion_lon": 0.0, "lat": 38.92164416666667, "lon": -77.03228966666667, "bike_id": "5e67eb7f6ced2a1a4c1a4ac7a3c23b85"}, {"type": "electric_scooter", "is_reserved": 0, "is_disabled": 0, "fusion_lat": 0.0, "name": "94d0a1937705eaaceb4ba846afc75c96", "rental_uris": {"android": "https://dc.lft.to/lastmile_qr_scan", "ios": "https://dc.lft.to/lastmile_qr_scan"}, "fusion_lon": 0.0, "lat": 38.923655, "lon": -77.01910016666666, "bike_id": "94d0a1937705eaaceb4ba846afc75c96"}, {"type": "electric_scooter", "is_reserved": 0, "is_disabled": 0, "fusion_lat": 0.0, "name": "ff8e78c0f07d36615c0085aa63f5d5bd", "rental_uris": {"android": "https://dc.lft.to/lastmile_qr_scan", "ios": "https://dc.lft.to/lastmile_qr_scan"}, "fusion_lon": 0.0, "lat": 38.917402833333334, "lon": -77.03465083333333, "bike_id": "ff8e78c0f07d36615c0085aa63f5d5bd"}, {"type": "electric_scooter", "is_reserved": 0, "is_disabled": 0, "fusion_lat": 0.0, "name": "845e84f52da7639770bad2c4b20beb49", "rental_uris": {"android": "https://dc.lft.to/lastmile_qr_scan", "ios": "https://dc.lft.to/lastmile_qr_scan"}, "fusion_lon": 0.0, "lat": 38.94449483333333, "lon": -77.02341816666667, "bike_id": "845e84f52da7639770bad2c4b20beb49"}, {"type": "electric_scooter", "is_reserved": 0, "is_disabled": 0, "fusion_lat": 0.0, "name": "a3ed3d95e1cf66fa2a61ac3465388816", "rental_uris": {"android": "https://dc.lft.to/lastmile_qr_scan", "ios": "https://dc.lft.to/lastmile_qr_scan"}, "fusion_lon": 0.0, "lat": 38.9027505, "lon": -77.0402565, "bike_id": "a3ed3d95e1cf66fa2a61ac3465388816"}, {"type": "electric_scooter", "is_reserved": 0, "is_disabled": 0, "fusion_lat": 0.0, "name": "bdbe41da25b8d2dd60832c9aee70f02f", "rental_uris": {"android": "https://dc.lft.to/lastmile_qr_scan", "ios": "https://dc.lft.to/lastmile_qr_scan"}, "fusion_lon": 0.0, "lat": 38.915547833333335, "lon": -77.021548, "bike_id": "bdbe41da25b8d2dd60832c9aee70f02f"}, {"type": "electric_scooter", "is_reserved": 0, "is_disabled": 0, "fusion_lat": 0.0, "name": "9861ef131d35d81898d43fec0960f409", "rental_uris": {"android": "https://dc.lft.to/lastmile_qr_scan", "ios": "https://dc.lft.to/lastmile_qr_scan"}, "fusion_lon": 0.0, "lat": 38.85555183333334, "lon": -76.99494116666666, "bike_id": "9861ef131d35d81898d43fec0960f409"}, {"type": "electric_scooter", "is_reserved": 0, "is_disabled": 0, "fusion_lat": 0.0, "name": "03b7677d7a4e3f4a7d77bb81250597c9", "rental_uris": {"android": "https://dc.lft.to/lastmile_qr_scan", "ios": "https://dc.lft.to/lastmile_qr_scan"}, "fusion_lon": 0.0, "lat": 38.89711466666667, "lon": -77.00680166666666, "bike_id": "03b7677d7a4e3f4a7d77bb81250597c9"}, {"type": "electric_scooter", "is_reserved": 0, "is_disabled": 0, "fusion_lat": 0.0, "name": "719435414c9f91ffc58e628c1b065d63", "rental_uris": {"android": "https://dc.lft.to/lastmile_qr_scan", "ios": "https://dc.lft.to/lastmile_qr_scan"}, "fusion_lon": 0.0, "lat": 38.8636925, "lon": -76.99046216666666, "bike_id": "719435414c9f91ffc58e628c1b065d63"}, {"type": "electric_scooter", "is_reserved": 0, "is_disabled": 0, "fusion_lat": 0.0, "name": "e6dede178f2f4e18360d8dad93654e92", "rental_uris": {"android": "https://dc.lft.to/lastmile_qr_scan", "ios": "https://dc.lft.to/lastmile_qr_scan"}, "fusion_lon": 0.0, "lat": 38.9167845, "lon": -77.03689666666666, "bike_id": "e6dede178f2f4e18360d8dad93654e92"}, {"type": "electric_scooter", "is_reserved": 0, "is_disabled": 0, "fusion_lat": 0.0, "name": "cf8956d6c65c78f10b0238334fff28d3", "rental_uris": {"android": "https://dc.lft.to/lastmile_qr_scan", "ios": "https://dc.lft.to/lastmile_qr_scan"}, "fusion_lon": 0.0, "lat": 38.90524716666667, "lon": -77.06542733333333, "bike_id": "cf8956d6c65c78f10b0238334fff28d3"}, {"type": "electric_scooter", "is_reserved": 0, "is_disabled": 0, "fusion_lat": 0.0, "name": "3385305386c32039ff95d3898ac424ee", "rental_uris": {"android": "https://dc.lft.to/lastmile_qr_scan", "ios": "https://dc.lft.to/lastmile_qr_scan"}, "fusion_lon": 0.0, "lat": 38.928551, "lon": -77.02878866666667, "bike_id": "3385305386c32039ff95d3898ac424ee"}, {"type": "electric_scooter", "is_reserved": 0, "is_disabled": 0, "fusion_lat": 0.0, "name": "98ef5861d1331acf6b73f9f9cb9551db", "rental_uris": {"android": "https://dc.lft.to/lastmile_qr_scan", "ios": "https://dc.lft.to/lastmile_qr_scan"}, "fusion_lon": 0.0, "lat": 38.9248185, "lon": -77.02721433333333, "bike_id": "98ef5861d1331acf6b73f9f9cb9551db"}, {"type": "electric_bike", "is_reserved": 0, "is_disabled": 0, "fusion_lat": 0.0, "name": "8be250e7996a49ff6e9a8fd10ceb77af", "rental_uris": {"android": "https://dc.lft.to/lastmile_qr_scan", "ios": "https://dc.lft.to/lastmile_qr_scan"}, "fusion_lon": 0.0, "lat": 38.95184966666667, "lon": -76.93545183333333, "bike_id": "8be250e7996a49ff6e9a8fd10ceb77af"}, {"type": "electric_scooter", "is_reserved": 0, "is_disabled": 0, "fusion_lat": 0.0, "name": "aa1eeccd0198d3281d1537dc9546a042", "rental_uris": {"android": "https://dc.lft.to/lastmile_qr_scan", "ios": "https://dc.lft.to/lastmile_qr_scan"}, "fusion_lon": 0.0, "lat": 38.871132833333334, "lon": -77.01075016666667, "bike_id": "aa1eeccd0198d3281d1537dc9546a042"}, {"type": "electric_scooter", "is_reserved": 0, "is_disabled": 0, "fusion_lat": 0.0, "name": "5b6f7430e15e8cd0d344256b65d3512b", "rental_uris": {"android": "https://dc.lft.to/lastmile_qr_scan", "ios": "https://dc.lft.to/lastmile_qr_scan"}, "fusion_lon": 0.0, "lat": 38.912593333333334, "lon": -77.03624483333333, "bike_id": "5b6f7430e15e8cd0d344256b65d3512b"}, {"type": "electric_bike", "is_reserved": 0, "is_disabled": 0, "fusion_lat": 0.0, "name": "53e1dc58745bde136325acc2e0899b45", "rental_uris": {"android": "https://dc.lft.to/lastmile_qr_scan", "ios": "https://dc.lft.to/lastmile_qr_scan"}, "fusion_lon": 0.0, "lat": 38.877313666666666, "lon": -77.11852133333333, "bike_id": "53e1dc58745bde136325acc2e0899b45"}, {"type": "electric_scooter", "is_reserved": 0, "is_disabled": 0, "fusion_lat": 0.0, "name": "9cd13f82bb613063293b72237e330e78", "rental_uris": {"android": "https://dc.lft.to/lastmile_qr_scan", "ios": "https://dc.lft.to/lastmile_qr_scan"}, "fusion_lon": 0.0, "lat": 38.896662666666664, "lon": -76.98099366666666, "bike_id": "9cd13f82bb613063293b72237e330e78"}, {"type": "electric_scooter", "is_reserved": 0, "is_disabled": 0, "fusion_lat": 0.0, "name": "be77f8d3b74ab0ba7e10de1e965fbf07", "rental_uris": {"android": "https://dc.lft.to/lastmile_qr_scan", "ios": "https://dc.lft.to/lastmile_qr_scan"}, "fusion_lon": 0.0, "lat": 38.9313545, "lon": -77.05616666666667, "bike_id": "be77f8d3b74ab0ba7e10de1e965fbf07"}, {"type": "electric_scooter", "is_reserved": 0, "is_disabled": 0, "fusion_lat": 0.0, "name": "7710412442c61427cc96b7cc6a681b8b", "rental_uris": {"android": "https://dc.lft.to/lastmile_qr_scan", "ios": "https://dc.lft.to/lastmile_qr_scan"}, "fusion_lon": 0.0, "lat": 38.902681, "lon": -77.017609, "bike_id": "7710412442c61427cc96b7cc6a681b8b"}, {"type": "electric_scooter", "is_reserved": 0, "is_disabled": 0, "fusion_lat": 0.0, "name": "60c67688b1011fa0d1ad3b5c588d7d48", "rental_uris": {"android": "https://dc.lft.to/lastmile_qr_scan", "ios": "https://dc.lft.to/lastmile_qr_scan"}, "fusion_lon": 0.0, "lat": 38.9155615, "lon": -77.03174, "bike_id": "60c67688b1011fa0d1ad3b5c588d7d48"}, {"type": "electric_scooter", "is_reserved": 0, "is_disabled": 0, "fusion_lat": 0.0, "name": "e631ffb61193b279a380b99a3110b590", "rental_uris": {"android": "https://dc.lft.to/lastmile_qr_scan", "ios": "https://dc.lft.to/lastmile_qr_scan"}, "fusion_lon": 0.0, "lat": 38.88742083333333, "lon": -77.021647, "bike_id": "e631ffb61193b279a380b99a3110b590"}, {"type": "electric_scooter", "is_reserved": 0, "is_disabled": 0, "fusion_lat": 0.0, "name": "d176a1a69482f680b9df8e75eba0e17a", "rental_uris": {"android": "https://dc.lft.to/lastmile_qr_scan", "ios": "https://dc.lft.to/lastmile_qr_scan"}, "fusion_lon": 0.0, "lat": 38.9220565, "lon": -77.04025233333333, "bike_id": "d176a1a69482f680b9df8e75eba0e17a"}, {"type": "electric_scooter", "is_reserved": 0, "is_disabled": 0, "fusion_lat": 0.0, "name": "28a7c656a09b9947254147a77dc9a0f0", "rental_uris": {"android": "https://dc.lft.to/lastmile_qr_scan", "ios": "https://dc.lft.to/lastmile_qr_scan"}, "fusion_lon": 0.0, "lat": 38.90379183333334, "lon": -77.042665, "bike_id": "28a7c656a09b9947254147a77dc9a0f0"}, {"type": "electric_scooter", "is_reserved": 0, "is_disabled": 0, "fusion_lat": 0.0, "name": "9f6341b6c5424e35c6d745b41f2a1a20", "rental_uris": {"android": "https://dc.lft.to/lastmile_qr_scan", "ios": "https://dc.lft.to/lastmile_qr_scan"}, "fusion_lon": 0.0, "lat": 38.9324145, "lon": -77.032817, "bike_id": "9f6341b6c5424e35c6d745b41f2a1a20"}, {"type": "electric_scooter", "is_reserved": 0, "is_disabled": 0, "fusion_lat": 0.0, "name": "dd372782461c6beb6d581b97c0762091", "rental_uris": {"android": "https://dc.lft.to/lastmile_qr_scan", "ios": "https://dc.lft.to/lastmile_qr_scan"}, "fusion_lon": 0.0, "lat": 38.84292516666667, "lon": -76.99947783333333, "bike_id": "dd372782461c6beb6d581b97c0762091"}, {"type": "electric_scooter", "is_reserved": 0, "is_disabled": 0, "fusion_lat": 0.0, "name": "d7b6e47c6b94210322ea6b4a5962a4a7", "rental_uris": {"android": "https://dc.lft.to/lastmile_qr_scan", "ios": "https://dc.lft.to/lastmile_qr_scan"}, "fusion_lon": 0.0, "lat": 38.899138666666666, "lon": -76.9338045, "bike_id": "d7b6e47c6b94210322ea6b4a5962a4a7"}, {"type": "electric_scooter", "is_reserved": 0, "is_disabled": 0, "fusion_lat": 0.0, "name": "6fb9d34798ebe7bb74c4f32a1dfe98ce", "rental_uris": {"android": "https://dc.lft.to/lastmile_qr_scan", "ios": "https://dc.lft.to/lastmile_qr_scan"}, "fusion_lon": 0.0, "lat": 38.903285, "lon": -77.06595216666666, "bike_id": "6fb9d34798ebe7bb74c4f32a1dfe98ce"}, {"type": "electric_scooter", "is_reserved": 0, "is_disabled": 0, "fusion_lat": 0.0, "name": "961198c949f83a644a7ec6e6817528ad", "rental_uris": {"android": "https://dc.lft.to/lastmile_qr_scan", "ios": "https://dc.lft.to/lastmile_qr_scan"}, "fusion_lon": 0.0, "lat": 38.905380666666666, "lon": -77.04752333333333, "bike_id": "961198c949f83a644a7ec6e6817528ad"}, {"type": "electric_scooter", "is_reserved": 0, "is_disabled": 0, "fusion_lat": 0.0, "name": "fe9b95a12ee9e10791c165db58c005c4", "rental_uris": {"android": "https://dc.lft.to/lastmile_qr_scan", "ios": "https://dc.lft.to/lastmile_qr_scan"}, "fusion_lon": 0.0, "lat": 38.89819083333333, "lon": -77.03286933333334, "bike_id": "fe9b95a12ee9e10791c165db58c005c4"}, {"type": "electric_scooter", "is_reserved": 0, "is_disabled": 0, "fusion_lat": 0.0, "name": "cb498e60bc8fa8f0353a31e579b9c06c", "rental_uris": {"android": "https://dc.lft.to/lastmile_qr_scan", "ios": "https://dc.lft.to/lastmile_qr_scan"}, "fusion_lon": 0.0, "lat": 38.9211855, "lon": -77.04427716666666, "bike_id": "cb498e60bc8fa8f0353a31e579b9c06c"}, {"type": "electric_scooter", "is_reserved": 0, "is_disabled": 0, "fusion_lat": 0.0, "name": "ca1156392a7a9cbaeb92f12be1e0e145", "rental_uris": {"android": "https://dc.lft.to/lastmile_qr_scan", "ios": "https://dc.lft.to/lastmile_qr_scan"}, "fusion_lon": 0.0, "lat": 38.8634255, "lon": -76.99002116666666, "bike_id": "ca1156392a7a9cbaeb92f12be1e0e145"}, {"type": "electric_scooter", "is_reserved": 0, "is_disabled": 0, "fusion_lat": 0.0, "name": "835e409fcc5a6ec10d94dcdfc0dfefaf", "rental_uris": {"android": "https://dc.lft.to/lastmile_qr_scan", "ios": "https://dc.lft.to/lastmile_qr_scan"}, "fusion_lon": 0.0, "lat": 38.9072155, "lon": -77.02502183333333, "bike_id": "835e409fcc5a6ec10d94dcdfc0dfefaf"}, {"type": "electric_bike", "is_reserved": 0, "is_disabled": 0, "fusion_lat": 0.0, "name": "cd65dacd26c87204751b024826e00623", "rental_uris": {"android": "https://dc.lft.to/lastmile_qr_scan", "ios": "https://dc.lft.to/lastmile_qr_scan"}, "fusion_lon": 0.0, "lat": 38.88140533333333, "lon": -77.02699733333333, "bike_id": "cd65dacd26c87204751b024826e00623"}, {"type": "electric_scooter", "is_reserved": 0, "is_disabled": 0, "fusion_lat": 0.0, "name": "50c38960c129661f45dd73f4a1d66795", "rental_uris": {"android": "https://dc.lft.to/lastmile_qr_scan", "ios": "https://dc.lft.to/lastmile_qr_scan"}, "fusion_lon": 0.0, "lat": 38.9578035, "lon": -77.02465633333334, "bike_id": "50c38960c129661f45dd73f4a1d66795"}, {"type": "electric_bike", "is_reserved": 0, "is_disabled": 0, "fusion_lat": 0.0, "name": "38d3af480768f07b8bedaca0cd44543a", "rental_uris": {"android": "https://dc.lft.to/lastmile_qr_scan", "ios": "https://dc.lft.to/lastmile_qr_scan"}, "fusion_lon": 0.0, "lat": 38.9555465, "lon": -76.93545733333333, "bike_id": "38d3af480768f07b8bedaca0cd44543a"}, {"type": "electric_scooter", "is_reserved": 0, "is_disabled": 0, "fusion_lat": 0.0, "name": "643779f018b8e217a94af65276ec2e36", "rental_uris": {"android": "https://dc.lft.to/lastmile_qr_scan", "ios": "https://dc.lft.to/lastmile_qr_scan"}, "fusion_lon": 0.0, "lat": 38.916987666666664, "lon": -77.03120683333333, "bike_id": "643779f018b8e217a94af65276ec2e36"}, {"type": "electric_scooter", "is_reserved": 0, "is_disabled": 0, "fusion_lat": 0.0, "name": "27d484233aaffee2d95ef0ac53775111", "rental_uris": {"android": "https://dc.lft.to/lastmile_qr_scan", "ios": "https://dc.lft.to/lastmile_qr_scan"}, "fusion_lon": 0.0, "lat": 38.928542, "lon": -77.05422216666666, "bike_id": "27d484233aaffee2d95ef0ac53775111"}, {"type": "electric_scooter", "is_reserved": 0, "is_disabled": 0, "fusion_lat": 0.0, "name": "d44c56c51381389204d5129cdb4cc366", "rental_uris": {"android": "https://dc.lft.to/lastmile_qr_scan", "ios": "https://dc.lft.to/lastmile_qr_scan"}, "fusion_lon": 0.0, "lat": 38.9232485, "lon": -77.05674083333334, "bike_id": "d44c56c51381389204d5129cdb4cc366"}, {"type": "electric_scooter", "is_reserved": 0, "is_disabled": 0, "fusion_lat": 0.0, "name": "4811c43d4f9c9677229dac108e7632bd", "rental_uris": {"android": "https://dc.lft.to/lastmile_qr_scan", "ios": "https://dc.lft.to/lastmile_qr_scan"}, "fusion_lon": 0.0, "lat": 38.8922065, "lon": -77.04858633333333, "bike_id": "4811c43d4f9c9677229dac108e7632bd"}, {"type": "electric_scooter", "is_reserved": 0, "is_disabled": 0, "fusion_lat": 0.0, "name": "3c7c6c07e9c7c407f9fd16dac62fc156", "rental_uris": {"android": "https://dc.lft.to/lastmile_qr_scan", "ios": "https://dc.lft.to/lastmile_qr_scan"}, "fusion_lon": 0.0, "lat": 38.90561866666667, "lon": -77.025221, "bike_id": "3c7c6c07e9c7c407f9fd16dac62fc156"}, {"type": "electric_scooter", "is_reserved": 0, "is_disabled": 0, "fusion_lat": 0.0, "name": "43b653fea25d6dadfa9970f4538ad4f1", "rental_uris": {"android": "https://dc.lft.to/lastmile_qr_scan", "ios": "https://dc.lft.to/lastmile_qr_scan"}, "fusion_lon": 0.0, "lat": 38.924442166666665, "lon": -77.0411675, "bike_id": "43b653fea25d6dadfa9970f4538ad4f1"}, {"type": "electric_scooter", "is_reserved": 0, "is_disabled": 0, "fusion_lat": 0.0, "name": "de7f35350cc7ca928fac685591b33b12", "rental_uris": {"android": "https://dc.lft.to/lastmile_qr_scan", "ios": "https://dc.lft.to/lastmile_qr_scan"}, "fusion_lon": 0.0, "lat": 38.92147933333333, "lon": -76.96926133333334, "bike_id": "de7f35350cc7ca928fac685591b33b12"}, {"type": "electric_scooter", "is_reserved": 0, "is_disabled": 0, "fusion_lat": 0.0, "name": "f5f2011f9f741d214b6da92f81dfcfee", "rental_uris": {"android": "https://dc.lft.to/lastmile_qr_scan", "ios": "https://dc.lft.to/lastmile_qr_scan"}, "fusion_lon": 0.0, "lat": 38.909775833333335, "lon": -77.048722, "bike_id": "f5f2011f9f741d214b6da92f81dfcfee"}, {"type": "electric_scooter", "is_reserved": 0, "is_disabled": 0, "fusion_lat": 0.0, "name": "4f3a59068903b51b5dfb4d83190cec63", "rental_uris": {"android": "https://dc.lft.to/lastmile_qr_scan", "ios": "https://dc.lft.to/lastmile_qr_scan"}, "fusion_lon": 0.0, "lat": 38.918145833333334, "lon": -77.04437616666667, "bike_id": "4f3a59068903b51b5dfb4d83190cec63"}, {"type": "electric_scooter", "is_reserved": 0, "is_disabled": 0, "fusion_lat": 0.0, "name": "f70954373842e05c7d09d94c63486a4d", "rental_uris": {"android": "https://dc.lft.to/lastmile_qr_scan", "ios": "https://dc.lft.to/lastmile_qr_scan"}, "fusion_lon": 0.0, "lat": 38.90920283333333, "lon": -77.0320785, "bike_id": "f70954373842e05c7d09d94c63486a4d"}, {"type": "electric_scooter", "is_reserved": 0, "is_disabled": 0, "fusion_lat": 0.0, "name": "29ae4c8db9464cb72c14346640a37132", "rental_uris": {"android": "https://dc.lft.to/lastmile_qr_scan", "ios": "https://dc.lft.to/lastmile_qr_scan"}, "fusion_lon": 0.0, "lat": 38.89194533333333, "lon": -77.02454683333333, "bike_id": "29ae4c8db9464cb72c14346640a37132"}, {"type": "electric_bike", "is_reserved": 0, "is_disabled": 0, "fusion_lat": 0.0, "name": "a4ddf637da40e07c0bdef9dd5e5124c0", "rental_uris": {"android": "https://dc.lft.to/lastmile_qr_scan", "ios": "https://dc.lft.to/lastmile_qr_scan"}, "fusion_lon": 0.0, "lat": 38.86167733333333, "lon": -76.9506725, "bike_id": "a4ddf637da40e07c0bdef9dd5e5124c0"}, {"type": "electric_scooter", "is_reserved": 0, "is_disabled": 0, "fusion_lat": 0.0, "name": "f0bfc3c55505bfaf2b63370e594070de", "rental_uris": {"android": "https://dc.lft.to/lastmile_qr_scan", "ios": "https://dc.lft.to/lastmile_qr_scan"}, "fusion_lon": 0.0, "lat": 38.91192816666667, "lon": -77.060932, "bike_id": "f0bfc3c55505bfaf2b63370e594070de"}, {"type": "electric_scooter", "is_reserved": 0, "is_disabled": 0, "fusion_lat": 0.0, "name": "2c07bf72112b354ceef44fb81c9156a3", "rental_uris": {"android": "https://dc.lft.to/lastmile_qr_scan", "ios": "https://dc.lft.to/lastmile_qr_scan"}, "fusion_lon": 0.0, "lat": 38.89554616666667, "lon": -77.04676033333334, "bike_id": "2c07bf72112b354ceef44fb81c9156a3"}, {"type": "electric_scooter", "is_reserved": 0, "is_disabled": 0, "fusion_lat": 0.0, "name": "be245917ee94253594339f9c73111d5a", "rental_uris": {"android": "https://dc.lft.to/lastmile_qr_scan", "ios": "https://dc.lft.to/lastmile_qr_scan"}, "fusion_lon": 0.0, "lat": 38.90840383333333, "lon": -77.04023166666667, "bike_id": "be245917ee94253594339f9c73111d5a"}, {"type": "electric_scooter", "is_reserved": 0, "is_disabled": 0, "fusion_lat": 0.0, "name": "3a6d8210246b4b59a6c0d8ce20b83f78", "rental_uris": {"android": "https://dc.lft.to/lastmile_qr_scan", "ios": "https://dc.lft.to/lastmile_qr_scan"}, "fusion_lon": 0.0, "lat": 38.875013833333334, "lon": -77.017547, "bike_id": "3a6d8210246b4b59a6c0d8ce20b83f78"}, {"type": "electric_scooter", "is_reserved": 0, "is_disabled": 0, "fusion_lat": 0.0, "name": "9fcbbac9bbf9bda06c67c694cbb5e981", "rental_uris": {"android": "https://dc.lft.to/lastmile_qr_scan", "ios": "https://dc.lft.to/lastmile_qr_scan"}, "fusion_lon": 0.0, "lat": 38.9296155, "lon": -77.02795366666666, "bike_id": "9fcbbac9bbf9bda06c67c694cbb5e981"}, {"type": "electric_scooter", "is_reserved": 0, "is_disabled": 0, "fusion_lat": 0.0, "name": "56aebb10ddf9f912252aa1a63bd04f07", "rental_uris": {"android": "https://dc.lft.to/lastmile_qr_scan", "ios": "https://dc.lft.to/lastmile_qr_scan"}, "fusion_lon": 0.0, "lat": 38.88991566666667, "lon": -77.00347583333334, "bike_id": "56aebb10ddf9f912252aa1a63bd04f07"}, {"type": "electric_bike", "is_reserved": 0, "is_disabled": 0, "fusion_lat": 0.0, "name": "800b927ffd9ee5ea8f8f61d98f949cc0", "rental_uris": {"android": "https://dc.lft.to/lastmile_qr_scan", "ios": "https://dc.lft.to/lastmile_qr_scan"}, "fusion_lon": 0.0, "lat": 38.965711666666664, "lon": -76.954786, "bike_id": "800b927ffd9ee5ea8f8f61d98f949cc0"}, {"type": "electric_scooter", "is_reserved": 0, "is_disabled": 0, "fusion_lat": 0.0, "name": "15aec697e7f191068c3ac923f4513c6f", "rental_uris": {"android": "https://dc.lft.to/lastmile_qr_scan", "ios": "https://dc.lft.to/lastmile_qr_scan"}, "fusion_lon": 0.0, "lat": 38.923331, "lon": -77.05476566666667, "bike_id": "15aec697e7f191068c3ac923f4513c6f"}, {"type": "electric_bike", "is_reserved": 0, "is_disabled": 0, "fusion_lat": 0.0, "name": "23489cba4c795d19f255a693f852a737", "rental_uris": {"android": "https://dc.lft.to/lastmile_qr_scan", "ios": "https://dc.lft.to/lastmile_qr_scan"}, "fusion_lon": 0.0, "lat": 38.95282016666667, "lon": -77.068639, "bike_id": "23489cba4c795d19f255a693f852a737"}, {"type": "electric_bike", "is_reserved": 0, "is_disabled": 0, "fusion_lat": 0.0, "name": "70788ee29957228130ce24978ccea620", "rental_uris": {"android": "https://dc.lft.to/lastmile_qr_scan", "ios": "https://dc.lft.to/lastmile_qr_scan"}, "fusion_lon": 0.0, "lat": 38.9395755, "lon": -77.36091383333333, "bike_id": "70788ee29957228130ce24978ccea620"}, {"type": "electric_scooter", "is_reserved": 0, "is_disabled": 0, "fusion_lat": 0.0, "name": "8087d4f8984fbcce0c61e23982a52e12", "rental_uris": {"android": "https://dc.lft.to/lastmile_qr_scan", "ios": "https://dc.lft.to/lastmile_qr_scan"}, "fusion_lon": 0.0, "lat": 38.901262333333335, "lon": -77.0489105, "bike_id": "8087d4f8984fbcce0c61e23982a52e12"}, {"type": "electric_scooter", "is_reserved": 0, "is_disabled": 0, "fusion_lat": 0.0, "name": "96f70a203283162ff5e6df4ca4919625", "rental_uris": {"android": "https://dc.lft.to/lastmile_qr_scan", "ios": "https://dc.lft.to/lastmile_qr_scan"}, "fusion_lon": 0.0, "lat": 38.919672, "lon": -77.0396205, "bike_id": "96f70a203283162ff5e6df4ca4919625"}, {"type": "electric_scooter", "is_reserved": 0, "is_disabled": 0, "fusion_lat": 0.0, "name": "3869fea708b251645c921475d443bc40", "rental_uris": {"android": "https://dc.lft.to/lastmile_qr_scan", "ios": "https://dc.lft.to/lastmile_qr_scan"}, "fusion_lon": 0.0, "lat": 38.8955585, "lon": -76.930787, "bike_id": "3869fea708b251645c921475d443bc40"}, {"type": "electric_scooter", "is_reserved": 0, "is_disabled": 0, "fusion_lat": 0.0, "name": "d0724b919acc40057d3da1782282c259", "rental_uris": {"android": "https://dc.lft.to/lastmile_qr_scan", "ios": "https://dc.lft.to/lastmile_qr_scan"}, "fusion_lon": 0.0, "lat": 38.896185, "lon": -76.99849083333334, "bike_id": "d0724b919acc40057d3da1782282c259"}, {"type": "electric_scooter", "is_reserved": 0, "is_disabled": 0, "fusion_lat": 0.0, "name": "b5b0ad73f3dca9e8504658fe9ed590c5", "rental_uris": {"android": "https://dc.lft.to/lastmile_qr_scan", "ios": "https://dc.lft.to/lastmile_qr_scan"}, "fusion_lon": 0.0, "lat": 38.921857833333334, "lon": -77.03208933333333, "bike_id": "b5b0ad73f3dca9e8504658fe9ed590c5"}, {"type": "electric_scooter", "is_reserved": 0, "is_disabled": 0, "fusion_lat": 0.0, "name": "be5ffbdb432fdaa2c7f24f6a056ad537", "rental_uris": {"android": "https://dc.lft.to/lastmile_qr_scan", "ios": "https://dc.lft.to/lastmile_qr_scan"}, "fusion_lon": 0.0, "lat": 38.876280666666666, "lon": -76.96528666666667, "bike_id": "be5ffbdb432fdaa2c7f24f6a056ad537"}, {"type": "electric_scooter", "is_reserved": 0, "is_disabled": 0, "fusion_lat": 0.0, "name": "8245cc0993567c429b1c78048c0c9e84", "rental_uris": {"android": "https://dc.lft.to/lastmile_qr_scan", "ios": "https://dc.lft.to/lastmile_qr_scan"}, "fusion_lon": 0.0, "lat": 38.8973365, "lon": -77.02466716666666, "bike_id": "8245cc0993567c429b1c78048c0c9e84"}, {"type": "electric_scooter", "is_reserved": 0, "is_disabled": 0, "fusion_lat": 0.0, "name": "666119b48e12b961d852fa0aca576d24", "rental_uris": {"android": "https://dc.lft.to/lastmile_qr_scan", "ios": "https://dc.lft.to/lastmile_qr_scan"}, "fusion_lon": 0.0, "lat": 38.9051045, "lon": -77.04781683333333, "bike_id": "666119b48e12b961d852fa0aca576d24"}, {"type": "electric_scooter", "is_reserved": 0, "is_disabled": 0, "fusion_lat": 0.0, "name": "61172db3dbcd233f74c4ec1e2b264013", "rental_uris": {"android": "https://dc.lft.to/lastmile_qr_scan", "ios": "https://dc.lft.to/lastmile_qr_scan"}, "fusion_lon": 0.0, "lat": 38.87389433333333, "lon": -77.00086433333334, "bike_id": "61172db3dbcd233f74c4ec1e2b264013"}, {"type": "electric_scooter", "is_reserved": 0, "is_disabled": 0, "fusion_lat": 0.0, "name": "11060a5f77a3d6b02debe9fc4a2170f8", "rental_uris": {"android": "https://dc.lft.to/lastmile_qr_scan", "ios": "https://dc.lft.to/lastmile_qr_scan"}, "fusion_lon": 0.0, "lat": 38.91705966666667, "lon": -77.02885333333333, "bike_id": "11060a5f77a3d6b02debe9fc4a2170f8"}, {"type": "electric_scooter", "is_reserved": 0, "is_disabled": 0, "fusion_lat": 0.0, "name": "b75a3894914d584ef5419f5e49ef4f36", "rental_uris": {"android": "https://dc.lft.to/lastmile_qr_scan", "ios": "https://dc.lft.to/lastmile_qr_scan"}, "fusion_lon": 0.0, "lat": 38.90260583333333, "lon": -77.01752133333333, "bike_id": "b75a3894914d584ef5419f5e49ef4f36"}, {"type": "electric_scooter", "is_reserved": 0, "is_disabled": 0, "fusion_lat": 0.0, "name": "c8b3df511b092a22e00168df58b9fcca", "rental_uris": {"android": "https://dc.lft.to/lastmile_qr_scan", "ios": "https://dc.lft.to/lastmile_qr_scan"}, "fusion_lon": 0.0, "lat": 38.9102745, "lon": -77.03439516666667, "bike_id": "c8b3df511b092a22e00168df58b9fcca"}, {"type": "electric_scooter", "is_reserved": 0, "is_disabled": 0, "fusion_lat": 0.0, "name": "3dbf33f685cefea53cd926970e2357f8", "rental_uris": {"android": "https://dc.lft.to/lastmile_qr_scan", "ios": "https://dc.lft.to/lastmile_qr_scan"}, "fusion_lon": 0.0, "lat": 38.91924266666667, "lon": -77.0251185, "bike_id": "3dbf33f685cefea53cd926970e2357f8"}, {"type": "electric_scooter", "is_reserved": 0, "is_disabled": 0, "fusion_lat": 0.0, "name": "80b70c72eeb90082a4c9e5c958e62594", "rental_uris": {"android": "https://dc.lft.to/lastmile_qr_scan", "ios": "https://dc.lft.to/lastmile_qr_scan"}, "fusion_lon": 0.0, "lat": 38.89894183333333, "lon": -77.03992933333333, "bike_id": "80b70c72eeb90082a4c9e5c958e62594"}, {"type": "electric_scooter", "is_reserved": 0, "is_disabled": 0, "fusion_lat": 0.0, "name": "d67f4bb7f348546c3b4c5025047679b7", "rental_uris": {"android": "https://dc.lft.to/lastmile_qr_scan", "ios": "https://dc.lft.to/lastmile_qr_scan"}, "fusion_lon": 0.0, "lat": 38.893277499999996, "lon": -76.92991166666667, "bike_id": "d67f4bb7f348546c3b4c5025047679b7"}, {"type": "electric_scooter", "is_reserved": 0, "is_disabled": 0, "fusion_lat": 0.0, "name": "68eef83e12f615dbc5e78ae5caaa8589", "rental_uris": {"android": "https://dc.lft.to/lastmile_qr_scan", "ios": "https://dc.lft.to/lastmile_qr_scan"}, "fusion_lon": 0.0, "lat": 38.934289166666666, "lon": -77.02405766666666, "bike_id": "68eef83e12f615dbc5e78ae5caaa8589"}, {"type": "electric_scooter", "is_reserved": 0, "is_disabled": 0, "fusion_lat": 0.0, "name": "8a1a3f4349bca51002215d4bf27a4dd9", "rental_uris": {"android": "https://dc.lft.to/lastmile_qr_scan", "ios": "https://dc.lft.to/lastmile_qr_scan"}, "fusion_lon": 0.0, "lat": 38.92162866666666, "lon": -76.99458133333333, "bike_id": "8a1a3f4349bca51002215d4bf27a4dd9"}, {"type": "electric_scooter", "is_reserved": 0, "is_disabled": 0, "fusion_lat": 0.0, "name": "23160f9c9dc385be3d9dace9af79c7e6", "rental_uris": {"android": "https://dc.lft.to/lastmile_qr_scan", "ios": "https://dc.lft.to/lastmile_qr_scan"}, "fusion_lon": 0.0, "lat": 38.89909633333333, "lon": -77.03293816666667, "bike_id": "23160f9c9dc385be3d9dace9af79c7e6"}, {"type": "electric_scooter", "is_reserved": 0, "is_disabled": 0, "fusion_lat": 0.0, "name": "55d6f7c3681377ee4e1de16aba5af5bf", "rental_uris": {"android": "https://dc.lft.to/lastmile_qr_scan", "ios": "https://dc.lft.to/lastmile_qr_scan"}, "fusion_lon": 0.0, "lat": 38.9125895, "lon": -77.04220133333334, "bike_id": "55d6f7c3681377ee4e1de16aba5af5bf"}, {"type": "electric_scooter", "is_reserved": 0, "is_disabled": 0, "fusion_lat": 0.0, "name": "5699f1aa7fdc7c084396840ae37325c4", "rental_uris": {"android": "https://dc.lft.to/lastmile_qr_scan", "ios": "https://dc.lft.to/lastmile_qr_scan"}, "fusion_lon": 0.0, "lat": 38.909754666666664, "lon": -77.040452, "bike_id": "5699f1aa7fdc7c084396840ae37325c4"}, {"type": "electric_scooter", "is_reserved": 0, "is_disabled": 0, "fusion_lat": 0.0, "name": "a8c2c3383423af8efe33c6dd4a157d86", "rental_uris": {"android": "https://dc.lft.to/lastmile_qr_scan", "ios": "https://dc.lft.to/lastmile_qr_scan"}, "fusion_lon": 0.0, "lat": 38.90554516666667, "lon": -77.05693166666667, "bike_id": "a8c2c3383423af8efe33c6dd4a157d86"}, {"type": "electric_scooter", "is_reserved": 0, "is_disabled": 0, "fusion_lat": 0.0, "name": "14e7ffa9136ae27d20cbfdbd5ffc8d41", "rental_uris": {"android": "https://dc.lft.to/lastmile_qr_scan", "ios": "https://dc.lft.to/lastmile_qr_scan"}, "fusion_lon": 0.0, "lat": 38.95403566666667, "lon": -77.02746466666666, "bike_id": "14e7ffa9136ae27d20cbfdbd5ffc8d41"}, {"type": "electric_bike", "is_reserved": 0, "is_disabled": 0, "fusion_lat": 0.0, "name": "dce9ae87fcc39276819fb5b5fc7aef34", "rental_uris": {"android": "https://dc.lft.to/lastmile_qr_scan", "ios": "https://dc.lft.to/lastmile_qr_scan"}, "fusion_lon": 0.0, "lat": 38.893509, "lon": -77.18738333333333, "bike_id": "dce9ae87fcc39276819fb5b5fc7aef34"}, {"type": "electric_bike", "is_reserved": 0, "is_disabled": 0, "fusion_lat": 0.0, "name": "5464c9d12b6da49be491585a4df92aa0", "rental_uris": {"android": "https://dc.lft.to/lastmile_qr_scan", "ios": "https://dc.lft.to/lastmile_qr_scan"}, "fusion_lon": 0.0, "lat": 38.896155, "lon": -77.04775366666667, "bike_id": "5464c9d12b6da49be491585a4df92aa0"}, {"type": "electric_scooter", "is_reserved": 0, "is_disabled": 0, "fusion_lat": 0.0, "name": "cd3066ea891dac2377a17e3edeae5092", "rental_uris": {"android": "https://dc.lft.to/lastmile_qr_scan", "ios": "https://dc.lft.to/lastmile_qr_scan"}, "fusion_lon": 0.0, "lat": 38.903650166666665, "lon": -77.034992, "bike_id": "cd3066ea891dac2377a17e3edeae5092"}, {"type": "electric_scooter", "is_reserved": 0, "is_disabled": 0, "fusion_lat": 0.0, "name": "bec0fcdaf46a40f11364babfb3faf0a3", "rental_uris": {"android": "https://dc.lft.to/lastmile_qr_scan", "ios": "https://dc.lft.to/lastmile_qr_scan"}, "fusion_lon": 0.0, "lat": 38.93010566666667, "lon": -76.99487366666666, "bike_id": "bec0fcdaf46a40f11364babfb3faf0a3"}, {"type": "electric_scooter", "is_reserved": 0, "is_disabled": 0, "fusion_lat": 0.0, "name": "aad30359c01a9b7587d1d3acbb8a8712", "rental_uris": {"android": "https://dc.lft.to/lastmile_qr_scan", "ios": "https://dc.lft.to/lastmile_qr_scan"}, "fusion_lon": 0.0, "lat": 38.91452916666667, "lon": -77.03845066666666, "bike_id": "aad30359c01a9b7587d1d3acbb8a8712"}, {"type": "electric_scooter", "is_reserved": 0, "is_disabled": 0, "fusion_lat": 0.0, "name": "60bafe0ebc7913729d882d9773db3f75", "rental_uris": {"android": "https://dc.lft.to/lastmile_qr_scan", "ios": "https://dc.lft.to/lastmile_qr_scan"}, "fusion_lon": 0.0, "lat": 38.90719383333333, "lon": -77.04397266666666, "bike_id": "60bafe0ebc7913729d882d9773db3f75"}, {"type": "electric_scooter", "is_reserved": 0, "is_disabled": 0, "fusion_lat": 0.0, "name": "22717d97255c75f8cf7b63826362ad5e", "rental_uris": {"android": "https://dc.lft.to/lastmile_qr_scan", "ios": "https://dc.lft.to/lastmile_qr_scan"}, "fusion_lon": 0.0, "lat": 38.93491516666667, "lon": -77.07282433333333, "bike_id": "22717d97255c75f8cf7b63826362ad5e"}, {"type": "electric_bike", "is_reserved": 0, "is_disabled": 0, "fusion_lat": 0.0, "name": "72bc3aeb8e3017b543dffbba3421208c", "rental_uris": {"android": "https://dc.lft.to/lastmile_qr_scan", "ios": "https://dc.lft.to/lastmile_qr_scan"}, "fusion_lon": 0.0, "lat": 38.94915666666667, "lon": -77.078464, "bike_id": "72bc3aeb8e3017b543dffbba3421208c"}, {"type": "electric_scooter", "is_reserved": 0, "is_disabled": 0, "fusion_lat": 0.0, "name": "335fac5a85001c3a0f5ff32957788500", "rental_uris": {"android": "https://dc.lft.to/lastmile_qr_scan", "ios": "https://dc.lft.to/lastmile_qr_scan"}, "fusion_lon": 0.0, "lat": 38.9060535, "lon": -77.0586315, "bike_id": "335fac5a85001c3a0f5ff32957788500"}, {"type": "electric_scooter", "is_reserved": 0, "is_disabled": 0, "fusion_lat": 0.0, "name": "55ce30cdb81546523d7d68321febe425", "rental_uris": {"android": "https://dc.lft.to/lastmile_qr_scan", "ios": "https://dc.lft.to/lastmile_qr_scan"}, "fusion_lon": 0.0, "lat": 38.908990833333334, "lon": -77.08619966666667, "bike_id": "55ce30cdb81546523d7d68321febe425"}, {"type": "electric_scooter", "is_reserved": 0, "is_disabled": 0, "fusion_lat": 0.0, "name": "666fb6c4ab3639f4383433138a9a2d1b", "rental_uris": {"android": "https://dc.lft.to/lastmile_qr_scan", "ios": "https://dc.lft.to/lastmile_qr_scan"}, "fusion_lon": 0.0, "lat": 38.908139166666665, "lon": -77.0394485, "bike_id": "666fb6c4ab3639f4383433138a9a2d1b"}, {"type": "electric_scooter", "is_reserved": 0, "is_disabled": 0, "fusion_lat": 0.0, "name": "b34a5210c60befec77d7651a1b7e48b6", "rental_uris": {"android": "https://dc.lft.to/lastmile_qr_scan", "ios": "https://dc.lft.to/lastmile_qr_scan"}, "fusion_lon": 0.0, "lat": 38.910691666666665, "lon": -77.05276366666666, "bike_id": "b34a5210c60befec77d7651a1b7e48b6"}, {"type": "electric_scooter", "is_reserved": 0, "is_disabled": 0, "fusion_lat": 0.0, "name": "a6e0d6d279ce61e53ca3508c8a0361be", "rental_uris": {"android": "https://dc.lft.to/lastmile_qr_scan", "ios": "https://dc.lft.to/lastmile_qr_scan"}, "fusion_lon": 0.0, "lat": 38.9223965, "lon": -77.029854, "bike_id": "a6e0d6d279ce61e53ca3508c8a0361be"}, {"type": "electric_bike", "is_reserved": 0, "is_disabled": 0, "fusion_lat": 0.0, "name": "94d8da37805d2d86551f01589e8b5aa7", "rental_uris": {"android": "https://dc.lft.to/lastmile_qr_scan", "ios": "https://dc.lft.to/lastmile_qr_scan"}, "fusion_lon": 0.0, "lat": 38.88424633333333, "lon": -76.98086283333333, "bike_id": "94d8da37805d2d86551f01589e8b5aa7"}, {"type": "electric_scooter", "is_reserved": 0, "is_disabled": 0, "fusion_lat": 0.0, "name": "a075ebf6540f9fd07b51959ddc79b77b", "rental_uris": {"android": "https://dc.lft.to/lastmile_qr_scan", "ios": "https://dc.lft.to/lastmile_qr_scan"}, "fusion_lon": 0.0, "lat": 38.903296833333336, "lon": -77.03328666666667, "bike_id": "a075ebf6540f9fd07b51959ddc79b77b"}, {"type": "electric_scooter", "is_reserved": 0, "is_disabled": 0, "fusion_lat": 0.0, "name": "ca3b9feb8d56851e6ff042c2a5a5d1c5", "rental_uris": {"android": "https://dc.lft.to/lastmile_qr_scan", "ios": "https://dc.lft.to/lastmile_qr_scan"}, "fusion_lon": 0.0, "lat": 38.88798166666667, "lon": -76.933609, "bike_id": "ca3b9feb8d56851e6ff042c2a5a5d1c5"}, {"type": "electric_scooter", "is_reserved": 0, "is_disabled": 0, "fusion_lat": 0.0, "name": "3bc9ddc279542aaca49085bcecf5ec9d", "rental_uris": {"android": "https://dc.lft.to/lastmile_qr_scan", "ios": "https://dc.lft.to/lastmile_qr_scan"}, "fusion_lon": 0.0, "lat": 38.9660505, "lon": -77.02318933333333, "bike_id": "3bc9ddc279542aaca49085bcecf5ec9d"}, {"type": "electric_scooter", "is_reserved": 0, "is_disabled": 0, "fusion_lat": 0.0, "name": "175a8c14316e64ce881e22e5ad610314", "rental_uris": {"android": "https://dc.lft.to/lastmile_qr_scan", "ios": "https://dc.lft.to/lastmile_qr_scan"}, "fusion_lon": 0.0, "lat": 38.88265783333333, "lon": -76.9958295, "bike_id": "175a8c14316e64ce881e22e5ad610314"}, {"type": "electric_scooter", "is_reserved": 0, "is_disabled": 0, "fusion_lat": 0.0, "name": "aa87c16d45bb5d6079cfeadca0d1b702", "rental_uris": {"android": "https://dc.lft.to/lastmile_qr_scan", "ios": "https://dc.lft.to/lastmile_qr_scan"}, "fusion_lon": 0.0, "lat": 38.90237416666667, "lon": -77.0019955, "bike_id": "aa87c16d45bb5d6079cfeadca0d1b702"}, {"type": "electric_scooter", "is_reserved": 0, "is_disabled": 0, "fusion_lat": 0.0, "name": "fe7493e51d30bc9bd77cbf32f9dc17cd", "rental_uris": {"android": "https://dc.lft.to/lastmile_qr_scan", "ios": "https://dc.lft.to/lastmile_qr_scan"}, "fusion_lon": 0.0, "lat": 38.9843275, "lon": -77.02673233333333, "bike_id": "fe7493e51d30bc9bd77cbf32f9dc17cd"}, {"type": "electric_bike", "is_reserved": 0, "is_disabled": 0, "fusion_lat": 0.0, "name": "26bf0f39e68e204160e51133eaf3065e", "rental_uris": {"android": "https://dc.lft.to/lastmile_qr_scan", "ios": "https://dc.lft.to/lastmile_qr_scan"}, "fusion_lon": 0.0, "lat": 38.80447266666667, "lon": -77.04235483333333, "bike_id": "26bf0f39e68e204160e51133eaf3065e"}, {"type": "electric_scooter", "is_reserved": 0, "is_disabled": 0, "fusion_lat": 0.0, "name": "33caffe76e7feeb6030a38877b531f59", "rental_uris": {"android": "https://dc.lft.to/lastmile_qr_scan", "ios": "https://dc.lft.to/lastmile_qr_scan"},