{"data": {"bikes": [{"fusion_lon": 0.0, "fusion_lat": 0.0, "rental_uris": {"android": "https://dc.lft.to/lastmile_qr_scan", "ios": "https://dc.lft.to/lastmile_qr_scan"}, "is_disabled": 0, "type": "electric_scooter", "is_reserved": 0, "name": "5582c7010ff138b00bffdb69d1011676", "lon": -77.03692466666666, "bike_id": "5582c7010ff138b00bffdb69d1011676", "lat": 38.918175833333336}, {"fusion_lon": 0.0, "fusion_lat": 0.0, "rental_uris": {"android": "https://dc.lft.to/lastmile_qr_scan", "ios": "https://dc.lft.to/lastmile_qr_scan"}, "is_disabled": 0, "type": "electric_scooter", "is_reserved": 0, "name": "68db6260a4c09b0b44ae7a927275cb58", "lon": -77.0369105, "bike_id": "68db6260a4c09b0b44ae7a927275cb58", "lat": 38.918199}, {"fusion_lon": 0.0, "fusion_lat": 0.0, "rental_uris": {"android": "https://dc.lft.to/lastmile_qr_scan", "ios": "https://dc.lft.to/lastmile_qr_scan"}, "is_disabled": 0, "type": "electric_scooter", "is_reserved": 0, "name": "778372f94d31bd0b5539693b215eba4a", "lon": -77.0317185, "bike_id": "778372f94d31bd0b5539693b215eba4a", "lat": 38.89215733333333}, {"fusion_lon": 0.0, "fusion_lat": 0.0, "rental_uris": {"android": "https://dc.lft.to/lastmile_qr_scan", "ios": "https://dc.lft.to/lastmile_qr_scan"}, "is_disabled": 0, "type": "electric_scooter", "is_reserved": 0, "name": "24f78b50468752564d3cf935e92bad48", "lon": -77.0574075, "bike_id": "24f78b50468752564d3cf935e92bad48", "lat": 38.93395}, {"fusion_lon": 0.0, "fusion_lat": 0.0, "rental_uris": {"android": "https://dc.lft.to/lastmile_qr_scan", "ios": "https://dc.lft.to/lastmile_qr_scan"}, "is_disabled": 0, "type": "electric_scooter", "is_reserved": 0, "name": "a051772a4d072127fe33e69603949382", "lon": -77.02291516666666, "bike_id": "a051772a4d072127fe33e69603949382", "lat": 38.928972333333334}, {"fusion_lon": 0.0, "fusion_lat": 0.0, "rental_uris": {"android": "https://dc.lft.to/lastmile_qr_scan", "ios": "https://dc.lft.to/lastmile_qr_scan"}, "is_disabled": 0, "type": "electric_scooter", "is_reserved": 0, "name": "5127266dfd0e6ee044b0b0a233934f4b", "lon": -77.043812, "bike_id": "5127266dfd0e6ee044b0b0a233934f4b", "lat": 38.92356233333334}, {"fusion_lon": 0.0, "fusion_lat": 0.0, "rental_uris": {"android": "https://dc.lft.to/lastmile_qr_scan", "ios": "https://dc.lft.to/lastmile_qr_scan"}, "is_disabled": 0, "type": "electric_scooter", "is_reserved": 0, "name": "55cb8c5dbcdea6d1f6e1caf4f4eedb95", "lon": -77.03285716666667, "bike_id": "55cb8c5dbcdea6d1f6e1caf4f4eedb95", "lat": 38.9461035}, {"fusion_lon": 0.0, "fusion_lat": 0.0, "rental_uris": {"android": "https://dc.lft.to/lastmile_qr_scan", "ios": "https://dc.lft.to/lastmile_qr_scan"}, "is_disabled": 0, "type": "electric_scooter", "is_reserved": 0, "name": "41b76c661ee1733743fd992d2b186889", "lon": -77.02785783333333, "bike_id": "41b76c661ee1733743fd992d2b186889", "lat": 38.92766683333333}, {"fusion_lon": 0.0, "fusion_lat": 0.0, "rental_uris": {"android": "https://dc.lft.to/lastmile_qr_scan", "ios": "https://dc.lft.to/lastmile_qr_scan"}, "is_disabled": 0, "type": "electric_bike", "is_reserved": 0, "name": "184954d956da18b7e0b3ccbc8b8d4c09", "lon": -77.0507805, "bike_id": "184954d956da18b7e0b3ccbc8b8d4c09", "lat": 38.813304333333335}, {"fusion_lon": 0.0, "fusion_lat": 0.0, "rental_uris": {"android": "https://dc.lft.to/lastmile_qr_scan", "ios": "https://dc.lft.to/lastmile_qr_scan"}, "is_disabled": 0, "type": "electric_scooter", "is_reserved": 0, "name": "6e257a953b7982c9b1e3991a0524a4bc", "lon": -77.02757083333333, "bike_id": "6e257a953b7982c9b1e3991a0524a4bc", "lat": 38.92764666666667}, {"fusion_lon": 0.0, "fusion_lat": 0.0, "rental_uris": {"android": "https://dc.lft.to/lastmile_qr_scan", "ios": "https://dc.lft.to/lastmile_qr_scan"}, "is_disabled": 0, "type": "electric_scooter", "is_reserved": 0, "name": "60b07a86644783823cb5ee12300e3b79", "lon": -77.01821833333334, "bike_id": "60b07a86644783823cb5ee12300e3b79", "lat": 38.92269666666667}, {"fusion_lon": 0.0, "fusion_lat": 0.0, "rental_uris": {"android": "https://dc.lft.to/lastmile_qr_scan", "ios": "https://dc.lft.to/lastmile_qr_scan"}, "is_disabled": 0, "type": "electric_bike", "is_reserved": 0, "name": "375be4133a5b16da94e65f2c23471ec4", "lon": -77.2293835, "bike_id": "375be4133a5b16da94e65f2c23471ec4", "lat": 38.92797216666666}, {"fusion_lon": 0.0, "fusion_lat": 0.0, "rental_uris": {"android": "https://dc.lft.to/lastmile_qr_scan", "ios": "https://dc.lft.to/lastmile_qr_scan"}, "is_disabled": 0, "type": "electric_scooter", "is_reserved": 0, "name": "f6eef55c211b5d9f457da09bec93466d", "lon": -77.03712183333333, "bike_id": "f6eef55c211b5d9f457da09bec93466d", "lat": 38.90034633333333}, {"fusion_lon": 0.0, "fusion_lat": 0.0, "rental_uris": {"android": "https://dc.lft.to/lastmile_qr_scan", "ios": "https://dc.lft.to/lastmile_qr_scan"}, "is_disabled": 0, "type": "electric_scooter", "is_reserved": 0, "name": "c2159841d9116ec344ce0e04738571ca", "lon": -77.01674683333333, "bike_id": "c2159841d9116ec344ce0e04738571ca", "lat": 38.920383333333334}, {"fusion_lon": 0.0, "fusion_lat": 0.0, "rental_uris": {"android": "https://dc.lft.to/lastmile_qr_scan", "ios": "https://dc.lft.to/lastmile_qr_scan"}, "is_disabled": 0, "type": "electric_scooter", "is_reserved": 0, "name": "9faadf0814dcf8336f8bf021df22d0bd", "lon": -77.0449955, "bike_id": "9faadf0814dcf8336f8bf021df22d0bd", "lat": 38.919647}, {"fusion_lon": 0.0, "fusion_lat": 0.0, "rental_uris": {"android": "https://dc.lft.to/lastmile_qr_scan", "ios": "https://dc.lft.to/lastmile_qr_scan"}, "is_disabled": 0, "type": "electric_bike", "is_reserved": 0, "name": "712ded1e483309f4e7057f28e656bf4b", "lon": -77.0899575, "bike_id": "712ded1e483309f4e7057f28e656bf4b", "lat": 38.9090345}, {"fusion_lon": 0.0, "fusion_lat": 0.0, "rental_uris": {"android": "https://dc.lft.to/lastmile_qr_scan", "ios": "https://dc.lft.to/lastmile_qr_scan"}, "is_disabled": 0, "type": "electric_scooter", "is_reserved": 0, "name": "e4c396b60e67eec8c29ded8236733372", "lon": -77.02819233333334, "bike_id": "e4c396b60e67eec8c29ded8236733372", "lat": 38.90721416666667}, {"fusion_lon": 0.0, "fusion_lat": 0.0, "rental_uris": {"android": "https://dc.lft.to/lastmile_qr_scan", "ios": "https://dc.lft.to/lastmile_qr_scan"}, "is_disabled": 0, "type": "electric_scooter", "is_reserved": 0, "name": "0a152e85687c8066cc93dc02afc73b1c", "lon": -77.03280316666667, "bike_id": "0a152e85687c8066cc93dc02afc73b1c", "lat": 38.94749083333333}, {"fusion_lon": 0.0, "fusion_lat": 0.0, "rental_uris": {"android": "https://dc.lft.to/lastmile_qr_scan", "ios": "https://dc.lft.to/lastmile_qr_scan"}, "is_disabled": 0, "type": "electric_scooter", "is_reserved": 0, "name": "db584babb020afa5f8af146e2318b8c4", "lon": -77.07140616666666, "bike_id": "db584babb020afa5f8af146e2318b8c4", "lat": 38.9201995}, {"fusion_lon": 0.0, "fusion_lat": 0.0, "rental_uris": {"android": "https://dc.lft.to/lastmile_qr_scan", "ios": "https://dc.lft.to/lastmile_qr_scan"}, "is_disabled": 0, "type": "electric_scooter", "is_reserved": 0, "name": "097dfa405a781570fd78cd01cf246cf2", "lon": -77.02489933333334, "bike_id": "097dfa405a781570fd78cd01cf246cf2", "lat": 38.919212333333334}, {"fusion_lon": 0.0, "fusion_lat": 0.0, "rental_uris": {"android": "https://dc.lft.to/lastmile_qr_scan", "ios": "https://dc.lft.to/lastmile_qr_scan"}, "is_disabled": 0, "type": "electric_bike", "is_reserved": 0, "name": "41e6d394c44ceba9e3d118358e155957", "lon": -77.09567966666667, "bike_id": "41e6d394c44ceba9e3d118358e155957", "lat": 38.9918615}, {"fusion_lon": 0.0, "fusion_lat": 0.0, "rental_uris": {"android": "https://dc.lft.to/lastmile_qr_scan", "ios": "https://dc.lft.to/lastmile_qr_scan"}, "is_disabled": 0, "type": "electric_scooter", "is_reserved": 0, "name": "bff59b70a15a47215e20225e3679c28f", "lon": -77.03216966666666, "bike_id": "bff59b70a15a47215e20225e3679c28f", "lat": 38.8922085}, {"fusion_lon": 0.0, "fusion_lat": 0.0, "rental_uris": {"android": "https://dc.lft.to/lastmile_qr_scan", "ios": "https://dc.lft.to/lastmile_qr_scan"}, "is_disabled": 0, "type": "electric_scooter", "is_reserved": 0, "name": "53dcaee2ef1f188b593d28d74fe70312", "lon": -77.0326005, "bike_id": "53dcaee2ef1f188b593d28d74fe70312", "lat": 38.9292985}, {"fusion_lon": 0.0, "fusion_lat": 0.0, "rental_uris": {"android": "https://dc.lft.to/lastmile_qr_scan", "ios": "https://dc.lft.to/lastmile_qr_scan"}, "is_disabled": 0, "type": "electric_bike", "is_reserved": 0, "name": "4fb298570c05cc9fd640b430edbf82d7", "lon": -77.08447966666667, "bike_id": "4fb298570c05cc9fd640b430edbf82d7", "lat": 38.864455666666665}, {"fusion_lon": 0.0, "fusion_lat": 0.0, "rental_uris": {"android": "https://dc.lft.to/lastmile_qr_scan", "ios": "https://dc.lft.to/lastmile_qr_scan"}, "is_disabled": 0, "type": "electric_scooter", "is_reserved": 0, "name": "e63631f258f511ef797d120e5ec3e4db", "lon": -77.01912466666667, "bike_id": "e63631f258f511ef797d120e5ec3e4db", "lat": 38.93265433333333}, {"fusion_lon": 0.0, "fusion_lat": 0.0, "rental_uris": {"android": "https://dc.lft.to/lastmile_qr_scan", "ios": "https://dc.lft.to/lastmile_qr_scan"}, "is_disabled": 0, "type": "electric_scooter", "is_reserved": 0, "name": "7ef3e8029969727ced5254c9b8c03bff", "lon": -77.07467116666666, "bike_id": "7ef3e8029969727ced5254c9b8c03bff", "lat": 38.922463}, {"fusion_lon": 0.0, "fusion_lat": 0.0, "rental_uris": {"android": "https://dc.lft.to/lastmile_qr_scan", "ios": "https://dc.lft.to/lastmile_qr_scan"}, "is_disabled": 0, "type": "electric_scooter", "is_reserved": 0, "name": "058ec65d3d05451aed08fa10fade7d80", "lon": -77.024346, "bike_id": "058ec65d3d05451aed08fa10fade7d80", "lat": 38.909648833333335}, {"fusion_lon": 0.0, "fusion_lat": 0.0, "rental_uris": {"android": "https://dc.lft.to/lastmile_qr_scan", "ios": "https://dc.lft.to/lastmile_qr_scan"}, "is_disabled": 0, "type": "electric_scooter", "is_reserved": 0, "name": "c4807fd605b2d26e0c142c3992eb259a", "lon": -77.03209116666666, "bike_id": "c4807fd605b2d26e0c142c3992eb259a", "lat": 38.91588133333333}, {"fusion_lon": 0.0, "fusion_lat": 0.0, "rental_uris": {"android": "https://dc.lft.to/lastmile_qr_scan", "ios": "https://dc.lft.to/lastmile_qr_scan"}, "is_disabled": 0, "type": "electric_scooter", "is_reserved": 0, "name": "774f9df26e24d99adedc784558d24dbb", "lon": -77.02626533333333, "bike_id": "774f9df26e24d99adedc784558d24dbb", "lat": 38.9411325}, {"fusion_lon": 0.0, "fusion_lat": 0.0, "rental_uris": {"android": "https://dc.lft.to/lastmile_qr_scan", "ios": "https://dc.lft.to/lastmile_qr_scan"}, "is_disabled": 0, "type": "electric_scooter", "is_reserved": 0, "name": "c1cf21f4c278749760a3319ab5424aae", "lon": -77.02703616666666, "bike_id": "c1cf21f4c278749760a3319ab5424aae", "lat": 38.91691}, {"fusion_lon": 0.0, "fusion_lat": 0.0, "rental_uris": {"android": "https://dc.lft.to/lastmile_qr_scan", "ios": "https://dc.lft.to/lastmile_qr_scan"}, "is_disabled": 0, "type": "electric_scooter", "is_reserved": 0, "name": "25014a9bb69199024124e370988169af", "lon": -77.0459685, "bike_id": "25014a9bb69199024124e370988169af", "lat": 38.89614733333333}, {"fusion_lon": 0.0, "fusion_lat": 0.0, "rental_uris": {"android": "https://dc.lft.to/lastmile_qr_scan", "ios": "https://dc.lft.to/lastmile_qr_scan"}, "is_disabled": 0, "type": "electric_scooter", "is_reserved": 0, "name": "2c0fc89e0f5e43fd1abe33e2ae185de6", "lon": -77.04261166666667, "bike_id": "2c0fc89e0f5e43fd1abe33e2ae185de6", "lat": 38.92065483333333}, {"fusion_lon": 0.0, "fusion_lat": 0.0, "rental_uris": {"android": "https://dc.lft.to/lastmile_qr_scan", "ios": "https://dc.lft.to/lastmile_qr_scan"}, "is_disabled": 0, "type": "electric_scooter", "is_reserved": 0, "name": "fc1e54d49b80ce1e99d141ac67980246", "lon": -77.02484716666666, "bike_id": "fc1e54d49b80ce1e99d141ac67980246", "lat": 38.880149333333335}, {"fusion_lon": 0.0, "fusion_lat": 0.0, "rental_uris": {"android": "https://dc.lft.to/lastmile_qr_scan", "ios": "https://dc.lft.to/lastmile_qr_scan"}, "is_disabled": 0, "type": "electric_scooter", "is_reserved": 0, "name": "4df50f753b54897e41df70c6e744d1d1", "lon": -77.031512, "bike_id": "4df50f753b54897e41df70c6e744d1d1", "lat": 38.927946666666664}, {"fusion_lon": 0.0, "fusion_lat": 0.0, "rental_uris": {"android": "https://dc.lft.to/lastmile_qr_scan", "ios": "https://dc.lft.to/lastmile_qr_scan"}, "is_disabled": 0, "type": "electric_scooter", "is_reserved": 0, "name": "ff2dc29af58ed855135a68de07a2d64f", "lon": -77.0523095, "bike_id": "ff2dc29af58ed855135a68de07a2d64f", "lat": 38.92468516666667}, {"fusion_lon": 0.0, "fusion_lat": 0.0, "rental_uris": {"android": "https://dc.lft.to/lastmile_qr_scan", "ios": "https://dc.lft.to/lastmile_qr_scan"}, "is_disabled": 0, "type": "electric_scooter", "is_reserved": 0, "name": "d22719b0333d41a2263bb522b3040d2c", "lon": -77.00290033333333, "bike_id": "d22719b0333d41a2263bb522b3040d2c", "lat": 38.891958}, {"fusion_lon": 0.0, "fusion_lat": 0.0, "rental_uris": {"android": "https://dc.lft.to/lastmile_qr_scan", "ios": "https://dc.lft.to/lastmile_qr_scan"}, "is_disabled": 0, "type": "electric_scooter", "is_reserved": 0, "name": "e0ef2e7ae29450c6289e29b05484df58", "lon": -77.027108, "bike_id": "e0ef2e7ae29450c6289e29b05484df58", "lat": 38.900744833333334}, {"fusion_lon": 0.0, "fusion_lat": 0.0, "rental_uris": {"android": "https://dc.lft.to/lastmile_qr_scan", "ios": "https://dc.lft.to/lastmile_qr_scan"}, "is_disabled": 0, "type": "electric_scooter", "is_reserved": 0, "name": "e108b32f534839704f6c3c356d6add74", "lon": -77.01711483333334, "bike_id": "e108b32f534839704f6c3c356d6add74", "lat": 38.9072225}, {"fusion_lon": 0.0, "fusion_lat": 0.0, "rental_uris": {"android": "https://dc.lft.to/lastmile_qr_scan", "ios": "https://dc.lft.to/lastmile_qr_scan"}, "is_disabled": 0, "type": "electric_scooter", "is_reserved": 0, "name": "79e0df9c23bccfb63b7171315473f2f7", "lon": -77.04479583333334, "bike_id": "79e0df9c23bccfb63b7171315473f2f7", "lat": 38.894255}, {"fusion_lon": 0.0, "fusion_lat": 0.0, "rental_uris": {"android": "https://dc.lft.to/lastmile_qr_scan", "ios": "https://dc.lft.to/lastmile_qr_scan"}, "is_disabled": 0, "type": "electric_scooter", "is_reserved": 0, "name": "944f6c6c5f40ddadc139f4fe1b9db23b", "lon": -77.02849616666667, "bike_id": "944f6c6c5f40ddadc139f4fe1b9db23b", "lat": 38.942078}, {"fusion_lon": 0.0, "fusion_lat": 0.0, "rental_uris": {"android": "https://dc.lft.to/lastmile_qr_scan", "ios": "https://dc.lft.to/lastmile_qr_scan"}, "is_disabled": 0, "type": "electric_scooter", "is_reserved": 0, "name": "f0e1151c43a2a1fde38bcb3b3b2ecc58", "lon": -77.03579233333333, "bike_id": "f0e1151c43a2a1fde38bcb3b3b2ecc58", "lat": 38.903619166666665}, {"fusion_lon": 0.0, "fusion_lat": 0.0, "rental_uris": {"android": "https://dc.lft.to/lastmile_qr_scan", "ios": "https://dc.lft.to/lastmile_qr_scan"}, "is_disabled": 0, "type": "electric_scooter", "is_reserved": 0, "name": "676181c7c190554047bcc14282b6c9b7", "lon": -77.044539, "bike_id": "676181c7c190554047bcc14282b6c9b7", "lat": 38.896018833333336}, {"fusion_lon": 0.0, "fusion_lat": 0.0, "rental_uris": {"android": "https://dc.lft.to/lastmile_qr_scan", "ios": "https://dc.lft.to/lastmile_qr_scan"}, "is_disabled": 0, "type": "electric_scooter", "is_reserved": 0, "name": "6c5af5c50f4ee7a9bf7956832b076f56", "lon": -77.029795, "bike_id": "6c5af5c50f4ee7a9bf7956832b076f56", "lat": 38.921527}, {"fusion_lon": 0.0, "fusion_lat": 0.0, "rental_uris": {"android": "https://dc.lft.to/lastmile_qr_scan", "ios": "https://dc.lft.to/lastmile_qr_scan"}, "is_disabled": 0, "type": "electric_scooter", "is_reserved": 0, "name": "fece238d0465eb4ecd87cf0ac17813b3", "lon": -77.036624, "bike_id": "fece238d0465eb4ecd87cf0ac17813b3", "lat": 38.922381333333334}, {"fusion_lon": 0.0, "fusion_lat": 0.0, "rental_uris": {"android": "https://dc.lft.to/lastmile_qr_scan", "ios": "https://dc.lft.to/lastmile_qr_scan"}, "is_disabled": 0, "type": "electric_scooter", "is_reserved": 0, "name": "5c1f959c7d77ad1c83f7605648ba25f6", "lon": -77.06618466666667, "bike_id": "5c1f959c7d77ad1c83f7605648ba25f6", "lat": 38.936788166666666}, {"fusion_lon": 0.0, "fusion_lat": 0.0, "rental_uris": {"android": "https://dc.lft.to/lastmile_qr_scan", "ios": "https://dc.lft.to/lastmile_qr_scan"}, "is_disabled": 0, "type": "electric_bike", "is_reserved": 0, "name": "e9ebbe83c463973a77addb0e5f01fe21", "lon": -77.08907516666666, "bike_id": "e9ebbe83c463973a77addb0e5f01fe21", "lat": 38.9673125}, {"fusion_lon": 0.0, "fusion_lat": 0.0, "rental_uris": {"android": "https://dc.lft.to/lastmile_qr_scan", "ios": "https://dc.lft.to/lastmile_qr_scan"}, "is_disabled": 0, "type": "electric_scooter", "is_reserved": 0, "name": "4ef86742b13b0b9b3c32a0147771ac66", "lon": -77.040845, "bike_id": "4ef86742b13b0b9b3c32a0147771ac66", "lat": 38.89220066666667}, {"fusion_lon": 0.0, "fusion_lat": 0.0, "rental_uris": {"android": "https://dc.lft.to/lastmile_qr_scan", "ios": "https://dc.lft.to/lastmile_qr_scan"}, "is_disabled": 0, "type": "electric_scooter", "is_reserved": 0, "name": "2ca64dbae202ecc4f60fc8d4ed4cb261", "lon": -77.04201683333334, "bike_id": "2ca64dbae202ecc4f60fc8d4ed4cb261", "lat": 38.92616566666667}, {"fusion_lon": 0.0, "fusion_lat": 0.0, "rental_uris": {"android": "https://dc.lft.to/lastmile_qr_scan", "ios": "https://dc.lft.to/lastmile_qr_scan"}, "is_disabled": 0, "type": "electric_scooter", "is_reserved": 0, "name": "8c68cf7d6fb6384142e37f178e36e0a4", "lon": -77.01947283333334, "bike_id": "8c68cf7d6fb6384142e37f178e36e0a4", "lat": 38.922408833333336}, {"fusion_lon": 0.0, "fusion_lat": 0.0, "rental_uris": {"android": "https://dc.lft.to/lastmile_qr_scan", "ios": "https://dc.lft.to/lastmile_qr_scan"}, "is_disabled": 0, "type": "electric_bike", "is_reserved": 0, "name": "d72d0c993e2ec228d2ec84bb8e07b235", "lon": -77.005777, "bike_id": "d72d0c993e2ec228d2ec84bb8e07b235", "lat": 38.89804783333334}, {"fusion_lon": 0.0, "fusion_lat": 0.0, "rental_uris": {"android": "https://dc.lft.to/lastmile_qr_scan", "ios": "https://dc.lft.to/lastmile_qr_scan"}, "is_disabled": 0, "type": "electric_scooter", "is_reserved": 0, "name": "16c35070e42c10e785d17e02be9037b1", "lon": -76.98692416666667, "bike_id": "16c35070e42c10e785d17e02be9037b1", "lat": 38.90019}, {"fusion_lon": 0.0, "fusion_lat": 0.0, "rental_uris": {"android": "https://dc.lft.to/lastmile_qr_scan", "ios": "https://dc.lft.to/lastmile_qr_scan"}, "is_disabled": 0, "type": "electric_bike", "is_reserved": 0, "name": "e214f4ec5d3a97e468d3860279e5d2fc", "lon": -76.988151, "bike_id": "e214f4ec5d3a97e468d3860279e5d2fc", "lat": 38.8427755}, {"fusion_lon": 0.0, "fusion_lat": 0.0, "rental_uris": {"android": "https://dc.lft.to/lastmile_qr_scan", "ios": "https://dc.lft.to/lastmile_qr_scan"}, "is_disabled": 0, "type": "electric_scooter", "is_reserved": 0, "name": "78697f16033cbf37eed5b07fdbf146eb", "lon": -77.0215845, "bike_id": "78697f16033cbf37eed5b07fdbf146eb", "lat": 38.926103499999996}, {"fusion_lon": 0.0, "fusion_lat": 0.0, "rental_uris": {"android": "https://dc.lft.to/lastmile_qr_scan", "ios": "https://dc.lft.to/lastmile_qr_scan"}, "is_disabled": 0, "type": "electric_scooter", "is_reserved": 0, "name": "9a6702679ff7a424f23eddb9f51feca7", "lon": -77.000463, "bike_id": "9a6702679ff7a424f23eddb9f51feca7", "lat": 38.8875885}, {"fusion_lon": 0.0, "fusion_lat": 0.0, "rental_uris": {"android": "https://dc.lft.to/lastmile_qr_scan", "ios": "https://dc.lft.to/lastmile_qr_scan"}, "is_disabled": 0, "type": "electric_scooter", "is_reserved": 0, "name": "699b3f9cfe3a7c02dc428a2edbe81be0", "lon": -77.03014833333333, "bike_id": "699b3f9cfe3a7c02dc428a2edbe81be0", "lat": 38.89591183333334}, {"fusion_lon": 0.0, "fusion_lat": 0.0, "rental_uris": {"android": "https://dc.lft.to/lastmile_qr_scan", "ios": "https://dc.lft.to/lastmile_qr_scan"}, "is_disabled": 0, "type": "electric_bike", "is_reserved": 0, "name": "9553c06efc8b502c8e981bae803c501e", "lon": -76.96434116666667, "bike_id": "9553c06efc8b502c8e981bae803c501e", "lat": 38.9187155}, {"fusion_lon": 0.0, "fusion_lat": 0.0, "rental_uris": {"android": "https://dc.lft.to/lastmile_qr_scan", "ios": "https://dc.lft.to/lastmile_qr_scan"}, "is_disabled": 0, "type": "electric_scooter", "is_reserved": 0, "name": "356f8903eb1108fdd25e96cb98a68f03", "lon": -77.0447505, "bike_id": "356f8903eb1108fdd25e96cb98a68f03", "lat": 38.91117416666667}, {"fusion_lon": 0.0, "fusion_lat": 0.0, "rental_uris": {"android": "https://dc.lft.to/lastmile_qr_scan", "ios": "https://dc.lft.to/lastmile_qr_scan"}, "is_disabled": 0, "type": "electric_bike", "is_reserved": 0, "name": "8080fe947aaa06ba6e5bd9778321a0b8", "lon": -76.97343666666667, "bike_id": "8080fe947aaa06ba6e5bd9778321a0b8", "lat": 38.865529333333335}, {"fusion_lon": 0.0, "fusion_lat": 0.0, "rental_uris": {"android": "https://dc.lft.to/lastmile_qr_scan", "ios": "https://dc.lft.to/lastmile_qr_scan"}, "is_disabled": 0, "type": "electric_scooter", "is_reserved": 0, "name": "6c98b2fe706ccef744489c7f0ca66b5b", "lon": -77.00580016666666, "bike_id": "6c98b2fe706ccef744489c7f0ca66b5b", "lat": 38.875493166666665}, {"fusion_lon": 0.0, "fusion_lat": 0.0, "rental_uris": {"android": "https://dc.lft.to/lastmile_qr_scan", "ios": "https://dc.lft.to/lastmile_qr_scan"}, "is_disabled": 0, "type": "electric_bike", "is_reserved": 0, "name": "edbd075add0a090cc27266f29066543b", "lon": -77.09521283333333, "bike_id": "edbd075add0a090cc27266f29066543b", "lat": 38.83812416666667}, {"fusion_lon": 0.0, "fusion_lat": 0.0, "rental_uris": {"android": "https://dc.lft.to/lastmile_qr_scan", "ios": "https://dc.lft.to/lastmile_qr_scan"}, "is_disabled": 0, "type": "electric_scooter", "is_reserved": 0, "name": "e8cb24881cc2653d0a92d65f499b9d93", "lon": -77.0199425, "bike_id": "e8cb24881cc2653d0a92d65f499b9d93", "lat": 38.901787166666665}, {"fusion_lon": 0.0, "fusion_lat": 0.0, "rental_uris": {"android": "https://dc.lft.to/lastmile_qr_scan", "ios": "https://dc.lft.to/lastmile_qr_scan"}, "is_disabled": 0, "type": "electric_scooter", "is_reserved": 0, "name": "bc8b23ce4e05bdeebc844a9c52d99ed6", "lon": -77.02428883333333, "bike_id": "bc8b23ce4e05bdeebc844a9c52d99ed6", "lat": 38.89407333333333}, {"fusion_lon": 0.0, "fusion_lat": 0.0, "rental_uris": {"android": "https://dc.lft.to/lastmile_qr_scan", "ios": "https://dc.lft.to/lastmile_qr_scan"}, "is_disabled": 0, "type": "electric_bike", "is_reserved": 0, "name": "7f7244d7ac7a8fc8557feb7a3ed20b6d", "lon": -77.09751816666666, "bike_id": "7f7244d7ac7a8fc8557feb7a3ed20b6d", "lat": 38.9809765}, {"fusion_lon": 0.0, "fusion_lat": 0.0, "rental_uris": {"android": "https://dc.lft.to/lastmile_qr_scan", "ios": "https://dc.lft.to/lastmile_qr_scan"}, "is_disabled": 0, "type": "electric_scooter", "is_reserved": 0, "name": "e1f80973e8c0db73b9dc1c81731fbb2d", "lon": -77.00359966666667, "bike_id": "e1f80973e8c0db73b9dc1c81731fbb2d", "lat": 38.89933966666667}, {"fusion_lon": 0.0, "fusion_lat": 0.0, "rental_uris": {"android": "https://dc.lft.to/lastmile_qr_scan", "ios": "https://dc.lft.to/lastmile_qr_scan"}, "is_disabled": 0, "type": "electric_scooter", "is_reserved": 0, "name": "e3718c2f5222c25dbc1d4242fe0d4036", "lon": -76.99897383333334, "bike_id": "e3718c2f5222c25dbc1d4242fe0d4036", "lat": 38.890931}, {"fusion_lon": 0.0, "fusion_lat": 0.0, "rental_uris": {"android": "https://dc.lft.to/lastmile_qr_scan", "ios": "https://dc.lft.to/lastmile_qr_scan"}, "is_disabled": 0, "type": "electric_scooter", "is_reserved": 0, "name": "74c13e420d0b6d875b2120d3a10012e9", "lon": -77.05506433333333, "bike_id": "74c13e420d0b6d875b2120d3a10012e9", "lat": 38.92948033333333}, {"fusion_lon": 0.0, "fusion_lat": 0.0, "rental_uris": {"android": "https://dc.lft.to/lastmile_qr_scan", "ios": "https://dc.lft.to/lastmile_qr_scan"}, "is_disabled": 0, "type": "electric_bike", "is_reserved": 0, "name": "4983035e06c5a7066951ccfa6105b541", "lon": -77.09442716666666, "bike_id": "4983035e06c5a7066951ccfa6105b541", "lat": 38.89422883333334}, {"fusion_lon": 0.0, "fusion_lat": 0.0, "rental_uris": {"android": "https://dc.lft.to/lastmile_qr_scan", "ios": "https://dc.lft.to/lastmile_qr_scan"}, "is_disabled": 0, "type": "electric_scooter", "is_reserved": 0, "name": "1eb6b395028050b8c36bd0abce287c31", "lon": -76.98773833333334, "bike_id": "1eb6b395028050b8c36bd0abce287c31", "lat": 38.882761333333335}, {"fusion_lon": 0.0, "fusion_lat": 0.0, "rental_uris": {"android": "https://dc.lft.to/lastmile_qr_scan", "ios": "https://dc.lft.to/lastmile_qr_scan"}, "is_disabled": 0, "type": "electric_bike", "is_reserved": 0, "name": "80604f94e6be4973e915dca0eea37456", "lon": -76.98675816666666, "bike_id": "80604f94e6be4973e915dca0eea37456", "lat": 38.97476433333333}, {"fusion_lon": 0.0, "fusion_lat": 0.0, "rental_uris": {"android": "https://dc.lft.to/lastmile_qr_scan", "ios": "https://dc.lft.to/lastmile_qr_scan"}, "is_disabled": 0, "type": "electric_scooter", "is_reserved": 0, "name": "10660ba72ad28fb95046484f2428a213", "lon": -77.02072383333334, "bike_id": "10660ba72ad28fb95046484f2428a213", "lat": 38.92142283333333}, {"fusion_lon": 0.0, "fusion_lat": 0.0, "rental_uris": {"android": "https://dc.lft.to/lastmile_qr_scan", "ios": "https://dc.lft.to/lastmile_qr_scan"}, "is_disabled": 0, "type": "electric_bike", "is_reserved": 0, "name": "86addf1aa4332d0386a5e771689dff85", "lon": -77.02097966666666, "bike_id": "86addf1aa4332d0386a5e771689dff85", "lat": 39.02293}, {"fusion_lon": 0.0, "fusion_lat": 0.0, "rental_uris": {"android": "https://dc.lft.to/lastmile_qr_scan", "ios": "https://dc.lft.to/lastmile_qr_scan"}, "is_disabled": 0, "type": "electric_bike", "is_reserved": 0, "name": "43ee6dca183784c115ff57a68a731d2d", "lon": -77.23409716666667, "bike_id": "43ee6dca183784c115ff57a68a731d2d", "lat": 38.87578}, {"fusion_lon": 0.0, "fusion_lat": 0.0, "rental_uris": {"android": "https://dc.lft.to/lastmile_qr_scan", "ios": "https://dc.lft.to/lastmile_qr_scan"}, "is_disabled": 0, "type": "electric_scooter", "is_reserved": 0, "name": "44fdf20c3aa9257bfe33222faf243aec", "lon": -77.00579866666666, "bike_id": "44fdf20c3aa9257bfe33222faf243aec", "lat": 38.902542}, {"fusion_lon": 0.0, "fusion_lat": 0.0, "rental_uris": {"android": "https://dc.lft.to/lastmile_qr_scan", "ios": "https://dc.lft.to/lastmile_qr_scan"}, "is_disabled": 0, "type": "electric_scooter", "is_reserved": 0, "name": "e646f494ed221ec88b1771143150a752", "lon": -77.0769585, "bike_id": "e646f494ed221ec88b1771143150a752", "lat": 38.922392333333335}, {"fusion_lon": 0.0, "fusion_lat": 0.0, "rental_uris": {"android": "https://dc.lft.to/lastmile_qr_scan", "ios": "https://dc.lft.to/lastmile_qr_scan"}, "is_disabled": 0, "type": "electric_scooter", "is_reserved": 0, "name": "898fbe05e64f50ac18306ba49a06c15b", "lon": -76.93929133333333, "bike_id": "898fbe05e64f50ac18306ba49a06c15b", "lat": 38.8932985}, {"fusion_lon": 0.0, "fusion_lat": 0.0, "rental_uris": {"android": "https://dc.lft.to/lastmile_qr_scan", "ios": "https://dc.lft.to/lastmile_qr_scan"}, "is_disabled": 0, "type": "electric_scooter", "is_reserved": 0, "name": "bf5db587189cc6e88f44dd1ffe141924", "lon": -77.0444025, "bike_id": "bf5db587189cc6e88f44dd1ffe141924", "lat": 38.9125205}, {"fusion_lon": 0.0, "fusion_lat": 0.0, "rental_uris": {"android": "https://dc.lft.to/lastmile_qr_scan", "ios": "https://dc.lft.to/lastmile_qr_scan"}, "is_disabled": 0, "type": "electric_scooter", "is_reserved": 0, "name": "710517b6690e576ff1166010d065e860", "lon": -77.00566516666666, "bike_id": "710517b6690e576ff1166010d065e860", "lat": 38.88500716666667}, {"fusion_lon": 0.0, "fusion_lat": 0.0, "rental_uris": {"android": "https://dc.lft.to/lastmile_qr_scan", "ios": "https://dc.lft.to/lastmile_qr_scan"}, "is_disabled": 0, "type": "electric_scooter", "is_reserved": 0, "name": "9631f1b46ebbf6b5e79fed0166429a3c", "lon": -77.02568183333334, "bike_id": "9631f1b46ebbf6b5e79fed0166429a3c", "lat": 38.88739916666667}, {"fusion_lon": 0.0, "fusion_lat": 0.0, "rental_uris": {"android": "https://dc.lft.to/lastmile_qr_scan", "ios": "https://dc.lft.to/lastmile_qr_scan"}, "is_disabled": 0, "type": "electric_scooter", "is_reserved": 0, "name": "78e00f963ca53bb0383fbeefab0b5fc5", "lon": -77.042924, "bike_id": "78e00f963ca53bb0383fbeefab0b5fc5", "lat": 38.923941666666664}, {"fusion_lon": 0.0, "fusion_lat": 0.0, "rental_uris": {"android": "https://dc.lft.to/lastmile_qr_scan", "ios": "https://dc.lft.to/lastmile_qr_scan"}, "is_disabled": 0, "type": "electric_scooter", "is_reserved": 0, "name": "ff20536797cc3e7ae19c9fd34c8ff3d2", "lon": -77.01825866666667, "bike_id": "ff20536797cc3e7ae19c9fd34c8ff3d2", "lat": 38.921244333333334}, {"fusion_lon": 0.0, "fusion_lat": 0.0, "rental_uris": {"android": "https://dc.lft.to/lastmile_qr_scan", "ios": "https://dc.lft.to/lastmile_qr_scan"}, "is_disabled": 0, "type": "electric_scooter", "is_reserved": 0, "name": "999b1ce0b0539f289981745dedffd6cb", "lon": -77.01077133333334, "bike_id": "999b1ce0b0539f289981745dedffd6cb", "lat": 38.90779366666666}, {"fusion_lon": 0.0, "fusion_lat": 0.0, "rental_uris": {"android": "https://dc.lft.to/lastmile_qr_scan", "ios": "https://dc.lft.to/lastmile_qr_scan"}, "is_disabled": 0, "type": "electric_scooter", "is_reserved": 0, "name": "bb1e331e14f98748306a2bab44304d77", "lon": -77.02611916666666, "bike_id": "bb1e331e14f98748306a2bab44304d77", "lat": 38.896023166666666}, {"fusion_lon": 0.0, "fusion_lat": 0.0, "rental_uris": {"android": "https://dc.lft.to/lastmile_qr_scan", "ios": "https://dc.lft.to/lastmile_qr_scan"}, "is_disabled": 0, "type": "electric_scooter", "is_reserved": 0, "name": "8a11ae15683d4f0f97b0d335f32ab523", "lon": -77.0204195, "bike_id": "8a11ae15683d4f0f97b0d335f32ab523", "lat": 38.9241245}, {"fusion_lon": 0.0, "fusion_lat": 0.0, "rental_uris": {"android": "https://dc.lft.to/lastmile_qr_scan", "ios": "https://dc.lft.to/lastmile_qr_scan"}, "is_disabled": 0, "type": "electric_scooter", "is_reserved": 0, "name": "4162a4548bd99d239366678dcda4735b", "lon": -77.03006166666667, "bike_id": "4162a4548bd99d239366678dcda4735b", "lat": 38.90845316666667}, {"fusion_lon": 0.0, "fusion_lat": 0.0, "rental_uris": {"android": "https://dc.lft.to/lastmile_qr_scan", "ios": "https://dc.lft.to/lastmile_qr_scan"}, "is_disabled": 0, "type": "electric_scooter", "is_reserved": 0, "name": "12a4acf74d624953a6554efac200c235", "lon": -77.02210033333333, "bike_id": "12a4acf74d624953a6554efac200c235", "lat": 38.9246905}, {"fusion_lon": 0.0, "fusion_lat": 0.0, "rental_uris": {"android": "https://dc.lft.to/lastmile_qr_scan", "ios": "https://dc.lft.to/lastmile_qr_scan"}, "is_disabled": 0, "type": "electric_scooter", "is_reserved": 0, "name": "bb325dbe0ed4620227ac3f3d08606d1a", "lon": -77.03382316666666, "bike_id": "bb325dbe0ed4620227ac3f3d08606d1a", "lat": 38.92172083333333}, {"fusion_lon": 0.0, "fusion_lat": 0.0, "rental_uris": {"android": "https://dc.lft.to/lastmile_qr_scan", "ios": "https://dc.lft.to/lastmile_qr_scan"}, "is_disabled": 0, "type": "electric_scooter", "is_reserved": 0, "name": "c7a16f854f61ff3d3235704b710b13bb", "lon": -77.0321115, "bike_id": "c7a16f854f61ff3d3235704b710b13bb", "lat": 38.920140333333336}, {"fusion_lon": 0.0, "fusion_lat": 0.0, "rental_uris": {"android": "https://dc.lft.to/lastmile_qr_scan", "ios": "https://dc.lft.to/lastmile_qr_scan"}, "is_disabled": 0, "type": "electric_scooter", "is_reserved": 0, "name": "5fae45ba151900143ce1d129966c78ad", "lon": -77.04867783333333, "bike_id": "5fae45ba151900143ce1d129966c78ad", "lat": 38.89220433333333}, {"fusion_lon": 0.0, "fusion_lat": 0.0, "rental_uris": {"android": "https://dc.lft.to/lastmile_qr_scan", "ios": "https://dc.lft.to/lastmile_qr_scan"}, "is_disabled": 0, "type": "electric_scooter", "is_reserved": 0, "name": "efd4934f590a3b3996b8db9c9a358aa5", "lon": -77.01247366666666, "bike_id": "efd4934f590a3b3996b8db9c9a358aa5", "lat": 38.94321633333333}, {"fusion_lon": 0.0, "fusion_lat": 0.0, "rental_uris": {"android": "https://dc.lft.to/lastmile_qr_scan", "ios": "https://dc.lft.to/lastmile_qr_scan"}, "is_disabled": 0, "type": "electric_scooter", "is_reserved": 0, "name": "58259d88f167113af5386352ba1643f1", "lon": -77.06276483333333, "bike_id": "58259d88f167113af5386352ba1643f1", "lat": 38.90569633333333}, {"fusion_lon": 0.0, "fusion_lat": 0.0, "rental_uris": {"android": "https://dc.lft.to/lastmile_qr_scan", "ios": "https://dc.lft.to/lastmile_qr_scan"}, "is_disabled": 0, "type": "electric_scooter", "is_reserved": 0, "name": "5f20f17c2a9503572d7ac9b8f71bad4a", "lon": -77.02377516666667, "bike_id": "5f20f17c2a9503572d7ac9b8f71bad4a", "lat": 38.952731166666666}, {"fusion_lon": 0.0, "fusion_lat": 0.0, "rental_uris": {"android": "https://dc.lft.to/lastmile_qr_scan", "ios": "https://dc.lft.to/lastmile_qr_scan"}, "is_disabled": 0, "type": "electric_scooter", "is_reserved": 0, "name": "74e09a389b6210b5d53cb53c65e5460b", "lon": -77.03334433333333, "bike_id": "74e09a389b6210b5d53cb53c65e5460b", "lat": 38.902277166666664}, {"fusion_lon": 0.0, "fusion_lat": 0.0, "rental_uris": {"android": "https://dc.lft.to/lastmile_qr_scan", "ios": "https://dc.lft.to/lastmile_qr_scan"}, "is_disabled": 0, "type": "electric_scooter", "is_reserved": 0, "name": "395fd13ea3773e31f464c28b8d6779d2", "lon": -77.03031416666667, "bike_id": "395fd13ea3773e31f464c28b8d6779d2", "lat": 38.923802}, {"fusion_lon": 0.0, "fusion_lat": 0.0, "rental_uris": {"android": "https://dc.lft.to/lastmile_qr_scan", "ios": "https://dc.lft.to/lastmile_qr_scan"}, "is_disabled": 0, "type": "electric_scooter", "is_reserved": 0, "name": "bdcf11e23a8c7dfde8fd6489d8b5e1b6", "lon": -76.98857816666667, "bike_id": "bdcf11e23a8c7dfde8fd6489d8b5e1b6", "lat": 38.9002885}, {"fusion_lon": 0.0, "fusion_lat": 0.0, "rental_uris": {"android": "https://dc.lft.to/lastmile_qr_scan", "ios": "https://dc.lft.to/lastmile_qr_scan"}, "is_disabled": 0, "type": "electric_scooter", "is_reserved": 0, "name": "9aeb7d3fe25c8b90da37c36206b4fc1e", "lon": -77.02122933333334, "bike_id": "9aeb7d3fe25c8b90da37c36206b4fc1e", "lat": 38.9239025}, {"fusion_lon": 0.0, "fusion_lat": 0.0, "rental_uris": {"android": "https://dc.lft.to/lastmile_qr_scan", "ios": "https://dc.lft.to/lastmile_qr_scan"}, "is_disabled": 0, "type": "electric_scooter", "is_reserved": 0, "name": "c236451c19a71e6620b238947d307891", "lon": -77.02151633333334, "bike_id": "c236451c19a71e6620b238947d307891", "lat": 38.924533833333335}, {"fusion_lon": 0.0, "fusion_lat": 0.0, "rental_uris": {"android": "https://dc.lft.to/lastmile_qr_scan", "ios": "https://dc.lft.to/lastmile_qr_scan"}, "is_disabled": 0, "type": "electric_scooter", "is_reserved": 0, "name": "5b45a98c8a7e80ba0b48d5affba77d70", "lon": -76.99119183333333, "bike_id": "5b45a98c8a7e80ba0b48d5affba77d70", "lat": 38.863316166666664}, {"fusion_lon": 0.0, "fusion_lat": 0.0, "rental_uris": {"android": "https://dc.lft.to/lastmile_qr_scan", "ios": "https://dc.lft.to/lastmile_qr_scan"}, "is_disabled": 0, "type": "electric_scooter", "is_reserved": 0, "name": "b2e37404456fca31d069e1faac1d9ec2", "lon": -77.03862233333334, "bike_id": "b2e37404456fca31d069e1faac1d9ec2", "lat": 38.91707233333333}, {"fusion_lon": 0.0, "fusion_lat": 0.0, "rental_uris": {"android": "https://dc.lft.to/lastmile_qr_scan", "ios": "https://dc.lft.to/lastmile_qr_scan"}, "is_disabled": 0, "type": "electric_scooter", "is_reserved": 0, "name": "d71544c2fd3bac644346e74a426ceed8", "lon": -77.024997, "bike_id": "d71544c2fd3bac644346e74a426ceed8", "lat": 38.88462366666667}, {"fusion_lon": 0.0, "fusion_lat": 0.0, "rental_uris": {"android": "https://dc.lft.to/lastmile_qr_scan", "ios": "https://dc.lft.to/lastmile_qr_scan"}, "is_disabled": 0, "type": "electric_scooter", "is_reserved": 0, "name": "9f68efa550dde6adabb34de71746457f", "lon": -77.096613, "bike_id": "9f68efa550dde6adabb34de71746457f", "lat": 38.9175745}, {"fusion_lon": 0.0, "fusion_lat": 0.0, "rental_uris": {"android": "https://dc.lft.to/lastmile_qr_scan", "ios": "https://dc.lft.to/lastmile_qr_scan"}, "is_disabled": 0, "type": "electric_scooter", "is_reserved": 0, "name": "7dc1fc21fa71941fae33302b6b662904", "lon": -77.0335405, "bike_id": "7dc1fc21fa71941fae33302b6b662904", "lat": 38.89245016666667}, {"fusion_lon": 0.0, "fusion_lat": 0.0, "rental_uris": {"android": "https://dc.lft.to/lastmile_qr_scan", "ios": "https://dc.lft.to/lastmile_qr_scan"}, "is_disabled": 0, "type": "electric_scooter", "is_reserved": 0, "name": "1d4abeef4a2773f8c0b2dd89cda1ec2d", "lon": -77.08236416666666, "bike_id": "1d4abeef4a2773f8c0b2dd89cda1ec2d", "lat": 38.93414033333333}, {"fusion_lon": 0.0, "fusion_lat": 0.0, "rental_uris": {"android": "https://dc.lft.to/lastmile_qr_scan", "ios": "https://dc.lft.to/lastmile_qr_scan"}, "is_disabled": 0, "type": "electric_scooter", "is_reserved": 0, "name": "60d08ff8993c1f00659419cd69b5cdcd", "lon": -77.05445333333333, "bike_id": "60d08ff8993c1f00659419cd69b5cdcd", "lat": 38.89772983333334}, {"fusion_lon": 0.0, "fusion_lat": 0.0, "rental_uris": {"android": "https://dc.lft.to/lastmile_qr_scan", "ios": "https://dc.lft.to/lastmile_qr_scan"}, "is_disabled": 0, "type": "electric_scooter", "is_reserved": 0, "name": "b092d5884ce35612b442ba7512a54336", "lon": -77.02910166666666, "bike_id": "b092d5884ce35612b442ba7512a54336", "lat": 38.914124666666666}, {"fusion_lon": 0.0, "fusion_lat": 0.0, "rental_uris": {"android": "https://dc.lft.to/lastmile_qr_scan", "ios": "https://dc.lft.to/lastmile_qr_scan"}, "is_disabled": 0, "type": "electric_scooter", "is_reserved": 0, "name": "67e0ee7d11a3e53fc710ccf22f6eaf96", "lon": -77.0393755, "bike_id": "67e0ee7d11a3e53fc710ccf22f6eaf96", "lat": 38.9012225}, {"fusion_lon": 0.0, "fusion_lat": 0.0, "rental_uris": {"android": "https://dc.lft.to/lastmile_qr_scan", "ios": "https://dc.lft.to/lastmile_qr_scan"}, "is_disabled": 0, "type": "electric_scooter", "is_reserved": 0, "name": "3ead74bccd13aa54622e02f55a3bf881", "lon": -77.00199183333334, "bike_id": "3ead74bccd13aa54622e02f55a3bf881", "lat": 38.930806833333335}, {"fusion_lon": 0.0, "fusion_lat": 0.0, "rental_uris": {"android": "https://dc.lft.to/lastmile_qr_scan", "ios": "https://dc.lft.to/lastmile_qr_scan"}, "is_disabled": 0, "type": "electric_scooter", "is_reserved": 0, "name": "6a0008af297d919cfb5d4714e9d1ef14", "lon": -77.04006683333333, "bike_id": "6a0008af297d919cfb5d4714e9d1ef14", "lat": 38.902558166666665}, {"fusion_lon": 0.0, "fusion_lat": 0.0, "rental_uris": {"android": "https://dc.lft.to/lastmile_qr_scan", "ios": "https://dc.lft.to/lastmile_qr_scan"}, "is_disabled": 0, "type": "electric_scooter", "is_reserved": 0, "name": "bef1423dcc9618b6298826168fb0d2d8", "lon": -77.039477, "bike_id": "bef1423dcc9618b6298826168fb0d2d8", "lat": 38.89894183333333}, {"fusion_lon": 0.0, "fusion_lat": 0.0, "rental_uris": {"android": "https://dc.lft.to/lastmile_qr_scan", "ios": "https://dc.lft.to/lastmile_qr_scan"}, "is_disabled": 0, "type": "electric_scooter", "is_reserved": 0, "name": "5305eab55a1a38e9cdcbc006b10c4ef2", "lon": -77.0447965, "bike_id": "5305eab55a1a38e9cdcbc006b10c4ef2", "lat": 38.893598}, {"fusion_lon": 0.0, "fusion_lat": 0.0, "rental_uris": {"android": "https://dc.lft.to/lastmile_qr_scan", "ios": "https://dc.lft.to/lastmile_qr_scan"}, "is_disabled": 0, "type": "electric_scooter", "is_reserved": 0, "name": "1d8de89680a4a9b47d936b1286c8191f", "lon": -77.02049, "bike_id": "1d8de89680a4a9b47d936b1286c8191f", "lat": 38.919036}, {"fusion_lon": 0.0, "fusion_lat": 0.0, "rental_uris": {"android": "https://dc.lft.to/lastmile_qr_scan", "ios": "https://dc.lft.to/lastmile_qr_scan"}, "is_disabled": 0, "type": "electric_scooter", "is_reserved": 0, "name": "ee2ad736b71706de4ece230ab4eff380", "lon": -77.03212333333333, "bike_id": "ee2ad736b71706de4ece230ab4eff380", "lat": 38.918261333333334}, {"fusion_lon": 0.0, "fusion_lat": 0.0, "rental_uris": {"android": "https://dc.lft.to/lastmile_qr_scan", "ios": "https://dc.lft.to/lastmile_qr_scan"}, "is_disabled": 0, "type": "electric_bike", "is_reserved": 0, "name": "7074191ea7f93b9782edf91a48cccdce", "lon": -76.97264916666667, "bike_id": "7074191ea7f93b9782edf91a48cccdce", "lat": 38.85592966666667}, {"fusion_lon": 0.0, "fusion_lat": 0.0, "rental_uris": {"android": "https://dc.lft.to/lastmile_qr_scan", "ios": "https://dc.lft.to/lastmile_qr_scan"}, "is_disabled": 0, "type": "electric_scooter", "is_reserved": 0, "name": "0215f149fc76d6e6ee951c08ba580aa1", "lon": -77.03186416666667, "bike_id": "0215f149fc76d6e6ee951c08ba580aa1", "lat": 38.919268833333334}, {"fusion_lon": 0.0, "fusion_lat": 0.0, "rental_uris": {"android": "https://dc.lft.to/lastmile_qr_scan", "ios": "https://dc.lft.to/lastmile_qr_scan"}, "is_disabled": 0, "type": "electric_scooter", "is_reserved": 0, "name": "c38e6238a4627d0f0e86068e310da9ae", "lon": -77.018382, "bike_id": "c38e6238a4627d0f0e86068e310da9ae", "lat": 38.907328666666665}, {"fusion_lon": 0.0, "fusion_lat": 0.0, "rental_uris": {"android": "https://dc.lft.to/lastmile_qr_scan", "ios": "https://dc.lft.to/lastmile_qr_scan"}, "is_disabled": 0, "type": "electric_scooter", "is_reserved": 0, "name": "16ace9c27b7f6d8afa925b6eec11355d", "lon": -77.01871066666666, "bike_id": "16ace9c27b7f6d8afa925b6eec11355d", "lat": 38.8811705}, {"fusion_lon": 0.0, "fusion_lat": 0.0, "rental_uris": {"android": "https://dc.lft.to/lastmile_qr_scan", "ios": "https://dc.lft.to/lastmile_qr_scan"}, "is_disabled": 0, "type": "electric_scooter", "is_reserved": 0, "name": "48348800da836767bf14aa71023a4978", "lon": -76.935941, "bike_id": "48348800da836767bf14aa71023a4978", "lat": 38.90941633333333}, {"fusion_lon": 0.0, "fusion_lat": 0.0, "rental_uris": {"android": "https://dc.lft.to/lastmile_qr_scan", "ios": "https://dc.lft.to/lastmile_qr_scan"}, "is_disabled": 0, "type": "electric_scooter", "is_reserved": 0, "name": "d05b6ec40194fd35987b8954bbc27787", "lon": -77.04642633333333, "bike_id": "d05b6ec40194fd35987b8954bbc27787", "lat": 38.915186}, {"fusion_lon": 0.0, "fusion_lat": 0.0, "rental_uris": {"android": "https://dc.lft.to/lastmile_qr_scan", "ios": "https://dc.lft.to/lastmile_qr_scan"}, "is_disabled": 0, "type": "electric_bike", "is_reserved": 0, "name": "267b4f974a77352d76d9f7bfa49b1478", "lon": -77.01291, "bike_id": "267b4f974a77352d76d9f7bfa49b1478", "lat": 38.881266833333335}, {"fusion_lon": 0.0, "fusion_lat": 0.0, "rental_uris": {"android": "https://dc.lft.to/lastmile_qr_scan", "ios": "https://dc.lft.to/lastmile_qr_scan"}, "is_disabled": 0, "type": "electric_scooter", "is_reserved": 0, "name": "2c4018845592c52223091037dd67e3a1", "lon": -77.04061833333333, "bike_id": "2c4018845592c52223091037dd67e3a1", "lat": 38.90502133333333}, {"fusion_lon": 0.0, "fusion_lat": 0.0, "rental_uris": {"android": "https://dc.lft.to/lastmile_qr_scan", "ios": "https://dc.lft.to/lastmile_qr_scan"}, "is_disabled": 0, "type": "electric_scooter", "is_reserved": 0, "name": "bed95752767fed2420750b9cd3a3166e", "lon": -77.02119, "bike_id": "bed95752767fed2420750b9cd3a3166e", "lat": 38.92913683333333}, {"fusion_lon": 0.0, "fusion_lat": 0.0, "rental_uris": {"android": "https://dc.lft.to/lastmile_qr_scan", "ios": "https://dc.lft.to/lastmile_qr_scan"}, "is_disabled": 0, "type": "electric_scooter", "is_reserved": 0, "name": "98b8801b95362c769c2df2bb4e904f26", "lon": -77.0466205, "bike_id": "98b8801b95362c769c2df2bb4e904f26", "lat": 38.89739616666667}, {"fusion_lon": 0.0, "fusion_lat": 0.0, "rental_uris": {"android": "https://dc.lft.to/lastmile_qr_scan", "ios": "https://dc.lft.to/lastmile_qr_scan"}, "is_disabled": 0, "type": "electric_scooter", "is_reserved": 0, "name": "3d6dfcd085f131c52c2f578748ccac71", "lon": -77.06362533333333, "bike_id": "3d6dfcd085f131c52c2f578748ccac71", "lat": 38.9080365}, {"fusion_lon": 0.0, "fusion_lat": 0.0, "rental_uris": {"android": "https://dc.lft.to/lastmile_qr_scan", "ios": "https://dc.lft.to/lastmile_qr_scan"}, "is_disabled": 0, "type": "electric_scooter", "is_reserved": 0, "name": "ee3f87364d5ddfdade365acefbb9feb6", "lon": -77.04262633333333, "bike_id": "ee3f87364d5ddfdade365acefbb9feb6", "lat": 38.922507833333334}, {"fusion_lon": 0.0, "fusion_lat": 0.0, "rental_uris": {"android": "https://dc.lft.to/lastmile_qr_scan", "ios": "https://dc.lft.to/lastmile_qr_scan"}, "is_disabled": 0, "type": "electric_scooter", "is_reserved": 0, "name": "f798c133a35f04c73f7ae55dc964faa2", "lon": -77.02493516666667, "bike_id": "f798c133a35f04c73f7ae55dc964faa2", "lat": 38.91783066666667}, {"fusion_lon": 0.0, "fusion_lat": 0.0, "rental_uris": {"android": "https://dc.lft.to/lastmile_qr_scan", "ios": "https://dc.lft.to/lastmile_qr_scan"}, "is_disabled": 0, "type": "electric_scooter", "is_reserved": 0, "name": "dff5713ba998fa98a7d55567bdcc32af", "lon": -77.03444533333334, "bike_id": "dff5713ba998fa98a7d55567bdcc32af", "lat": 38.90934}, {"fusion_lon": 0.0, "fusion_lat": 0.0, "rental_uris": {"android": "https://dc.lft.to/lastmile_qr_scan", "ios": "https://dc.lft.to/lastmile_qr_scan"}, "is_disabled": 0, "type": "electric_scooter", "is_reserved": 0, "name": "d4349a7aa9c8ec4017e0a0272e4714a2", "lon": -77.03981816666666, "bike_id": "d4349a7aa9c8ec4017e0a0272e4714a2", "lat": 38.906026833333335}, {"fusion_lon": 0.0, "fusion_lat": 0.0, "rental_uris": {"android": "https://dc.lft.to/lastmile_qr_scan", "ios": "https://dc.lft.to/lastmile_qr_scan"}, "is_disabled": 0, "type": "electric_scooter", "is_reserved": 0, "name": "c8222ea0b17902154f724d5490b13e8b", "lon": -77.026941, "bike_id": "c8222ea0b17902154f724d5490b13e8b", "lat": 38.9135305}, {"fusion_lon": 0.0, "fusion_lat": 0.0, "rental_uris": {"android": "https://dc.lft.to/lastmile_qr_scan", "ios": "https://dc.lft.to/lastmile_qr_scan"}, "is_disabled": 0, "type": "electric_bike", "is_reserved": 0, "name": "51bbf71c1853d876b69dcd991f5ee951", "lon": -76.95134133333333, "bike_id": "51bbf71c1853d876b69dcd991f5ee951", "lat": 39.084262}, {"fusion_lon": 0.0, "fusion_lat": 0.0, "rental_uris": {"android": "https://dc.lft.to/lastmile_qr_scan", "ios": "https://dc.lft.to/lastmile_qr_scan"}, "is_disabled": 0, "type": "electric_scooter", "is_reserved": 0, "name": "172af72fc4fbce58da6f1ad42f4021a3", "lon": -77.03201016666667, "bike_id": "172af72fc4fbce58da6f1ad42f4021a3", "lat": 38.9154035}, {"fusion_lon": 0.0, "fusion_lat": 0.0, "rental_uris": {"android": "https://dc.lft.to/lastmile_qr_scan", "ios": "https://dc.lft.to/lastmile_qr_scan"}, "is_disabled": 0, "type": "electric_scooter", "is_reserved": 0, "name": "800ff8a42cae01d13e874dee448025b5", "lon": -77.04159333333334, "bike_id": "800ff8a42cae01d13e874dee448025b5", "lat": 38.899512333333334}, {"fusion_lon": 0.0, "fusion_lat": 0.0, "rental_uris": {"android": "https://dc.lft.to/lastmile_qr_scan", "ios": "https://dc.lft.to/lastmile_qr_scan"}, "is_disabled": 0, "type": "electric_scooter", "is_reserved": 0, "name": "dc7ed71179610807506e3a82a15d9df6", "lon": -76.92753383333333, "bike_id": "dc7ed71179610807506e3a82a15d9df6", "lat": 38.89850333333333}, {"fusion_lon": 0.0, "fusion_lat": 0.0, "rental_uris": {"android": "https://dc.lft.to/lastmile_qr_scan", "ios": "https://dc.lft.to/lastmile_qr_scan"}, "is_disabled": 0, "type": "electric_scooter", "is_reserved": 0, "name": "8f11a092002f403283a1659f98868551", "lon": -77.0264705, "bike_id": "8f11a092002f403283a1659f98868551", "lat": 38.93856916666667}, {"fusion_lon": 0.0, "fusion_lat": 0.0, "rental_uris": {"android": "https://dc.lft.to/lastmile_qr_scan", "ios": "https://dc.lft.to/lastmile_qr_scan"}, "is_disabled": 0, "type": "electric_scooter", "is_reserved": 0, "name": "2ace5a704a8f0e67840d1f4dd9497c68", "lon": -77.02206883333334, "bike_id": "2ace5a704a8f0e67840d1f4dd9497c68", "lat": 38.896110166666666}, {"fusion_lon": 0.0, "fusion_lat": 0.0, "rental_uris": {"android": "https://dc.lft.to/lastmile_qr_scan", "ios": "https://dc.lft.to/lastmile_qr_scan"}, "is_disabled": 0, "type": "electric_scooter", "is_reserved": 0, "name": "d245b3c5ff0f63827ed257ebde6f5b73", "lon": -76.99302116666667, "bike_id": "d245b3c5ff0f63827ed257ebde6f5b73", "lat": 38.937679833333334}, {"fusion_lon": 0.0, "fusion_lat": 0.0, "rental_uris": {"android": "https://dc.lft.to/lastmile_qr_scan", "ios": "https://dc.lft.to/lastmile_qr_scan"}, "is_disabled": 0, "type": "electric_scooter", "is_reserved": 0, "name": "005e97ed79b06e91c84f87c64e30f5dd", "lon": -77.022406, "bike_id": "005e97ed79b06e91c84f87c64e30f5dd", "lat": 38.912821}, {"fusion_lon": 0.0, "fusion_lat": 0.0, "rental_uris": {"android": "https://dc.lft.to/lastmile_qr_scan", "ios": "https://dc.lft.to/lastmile_qr_scan"}, "is_disabled": 0, "type": "electric_scooter", "is_reserved": 0, "name": "67ed515e9b0cb58eb76ceee7f1a93354", "lon": -77.04326083333333, "bike_id": "67ed515e9b0cb58eb76ceee7f1a93354", "lat": 38.896825666666665}, {"fusion_lon": 0.0, "fusion_lat": 0.0, "rental_uris": {"android": "https://dc.lft.to/lastmile_qr_scan", "ios": "https://dc.lft.to/lastmile_qr_scan"}, "is_disabled": 0, "type": "electric_scooter", "is_reserved": 0, "name": "416666cf1944e54bf31a4803e26cc24c", "lon": -77.026576, "bike_id": "416666cf1944e54bf31a4803e26cc24c", "lat": 38.923746666666666}, {"fusion_lon": 0.0, "fusion_lat": 0.0, "rental_uris": {"android": "https://dc.lft.to/lastmile_qr_scan", "ios": "https://dc.lft.to/lastmile_qr_scan"}, "is_disabled": 0, "type": "electric_scooter", "is_reserved": 0, "name": "b4405dc409ce0b1ef81b2eeb2c8a653b", "lon": -77.04354983333333, "bike_id": "b4405dc409ce0b1ef81b2eeb2c8a653b", "lat": 38.907031833333335}, {"fusion_lon": 0.0, "fusion_lat": 0.0, "rental_uris": {"android": "https://dc.lft.to/lastmile_qr_scan", "ios": "https://dc.lft.to/lastmile_qr_scan"}, "is_disabled": 0, "type": "electric_scooter", "is_reserved": 0, "name": "53a488cc29ea1ec53be64b17818efbe6", "lon": -77.08018083333333, "bike_id": "53a488cc29ea1ec53be64b17818efbe6", "lat": 38.94977733333333}, {"fusion_lon": 0.0, "fusion_lat": 0.0, "rental_uris": {"android": "https://dc.lft.to/lastmile_qr_scan", "ios": "https://dc.lft.to/lastmile_qr_scan"}, "is_disabled": 0, "type": "electric_bike", "is_reserved": 0, "name": "82da9f3a11fff5e069eff5749428a950", "lon": -77.08405116666667, "bike_id": "82da9f3a11fff5e069eff5749428a950", "lat": 38.83295366666667}, {"fusion_lon": 0.0, "fusion_lat": 0.0, "rental_uris": {"android": "https://dc.lft.to/lastmile_qr_scan", "ios": "https://dc.lft.to/lastmile_qr_scan"}, "is_disabled": 0, "type": "electric_scooter", "is_reserved": 0, "name": "9d92f90334b6e1af8713ffbeee585a5b", "lon": -77.0422925, "bike_id": "9d92f90334b6e1af8713ffbeee585a5b", "lat": 38.921483}, {"fusion_lon": 0.0, "fusion_lat": 0.0, "rental_uris": {"android": "https://dc.lft.to/lastmile_qr_scan", "ios": "https://dc.lft.to/lastmile_qr_scan"}, "is_disabled": 0, "type": "electric_scooter", "is_reserved": 0, "name": "ec5ea574c2ba082d97fd9a071d5be927", "lon": -77.04608416666666, "bike_id": "ec5ea574c2ba082d97fd9a071d5be927", "lat": 38.905752}, {"fusion_lon": 0.0, "fusion_lat": 0.0, "rental_uris": {"android": "https://dc.lft.to/lastmile_qr_scan", "ios": "https://dc.lft.to/lastmile_qr_scan"}, "is_disabled": 0, "type": "electric_scooter", "is_reserved": 0, "name": "908ecce873e6703e7d1d408b8d85dfe1", "lon": -77.00213083333334, "bike_id": "908ecce873e6703e7d1d408b8d85dfe1", "lat": 38.911708833333336}, {"fusion_lon": 0.0, "fusion_lat": 0.0, "rental_uris": {"android": "https://dc.lft.to/lastmile_qr_scan", "ios": "https://dc.lft.to/lastmile_qr_scan"}, "is_disabled": 0, "type": "electric_scooter", "is_reserved": 0, "name": "4d2a8639421d3595bb13a7ffb66cc06d", "lon": -77.031982, "bike_id": "4d2a8639421d3595bb13a7ffb66cc06d", "lat": 38.90966783333333}, {"fusion_lon": 0.0, "fusion_lat": 0.0, "rental_uris": {"android": "https://dc.lft.to/lastmile_qr_scan", "ios": "https://dc.lft.to/lastmile_qr_scan"}, "is_disabled": 0, "type": "electric_scooter", "is_reserved": 0, "name": "7e782bcc9d34a0bb4da93098e9e174cf", "lon": -77.01883066666667, "bike_id": "7e782bcc9d34a0bb4da93098e9e174cf", "lat": 38.909122333333336}, {"fusion_lon": 0.0, "fusion_lat": 0.0, "rental_uris": {"android": "https://dc.lft.to/lastmile_qr_scan", "ios": "https://dc.lft.to/lastmile_qr_scan"}, "is_disabled": 0, "type": "electric_bike", "is_reserved": 0, "name": "abe740a5e2f52816ed40ef5dd815af9b", "lon": -77.02171183333333, "bike_id": "abe740a5e2f52816ed40ef5dd815af9b", "lat": 38.90012183333333}, {"fusion_lon": 0.0, "fusion_lat": 0.0, "rental_uris": {"android": "https://dc.lft.to/lastmile_qr_scan", "ios": "https://dc.lft.to/lastmile_qr_scan"}, "is_disabled": 0, "type": "electric_scooter", "is_reserved": 0, "name": "85c32f2c1a93a18eeeeb56b9fd5cddc3", "lon": -77.03400333333333, "bike_id": "85c32f2c1a93a18eeeeb56b9fd5cddc3", "lat": 38.909771666666664}, {"fusion_lon": 0.0, "fusion_lat": 0.0, "rental_uris": {"android": "https://dc.lft.to/lastmile_qr_scan", "ios": "https://dc.lft.to/lastmile_qr_scan"}, "is_disabled": 0, "type": "electric_scooter", "is_reserved": 0, "name": "899e865b077bf514aeada15d259b5005", "lon": -76.99847216666667, "bike_id": "899e865b077bf514aeada15d259b5005", "lat": 38.896213}, {"fusion_lon": 0.0, "fusion_lat": 0.0, "rental_uris": {"android": "https://dc.lft.to/lastmile_qr_scan", "ios": "https://dc.lft.to/lastmile_qr_scan"}, "is_disabled": 0, "type": "electric_scooter", "is_reserved": 0, "name": "acf00a1843325f5d08dd2a66f0ee96d9", "lon": -77.03282133333333, "bike_id": "acf00a1843325f5d08dd2a66f0ee96d9", "lat": 38.90373566666667}, {"fusion_lon": 0.0, "fusion_lat": 0.0, "rental_uris": {"android": "https://dc.lft.to/lastmile_qr_scan", "ios": "https://dc.lft.to/lastmile_qr_scan"}, "is_disabled": 0, "type": "electric_scooter", "is_reserved": 0, "name": "925d7c847aa6ba34f9ad8be7547cdb40", "lon": -77.02051916666667, "bike_id": "925d7c847aa6ba34f9ad8be7547cdb40", "lat": 38.89379533333333}, {"fusion_lon": 0.0, "fusion_lat": 0.0, "rental_uris": {"android": "https://dc.lft.to/lastmile_qr_scan", "ios": "https://dc.lft.to/lastmile_qr_scan"}, "is_disabled": 0, "type": "electric_scooter", "is_reserved": 0, "name": "affff0e85dc1f0b74a2d604628dbb958", "lon": -76.93197483333333, "bike_id": "affff0e85dc1f0b74a2d604628dbb958", "lat": 38.8829935}, {"fusion_lon": 0.0, "fusion_lat": 0.0, "rental_uris": {"android": "https://dc.lft.to/lastmile_qr_scan", "ios": "https://dc.lft.to/lastmile_qr_scan"}, "is_disabled": 0, "type": "electric_scooter", "is_reserved": 0, "name": "f3f08b8347c8e80ca5ebe7ef538968b6", "lon": -76.99025433333334, "bike_id": "f3f08b8347c8e80ca5ebe7ef538968b6", "lat": 38.8652015}, {"fusion_lon": 0.0, "fusion_lat": 0.0, "rental_uris": {"android": "https://dc.lft.to/lastmile_qr_scan", "ios": "https://dc.lft.to/lastmile_qr_scan"}, "is_disabled": 0, "type": "electric_scooter", "is_reserved": 0, "name": "56b15c7cfffa1bbdfd5ef44c94f8b177", "lon": -77.04176083333333, "bike_id": "56b15c7cfffa1bbdfd5ef44c94f8b177", "lat": 38.90471466666666}, {"fusion_lon": 0.0, "fusion_lat": 0.0, "rental_uris": {"android": "https://dc.lft.to/lastmile_qr_scan", "ios": "https://dc.lft.to/lastmile_qr_scan"}, "is_disabled": 0, "type": "electric_scooter", "is_reserved": 0, "name": "83aff2585e6c6b722230fea8d8fb5c55", "lon": -76.99728333333333, "bike_id": "83aff2585e6c6b722230fea8d8fb5c55", "lat": 38.900474333333335}, {"fusion_lon": 0.0, "fusion_lat": 0.0, "rental_uris": {"android": "https://dc.lft.to/lastmile_qr_scan", "ios": "https://dc.lft.to/lastmile_qr_scan"}, "is_disabled": 0, "type": "electric_scooter", "is_reserved": 0, "name": "22369a9a7734817ff1445570877827d3", "lon": -77.02992116666667, "bike_id": "22369a9a7734817ff1445570877827d3", "lat": 38.901325666666665}, {"fusion_lon": 0.0, "fusion_lat": 0.0, "rental_uris": {"android": "https://dc.lft.to/lastmile_qr_scan", "ios": "https://dc.lft.to/lastmile_qr_scan"}, "is_disabled": 0, "type": "electric_scooter", "is_reserved": 0, "name": "7bcb18191293f0a06524bb07e7ababdf", "lon": -76.93207416666667, "bike_id": "7bcb18191293f0a06524bb07e7ababdf", "lat": 38.89847016666667}, {"fusion_lon": 0.0, "fusion_lat": 0.0, "rental_uris": {"android": "https://dc.lft.to/lastmile_qr_scan", "ios": "https://dc.lft.to/lastmile_qr_scan"}, "is_disabled": 0, "type": "electric_scooter", "is_reserved": 0, "name": "3e50aac41688ad586c2ea900c52f6831", "lon": -77.0742285, "bike_id": "3e50aac41688ad586c2ea900c52f6831", "lat": 38.935806666666664}, {"fusion_lon": 0.0, "fusion_lat": 0.0, "rental_uris": {"android": "https://dc.lft.to/lastmile_qr_scan", "ios": "https://dc.lft.to/lastmile_qr_scan"}, "is_disabled": 0, "type": "electric_scooter", "is_reserved": 0, "name": "8459506017f2b619888dbaaf33399252", "lon": -76.9294635, "bike_id": "8459506017f2b619888dbaaf33399252", "lat": 38.90173266666667}, {"fusion_lon": 0.0, "fusion_lat": 0.0, "rental_uris": {"android": "https://dc.lft.to/lastmile_qr_scan", "ios": "https://dc.lft.to/lastmile_qr_scan"}, "is_disabled": 0, "type": "electric_scooter", "is_reserved": 0, "name": "216a8c192376ea8cdbc38d5b49704413", "lon": -77.02218883333333, "bike_id": "216a8c192376ea8cdbc38d5b49704413", "lat": 38.92464833333333}, {"fusion_lon": 0.0, "fusion_lat": 0.0, "rental_uris": {"android": "https://dc.lft.to/lastmile_qr_scan", "ios": "https://dc.lft.to/lastmile_qr_scan"}, "is_disabled": 0, "type": "electric_scooter", "is_reserved": 0, "name": "e4278d422c04b29d8c1f2d8fc7d6d22a", "lon": -77.00698016666666, "bike_id": "e4278d422c04b29d8c1f2d8fc7d6d22a", "lat": 38.90245016666667}, {"fusion_lon": 0.0, "fusion_lat": 0.0, "rental_uris": {"android": "https://dc.lft.to/lastmile_qr_scan", "ios": "https://dc.lft.to/lastmile_qr_scan"}, "is_disabled": 0, "type": "electric_scooter", "is_reserved": 0, "name": "85a814cef3df1f15fa772263f6a19ad4", "lon": -77.02152683333334, "bike_id": "85a814cef3df1f15fa772263f6a19ad4", "lat": 38.92453416666667}, {"fusion_lon": 0.0, "fusion_lat": 0.0, "rental_uris": {"android": "https://dc.lft.to/lastmile_qr_scan", "ios": "https://dc.lft.to/lastmile_qr_scan"}, "is_disabled": 0, "type": "electric_scooter", "is_reserved": 0, "name": "b4d045003511baead81cd32d8043b9b3", "lon": -77.03442916666667, "bike_id": "b4d045003511baead81cd32d8043b9b3", "lat": 38.9100265}, {"fusion_lon": 0.0, "fusion_lat": 0.0, "rental_uris": {"android": "https://dc.lft.to/lastmile_qr_scan", "ios": "https://dc.lft.to/lastmile_qr_scan"}, "is_disabled": 0, "type": "electric_scooter", "is_reserved": 0, "name": "eec1c6010b67fc2e153d0d476ae83ea3", "lon": -77.03408716666667, "bike_id": "eec1c6010b67fc2e153d0d476ae83ea3", "lat": 38.9204235}, {"fusion_lon": 0.0, "fusion_lat": 0.0, "rental_uris": {"android": "https://dc.lft.to/lastmile_qr_scan", "ios": "https://dc.lft.to/lastmile_qr_scan"}, "is_disabled": 0, "type": "electric_scooter", "is_reserved": 0, "name": "d07b1b87de6a5a6803eb602ff2576d54", "lon": -77.01060466666667, "bike_id": "d07b1b87de6a5a6803eb602ff2576d54", "lat": 38.87730466666667}, {"fusion_lon": 0.0, "fusion_lat": 0.0, "rental_uris": {"android": "https://dc.lft.to/lastmile_qr_scan", "ios": "https://dc.lft.to/lastmile_qr_scan"}, "is_disabled": 0, "type": "electric_scooter", "is_reserved": 0, "name": "2c0c546760d97a016cd03c4448d3d221", "lon": -77.01838366666667, "bike_id": "2c0c546760d97a016cd03c4448d3d221", "lat": 38.911888166666664}, {"fusion_lon": 0.0, "fusion_lat": 0.0, "rental_uris": {"android": "https://dc.lft.to/lastmile_qr_scan", "ios": "https://dc.lft.to/lastmile_qr_scan"}, "is_disabled": 0, "type": "electric_scooter", "is_reserved": 0, "name": "5202b704a86840b531dcdc240fff68f6", "lon": -77.01994483333333, "bike_id": "5202b704a86840b531dcdc240fff68f6", "lat": 38.88534933333333}, {"fusion_lon": 0.0, "fusion_lat": 0.0, "rental_uris": {"android": "https://dc.lft.to/lastmile_qr_scan", "ios": "https://dc.lft.to/lastmile_qr_scan"}, "is_disabled": 0, "type": "electric_scooter", "is_reserved": 0, "name": "5d8d9538823181fcad5f41dcd936ddc1", "lon": -77.04868283333333, "bike_id": "5d8d9538823181fcad5f41dcd936ddc1", "lat": 38.892186}, {"fusion_lon": 0.0, "fusion_lat": 0.0, "rental_uris": {"android": "https://dc.lft.to/lastmile_qr_scan", "ios": "https://dc.lft.to/lastmile_qr_scan"}, "is_disabled": 0, "type": "electric_bike", "is_reserved": 0, "name": "60f661e4f8c9d023f953d77dd314243d", "lon": -77.22566183333333, "bike_id": "60f661e4f8c9d023f953d77dd314243d", "lat": 38.92956066666667}, {"fusion_lon": 0.0, "fusion_lat": 0.0, "rental_uris": {"android": "https://dc.lft.to/lastmile_qr_scan", "ios": "https://dc.lft.to/lastmile_qr_scan"}, "is_disabled": 0, "type": "electric_bike", "is_reserved": 0, "name": "2bbd7845ac8827c5e2c941301df8c923", "lon": -77.0121635, "bike_id": "2bbd7845ac8827c5e2c941301df8c923", "lat": 38.87074633333334}, {"fusion_lon": 0.0, "fusion_lat": 0.0, "rental_uris": {"android": "https://dc.lft.to/lastmile_qr_scan", "ios": "https://dc.lft.to/lastmile_qr_scan"}, "is_disabled": 0, "type": "electric_scooter", "is_reserved": 0, "name": "add1352208ec3ef4fa2bdf35e143a66c", "lon": -77.040052, "bike_id": "add1352208ec3ef4fa2bdf35e143a66c", "lat": 38.916995666666665}, {"fusion_lon": 0.0, "fusion_lat": 0.0, "rental_uris": {"android": "https://dc.lft.to/lastmile_qr_scan", "ios": "https://dc.lft.to/lastmile_qr_scan"}, "is_disabled": 0, "type": "electric_scooter", "is_reserved": 0, "name": "5d2ad0da58fa4d25b80bef55d85f218b", "lon": -77.00289116666667, "bike_id": "5d2ad0da58fa4d25b80bef55d85f218b", "lat": 38.892331166666665}, {"fusion_lon": 0.0, "fusion_lat": 0.0, "rental_uris": {"android": "https://dc.lft.to/lastmile_qr_scan", "ios": "https://dc.lft.to/lastmile_qr_scan"}, "is_disabled": 0, "type": "electric_scooter", "is_reserved": 0, "name": "3f682d8871281e5f8fb2f6f1bb5d816e", "lon": -77.04721233333333, "bike_id": "3f682d8871281e5f8fb2f6f1bb5d816e", "lat": 38.8996365}, {"fusion_lon": 0.0, "fusion_lat": 0.0, "rental_uris": {"android": "https://dc.lft.to/lastmile_qr_scan", "ios": "https://dc.lft.to/lastmile_qr_scan"}, "is_disabled": 0, "type": "electric_scooter", "is_reserved": 0, "name": "6bc62a687a97e2485ad788145f169dd3", "lon": -77.00205083333333, "bike_id": "6bc62a687a97e2485ad788145f169dd3", "lat": 38.89808583333333}, {"fusion_lon": 0.0, "fusion_lat": 0.0, "rental_uris": {"android": "https://dc.lft.to/lastmile_qr_scan", "ios": "https://dc.lft.to/lastmile_qr_scan"}, "is_disabled": 0, "type": "electric_scooter", "is_reserved": 0, "name": "a8dedce5ff8a2d0dd7a47274d9a1cf95", "lon": -77.02485066666667, "bike_id": "a8dedce5ff8a2d0dd7a47274d9a1cf95", "lat": 38.9181695}, {"fusion_lon": 0.0, "fusion_lat": 0.0, "rental_uris": {"android": "https://dc.lft.to/lastmile_qr_scan", "ios": "https://dc.lft.to/lastmile_qr_scan"}, "is_disabled": 0, "type": "electric_scooter", "is_reserved": 0, "name": "bfb337376f573e637ff30899348845d9", "lon": -77.02712033333333, "bike_id": "bfb337376f573e637ff30899348845d9", "lat": 38.917676166666666}, {"fusion_lon": 0.0, "fusion_lat": 0.0, "rental_uris": {"android": "https://dc.lft.to/lastmile_qr_scan", "ios": "https://dc.lft.to/lastmile_qr_scan"}, "is_disabled": 0, "type": "electric_scooter", "is_reserved": 0, "name": "b5948f4c5d9186834e321a36e8a2f332", "lon": -77.02971083333334, "bike_id": "b5948f4c5d9186834e321a36e8a2f332", "lat": 38.94352266666667}, {"fusion_lon": 0.0, "fusion_lat": 0.0, "rental_uris": {"android": "https://dc.lft.to/lastmile_qr_scan", "ios": "https://dc.lft.to/lastmile_qr_scan"}, "is_disabled": 0, "type": "electric_scooter", "is_reserved": 0, "name": "6105e548245400fef47d20353c847900", "lon": -77.01361033333333, "bike_id": "6105e548245400fef47d20353c847900", "lat": 38.913280666666665}, {"fusion_lon": 0.0, "fusion_lat": 0.0, "rental_uris": {"android": "https://dc.lft.to/lastmile_qr_scan", "ios": "https://dc.lft.to/lastmile_qr_scan"}, "is_disabled": 0, "type": "electric_scooter", "is_reserved": 0, "name": "c6ac004bf05e9d86c5d48b6227763afb", "lon": -77.06395016666667, "bike_id": "c6ac004bf05e9d86c5d48b6227763afb", "lat": 38.90681983333333}, {"fusion_lon": 0.0, "fusion_lat": 0.0, "rental_uris": {"android": "https://dc.lft.to/lastmile_qr_scan", "ios": "https://dc.lft.to/lastmile_qr_scan"}, "is_disabled": 0, "type": "electric_scooter", "is_reserved": 0, "name": "8cb0f72e9249b6c5c2e263a9972b9960", "lon": -77.0351015, "bike_id": "8cb0f72e9249b6c5c2e263a9972b9960", "lat": 38.901409}, {"fusion_lon": 0.0, "fusion_lat": 0.0, "rental_uris": {"android": "https://dc.lft.to/lastmile_qr_scan", "ios": "https://dc.lft.to/lastmile_qr_scan"}, "is_disabled": 0, "type": "electric_scooter", "is_reserved": 0, "name": "c9e50fbaff5a80f2b03a0b84dcce3af4", "lon": -76.98484433333333, "bike_id": "c9e50fbaff5a80f2b03a0b84dcce3af4", "lat": 38.920330166666666}, {"fusion_lon": 0.0, "fusion_lat": 0.0, "rental_uris": {"android": "https://dc.lft.to/lastmile_qr_scan", "ios": "https://dc.lft.to/lastmile_qr_scan"}, "is_disabled": 0, "type": "electric_scooter", "is_reserved": 0, "name": "69e930795c5172cf08a9f92abb6489b0", "lon": -77.01684666666667, "bike_id": "69e930795c5172cf08a9f92abb6489b0", "lat": 38.902408666666666}, {"fusion_lon": 0.0, "fusion_lat": 0.0, "rental_uris": {"android": "https://dc.lft.to/lastmile_qr_scan", "ios": "https://dc.lft.to/lastmile_qr_scan"}, "is_disabled": 0, "type": "electric_scooter", "is_reserved": 0, "name": "0b4e79d6d68459a5f8035ee228f02f17", "lon": -77.0169485, "bike_id": "0b4e79d6d68459a5f8035ee228f02f17", "lat": 38.9075055}, {"fusion_lon": 0.0, "fusion_lat": 0.0, "rental_uris": {"android": "https://dc.lft.to/lastmile_qr_scan", "ios": "https://dc.lft.to/lastmile_qr_scan"}, "is_disabled": 0, "type": "electric_scooter", "is_reserved": 0, "name": "e93ef671410982fe1f489084f0dd4702", "lon": -77.03244933333333, "bike_id": "e93ef671410982fe1f489084f0dd4702", "lat": 38.929092833333335}, {"fusion_lon": 0.0, "fusion_lat": 0.0, "rental_uris": {"android": "https://dc.lft.to/lastmile_qr_scan", "ios": "https://dc.lft.to/lastmile_qr_scan"}, "is_disabled": 0, "type": "electric_bike", "is_reserved": 0, "name": "c6b545a7d84cc1360793c1a0bc3184bb", "lon": -77.0119205, "bike_id": "c6b545a7d84cc1360793c1a0bc3184bb", "lat": 38.95074066666667}, {"fusion_lon": 0.0, "fusion_lat": 0.0, "rental_uris": {"android": "https://dc.lft.to/lastmile_qr_scan", "ios": "https://dc.lft.to/lastmile_qr_scan"}, "is_disabled": 0, "type": "electric_scooter", "is_reserved": 0, "name": "e8d0f42c1be7704227cc8cdfe51e74ab", "lon": -77.07501483333333, "bike_id": "e8d0f42c1be7704227cc8cdfe51e74ab", "lat": 38.91175366666667}, {"fusion_lon": 0.0, "fusion_lat": 0.0, "rental_uris": {"android": "https://dc.lft.to/lastmile_qr_scan", "ios": "https://dc.lft.to/lastmile_qr_scan"}, "is_disabled": 0, "type": "electric_scooter", "is_reserved": 0, "name": "d43e4716651285ab38b21a250b956018", "lon": -77.03406916666667, "bike_id": "d43e4716651285ab38b21a250b956018", "lat": 38.9058955}, {"fusion_lon": 0.0, "fusion_lat": 0.0, "rental_uris": {"android": "https://dc.lft.to/lastmile_qr_scan", "ios": "https://dc.lft.to/lastmile_qr_scan"}, "is_disabled": 0, "type": "electric_scooter", "is_reserved": 0, "name": "fb8ca9d68f46745a4fdd980e4e35681d", "lon": -77.0334655, "bike_id": "fb8ca9d68f46745a4fdd980e4e35681d", "lat": 38.884775833333336}, {"fusion_lon": 0.0, "fusion_lat": 0.0, "rental_uris": {"android": "https://dc.lft.to/lastmile_qr_scan", "ios": "https://dc.lft.to/lastmile_qr_scan"}, "is_disabled": 0, "type": "electric_scooter", "is_reserved": 0, "name": "19c918f872c802ebebad4242b11ba0df", "lon": -77.04581516666667, "bike_id": "19c918f872c802ebebad4242b11ba0df", "lat": 38.91609033333334}, {"fusion_lon": 0.0, "fusion_lat": 0.0, "rental_uris": {"android": "https://dc.lft.to/lastmile_qr_scan", "ios": "https://dc.lft.to/lastmile_qr_scan"}, "is_disabled": 0, "type": "electric_scooter", "is_reserved": 0, "name": "22193afe8f2c45020552b794feb119e4", "lon": -77.01931833333333, "bike_id": "22193afe8f2c45020552b794feb119e4", "lat": 38.956375}, {"fusion_lon": 0.0, "fusion_lat": 0.0, "rental_uris": {"android": "https://dc.lft.to/lastmile_qr_scan", "ios": "https://dc.lft.to/lastmile_qr_scan"}, "is_disabled": 0, "type": "electric_scooter", "is_reserved": 0, "name": "84660ebe77c18cad3e394aed93931b8a", "lon": -77.04150766666666, "bike_id": "84660ebe77c18cad3e394aed93931b8a", "lat": 38.92353683333333}, {"fusion_lon": 0.0, "fusion_lat": 0.0, "rental_uris": {"android": "https://dc.lft.to/lastmile_qr_scan", "ios": "https://dc.lft.to/lastmile_qr_scan"}, "is_disabled": 0, "type": "electric_scooter", "is_reserved": 0, "name": "9e046e593ce4db5f128fa993a7fcf264", "lon": -77.00330566666666, "bike_id": "9e046e593ce4db5f128fa993a7fcf264", "lat": 38.89364}, {"fusion_lon": 0.0, "fusion_lat": 0.0, "rental_uris": {"android": "https://dc.lft.to/lastmile_qr_scan", "ios": "https://dc.lft.to/lastmile_qr_scan"}, "is_disabled": 0, "type": "electric_scooter", "is_reserved": 0, "name": "262233e94d271f6068d4e1685aaa08e8", "lon": -77.03447616666666, "bike_id": "262233e94d271f6068d4e1685aaa08e8", "lat": 38.900854}, {"fusion_lon": 0.0, "fusion_lat": 0.0, "rental_uris": {"android": "https://dc.lft.to/lastmile_qr_scan", "ios": "https://dc.lft.to/lastmile_qr_scan"}, "is_disabled": 0, "type": "electric_scooter", "is_reserved": 0, "name": "a73fb2aa5dbeccc610dda6ae3b4a8af3", "lon": -77.02403083333333, "bike_id": "a73fb2aa5dbeccc610dda6ae3b4a8af3", "lat": 38.941808333333334}, {"fusion_lon": 0.0, "fusion_lat": 0.0, "rental_uris": {"android": "https://dc.lft.to/lastmile_qr_scan", "ios": "https://dc.lft.to/lastmile_qr_scan"}, "is_disabled": 0, "type": "electric_scooter", "is_reserved": 0, "name": "386d7a3eb6ae3cfc9537de5624214064", "lon": -76.94884216666667, "bike_id": "386d7a3eb6ae3cfc9537de5624214064", "lat": 38.895071333333334}, {"fusion_lon": 0.0, "fusion_lat": 0.0, "rental_uris": {"android": "https://dc.lft.to/lastmile_qr_scan", "ios": "https://dc.lft.to/lastmile_qr_scan"}, "is_disabled": 0, "type": "electric_bike", "is_reserved": 0, "name": "6e57eff461d69510b3b75e4859dad299", "lon": -77.14869883333333, "bike_id": "6e57eff461d69510b3b75e4859dad299", "lat": 38.87738083333333}, {"fusion_lon": 0.0, "fusion_lat": 0.0, "rental_uris": {"android": "https://dc.lft.to/lastmile_qr_scan", "ios": "https://dc.lft.to/lastmile_qr_scan"}, "is_disabled": 0, "type": "electric_scooter", "is_reserved": 0, "name": "98718ebb65c2bc05728118b3851f4620", "lon": -77.00915866666666, "bike_id": "98718ebb65c2bc05728118b3851f4620", "lat": 38.89555983333333}, {"fusion_lon": 0.0, "fusion_lat": 0.0, "rental_uris": {"android": "https://dc.lft.to/lastmile_qr_scan", "ios": "https://dc.lft.to/lastmile_qr_scan"}, "is_disabled": 0, "type": "electric_scooter", "is_reserved": 0, "name": "fa5102208ae54e19f04932767c03668a", "lon": -77.018014, "bike_id": "fa5102208ae54e19f04932767c03668a", "lat": 38.886213833333336}, {"fusion_lon": 0.0, "fusion_lat": 0.0, "rental_uris": {"android": "https://dc.lft.to/lastmile_qr_scan", "ios": "https://dc.lft.to/lastmile_qr_scan"}, "is_disabled": 0, "type": "electric_scooter", "is_reserved": 0, "name": "29ee85c02710de341313f932af734c84", "lon": -76.995956, "bike_id": "29ee85c02710de341313f932af734c84", "lat": 38.8843125}, {"fusion_lon": 0.0, "fusion_lat": 0.0, "rental_uris": {"android": "https://dc.lft.to/lastmile_qr_scan", "ios": "https://dc.lft.to/lastmile_qr_scan"}, "is_disabled": 0, "type": "electric_scooter", "is_reserved": 0, "name": "6e21e8cd8c0d274cd3ab9630fd183d6c", "lon": -77.04107983333333, "bike_id": "6e21e8cd8c0d274cd3ab9630fd183d6c", "lat": 38.921254833333336}, {"fusion_lon": 0.0, "fusion_lat": 0.0, "rental_uris": {"android": "https://dc.lft.to/lastmile_qr_scan", "ios": "https://dc.lft.to/lastmile_qr_scan"}, "is_disabled": 0, "type": "electric_scooter", "is_reserved": 0, "name": "fe602bc6916d58017e6f53f3e778f8db", "lon": -77.04655166666667, "bike_id": "fe602bc6916d58017e6f53f3e778f8db", "lat": 38.89848816666667}, {"fusion_lon": 0.0, "fusion_lat": 0.0, "rental_uris": {"android": "https://dc.lft.to/lastmile_qr_scan", "ios": "https://dc.lft.to/lastmile_qr_scan"}, "is_disabled": 0, "type": "electric_scooter", "is_reserved": 0, "name": "f19f7246f2b5a280a7b0a1f316f891c0", "lon": -77.04621666666667, "bike_id": "f19f7246f2b5a280a7b0a1f316f891c0", "lat": 38.9161405}, {"fusion_lon": 0.0, "fusion_lat": 0.0, "rental_uris": {"android": "https://dc.lft.to/lastmile_qr_scan", "ios": "https://dc.lft.to/lastmile_qr_scan"}, "is_disabled": 0, "type": "electric_scooter", "is_reserved": 0, "name": "642fc59f17e7087ea0ffb33473c1e6f5", "lon": -77.02283666666666, "bike_id": "642fc59f17e7087ea0ffb33473c1e6f5", "lat": 38.92658483333334}, {"fusion_lon": 0.0, "fusion_lat": 0.0, "rental_uris": {"android": "https://dc.lft.to/lastmile_qr_scan", "ios": "https://dc.lft.to/lastmile_qr_scan"}, "is_disabled": 0, "type": "electric_scooter", "is_reserved": 0, "name": "abc25528dd975e3072470bf1d535388a", "lon": -77.01553666666666, "bike_id": "abc25528dd975e3072470bf1d535388a", "lat": 38.92799}, {"fusion_lon": 0.0, "fusion_lat": 0.0, "rental_uris": {"android": "https://dc.lft.to/lastmile_qr_scan", "ios": "https://dc.lft.to/lastmile_qr_scan"}, "is_disabled": 0, "type": "electric_scooter", "is_reserved": 0, "name": "6b6c6f7ec10d001d93fec3afb6b1f4d7", "lon": -77.01093316666666, "bike_id": "6b6c6f7ec10d001d93fec3afb6b1f4d7", "lat": 38.90017483333333}, {"fusion_lon": 0.0, "fusion_lat": 0.0, "rental_uris": {"android": "https://dc.lft.to/lastmile_qr_scan", "ios": "https://dc.lft.to/lastmile_qr_scan"}, "is_disabled": 0, "type": "electric_scooter", "is_reserved": 0, "name": "ca74400c1216b419958706a9f9012f75", "lon": -77.01678866666667, "bike_id": "ca74400c1216b419958706a9f9012f75", "lat": 38.92040333333333}, {"fusion_lon": 0.0, "fusion_lat": 0.0, "rental_uris": {"android": "https://dc.lft.to/lastmile_qr_scan", "ios": "https://dc.lft.to/lastmile_qr_scan"}, "is_disabled": 0, "type": "electric_scooter", "is_reserved": 0, "name": "f2bd919f2bc8d1d408815a88c46d4e73", "lon": -76.97207366666666, "bike_id": "f2bd919f2bc8d1d408815a88c46d4e73", "lat": 38.925514}, {"fusion_lon": 0.0, "fusion_lat": 0.0, "rental_uris": {"android": "https://dc.lft.to/lastmile_qr_scan", "ios": "https://dc.lft.to/lastmile_qr_scan"}, "is_disabled": 0, "type": "electric_scooter", "is_reserved": 0, "name": "30a79061e303df130d534ba89ccef58f", "lon": -77.03867833333334, "bike_id": "30a79061e303df130d534ba89ccef58f", "lat": 38.912027}, {"fusion_lon": 0.0, "fusion_lat": 0.0, "rental_uris": {"android": "https://dc.lft.to/lastmile_qr_scan", "ios": "https://dc.lft.to/lastmile_qr_scan"}, "is_disabled": 0, "type": "electric_scooter", "is_reserved": 0, "name": "f549f2bb3ac00faf734963aab2820b7a", "lon": -77.02220966666667, "bike_id": "f549f2bb3ac00faf734963aab2820b7a", "lat": 38.8997705}, {"fusion_lon": 0.0, "fusion_lat": 0.0, "rental_uris": {"android": "https://dc.lft.to/lastmile_qr_scan", "ios": "https://dc.lft.to/lastmile_qr_scan"}, "is_disabled": 0, "type": "electric_scooter", "is_reserved": 0, "name": "282478e44cded22c801f86d0158c2a3a", "lon": -77.021614, "bike_id": "282478e44cded22c801f86d0158c2a3a", "lat": 38.894005166666666}, {"fusion_lon": 0.0, "fusion_lat": 0.0, "rental_uris": {"android": "https://dc.lft.to/lastmile_qr_scan", "ios": "https://dc.lft.to/lastmile_qr_scan"}, "is_disabled": 0, "type": "electric_scooter", "is_reserved": 0, "name": "b713a07e094021502c76021de5c8a741", "lon": -76.98506733333333, "bike_id": "b713a07e094021502c76021de5c8a741", "lat": 38.880758}, {"fusion_lon": 0.0, "fusion_lat": 0.0, "rental_uris": {"android": "https://dc.lft.to/lastmile_qr_scan", "ios": "https://dc.lft.to/lastmile_qr_scan"}, "is_disabled": 0, "type": "electric_scooter", "is_reserved": 0, "name": "faf5739fddfe4343f4294cf7ee133df2", "lon": -77.04619466666666, "bike_id": "faf5739fddfe4343f4294cf7ee133df2", "lat": 38.901908666666664}, {"fusion_lon": 0.0, "fusion_lat": 0.0, "rental_uris": {"android": "https://dc.lft.to/lastmile_qr_scan", "ios": "https://dc.lft.to/lastmile_qr_scan"}, "is_disabled": 0, "type": "electric_scooter", "is_reserved": 0, "name": "05781394fd03c8d651142f5a304582c0", "lon": -77.03867716666667, "bike_id": "05781394fd03c8d651142f5a304582c0", "lat": 38.9125245}, {"fusion_lon": 0.0, "fusion_lat": 0.0, "rental_uris": {"android": "https://dc.lft.to/lastmile_qr_scan", "ios": "https://dc.lft.to/lastmile_qr_scan"}, "is_disabled": 0, "type": "electric_bike", "is_reserved": 0, "name": "78cffc2ce653cdd4937c5a74498a3cc0", "lon": -77.02295383333333, "bike_id": "78cffc2ce653cdd4937c5a74498a3cc0", "lat": 38.966717833333334}, {"fusion_lon": 0.0, "fusion_lat": 0.0, "rental_uris": {"android": "https://dc.lft.to/lastmile_qr_scan", "ios": "https://dc.lft.to/lastmile_qr_scan"}, "is_disabled": 0, "type": "electric_scooter", "is_reserved": 0, "name": "4c62939ed15b00542f91ca3f91310bfe", "lon": -77.02213366666666, "bike_id": "4c62939ed15b00542f91ca3f91310bfe", "lat": 38.89625366666667}, {"fusion_lon": 0.0, "fusion_lat": 0.0, "rental_uris": {"android": "https://dc.lft.to/lastmile_qr_scan", "ios": "https://dc.lft.to/lastmile_qr_scan"}, "is_disabled": 0, "type": "electric_bike", "is_reserved": 0, "name": "7447001b56f0f41fc84e7583f2013bbf", "lon": -77.04074466666667, "bike_id": "7447001b56f0f41fc84e7583f2013bbf", "lat": 38.8306255}, {"fusion_lon": 0.0, "fusion_lat": 0.0, "rental_uris": {"android": "https://dc.lft.to/lastmile_qr_scan", "ios": "https://dc.lft.to/lastmile_qr_scan"}, "is_disabled": 0, "type": "electric_scooter", "is_reserved": 0, "name": "eb416417337dd0e0e335c2c56afe5438", "lon": -76.9853835, "bike_id": "eb416417337dd0e0e335c2c56afe5438", "lat": 38.886062833333334}, {"fusion_lon": 0.0, "fusion_lat": 0.0, "rental_uris": {"android": "https://dc.lft.to/lastmile_qr_scan", "ios": "https://dc.lft.to/lastmile_qr_scan"}, "is_disabled": 0, "type": "electric_scooter", "is_reserved": 0, "name": "a3746eaeb04900d21f2e453274b0d593", "lon": -77.0194205, "bike_id": "a3746eaeb04900d21f2e453274b0d593", "lat": 38.924139}, {"fusion_lon": 0.0, "fusion_lat": 0.0, "rental_uris": {"android": "https://dc.lft.to/lastmile_qr_scan", "ios": "https://dc.lft.to/lastmile_qr_scan"}, "is_disabled": 0, "type": "electric_scooter", "is_reserved": 0, "name": "4b63d995a59da32fbd66f643d7c4e2a5", "lon": -77.01273283333333, "bike_id": "4b63d995a59da32fbd66f643d7c4e2a5", "lat": 38.909527}, {"fusion_lon": 0.0, "fusion_lat": 0.0, "rental_uris": {"android": "https://dc.lft.to/lastmile_qr_scan", "ios": "https://dc.lft.to/lastmile_qr_scan"}, "is_disabled": 0, "type": "electric_scooter", "is_reserved": 0, "name": "0d25c385a845e8d7b101e3e46b8d6cd9", "lon": -77.0752865, "bike_id": "0d25c385a845e8d7b101e3e46b8d6cd9", "lat": 38.9088555}, {"fusion_lon": 0.0, "fusion_lat": 0.0, "rental_uris": {"android": "https://dc.lft.to/lastmile_qr_scan", "ios": "https://dc.lft.to/lastmile_qr_scan"}, "is_disabled": 0, "type": "electric_scooter", "is_reserved": 0, "name": "5ee053e46623aa55cbb3e9881095e828", "lon": -77.003035, "bike_id": "5ee053e46623aa55cbb3e9881095e828", "lat": 38.89220383333333}, {"fusion_lon": 0.0, "fusion_lat": 0.0, "rental_uris": {"android": "https://dc.lft.to/lastmile_qr_scan", "ios": "https://dc.lft.to/lastmile_qr_scan"}, "is_disabled": 0, "type": "electric_scooter", "is_reserved": 0, "name": "fd4614d324f94cbcd5da08ef9f17b2db", "lon": -77.03262466666666, "bike_id": "fd4614d324f94cbcd5da08ef9f17b2db", "lat": 38.927566}, {"fusion_lon": 0.0, "fusion_lat": 0.0, "rental_uris": {"android": "https://dc.lft.to/lastmile_qr_scan", "ios": "https://dc.lft.to/lastmile_qr_scan"}, "is_disabled": 0, "type": "electric_scooter", "is_reserved": 0, "name": "4552c4c23948eb85c7f57575b26a3869", "lon": -77.03249033333333, "bike_id": "4552c4c23948eb85c7f57575b26a3869", "lat": 38.929150166666666}, {"fusion_lon": 0.0, "fusion_lat": 0.0, "rental_uris": {"android": "https://dc.lft.to/lastmile_qr_scan", "ios": "https://dc.lft.to/lastmile_qr_scan"}, "is_disabled": 0, "type": "electric_scooter", "is_reserved": 0, "name": "43a5342b5119039b330191f648012fad", "lon": -77.02921916666666, "bike_id": "43a5342b5119039b330191f648012fad", "lat": 38.903757}, {"fusion_lon": 0.0, "fusion_lat": 0.0, "rental_uris": {"android": "https://dc.lft.to/lastmile_qr_scan", "ios": "https://dc.lft.to/lastmile_qr_scan"}, "is_disabled": 0, "type": "electric_scooter", "is_reserved": 0, "name": "0394ce674cbece57a5e41175979da03d", "lon": -77.001794, "bike_id": "0394ce674cbece57a5e41175979da03d", "lat": 38.888616999999996}, {"fusion_lon": 0.0, "fusion_lat": 0.0, "rental_uris": {"android": "https://dc.lft.to/lastmile_qr_scan", "ios": "https://dc.lft.to/lastmile_qr_scan"}, "is_disabled": 0, "type": "electric_scooter", "is_reserved": 0, "name": "bed229a4574a31235ca0d69ff03656b3", "lon": -77.01700116666666, "bike_id": "bed229a4574a31235ca0d69ff03656b3", "lat": 38.9135715}, {"fusion_lon": 0.0, "fusion_lat": 0.0, "rental_uris": {"android": "https://dc.lft.to/lastmile_qr_scan", "ios": "https://dc.lft.to/lastmile_qr_scan"}, "is_disabled": 0, "type": "electric_scooter", "is_reserved": 0, "name": "bd50de348e6c917f9cf979fe6b74e0e8", "lon": -76.9901455, "bike_id": "bd50de348e6c917f9cf979fe6b74e0e8", "lat": 38.88267866666666}, {"fusion_lon": 0.0, "fusion_lat": 0.0, "rental_uris": {"android": "https://dc.lft.to/lastmile_qr_scan", "ios": "https://dc.lft.to/lastmile_qr_scan"}, "is_disabled": 0, "type": "electric_scooter", "is_reserved": 0, "name": "943443ad6bd174b651da76475e5a738f", "lon": -77.04282083333334, "bike_id": "943443ad6bd174b651da76475e5a738f", "lat": 38.9156735}, {"fusion_lon": 0.0, "fusion_lat": 0.0, "rental_uris": {"android": "https://dc.lft.to/lastmile_qr_scan", "ios": "https://dc.lft.to/lastmile_qr_scan"}, "is_disabled": 0, "type": "electric_scooter", "is_reserved": 0, "name": "e1fecaba951aa13028810eb9ea98fb4b", "lon": -77.02504233333333, "bike_id": "e1fecaba951aa13028810eb9ea98fb4b", "lat": 38.919807666666664}, {"fusion_lon": 0.0, "fusion_lat": 0.0, "rental_uris": {"android": "https://dc.lft.to/lastmile_qr_scan", "ios": "https://dc.lft.to/lastmile_qr_scan"}, "is_disabled": 0, "type": "electric_scooter", "is_reserved": 0, "name": "afe1bce0ebd4f9cc95d877ab95c4909a", "lon": -77.03809216666667, "bike_id": "afe1bce0ebd4f9cc95d877ab95c4909a", "lat": 38.92071683333333}, {"fusion_lon": 0.0, "fusion_lat": 0.0, "rental_uris": {"android": "https://dc.lft.to/lastmile_qr_scan", "ios": "https://dc.lft.to/lastmile_qr_scan"}, "is_disabled": 0, "type": "electric_scooter", "is_reserved": 0, "name": "dc7389edc6b4b1f748535f35ad3cd51f", "lon": -77.04995216666667, "bike_id": "dc7389edc6b4b1f748535f35ad3cd51f", "lat": 38.8922935}, {"fusion_lon": 0.0, "fusion_lat": 0.0, "rental_uris": {"android": "https://dc.lft.to/lastmile_qr_scan", "ios": "https://dc.lft.to/lastmile_qr_scan"}, "is_disabled": 0, "type": "electric_scooter", "is_reserved": 0, "name": "7bbe937a84f0c1032dbc2a2d827cdde5", "lon": -77.03263733333333, "bike_id": "7bbe937a84f0c1032dbc2a2d827cdde5", "lat": 38.902345333333336}, {"fusion_lon": 0.0, "fusion_lat": 0.0, "rental_uris": {"android": "https://dc.lft.to/lastmile_qr_scan", "ios": "https://dc.lft.to/lastmile_qr_scan"}, "is_disabled": 0, "type": "electric_scooter", "is_reserved": 0, "name": "ae39d76e1d3cf2c6048b528a5624d87b", "lon": -77.024697, "bike_id": "ae39d76e1d3cf2c6048b528a5624d87b", "lat": 38.930783166666664}, {"fusion_lon": 0.0, "fusion_lat": 0.0, "rental_uris": {"android": "https://dc.lft.to/lastmile_qr_scan", "ios": "https://dc.lft.to/lastmile_qr_scan"}, "is_disabled": 0, "type": "electric_scooter", "is_reserved": 0, "name": "48bdaed1bc61fb4e5db785d0fd1499ab", "lon": -77.033404, "bike_id": "48bdaed1bc61fb4e5db785d0fd1499ab", "lat": 38.91908183333334}, {"fusion_lon": 0.0, "fusion_lat": 0.0, "rental_uris": {"android": "https://dc.lft.to/lastmile_qr_scan", "ios": "https://dc.lft.to/lastmile_qr_scan"}, "is_disabled": 0, "type": "electric_scooter", "is_reserved": 0, "name": "45df7448605593f0e776485674a812e1", "lon": -77.05196416666666, "bike_id": "45df7448605593f0e776485674a812e1", "lat": 38.92440283333333}, {"fusion_lon": 0.0, "fusion_lat": 0.0, "rental_uris": {"android": "https://dc.lft.to/lastmile_qr_scan", "ios": "https://dc.lft.to/lastmile_qr_scan"}, "is_disabled": 0, "type": "electric_scooter", "is_reserved": 0, "name": "fd624d1a6f9ddcc8c5bc0337ec5d9107", "lon": -77.02375316666667, "bike_id": "fd624d1a6f9ddcc8c5bc0337ec5d9107", "lat": 38.91782883333333}, {"fusion_lon": 0.0, "fusion_lat": 0.0, "rental_uris": {"android": "https://dc.lft.to/lastmile_qr_scan", "ios": "https://dc.lft.to/lastmile_qr_scan"}, "is_disabled": 0, "type": "electric_scooter", "is_reserved": 0, "name": "a516803a01d9f715f3209202b7329745", "lon": -77.05491233333333, "bike_id": "a516803a01d9f715f3209202b7329745", "lat": 38.8976105}, {"fusion_lon": 0.0, "fusion_lat": 0.0, "rental_uris": {"android": "https://dc.lft.to/lastmile_qr_scan", "ios": "https://dc.lft.to/lastmile_qr_scan"}, "is_disabled": 0, "type": "electric_scooter", "is_reserved": 0, "name": "05f72e416d9af40126470c5e17aade2f", "lon": -76.98780133333334, "bike_id": "05f72e416d9af40126470c5e17aade2f", "lat": 38.89824383333333}, {"fusion_lon": 0.0, "fusion_lat": 0.0, "rental_uris": {"android": "https://dc.lft.to/lastmile_qr_scan", "ios": "https://dc.lft.to/lastmile_qr_scan"}, "is_disabled": 0, "type": "electric_scooter", "is_reserved": 0, "name": "16b186574be097bae95a8ef4721b6555", "lon": -77.04761216666667, "bike_id": "16b186574be097bae95a8ef4721b6555", "lat": 38.917473666666666}, {"fusion_lon": 0.0, "fusion_lat": 0.0, "rental_uris": {"android": "https://dc.lft.to/lastmile_qr_scan", "ios": "https://dc.lft.to/lastmile_qr_scan"}, "is_disabled": 0, "type": "electric_scooter", "is_reserved": 0, "name": "9bae62625fe3224152caab7787cbe046", "lon": -77.01857266666667, "bike_id": "9bae62625fe3224152caab7787cbe046", "lat": 38.9056165}, {"fusion_lon": 0.0, "fusion_lat": 0.0, "rental_uris": {"android": "https://dc.lft.to/lastmile_qr_scan", "ios": "https://dc.lft.to/lastmile_qr_scan"}, "is_disabled": 0, "type": "electric_scooter", "is_reserved": 0, "name": "b85c59224f73d847473ddeca6d2b0131", "lon": -77.00320333333333, "bike_id": "b85c59224f73d847473ddeca6d2b0131", "lat": 38.861228833333335}, {"fusion_lon": 0.0, "fusion_lat": 0.0, "rental_uris": {"android": "https://dc.lft.to/lastmile_qr_scan", "ios": "https://dc.lft.to/lastmile_qr_scan"}, "is_disabled": 0, "type": "electric_bike", "is_reserved": 0, "name": "cc1e2234f1f98556d6463f7306f15a1e", "lon": -77.10325166666667, "bike_id": "cc1e2234f1f98556d6463f7306f15a1e", "lat": 38.83696716666667}, {"fusion_lon": 0.0, "fusion_lat": 0.0, "rental_uris": {"android": "https://dc.lft.to/lastmile_qr_scan", "ios": "https://dc.lft.to/lastmile_qr_scan"}, "is_disabled": 0, "type": "electric_scooter", "is_reserved": 0, "name": "df112b654f7803795f9c2fd97402c8d8", "lon": -76.9854595, "bike_id": "df112b654f7803795f9c2fd97402c8d8", "lat": 38.886133}, {"fusion_lon": 0.0, "fusion_lat": 0.0, "rental_uris": {"android": "https://dc.lft.to/lastmile_qr_scan", "ios": "https://dc.lft.to/lastmile_qr_scan"}, "is_disabled": 0, "type": "electric_scooter", "is_reserved": 0, "name": "42931fbe8e2887554f971ca93a87099b", "lon": -77.00064116666667, "bike_id": "42931fbe8e2887554f971ca93a87099b", "lat": 38.876582166666665}, {"fusion_lon": 0.0, "fusion_lat": 0.0, "rental_uris": {"android": "https://dc.lft.to/lastmile_qr_scan", "ios": "https://dc.lft.to/lastmile_qr_scan"}, "is_disabled": 0, "type": "electric_scooter", "is_reserved": 0, "name": "ec77c6b290598c164b210019c239dfa9", "lon": -77.03927233333333, "bike_id": "ec77c6b290598c164b210019c239dfa9", "lat": 38.92104416666667}, {"fusion_lon": 0.0, "fusion_lat": 0.0, "rental_uris": {"android": "https://dc.lft.to/lastmile_qr_scan", "ios": "https://dc.lft.to/lastmile_qr_scan"}, "is_disabled": 0, "type": "electric_scooter", "is_reserved": 0, "name": "c61b6ce896bf69a1ac4b3885c95892d1", "lon": -77.02359683333333, "bike_id": "c61b6ce896bf69a1ac4b3885c95892d1", "lat": 38.92054616666667}, {"fusion_lon": 0.0, "fusion_lat": 0.0, "rental_uris": {"android": "https://dc.lft.to/lastmile_qr_scan", "ios": "https://dc.lft.to/lastmile_qr_scan"}, "is_disabled": 0, "type": "electric_scooter", "is_reserved": 0, "name": "5178fce67143c91d037334dae528bfbb", "lon": -77.01701233333333, "bike_id": "5178fce67143c91d037334dae528bfbb", "lat": 38.8874345}, {"fusion_lon": 0.0, "fusion_lat": 0.0, "rental_uris": {"android": "https://dc.lft.to/lastmile_qr_scan", "ios": "https://dc.lft.to/lastmile_qr_scan"}, "is_disabled": 0, "type": "electric_scooter", "is_reserved": 0, "name": "958a08cd98e93653a3d36a4e6198c55d", "lon": -77.04289533333333, "bike_id": "958a08cd98e93653a3d36a4e6198c55d", "lat": 38.9225335}, {"fusion_lon": 0.0, "fusion_lat": 0.0, "rental_uris": {"android": "https://dc.lft.to/lastmile_qr_scan", "ios": "https://dc.lft.to/lastmile_qr_scan"}, "is_disabled": 0, "type": "electric_scooter", "is_reserved": 0, "name": "6f106cdfe5ad37567a4e229b65ce0aa4", "lon": -77.02677183333333, "bike_id": "6f106cdfe5ad37567a4e229b65ce0aa4", "lat": 38.897082166666664}, {"fusion_lon": 0.0, "fusion_lat": 0.0, "rental_uris": {"android": "https://dc.lft.to/lastmile_qr_scan", "ios": "https://dc.lft.to/lastmile_qr_scan"}, "is_disabled": 0, "type": "electric_scooter", "is_reserved": 0, "name": "95f0fc65575cabb60a5c2154a6d7d875", "lon": -77.07240333333333, "bike_id": "95f0fc65575cabb60a5c2154a6d7d875", "lat": 38.92154933333333}, {"fusion_lon": 0.0, "fusion_lat": 0.0, "rental_uris": {"android": "https://dc.lft.to/lastmile_qr_scan", "ios": "https://dc.lft.to/lastmile_qr_scan"}, "is_disabled": 0, "type": "electric_bike", "is_reserved": 0, "name": "2e3fca23f93a27febe7478c15ec52ab5", "lon": -77.09622933333333, "bike_id": "2e3fca23f93a27febe7478c15ec52ab5", "lat": 38.952442}, {"fusion_lon": 0.0, "fusion_lat": 0.0, "rental_uris": {"android": "https://dc.lft.to/lastmile_qr_scan", "ios": "https://dc.lft.to/lastmile_qr_scan"}, "is_disabled": 0, "type": "electric_scooter", "is_reserved": 0, "name": "6f91cc86493ba010847396bd516daff7", "lon": -77.03962316666667, "bike_id": "6f91cc86493ba010847396bd516daff7", "lat": 38.90226083333334}, {"fusion_lon": 0.0, "fusion_lat": 0.0, "rental_uris": {"android": "https://dc.lft.to/lastmile_qr_scan", "ios": "https://dc.lft.to/lastmile_qr_scan"}, "is_disabled": 0, "type": "electric_scooter", "is_reserved": 0, "name": "0f39ba450de1e5f29ba5a578d10400d5", "lon": -77.02743266666667, "bike_id": "0f39ba450de1e5f29ba5a578d10400d5", "lat": 38.902712333333334}, {"fusion_lon": 0.0, "fusion_lat": 0.0, "rental_uris": {"android": "https://dc.lft.to/lastmile_qr_scan", "ios": "https://dc.lft.to/lastmile_qr_scan"}, "is_disabled": 0, "type": "electric_bike", "is_reserved": 0, "name": "d8c2d04636dec7219e170f5de7697a6c", "lon": -77.0357295, "bike_id": "d8c2d04636dec7219e170f5de7697a6c", "lat": 38.9646075}, {"fusion_lon": 0.0, "fusion_lat": 0.0, "rental_uris": {"android": "https://dc.lft.to/lastmile_qr_scan", "ios": "https://dc.lft.to/lastmile_qr_scan"}, "is_disabled": 0, "type": "electric_bike", "is_reserved": 0, "name": "4c95d1a400917738c5998f371395fa26", "lon": -77.00217133333334, "bike_id": "4c95d1a400917738c5998f371395fa26", "lat": 38.93604233333333}, {"fusion_lon": 0.0, "fusion_lat": 0.0, "rental_uris": {"android": "https://dc.lft.to/lastmile_qr_scan", "ios": "https://dc.lft.to/lastmile_qr_scan"}, "is_disabled": 0, "type": "electric_bike", "is_reserved": 0, "name": "d8e4e043e1d6906aadb55eecc1d403ec", "lon": -77.03389983333334, "bike_id": "d8e4e043e1d6906aadb55eecc1d403ec", "lat": 38.891958}, {"fusion_lon": 0.0, "fusion_lat": 0.0, "rental_uris": {"android": "https://dc.lft.to/lastmile_qr_scan", "ios": "https://dc.lft.to/lastmile_qr_scan"}, "is_disabled": 0, "type": "electric_scooter", "is_reserved": 0, "name": "d357d732065a9b94ab03c9e30b162ce3", "lon": -77.02836566666667, "bike_id": "d357d732065a9b94ab03c9e30b162ce3", "lat": 38.9006905}, {"fusion_lon": 0.0, "fusion_lat": 0.0, "rental_uris": {"android": "https://dc.lft.to/lastmile_qr_scan", "ios": "https://dc.lft.to/lastmile_qr_scan"}, "is_disabled": 0, "type": "electric_scooter", "is_reserved": 0, "name": "c5cceccdc2966c55c45dd73abaa1996d", "lon": -77.07721816666667, "bike_id": "c5cceccdc2966c55c45dd73abaa1996d", "lat": 38.922581666666666}, {"fusion_lon": 0.0, "fusion_lat": 0.0, "rental_uris": {"android": "https://dc.lft.to/lastmile_qr_scan", "ios": "https://dc.lft.to/lastmile_qr_scan"}, "is_disabled": 0, "type": "electric_scooter", "is_reserved": 0, "name": "7253f9853b56df4a0acb752d13bba343", "lon": -76.99904733333334, "bike_id": "7253f9853b56df4a0acb752d13bba343", "lat": 38.89608966666667}, {"fusion_lon": 0.0, "fusion_lat": 0.0, "rental_uris": {"android": "https://dc.lft.to/lastmile_qr_scan", "ios": "https://dc.lft.to/lastmile_qr_scan"}, "is_disabled": 0, "type": "electric_scooter", "is_reserved": 0, "name": "c8065f2719645a0ceaddda0b3c08b282", "lon": -77.03169283333334, "bike_id": "c8065f2719645a0ceaddda0b3c08b282", "lat": 38.899994166666666}, {"fusion_lon": 0.0, "fusion_lat": 0.0, "rental_uris": {"android": "https://dc.lft.to/lastmile_qr_scan", "ios": "https://dc.lft.to/lastmile_qr_scan"}, "is_disabled": 0, "type": "electric_scooter", "is_reserved": 0, "name": "3983e921da0ed07fd6b6d4d8f0680f2e", "lon": -77.0219475, "bike_id": "3983e921da0ed07fd6b6d4d8f0680f2e", "lat": 38.924598833333334}, {"fusion_lon": 0.0, "fusion_lat": 0.0, "rental_uris": {"android": "https://dc.lft.to/lastmile_qr_scan", "ios": "https://dc.lft.to/lastmile_qr_scan"}, "is_disabled": 0, "type": "electric_bike", "is_reserved": 0, "name": "68e041da35bb718ddedcd13cc52c61a9", "lon": -77.08365466666666, "bike_id": "68e041da35bb718ddedcd13cc52c61a9", "lat": 38.832695666666666}, {"fusion_lon": 0.0, "fusion_lat": 0.0, "rental_uris": {"android": "https://dc.lft.to/lastmile_qr_scan", "ios": "https://dc.lft.to/lastmile_qr_scan"}, "is_disabled": 0, "type": "electric_scooter", "is_reserved": 0, "name": "085dc3c4b8115ea7c1cedb39f98f025e", "lon": -77.026831, "bike_id": "085dc3c4b8115ea7c1cedb39f98f025e", "lat": 38.901629666666665}, {"fusion_lon": 0.0, "fusion_lat": 0.0, "rental_uris": {"android": "https://dc.lft.to/lastmile_qr_scan", "ios": "https://dc.lft.to/lastmile_qr_scan"}, "is_disabled": 0, "type": "electric_scooter", "is_reserved": 0, "name": "4eeeea17d3bc60b9094ba3e9b8c6c42e", "lon": -77.03638316666667, "bike_id": "4eeeea17d3bc60b9094ba3e9b8c6c42e", "lat": 38.927445}, {"fusion_lon": 0.0, "fusion_lat": 0.0, "rental_uris": {"android": "https://dc.lft.to/lastmile_qr_scan", "ios": "https://dc.lft.to/lastmile_qr_scan"}, "is_disabled": 0, "type": "electric_scooter", "is_reserved": 0, "name": "9906781cd33bd989b87ace64e0b584c3", "lon": -77.01678433333333, "bike_id": "9906781cd33bd989b87ace64e0b584c3", "lat": 38.905576}, {"fusion_lon": 0.0, "fusion_lat": 0.0, "rental_uris": {"android": "https://dc.lft.to/lastmile_qr_scan", "ios": "https://dc.lft.to/lastmile_qr_scan"}, "is_disabled": 0, "type": "electric_scooter", "is_reserved": 0, "name": "1e639d7bca48e2099722867f53486305", "lon": -77.02031033333333, "bike_id": "1e639d7bca48e2099722867f53486305", "lat": 38.924261666666666}, {"fusion_lon": 0.0, "fusion_lat": 0.0, "rental_uris": {"android": "https://dc.lft.to/lastmile_qr_scan", "ios": "https://dc.lft.to/lastmile_qr_scan"}, "is_disabled": 0, "type": "electric_scooter", "is_reserved": 0, "name": "5bc025d0085c6622c7e90d0219a4f329", "lon": -77.074626, "bike_id": "5bc025d0085c6622c7e90d0219a4f329", "lat": 38.938492833333335}, {"fusion_lon": 0.0, "fusion_lat": 0.0, "rental_uris": {"android": "https://dc.lft.to/lastmile_qr_scan", "ios": "https://dc.lft.to/lastmile_qr_scan"}, "is_disabled": 0, "type": "electric_scooter", "is_reserved": 0, "name": "a8a29b0809f89f9a2e0267f095d92ccf", "lon": -76.9457525, "bike_id": "a8a29b0809f89f9a2e0267f095d92ccf", "lat": 38.89924883333333}, {"fusion_lon": 0.0, "fusion_lat": 0.0, "rental_uris": {"android": "https://dc.lft.to/lastmile_qr_scan", "ios": "https://dc.lft.to/lastmile_qr_scan"}, "is_disabled": 0, "type": "electric_scooter", "is_reserved": 0, "name": "e7b4e3d61166a3aa832cf404790748ac", "lon": -77.04346866666667, "bike_id": "e7b4e3d61166a3aa832cf404790748ac", "lat": 38.905027833333335}, {"fusion_lon": 0.0, "fusion_lat": 0.0, "rental_uris": {"android": "https://dc.lft.to/lastmile_qr_scan", "ios": "https://dc.lft.to/lastmile_qr_scan"}, "is_disabled": 0, "type": "electric_scooter", "is_reserved": 0, "name": "1d8f91cd6e1f9927882b25c219bd90d4", "lon": -77.02378483333334, "bike_id": "1d8f91cd6e1f9927882b25c219bd90d4", "lat": 38.91752666666667}, {"fusion_lon": 0.0, "fusion_lat": 0.0, "rental_uris": {"android": "https://dc.lft.to/lastmile_qr_scan", "ios": "https://dc.lft.to/lastmile_qr_scan"}, "is_disabled": 0, "type": "electric_scooter", "is_reserved": 0, "name": "2c46967955649f1c84b181cff9f1acbe", "lon": -77.037684, "bike_id": "2c46967955649f1c84b181cff9f1acbe", "lat": 38.90326566666667}, {"fusion_lon": 0.0, "fusion_lat": 0.0, "rental_uris": {"android": "https://dc.lft.to/lastmile_qr_scan", "ios": "https://dc.lft.to/lastmile_qr_scan"}, "is_disabled": 0, "type": "electric_bike", "is_reserved": 0, "name": "10c1417f232c9dcdf3268317eb594a5d", "lon": -76.989846, "bike_id": "10c1417f232c9dcdf3268317eb594a5d", "lat": 38.859938166666666}, {"fusion_lon": 0.0, "fusion_lat": 0.0, "rental_uris": {"android": "https://dc.lft.to/lastmile_qr_scan", "ios": "https://dc.lft.to/lastmile_qr_scan"}, "is_disabled": 0, "type": "electric_scooter", "is_reserved": 0, "name": "4ffa64aea3c229bf036c5ec5b0eec266", "lon": -77.01913683333333, "bike_id": "4ffa64aea3c229bf036c5ec5b0eec266", "lat": 38.8972525}, {"fusion_lon": 0.0, "fusion_lat": 0.0, "rental_uris": {"android": "https://dc.lft.to/lastmile_qr_scan", "ios": "https://dc.lft.to/lastmile_qr_scan"}, "is_disabled": 0, "type": "electric_bike", "is_reserved": 0, "name": "fce766ad2804b2aa68c76f2a9257d7e3", "lon": -77.12736583333333, "bike_id": "fce766ad2804b2aa68c76f2a9257d7e3", "lat": 38.895634333333334}, {"fusion_lon": 0.0, "fusion_lat": 0.0, "rental_uris": {"android": "https://dc.lft.to/lastmile_qr_scan", "ios": "https://dc.lft.to/lastmile_qr_scan"}, "is_disabled": 0, "type": "electric_scooter", "is_reserved": 0, "name": "fb5be835834d722ecf50688ed3eac5b8", "lon": -77.03163016666667, "bike_id": "fb5be835834d722ecf50688ed3eac5b8", "lat": 38.92052283333334}, {"fusion_lon": 0.0, "fusion_lat": 0.0, "rental_uris": {"android": "https://dc.lft.to/lastmile_qr_scan", "ios": "https://dc.lft.to/lastmile_qr_scan"}, "is_disabled": 0, "type": "electric_scooter", "is_reserved": 0, "name": "9b9c1e5c1f0a03a25de24c1a3efb226b", "lon": -77.02163116666667, "bike_id": "9b9c1e5c1f0a03a25de24c1a3efb226b", "lat": 38.89715116666667}, {"fusion_lon": 0.0, "fusion_lat": 0.0, "rental_uris": {"android": "https://dc.lft.to/lastmile_qr_scan", "ios": "https://dc.lft.to/lastmile_qr_scan"}, "is_disabled": 0, "type": "electric_bike", "is_reserved": 0, "name": "b8efc4aa63c4f99ffb6c03a6a3a981b7", "lon": -76.938686, "bike_id": "b8efc4aa63c4f99ffb6c03a6a3a981b7", "lat": 38.956157833333336}, {"fusion_lon": 0.0, "fusion_lat": 0.0, "rental_uris": {"android": "https://dc.lft.to/lastmile_qr_scan", "ios": "https://dc.lft.to/lastmile_qr_scan"}, "is_disabled": 0, "type": "electric_bike", "is_reserved": 0, "name": "41e9de5a0762939886cc6aa111ffe2e2", "lon": -77.02543183333333, "bike_id": "41e9de5a0762939886cc6aa111ffe2e2", "lat": 38.996798166666665}, {"fusion_lon": 0.0, "fusion_lat": 0.0, "rental_uris": {"android": "https://dc.lft.to/lastmile_qr_scan", "ios": "https://dc.lft.to/lastmile_qr_scan"}, "is_disabled": 0, "type": "electric_scooter", "is_reserved": 0, "name": "c578e6feec4c2dff6547cdb4bc88002d", "lon": -77.0151435, "bike_id": "c578e6feec4c2dff6547cdb4bc88002d", "lat": 38.8728525}, {"fusion_lon": 0.0, "fusion_lat": 0.0, "rental_uris": {"android": "https://dc.lft.to/lastmile_qr_scan", "ios": "https://dc.lft.to/lastmile_qr_scan"}, "is_disabled": 0, "type": "electric_scooter", "is_reserved": 0, "name": "15b27620e7d6aae84c49f96c1ddd65e1", "lon": -77.0195325, "bike_id": "15b27620e7d6aae84c49f96c1ddd65e1", "lat": 38.923217}, {"fusion_lon": 0.0, "fusion_lat": 0.0, "rental_uris": {"android": "https://dc.lft.to/lastmile_qr_scan", "ios": "https://dc.lft.to/lastmile_qr_scan"}, "is_disabled": 0, "type": "electric_bike", "is_reserved": 0, "name": "5bf610e9696b52e98119b517a3ee9f03", "lon": -77.09404116666667, "bike_id": "5bf610e9696b52e98119b517a3ee9f03", "lat": 38.97814866666667}, {"fusion_lon": 0.0, "fusion_lat": 0.0, "rental_uris": {"android": "https://dc.lft.to/lastmile_qr_scan", "ios": "https://dc.lft.to/lastmile_qr_scan"}, "is_disabled": 0, "type": "electric_scooter", "is_reserved": 0, "name": "1201a8003c801c0c561439371a7fa0a8", "lon": -77.035433, "bike_id": "1201a8003c801c0c561439371a7fa0a8", "lat": 38.90356833333333}, {"fusion_lon": 0.0, "fusion_lat": 0.0, "rental_uris": {"android": "https://dc.lft.to/lastmile_qr_scan", "ios": "https://dc.lft.to/lastmile_qr_scan"}, "is_disabled": 0, "type": "electric_bike", "is_reserved": 0, "name": "d669b9e6b56e25679f701aad90324817", "lon": -77.09686, "bike_id": "d669b9e6b56e25679f701aad90324817", "lat": 38.807408833333334},