{"data": {"bikes": [{"name": "a072607341b36415804e1f9833bd6f0e", "bike_id": "a072607341b36415804e1f9833bd6f0e", "fusion_lon": 0.0, "fusion_lat": 0.0, "rental_uris": {"ios": "https://dc.lft.to/lastmile_qr_scan", "android": "https://dc.lft.to/lastmile_qr_scan"}, "lon": -77.0326505, "type": "electric_scooter", "is_reserved": 0, "lat": 38.937298, "is_disabled": 0}, {"name": "d744aa7985ed222e6d1cf9e0f01950d9", "bike_id": "d744aa7985ed222e6d1cf9e0f01950d9", "fusion_lon": 0.0, "fusion_lat": 0.0, "rental_uris": {"ios": "https://dc.lft.to/lastmile_qr_scan", "android": "https://dc.lft.to/lastmile_qr_scan"}, "lon": -77.03043983333333, "type": "electric_scooter", "is_reserved": 0, "lat": 38.92485083333333, "is_disabled": 0}, {"name": "31603a4c28fc0b3e14341a8bc6859cc4", "bike_id": "31603a4c28fc0b3e14341a8bc6859cc4", "fusion_lon": 0.0, "fusion_lat": 0.0, "rental_uris": {"ios": "https://dc.lft.to/lastmile_qr_scan", "android": "https://dc.lft.to/lastmile_qr_scan"}, "lon": -77.028148, "type": "electric_scooter", "is_reserved": 0, "lat": 38.917523333333335, "is_disabled": 0}, {"name": "1f851937c92d43354a6c9ec2b900f28d", "bike_id": "1f851937c92d43354a6c9ec2b900f28d", "fusion_lon": 0.0, "fusion_lat": 0.0, "rental_uris": {"ios": "https://dc.lft.to/lastmile_qr_scan", "android": "https://dc.lft.to/lastmile_qr_scan"}, "lon": -77.03216383333333, "type": "electric_scooter", "is_reserved": 0, "lat": 38.91994233333333, "is_disabled": 0}, {"name": "89e68338ff1b37c4b08d99339d56e890", "bike_id": "89e68338ff1b37c4b08d99339d56e890", "fusion_lon": 0.0, "fusion_lat": 0.0, "rental_uris": {"ios": "https://dc.lft.to/lastmile_qr_scan", "android": "https://dc.lft.to/lastmile_qr_scan"}, "lon": -77.03681516666667, "type": "electric_scooter", "is_reserved": 0, "lat": 38.92267533333333, "is_disabled": 0}, {"name": "fc5231f51b6aec2629f1b5c3a32e3cee", "bike_id": "fc5231f51b6aec2629f1b5c3a32e3cee", "fusion_lon": 0.0, "fusion_lat": 0.0, "rental_uris": {"ios": "https://dc.lft.to/lastmile_qr_scan", "android": "https://dc.lft.to/lastmile_qr_scan"}, "lon": -76.98841683333333, "type": "electric_bike", "is_reserved": 0, "lat": 38.8427875, "is_disabled": 0}, {"name": "feffe6454c4caf7b0f33f49b320a429d", "bike_id": "feffe6454c4caf7b0f33f49b320a429d", "fusion_lon": 0.0, "fusion_lat": 0.0, "rental_uris": {"ios": "https://dc.lft.to/lastmile_qr_scan", "android": "https://dc.lft.to/lastmile_qr_scan"}, "lon": -77.052506, "type": "electric_scooter", "is_reserved": 0, "lat": 38.92729583333333, "is_disabled": 0}, {"name": "30153b6c0ee666c68054b0595b97a0d3", "bike_id": "30153b6c0ee666c68054b0595b97a0d3", "fusion_lon": 0.0, "fusion_lat": 0.0, "rental_uris": {"ios": "https://dc.lft.to/lastmile_qr_scan", "android": "https://dc.lft.to/lastmile_qr_scan"}, "lon": -77.0202535, "type": "electric_scooter", "is_reserved": 0, "lat": 38.924313166666664, "is_disabled": 0}, {"name": "7e3ff783e7243b8448ebc20fc049cafc", "bike_id": "7e3ff783e7243b8448ebc20fc049cafc", "fusion_lon": 0.0, "fusion_lat": 0.0, "rental_uris": {"ios": "https://dc.lft.to/lastmile_qr_scan", "android": "https://dc.lft.to/lastmile_qr_scan"}, "lon": -77.03903533333333, "type": "electric_scooter", "is_reserved": 0, "lat": 38.91269283333333, "is_disabled": 0}, {"name": "8039ec8411312eee72b4768d95929b78", "bike_id": "8039ec8411312eee72b4768d95929b78", "fusion_lon": 0.0, "fusion_lat": 0.0, "rental_uris": {"ios": "https://dc.lft.to/lastmile_qr_scan", "android": "https://dc.lft.to/lastmile_qr_scan"}, "lon": -77.0313345, "type": "electric_bike", "is_reserved": 0, "lat": 38.92376383333333, "is_disabled": 0}, {"name": "7bc4b5488f19f3440aa7075fd2cb9912", "bike_id": "7bc4b5488f19f3440aa7075fd2cb9912", "fusion_lon": 0.0, "fusion_lat": 0.0, "rental_uris": {"ios": "https://dc.lft.to/lastmile_qr_scan", "android": "https://dc.lft.to/lastmile_qr_scan"}, "lon": -77.0471625, "type": "electric_scooter", "is_reserved": 0, "lat": 38.9060095, "is_disabled": 0}, {"name": "5128bc6ba16425a8b6b962102c445131", "bike_id": "5128bc6ba16425a8b6b962102c445131", "fusion_lon": 0.0, "fusion_lat": 0.0, "rental_uris": {"ios": "https://dc.lft.to/lastmile_qr_scan", "android": "https://dc.lft.to/lastmile_qr_scan"}, "lon": -77.0178995, "type": "electric_scooter", "is_reserved": 0, "lat": 38.876796666666664, "is_disabled": 0}, {"name": "9a0379f2d388ded91cb15041595bf5bf", "bike_id": "9a0379f2d388ded91cb15041595bf5bf", "fusion_lon": 0.0, "fusion_lat": 0.0, "rental_uris": {"ios": "https://dc.lft.to/lastmile_qr_scan", "android": "https://dc.lft.to/lastmile_qr_scan"}, "lon": -77.12975683333333, "type": "electric_bike", "is_reserved": 0, "lat": 38.799874333333335, "is_disabled": 0}, {"name": "d8cf4892e45757fd4634821a59d8e92d", "bike_id": "d8cf4892e45757fd4634821a59d8e92d", "fusion_lon": 0.0, "fusion_lat": 0.0, "rental_uris": {"ios": "https://dc.lft.to/lastmile_qr_scan", "android": "https://dc.lft.to/lastmile_qr_scan"}, "lon": -77.02435566666666, "type": "electric_scooter", "is_reserved": 0, "lat": 38.9265525, "is_disabled": 0}, {"name": "fe502c245aaa0d804ce925478e765573", "bike_id": "fe502c245aaa0d804ce925478e765573", "fusion_lon": 0.0, "fusion_lat": 0.0, "rental_uris": {"ios": "https://dc.lft.to/lastmile_qr_scan", "android": "https://dc.lft.to/lastmile_qr_scan"}, "lon": -77.05875583333334, "type": "electric_scooter", "is_reserved": 0, "lat": 38.942387333333336, "is_disabled": 0}, {"name": "25db6ca92eb87072907c4d8874e848e4", "bike_id": "25db6ca92eb87072907c4d8874e848e4", "fusion_lon": 0.0, "fusion_lat": 0.0, "rental_uris": {"ios": "https://dc.lft.to/lastmile_qr_scan", "android": "https://dc.lft.to/lastmile_qr_scan"}, "lon": -76.99505266666667, "type": "electric_scooter", "is_reserved": 0, "lat": 38.926082666666666, "is_disabled": 0}, {"name": "16494f780151d9c8b292b81cca4cf96c", "bike_id": "16494f780151d9c8b292b81cca4cf96c", "fusion_lon": 0.0, "fusion_lat": 0.0, "rental_uris": {"ios": "https://dc.lft.to/lastmile_qr_scan", "android": "https://dc.lft.to/lastmile_qr_scan"}, "lon": -77.042185, "type": "electric_scooter", "is_reserved": 0, "lat": 38.923161666666665, "is_disabled": 0}, {"name": "f5bfada6173dfdadf6fdd04592f9c494", "bike_id": "f5bfada6173dfdadf6fdd04592f9c494", "fusion_lon": 0.0, "fusion_lat": 0.0, "rental_uris": {"ios": "https://dc.lft.to/lastmile_qr_scan", "android": "https://dc.lft.to/lastmile_qr_scan"}, "lon": -77.031188, "type": "electric_scooter", "is_reserved": 0, "lat": 38.921196, "is_disabled": 0}, {"name": "724f59ea54f5ad6b1c53ed26ba1d7fad", "bike_id": "724f59ea54f5ad6b1c53ed26ba1d7fad", "fusion_lon": 0.0, "fusion_lat": 0.0, "rental_uris": {"ios": "https://dc.lft.to/lastmile_qr_scan", "android": "https://dc.lft.to/lastmile_qr_scan"}, "lon": -77.06773066666666, "type": "electric_scooter", "is_reserved": 0, "lat": 38.904068, "is_disabled": 0}, {"name": "938f574a3e222e112f4a4139ed893e81", "bike_id": "938f574a3e222e112f4a4139ed893e81", "fusion_lon": 0.0, "fusion_lat": 0.0, "rental_uris": {"ios": "https://dc.lft.to/lastmile_qr_scan", "android": "https://dc.lft.to/lastmile_qr_scan"}, "lon": -77.03903016666666, "type": "electric_scooter", "is_reserved": 0, "lat": 38.924462, "is_disabled": 0}, {"name": "a32af6be2e99124c755155a54e4e3c31", "bike_id": "a32af6be2e99124c755155a54e4e3c31", "fusion_lon": 0.0, "fusion_lat": 0.0, "rental_uris": {"ios": "https://dc.lft.to/lastmile_qr_scan", "android": "https://dc.lft.to/lastmile_qr_scan"}, "lon": -77.03341316666666, "type": "electric_scooter", "is_reserved": 0, "lat": 38.892265333333334, "is_disabled": 0}, {"name": "70303c7d7f0822cc1c96e8d470f12041", "bike_id": "70303c7d7f0822cc1c96e8d470f12041", "fusion_lon": 0.0, "fusion_lat": 0.0, "rental_uris": {"ios": "https://dc.lft.to/lastmile_qr_scan", "android": "https://dc.lft.to/lastmile_qr_scan"}, "lon": -76.99518966666666, "type": "electric_scooter", "is_reserved": 0, "lat": 38.88374066666667, "is_disabled": 0}, {"name": "9e2de37582e583ab4b9be31f9f181aee", "bike_id": "9e2de37582e583ab4b9be31f9f181aee", "fusion_lon": 0.0, "fusion_lat": 0.0, "rental_uris": {"ios": "https://dc.lft.to/lastmile_qr_scan", "android": "https://dc.lft.to/lastmile_qr_scan"}, "lon": -77.03731233333333, "type": "electric_scooter", "is_reserved": 0, "lat": 38.917080166666665, "is_disabled": 0}, {"name": "2041e8aec981bc16a5e1712139bbdeef", "bike_id": "2041e8aec981bc16a5e1712139bbdeef", "fusion_lon": 0.0, "fusion_lat": 0.0, "rental_uris": {"ios": "https://dc.lft.to/lastmile_qr_scan", "android": "https://dc.lft.to/lastmile_qr_scan"}, "lon": -76.93704016666666, "type": "electric_scooter", "is_reserved": 0, "lat": 38.890186166666666, "is_disabled": 0}, {"name": "466bdef70726c39d58044075e2507c5b", "bike_id": "466bdef70726c39d58044075e2507c5b", "fusion_lon": 0.0, "fusion_lat": 0.0, "rental_uris": {"ios": "https://dc.lft.to/lastmile_qr_scan", "android": "https://dc.lft.to/lastmile_qr_scan"}, "lon": -77.02247466666667, "type": "electric_scooter", "is_reserved": 0, "lat": 38.956456333333335, "is_disabled": 0}, {"name": "f305941f70a30e8477792f4ddd160466", "bike_id": "f305941f70a30e8477792f4ddd160466", "fusion_lon": 0.0, "fusion_lat": 0.0, "rental_uris": {"ios": "https://dc.lft.to/lastmile_qr_scan", "android": "https://dc.lft.to/lastmile_qr_scan"}, "lon": -77.02477416666666, "type": "electric_scooter", "is_reserved": 0, "lat": 38.9017595, "is_disabled": 0}, {"name": "17d0b3345ea8f4329b0028d284ff6fa0", "bike_id": "17d0b3345ea8f4329b0028d284ff6fa0", "fusion_lon": 0.0, "fusion_lat": 0.0, "rental_uris": {"ios": "https://dc.lft.to/lastmile_qr_scan", "android": "https://dc.lft.to/lastmile_qr_scan"}, "lon": -77.04191283333333, "type": "electric_scooter", "is_reserved": 0, "lat": 38.922049333333334, "is_disabled": 0}, {"name": "990f59104eac358c2ec10ff2be4e8831", "bike_id": "990f59104eac358c2ec10ff2be4e8831", "fusion_lon": 0.0, "fusion_lat": 0.0, "rental_uris": {"ios": "https://dc.lft.to/lastmile_qr_scan", "android": "https://dc.lft.to/lastmile_qr_scan"}, "lon": -76.99600833333334, "type": "electric_scooter", "is_reserved": 0, "lat": 38.87767, "is_disabled": 0}, {"name": "2a1fa48a20b18cdf1809b774632b9c41", "bike_id": "2a1fa48a20b18cdf1809b774632b9c41", "fusion_lon": 0.0, "fusion_lat": 0.0, "rental_uris": {"ios": "https://dc.lft.to/lastmile_qr_scan", "android": "https://dc.lft.to/lastmile_qr_scan"}, "lon": -77.002166, "type": "electric_scooter", "is_reserved": 0, "lat": 38.91100733333333, "is_disabled": 0}, {"name": "05e9c62cc0194dd1b1c7a3c4c50cda04", "bike_id": "05e9c62cc0194dd1b1c7a3c4c50cda04", "fusion_lon": 0.0, "fusion_lat": 0.0, "rental_uris": {"ios": "https://dc.lft.to/lastmile_qr_scan", "android": "https://dc.lft.to/lastmile_qr_scan"}, "lon": -77.0241665, "type": "electric_scooter", "is_reserved": 0, "lat": 38.91919583333333, "is_disabled": 0}, {"name": "791d169c1d10a96073b9f7c04d231dae", "bike_id": "791d169c1d10a96073b9f7c04d231dae", "fusion_lon": 0.0, "fusion_lat": 0.0, "rental_uris": {"ios": "https://dc.lft.to/lastmile_qr_scan", "android": "https://dc.lft.to/lastmile_qr_scan"}, "lon": -77.02123616666667, "type": "electric_scooter", "is_reserved": 0, "lat": 38.8939895, "is_disabled": 0}, {"name": "416381302508fedf1c0325e2a1a28821", "bike_id": "416381302508fedf1c0325e2a1a28821", "fusion_lon": 0.0, "fusion_lat": 0.0, "rental_uris": {"ios": "https://dc.lft.to/lastmile_qr_scan", "android": "https://dc.lft.to/lastmile_qr_scan"}, "lon": -77.02582883333334, "type": "electric_scooter", "is_reserved": 0, "lat": 38.90500983333333, "is_disabled": 0}, {"name": "e231d77f072484d9b7b11866bf7a8a84", "bike_id": "e231d77f072484d9b7b11866bf7a8a84", "fusion_lon": 0.0, "fusion_lat": 0.0, "rental_uris": {"ios": "https://dc.lft.to/lastmile_qr_scan", "android": "https://dc.lft.to/lastmile_qr_scan"}, "lon": -77.02555583333333, "type": "electric_scooter", "is_reserved": 0, "lat": 38.92482833333333, "is_disabled": 0}, {"name": "b194e4460678ce8deb016fd477cf4a47", "bike_id": "b194e4460678ce8deb016fd477cf4a47", "fusion_lon": 0.0, "fusion_lat": 0.0, "rental_uris": {"ios": "https://dc.lft.to/lastmile_qr_scan", "android": "https://dc.lft.to/lastmile_qr_scan"}, "lon": -77.02979466666666, "type": "electric_scooter", "is_reserved": 0, "lat": 38.918233, "is_disabled": 0}, {"name": "df0c7894c6c2c214d72c3efa438c8f1a", "bike_id": "df0c7894c6c2c214d72c3efa438c8f1a", "fusion_lon": 0.0, "fusion_lat": 0.0, "rental_uris": {"ios": "https://dc.lft.to/lastmile_qr_scan", "android": "https://dc.lft.to/lastmile_qr_scan"}, "lon": -77.04213916666667, "type": "electric_scooter", "is_reserved": 0, "lat": 38.921108833333335, "is_disabled": 0}, {"name": "e50cc2941fadb8d5e723516f86dfceb1", "bike_id": "e50cc2941fadb8d5e723516f86dfceb1", "fusion_lon": 0.0, "fusion_lat": 0.0, "rental_uris": {"ios": "https://dc.lft.to/lastmile_qr_scan", "android": "https://dc.lft.to/lastmile_qr_scan"}, "lon": -77.0336115, "type": "electric_scooter", "is_reserved": 0, "lat": 38.928791833333335, "is_disabled": 0}, {"name": "a4b9be0dd69f60a01463e087d5b560f2", "bike_id": "a4b9be0dd69f60a01463e087d5b560f2", "fusion_lon": 0.0, "fusion_lat": 0.0, "rental_uris": {"ios": "https://dc.lft.to/lastmile_qr_scan", "android": "https://dc.lft.to/lastmile_qr_scan"}, "lon": -77.044854, "type": "electric_scooter", "is_reserved": 0, "lat": 38.899489833333334, "is_disabled": 0}, {"name": "a00125690ed14a04745b2e2376f87e7d", "bike_id": "a00125690ed14a04745b2e2376f87e7d", "fusion_lon": 0.0, "fusion_lat": 0.0, "rental_uris": {"ios": "https://dc.lft.to/lastmile_qr_scan", "android": "https://dc.lft.to/lastmile_qr_scan"}, "lon": -76.99836666666667, "type": "electric_scooter", "is_reserved": 0, "lat": 38.837689166666664, "is_disabled": 0}, {"name": "977584f6969124e2c448d32d6e4e258e", "bike_id": "977584f6969124e2c448d32d6e4e258e", "fusion_lon": 0.0, "fusion_lat": 0.0, "rental_uris": {"ios": "https://dc.lft.to/lastmile_qr_scan", "android": "https://dc.lft.to/lastmile_qr_scan"}, "lon": -77.02660133333333, "type": "electric_scooter", "is_reserved": 0, "lat": 38.9150345, "is_disabled": 0}, {"name": "7919f8223c20455d40a7bb8661750105", "bike_id": "7919f8223c20455d40a7bb8661750105", "fusion_lon": 0.0, "fusion_lat": 0.0, "rental_uris": {"ios": "https://dc.lft.to/lastmile_qr_scan", "android": "https://dc.lft.to/lastmile_qr_scan"}, "lon": -77.04197533333334, "type": "electric_scooter", "is_reserved": 0, "lat": 38.926257666666665, "is_disabled": 0}, {"name": "2253f11679be77cd97f2cc14b77b6de9", "bike_id": "2253f11679be77cd97f2cc14b77b6de9", "fusion_lon": 0.0, "fusion_lat": 0.0, "rental_uris": {"ios": "https://dc.lft.to/lastmile_qr_scan", "android": "https://dc.lft.to/lastmile_qr_scan"}, "lon": -77.061275, "type": "electric_scooter", "is_reserved": 0, "lat": 38.9050305, "is_disabled": 0}, {"name": "3863674da780c7f229ea764883c9899c", "bike_id": "3863674da780c7f229ea764883c9899c", "fusion_lon": 0.0, "fusion_lat": 0.0, "rental_uris": {"ios": "https://dc.lft.to/lastmile_qr_scan", "android": "https://dc.lft.to/lastmile_qr_scan"}, "lon": -77.031956, "type": "electric_scooter", "is_reserved": 0, "lat": 38.91677283333333, "is_disabled": 0}, {"name": "326c9578b482c6940b3ae7b09f817b5b", "bike_id": "326c9578b482c6940b3ae7b09f817b5b", "fusion_lon": 0.0, "fusion_lat": 0.0, "rental_uris": {"ios": "https://dc.lft.to/lastmile_qr_scan", "android": "https://dc.lft.to/lastmile_qr_scan"}, "lon": -77.02152416666667, "type": "electric_scooter", "is_reserved": 0, "lat": 38.8850125, "is_disabled": 0}, {"name": "f0c7f4dda4ba9f1998a86372739f0e81", "bike_id": "f0c7f4dda4ba9f1998a86372739f0e81", "fusion_lon": 0.0, "fusion_lat": 0.0, "rental_uris": {"ios": "https://dc.lft.to/lastmile_qr_scan", "android": "https://dc.lft.to/lastmile_qr_scan"}, "lon": -77.03239433333333, "type": "electric_scooter", "is_reserved": 0, "lat": 38.901190166666666, "is_disabled": 0}, {"name": "5e274cb402a02673ad89f7c306fdad28", "bike_id": "5e274cb402a02673ad89f7c306fdad28", "fusion_lon": 0.0, "fusion_lat": 0.0, "rental_uris": {"ios": "https://dc.lft.to/lastmile_qr_scan", "android": "https://dc.lft.to/lastmile_qr_scan"}, "lon": -77.03912783333334, "type": "electric_scooter", "is_reserved": 0, "lat": 38.917599333333335, "is_disabled": 0}, {"name": "d4198ef07ce27d18103bf153a75391fb", "bike_id": "d4198ef07ce27d18103bf153a75391fb", "fusion_lon": 0.0, "fusion_lat": 0.0, "rental_uris": {"ios": "https://dc.lft.to/lastmile_qr_scan", "android": "https://dc.lft.to/lastmile_qr_scan"}, "lon": -77.044445, "type": "electric_scooter", "is_reserved": 0, "lat": 38.91799183333333, "is_disabled": 0}, {"name": "e0d7b707fd46dbd6c9904cd0de77c6ab", "bike_id": "e0d7b707fd46dbd6c9904cd0de77c6ab", "fusion_lon": 0.0, "fusion_lat": 0.0, "rental_uris": {"ios": "https://dc.lft.to/lastmile_qr_scan", "android": "https://dc.lft.to/lastmile_qr_scan"}, "lon": -77.04545066666667, "type": "electric_scooter", "is_reserved": 0, "lat": 38.9339535, "is_disabled": 0}, {"name": "5749d7f37a1f98bb6a5990f5d5a63ea0", "bike_id": "5749d7f37a1f98bb6a5990f5d5a63ea0", "fusion_lon": 0.0, "fusion_lat": 0.0, "rental_uris": {"ios": "https://dc.lft.to/lastmile_qr_scan", "android": "https://dc.lft.to/lastmile_qr_scan"}, "lon": -77.02424816666667, "type": "electric_scooter", "is_reserved": 0, "lat": 38.92052616666667, "is_disabled": 0}, {"name": "226bcb9d21c84bc9b391d1f45063c028", "bike_id": "226bcb9d21c84bc9b391d1f45063c028", "fusion_lon": 0.0, "fusion_lat": 0.0, "rental_uris": {"ios": "https://dc.lft.to/lastmile_qr_scan", "android": "https://dc.lft.to/lastmile_qr_scan"}, "lon": -77.02194133333333, "type": "electric_scooter", "is_reserved": 0, "lat": 38.915279, "is_disabled": 0}, {"name": "ffee48b89cd127d9d3f0ac6be1e28c42", "bike_id": "ffee48b89cd127d9d3f0ac6be1e28c42", "fusion_lon": 0.0, "fusion_lat": 0.0, "rental_uris": {"ios": "https://dc.lft.to/lastmile_qr_scan", "android": "https://dc.lft.to/lastmile_qr_scan"}, "lon": -77.00921183333334, "type": "electric_scooter", "is_reserved": 0, "lat": 38.897446333333335, "is_disabled": 0}, {"name": "7397f8115d78a02c756f9f5427423ed7", "bike_id": "7397f8115d78a02c756f9f5427423ed7", "fusion_lon": 0.0, "fusion_lat": 0.0, "rental_uris": {"ios": "https://dc.lft.to/lastmile_qr_scan", "android": "https://dc.lft.to/lastmile_qr_scan"}, "lon": -76.99047133333333, "type": "electric_scooter", "is_reserved": 0, "lat": 38.86366, "is_disabled": 0}, {"name": "2bd9e1312bc2cece87ee80f08a5d3d2a", "bike_id": "2bd9e1312bc2cece87ee80f08a5d3d2a", "fusion_lon": 0.0, "fusion_lat": 0.0, "rental_uris": {"ios": "https://dc.lft.to/lastmile_qr_scan", "android": "https://dc.lft.to/lastmile_qr_scan"}, "lon": -77.03495533333333, "type": "electric_scooter", "is_reserved": 0, "lat": 38.916956166666665, "is_disabled": 0}, {"name": "5f0ff4e41b0406c66d527c9fbda666d8", "bike_id": "5f0ff4e41b0406c66d527c9fbda666d8", "fusion_lon": 0.0, "fusion_lat": 0.0, "rental_uris": {"ios": "https://dc.lft.to/lastmile_qr_scan", "android": "https://dc.lft.to/lastmile_qr_scan"}, "lon": -77.03563633333333, "type": "electric_scooter", "is_reserved": 0, "lat": 38.9047015, "is_disabled": 0}, {"name": "4127bcdd5a37012c2d1ce4994ba0c31a", "bike_id": "4127bcdd5a37012c2d1ce4994ba0c31a", "fusion_lon": 0.0, "fusion_lat": 0.0, "rental_uris": {"ios": "https://dc.lft.to/lastmile_qr_scan", "android": "https://dc.lft.to/lastmile_qr_scan"}, "lon": -76.93175683333334, "type": "electric_scooter", "is_reserved": 0, "lat": 38.89886833333333, "is_disabled": 0}, {"name": "17fcf61efa8f10a306fa20a21d468135", "bike_id": "17fcf61efa8f10a306fa20a21d468135", "fusion_lon": 0.0, "fusion_lat": 0.0, "rental_uris": {"ios": "https://dc.lft.to/lastmile_qr_scan", "android": "https://dc.lft.to/lastmile_qr_scan"}, "lon": -77.01762033333333, "type": "electric_scooter", "is_reserved": 0, "lat": 38.877166833333334, "is_disabled": 0}, {"name": "1f7884877983bd49aa15de3c7395e9da", "bike_id": "1f7884877983bd49aa15de3c7395e9da", "fusion_lon": 0.0, "fusion_lat": 0.0, "rental_uris": {"ios": "https://dc.lft.to/lastmile_qr_scan", "android": "https://dc.lft.to/lastmile_qr_scan"}, "lon": -77.02368083333333, "type": "electric_scooter", "is_reserved": 0, "lat": 38.89220733333333, "is_disabled": 0}, {"name": "17706a91cdb12c493cc3cf3990fdad52", "bike_id": "17706a91cdb12c493cc3cf3990fdad52", "fusion_lon": 0.0, "fusion_lat": 0.0, "rental_uris": {"ios": "https://dc.lft.to/lastmile_qr_scan", "android": "https://dc.lft.to/lastmile_qr_scan"}, "lon": -77.02624083333333, "type": "electric_scooter", "is_reserved": 0, "lat": 38.905630333333335, "is_disabled": 0}, {"name": "f8286152442ca25e096e657a741d9db1", "bike_id": "f8286152442ca25e096e657a741d9db1", "fusion_lon": 0.0, "fusion_lat": 0.0, "rental_uris": {"ios": "https://dc.lft.to/lastmile_qr_scan", "android": "https://dc.lft.to/lastmile_qr_scan"}, "lon": -77.031827, "type": "electric_scooter", "is_reserved": 0, "lat": 38.908380333333334, "is_disabled": 0}, {"name": "5cd00dc966258df81be372b0b2887a98", "bike_id": "5cd00dc966258df81be372b0b2887a98", "fusion_lon": 0.0, "fusion_lat": 0.0, "rental_uris": {"ios": "https://dc.lft.to/lastmile_qr_scan", "android": "https://dc.lft.to/lastmile_qr_scan"}, "lon": -77.01362566666667, "type": "electric_scooter", "is_reserved": 0, "lat": 38.919273833333335, "is_disabled": 0}, {"name": "a9ead533d6276b0a26f7c66da7f056dd", "bike_id": "a9ead533d6276b0a26f7c66da7f056dd", "fusion_lon": 0.0, "fusion_lat": 0.0, "rental_uris": {"ios": "https://dc.lft.to/lastmile_qr_scan", "android": "https://dc.lft.to/lastmile_qr_scan"}, "lon": -77.03414333333333, "type": "electric_scooter", "is_reserved": 0, "lat": 38.9097745, "is_disabled": 0}, {"name": "dfd3a89ec7585e917832e3d35f251dcb", "bike_id": "dfd3a89ec7585e917832e3d35f251dcb", "fusion_lon": 0.0, "fusion_lat": 0.0, "rental_uris": {"ios": "https://dc.lft.to/lastmile_qr_scan", "android": "https://dc.lft.to/lastmile_qr_scan"}, "lon": -77.04414383333334, "type": "electric_scooter", "is_reserved": 0, "lat": 38.90126016666667, "is_disabled": 0}, {"name": "1324a0d2563e0a3ac9c732c809b2bf93", "bike_id": "1324a0d2563e0a3ac9c732c809b2bf93", "fusion_lon": 0.0, "fusion_lat": 0.0, "rental_uris": {"ios": "https://dc.lft.to/lastmile_qr_scan", "android": "https://dc.lft.to/lastmile_qr_scan"}, "lon": -77.0439005, "type": "electric_scooter", "is_reserved": 0, "lat": 38.916596166666665, "is_disabled": 0}, {"name": "76395b262a50469b094b166b60852563", "bike_id": "76395b262a50469b094b166b60852563", "fusion_lon": 0.0, "fusion_lat": 0.0, "rental_uris": {"ios": "https://dc.lft.to/lastmile_qr_scan", "android": "https://dc.lft.to/lastmile_qr_scan"}, "lon": -77.023213, "type": "electric_scooter", "is_reserved": 0, "lat": 38.9305965, "is_disabled": 0}, {"name": "7087a0ea366a096a3de2231ac49f8db8", "bike_id": "7087a0ea366a096a3de2231ac49f8db8", "fusion_lon": 0.0, "fusion_lat": 0.0, "rental_uris": {"ios": "https://dc.lft.to/lastmile_qr_scan", "android": "https://dc.lft.to/lastmile_qr_scan"}, "lon": -76.98012533333333, "type": "electric_bike", "is_reserved": 0, "lat": 38.853205333333335, "is_disabled": 0}, {"name": "031d37d4c47e17f9f3c42146ec1cc69c", "bike_id": "031d37d4c47e17f9f3c42146ec1cc69c", "fusion_lon": 0.0, "fusion_lat": 0.0, "rental_uris": {"ios": "https://dc.lft.to/lastmile_qr_scan", "android": "https://dc.lft.to/lastmile_qr_scan"}, "lon": -77.023044, "type": "electric_scooter", "is_reserved": 0, "lat": 38.8906, "is_disabled": 0}, {"name": "9c2a527b86975871546128a626fbf405", "bike_id": "9c2a527b86975871546128a626fbf405", "fusion_lon": 0.0, "fusion_lat": 0.0, "rental_uris": {"ios": "https://dc.lft.to/lastmile_qr_scan", "android": "https://dc.lft.to/lastmile_qr_scan"}, "lon": -77.02066916666666, "type": "electric_scooter", "is_reserved": 0, "lat": 38.9229295, "is_disabled": 0}, {"name": "4a4bd9ce7101106f01f24fa55f4b3bf4", "bike_id": "4a4bd9ce7101106f01f24fa55f4b3bf4", "fusion_lon": 0.0, "fusion_lat": 0.0, "rental_uris": {"ios": "https://dc.lft.to/lastmile_qr_scan", "android": "https://dc.lft.to/lastmile_qr_scan"}, "lon": -77.02186233333333, "type": "electric_scooter", "is_reserved": 0, "lat": 38.91051366666667, "is_disabled": 0}, {"name": "b35d00520ffe8d56ef40ce9f70a4e496", "bike_id": "b35d00520ffe8d56ef40ce9f70a4e496", "fusion_lon": 0.0, "fusion_lat": 0.0, "rental_uris": {"ios": "https://dc.lft.to/lastmile_qr_scan", "android": "https://dc.lft.to/lastmile_qr_scan"}, "lon": -77.02595333333333, "type": "electric_scooter", "is_reserved": 0, "lat": 38.88428733333333, "is_disabled": 0}, {"name": "a721e71f181d9b96d7bbf367d23ccbbb", "bike_id": "a721e71f181d9b96d7bbf367d23ccbbb", "fusion_lon": 0.0, "fusion_lat": 0.0, "rental_uris": {"ios": "https://dc.lft.to/lastmile_qr_scan", "android": "https://dc.lft.to/lastmile_qr_scan"}, "lon": -77.01944683333333, "type": "electric_scooter", "is_reserved": 0, "lat": 38.92419266666667, "is_disabled": 0}, {"name": "a3ca8aaed89e59d99331bb8b0062343e", "bike_id": "a3ca8aaed89e59d99331bb8b0062343e", "fusion_lon": 0.0, "fusion_lat": 0.0, "rental_uris": {"ios": "https://dc.lft.to/lastmile_qr_scan", "android": "https://dc.lft.to/lastmile_qr_scan"}, "lon": -77.00936566666667, "type": "electric_scooter", "is_reserved": 0, "lat": 38.877213833333336, "is_disabled": 0}, {"name": "b510dea272b9744ed950798f4a58c41a", "bike_id": "b510dea272b9744ed950798f4a58c41a", "fusion_lon": 0.0, "fusion_lat": 0.0, "rental_uris": {"ios": "https://dc.lft.to/lastmile_qr_scan", "android": "https://dc.lft.to/lastmile_qr_scan"}, "lon": -77.021708, "type": "electric_scooter", "is_reserved": 0, "lat": 38.9199385, "is_disabled": 0}, {"name": "8b4dd3b1012fbc5121ed899440fbb732", "bike_id": "8b4dd3b1012fbc5121ed899440fbb732", "fusion_lon": 0.0, "fusion_lat": 0.0, "rental_uris": {"ios": "https://dc.lft.to/lastmile_qr_scan", "android": "https://dc.lft.to/lastmile_qr_scan"}, "lon": -77.04083583333333, "type": "electric_scooter", "is_reserved": 0, "lat": 38.94788233333333, "is_disabled": 0}, {"name": "2ee8ef032916152e21cb4b7cc75190ba", "bike_id": "2ee8ef032916152e21cb4b7cc75190ba", "fusion_lon": 0.0, "fusion_lat": 0.0, "rental_uris": {"ios": "https://dc.lft.to/lastmile_qr_scan", "android": "https://dc.lft.to/lastmile_qr_scan"}, "lon": -77.03406666666666, "type": "electric_scooter", "is_reserved": 0, "lat": 38.9240045, "is_disabled": 0}, {"name": "998e22ec7084da345ed170da25b9b36b", "bike_id": "998e22ec7084da345ed170da25b9b36b", "fusion_lon": 0.0, "fusion_lat": 0.0, "rental_uris": {"ios": "https://dc.lft.to/lastmile_qr_scan", "android": "https://dc.lft.to/lastmile_qr_scan"}, "lon": -77.03643166666667, "type": "electric_scooter", "is_reserved": 0, "lat": 38.912688333333335, "is_disabled": 0}, {"name": "b37d4f0cc1d09386ea7b8c47a0723dc2", "bike_id": "b37d4f0cc1d09386ea7b8c47a0723dc2", "fusion_lon": 0.0, "fusion_lat": 0.0, "rental_uris": {"ios": "https://dc.lft.to/lastmile_qr_scan", "android": "https://dc.lft.to/lastmile_qr_scan"}, "lon": -77.0401945, "type": "electric_scooter", "is_reserved": 0, "lat": 38.921650666666665, "is_disabled": 0}, {"name": "38f8bf14ff91d221be4bb3ffec38d93c", "bike_id": "38f8bf14ff91d221be4bb3ffec38d93c", "fusion_lon": 0.0, "fusion_lat": 0.0, "rental_uris": {"ios": "https://dc.lft.to/lastmile_qr_scan", "android": "https://dc.lft.to/lastmile_qr_scan"}, "lon": -76.9850835, "type": "electric_scooter", "is_reserved": 0, "lat": 38.88086583333333, "is_disabled": 0}, {"name": "5bae650e1dc833dd909eabd446ddefd8", "bike_id": "5bae650e1dc833dd909eabd446ddefd8", "fusion_lon": 0.0, "fusion_lat": 0.0, "rental_uris": {"ios": "https://dc.lft.to/lastmile_qr_scan", "android": "https://dc.lft.to/lastmile_qr_scan"}, "lon": -77.03548333333333, "type": "electric_scooter", "is_reserved": 0, "lat": 38.9240855, "is_disabled": 0}, {"name": "07a0f76db832a6cc831b83443e67964d", "bike_id": "07a0f76db832a6cc831b83443e67964d", "fusion_lon": 0.0, "fusion_lat": 0.0, "rental_uris": {"ios": "https://dc.lft.to/lastmile_qr_scan", "android": "https://dc.lft.to/lastmile_qr_scan"}, "lon": -76.994093, "type": "electric_bike", "is_reserved": 0, "lat": 38.83102216666666, "is_disabled": 0}, {"name": "b626cd56b382c8163fe1e88c6704226f", "bike_id": "b626cd56b382c8163fe1e88c6704226f", "fusion_lon": 0.0, "fusion_lat": 0.0, "rental_uris": {"ios": "https://dc.lft.to/lastmile_qr_scan", "android": "https://dc.lft.to/lastmile_qr_scan"}, "lon": -77.04689233333333, "type": "electric_scooter", "is_reserved": 0, "lat": 38.89226166666667, "is_disabled": 0}, {"name": "1c98e0c675fd14cfb30a7e066f45219f", "bike_id": "1c98e0c675fd14cfb30a7e066f45219f", "fusion_lon": 0.0, "fusion_lat": 0.0, "rental_uris": {"ios": "https://dc.lft.to/lastmile_qr_scan", "android": "https://dc.lft.to/lastmile_qr_scan"}, "lon": -77.04952783333333, "type": "electric_scooter", "is_reserved": 0, "lat": 38.89733866666667, "is_disabled": 0}, {"name": "2fbbe3ef508c491aff74b447d48c181d", "bike_id": "2fbbe3ef508c491aff74b447d48c181d", "fusion_lon": 0.0, "fusion_lat": 0.0, "rental_uris": {"ios": "https://dc.lft.to/lastmile_qr_scan", "android": "https://dc.lft.to/lastmile_qr_scan"}, "lon": -77.02419516666667, "type": "electric_scooter", "is_reserved": 0, "lat": 38.9056895, "is_disabled": 0}, {"name": "7e91f422004a4f4689670cea3e8d14a4", "bike_id": "7e91f422004a4f4689670cea3e8d14a4", "fusion_lon": 0.0, "fusion_lat": 0.0, "rental_uris": {"ios": "https://dc.lft.to/lastmile_qr_scan", "android": "https://dc.lft.to/lastmile_qr_scan"}, "lon": -77.00490733333334, "type": "electric_scooter", "is_reserved": 0, "lat": 38.879441, "is_disabled": 0}, {"name": "a458fd1fb55ffbccb5a7eb23465cd689", "bike_id": "a458fd1fb55ffbccb5a7eb23465cd689", "fusion_lon": 0.0, "fusion_lat": 0.0, "rental_uris": {"ios": "https://dc.lft.to/lastmile_qr_scan", "android": "https://dc.lft.to/lastmile_qr_scan"}, "lon": -77.00206666666666, "type": "electric_scooter", "is_reserved": 0, "lat": 38.9003265, "is_disabled": 0}, {"name": "59dacbf50652fa207f661fb84c064503", "bike_id": "59dacbf50652fa207f661fb84c064503", "fusion_lon": 0.0, "fusion_lat": 0.0, "rental_uris": {"ios": "https://dc.lft.to/lastmile_qr_scan", "android": "https://dc.lft.to/lastmile_qr_scan"}, "lon": -76.93382716666666, "type": "electric_scooter", "is_reserved": 0, "lat": 38.8991055, "is_disabled": 0}, {"name": "0af56f02a284d2dca6e9c060f453b2ed", "bike_id": "0af56f02a284d2dca6e9c060f453b2ed", "fusion_lon": 0.0, "fusion_lat": 0.0, "rental_uris": {"ios": "https://dc.lft.to/lastmile_qr_scan", "android": "https://dc.lft.to/lastmile_qr_scan"}, "lon": -77.01670983333334, "type": "electric_scooter", "is_reserved": 0, "lat": 38.877134, "is_disabled": 0}, {"name": "e5f1fc1d72154b46d2548e3988264d1a", "bike_id": "e5f1fc1d72154b46d2548e3988264d1a", "fusion_lon": 0.0, "fusion_lat": 0.0, "rental_uris": {"ios": "https://dc.lft.to/lastmile_qr_scan", "android": "https://dc.lft.to/lastmile_qr_scan"}, "lon": -77.05713583333333, "type": "electric_bike", "is_reserved": 0, "lat": 38.905589, "is_disabled": 0}, {"name": "8ed12c10edd644ee1aab19471d85e8e4", "bike_id": "8ed12c10edd644ee1aab19471d85e8e4", "fusion_lon": 0.0, "fusion_lat": 0.0, "rental_uris": {"ios": "https://dc.lft.to/lastmile_qr_scan", "android": "https://dc.lft.to/lastmile_qr_scan"}, "lon": -77.0229495, "type": "electric_scooter", "is_reserved": 0, "lat": 38.937705333333334, "is_disabled": 0}, {"name": "02224370f6760db5c2f469e04e4bcf7b", "bike_id": "02224370f6760db5c2f469e04e4bcf7b", "fusion_lon": 0.0, "fusion_lat": 0.0, "rental_uris": {"ios": "https://dc.lft.to/lastmile_qr_scan", "android": "https://dc.lft.to/lastmile_qr_scan"}, "lon": -76.98068683333334, "type": "electric_scooter", "is_reserved": 0, "lat": 38.915149166666666, "is_disabled": 0}, {"name": "b95c563404196977a363d6c8a7f085e0", "bike_id": "b95c563404196977a363d6c8a7f085e0", "fusion_lon": 0.0, "fusion_lat": 0.0, "rental_uris": {"ios": "https://dc.lft.to/lastmile_qr_scan", "android": "https://dc.lft.to/lastmile_qr_scan"}, "lon": -77.04247566666666, "type": "electric_scooter", "is_reserved": 0, "lat": 38.90551933333333, "is_disabled": 0}, {"name": "df8d802cf6bc4045638760ce8f1b1ce4", "bike_id": "df8d802cf6bc4045638760ce8f1b1ce4", "fusion_lon": 0.0, "fusion_lat": 0.0, "rental_uris": {"ios": "https://dc.lft.to/lastmile_qr_scan", "android": "https://dc.lft.to/lastmile_qr_scan"}, "lon": -77.018619, "type": "electric_scooter", "is_reserved": 0, "lat": 38.89469416666667, "is_disabled": 0}, {"name": "1e763127f84a01ea2ed3c35b590dcc1b", "bike_id": "1e763127f84a01ea2ed3c35b590dcc1b", "fusion_lon": 0.0, "fusion_lat": 0.0, "rental_uris": {"ios": "https://dc.lft.to/lastmile_qr_scan", "android": "https://dc.lft.to/lastmile_qr_scan"}, "lon": -77.03444333333333, "type": "electric_scooter", "is_reserved": 0, "lat": 38.90973016666667, "is_disabled": 0}, {"name": "33b321621020662b4fd10e1ee73578ac", "bike_id": "33b321621020662b4fd10e1ee73578ac", "fusion_lon": 0.0, "fusion_lat": 0.0, "rental_uris": {"ios": "https://dc.lft.to/lastmile_qr_scan", "android": "https://dc.lft.to/lastmile_qr_scan"}, "lon": -77.00204433333333, "type": "electric_scooter", "is_reserved": 0, "lat": 38.8929125, "is_disabled": 0}, {"name": "938893e3a14568f0a3e6e99ec6a0391d", "bike_id": "938893e3a14568f0a3e6e99ec6a0391d", "fusion_lon": 0.0, "fusion_lat": 0.0, "rental_uris": {"ios": "https://dc.lft.to/lastmile_qr_scan", "android": "https://dc.lft.to/lastmile_qr_scan"}, "lon": -77.00761183333333, "type": "electric_bike", "is_reserved": 0, "lat": 38.997805, "is_disabled": 0}, {"name": "5d7cf97b5bfd6518bd93a22a643f557b", "bike_id": "5d7cf97b5bfd6518bd93a22a643f557b", "fusion_lon": 0.0, "fusion_lat": 0.0, "rental_uris": {"ios": "https://dc.lft.to/lastmile_qr_scan", "android": "https://dc.lft.to/lastmile_qr_scan"}, "lon": -76.99834616666666, "type": "electric_scooter", "is_reserved": 0, "lat": 38.923245333333334, "is_disabled": 0}, {"name": "653e9bb5501b6ba26588a6f4688d7854", "bike_id": "653e9bb5501b6ba26588a6f4688d7854", "fusion_lon": 0.0, "fusion_lat": 0.0, "rental_uris": {"ios": "https://dc.lft.to/lastmile_qr_scan", "android": "https://dc.lft.to/lastmile_qr_scan"}, "lon": -76.94974316666666, "type": "electric_bike", "is_reserved": 0, "lat": 38.88303166666667, "is_disabled": 0}, {"name": "ab6e31464e5ce25ffe9b651fb50b3fb8", "bike_id": "ab6e31464e5ce25ffe9b651fb50b3fb8", "fusion_lon": 0.0, "fusion_lat": 0.0, "rental_uris": {"ios": "https://dc.lft.to/lastmile_qr_scan", "android": "https://dc.lft.to/lastmile_qr_scan"}, "lon": -77.03187616666666, "type": "electric_scooter", "is_reserved": 0, "lat": 38.915911, "is_disabled": 0}, {"name": "e75019735d3fa176200684db9a835784", "bike_id": "e75019735d3fa176200684db9a835784", "fusion_lon": 0.0, "fusion_lat": 0.0, "rental_uris": {"ios": "https://dc.lft.to/lastmile_qr_scan", "android": "https://dc.lft.to/lastmile_qr_scan"}, "lon": -77.02314716666666, "type": "electric_scooter", "is_reserved": 0, "lat": 38.9179115, "is_disabled": 0}, {"name": "b47a5010d61c6085f640e03c43535ae8", "bike_id": "b47a5010d61c6085f640e03c43535ae8", "fusion_lon": 0.0, "fusion_lat": 0.0, "rental_uris": {"ios": "https://dc.lft.to/lastmile_qr_scan", "android": "https://dc.lft.to/lastmile_qr_scan"}, "lon": -77.00504066666667, "type": "electric_scooter", "is_reserved": 0, "lat": 38.94413866666667, "is_disabled": 0}, {"name": "590d63a2081810f6cc3bc1cb11e486a0", "bike_id": "590d63a2081810f6cc3bc1cb11e486a0", "fusion_lon": 0.0, "fusion_lat": 0.0, "rental_uris": {"ios": "https://dc.lft.to/lastmile_qr_scan", "android": "https://dc.lft.to/lastmile_qr_scan"}, "lon": -77.01922016666667, "type": "electric_scooter", "is_reserved": 0, "lat": 38.89989416666667, "is_disabled": 0}, {"name": "af4597c96acc0b79e9f14f39e0eb4dd0", "bike_id": "af4597c96acc0b79e9f14f39e0eb4dd0", "fusion_lon": 0.0, "fusion_lat": 0.0, "rental_uris": {"ios": "https://dc.lft.to/lastmile_qr_scan", "android": "https://dc.lft.to/lastmile_qr_scan"}, "lon": -77.00025733333334, "type": "electric_scooter", "is_reserved": 0, "lat": 38.874011833333334, "is_disabled": 0}, {"name": "db5f999d8dbc98fd6ecef0adf5a6b93e", "bike_id": "db5f999d8dbc98fd6ecef0adf5a6b93e", "fusion_lon": 0.0, "fusion_lat": 0.0, "rental_uris": {"ios": "https://dc.lft.to/lastmile_qr_scan", "android": "https://dc.lft.to/lastmile_qr_scan"}, "lon": -77.01996616666666, "type": "electric_scooter", "is_reserved": 0, "lat": 38.899125166666664, "is_disabled": 0}, {"name": "3091e6f62568276cd0fe3a53a1f5c804", "bike_id": "3091e6f62568276cd0fe3a53a1f5c804", "fusion_lon": 0.0, "fusion_lat": 0.0, "rental_uris": {"ios": "https://dc.lft.to/lastmile_qr_scan", "android": "https://dc.lft.to/lastmile_qr_scan"}, "lon": -77.0195955, "type": "electric_scooter", "is_reserved": 0, "lat": 38.92326666666666, "is_disabled": 0}, {"name": "746ddb816567b2fb70d781a34a047389", "bike_id": "746ddb816567b2fb70d781a34a047389", "fusion_lon": 0.0, "fusion_lat": 0.0, "rental_uris": {"ios": "https://dc.lft.to/lastmile_qr_scan", "android": "https://dc.lft.to/lastmile_qr_scan"}, "lon": -76.9587845, "type": "electric_scooter", "is_reserved": 0, "lat": 38.8594955, "is_disabled": 0}, {"name": "56264bffe9998eaf46f8a12b4782845a", "bike_id": "56264bffe9998eaf46f8a12b4782845a", "fusion_lon": 0.0, "fusion_lat": 0.0, "rental_uris": {"ios": "https://dc.lft.to/lastmile_qr_scan", "android": "https://dc.lft.to/lastmile_qr_scan"}, "lon": -77.04828733333333, "type": "electric_scooter", "is_reserved": 0, "lat": 38.92105016666667, "is_disabled": 0}, {"name": "998c387ae5e1c2490a3ee08c876a3fa0", "bike_id": "998c387ae5e1c2490a3ee08c876a3fa0", "fusion_lon": 0.0, "fusion_lat": 0.0, "rental_uris": {"ios": "https://dc.lft.to/lastmile_qr_scan", "android": "https://dc.lft.to/lastmile_qr_scan"}, "lon": -76.99799566666667, "type": "electric_scooter", "is_reserved": 0, "lat": 38.924084666666666, "is_disabled": 0}, {"name": "444320e2477b747f79537b4be233ddce", "bike_id": "444320e2477b747f79537b4be233ddce", "fusion_lon": 0.0, "fusion_lat": 0.0, "rental_uris": {"ios": "https://dc.lft.to/lastmile_qr_scan", "android": "https://dc.lft.to/lastmile_qr_scan"}, "lon": -77.059306, "type": "electric_scooter", "is_reserved": 0, "lat": 38.94304133333333, "is_disabled": 0}, {"name": "99360e16a26cda30b6af2c3f0b9cf8d0", "bike_id": "99360e16a26cda30b6af2c3f0b9cf8d0", "fusion_lon": 0.0, "fusion_lat": 0.0, "rental_uris": {"ios": "https://dc.lft.to/lastmile_qr_scan", "android": "https://dc.lft.to/lastmile_qr_scan"}, "lon": -77.01085766666667, "type": "electric_scooter", "is_reserved": 0, "lat": 38.90334566666667, "is_disabled": 0}, {"name": "d7f461a9a272cc6bf64f2bf328836f4c", "bike_id": "d7f461a9a272cc6bf64f2bf328836f4c", "fusion_lon": 0.0, "fusion_lat": 0.0, "rental_uris": {"ios": "https://dc.lft.to/lastmile_qr_scan", "android": "https://dc.lft.to/lastmile_qr_scan"}, "lon": -77.02776666666666, "type": "electric_scooter", "is_reserved": 0, "lat": 38.892218166666666, "is_disabled": 0}, {"name": "0d83e7f67584c94f0e437f7a1b1cd8bb", "bike_id": "0d83e7f67584c94f0e437f7a1b1cd8bb", "fusion_lon": 0.0, "fusion_lat": 0.0, "rental_uris": {"ios": "https://dc.lft.to/lastmile_qr_scan", "android": "https://dc.lft.to/lastmile_qr_scan"}, "lon": -77.0466335, "type": "electric_scooter", "is_reserved": 0, "lat": 38.91140633333333, "is_disabled": 0}, {"name": "0fd6d38dc1f3753aa5aa44e9e8caaa11", "bike_id": "0fd6d38dc1f3753aa5aa44e9e8caaa11", "fusion_lon": 0.0, "fusion_lat": 0.0, "rental_uris": {"ios": "https://dc.lft.to/lastmile_qr_scan", "android": "https://dc.lft.to/lastmile_qr_scan"}, "lon": -77.04008866666666, "type": "electric_scooter", "is_reserved": 0, "lat": 38.91005366666667, "is_disabled": 0}, {"name": "aab398877c0f09fd707ce72c8d4e982d", "bike_id": "aab398877c0f09fd707ce72c8d4e982d", "fusion_lon": 0.0, "fusion_lat": 0.0, "rental_uris": {"ios": "https://dc.lft.to/lastmile_qr_scan", "android": "https://dc.lft.to/lastmile_qr_scan"}, "lon": -77.0358795, "type": "electric_scooter", "is_reserved": 0, "lat": 38.90256633333333, "is_disabled": 0}, {"name": "0fa6f048146426bd46b83c7f338d8f12", "bike_id": "0fa6f048146426bd46b83c7f338d8f12", "fusion_lon": 0.0, "fusion_lat": 0.0, "rental_uris": {"ios": "https://dc.lft.to/lastmile_qr_scan", "android": "https://dc.lft.to/lastmile_qr_scan"}, "lon": -76.98096666666666, "type": "electric_bike", "is_reserved": 0, "lat": 38.897906666666664, "is_disabled": 0}, {"name": "dd0413854c2a6bb32a4b1f709b946a68", "bike_id": "dd0413854c2a6bb32a4b1f709b946a68", "fusion_lon": 0.0, "fusion_lat": 0.0, "rental_uris": {"ios": "https://dc.lft.to/lastmile_qr_scan", "android": "https://dc.lft.to/lastmile_qr_scan"}, "lon": -77.04505666666667, "type": "electric_scooter", "is_reserved": 0, "lat": 38.89251816666667, "is_disabled": 0}, {"name": "d3fa86a855cccb89fc9c304f36efb139", "bike_id": "d3fa86a855cccb89fc9c304f36efb139", "fusion_lon": 0.0, "fusion_lat": 0.0, "rental_uris": {"ios": "https://dc.lft.to/lastmile_qr_scan", "android": "https://dc.lft.to/lastmile_qr_scan"}, "lon": -77.02189, "type": "electric_scooter", "is_reserved": 0, "lat": 38.91057133333333, "is_disabled": 0}, {"name": "6f39811d8e1b26799b2b793b4df40ae6", "bike_id": "6f39811d8e1b26799b2b793b4df40ae6", "fusion_lon": 0.0, "fusion_lat": 0.0, "rental_uris": {"ios": "https://dc.lft.to/lastmile_qr_scan", "android": "https://dc.lft.to/lastmile_qr_scan"}, "lon": -77.021271, "type": "electric_scooter", "is_reserved": 0, "lat": 38.924153, "is_disabled": 0}, {"name": "aed14c2f3210d008939e806293d995ee", "bike_id": "aed14c2f3210d008939e806293d995ee", "fusion_lon": 0.0, "fusion_lat": 0.0, "rental_uris": {"ios": "https://dc.lft.to/lastmile_qr_scan", "android": "https://dc.lft.to/lastmile_qr_scan"}, "lon": -77.00449416666666, "type": "electric_scooter", "is_reserved": 0, "lat": 38.88043566666666, "is_disabled": 0}, {"name": "e87ad66cd1170f304a931268996175ba", "bike_id": "e87ad66cd1170f304a931268996175ba", "fusion_lon": 0.0, "fusion_lat": 0.0, "rental_uris": {"ios": "https://dc.lft.to/lastmile_qr_scan", "android": "https://dc.lft.to/lastmile_qr_scan"}, "lon": -77.03843783333333, "type": "electric_scooter", "is_reserved": 0, "lat": 38.9107615, "is_disabled": 0}, {"name": "7eeeb83b8917d9c977cb10022a4f37c4", "bike_id": "7eeeb83b8917d9c977cb10022a4f37c4", "fusion_lon": 0.0, "fusion_lat": 0.0, "rental_uris": {"ios": "https://dc.lft.to/lastmile_qr_scan", "android": "https://dc.lft.to/lastmile_qr_scan"}, "lon": -77.055982, "type": "electric_scooter", "is_reserved": 0, "lat": 38.93697516666667, "is_disabled": 0}, {"name": "00b68959117ba75fd3259cef47720e54", "bike_id": "00b68959117ba75fd3259cef47720e54", "fusion_lon": 0.0, "fusion_lat": 0.0, "rental_uris": {"ios": "https://dc.lft.to/lastmile_qr_scan", "android": "https://dc.lft.to/lastmile_qr_scan"}, "lon": -77.0332095, "type": "electric_scooter", "is_reserved": 0, "lat": 38.887652, "is_disabled": 0}, {"name": "9e6bd33bc874fbcd74072d311e54bce1", "bike_id": "9e6bd33bc874fbcd74072d311e54bce1", "fusion_lon": 0.0, "fusion_lat": 0.0, "rental_uris": {"ios": "https://dc.lft.to/lastmile_qr_scan", "android": "https://dc.lft.to/lastmile_qr_scan"}, "lon": -77.06417066666667, "type": "electric_scooter", "is_reserved": 0, "lat": 38.914013, "is_disabled": 0}, {"name": "5f4705dd6ebca1b90946f465bbd8cfe1", "bike_id": "5f4705dd6ebca1b90946f465bbd8cfe1", "fusion_lon": 0.0, "fusion_lat": 0.0, "rental_uris": {"ios": "https://dc.lft.to/lastmile_qr_scan", "android": "https://dc.lft.to/lastmile_qr_scan"}, "lon": -77.0351285, "type": "electric_scooter", "is_reserved": 0, "lat": 38.917006666666666, "is_disabled": 0}, {"name": "c1d0bf284595d74448c68be60e2e82ea", "bike_id": "c1d0bf284595d74448c68be60e2e82ea", "fusion_lon": 0.0, "fusion_lat": 0.0, "rental_uris": {"ios": "https://dc.lft.to/lastmile_qr_scan", "android": "https://dc.lft.to/lastmile_qr_scan"}, "lon": -77.0324375, "type": "electric_scooter", "is_reserved": 0, "lat": 38.915552166666664, "is_disabled": 0}, {"name": "908943cf9c76525bc541ce44428de9cd", "bike_id": "908943cf9c76525bc541ce44428de9cd", "fusion_lon": 0.0, "fusion_lat": 0.0, "rental_uris": {"ios": "https://dc.lft.to/lastmile_qr_scan", "android": "https://dc.lft.to/lastmile_qr_scan"}, "lon": -77.04529716666667, "type": "electric_scooter", "is_reserved": 0, "lat": 38.918279, "is_disabled": 0}, {"name": "5fd9f8daaf05bc4ed8cf86cd5076e320", "bike_id": "5fd9f8daaf05bc4ed8cf86cd5076e320", "fusion_lon": 0.0, "fusion_lat": 0.0, "rental_uris": {"ios": "https://dc.lft.to/lastmile_qr_scan", "android": "https://dc.lft.to/lastmile_qr_scan"}, "lon": -77.03643883333334, "type": "electric_scooter", "is_reserved": 0, "lat": 38.90843516666666, "is_disabled": 0}, {"name": "aa4f364455aceb1903b9d66fc6995d73", "bike_id": "aa4f364455aceb1903b9d66fc6995d73", "fusion_lon": 0.0, "fusion_lat": 0.0, "rental_uris": {"ios": "https://dc.lft.to/lastmile_qr_scan", "android": "https://dc.lft.to/lastmile_qr_scan"}, "lon": -77.02069733333333, "type": "electric_scooter", "is_reserved": 0, "lat": 38.931112166666665, "is_disabled": 0}, {"name": "36a18f265fba05c32c8a751c83ef67f3", "bike_id": "36a18f265fba05c32c8a751c83ef67f3", "fusion_lon": 0.0, "fusion_lat": 0.0, "rental_uris": {"ios": "https://dc.lft.to/lastmile_qr_scan", "android": "https://dc.lft.to/lastmile_qr_scan"}, "lon": -77.04517, "type": "electric_scooter", "is_reserved": 0, "lat": 38.902361166666665, "is_disabled": 0}, {"name": "c0b1a1c3e75ca17bc95819111f111592", "bike_id": "c0b1a1c3e75ca17bc95819111f111592", "fusion_lon": 0.0, "fusion_lat": 0.0, "rental_uris": {"ios": "https://dc.lft.to/lastmile_qr_scan", "android": "https://dc.lft.to/lastmile_qr_scan"}, "lon": -77.02325916666666, "type": "electric_scooter", "is_reserved": 0, "lat": 38.929867, "is_disabled": 0}, {"name": "eb6f345fd2bdaeb1125ace54eda72deb", "bike_id": "eb6f345fd2bdaeb1125ace54eda72deb", "fusion_lon": 0.0, "fusion_lat": 0.0, "rental_uris": {"ios": "https://dc.lft.to/lastmile_qr_scan", "android": "https://dc.lft.to/lastmile_qr_scan"}, "lon": -77.00984166666667, "type": "electric_scooter", "is_reserved": 0, "lat": 38.90563366666667, "is_disabled": 0}, {"name": "588df7ede88df479a968ca981cacee8c", "bike_id": "588df7ede88df479a968ca981cacee8c", "fusion_lon": 0.0, "fusion_lat": 0.0, "rental_uris": {"ios": "https://dc.lft.to/lastmile_qr_scan", "android": "https://dc.lft.to/lastmile_qr_scan"}, "lon": -76.93704283333334, "type": "electric_scooter", "is_reserved": 0, "lat": 38.890179833333335, "is_disabled": 0}, {"name": "37369b578d768ae4df7c2e0cab26754d", "bike_id": "37369b578d768ae4df7c2e0cab26754d", "fusion_lon": 0.0, "fusion_lat": 0.0, "rental_uris": {"ios": "https://dc.lft.to/lastmile_qr_scan", "android": "https://dc.lft.to/lastmile_qr_scan"}, "lon": -77.03842816666666, "type": "electric_scooter", "is_reserved": 0, "lat": 38.91040433333333, "is_disabled": 0}, {"name": "dcb485af6177184af6f2c0d1116db042", "bike_id": "dcb485af6177184af6f2c0d1116db042", "fusion_lon": 0.0, "fusion_lat": 0.0, "rental_uris": {"ios": "https://dc.lft.to/lastmile_qr_scan", "android": "https://dc.lft.to/lastmile_qr_scan"}, "lon": -77.01901416666666, "type": "electric_scooter", "is_reserved": 0, "lat": 38.92339033333333, "is_disabled": 0}, {"name": "179f543ae5266037a38d6f5d707d9b72", "bike_id": "179f543ae5266037a38d6f5d707d9b72", "fusion_lon": 0.0, "fusion_lat": 0.0, "rental_uris": {"ios": "https://dc.lft.to/lastmile_qr_scan", "android": "https://dc.lft.to/lastmile_qr_scan"}, "lon": -77.02524933333333, "type": "electric_scooter", "is_reserved": 0, "lat": 38.91987866666667, "is_disabled": 0}, {"name": "ce55a84d5ea263299406965536a48612", "bike_id": "ce55a84d5ea263299406965536a48612", "fusion_lon": 0.0, "fusion_lat": 0.0, "rental_uris": {"ios": "https://dc.lft.to/lastmile_qr_scan", "android": "https://dc.lft.to/lastmile_qr_scan"}, "lon": -76.97964966666666, "type": "electric_bike", "is_reserved": 0, "lat": 38.952445166666664, "is_disabled": 0}, {"name": "e7345e746ff6dd2be78f7547be5d8503", "bike_id": "e7345e746ff6dd2be78f7547be5d8503", "fusion_lon": 0.0, "fusion_lat": 0.0, "rental_uris": {"ios": "https://dc.lft.to/lastmile_qr_scan", "android": "https://dc.lft.to/lastmile_qr_scan"}, "lon": -77.04896033333333, "type": "electric_scooter", "is_reserved": 0, "lat": 38.909152166666665, "is_disabled": 0}, {"name": "8a2f216b1c705cc41937118ce0c6c099", "bike_id": "8a2f216b1c705cc41937118ce0c6c099", "fusion_lon": 0.0, "fusion_lat": 0.0, "rental_uris": {"ios": "https://dc.lft.to/lastmile_qr_scan", "android": "https://dc.lft.to/lastmile_qr_scan"}, "lon": -77.009234, "type": "electric_scooter", "is_reserved": 0, "lat": 38.881774666666665, "is_disabled": 0}, {"name": "62a2540ba67e4e677a664993535df478", "bike_id": "62a2540ba67e4e677a664993535df478", "fusion_lon": 0.0, "fusion_lat": 0.0, "rental_uris": {"ios": "https://dc.lft.to/lastmile_qr_scan", "android": "https://dc.lft.to/lastmile_qr_scan"}, "lon": -76.97325016666667, "type": "electric_bike", "is_reserved": 0, "lat": 38.857753333333335, "is_disabled": 0}, {"name": "eaecaddf8b02bb840ff5ca4cad304c6b", "bike_id": "eaecaddf8b02bb840ff5ca4cad304c6b", "fusion_lon": 0.0, "fusion_lat": 0.0, "rental_uris": {"ios": "https://dc.lft.to/lastmile_qr_scan", "android": "https://dc.lft.to/lastmile_qr_scan"}, "lon": -77.0442835, "type": "electric_scooter", "is_reserved": 0, "lat": 38.934242166666664, "is_disabled": 0}, {"name": "5ecb59a5949a2a6ea07aca77b6a6a402", "bike_id": "5ecb59a5949a2a6ea07aca77b6a6a402", "fusion_lon": 0.0, "fusion_lat": 0.0, "rental_uris": {"ios": "https://dc.lft.to/lastmile_qr_scan", "android": "https://dc.lft.to/lastmile_qr_scan"}, "lon": -77.02200533333334, "type": "electric_scooter", "is_reserved": 0, "lat": 38.921667166666666, "is_disabled": 0}, {"name": "9993866486e4780b59ac4e9381bf3f75", "bike_id": "9993866486e4780b59ac4e9381bf3f75", "fusion_lon": 0.0, "fusion_lat": 0.0, "rental_uris": {"ios": "https://dc.lft.to/lastmile_qr_scan", "android": "https://dc.lft.to/lastmile_qr_scan"}, "lon": -76.97331233333334, "type": "electric_scooter", "is_reserved": 0, "lat": 38.904068333333335, "is_disabled": 0}, {"name": "182ec25a4ea1eb2e4e7b267050ad885d", "bike_id": "182ec25a4ea1eb2e4e7b267050ad885d", "fusion_lon": 0.0, "fusion_lat": 0.0, "rental_uris": {"ios": "https://dc.lft.to/lastmile_qr_scan", "android": "https://dc.lft.to/lastmile_qr_scan"}, "lon": -77.02157, "type": "electric_scooter", "is_reserved": 0, "lat": 38.92603883333334, "is_disabled": 0}, {"name": "8634fc54ce608154ce9968e45232074c", "bike_id": "8634fc54ce608154ce9968e45232074c", "fusion_lon": 0.0, "fusion_lat": 0.0, "rental_uris": {"ios": "https://dc.lft.to/lastmile_qr_scan", "android": "https://dc.lft.to/lastmile_qr_scan"}, "lon": -77.011372, "type": "electric_scooter", "is_reserved": 0, "lat": 38.89514233333333, "is_disabled": 0}, {"name": "372672e1ec20d1d49b4c098175566493", "bike_id": "372672e1ec20d1d49b4c098175566493", "fusion_lon": 0.0, "fusion_lat": 0.0, "rental_uris": {"ios": "https://dc.lft.to/lastmile_qr_scan", "android": "https://dc.lft.to/lastmile_qr_scan"}, "lon": -77.00579483333334, "type": "electric_scooter", "is_reserved": 0, "lat": 38.871730666666664, "is_disabled": 0}, {"name": "9fced0143d074355761a0265de6a17c5", "bike_id": "9fced0143d074355761a0265de6a17c5", "fusion_lon": 0.0, "fusion_lat": 0.0, "rental_uris": {"ios": "https://dc.lft.to/lastmile_qr_scan", "android": "https://dc.lft.to/lastmile_qr_scan"}, "lon": -77.022024, "type": "electric_scooter", "is_reserved": 0, "lat": 38.88717616666667, "is_disabled": 0}, {"name": "5e3daada9d1af2a7de9088fcee692bc4", "bike_id": "5e3daada9d1af2a7de9088fcee692bc4", "fusion_lon": 0.0, "fusion_lat": 0.0, "rental_uris": {"ios": "https://dc.lft.to/lastmile_qr_scan", "android": "https://dc.lft.to/lastmile_qr_scan"}, "lon": -77.09000966666666, "type": "electric_scooter", "is_reserved": 0, "lat": 38.918466, "is_disabled": 0}, {"name": "524903cca829525e3f20e5cb67dfd475", "bike_id": "524903cca829525e3f20e5cb67dfd475", "fusion_lon": 0.0, "fusion_lat": 0.0, "rental_uris": {"ios": "https://dc.lft.to/lastmile_qr_scan", "android": "https://dc.lft.to/lastmile_qr_scan"}, "lon": -77.02567083333334, "type": "electric_scooter", "is_reserved": 0, "lat": 38.880651, "is_disabled": 0}, {"name": "6e0849b51e71b68e5fe750a2d3faa981", "bike_id": "6e0849b51e71b68e5fe750a2d3faa981", "fusion_lon": 0.0, "fusion_lat": 0.0, "rental_uris": {"ios": "https://dc.lft.to/lastmile_qr_scan", "android": "https://dc.lft.to/lastmile_qr_scan"}, "lon": -77.02220116666666, "type": "electric_scooter", "is_reserved": 0, "lat": 38.88627733333333, "is_disabled": 0}, {"name": "6646fc87593b17f6aeef5b91dea3534e", "bike_id": "6646fc87593b17f6aeef5b91dea3534e", "fusion_lon": 0.0, "fusion_lat": 0.0, "rental_uris": {"ios": "https://dc.lft.to/lastmile_qr_scan", "android": "https://dc.lft.to/lastmile_qr_scan"}, "lon": -77.04516466666666, "type": "electric_scooter", "is_reserved": 0, "lat": 38.89221966666667, "is_disabled": 0}, {"name": "d3d2d3897c3732dec6843f2dda70b7d5", "bike_id": "d3d2d3897c3732dec6843f2dda70b7d5", "fusion_lon": 0.0, "fusion_lat": 0.0, "rental_uris": {"ios": "https://dc.lft.to/lastmile_qr_scan", "android": "https://dc.lft.to/lastmile_qr_scan"}, "lon": -77.00609183333333, "type": "electric_scooter", "is_reserved": 0, "lat": 38.871754333333335, "is_disabled": 0}, {"name": "4a018534afbccd885adea7a0a322b1d9", "bike_id": "4a018534afbccd885adea7a0a322b1d9", "fusion_lon": 0.0, "fusion_lat": 0.0, "rental_uris": {"ios": "https://dc.lft.to/lastmile_qr_scan", "android": "https://dc.lft.to/lastmile_qr_scan"}, "lon": -76.98767066666667, "type": "electric_scooter", "is_reserved": 0, "lat": 38.91196433333333, "is_disabled": 0}, {"name": "ca2498cc8d8c37ff5988aebb0310a9e5", "bike_id": "ca2498cc8d8c37ff5988aebb0310a9e5", "fusion_lon": 0.0, "fusion_lat": 0.0, "rental_uris": {"ios": "https://dc.lft.to/lastmile_qr_scan", "android": "https://dc.lft.to/lastmile_qr_scan"}, "lon": -77.0288545, "type": "electric_scooter", "is_reserved": 0, "lat": 38.897235, "is_disabled": 0}, {"name": "0e92a8dfc49ec6ff5f2fb6f553281244", "bike_id": "0e92a8dfc49ec6ff5f2fb6f553281244", "fusion_lon": 0.0, "fusion_lat": 0.0, "rental_uris": {"ios": "https://dc.lft.to/lastmile_qr_scan", "android": "https://dc.lft.to/lastmile_qr_scan"}, "lon": -77.04091316666667, "type": "electric_scooter", "is_reserved": 0, "lat": 38.9197605, "is_disabled": 0}, {"name": "e46f4f819a3609f60c0215e0a8c492ff", "bike_id": "e46f4f819a3609f60c0215e0a8c492ff", "fusion_lon": 0.0, "fusion_lat": 0.0, "rental_uris": {"ios": "https://dc.lft.to/lastmile_qr_scan", "android": "https://dc.lft.to/lastmile_qr_scan"}, "lon": -76.99191566666667, "type": "electric_scooter", "is_reserved": 0, "lat": 38.900251833333336, "is_disabled": 0}, {"name": "597d673cb9043968ef19a70771aa7680", "bike_id": "597d673cb9043968ef19a70771aa7680", "fusion_lon": 0.0, "fusion_lat": 0.0, "rental_uris": {"ios": "https://dc.lft.to/lastmile_qr_scan", "android": "https://dc.lft.to/lastmile_qr_scan"}, "lon": -77.04875283333334, "type": "electric_scooter", "is_reserved": 0, "lat": 38.892335, "is_disabled": 0}, {"name": "245bd5534767fb7d9a1ad5a4619e718d", "bike_id": "245bd5534767fb7d9a1ad5a4619e718d", "fusion_lon": 0.0, "fusion_lat": 0.0, "rental_uris": {"ios": "https://dc.lft.to/lastmile_qr_scan", "android": "https://dc.lft.to/lastmile_qr_scan"}, "lon": -76.99816733333333, "type": "electric_bike", "is_reserved": 0, "lat": 38.819863, "is_disabled": 0}, {"name": "40ce914a82e3be342ee1cbfddf0e84fe", "bike_id": "40ce914a82e3be342ee1cbfddf0e84fe", "fusion_lon": 0.0, "fusion_lat": 0.0, "rental_uris": {"ios": "https://dc.lft.to/lastmile_qr_scan", "android": "https://dc.lft.to/lastmile_qr_scan"}, "lon": -77.0433615, "type": "electric_scooter", "is_reserved": 0, "lat": 38.8921945, "is_disabled": 0}, {"name": "0c454318f5959214733d4067ff1055c0", "bike_id": "0c454318f5959214733d4067ff1055c0", "fusion_lon": 0.0, "fusion_lat": 0.0, "rental_uris": {"ios": "https://dc.lft.to/lastmile_qr_scan", "android": "https://dc.lft.to/lastmile_qr_scan"}, "lon": -77.02712633333333, "type": "electric_scooter", "is_reserved": 0, "lat": 38.935751333333336, "is_disabled": 0}, {"name": "5ee535180a145181b133c4de183dfe11", "bike_id": "5ee535180a145181b133c4de183dfe11", "fusion_lon": 0.0, "fusion_lat": 0.0, "rental_uris": {"ios": "https://dc.lft.to/lastmile_qr_scan", "android": "https://dc.lft.to/lastmile_qr_scan"}, "lon": -77.03247433333334, "type": "electric_scooter", "is_reserved": 0, "lat": 38.920591, "is_disabled": 0}, {"name": "1f27093b4565f12ec7275798ae2e2e6d", "bike_id": "1f27093b4565f12ec7275798ae2e2e6d", "fusion_lon": 0.0, "fusion_lat": 0.0, "rental_uris": {"ios": "https://dc.lft.to/lastmile_qr_scan", "android": "https://dc.lft.to/lastmile_qr_scan"}, "lon": -77.02285633333334, "type": "electric_scooter", "is_reserved": 0, "lat": 38.924263833333335, "is_disabled": 0}, {"name": "f00dcbc56f125906708182a261d57980", "bike_id": "f00dcbc56f125906708182a261d57980", "fusion_lon": 0.0, "fusion_lat": 0.0, "rental_uris": {"ios": "https://dc.lft.to/lastmile_qr_scan", "android": "https://dc.lft.to/lastmile_qr_scan"}, "lon": -76.90741333333334, "type": "electric_bike", "is_reserved": 0, "lat": 38.89620216666667, "is_disabled": 0}, {"name": "ca09b613a3425c133d409688d6e786b6", "bike_id": "ca09b613a3425c133d409688d6e786b6", "fusion_lon": 0.0, "fusion_lat": 0.0, "rental_uris": {"ios": "https://dc.lft.to/lastmile_qr_scan", "android": "https://dc.lft.to/lastmile_qr_scan"}, "lon": -77.03855166666666, "type": "electric_scooter", "is_reserved": 0, "lat": 38.9169195, "is_disabled": 0}, {"name": "753fb85531254d369c2b427963fbc7e2", "bike_id": "753fb85531254d369c2b427963fbc7e2", "fusion_lon": 0.0, "fusion_lat": 0.0, "rental_uris": {"ios": "https://dc.lft.to/lastmile_qr_scan", "android": "https://dc.lft.to/lastmile_qr_scan"}, "lon": -77.03999283333333, "type": "electric_scooter", "is_reserved": 0, "lat": 38.914145, "is_disabled": 0}, {"name": "88f41fc11a69c211120f953824d2b505", "bike_id": "88f41fc11a69c211120f953824d2b505", "fusion_lon": 0.0, "fusion_lat": 0.0, "rental_uris": {"ios": "https://dc.lft.to/lastmile_qr_scan", "android": "https://dc.lft.to/lastmile_qr_scan"}, "lon": -77.0238885, "type": "electric_scooter", "is_reserved": 0, "lat": 38.91960233333333, "is_disabled": 0}, {"name": "a15c062692e24949a2e77e7c34a6ce5c", "bike_id": "a15c062692e24949a2e77e7c34a6ce5c", "fusion_lon": 0.0, "fusion_lat": 0.0, "rental_uris": {"ios": "https://dc.lft.to/lastmile_qr_scan", "android": "https://dc.lft.to/lastmile_qr_scan"}, "lon": -77.03633516666666, "type": "electric_scooter", "is_reserved": 0, "lat": 38.9328055, "is_disabled": 0}, {"name": "a3aa5618621244279de23a2ee6a6c495", "bike_id": "a3aa5618621244279de23a2ee6a6c495", "fusion_lon": 0.0, "fusion_lat": 0.0, "rental_uris": {"ios": "https://dc.lft.to/lastmile_qr_scan", "android": "https://dc.lft.to/lastmile_qr_scan"}, "lon": -76.985249, "type": "electric_scooter", "is_reserved": 0, "lat": 38.900548, "is_disabled": 0}, {"name": "89e0f079c9ce6456ea6cd20e372688fd", "bike_id": "89e0f079c9ce6456ea6cd20e372688fd", "fusion_lon": 0.0, "fusion_lat": 0.0, "rental_uris": {"ios": "https://dc.lft.to/lastmile_qr_scan", "android": "https://dc.lft.to/lastmile_qr_scan"}, "lon": -77.03861716666667, "type": "electric_scooter", "is_reserved": 0, "lat": 38.916930666666666, "is_disabled": 0}, {"name": "4212ddafdd1f67391c95c14bde5d1289", "bike_id": "4212ddafdd1f67391c95c14bde5d1289", "fusion_lon": 0.0, "fusion_lat": 0.0, "rental_uris": {"ios": "https://dc.lft.to/lastmile_qr_scan", "android": "https://dc.lft.to/lastmile_qr_scan"}, "lon": -77.03881383333334, "type": "electric_scooter", "is_reserved": 0, "lat": 38.9250235, "is_disabled": 0}, {"name": "806ab712796464853f2fbb20e33202ad", "bike_id": "806ab712796464853f2fbb20e33202ad", "fusion_lon": 0.0, "fusion_lat": 0.0, "rental_uris": {"ios": "https://dc.lft.to/lastmile_qr_scan", "android": "https://dc.lft.to/lastmile_qr_scan"}, "lon": -77.041526, "type": "electric_scooter", "is_reserved": 0, "lat": 38.91108833333333, "is_disabled": 0}, {"name": "166ed70dfeb1a665e707646f80f9cf9d", "bike_id": "166ed70dfeb1a665e707646f80f9cf9d", "fusion_lon": 0.0, "fusion_lat": 0.0, "rental_uris": {"ios": "https://dc.lft.to/lastmile_qr_scan", "android": "https://dc.lft.to/lastmile_qr_scan"}, "lon": -76.98535416666667, "type": "electric_scooter", "is_reserved": 0, "lat": 38.88080883333333, "is_disabled": 0}, {"name": "714bd512498160148cdf0753daca785b", "bike_id": "714bd512498160148cdf0753daca785b", "fusion_lon": 0.0, "fusion_lat": 0.0, "rental_uris": {"ios": "https://dc.lft.to/lastmile_qr_scan", "android": "https://dc.lft.to/lastmile_qr_scan"}, "lon": -77.019742, "type": "electric_scooter", "is_reserved": 0, "lat": 38.956552333333335, "is_disabled": 0}, {"name": "b4224510e6b836dbd8ad96eb72f1e5a5", "bike_id": "b4224510e6b836dbd8ad96eb72f1e5a5", "fusion_lon": 0.0, "fusion_lat": 0.0, "rental_uris": {"ios": "https://dc.lft.to/lastmile_qr_scan", "android": "https://dc.lft.to/lastmile_qr_scan"}, "lon": -77.02703733333334, "type": "electric_scooter", "is_reserved": 0, "lat": 38.917149, "is_disabled": 0}, {"name": "87b07c943cfa44dc0bfe27e059032ad0", "bike_id": "87b07c943cfa44dc0bfe27e059032ad0", "fusion_lon": 0.0, "fusion_lat": 0.0, "rental_uris": {"ios": "https://dc.lft.to/lastmile_qr_scan", "android": "https://dc.lft.to/lastmile_qr_scan"}, "lon": -77.04074266666667, "type": "electric_scooter", "is_reserved": 0, "lat": 38.947755666666666, "is_disabled": 0}, {"name": "538949c9619b89f3f6de5afd60491adf", "bike_id": "538949c9619b89f3f6de5afd60491adf", "fusion_lon": 0.0, "fusion_lat": 0.0, "rental_uris": {"ios": "https://dc.lft.to/lastmile_qr_scan", "android": "https://dc.lft.to/lastmile_qr_scan"}, "lon": -77.02964266666666, "type": "electric_scooter", "is_reserved": 0, "lat": 38.9319435, "is_disabled": 0}, {"name": "fcd95c96125672ebbe94907b37ee854e", "bike_id": "fcd95c96125672ebbe94907b37ee854e", "fusion_lon": 0.0, "fusion_lat": 0.0, "rental_uris": {"ios": "https://dc.lft.to/lastmile_qr_scan", "android": "https://dc.lft.to/lastmile_qr_scan"}, "lon": -77.02896616666666, "type": "electric_scooter", "is_reserved": 0, "lat": 38.903702833333334, "is_disabled": 0}, {"name": "9ac3d8a0a6e918ae779a45cd59b89dd1", "bike_id": "9ac3d8a0a6e918ae779a45cd59b89dd1", "fusion_lon": 0.0, "fusion_lat": 0.0, "rental_uris": {"ios": "https://dc.lft.to/lastmile_qr_scan", "android": "https://dc.lft.to/lastmile_qr_scan"}, "lon": -77.02639883333333, "type": "electric_scooter", "is_reserved": 0, "lat": 38.8971975, "is_disabled": 0}, {"name": "2c8ca7a4380b4b626a6c9b1f5103383e", "bike_id": "2c8ca7a4380b4b626a6c9b1f5103383e", "fusion_lon": 0.0, "fusion_lat": 0.0, "rental_uris": {"ios": "https://dc.lft.to/lastmile_qr_scan", "android": "https://dc.lft.to/lastmile_qr_scan"}, "lon": -77.02713633333333, "type": "electric_bike", "is_reserved": 0, "lat": 38.971994333333335, "is_disabled": 0}, {"name": "550258d426a669f390574847005b638b", "bike_id": "550258d426a669f390574847005b638b", "fusion_lon": 0.0, "fusion_lat": 0.0, "rental_uris": {"ios": "https://dc.lft.to/lastmile_qr_scan", "android": "https://dc.lft.to/lastmile_qr_scan"}, "lon": -76.99542066666666, "type": "electric_scooter", "is_reserved": 0, "lat": 38.879232333333334, "is_disabled": 0}, {"name": "a4bdf3a6cdfdb0c3595db30c54713370", "bike_id": "a4bdf3a6cdfdb0c3595db30c54713370", "fusion_lon": 0.0, "fusion_lat": 0.0, "rental_uris": {"ios": "https://dc.lft.to/lastmile_qr_scan", "android": "https://dc.lft.to/lastmile_qr_scan"}, "lon": -77.00673283333333, "type": "electric_scooter", "is_reserved": 0, "lat": 38.871470333333335, "is_disabled": 0}, {"name": "73ef84c00aa50a828ae95f55990e2461", "bike_id": "73ef84c00aa50a828ae95f55990e2461", "fusion_lon": 0.0, "fusion_lat": 0.0, "rental_uris": {"ios": "https://dc.lft.to/lastmile_qr_scan", "android": "https://dc.lft.to/lastmile_qr_scan"}, "lon": -76.98313183333333, "type": "electric_scooter", "is_reserved": 0, "lat": 38.9255265, "is_disabled": 0}, {"name": "6ffb52e381490e25302c7a2284fa62ff", "bike_id": "6ffb52e381490e25302c7a2284fa62ff", "fusion_lon": 0.0, "fusion_lat": 0.0, "rental_uris": {"ios": "https://dc.lft.to/lastmile_qr_scan", "android": "https://dc.lft.to/lastmile_qr_scan"}, "lon": -77.0019615, "type": "electric_scooter", "is_reserved": 0, "lat": 38.90243133333333, "is_disabled": 0}, {"name": "ac0dfc03f8d1df960848c658e6ffae51", "bike_id": "ac0dfc03f8d1df960848c658e6ffae51", "fusion_lon": 0.0, "fusion_lat": 0.0, "rental_uris": {"ios": "https://dc.lft.to/lastmile_qr_scan", "android": "https://dc.lft.to/lastmile_qr_scan"}, "lon": -77.01727583333333, "type": "electric_scooter", "is_reserved": 0, "lat": 38.892189333333334, "is_disabled": 0}, {"name": "4a8d41074585600579744f656bfbc329", "bike_id": "4a8d41074585600579744f656bfbc329", "fusion_lon": 0.0, "fusion_lat": 0.0, "rental_uris": {"ios": "https://dc.lft.to/lastmile_qr_scan", "android": "https://dc.lft.to/lastmile_qr_scan"}, "lon": -77.016982, "type": "electric_scooter", "is_reserved": 0, "lat": 38.920604, "is_disabled": 0}, {"name": "9b09dbbe4644946eee723c212f735ad6", "bike_id": "9b09dbbe4644946eee723c212f735ad6", "fusion_lon": 0.0, "fusion_lat": 0.0, "rental_uris": {"ios": "https://dc.lft.to/lastmile_qr_scan", "android": "https://dc.lft.to/lastmile_qr_scan"}, "lon": -77.01983766666666, "type": "electric_scooter", "is_reserved": 0, "lat": 38.88720416666666, "is_disabled": 0}, {"name": "e7000f2e753d84576988427b306a34b8", "bike_id": "e7000f2e753d84576988427b306a34b8", "fusion_lon": 0.0, "fusion_lat": 0.0, "rental_uris": {"ios": "https://dc.lft.to/lastmile_qr_scan", "android": "https://dc.lft.to/lastmile_qr_scan"}, "lon": -77.02367533333333, "type": "electric_scooter", "is_reserved": 0, "lat": 38.903132166666666, "is_disabled": 0}, {"name": "6512ca77d1e1421c18814f9b2cbd611d", "bike_id": "6512ca77d1e1421c18814f9b2cbd611d", "fusion_lon": 0.0, "fusion_lat": 0.0, "rental_uris": {"ios": "https://dc.lft.to/lastmile_qr_scan", "android": "https://dc.lft.to/lastmile_qr_scan"}, "lon": -77.038675, "type": "electric_scooter", "is_reserved": 0, "lat": 38.92145816666667, "is_disabled": 0}, {"name": "37a2fefba0d0ae17013e6284e5a89752", "bike_id": "37a2fefba0d0ae17013e6284e5a89752", "fusion_lon": 0.0, "fusion_lat": 0.0, "rental_uris": {"ios": "https://dc.lft.to/lastmile_qr_scan", "android": "https://dc.lft.to/lastmile_qr_scan"}, "lon": -77.03890116666666, "type": "electric_scooter", "is_reserved": 0, "lat": 38.93255033333333, "is_disabled": 0}, {"name": "56cabec4513154c3b08f3de9f0e1049e", "bike_id": "56cabec4513154c3b08f3de9f0e1049e", "fusion_lon": 0.0, "fusion_lat": 0.0, "rental_uris": {"ios": "https://dc.lft.to/lastmile_qr_scan", "android": "https://dc.lft.to/lastmile_qr_scan"}, "lon": -77.047769, "type": "electric_scooter", "is_reserved": 0, "lat": 38.9072945, "is_disabled": 0}, {"name": "1a954e015e7e8ec4ae2b022ce1a55a4d", "bike_id": "1a954e015e7e8ec4ae2b022ce1a55a4d", "fusion_lon": 0.0, "fusion_lat": 0.0, "rental_uris": {"ios": "https://dc.lft.to/lastmile_qr_scan", "android": "https://dc.lft.to/lastmile_qr_scan"}, "lon": -77.020138, "type": "electric_scooter", "is_reserved": 0, "lat": 38.90161766666667, "is_disabled": 0}, {"name": "0a28c00d862cbf1dfb9b4b5d096da466", "bike_id": "0a28c00d862cbf1dfb9b4b5d096da466", "fusion_lon": 0.0, "fusion_lat": 0.0, "rental_uris": {"ios": "https://dc.lft.to/lastmile_qr_scan", "android": "https://dc.lft.to/lastmile_qr_scan"}, "lon": -77.02717366666667, "type": "electric_scooter", "is_reserved": 0, "lat": 38.904642, "is_disabled": 0}, {"name": "a82d97738bb045c73dc462d7d4cc1b56", "bike_id": "a82d97738bb045c73dc462d7d4cc1b56", "fusion_lon": 0.0, "fusion_lat": 0.0, "rental_uris": {"ios": "https://dc.lft.to/lastmile_qr_scan", "android": "https://dc.lft.to/lastmile_qr_scan"}, "lon": -77.03900733333333, "type": "electric_scooter", "is_reserved": 0, "lat": 38.912663, "is_disabled": 0}, {"name": "1fca0a11d1df980a1a1b2d7cc2c14e03", "bike_id": "1fca0a11d1df980a1a1b2d7cc2c14e03", "fusion_lon": 0.0, "fusion_lat": 0.0, "rental_uris": {"ios": "https://dc.lft.to/lastmile_qr_scan", "android": "https://dc.lft.to/lastmile_qr_scan"}, "lon": -77.0020045, "type": "electric_scooter", "is_reserved": 0, "lat": 38.911707666666665, "is_disabled": 0}, {"name": "83f52c691332c295745a293ef9823bab", "bike_id": "83f52c691332c295745a293ef9823bab", "fusion_lon": 0.0, "fusion_lat": 0.0, "rental_uris": {"ios": "https://dc.lft.to/lastmile_qr_scan", "android": "https://dc.lft.to/lastmile_qr_scan"}, "lon": -77.03212716666667, "type": "electric_scooter", "is_reserved": 0, "lat": 38.89622766666667, "is_disabled": 0}, {"name": "9571557b357449749d8ccf5bc7eb87c2", "bike_id": "9571557b357449749d8ccf5bc7eb87c2", "fusion_lon": 0.0, "fusion_lat": 0.0, "rental_uris": {"ios": "https://dc.lft.to/lastmile_qr_scan", "android": "https://dc.lft.to/lastmile_qr_scan"}, "lon": -77.02819683333334, "type": "electric_scooter", "is_reserved": 0, "lat": 38.885126666666665, "is_disabled": 0}, {"name": "edb63f092aa9120a72130b290fe018a3", "bike_id": "edb63f092aa9120a72130b290fe018a3", "fusion_lon": 0.0, "fusion_lat": 0.0, "rental_uris": {"ios": "https://dc.lft.to/lastmile_qr_scan", "android": "https://dc.lft.to/lastmile_qr_scan"}, "lon": -76.99743716666667, "type": "electric_scooter", "is_reserved": 0, "lat": 38.9207305, "is_disabled": 0}, {"name": "2fec03bbf9ead4f3a7a5a5fc6731c0c4", "bike_id": "2fec03bbf9ead4f3a7a5a5fc6731c0c4", "fusion_lon": 0.0, "fusion_lat": 0.0, "rental_uris": {"ios": "https://dc.lft.to/lastmile_qr_scan", "android": "https://dc.lft.to/lastmile_qr_scan"}, "lon": -77.01955916666667, "type": "electric_scooter", "is_reserved": 0, "lat": 38.92327516666667, "is_disabled": 0}, {"name": "fd3fc2d5bd849055e03a11ebe8da2257", "bike_id": "fd3fc2d5bd849055e03a11ebe8da2257", "fusion_lon": 0.0, "fusion_lat": 0.0, "rental_uris": {"ios": "https://dc.lft.to/lastmile_qr_scan", "android": "https://dc.lft.to/lastmile_qr_scan"}, "lon": -77.03855533333333, "type": "electric_scooter", "is_reserved": 0, "lat": 38.91286216666666, "is_disabled": 0}, {"name": "7075b1e003ae5e4c127b8d5ff1c5b9d5", "bike_id": "7075b1e003ae5e4c127b8d5ff1c5b9d5", "fusion_lon": 0.0, "fusion_lat": 0.0, "rental_uris": {"ios": "https://dc.lft.to/lastmile_qr_scan", "android": "https://dc.lft.to/lastmile_qr_scan"}, "lon": -76.973216, "type": "electric_bike", "is_reserved": 0, "lat": 38.86521483333333, "is_disabled": 0}, {"name": "aef24b463781e0eabf4c4f01d00c8eb4", "bike_id": "aef24b463781e0eabf4c4f01d00c8eb4", "fusion_lon": 0.0, "fusion_lat": 0.0, "rental_uris": {"ios": "https://dc.lft.to/lastmile_qr_scan", "android": "https://dc.lft.to/lastmile_qr_scan"}, "lon": -77.16237116666667, "type": "electric_bike", "is_reserved": 0, "lat": 38.8865775, "is_disabled": 0}, {"name": "007c6e737966e7e618bfc8542776cd06", "bike_id": "007c6e737966e7e618bfc8542776cd06", "fusion_lon": 0.0, "fusion_lat": 0.0, "rental_uris": {"ios": "https://dc.lft.to/lastmile_qr_scan", "android": "https://dc.lft.to/lastmile_qr_scan"}, "lon": -76.97123733333333, "type": "electric_scooter", "is_reserved": 0, "lat": 38.897893, "is_disabled": 0}, {"name": "7635517b31680b77fd722f54ab7a1ebb", "bike_id": "7635517b31680b77fd722f54ab7a1ebb", "fusion_lon": 0.0, "fusion_lat": 0.0, "rental_uris": {"ios": "https://dc.lft.to/lastmile_qr_scan", "android": "https://dc.lft.to/lastmile_qr_scan"}, "lon": -77.06777566666666, "type": "electric_scooter", "is_reserved": 0, "lat": 38.904623, "is_disabled": 0}, {"name": "75b76787c1a1101b57b58c4d31bf06b1", "bike_id": "75b76787c1a1101b57b58c4d31bf06b1", "fusion_lon": 0.0, "fusion_lat": 0.0, "rental_uris": {"ios": "https://dc.lft.to/lastmile_qr_scan", "android": "https://dc.lft.to/lastmile_qr_scan"}, "lon": -77.00919233333333, "type": "electric_scooter", "is_reserved": 0, "lat": 38.907651, "is_disabled": 0}, {"name": "299fb259ad31a4a5112b96de00427e66", "bike_id": "299fb259ad31a4a5112b96de00427e66", "fusion_lon": 0.0, "fusion_lat": 0.0, "rental_uris": {"ios": "https://dc.lft.to/lastmile_qr_scan", "android": "https://dc.lft.to/lastmile_qr_scan"}, "lon": -77.04178133333333, "type": "electric_scooter", "is_reserved": 0, "lat": 38.917247333333336, "is_disabled": 0}, {"name": "07ebd6fe71ff7f211931b8e1b87133cc", "bike_id": "07ebd6fe71ff7f211931b8e1b87133cc", "fusion_lon": 0.0, "fusion_lat": 0.0, "rental_uris": {"ios": "https://dc.lft.to/lastmile_qr_scan", "android": "https://dc.lft.to/lastmile_qr_scan"}, "lon": -77.00218483333333, "type": "electric_scooter", "is_reserved": 0, "lat": 38.894535166666664, "is_disabled": 0}, {"name": "711d37769349464c09946b0d1dae23df", "bike_id": "711d37769349464c09946b0d1dae23df", "fusion_lon": 0.0, "fusion_lat": 0.0, "rental_uris": {"ios": "https://dc.lft.to/lastmile_qr_scan", "android": "https://dc.lft.to/lastmile_qr_scan"}, "lon": -77.00372183333333, "type": "electric_scooter", "is_reserved": 0, "lat": 38.8992665, "is_disabled": 0}, {"name": "88d67ef03c1fd3f8f40e18a33e7b340f", "bike_id": "88d67ef03c1fd3f8f40e18a33e7b340f", "fusion_lon": 0.0, "fusion_lat": 0.0, "rental_uris": {"ios": "https://dc.lft.to/lastmile_qr_scan", "android": "https://dc.lft.to/lastmile_qr_scan"}, "lon": -77.00778883333334, "type": "electric_scooter", "is_reserved": 0, "lat": 38.8973765, "is_disabled": 0}, {"name": "b3f0ed4d5f61f8a6e26d63270cfa0cd7", "bike_id": "b3f0ed4d5f61f8a6e26d63270cfa0cd7", "fusion_lon": 0.0, "fusion_lat": 0.0, "rental_uris": {"ios": "https://dc.lft.to/lastmile_qr_scan", "android": "https://dc.lft.to/lastmile_qr_scan"}, "lon": -77.044222, "type": "electric_bike", "is_reserved": 0, "lat": 39.01566066666667, "is_disabled": 0}, {"name": "6185d6d917ef4b351d2b55c7aabac110", "bike_id": "6185d6d917ef4b351d2b55c7aabac110", "fusion_lon": 0.0, "fusion_lat": 0.0, "rental_uris": {"ios": "https://dc.lft.to/lastmile_qr_scan", "android": "https://dc.lft.to/lastmile_qr_scan"}, "lon": -77.04207766666667, "type": "electric_scooter", "is_reserved": 0, "lat": 38.892719666666665, "is_disabled": 0}, {"name": "6e6341380607b000aa165e3bb421edc2", "bike_id": "6e6341380607b000aa165e3bb421edc2", "fusion_lon": 0.0, "fusion_lat": 0.0, "rental_uris": {"ios": "https://dc.lft.to/lastmile_qr_scan", "android": "https://dc.lft.to/lastmile_qr_scan"}, "lon": -77.01216283333333, "type": "electric_scooter", "is_reserved": 0, "lat": 38.917674833333336, "is_disabled": 0}, {"name": "6182532a51eb98fa7941f9d41512862f", "bike_id": "6182532a51eb98fa7941f9d41512862f", "fusion_lon": 0.0, "fusion_lat": 0.0, "rental_uris": {"ios": "https://dc.lft.to/lastmile_qr_scan", "android": "https://dc.lft.to/lastmile_qr_scan"}, "lon": -76.9962365, "type": "electric_scooter", "is_reserved": 0, "lat": 38.8918785, "is_disabled": 0}, {"name": "97912509584f5ec9359cd953debde3ae", "bike_id": "97912509584f5ec9359cd953debde3ae", "fusion_lon": 0.0, "fusion_lat": 0.0, "rental_uris": {"ios": "https://dc.lft.to/lastmile_qr_scan", "android": "https://dc.lft.to/lastmile_qr_scan"}, "lon": -77.0515085, "type": "electric_scooter", "is_reserved": 0, "lat": 38.9044055, "is_disabled": 0}, {"name": "629c76e06e7e4f362880883969cc42d0", "bike_id": "629c76e06e7e4f362880883969cc42d0", "fusion_lon": 0.0, "fusion_lat": 0.0, "rental_uris": {"ios": "https://dc.lft.to/lastmile_qr_scan", "android": "https://dc.lft.to/lastmile_qr_scan"}, "lon": -76.9904935, "type": "electric_scooter", "is_reserved": 0, "lat": 38.86366666666667, "is_disabled": 0}, {"name": "cf39a8a9ef86d6f106982c1f73847237", "bike_id": "cf39a8a9ef86d6f106982c1f73847237", "fusion_lon": 0.0, "fusion_lat": 0.0, "rental_uris": {"ios": "https://dc.lft.to/lastmile_qr_scan", "android": "https://dc.lft.to/lastmile_qr_scan"}, "lon": -77.073845, "type": "electric_bike", "is_reserved": 0, "lat": 38.9617685, "is_disabled": 0}, {"name": "0511caf371741dbbc20fb31c032c617d", "bike_id": "0511caf371741dbbc20fb31c032c617d", "fusion_lon": 0.0, "fusion_lat": 0.0, "rental_uris": {"ios": "https://dc.lft.to/lastmile_qr_scan", "android": "https://dc.lft.to/lastmile_qr_scan"}, "lon": -77.034965, "type": "electric_scooter", "is_reserved": 0, "lat": 38.916940833333335, "is_disabled": 0}, {"name": "61e0165dede7d9a4d1e84a4cce559144", "bike_id": "61e0165dede7d9a4d1e84a4cce559144", "fusion_lon": 0.0, "fusion_lat": 0.0, "rental_uris": {"ios": "https://dc.lft.to/lastmile_qr_scan", "android": "https://dc.lft.to/lastmile_qr_scan"}, "lon": -76.98734816666666, "type": "electric_scooter", "is_reserved": 0, "lat": 38.878371666666666, "is_disabled": 0}, {"name": "2c8d485d0027a2dacaa27767a933ca46", "bike_id": "2c8d485d0027a2dacaa27767a933ca46", "fusion_lon": 0.0, "fusion_lat": 0.0, "rental_uris": {"ios": "https://dc.lft.to/lastmile_qr_scan", "android": "https://dc.lft.to/lastmile_qr_scan"}, "lon": -77.027418, "type": "electric_scooter", "is_reserved": 0, "lat": 38.92407866666667, "is_disabled": 0}, {"name": "de86b1dc83027ac897c3eb2f99945e88", "bike_id": "de86b1dc83027ac897c3eb2f99945e88", "fusion_lon": 0.0, "fusion_lat": 0.0, "rental_uris": {"ios": "https://dc.lft.to/lastmile_qr_scan", "android": "https://dc.lft.to/lastmile_qr_scan"}, "lon": -77.024957, "type": "electric_scooter", "is_reserved": 0, "lat": 38.91913733333333, "is_disabled": 0}, {"name": "726647f2d7121c845e5d3057c00bbcee", "bike_id": "726647f2d7121c845e5d3057c00bbcee", "fusion_lon": 0.0, "fusion_lat": 0.0, "rental_uris": {"ios": "https://dc.lft.to/lastmile_qr_scan", "android": "https://dc.lft.to/lastmile_qr_scan"}, "lon": -77.01591983333333, "type": "electric_scooter", "is_reserved": 0, "lat": 38.876575, "is_disabled": 0}, {"name": "aa7d0a60c1747cd9043befcd5336e9d2", "bike_id": "aa7d0a60c1747cd9043befcd5336e9d2", "fusion_lon": 0.0, "fusion_lat": 0.0, "rental_uris": {"ios": "https://dc.lft.to/lastmile_qr_scan", "android": "https://dc.lft.to/lastmile_qr_scan"}, "lon": -77.038353, "type": "electric_scooter", "is_reserved": 0, "lat": 38.90367483333333, "is_disabled": 0}, {"name": "8d13dea6176da01750e2dcee5866f2d9", "bike_id": "8d13dea6176da01750e2dcee5866f2d9", "fusion_lon": 0.0, "fusion_lat": 0.0, "rental_uris": {"ios": "https://dc.lft.to/lastmile_qr_scan", "android": "https://dc.lft.to/lastmile_qr_scan"}, "lon": -77.04340783333333, "type": "electric_scooter", "is_reserved": 0, "lat": 38.89525166666667, "is_disabled": 0}, {"name": "a0e75af3dfba2d617a52deb7829fd2bc", "bike_id": "a0e75af3dfba2d617a52deb7829fd2bc", "fusion_lon": 0.0, "fusion_lat": 0.0, "rental_uris": {"ios": "https://dc.lft.to/lastmile_qr_scan", "android": "https://dc.lft.to/lastmile_qr_scan"}, "lon": -76.941706, "type": "electric_bike", "is_reserved": 0, "lat": 38.890172666666665, "is_disabled": 0}, {"name": "22e5a5afc8e0f38a8f2aa6633cc13bb1", "bike_id": "22e5a5afc8e0f38a8f2aa6633cc13bb1", "fusion_lon": 0.0, "fusion_lat": 0.0, "rental_uris": {"ios": "https://dc.lft.to/lastmile_qr_scan", "android": "https://dc.lft.to/lastmile_qr_scan"}, "lon": -76.98058983333334, "type": "electric_bike", "is_reserved": 0, "lat": 38.972532333333334, "is_disabled": 0}, {"name": "bda689691c3fa916ce461683c0ac0b46", "bike_id": "bda689691c3fa916ce461683c0ac0b46", "fusion_lon": 0.0, "fusion_lat": 0.0, "rental_uris": {"ios": "https://dc.lft.to/lastmile_qr_scan", "android": "https://dc.lft.to/lastmile_qr_scan"}, "lon": -76.9795545, "type": "electric_scooter", "is_reserved": 0, "lat": 38.904995166666666, "is_disabled": 0}, {"name": "c2f60cecf001c30b05270722ba9a4211", "bike_id": "c2f60cecf001c30b05270722ba9a4211", "fusion_lon": 0.0, "fusion_lat": 0.0, "rental_uris": {"ios": "https://dc.lft.to/lastmile_qr_scan", "android": "https://dc.lft.to/lastmile_qr_scan"}, "lon": -77.02054116666666, "type": "electric_scooter", "is_reserved": 0, "lat": 38.91350933333333, "is_disabled": 0}, {"name": "a720bb568821655fe560797560d5d7ff", "bike_id": "a720bb568821655fe560797560d5d7ff", "fusion_lon": 0.0, "fusion_lat": 0.0, "rental_uris": {"ios": "https://dc.lft.to/lastmile_qr_scan", "android": "https://dc.lft.to/lastmile_qr_scan"}, "lon": -77.03326516666667, "type": "electric_scooter", "is_reserved": 0, "lat": 38.92155916666667, "is_disabled": 0}, {"name": "1769556be2802b9644a42453775e28aa", "bike_id": "1769556be2802b9644a42453775e28aa", "fusion_lon": 0.0, "fusion_lat": 0.0, "rental_uris": {"ios": "https://dc.lft.to/lastmile_qr_scan", "android": "https://dc.lft.to/lastmile_qr_scan"}, "lon": -77.00713066666667, "type": "electric_scooter", "is_reserved": 0, "lat": 38.884906, "is_disabled": 0}, {"name": "99c1e1e8070ea7a61c59aae7692bb39d", "bike_id": "99c1e1e8070ea7a61c59aae7692bb39d", "fusion_lon": 0.0, "fusion_lat": 0.0, "rental_uris": {"ios": "https://dc.lft.to/lastmile_qr_scan", "android": "https://dc.lft.to/lastmile_qr_scan"}, "lon": -77.03860966666667, "type": "electric_scooter", "is_reserved": 0, "lat": 38.90808616666666, "is_disabled": 0}, {"name": "bbac9fbedc7724a21406c23b430a71f7", "bike_id": "bbac9fbedc7724a21406c23b430a71f7", "fusion_lon": 0.0, "fusion_lat": 0.0, "rental_uris": {"ios": "https://dc.lft.to/lastmile_qr_scan", "android": "https://dc.lft.to/lastmile_qr_scan"}, "lon": -77.04776916666667, "type": "electric_scooter", "is_reserved": 0, "lat": 38.8996495, "is_disabled": 0}, {"name": "815bc31f38143ac954129a958cd3085d", "bike_id": "815bc31f38143ac954129a958cd3085d", "fusion_lon": 0.0, "fusion_lat": 0.0, "rental_uris": {"ios": "https://dc.lft.to/lastmile_qr_scan", "android": "https://dc.lft.to/lastmile_qr_scan"}, "lon": -76.952551, "type": "electric_bike", "is_reserved": 0, "lat": 38.906925, "is_disabled": 0}, {"name": "5a8fe56306613ecf9c48469a0f448fee", "bike_id": "5a8fe56306613ecf9c48469a0f448fee", "fusion_lon": 0.0, "fusion_lat": 0.0, "rental_uris": {"ios": "https://dc.lft.to/lastmile_qr_scan", "android": "https://dc.lft.to/lastmile_qr_scan"}, "lon": -77.0716485, "type": "electric_scooter", "is_reserved": 0, "lat": 38.90872666666667, "is_disabled": 0}, {"name": "549f543dcad9cb07908f1bdd1a3d4a25", "bike_id": "549f543dcad9cb07908f1bdd1a3d4a25", "fusion_lon": 0.0, "fusion_lat": 0.0, "rental_uris": {"ios": "https://dc.lft.to/lastmile_qr_scan", "android": "https://dc.lft.to/lastmile_qr_scan"}, "lon": -77.02128816666666, "type": "electric_scooter", "is_reserved": 0, "lat": 38.93285683333333, "is_disabled": 0}, {"name": "ccf5c672835559f5f0a5cc3c90d4d9df", "bike_id": "ccf5c672835559f5f0a5cc3c90d4d9df", "fusion_lon": 0.0, "fusion_lat": 0.0, "rental_uris": {"ios": "https://dc.lft.to/lastmile_qr_scan", "android": "https://dc.lft.to/lastmile_qr_scan"}, "lon": -77.03659916666666, "type": "electric_scooter", "is_reserved": 0, "lat": 38.92285733333333, "is_disabled": 0}, {"name": "c92f29633d073fad018ca9792a2c7e4a", "bike_id": "c92f29633d073fad018ca9792a2c7e4a", "fusion_lon": 0.0, "fusion_lat": 0.0, "rental_uris": {"ios": "https://dc.lft.to/lastmile_qr_scan", "android": "https://dc.lft.to/lastmile_qr_scan"}, "lon": -77.067075, "type": "electric_scooter", "is_reserved": 0, "lat": 38.9501665, "is_disabled": 0}, {"name": "c509fce253b66f2475d06f30a7f0829d", "bike_id": "c509fce253b66f2475d06f30a7f0829d", "fusion_lon": 0.0, "fusion_lat": 0.0, "rental_uris": {"ios": "https://dc.lft.to/lastmile_qr_scan", "android": "https://dc.lft.to/lastmile_qr_scan"}, "lon": -77.12648033333333, "type": "electric_bike", "is_reserved": 0, "lat": 38.8190475, "is_disabled": 0}, {"name": "69182b8e267d39393ca7fdaae5b74edd", "bike_id": "69182b8e267d39393ca7fdaae5b74edd", "fusion_lon": 0.0, "fusion_lat": 0.0, "rental_uris": {"ios": "https://dc.lft.to/lastmile_qr_scan", "android": "https://dc.lft.to/lastmile_qr_scan"}, "lon": -77.04147416666666, "type": "electric_scooter", "is_reserved": 0, "lat": 38.914191, "is_disabled": 0}, {"name": "b33d618bd59b7980fc8c7077e4ce5579", "bike_id": "b33d618bd59b7980fc8c7077e4ce5579", "fusion_lon": 0.0, "fusion_lat": 0.0, "rental_uris": {"ios": "https://dc.lft.to/lastmile_qr_scan", "android": "https://dc.lft.to/lastmile_qr_scan"}, "lon": -77.04196783333333, "type": "electric_scooter", "is_reserved": 0, "lat": 38.9069985, "is_disabled": 0}, {"name": "5fc020ca04fcf37f2252e3c2702f0e2a", "bike_id": "5fc020ca04fcf37f2252e3c2702f0e2a", "fusion_lon": 0.0, "fusion_lat": 0.0, "rental_uris": {"ios": "https://dc.lft.to/lastmile_qr_scan", "android": "https://dc.lft.to/lastmile_qr_scan"}, "lon": -77.06374016666666, "type": "electric_scooter", "is_reserved": 0, "lat": 38.93560383333333, "is_disabled": 0}, {"name": "c9034907b2cfb105168610953aa57c6b", "bike_id": "c9034907b2cfb105168610953aa57c6b", "fusion_lon": 0.0, "fusion_lat": 0.0, "rental_uris": {"ios": "https://dc.lft.to/lastmile_qr_scan", "android": "https://dc.lft.to/lastmile_qr_scan"}, "lon": -77.03732433333333, "type": "electric_scooter", "is_reserved": 0, "lat": 38.9169155, "is_disabled": 0}, {"name": "37e6ae073924ab60371730e878015fb6", "bike_id": "37e6ae073924ab60371730e878015fb6", "fusion_lon": 0.0, "fusion_lat": 0.0, "rental_uris": {"ios": "https://dc.lft.to/lastmile_qr_scan", "android": "https://dc.lft.to/lastmile_qr_scan"}, "lon": -76.928287, "type": "electric_scooter", "is_reserved": 0, "lat": 38.901802, "is_disabled": 0}, {"name": "9b3eadad7536ce723e7a9bbab292623b", "bike_id": "9b3eadad7536ce723e7a9bbab292623b", "fusion_lon": 0.0, "fusion_lat": 0.0, "rental_uris": {"ios": "https://dc.lft.to/lastmile_qr_scan", "android": "https://dc.lft.to/lastmile_qr_scan"}, "lon": -77.0021115, "type": "electric_scooter", "is_reserved": 0, "lat": 38.902306333333335, "is_disabled": 0}, {"name": "8b6c138215afffe9335d26de1f9bf4fa", "bike_id": "8b6c138215afffe9335d26de1f9bf4fa", "fusion_lon": 0.0, "fusion_lat": 0.0, "rental_uris": {"ios": "https://dc.lft.to/lastmile_qr_scan", "android": "https://dc.lft.to/lastmile_qr_scan"}, "lon": -76.9475085, "type": "electric_scooter", "is_reserved": 0, "lat": 38.893590333333336, "is_disabled": 0}, {"name": "dc2d4279f4926c33ae6d96c67c992221", "bike_id": "dc2d4279f4926c33ae6d96c67c992221", "fusion_lon": 0.0, "fusion_lat": 0.0, "rental_uris": {"ios": "https://dc.lft.to/lastmile_qr_scan", "android": "https://dc.lft.to/lastmile_qr_scan"}, "lon": -77.03194383333333, "type": "electric_scooter", "is_reserved": 0, "lat": 38.931506166666665, "is_disabled": 0}, {"name": "5aa2cd3b797f88f743d2d0869e637132", "bike_id": "5aa2cd3b797f88f743d2d0869e637132", "fusion_lon": 0.0, "fusion_lat": 0.0, "rental_uris": {"ios": "https://dc.lft.to/lastmile_qr_scan", "android": "https://dc.lft.to/lastmile_qr_scan"}, "lon": -77.00365683333334, "type": "electric_scooter", "is_reserved": 0, "lat": 38.908607333333336, "is_disabled": 0}, {"name": "9cf1be6363f3576f7e8130a497ea408e", "bike_id": "9cf1be6363f3576f7e8130a497ea408e", "fusion_lon": 0.0, "fusion_lat": 0.0, "rental_uris": {"ios": "https://dc.lft.to/lastmile_qr_scan", "android": "https://dc.lft.to/lastmile_qr_scan"}, "lon": -77.02186333333333, "type": "electric_scooter", "is_reserved": 0, "lat": 38.9105235, "is_disabled": 0}, {"name": "72a0c08ec5601977ab83502be58d9ccd", "bike_id": "72a0c08ec5601977ab83502be58d9ccd", "fusion_lon": 0.0, "fusion_lat": 0.0, "rental_uris": {"ios": "https://dc.lft.to/lastmile_qr_scan", "android": "https://dc.lft.to/lastmile_qr_scan"}, "lon": -76.969853, "type": "electric_scooter", "is_reserved": 0, "lat": 38.873997833333334, "is_disabled": 0}, {"name": "553d114623eeced4acaf2f992875f402", "bike_id": "553d114623eeced4acaf2f992875f402", "fusion_lon": 0.0, "fusion_lat": 0.0, "rental_uris": {"ios": "https://dc.lft.to/lastmile_qr_scan", "android": "https://dc.lft.to/lastmile_qr_scan"}, "lon": -76.99107066666667, "type": "electric_scooter", "is_reserved": 0, "lat": 38.93235116666666, "is_disabled": 0}, {"name": "ce454f2902988b330e31678fd8718a61", "bike_id": "ce454f2902988b330e31678fd8718a61", "fusion_lon": 0.0, "fusion_lat": 0.0, "rental_uris": {"ios": "https://dc.lft.to/lastmile_qr_scan", "android": "https://dc.lft.to/lastmile_qr_scan"}, "lon": -77.04619666666666, "type": "electric_scooter", "is_reserved": 0, "lat": 38.91618866666666, "is_disabled": 0}, {"name": "ff3ef5cb8a44adaa9b5626a5d6934920", "bike_id": "ff3ef5cb8a44adaa9b5626a5d6934920", "fusion_lon": 0.0, "fusion_lat": 0.0, "rental_uris": {"ios": "https://dc.lft.to/lastmile_qr_scan", "android": "https://dc.lft.to/lastmile_qr_scan"}, "lon": -77.04214733333333, "type": "electric_scooter", "is_reserved": 0, "lat": 38.9210805, "is_disabled": 0}, {"name": "6c855a5795c16672f9b7f57ea6666227", "bike_id": "6c855a5795c16672f9b7f57ea6666227", "fusion_lon": 0.0, "fusion_lat": 0.0, "rental_uris": {"ios": "https://dc.lft.to/lastmile_qr_scan", "android": "https://dc.lft.to/lastmile_qr_scan"}, "lon": -77.04387233333334, "type": "electric_scooter", "is_reserved": 0, "lat": 38.91657766666667, "is_disabled": 0}, {"name": "1133dddbfe3e411bbfd638302c091750", "bike_id": "1133dddbfe3e411bbfd638302c091750", "fusion_lon": 0.0, "fusion_lat": 0.0, "rental_uris": {"ios": "https://dc.lft.to/lastmile_qr_scan", "android": "https://dc.lft.to/lastmile_qr_scan"}, "lon": -77.0408105, "type": "electric_scooter", "is_reserved": 0, "lat": 38.90727483333333, "is_disabled": 0}, {"name": "ca654c72ae4a86f490385b9f24e5091d", "bike_id": "ca654c72ae4a86f490385b9f24e5091d", "fusion_lon": 0.0, "fusion_lat": 0.0, "rental_uris": {"ios": "https://dc.lft.to/lastmile_qr_scan", "android": "https://dc.lft.to/lastmile_qr_scan"}, "lon": -76.97801216666667, "type": "electric_scooter", "is_reserved": 0, "lat": 38.903075666666666, "is_disabled": 0}, {"name": "df6f3f1775dfbaac63a3b6e680a1801e", "bike_id": "df6f3f1775dfbaac63a3b6e680a1801e", "fusion_lon": 0.0, "fusion_lat": 0.0, "rental_uris": {"ios": "https://dc.lft.to/lastmile_qr_scan", "android": "https://dc.lft.to/lastmile_qr_scan"}, "lon": -76.96156166666667, "type": "electric_scooter", "is_reserved": 0, "lat": 38.883618, "is_disabled": 0}, {"name": "e2f59b3149fc826c87415cb7f75a3273", "bike_id": "e2f59b3149fc826c87415cb7f75a3273", "fusion_lon": 0.0, "fusion_lat": 0.0, "rental_uris": {"ios": "https://dc.lft.to/lastmile_qr_scan", "android": "https://dc.lft.to/lastmile_qr_scan"}, "lon": -76.95825466666666, "type": "electric_bike", "is_reserved": 0, "lat": 38.92005266666666, "is_disabled": 0}, {"name": "d002215e93a93a533287b686079be175", "bike_id": "d002215e93a93a533287b686079be175", "fusion_lon": 0.0, "fusion_lat": 0.0, "rental_uris": {"ios": "https://dc.lft.to/lastmile_qr_scan", "android": "https://dc.lft.to/lastmile_qr_scan"}, "lon": -77.02101483333334, "type": "electric_scooter", "is_reserved": 0, "lat": 38.92717183333333, "is_disabled": 0}, {"name": "c7fae6033fb1ff75026322b305dd1e45", "bike_id": "c7fae6033fb1ff75026322b305dd1e45", "fusion_lon": 0.0, "fusion_lat": 0.0, "rental_uris": {"ios": "https://dc.lft.to/lastmile_qr_scan", "android": "https://dc.lft.to/lastmile_qr_scan"}, "lon": -77.0391015, "type": "electric_scooter", "is_reserved": 0, "lat": 38.91408783333333, "is_disabled": 0}, {"name": "c47d19bdd74c2caa9df480739e673f97", "bike_id": "c47d19bdd74c2caa9df480739e673f97", "fusion_lon": 0.0, "fusion_lat": 0.0, "rental_uris": {"ios": "https://dc.lft.to/lastmile_qr_scan", "android": "https://dc.lft.to/lastmile_qr_scan"}, "lon": -77.02154, "type": "electric_scooter", "is_reserved": 0, "lat": 38.9236845, "is_disabled": 0}, {"name": "9deb06712f9b995d0d3cf4e116024984", "bike_id": "9deb06712f9b995d0d3cf4e116024984", "fusion_lon": 0.0, "fusion_lat": 0.0, "rental_uris": {"ios": "https://dc.lft.to/lastmile_qr_scan", "android": "https://dc.lft.to/lastmile_qr_scan"}, "lon": -77.03511883333333, "type": "electric_scooter", "is_reserved": 0, "lat": 38.9233825, "is_disabled": 0}, {"name": "50ef746229a307413f208da54927e85f", "bike_id": "50ef746229a307413f208da54927e85f", "fusion_lon": 0.0, "fusion_lat": 0.0, "rental_uris": {"ios": "https://dc.lft.to/lastmile_qr_scan", "android": "https://dc.lft.to/lastmile_qr_scan"}, "lon": -77.00361616666666, "type": "electric_scooter", "is_reserved": 0, "lat": 38.89261416666667, "is_disabled": 0}, {"name": "a28eceffacbc02374e5e55de40f4b900", "bike_id": "a28eceffacbc02374e5e55de40f4b900", "fusion_lon": 0.0, "fusion_lat": 0.0, "rental_uris": {"ios": "https://dc.lft.to/lastmile_qr_scan", "android": "https://dc.lft.to/lastmile_qr_scan"}, "lon": -77.019047, "type": "electric_scooter", "is_reserved": 0, "lat": 38.894796666666664, "is_disabled": 0}, {"name": "312e5c040af846db3d446b125c9a5db0", "bike_id": "312e5c040af846db3d446b125c9a5db0", "fusion_lon": 0.0, "fusion_lat": 0.0, "rental_uris": {"ios": "https://dc.lft.to/lastmile_qr_scan", "android": "https://dc.lft.to/lastmile_qr_scan"}, "lon": -77.0220765, "type": "electric_scooter", "is_reserved": 0, "lat": 38.915469, "is_disabled": 0}, {"name": "4e0ba0dca5c057cae2b90f04ec62c487", "bike_id": "4e0ba0dca5c057cae2b90f04ec62c487", "fusion_lon": 0.0, "fusion_lat": 0.0, "rental_uris": {"ios": "https://dc.lft.to/lastmile_qr_scan", "android": "https://dc.lft.to/lastmile_qr_scan"}, "lon": -76.948832, "type": "electric_scooter", "is_reserved": 0, "lat": 38.89508816666667, "is_disabled": 0}, {"name": "db1ccf3d5105665a89dcb29fe0541cf0", "bike_id": "db1ccf3d5105665a89dcb29fe0541cf0", "fusion_lon": 0.0, "fusion_lat": 0.0, "rental_uris": {"ios": "https://dc.lft.to/lastmile_qr_scan", "android": "https://dc.lft.to/lastmile_qr_scan"}, "lon": -77.021095, "type": "electric_scooter", "is_reserved": 0, "lat": 38.92177916666667, "is_disabled": 0}, {"name": "e4fcfc41b2fb08287c8c159ce2652084", "bike_id": "e4fcfc41b2fb08287c8c159ce2652084", "fusion_lon": 0.0, "fusion_lat": 0.0, "rental_uris": {"ios": "https://dc.lft.to/lastmile_qr_scan", "android": "https://dc.lft.to/lastmile_qr_scan"}, "lon": -77.01858816666666, "type": "electric_scooter", "is_reserved": 0, "lat": 38.92130483333333, "is_disabled": 0}, {"name": "5b43b8d26b4d1ad554e7b50f2b353364", "bike_id": "5b43b8d26b4d1ad554e7b50f2b353364", "fusion_lon": 0.0, "fusion_lat": 0.0, "rental_uris": {"ios": "https://dc.lft.to/lastmile_qr_scan", "android": "https://dc.lft.to/lastmile_qr_scan"}, "lon": -76.97976583333333, "type": "electric_scooter", "is_reserved": 0, "lat": 38.907323833333336, "is_disabled": 0}, {"name": "836ffb59902885bc04bf4cfc302b0ec3", "bike_id": "836ffb59902885bc04bf4cfc302b0ec3", "fusion_lon": 0.0, "fusion_lat": 0.0, "rental_uris": {"ios": "https://dc.lft.to/lastmile_qr_scan", "android": "https://dc.lft.to/lastmile_qr_scan"}, "lon": -77.0232, "type": "electric_scooter", "is_reserved": 0, "lat": 38.930601, "is_disabled": 0}, {"name": "39ea8847682dbd8fb1e2cf0905d35a3f", "bike_id": "39ea8847682dbd8fb1e2cf0905d35a3f", "fusion_lon": 0.0, "fusion_lat": 0.0, "rental_uris": {"ios": "https://dc.lft.to/lastmile_qr_scan", "android": "https://dc.lft.to/lastmile_qr_scan"}, "lon": -77.09036866666666, "type": "electric_scooter", "is_reserved": 0, "lat": 38.956003833333334, "is_disabled": 0}, {"name": "85dd5cd110d4bbef0529dde89778aa7b", "bike_id": "85dd5cd110d4bbef0529dde89778aa7b", "fusion_lon": 0.0, "fusion_lat": 0.0, "rental_uris": {"ios": "https://dc.lft.to/lastmile_qr_scan", "android": "https://dc.lft.to/lastmile_qr_scan"}, "lon": -77.0461065, "type": "electric_scooter", "is_reserved": 0, "lat": 38.916136333333334, "is_disabled": 0}, {"name": "8487e07ac29008a8a9d7705b5722ca0c", "bike_id": "8487e07ac29008a8a9d7705b5722ca0c", "fusion_lon": 0.0, "fusion_lat": 0.0, "rental_uris": {"ios": "https://dc.lft.to/lastmile_qr_scan", "android": "https://dc.lft.to/lastmile_qr_scan"}, "lon": -76.9724035, "type": "electric_scooter", "is_reserved": 0, "lat": 38.85461316666667, "is_disabled": 0}, {"name": "08532eccc5a06b47f2e96c59b9a4b6d0", "bike_id": "08532eccc5a06b47f2e96c59b9a4b6d0", "fusion_lon": 0.0, "fusion_lat": 0.0, "rental_uris": {"ios": "https://dc.lft.to/lastmile_qr_scan", "android": "https://dc.lft.to/lastmile_qr_scan"}, "lon": -77.02463983333334, "type": "electric_scooter", "is_reserved": 0, "lat": 38.900911666666666, "is_disabled": 0}, {"name": "d302117143a58bc9c11f4168cb969672", "bike_id": "d302117143a58bc9c11f4168cb969672", "fusion_lon": 0.0, "fusion_lat": 0.0, "rental_uris": {"ios": "https://dc.lft.to/lastmile_qr_scan", "android": "https://dc.lft.to/lastmile_qr_scan"}, "lon": -77.04370083333333, "type": "electric_scooter", "is_reserved": 0, "lat": 38.892248333333335, "is_disabled": 0}, {"name": "46af3f21591639be713e71c430afb663", "bike_id": "46af3f21591639be713e71c430afb663", "fusion_lon": 0.0, "fusion_lat": 0.0, "rental_uris": {"ios": "https://dc.lft.to/lastmile_qr_scan", "android": "https://dc.lft.to/lastmile_qr_scan"}, "lon": -77.12655683333334, "type": "electric_bike", "is_reserved": 0, "lat": 38.81913516666667, "is_disabled": 0}, {"name": "f3847f8ff58f54e35115e1e2c90e154c", "bike_id": "f3847f8ff58f54e35115e1e2c90e154c", "fusion_lon": 0.0, "fusion_lat": 0.0, "rental_uris": {"ios": "https://dc.lft.to/lastmile_qr_scan", "android": "https://dc.lft.to/lastmile_qr_scan"}, "lon": -77.00017533333333, "type": "electric_scooter", "is_reserved": 0, "lat": 38.900229833333334, "is_disabled": 0}, {"name": "283cdaf845db8014043c1ad87657aad7", "bike_id": "283cdaf845db8014043c1ad87657aad7", "fusion_lon": 0.0, "fusion_lat": 0.0, "rental_uris": {"ios": "https://dc.lft.to/lastmile_qr_scan", "android": "https://dc.lft.to/lastmile_qr_scan"}, "lon": -77.0359215, "type": "electric_scooter", "is_reserved": 0, "lat": 38.933020666666664, "is_disabled": 0}, {"name": "33fc62cb0fb05637d1b7639486bcfcde", "bike_id": "33fc62cb0fb05637d1b7639486bcfcde", "fusion_lon": 0.0, "fusion_lat": 0.0, "rental_uris": {"ios": "https://dc.lft.to/lastmile_qr_scan", "android": "https://dc.lft.to/lastmile_qr_scan"}, "lon": -77.0315055, "type": "electric_scooter", "is_reserved": 0, "lat": 38.92787633333333, "is_disabled": 0}, {"name": "25582b459cf2b1280fe38707ff861762", "bike_id": "25582b459cf2b1280fe38707ff861762", "fusion_lon": 0.0, "fusion_lat": 0.0, "rental_uris": {"ios": "https://dc.lft.to/lastmile_qr_scan", "android": "https://dc.lft.to/lastmile_qr_scan"}, "lon": -77.04878416666666, "type": "electric_scooter", "is_reserved": 0, "lat": 38.898910666666666, "is_disabled": 0}, {"name": "2ebb5ef2cb21c7a3d429b43a8f0e5aac", "bike_id": "2ebb5ef2cb21c7a3d429b43a8f0e5aac", "fusion_lon": 0.0, "fusion_lat": 0.0, "rental_uris": {"ios": "https://dc.lft.to/lastmile_qr_scan", "android": "https://dc.lft.to/lastmile_qr_scan"}, "lon": -76.96507866666667, "type": "electric_scooter", "is_reserved": 0, "lat": 38.876477666666666, "is_disabled": 0}, {"name": "47791796d8174fd411dacaf4676b68b6", "bike_id": "47791796d8174fd411dacaf4676b68b6", "fusion_lon": 0.0, "fusion_lat": 0.0, "rental_uris": {"ios": "https://dc.lft.to/lastmile_qr_scan", "android": "https://dc.lft.to/lastmile_qr_scan"}, "lon": -77.04506216666667, "type": "electric_scooter", "is_reserved": 0, "lat": 38.892262833333334, "is_disabled": 0}, {"name": "51df5d2f1b2e2ace2defe941371bc1d8", "bike_id": "51df5d2f1b2e2ace2defe941371bc1d8", "fusion_lon": 0.0, "fusion_lat": 0.0, "rental_uris": {"ios": "https://dc.lft.to/lastmile_qr_scan", "android": "https://dc.lft.to/lastmile_qr_scan"}, "lon": -77.044035, "type": "electric_scooter", "is_reserved": 0, "lat": 38.92952616666667, "is_disabled": 0}, {"name": "03fd4ab886cdbf280788607b084f981a", "bike_id": "03fd4ab886cdbf280788607b084f981a", "fusion_lon": 0.0, "fusion_lat": 0.0, "rental_uris": {"ios": "https://dc.lft.to/lastmile_qr_scan", "android": "https://dc.lft.to/lastmile_qr_scan"}, "lon": -76.93705316666667, "type": "electric_scooter", "is_reserved": 0, "lat": 38.8901795, "is_disabled": 0}, {"name": "6720a7d2b9400a970be64573d9437f0e", "bike_id": "6720a7d2b9400a970be64573d9437f0e", "fusion_lon": 0.0, "fusion_lat": 0.0, "rental_uris": {"ios": "https://dc.lft.to/lastmile_qr_scan", "android": "https://dc.lft.to/lastmile_qr_scan"}, "lon": -76.96988683333333, "type": "electric_scooter", "is_reserved": 0, "lat": 38.873855666666664, "is_disabled": 0}, {"name": "b5ee6cdc040dc44706506d2160063e2d", "bike_id": "b5ee6cdc040dc44706506d2160063e2d", "fusion_lon": 0.0, "fusion_lat": 0.0, "rental_uris": {"ios": "https://dc.lft.to/lastmile_qr_scan", "android": "https://dc.lft.to/lastmile_qr_scan"}, "lon": -77.03830866666667, "type": "electric_scooter", "is_reserved": 0, "lat": 38.90382316666667, "is_disabled": 0}, {"name": "ddb49dd3e4a03a927e0fa24ab3cce450", "bike_id": "ddb49dd3e4a03a927e0fa24ab3cce450", "fusion_lon": 0.0, "fusion_lat": 0.0, "rental_uris": {"ios": "https://dc.lft.to/lastmile_qr_scan", "android": "https://dc.lft.to/lastmile_qr_scan"}, "lon": -77.07015433333333, "type": "electric_bike", "is_reserved": 0, "lat": 38.8411035, "is_disabled": 0}, {"name": "9a7d9f9dc3a69dba41a11093daafcb1a", "bike_id": "9a7d9f9dc3a69dba41a11093daafcb1a", "fusion_lon": 0.0, "fusion_lat": 0.0, "rental_uris": {"ios": "https://dc.lft.to/lastmile_qr_scan", "android": "https://dc.lft.to/lastmile_qr_scan"}, "lon": -77.0199625, "type": "electric_scooter", "is_reserved": 0, "lat": 38.9231795, "is_disabled": 0}, {"name": "0187e96bd9ba4321472f23110dd98836", "bike_id": "0187e96bd9ba4321472f23110dd98836", "fusion_lon": 0.0, "fusion_lat": 0.0, "rental_uris": {"ios": "https://dc.lft.to/lastmile_qr_scan", "android": "https://dc.lft.to/lastmile_qr_scan"}, "lon": -77.00063433333334, "type": "electric_scooter", "is_reserved": 0, "lat": 38.87657166666666, "is_disabled": 0},