{"data": {"bikes": [{"lon": -77.036669, "is_disabled": 0, "lat": 38.92264333333333, "fusion_lat": 0.0, "is_reserved": 0, "rental_uris": {"ios": "https://dc.lft.to/lastmile_qr_scan", "android": "https://dc.lft.to/lastmile_qr_scan"}, "fusion_lon": 0.0, "type": "electric_scooter", "bike_id": "249524a4a6977c5302dd684613470bab", "name": "249524a4a6977c5302dd684613470bab"}, {"lon": -76.95410783333334, "is_disabled": 0, "lat": 38.88412533333333, "fusion_lat": 0.0, "is_reserved": 0, "rental_uris": {"ios": "https://dc.lft.to/lastmile_qr_scan", "android": "https://dc.lft.to/lastmile_qr_scan"}, "fusion_lon": 0.0, "type": "electric_bike", "bike_id": "d25015a2e2d97bad8f9b85070b4e9b6a", "name": "d25015a2e2d97bad8f9b85070b4e9b6a"}, {"lon": -77.029263, "is_disabled": 0, "lat": 38.901553, "fusion_lat": 0.0, "is_reserved": 0, "rental_uris": {"ios": "https://dc.lft.to/lastmile_qr_scan", "android": "https://dc.lft.to/lastmile_qr_scan"}, "fusion_lon": 0.0, "type": "electric_scooter", "bike_id": "d3b4936b486b2b4617db7abacd34bd90", "name": "d3b4936b486b2b4617db7abacd34bd90"}, {"lon": -76.98060916666667, "is_disabled": 0, "lat": 38.90116866666666, "fusion_lat": 0.0, "is_reserved": 0, "rental_uris": {"ios": "https://dc.lft.to/lastmile_qr_scan", "android": "https://dc.lft.to/lastmile_qr_scan"}, "fusion_lon": 0.0, "type": "electric_bike", "bike_id": "e67f4cfeb6d45c947108889690d81465", "name": "e67f4cfeb6d45c947108889690d81465"}, {"lon": -77.033433, "is_disabled": 0, "lat": 38.938888666666664, "fusion_lat": 0.0, "is_reserved": 0, "rental_uris": {"ios": "https://dc.lft.to/lastmile_qr_scan", "android": "https://dc.lft.to/lastmile_qr_scan"}, "fusion_lon": 0.0, "type": "electric_scooter", "bike_id": "523ee8aea4f0da6e077dda2d5be7e45c", "name": "523ee8aea4f0da6e077dda2d5be7e45c"}, {"lon": -76.9979895, "is_disabled": 0, "lat": 38.90869683333333, "fusion_lat": 0.0, "is_reserved": 0, "rental_uris": {"ios": "https://dc.lft.to/lastmile_qr_scan", "android": "https://dc.lft.to/lastmile_qr_scan"}, "fusion_lon": 0.0, "type": "electric_scooter", "bike_id": "1223383c89172c2dda45826682986341", "name": "1223383c89172c2dda45826682986341"}, {"lon": -77.04495316666667, "is_disabled": 0, "lat": 38.90851816666667, "fusion_lat": 0.0, "is_reserved": 0, "rental_uris": {"ios": "https://dc.lft.to/lastmile_qr_scan", "android": "https://dc.lft.to/lastmile_qr_scan"}, "fusion_lon": 0.0, "type": "electric_scooter", "bike_id": "e42cb6faa4064e4df4bd47c7afd49001", "name": "e42cb6faa4064e4df4bd47c7afd49001"}, {"lon": -77.03183516666667, "is_disabled": 0, "lat": 38.909825166666664, "fusion_lat": 0.0, "is_reserved": 0, "rental_uris": {"ios": "https://dc.lft.to/lastmile_qr_scan", "android": "https://dc.lft.to/lastmile_qr_scan"}, "fusion_lon": 0.0, "type": "electric_scooter", "bike_id": "b9cd644265bd48a55015db1cef0ff3b6", "name": "b9cd644265bd48a55015db1cef0ff3b6"}, {"lon": -77.02153933333334, "is_disabled": 0, "lat": 38.8791385, "fusion_lat": 0.0, "is_reserved": 0, "rental_uris": {"ios": "https://dc.lft.to/lastmile_qr_scan", "android": "https://dc.lft.to/lastmile_qr_scan"}, "fusion_lon": 0.0, "type": "electric_scooter", "bike_id": "04c257b3b0b4dcc4961527d864f544c5", "name": "04c257b3b0b4dcc4961527d864f544c5"}, {"lon": -77.06187916666667, "is_disabled": 0, "lat": 38.90338, "fusion_lat": 0.0, "is_reserved": 0, "rental_uris": {"ios": "https://dc.lft.to/lastmile_qr_scan", "android": "https://dc.lft.to/lastmile_qr_scan"}, "fusion_lon": 0.0, "type": "electric_scooter", "bike_id": "d4c192ff30d53b0756e0955d2ee050f0", "name": "d4c192ff30d53b0756e0955d2ee050f0"}, {"lon": -77.03264966666667, "is_disabled": 0, "lat": 38.909614833333336, "fusion_lat": 0.0, "is_reserved": 0, "rental_uris": {"ios": "https://dc.lft.to/lastmile_qr_scan", "android": "https://dc.lft.to/lastmile_qr_scan"}, "fusion_lon": 0.0, "type": "electric_scooter", "bike_id": "03433935428b17f8247f77cd4d8ca1e3", "name": "03433935428b17f8247f77cd4d8ca1e3"}, {"lon": -77.00345366666667, "is_disabled": 0, "lat": 38.88207933333333, "fusion_lat": 0.0, "is_reserved": 0, "rental_uris": {"ios": "https://dc.lft.to/lastmile_qr_scan", "android": "https://dc.lft.to/lastmile_qr_scan"}, "fusion_lon": 0.0, "type": "electric_scooter", "bike_id": "06468ea035d57d1fe34547016d7723bc", "name": "06468ea035d57d1fe34547016d7723bc"}, {"lon": -77.03940283333333, "is_disabled": 0, "lat": 38.91411166666666, "fusion_lat": 0.0, "is_reserved": 0, "rental_uris": {"ios": "https://dc.lft.to/lastmile_qr_scan", "android": "https://dc.lft.to/lastmile_qr_scan"}, "fusion_lon": 0.0, "type": "electric_scooter", "bike_id": "bceaca59b122ae196e9ae73176269f8b", "name": "bceaca59b122ae196e9ae73176269f8b"}, {"lon": -77.02388283333333, "is_disabled": 0, "lat": 38.919897666666664, "fusion_lat": 0.0, "is_reserved": 0, "rental_uris": {"ios": "https://dc.lft.to/lastmile_qr_scan", "android": "https://dc.lft.to/lastmile_qr_scan"}, "fusion_lon": 0.0, "type": "electric_scooter", "bike_id": "c58c30710e6f9087e9c84de8a6f24678", "name": "c58c30710e6f9087e9c84de8a6f24678"}, {"lon": -77.0277915, "is_disabled": 0, "lat": 38.92780483333333, "fusion_lat": 0.0, "is_reserved": 0, "rental_uris": {"ios": "https://dc.lft.to/lastmile_qr_scan", "android": "https://dc.lft.to/lastmile_qr_scan"}, "fusion_lon": 0.0, "type": "electric_scooter", "bike_id": "6548beddeb6e09f6d3f9347a68249513", "name": "6548beddeb6e09f6d3f9347a68249513"}, {"lon": -77.02212933333334, "is_disabled": 0, "lat": 38.9103245, "fusion_lat": 0.0, "is_reserved": 0, "rental_uris": {"ios": "https://dc.lft.to/lastmile_qr_scan", "android": "https://dc.lft.to/lastmile_qr_scan"}, "fusion_lon": 0.0, "type": "electric_scooter", "bike_id": "f694448a3ef3a9e928f16c380215dbd0", "name": "f694448a3ef3a9e928f16c380215dbd0"}, {"lon": -77.0502785, "is_disabled": 0, "lat": 38.92368783333333, "fusion_lat": 0.0, "is_reserved": 0, "rental_uris": {"ios": "https://dc.lft.to/lastmile_qr_scan", "android": "https://dc.lft.to/lastmile_qr_scan"}, "fusion_lon": 0.0, "type": "electric_scooter", "bike_id": "1327611c2cdc9dfe48e4539ec8f98e2d", "name": "1327611c2cdc9dfe48e4539ec8f98e2d"}, {"lon": -76.981423, "is_disabled": 0, "lat": 38.90564333333333, "fusion_lat": 0.0, "is_reserved": 0, "rental_uris": {"ios": "https://dc.lft.to/lastmile_qr_scan", "android": "https://dc.lft.to/lastmile_qr_scan"}, "fusion_lon": 0.0, "type": "electric_scooter", "bike_id": "839e0c0da69093450462206db48296d3", "name": "839e0c0da69093450462206db48296d3"}, {"lon": -77.02455083333334, "is_disabled": 0, "lat": 38.931026, "fusion_lat": 0.0, "is_reserved": 0, "rental_uris": {"ios": "https://dc.lft.to/lastmile_qr_scan", "android": "https://dc.lft.to/lastmile_qr_scan"}, "fusion_lon": 0.0, "type": "electric_scooter", "bike_id": "694103e53ef52689779dcedc0469e4d7", "name": "694103e53ef52689779dcedc0469e4d7"}, {"lon": -77.0120905, "is_disabled": 0, "lat": 38.919781666666665, "fusion_lat": 0.0, "is_reserved": 0, "rental_uris": {"ios": "https://dc.lft.to/lastmile_qr_scan", "android": "https://dc.lft.to/lastmile_qr_scan"}, "fusion_lon": 0.0, "type": "electric_scooter", "bike_id": "6699a266b3cd53e50db0eb3918b34c41", "name": "6699a266b3cd53e50db0eb3918b34c41"}, {"lon": -77.0421705, "is_disabled": 0, "lat": 38.923142166666665, "fusion_lat": 0.0, "is_reserved": 0, "rental_uris": {"ios": "https://dc.lft.to/lastmile_qr_scan", "android": "https://dc.lft.to/lastmile_qr_scan"}, "fusion_lon": 0.0, "type": "electric_scooter", "bike_id": "2bd651b2535f9d0522b3f3d6dabbe7a6", "name": "2bd651b2535f9d0522b3f3d6dabbe7a6"}, {"lon": -77.02188866666667, "is_disabled": 0, "lat": 38.902016, "fusion_lat": 0.0, "is_reserved": 0, "rental_uris": {"ios": "https://dc.lft.to/lastmile_qr_scan", "android": "https://dc.lft.to/lastmile_qr_scan"}, "fusion_lon": 0.0, "type": "electric_scooter", "bike_id": "059dddac3fd97d8f2341ea6d53712162", "name": "059dddac3fd97d8f2341ea6d53712162"}, {"lon": -77.04093783333333, "is_disabled": 0, "lat": 38.905065, "fusion_lat": 0.0, "is_reserved": 0, "rental_uris": {"ios": "https://dc.lft.to/lastmile_qr_scan", "android": "https://dc.lft.to/lastmile_qr_scan"}, "fusion_lon": 0.0, "type": "electric_scooter", "bike_id": "d99a24e8b2ac67ea5357d0faef500f3c", "name": "d99a24e8b2ac67ea5357d0faef500f3c"}, {"lon": -77.02401233333333, "is_disabled": 0, "lat": 38.919132833333336, "fusion_lat": 0.0, "is_reserved": 0, "rental_uris": {"ios": "https://dc.lft.to/lastmile_qr_scan", "android": "https://dc.lft.to/lastmile_qr_scan"}, "fusion_lon": 0.0, "type": "electric_scooter", "bike_id": "44c63c9420286716c03e06ff9b48a57f", "name": "44c63c9420286716c03e06ff9b48a57f"}, {"lon": -76.98578833333333, "is_disabled": 0, "lat": 38.866828, "fusion_lat": 0.0, "is_reserved": 0, "rental_uris": {"ios": "https://dc.lft.to/lastmile_qr_scan", "android": "https://dc.lft.to/lastmile_qr_scan"}, "fusion_lon": 0.0, "type": "electric_scooter", "bike_id": "c5bd0679246bae60a3b53a67cb29644c", "name": "c5bd0679246bae60a3b53a67cb29644c"}, {"lon": -77.02714683333333, "is_disabled": 0, "lat": 38.9276735, "fusion_lat": 0.0, "is_reserved": 0, "rental_uris": {"ios": "https://dc.lft.to/lastmile_qr_scan", "android": "https://dc.lft.to/lastmile_qr_scan"}, "fusion_lon": 0.0, "type": "electric_scooter", "bike_id": "3bf662bf924dc979b025877c19ee7d6b", "name": "3bf662bf924dc979b025877c19ee7d6b"}, {"lon": -77.06844166666667, "is_disabled": 0, "lat": 38.917249, "fusion_lat": 0.0, "is_reserved": 0, "rental_uris": {"ios": "https://dc.lft.to/lastmile_qr_scan", "android": "https://dc.lft.to/lastmile_qr_scan"}, "fusion_lon": 0.0, "type": "electric_scooter", "bike_id": "5f4282f53f0d8b1423acbec770eda2f3", "name": "5f4282f53f0d8b1423acbec770eda2f3"}, {"lon": -77.044481, "is_disabled": 0, "lat": 38.91549966666667, "fusion_lat": 0.0, "is_reserved": 0, "rental_uris": {"ios": "https://dc.lft.to/lastmile_qr_scan", "android": "https://dc.lft.to/lastmile_qr_scan"}, "fusion_lon": 0.0, "type": "electric_scooter", "bike_id": "c9ce58285c5b3ce4e30d4a7ad8812b18", "name": "c9ce58285c5b3ce4e30d4a7ad8812b18"}, {"lon": -77.0177715, "is_disabled": 0, "lat": 38.88382433333334, "fusion_lat": 0.0, "is_reserved": 0, "rental_uris": {"ios": "https://dc.lft.to/lastmile_qr_scan", "android": "https://dc.lft.to/lastmile_qr_scan"}, "fusion_lon": 0.0, "type": "electric_scooter", "bike_id": "4e259bc9687a7737201897ab6a6efb0e", "name": "4e259bc9687a7737201897ab6a6efb0e"}, {"lon": -76.9900415, "is_disabled": 0, "lat": 38.86508633333333, "fusion_lat": 0.0, "is_reserved": 0, "rental_uris": {"ios": "https://dc.lft.to/lastmile_qr_scan", "android": "https://dc.lft.to/lastmile_qr_scan"}, "fusion_lon": 0.0, "type": "electric_scooter", "bike_id": "7dfc6bc316d7f78e0e82b1e13441f75d", "name": "7dfc6bc316d7f78e0e82b1e13441f75d"}, {"lon": -77.04158166666667, "is_disabled": 0, "lat": 38.91422333333333, "fusion_lat": 0.0, "is_reserved": 0, "rental_uris": {"ios": "https://dc.lft.to/lastmile_qr_scan", "android": "https://dc.lft.to/lastmile_qr_scan"}, "fusion_lon": 0.0, "type": "electric_scooter", "bike_id": "def2ba11706736c78d3a51eda73a4de3", "name": "def2ba11706736c78d3a51eda73a4de3"}, {"lon": -77.01590066666667, "is_disabled": 0, "lat": 38.87644183333333, "fusion_lat": 0.0, "is_reserved": 0, "rental_uris": {"ios": "https://dc.lft.to/lastmile_qr_scan", "android": "https://dc.lft.to/lastmile_qr_scan"}, "fusion_lon": 0.0, "type": "electric_scooter", "bike_id": "8a85842af002aed529d8de54d8eaf18b", "name": "8a85842af002aed529d8de54d8eaf18b"}, {"lon": -77.04011166666666, "is_disabled": 0, "lat": 38.9099655, "fusion_lat": 0.0, "is_reserved": 0, "rental_uris": {"ios": "https://dc.lft.to/lastmile_qr_scan", "android": "https://dc.lft.to/lastmile_qr_scan"}, "fusion_lon": 0.0, "type": "electric_scooter", "bike_id": "605168c967be1104e49a316b53252840", "name": "605168c967be1104e49a316b53252840"}, {"lon": -77.01830183333334, "is_disabled": 0, "lat": 38.9498925, "fusion_lat": 0.0, "is_reserved": 0, "rental_uris": {"ios": "https://dc.lft.to/lastmile_qr_scan", "android": "https://dc.lft.to/lastmile_qr_scan"}, "fusion_lon": 0.0, "type": "electric_scooter", "bike_id": "d007d212cf76fadb86621d40f455bed6", "name": "d007d212cf76fadb86621d40f455bed6"}, {"lon": -76.98601516666666, "is_disabled": 0, "lat": 38.900102, "fusion_lat": 0.0, "is_reserved": 0, "rental_uris": {"ios": "https://dc.lft.to/lastmile_qr_scan", "android": "https://dc.lft.to/lastmile_qr_scan"}, "fusion_lon": 0.0, "type": "electric_scooter", "bike_id": "eb0445570d9e0f74c817a9c487b79610", "name": "eb0445570d9e0f74c817a9c487b79610"}, {"lon": -77.021231, "is_disabled": 0, "lat": 38.93577033333333, "fusion_lat": 0.0, "is_reserved": 0, "rental_uris": {"ios": "https://dc.lft.to/lastmile_qr_scan", "android": "https://dc.lft.to/lastmile_qr_scan"}, "fusion_lon": 0.0, "type": "electric_bike", "bike_id": "01d47685fcb106c323116b1c6a52274e", "name": "01d47685fcb106c323116b1c6a52274e"}, {"lon": -76.92736233333333, "is_disabled": 0, "lat": 38.90062133333333, "fusion_lat": 0.0, "is_reserved": 0, "rental_uris": {"ios": "https://dc.lft.to/lastmile_qr_scan", "android": "https://dc.lft.to/lastmile_qr_scan"}, "fusion_lon": 0.0, "type": "electric_scooter", "bike_id": "c648ebabc4cf88290206992dfe95f9a4", "name": "c648ebabc4cf88290206992dfe95f9a4"}, {"lon": -77.006725, "is_disabled": 0, "lat": 38.94509983333333, "fusion_lat": 0.0, "is_reserved": 0, "rental_uris": {"ios": "https://dc.lft.to/lastmile_qr_scan", "android": "https://dc.lft.to/lastmile_qr_scan"}, "fusion_lon": 0.0, "type": "electric_bike", "bike_id": "fc97f5428ef07f35f78daa03520eb637", "name": "fc97f5428ef07f35f78daa03520eb637"}, {"lon": -76.99491783333333, "is_disabled": 0, "lat": 38.883465, "fusion_lat": 0.0, "is_reserved": 0, "rental_uris": {"ios": "https://dc.lft.to/lastmile_qr_scan", "android": "https://dc.lft.to/lastmile_qr_scan"}, "fusion_lon": 0.0, "type": "electric_scooter", "bike_id": "e6dc4ed34ff9acb2fff3fc67d8b1bf4a", "name": "e6dc4ed34ff9acb2fff3fc67d8b1bf4a"}, {"lon": -77.02087766666666, "is_disabled": 0, "lat": 38.88188816666667, "fusion_lat": 0.0, "is_reserved": 0, "rental_uris": {"ios": "https://dc.lft.to/lastmile_qr_scan", "android": "https://dc.lft.to/lastmile_qr_scan"}, "fusion_lon": 0.0, "type": "electric_scooter", "bike_id": "db29541c252ca93826d37da0d6710b30", "name": "db29541c252ca93826d37da0d6710b30"}, {"lon": -76.9881775, "is_disabled": 0, "lat": 38.900693833333335, "fusion_lat": 0.0, "is_reserved": 0, "rental_uris": {"ios": "https://dc.lft.to/lastmile_qr_scan", "android": "https://dc.lft.to/lastmile_qr_scan"}, "fusion_lon": 0.0, "type": "electric_scooter", "bike_id": "a8af08d6af3885fc21bf835d455d979c", "name": "a8af08d6af3885fc21bf835d455d979c"}, {"lon": -76.96527833333333, "is_disabled": 0, "lat": 38.876220333333336, "fusion_lat": 0.0, "is_reserved": 0, "rental_uris": {"ios": "https://dc.lft.to/lastmile_qr_scan", "android": "https://dc.lft.to/lastmile_qr_scan"}, "fusion_lon": 0.0, "type": "electric_scooter", "bike_id": "ce551963dc385568fecb5eb9a78f4d9a", "name": "ce551963dc385568fecb5eb9a78f4d9a"}, {"lon": -77.016913, "is_disabled": 0, "lat": 38.938978666666664, "fusion_lat": 0.0, "is_reserved": 0, "rental_uris": {"ios": "https://dc.lft.to/lastmile_qr_scan", "android": "https://dc.lft.to/lastmile_qr_scan"}, "fusion_lon": 0.0, "type": "electric_bike", "bike_id": "cab2a8c858850d9250dc671cc5ae70ca", "name": "cab2a8c858850d9250dc671cc5ae70ca"}, {"lon": -77.02569816666667, "is_disabled": 0, "lat": 38.887475, "fusion_lat": 0.0, "is_reserved": 0, "rental_uris": {"ios": "https://dc.lft.to/lastmile_qr_scan", "android": "https://dc.lft.to/lastmile_qr_scan"}, "fusion_lon": 0.0, "type": "electric_scooter", "bike_id": "7499c580cd5283d7064aace045c4812d", "name": "7499c580cd5283d7064aace045c4812d"}, {"lon": -77.03580083333334, "is_disabled": 0, "lat": 38.911187, "fusion_lat": 0.0, "is_reserved": 0, "rental_uris": {"ios": "https://dc.lft.to/lastmile_qr_scan", "android": "https://dc.lft.to/lastmile_qr_scan"}, "fusion_lon": 0.0, "type": "electric_scooter", "bike_id": "4a413f6b7d7b543894ad1754ddb9d73e", "name": "4a413f6b7d7b543894ad1754ddb9d73e"}, {"lon": -77.0372805, "is_disabled": 0, "lat": 38.926590166666664, "fusion_lat": 0.0, "is_reserved": 0, "rental_uris": {"ios": "https://dc.lft.to/lastmile_qr_scan", "android": "https://dc.lft.to/lastmile_qr_scan"}, "fusion_lon": 0.0, "type": "electric_scooter", "bike_id": "707530ebc4f0d816f88368f4aaf3902c", "name": "707530ebc4f0d816f88368f4aaf3902c"}, {"lon": -77.04554616666667, "is_disabled": 0, "lat": 38.91472483333333, "fusion_lat": 0.0, "is_reserved": 0, "rental_uris": {"ios": "https://dc.lft.to/lastmile_qr_scan", "android": "https://dc.lft.to/lastmile_qr_scan"}, "fusion_lon": 0.0, "type": "electric_scooter", "bike_id": "3bc1df9a4b70284a921a9c873fe46314", "name": "3bc1df9a4b70284a921a9c873fe46314"}, {"lon": -76.98353066666667, "is_disabled": 0, "lat": 38.86261316666667, "fusion_lat": 0.0, "is_reserved": 0, "rental_uris": {"ios": "https://dc.lft.to/lastmile_qr_scan", "android": "https://dc.lft.to/lastmile_qr_scan"}, "fusion_lon": 0.0, "type": "electric_bike", "bike_id": "93aa8bd2c7b47002384eb64b8e6d18d5", "name": "93aa8bd2c7b47002384eb64b8e6d18d5"}, {"lon": -77.02145483333334, "is_disabled": 0, "lat": 38.91561516666667, "fusion_lat": 0.0, "is_reserved": 0, "rental_uris": {"ios": "https://dc.lft.to/lastmile_qr_scan", "android": "https://dc.lft.to/lastmile_qr_scan"}, "fusion_lon": 0.0, "type": "electric_scooter", "bike_id": "53f236ef5801e5581bfb7e0d462da3c7", "name": "53f236ef5801e5581bfb7e0d462da3c7"}, {"lon": -77.02756916666667, "is_disabled": 0, "lat": 38.91699633333333, "fusion_lat": 0.0, "is_reserved": 0, "rental_uris": {"ios": "https://dc.lft.to/lastmile_qr_scan", "android": "https://dc.lft.to/lastmile_qr_scan"}, "fusion_lon": 0.0, "type": "electric_scooter", "bike_id": "ac253f5f99679f5a74b702cf356cc89c", "name": "ac253f5f99679f5a74b702cf356cc89c"}, {"lon": -77.05494283333333, "is_disabled": 0, "lat": 39.01479616666666, "fusion_lat": 0.0, "is_reserved": 0, "rental_uris": {"ios": "https://dc.lft.to/lastmile_qr_scan", "android": "https://dc.lft.to/lastmile_qr_scan"}, "fusion_lon": 0.0, "type": "electric_bike", "bike_id": "be8699562f3668cae2596062d6a882a5", "name": "be8699562f3668cae2596062d6a882a5"}, {"lon": -76.94634816666667, "is_disabled": 0, "lat": 38.898686166666664, "fusion_lat": 0.0, "is_reserved": 0, "rental_uris": {"ios": "https://dc.lft.to/lastmile_qr_scan", "android": "https://dc.lft.to/lastmile_qr_scan"}, "fusion_lon": 0.0, "type": "electric_scooter", "bike_id": "4b27cdae5165c2eebd21a8882cce419f", "name": "4b27cdae5165c2eebd21a8882cce419f"}, {"lon": -77.05128633333334, "is_disabled": 0, "lat": 38.9052905, "fusion_lat": 0.0, "is_reserved": 0, "rental_uris": {"ios": "https://dc.lft.to/lastmile_qr_scan", "android": "https://dc.lft.to/lastmile_qr_scan"}, "fusion_lon": 0.0, "type": "electric_scooter", "bike_id": "633572470109f08328ae10e7bcbd8638", "name": "633572470109f08328ae10e7bcbd8638"}, {"lon": -77.02488283333334, "is_disabled": 0, "lat": 38.957803, "fusion_lat": 0.0, "is_reserved": 0, "rental_uris": {"ios": "https://dc.lft.to/lastmile_qr_scan", "android": "https://dc.lft.to/lastmile_qr_scan"}, "fusion_lon": 0.0, "type": "electric_scooter", "bike_id": "a5e09ef75a1a5940b3c3cf584d03b040", "name": "a5e09ef75a1a5940b3c3cf584d03b040"}, {"lon": -77.03315716666667, "is_disabled": 0, "lat": 38.89856016666667, "fusion_lat": 0.0, "is_reserved": 0, "rental_uris": {"ios": "https://dc.lft.to/lastmile_qr_scan", "android": "https://dc.lft.to/lastmile_qr_scan"}, "fusion_lon": 0.0, "type": "electric_scooter", "bike_id": "5fda4bda26d547c89df5c7273effa654", "name": "5fda4bda26d547c89df5c7273effa654"}, {"lon": -77.05397366666666, "is_disabled": 0, "lat": 38.901287333333336, "fusion_lat": 0.0, "is_reserved": 0, "rental_uris": {"ios": "https://dc.lft.to/lastmile_qr_scan", "android": "https://dc.lft.to/lastmile_qr_scan"}, "fusion_lon": 0.0, "type": "electric_scooter", "bike_id": "909367803115f39cc3b0a604f3220248", "name": "909367803115f39cc3b0a604f3220248"}, {"lon": -77.02369033333333, "is_disabled": 0, "lat": 38.91991516666667, "fusion_lat": 0.0, "is_reserved": 0, "rental_uris": {"ios": "https://dc.lft.to/lastmile_qr_scan", "android": "https://dc.lft.to/lastmile_qr_scan"}, "fusion_lon": 0.0, "type": "electric_scooter", "bike_id": "300768c80553027408ed97f4e43b893a", "name": "300768c80553027408ed97f4e43b893a"}, {"lon": -77.028221, "is_disabled": 0, "lat": 38.90724133333333, "fusion_lat": 0.0, "is_reserved": 0, "rental_uris": {"ios": "https://dc.lft.to/lastmile_qr_scan", "android": "https://dc.lft.to/lastmile_qr_scan"}, "fusion_lon": 0.0, "type": "electric_scooter", "bike_id": "cb4bd24e7d47a5f97c4302ac10cfc5e8", "name": "cb4bd24e7d47a5f97c4302ac10cfc5e8"}, {"lon": -77.00572233333334, "is_disabled": 0, "lat": 38.875773333333335, "fusion_lat": 0.0, "is_reserved": 0, "rental_uris": {"ios": "https://dc.lft.to/lastmile_qr_scan", "android": "https://dc.lft.to/lastmile_qr_scan"}, "fusion_lon": 0.0, "type": "electric_scooter", "bike_id": "0792ba126fbc6fbe7d9dc188170f09ff", "name": "0792ba126fbc6fbe7d9dc188170f09ff"}, {"lon": -77.05423266666666, "is_disabled": 0, "lat": 38.92578966666667, "fusion_lat": 0.0, "is_reserved": 0, "rental_uris": {"ios": "https://dc.lft.to/lastmile_qr_scan", "android": "https://dc.lft.to/lastmile_qr_scan"}, "fusion_lon": 0.0, "type": "electric_scooter", "bike_id": "dd8fd60f0651f3b00f0b765113c5d4ba", "name": "dd8fd60f0651f3b00f0b765113c5d4ba"}, {"lon": -77.041101, "is_disabled": 0, "lat": 38.909690166666664, "fusion_lat": 0.0, "is_reserved": 0, "rental_uris": {"ios": "https://dc.lft.to/lastmile_qr_scan", "android": "https://dc.lft.to/lastmile_qr_scan"}, "fusion_lon": 0.0, "type": "electric_scooter", "bike_id": "04d100c05dbdfe0f9f8d4795d8e37d1e", "name": "04d100c05dbdfe0f9f8d4795d8e37d1e"}, {"lon": -76.99900633333333, "is_disabled": 0, "lat": 38.900277333333335, "fusion_lat": 0.0, "is_reserved": 0, "rental_uris": {"ios": "https://dc.lft.to/lastmile_qr_scan", "android": "https://dc.lft.to/lastmile_qr_scan"}, "fusion_lon": 0.0, "type": "electric_scooter", "bike_id": "b23f928444bd86ad5ebfe487cb13dd99", "name": "b23f928444bd86ad5ebfe487cb13dd99"}, {"lon": -77.03339616666666, "is_disabled": 0, "lat": 38.93785033333333, "fusion_lat": 0.0, "is_reserved": 0, "rental_uris": {"ios": "https://dc.lft.to/lastmile_qr_scan", "android": "https://dc.lft.to/lastmile_qr_scan"}, "fusion_lon": 0.0, "type": "electric_scooter", "bike_id": "94855f707b421e5822b9e5fa7819f282", "name": "94855f707b421e5822b9e5fa7819f282"}, {"lon": -77.03093616666666, "is_disabled": 0, "lat": 38.919178333333335, "fusion_lat": 0.0, "is_reserved": 0, "rental_uris": {"ios": "https://dc.lft.to/lastmile_qr_scan", "android": "https://dc.lft.to/lastmile_qr_scan"}, "fusion_lon": 0.0, "type": "electric_scooter", "bike_id": "9bf1db5ecea70641a94b3bd1bea7640a", "name": "9bf1db5ecea70641a94b3bd1bea7640a"}, {"lon": -77.0155215, "is_disabled": 0, "lat": 38.90262283333333, "fusion_lat": 0.0, "is_reserved": 0, "rental_uris": {"ios": "https://dc.lft.to/lastmile_qr_scan", "android": "https://dc.lft.to/lastmile_qr_scan"}, "fusion_lon": 0.0, "type": "electric_scooter", "bike_id": "fedf4c34f88a2266194d49e8ca890fd8", "name": "fedf4c34f88a2266194d49e8ca890fd8"}, {"lon": -77.044919, "is_disabled": 0, "lat": 38.90864666666667, "fusion_lat": 0.0, "is_reserved": 0, "rental_uris": {"ios": "https://dc.lft.to/lastmile_qr_scan", "android": "https://dc.lft.to/lastmile_qr_scan"}, "fusion_lon": 0.0, "type": "electric_scooter", "bike_id": "150b19a24eff97e28674a95996e6c9d4", "name": "150b19a24eff97e28674a95996e6c9d4"}, {"lon": -76.9737605, "is_disabled": 0, "lat": 38.90420616666667, "fusion_lat": 0.0, "is_reserved": 0, "rental_uris": {"ios": "https://dc.lft.to/lastmile_qr_scan", "android": "https://dc.lft.to/lastmile_qr_scan"}, "fusion_lon": 0.0, "type": "electric_scooter", "bike_id": "d58e6790d2993fe67c177f01580e4f94", "name": "d58e6790d2993fe67c177f01580e4f94"}, {"lon": -77.120721, "is_disabled": 0, "lat": 38.854179, "fusion_lat": 0.0, "is_reserved": 0, "rental_uris": {"ios": "https://dc.lft.to/lastmile_qr_scan", "android": "https://dc.lft.to/lastmile_qr_scan"}, "fusion_lon": 0.0, "type": "electric_bike", "bike_id": "c7509e12f6e2265af22ced8fead04032", "name": "c7509e12f6e2265af22ced8fead04032"}, {"lon": -76.975355, "is_disabled": 0, "lat": 38.899536, "fusion_lat": 0.0, "is_reserved": 0, "rental_uris": {"ios": "https://dc.lft.to/lastmile_qr_scan", "android": "https://dc.lft.to/lastmile_qr_scan"}, "fusion_lon": 0.0, "type": "electric_scooter", "bike_id": "834f8ac0179954e95b765c3be5d94424", "name": "834f8ac0179954e95b765c3be5d94424"}, {"lon": -77.01208183333334, "is_disabled": 0, "lat": 38.92120383333334, "fusion_lat": 0.0, "is_reserved": 0, "rental_uris": {"ios": "https://dc.lft.to/lastmile_qr_scan", "android": "https://dc.lft.to/lastmile_qr_scan"}, "fusion_lon": 0.0, "type": "electric_scooter", "bike_id": "f62a7910964cdca1c356589e1ea55471", "name": "f62a7910964cdca1c356589e1ea55471"}, {"lon": -76.98770816666666, "is_disabled": 0, "lat": 38.8577505, "fusion_lat": 0.0, "is_reserved": 0, "rental_uris": {"ios": "https://dc.lft.to/lastmile_qr_scan", "android": "https://dc.lft.to/lastmile_qr_scan"}, "fusion_lon": 0.0, "type": "electric_bike", "bike_id": "a9982707cebb1142046d007ea12e2684", "name": "a9982707cebb1142046d007ea12e2684"}, {"lon": -77.02961933333333, "is_disabled": 0, "lat": 38.9167175, "fusion_lat": 0.0, "is_reserved": 0, "rental_uris": {"ios": "https://dc.lft.to/lastmile_qr_scan", "android": "https://dc.lft.to/lastmile_qr_scan"}, "fusion_lon": 0.0, "type": "electric_scooter", "bike_id": "3579cb8591f51cad1014cd13146964e5", "name": "3579cb8591f51cad1014cd13146964e5"}, {"lon": -76.98889683333333, "is_disabled": 0, "lat": 38.86655316666667, "fusion_lat": 0.0, "is_reserved": 0, "rental_uris": {"ios": "https://dc.lft.to/lastmile_qr_scan", "android": "https://dc.lft.to/lastmile_qr_scan"}, "fusion_lon": 0.0, "type": "electric_scooter", "bike_id": "e04211bd7b1bf0df33998eb578358ec2", "name": "e04211bd7b1bf0df33998eb578358ec2"}, {"lon": -77.03235266666667, "is_disabled": 0, "lat": 38.9111565, "fusion_lat": 0.0, "is_reserved": 0, "rental_uris": {"ios": "https://dc.lft.to/lastmile_qr_scan", "android": "https://dc.lft.to/lastmile_qr_scan"}, "fusion_lon": 0.0, "type": "electric_scooter", "bike_id": "6f4603895902c6970e494e5a93eca565", "name": "6f4603895902c6970e494e5a93eca565"}, {"lon": -77.0263995, "is_disabled": 0, "lat": 38.936517333333335, "fusion_lat": 0.0, "is_reserved": 0, "rental_uris": {"ios": "https://dc.lft.to/lastmile_qr_scan", "android": "https://dc.lft.to/lastmile_qr_scan"}, "fusion_lon": 0.0, "type": "electric_scooter", "bike_id": "1e8c6aa82e115971cfaa8e4111d89a0a", "name": "1e8c6aa82e115971cfaa8e4111d89a0a"}, {"lon": -77.0865845, "is_disabled": 0, "lat": 38.86244216666667, "fusion_lat": 0.0, "is_reserved": 0, "rental_uris": {"ios": "https://dc.lft.to/lastmile_qr_scan", "android": "https://dc.lft.to/lastmile_qr_scan"}, "fusion_lon": 0.0, "type": "electric_bike", "bike_id": "2d39aabf97f8c21f7f2e8b6f697e2bb7", "name": "2d39aabf97f8c21f7f2e8b6f697e2bb7"}, {"lon": -77.04877766666667, "is_disabled": 0, "lat": 38.905213, "fusion_lat": 0.0, "is_reserved": 0, "rental_uris": {"ios": "https://dc.lft.to/lastmile_qr_scan", "android": "https://dc.lft.to/lastmile_qr_scan"}, "fusion_lon": 0.0, "type": "electric_scooter", "bike_id": "6d216d1b9eaed27771b8f397c414cffe", "name": "6d216d1b9eaed27771b8f397c414cffe"}, {"lon": -76.997963, "is_disabled": 0, "lat": 38.95089483333334, "fusion_lat": 0.0, "is_reserved": 0, "rental_uris": {"ios": "https://dc.lft.to/lastmile_qr_scan", "android": "https://dc.lft.to/lastmile_qr_scan"}, "fusion_lon": 0.0, "type": "electric_bike", "bike_id": "2aceb99f3df8ee5a988ebcdc84593c4d", "name": "2aceb99f3df8ee5a988ebcdc84593c4d"}, {"lon": -77.02272683333334, "is_disabled": 0, "lat": 38.927019, "fusion_lat": 0.0, "is_reserved": 0, "rental_uris": {"ios": "https://dc.lft.to/lastmile_qr_scan", "android": "https://dc.lft.to/lastmile_qr_scan"}, "fusion_lon": 0.0, "type": "electric_scooter", "bike_id": "9cf0b8bc614417a2ec2eeb929eabe78e", "name": "9cf0b8bc614417a2ec2eeb929eabe78e"}, {"lon": -77.05483683333334, "is_disabled": 0, "lat": 38.80019083333333, "fusion_lat": 0.0, "is_reserved": 0, "rental_uris": {"ios": "https://dc.lft.to/lastmile_qr_scan", "android": "https://dc.lft.to/lastmile_qr_scan"}, "fusion_lon": 0.0, "type": "electric_bike", "bike_id": "1cc364fc45ce7164fb47cf5d10294a96", "name": "1cc364fc45ce7164fb47cf5d10294a96"}, {"lon": -76.957561, "is_disabled": 0, "lat": 38.88432133333333, "fusion_lat": 0.0, "is_reserved": 0, "rental_uris": {"ios": "https://dc.lft.to/lastmile_qr_scan", "android": "https://dc.lft.to/lastmile_qr_scan"}, "fusion_lon": 0.0, "type": "electric_scooter", "bike_id": "136429a498ce74641ec6e8aaff0f3ca9", "name": "136429a498ce74641ec6e8aaff0f3ca9"}, {"lon": -77.024544, "is_disabled": 0, "lat": 38.8999375, "fusion_lat": 0.0, "is_reserved": 0, "rental_uris": {"ios": "https://dc.lft.to/lastmile_qr_scan", "android": "https://dc.lft.to/lastmile_qr_scan"}, "fusion_lon": 0.0, "type": "electric_scooter", "bike_id": "8a94038379a3ddf00d5b6747d5bed02b", "name": "8a94038379a3ddf00d5b6747d5bed02b"}, {"lon": -77.0220925, "is_disabled": 0, "lat": 38.902044, "fusion_lat": 0.0, "is_reserved": 0, "rental_uris": {"ios": "https://dc.lft.to/lastmile_qr_scan", "android": "https://dc.lft.to/lastmile_qr_scan"}, "fusion_lon": 0.0, "type": "electric_scooter", "bike_id": "23cfd6b5f20392b90de12d58f1184b8e", "name": "23cfd6b5f20392b90de12d58f1184b8e"}, {"lon": -77.00337933333333, "is_disabled": 0, "lat": 38.8951005, "fusion_lat": 0.0, "is_reserved": 0, "rental_uris": {"ios": "https://dc.lft.to/lastmile_qr_scan", "android": "https://dc.lft.to/lastmile_qr_scan"}, "fusion_lon": 0.0, "type": "electric_scooter", "bike_id": "a84990b20ab266714a4b6d335687776e", "name": "a84990b20ab266714a4b6d335687776e"}, {"lon": -77.03055233333333, "is_disabled": 0, "lat": 38.923706333333335, "fusion_lat": 0.0, "is_reserved": 0, "rental_uris": {"ios": "https://dc.lft.to/lastmile_qr_scan", "android": "https://dc.lft.to/lastmile_qr_scan"}, "fusion_lon": 0.0, "type": "electric_scooter", "bike_id": "54785ec6907ffe0389c4ac68aa89d014", "name": "54785ec6907ffe0389c4ac68aa89d014"}, {"lon": -77.027211, "is_disabled": 0, "lat": 38.9175705, "fusion_lat": 0.0, "is_reserved": 0, "rental_uris": {"ios": "https://dc.lft.to/lastmile_qr_scan", "android": "https://dc.lft.to/lastmile_qr_scan"}, "fusion_lon": 0.0, "type": "electric_scooter", "bike_id": "2ec27b6069b00a8c6b4d2facf06de912", "name": "2ec27b6069b00a8c6b4d2facf06de912"}, {"lon": -77.0088605, "is_disabled": 0, "lat": 38.925107, "fusion_lat": 0.0, "is_reserved": 0, "rental_uris": {"ios": "https://dc.lft.to/lastmile_qr_scan", "android": "https://dc.lft.to/lastmile_qr_scan"}, "fusion_lon": 0.0, "type": "electric_scooter", "bike_id": "034fc864885b26e0802788d5bd7b87ba", "name": "034fc864885b26e0802788d5bd7b87ba"}, {"lon": -77.03649966666667, "is_disabled": 0, "lat": 38.93603516666667, "fusion_lat": 0.0, "is_reserved": 0, "rental_uris": {"ios": "https://dc.lft.to/lastmile_qr_scan", "android": "https://dc.lft.to/lastmile_qr_scan"}, "fusion_lon": 0.0, "type": "electric_scooter", "bike_id": "384d5dce05b9a7ccd060723f45bf44cc", "name": "384d5dce05b9a7ccd060723f45bf44cc"}, {"lon": -77.05135616666666, "is_disabled": 0, "lat": 38.898128, "fusion_lat": 0.0, "is_reserved": 0, "rental_uris": {"ios": "https://dc.lft.to/lastmile_qr_scan", "android": "https://dc.lft.to/lastmile_qr_scan"}, "fusion_lon": 0.0, "type": "electric_scooter", "bike_id": "43e1874c236192e106b36c94f85e380a", "name": "43e1874c236192e106b36c94f85e380a"}, {"lon": -76.9669085, "is_disabled": 0, "lat": 38.938001, "fusion_lat": 0.0, "is_reserved": 0, "rental_uris": {"ios": "https://dc.lft.to/lastmile_qr_scan", "android": "https://dc.lft.to/lastmile_qr_scan"}, "fusion_lon": 0.0, "type": "electric_bike", "bike_id": "cef7cc56469820aac1e03d8f58596f19", "name": "cef7cc56469820aac1e03d8f58596f19"}, {"lon": -77.02484683333333, "is_disabled": 0, "lat": 38.9387875, "fusion_lat": 0.0, "is_reserved": 0, "rental_uris": {"ios": "https://dc.lft.to/lastmile_qr_scan", "android": "https://dc.lft.to/lastmile_qr_scan"}, "fusion_lon": 0.0, "type": "electric_scooter", "bike_id": "4d3c6be51951b070c00a9f82785fc22b", "name": "4d3c6be51951b070c00a9f82785fc22b"}, {"lon": -77.07896483333333, "is_disabled": 0, "lat": 38.839307, "fusion_lat": 0.0, "is_reserved": 0, "rental_uris": {"ios": "https://dc.lft.to/lastmile_qr_scan", "android": "https://dc.lft.to/lastmile_qr_scan"}, "fusion_lon": 0.0, "type": "electric_bike", "bike_id": "b18930324bd808486c1fe00418857abf", "name": "b18930324bd808486c1fe00418857abf"}, {"lon": -77.01082633333333, "is_disabled": 0, "lat": 38.917489, "fusion_lat": 0.0, "is_reserved": 0, "rental_uris": {"ios": "https://dc.lft.to/lastmile_qr_scan", "android": "https://dc.lft.to/lastmile_qr_scan"}, "fusion_lon": 0.0, "type": "electric_scooter", "bike_id": "2cca7b4c73b0d14692396478720233d1", "name": "2cca7b4c73b0d14692396478720233d1"}, {"lon": -77.03449166666667, "is_disabled": 0, "lat": 38.907352333333336, "fusion_lat": 0.0, "is_reserved": 0, "rental_uris": {"ios": "https://dc.lft.to/lastmile_qr_scan", "android": "https://dc.lft.to/lastmile_qr_scan"}, "fusion_lon": 0.0, "type": "electric_scooter", "bike_id": "bb5fa79ecf6dee30f2a26c53a332a65b", "name": "bb5fa79ecf6dee30f2a26c53a332a65b"}, {"lon": -77.030424, "is_disabled": 0, "lat": 38.897375833333335, "fusion_lat": 0.0, "is_reserved": 0, "rental_uris": {"ios": "https://dc.lft.to/lastmile_qr_scan", "android": "https://dc.lft.to/lastmile_qr_scan"}, "fusion_lon": 0.0, "type": "electric_scooter", "bike_id": "dfa9da316c1f7bffd2c1c719852c9a18", "name": "dfa9da316c1f7bffd2c1c719852c9a18"}, {"lon": -77.02391116666666, "is_disabled": 0, "lat": 38.917646833333336, "fusion_lat": 0.0, "is_reserved": 0, "rental_uris": {"ios": "https://dc.lft.to/lastmile_qr_scan", "android": "https://dc.lft.to/lastmile_qr_scan"}, "fusion_lon": 0.0, "type": "electric_scooter", "bike_id": "1e1baf598c13d7e3e39278fbe2ad229e", "name": "1e1baf598c13d7e3e39278fbe2ad229e"}, {"lon": -76.998681, "is_disabled": 0, "lat": 38.9101045, "fusion_lat": 0.0, "is_reserved": 0, "rental_uris": {"ios": "https://dc.lft.to/lastmile_qr_scan", "android": "https://dc.lft.to/lastmile_qr_scan"}, "fusion_lon": 0.0, "type": "electric_scooter", "bike_id": "4b67389a5a7af7a95c6b3276f8fbf2c8", "name": "4b67389a5a7af7a95c6b3276f8fbf2c8"}, {"lon": -77.083493, "is_disabled": 0, "lat": 38.929568833333335, "fusion_lat": 0.0, "is_reserved": 0, "rental_uris": {"ios": "https://dc.lft.to/lastmile_qr_scan", "android": "https://dc.lft.to/lastmile_qr_scan"}, "fusion_lon": 0.0, "type": "electric_scooter", "bike_id": "ea76d28c2d8d6c788389e5e743e599b5", "name": "ea76d28c2d8d6c788389e5e743e599b5"}, {"lon": -77.02483733333334, "is_disabled": 0, "lat": 38.91877733333333, "fusion_lat": 0.0, "is_reserved": 0, "rental_uris": {"ios": "https://dc.lft.to/lastmile_qr_scan", "android": "https://dc.lft.to/lastmile_qr_scan"}, "fusion_lon": 0.0, "type": "electric_scooter", "bike_id": "93f3f77a71bd671c63a798fc184e1445", "name": "93f3f77a71bd671c63a798fc184e1445"}, {"lon": -77.03454933333333, "is_disabled": 0, "lat": 38.90723533333333, "fusion_lat": 0.0, "is_reserved": 0, "rental_uris": {"ios": "https://dc.lft.to/lastmile_qr_scan", "android": "https://dc.lft.to/lastmile_qr_scan"}, "fusion_lon": 0.0, "type": "electric_scooter", "bike_id": "2edefc6f79eedec80216198ce3fcf415", "name": "2edefc6f79eedec80216198ce3fcf415"}, {"lon": -77.02386216666666, "is_disabled": 0, "lat": 38.912880333333334, "fusion_lat": 0.0, "is_reserved": 0, "rental_uris": {"ios": "https://dc.lft.to/lastmile_qr_scan", "android": "https://dc.lft.to/lastmile_qr_scan"}, "fusion_lon": 0.0, "type": "electric_scooter", "bike_id": "a05f958b13a209a86266e8b57d4817dc", "name": "a05f958b13a209a86266e8b57d4817dc"}, {"lon": -77.0317975, "is_disabled": 0, "lat": 38.90880416666667, "fusion_lat": 0.0, "is_reserved": 0, "rental_uris": {"ios": "https://dc.lft.to/lastmile_qr_scan", "android": "https://dc.lft.to/lastmile_qr_scan"}, "fusion_lon": 0.0, "type": "electric_scooter", "bike_id": "843f0bf539e288f8d7202fb6bf4bdda2", "name": "843f0bf539e288f8d7202fb6bf4bdda2"}, {"lon": -76.99842733333334, "is_disabled": 0, "lat": 38.900458666666665, "fusion_lat": 0.0, "is_reserved": 0, "rental_uris": {"ios": "https://dc.lft.to/lastmile_qr_scan", "android": "https://dc.lft.to/lastmile_qr_scan"}, "fusion_lon": 0.0, "type": "electric_scooter", "bike_id": "f5fdf8c135043d7df78450b7a2dd31f7", "name": "f5fdf8c135043d7df78450b7a2dd31f7"}, {"lon": -77.00436116666667, "is_disabled": 0, "lat": 38.99011183333333, "fusion_lat": 0.0, "is_reserved": 0, "rental_uris": {"ios": "https://dc.lft.to/lastmile_qr_scan", "android": "https://dc.lft.to/lastmile_qr_scan"}, "fusion_lon": 0.0, "type": "electric_bike", "bike_id": "161d80d4adee2a5247d45d6d5e810916", "name": "161d80d4adee2a5247d45d6d5e810916"}, {"lon": -76.97397333333333, "is_disabled": 0, "lat": 38.845295666666665, "fusion_lat": 0.0, "is_reserved": 0, "rental_uris": {"ios": "https://dc.lft.to/lastmile_qr_scan", "android": "https://dc.lft.to/lastmile_qr_scan"}, "fusion_lon": 0.0, "type": "electric_bike", "bike_id": "ec8b54315d98c2f8fbed78546ac370b6", "name": "ec8b54315d98c2f8fbed78546ac370b6"}, {"lon": -77.0498805, "is_disabled": 0, "lat": 38.90133566666667, "fusion_lat": 0.0, "is_reserved": 0, "rental_uris": {"ios": "https://dc.lft.to/lastmile_qr_scan", "android": "https://dc.lft.to/lastmile_qr_scan"}, "fusion_lon": 0.0, "type": "electric_scooter", "bike_id": "a9d0cfa82e3cbbf1c8528868e18e06af", "name": "a9d0cfa82e3cbbf1c8528868e18e06af"}, {"lon": -77.00341616666667, "is_disabled": 0, "lat": 38.89223533333333, "fusion_lat": 0.0, "is_reserved": 0, "rental_uris": {"ios": "https://dc.lft.to/lastmile_qr_scan", "android": "https://dc.lft.to/lastmile_qr_scan"}, "fusion_lon": 0.0, "type": "electric_scooter", "bike_id": "a5e9b42d62f3f75ed30f8796a115d3b9", "name": "a5e9b42d62f3f75ed30f8796a115d3b9"}, {"lon": -77.03460783333334, "is_disabled": 0, "lat": 38.917104333333334, "fusion_lat": 0.0, "is_reserved": 0, "rental_uris": {"ios": "https://dc.lft.to/lastmile_qr_scan", "android": "https://dc.lft.to/lastmile_qr_scan"}, "fusion_lon": 0.0, "type": "electric_scooter", "bike_id": "c5e1761a7478d35a44968051a0e429c0", "name": "c5e1761a7478d35a44968051a0e429c0"}, {"lon": -77.03929033333333, "is_disabled": 0, "lat": 38.92190266666667, "fusion_lat": 0.0, "is_reserved": 0, "rental_uris": {"ios": "https://dc.lft.to/lastmile_qr_scan", "android": "https://dc.lft.to/lastmile_qr_scan"}, "fusion_lon": 0.0, "type": "electric_scooter", "bike_id": "937e8ff7cad4a5e2da74d393569f4c00", "name": "937e8ff7cad4a5e2da74d393569f4c00"}, {"lon": -76.97365766666667, "is_disabled": 0, "lat": 38.963194333333334, "fusion_lat": 0.0, "is_reserved": 0, "rental_uris": {"ios": "https://dc.lft.to/lastmile_qr_scan", "android": "https://dc.lft.to/lastmile_qr_scan"}, "fusion_lon": 0.0, "type": "electric_bike", "bike_id": "0c7e83b9e707965bef5367974dcf40ce", "name": "0c7e83b9e707965bef5367974dcf40ce"}, {"lon": -77.0363775, "is_disabled": 0, "lat": 38.908038833333336, "fusion_lat": 0.0, "is_reserved": 0, "rental_uris": {"ios": "https://dc.lft.to/lastmile_qr_scan", "android": "https://dc.lft.to/lastmile_qr_scan"}, "fusion_lon": 0.0, "type": "electric_scooter", "bike_id": "3b6480ef1d55c852d10b4740ffd6ed97", "name": "3b6480ef1d55c852d10b4740ffd6ed97"}, {"lon": -76.93155433333334, "is_disabled": 0, "lat": 38.89928616666667, "fusion_lat": 0.0, "is_reserved": 0, "rental_uris": {"ios": "https://dc.lft.to/lastmile_qr_scan", "android": "https://dc.lft.to/lastmile_qr_scan"}, "fusion_lon": 0.0, "type": "electric_scooter", "bike_id": "54bc8494cd7db5c89087e2d7b564abd3", "name": "54bc8494cd7db5c89087e2d7b564abd3"}, {"lon": -76.952819, "is_disabled": 0, "lat": 38.862391, "fusion_lat": 0.0, "is_reserved": 0, "rental_uris": {"ios": "https://dc.lft.to/lastmile_qr_scan", "android": "https://dc.lft.to/lastmile_qr_scan"}, "fusion_lon": 0.0, "type": "electric_bike", "bike_id": "4ded951ecd88abe423f69a2b83b483ad", "name": "4ded951ecd88abe423f69a2b83b483ad"}, {"lon": -77.0014545, "is_disabled": 0, "lat": 38.8731305, "fusion_lat": 0.0, "is_reserved": 0, "rental_uris": {"ios": "https://dc.lft.to/lastmile_qr_scan", "android": "https://dc.lft.to/lastmile_qr_scan"}, "fusion_lon": 0.0, "type": "electric_scooter", "bike_id": "8636a27a5e650568f6038c223c4fb2f4", "name": "8636a27a5e650568f6038c223c4fb2f4"}, {"lon": -77.09442833333334, "is_disabled": 0, "lat": 38.9448225, "fusion_lat": 0.0, "is_reserved": 0, "rental_uris": {"ios": "https://dc.lft.to/lastmile_qr_scan", "android": "https://dc.lft.to/lastmile_qr_scan"}, "fusion_lon": 0.0, "type": "electric_scooter", "bike_id": "adc74fdbf03e259ad40aa38661eeb4e1", "name": "adc74fdbf03e259ad40aa38661eeb4e1"}, {"lon": -76.97252533333334, "is_disabled": 0, "lat": 38.95746116666667, "fusion_lat": 0.0, "is_reserved": 0, "rental_uris": {"ios": "https://dc.lft.to/lastmile_qr_scan", "android": "https://dc.lft.to/lastmile_qr_scan"}, "fusion_lon": 0.0, "type": "electric_bike", "bike_id": "b6a0c2de4a3c0585586189f43074db10", "name": "b6a0c2de4a3c0585586189f43074db10"}, {"lon": -77.03298066666666, "is_disabled": 0, "lat": 38.92058766666667, "fusion_lat": 0.0, "is_reserved": 0, "rental_uris": {"ios": "https://dc.lft.to/lastmile_qr_scan", "android": "https://dc.lft.to/lastmile_qr_scan"}, "fusion_lon": 0.0, "type": "electric_scooter", "bike_id": "a9bde227d08b48f8cfc78f3270a48fb7", "name": "a9bde227d08b48f8cfc78f3270a48fb7"}, {"lon": -77.0317905, "is_disabled": 0, "lat": 38.92099266666666, "fusion_lat": 0.0, "is_reserved": 0, "rental_uris": {"ios": "https://dc.lft.to/lastmile_qr_scan", "android": "https://dc.lft.to/lastmile_qr_scan"}, "fusion_lon": 0.0, "type": "electric_scooter", "bike_id": "43a88ab343680b098fcc7a9780475e7b", "name": "43a88ab343680b098fcc7a9780475e7b"}, {"lon": -77.02309983333333, "is_disabled": 0, "lat": 38.95528016666667, "fusion_lat": 0.0, "is_reserved": 0, "rental_uris": {"ios": "https://dc.lft.to/lastmile_qr_scan", "android": "https://dc.lft.to/lastmile_qr_scan"}, "fusion_lon": 0.0, "type": "electric_scooter", "bike_id": "cc5bcc1b25e420dfc4170b3e040faa46", "name": "cc5bcc1b25e420dfc4170b3e040faa46"}, {"lon": -77.01074966666667, "is_disabled": 0, "lat": 38.90957733333333, "fusion_lat": 0.0, "is_reserved": 0, "rental_uris": {"ios": "https://dc.lft.to/lastmile_qr_scan", "android": "https://dc.lft.to/lastmile_qr_scan"}, "fusion_lon": 0.0, "type": "electric_scooter", "bike_id": "207423c3bece1ee2187d557ce2982005", "name": "207423c3bece1ee2187d557ce2982005"}, {"lon": -77.070279, "is_disabled": 0, "lat": 38.905295333333335, "fusion_lat": 0.0, "is_reserved": 0, "rental_uris": {"ios": "https://dc.lft.to/lastmile_qr_scan", "android": "https://dc.lft.to/lastmile_qr_scan"}, "fusion_lon": 0.0, "type": "electric_scooter", "bike_id": "93a23afefc40c6d75e6e9319910f5153", "name": "93a23afefc40c6d75e6e9319910f5153"}, {"lon": -77.022524, "is_disabled": 0, "lat": 38.878962, "fusion_lat": 0.0, "is_reserved": 0, "rental_uris": {"ios": "https://dc.lft.to/lastmile_qr_scan", "android": "https://dc.lft.to/lastmile_qr_scan"}, "fusion_lon": 0.0, "type": "electric_scooter", "bike_id": "4f3364da63005d98ce8294e53494291c", "name": "4f3364da63005d98ce8294e53494291c"}, {"lon": -77.02589816666666, "is_disabled": 0, "lat": 38.94210366666667, "fusion_lat": 0.0, "is_reserved": 0, "rental_uris": {"ios": "https://dc.lft.to/lastmile_qr_scan", "android": "https://dc.lft.to/lastmile_qr_scan"}, "fusion_lon": 0.0, "type": "electric_scooter", "bike_id": "de7866c5da18076556ca487a9c27c7a8", "name": "de7866c5da18076556ca487a9c27c7a8"}, {"lon": -76.996966, "is_disabled": 0, "lat": 38.90794433333333, "fusion_lat": 0.0, "is_reserved": 0, "rental_uris": {"ios": "https://dc.lft.to/lastmile_qr_scan", "android": "https://dc.lft.to/lastmile_qr_scan"}, "fusion_lon": 0.0, "type": "electric_scooter", "bike_id": "744bbd65699b65eee8af0bdf3d926621", "name": "744bbd65699b65eee8af0bdf3d926621"}, {"lon": -77.03727266666667, "is_disabled": 0, "lat": 38.92658516666667, "fusion_lat": 0.0, "is_reserved": 0, "rental_uris": {"ios": "https://dc.lft.to/lastmile_qr_scan", "android": "https://dc.lft.to/lastmile_qr_scan"}, "fusion_lon": 0.0, "type": "electric_scooter", "bike_id": "d2728ad90ae61352d8b2f9406559e6fa", "name": "d2728ad90ae61352d8b2f9406559e6fa"}, {"lon": -76.965282, "is_disabled": 0, "lat": 38.87624483333333, "fusion_lat": 0.0, "is_reserved": 0, "rental_uris": {"ios": "https://dc.lft.to/lastmile_qr_scan", "android": "https://dc.lft.to/lastmile_qr_scan"}, "fusion_lon": 0.0, "type": "electric_scooter", "bike_id": "ae3a7eccd5be22301dbc7c791db21b0d", "name": "ae3a7eccd5be22301dbc7c791db21b0d"}, {"lon": -77.00814433333333, "is_disabled": 0, "lat": 38.8766915, "fusion_lat": 0.0, "is_reserved": 0, "rental_uris": {"ios": "https://dc.lft.to/lastmile_qr_scan", "android": "https://dc.lft.to/lastmile_qr_scan"}, "fusion_lon": 0.0, "type": "electric_scooter", "bike_id": "e12b76b23325a74f86bcd671afd5acc8", "name": "e12b76b23325a74f86bcd671afd5acc8"}, {"lon": -77.010196, "is_disabled": 0, "lat": 38.95619533333333, "fusion_lat": 0.0, "is_reserved": 0, "rental_uris": {"ios": "https://dc.lft.to/lastmile_qr_scan", "android": "https://dc.lft.to/lastmile_qr_scan"}, "fusion_lon": 0.0, "type": "electric_scooter", "bike_id": "c9083fd0e1f6697a13fd02d1f92169be", "name": "c9083fd0e1f6697a13fd02d1f92169be"}, {"lon": -77.05325233333333, "is_disabled": 0, "lat": 38.910516333333334, "fusion_lat": 0.0, "is_reserved": 0, "rental_uris": {"ios": "https://dc.lft.to/lastmile_qr_scan", "android": "https://dc.lft.to/lastmile_qr_scan"}, "fusion_lon": 0.0, "type": "electric_scooter", "bike_id": "0b9172f8eaf8fbc494472d613f371fee", "name": "0b9172f8eaf8fbc494472d613f371fee"}, {"lon": -77.04170166666667, "is_disabled": 0, "lat": 38.901552833333334, "fusion_lat": 0.0, "is_reserved": 0, "rental_uris": {"ios": "https://dc.lft.to/lastmile_qr_scan", "android": "https://dc.lft.to/lastmile_qr_scan"}, "fusion_lon": 0.0, "type": "electric_scooter", "bike_id": "e78eff122da95455d5892f21a9404f3f", "name": "e78eff122da95455d5892f21a9404f3f"}, {"lon": -77.01677116666667, "is_disabled": 0, "lat": 38.900272333333334, "fusion_lat": 0.0, "is_reserved": 0, "rental_uris": {"ios": "https://dc.lft.to/lastmile_qr_scan", "android": "https://dc.lft.to/lastmile_qr_scan"}, "fusion_lon": 0.0, "type": "electric_scooter", "bike_id": "72286fd539cea1e063c789d502c26a75", "name": "72286fd539cea1e063c789d502c26a75"}, {"lon": -77.022222, "is_disabled": 0, "lat": 38.92070066666667, "fusion_lat": 0.0, "is_reserved": 0, "rental_uris": {"ios": "https://dc.lft.to/lastmile_qr_scan", "android": "https://dc.lft.to/lastmile_qr_scan"}, "fusion_lon": 0.0, "type": "electric_scooter", "bike_id": "93f748cf43869a5262b9a1f3e851870c", "name": "93f748cf43869a5262b9a1f3e851870c"}, {"lon": -77.01915683333333, "is_disabled": 0, "lat": 38.91728966666667, "fusion_lat": 0.0, "is_reserved": 0, "rental_uris": {"ios": "https://dc.lft.to/lastmile_qr_scan", "android": "https://dc.lft.to/lastmile_qr_scan"}, "fusion_lon": 0.0, "type": "electric_scooter", "bike_id": "70490be5458c674e4b7f0ee3b0c63958", "name": "70490be5458c674e4b7f0ee3b0c63958"}, {"lon": -77.0356595, "is_disabled": 0, "lat": 38.903841166666666, "fusion_lat": 0.0, "is_reserved": 0, "rental_uris": {"ios": "https://dc.lft.to/lastmile_qr_scan", "android": "https://dc.lft.to/lastmile_qr_scan"}, "fusion_lon": 0.0, "type": "electric_scooter", "bike_id": "c038632f3edc047f338beb22ade1df7e", "name": "c038632f3edc047f338beb22ade1df7e"}, {"lon": -77.028, "is_disabled": 0, "lat": 38.89977483333333, "fusion_lat": 0.0, "is_reserved": 0, "rental_uris": {"ios": "https://dc.lft.to/lastmile_qr_scan", "android": "https://dc.lft.to/lastmile_qr_scan"}, "fusion_lon": 0.0, "type": "electric_scooter", "bike_id": "eff80b0e289d15c052213cffcb26ae30", "name": "eff80b0e289d15c052213cffcb26ae30"}, {"lon": -77.04153683333334, "is_disabled": 0, "lat": 38.916106166666665, "fusion_lat": 0.0, "is_reserved": 0, "rental_uris": {"ios": "https://dc.lft.to/lastmile_qr_scan", "android": "https://dc.lft.to/lastmile_qr_scan"}, "fusion_lon": 0.0, "type": "electric_scooter", "bike_id": "57f0ea290b85501a47e2ec88080c5e05", "name": "57f0ea290b85501a47e2ec88080c5e05"}, {"lon": -77.01221566666666, "is_disabled": 0, "lat": 38.8747575, "fusion_lat": 0.0, "is_reserved": 0, "rental_uris": {"ios": "https://dc.lft.to/lastmile_qr_scan", "android": "https://dc.lft.to/lastmile_qr_scan"}, "fusion_lon": 0.0, "type": "electric_scooter", "bike_id": "ddd1605397b6176725f57c9957633812", "name": "ddd1605397b6176725f57c9957633812"}, {"lon": -77.04275066666666, "is_disabled": 0, "lat": 38.925484166666664, "fusion_lat": 0.0, "is_reserved": 0, "rental_uris": {"ios": "https://dc.lft.to/lastmile_qr_scan", "android": "https://dc.lft.to/lastmile_qr_scan"}, "fusion_lon": 0.0, "type": "electric_scooter", "bike_id": "2eee2b92103caaf2ef8cab4ecb27dae4", "name": "2eee2b92103caaf2ef8cab4ecb27dae4"}, {"lon": -77.036386, "is_disabled": 0, "lat": 38.9241155, "fusion_lat": 0.0, "is_reserved": 0, "rental_uris": {"ios": "https://dc.lft.to/lastmile_qr_scan", "android": "https://dc.lft.to/lastmile_qr_scan"}, "fusion_lon": 0.0, "type": "electric_scooter", "bike_id": "56e369983bfc931a07447fb5e64e725f", "name": "56e369983bfc931a07447fb5e64e725f"}, {"lon": -77.00279016666667, "is_disabled": 0, "lat": 38.91912283333333, "fusion_lat": 0.0, "is_reserved": 0, "rental_uris": {"ios": "https://dc.lft.to/lastmile_qr_scan", "android": "https://dc.lft.to/lastmile_qr_scan"}, "fusion_lon": 0.0, "type": "electric_scooter", "bike_id": "c5abb8ae483dfae6f7bcc6c97e0bd924", "name": "c5abb8ae483dfae6f7bcc6c97e0bd924"}, {"lon": -77.04495966666667, "is_disabled": 0, "lat": 38.9085515, "fusion_lat": 0.0, "is_reserved": 0, "rental_uris": {"ios": "https://dc.lft.to/lastmile_qr_scan", "android": "https://dc.lft.to/lastmile_qr_scan"}, "fusion_lon": 0.0, "type": "electric_scooter", "bike_id": "d1f13604920b567095b01466c5816aef", "name": "d1f13604920b567095b01466c5816aef"}, {"lon": -77.02396783333333, "is_disabled": 0, "lat": 38.9155145, "fusion_lat": 0.0, "is_reserved": 0, "rental_uris": {"ios": "https://dc.lft.to/lastmile_qr_scan", "android": "https://dc.lft.to/lastmile_qr_scan"}, "fusion_lon": 0.0, "type": "electric_scooter", "bike_id": "ef7a51703811b1fbf9ca292533b3616c", "name": "ef7a51703811b1fbf9ca292533b3616c"}, {"lon": -76.977091, "is_disabled": 0, "lat": 38.88523633333333, "fusion_lat": 0.0, "is_reserved": 0, "rental_uris": {"ios": "https://dc.lft.to/lastmile_qr_scan", "android": "https://dc.lft.to/lastmile_qr_scan"}, "fusion_lon": 0.0, "type": "electric_scooter", "bike_id": "5ccdc4b650734b0471f641a120d6091f", "name": "5ccdc4b650734b0471f641a120d6091f"}, {"lon": -77.04541616666667, "is_disabled": 0, "lat": 38.913295, "fusion_lat": 0.0, "is_reserved": 0, "rental_uris": {"ios": "https://dc.lft.to/lastmile_qr_scan", "android": "https://dc.lft.to/lastmile_qr_scan"}, "fusion_lon": 0.0, "type": "electric_scooter", "bike_id": "ba7cc1b0d100a7d06e29b09742700baf", "name": "ba7cc1b0d100a7d06e29b09742700baf"}, {"lon": -77.04157416666666, "is_disabled": 0, "lat": 38.91861133333333, "fusion_lat": 0.0, "is_reserved": 0, "rental_uris": {"ios": "https://dc.lft.to/lastmile_qr_scan", "android": "https://dc.lft.to/lastmile_qr_scan"}, "fusion_lon": 0.0, "type": "electric_scooter", "bike_id": "0b07bda40358bf1c7555a2fdd8cab907", "name": "0b07bda40358bf1c7555a2fdd8cab907"}, {"lon": -76.987156, "is_disabled": 0, "lat": 38.86626016666666, "fusion_lat": 0.0, "is_reserved": 0, "rental_uris": {"ios": "https://dc.lft.to/lastmile_qr_scan", "android": "https://dc.lft.to/lastmile_qr_scan"}, "fusion_lon": 0.0, "type": "electric_scooter", "bike_id": "2a029006a467f860113dac208f286cf1", "name": "2a029006a467f860113dac208f286cf1"}, {"lon": -77.02719483333334, "is_disabled": 0, "lat": 38.91674883333334, "fusion_lat": 0.0, "is_reserved": 0, "rental_uris": {"ios": "https://dc.lft.to/lastmile_qr_scan", "android": "https://dc.lft.to/lastmile_qr_scan"}, "fusion_lon": 0.0, "type": "electric_scooter", "bike_id": "47e870ee6153593c09bbca37d926582e", "name": "47e870ee6153593c09bbca37d926582e"}, {"lon": -77.0386555, "is_disabled": 0, "lat": 38.9169255, "fusion_lat": 0.0, "is_reserved": 0, "rental_uris": {"ios": "https://dc.lft.to/lastmile_qr_scan", "android": "https://dc.lft.to/lastmile_qr_scan"}, "fusion_lon": 0.0, "type": "electric_scooter", "bike_id": "84f3a4166a64008cb19d6ea10e476843", "name": "84f3a4166a64008cb19d6ea10e476843"}, {"lon": -77.01416033333334, "is_disabled": 0, "lat": 38.928209833333334, "fusion_lat": 0.0, "is_reserved": 0, "rental_uris": {"ios": "https://dc.lft.to/lastmile_qr_scan", "android": "https://dc.lft.to/lastmile_qr_scan"}, "fusion_lon": 0.0, "type": "electric_scooter", "bike_id": "ddd327bf2a20ca8f3b62c55e290db098", "name": "ddd327bf2a20ca8f3b62c55e290db098"}, {"lon": -77.03796733333333, "is_disabled": 0, "lat": 38.90257416666667, "fusion_lat": 0.0, "is_reserved": 0, "rental_uris": {"ios": "https://dc.lft.to/lastmile_qr_scan", "android": "https://dc.lft.to/lastmile_qr_scan"}, "fusion_lon": 0.0, "type": "electric_scooter", "bike_id": "e4bdf4ba7143285dfecb3ed5ae5eab5d", "name": "e4bdf4ba7143285dfecb3ed5ae5eab5d"}, {"lon": -77.0386415, "is_disabled": 0, "lat": 38.912593333333334, "fusion_lat": 0.0, "is_reserved": 0, "rental_uris": {"ios": "https://dc.lft.to/lastmile_qr_scan", "android": "https://dc.lft.to/lastmile_qr_scan"}, "fusion_lon": 0.0, "type": "electric_scooter", "bike_id": "cba1f11d1757534ca7d87615c33a09f9", "name": "cba1f11d1757534ca7d87615c33a09f9"}, {"lon": -77.012245, "is_disabled": 0, "lat": 38.897794166666664, "fusion_lat": 0.0, "is_reserved": 0, "rental_uris": {"ios": "https://dc.lft.to/lastmile_qr_scan", "android": "https://dc.lft.to/lastmile_qr_scan"}, "fusion_lon": 0.0, "type": "electric_scooter", "bike_id": "0ac1268fc29d39261eaecc39c76a3211", "name": "0ac1268fc29d39261eaecc39c76a3211"}, {"lon": -77.004252, "is_disabled": 0, "lat": 38.91173416666667, "fusion_lat": 0.0, "is_reserved": 0, "rental_uris": {"ios": "https://dc.lft.to/lastmile_qr_scan", "android": "https://dc.lft.to/lastmile_qr_scan"}, "fusion_lon": 0.0, "type": "electric_scooter", "bike_id": "0c46a8a84428fc99c2229f0781a8fd0e", "name": "0c46a8a84428fc99c2229f0781a8fd0e"}, {"lon": -77.02668083333333, "is_disabled": 0, "lat": 38.97204333333333, "fusion_lat": 0.0, "is_reserved": 0, "rental_uris": {"ios": "https://dc.lft.to/lastmile_qr_scan", "android": "https://dc.lft.to/lastmile_qr_scan"}, "fusion_lon": 0.0, "type": "electric_scooter", "bike_id": "41ff31bec8e259dfabb0b321dca23d6d", "name": "41ff31bec8e259dfabb0b321dca23d6d"}, {"lon": -77.028138, "is_disabled": 0, "lat": 38.901128666666665, "fusion_lat": 0.0, "is_reserved": 0, "rental_uris": {"ios": "https://dc.lft.to/lastmile_qr_scan", "android": "https://dc.lft.to/lastmile_qr_scan"}, "fusion_lon": 0.0, "type": "electric_scooter", "bike_id": "ef384525caa7775b25e79e957653f4cb", "name": "ef384525caa7775b25e79e957653f4cb"}, {"lon": -77.006459, "is_disabled": 0, "lat": 38.915537, "fusion_lat": 0.0, "is_reserved": 0, "rental_uris": {"ios": "https://dc.lft.to/lastmile_qr_scan", "android": "https://dc.lft.to/lastmile_qr_scan"}, "fusion_lon": 0.0, "type": "electric_scooter", "bike_id": "5d50c5529c68089d5cb7b753ffe2c60e", "name": "5d50c5529c68089d5cb7b753ffe2c60e"}, {"lon": -77.02478, "is_disabled": 0, "lat": 38.88439833333333, "fusion_lat": 0.0, "is_reserved": 0, "rental_uris": {"ios": "https://dc.lft.to/lastmile_qr_scan", "android": "https://dc.lft.to/lastmile_qr_scan"}, "fusion_lon": 0.0, "type": "electric_scooter", "bike_id": "6c8214b624f048d4468ab7477bdbf0bc", "name": "6c8214b624f048d4468ab7477bdbf0bc"}, {"lon": -77.03058216666666, "is_disabled": 0, "lat": 38.91707016666667, "fusion_lat": 0.0, "is_reserved": 0, "rental_uris": {"ios": "https://dc.lft.to/lastmile_qr_scan", "android": "https://dc.lft.to/lastmile_qr_scan"}, "fusion_lon": 0.0, "type": "electric_scooter", "bike_id": "984375fd1e365a8e2fb4f8985740fd9a", "name": "984375fd1e365a8e2fb4f8985740fd9a"}, {"lon": -77.02586983333333, "is_disabled": 0, "lat": 38.942078, "fusion_lat": 0.0, "is_reserved": 0, "rental_uris": {"ios": "https://dc.lft.to/lastmile_qr_scan", "android": "https://dc.lft.to/lastmile_qr_scan"}, "fusion_lon": 0.0, "type": "electric_scooter", "bike_id": "5fc70782df642e5f2fffac9d278fcbd8", "name": "5fc70782df642e5f2fffac9d278fcbd8"}, {"lon": -77.02962316666667, "is_disabled": 0, "lat": 38.92258433333333, "fusion_lat": 0.0, "is_reserved": 0, "rental_uris": {"ios": "https://dc.lft.to/lastmile_qr_scan", "android": "https://dc.lft.to/lastmile_qr_scan"}, "fusion_lon": 0.0, "type": "electric_scooter", "bike_id": "ae1b63715a49a41d73a885dc2cbdc535", "name": "ae1b63715a49a41d73a885dc2cbdc535"}, {"lon": -77.0006655, "is_disabled": 0, "lat": 38.8737835, "fusion_lat": 0.0, "is_reserved": 0, "rental_uris": {"ios": "https://dc.lft.to/lastmile_qr_scan", "android": "https://dc.lft.to/lastmile_qr_scan"}, "fusion_lon": 0.0, "type": "electric_scooter", "bike_id": "07e52ab7c4ba2153372548443200d0e4", "name": "07e52ab7c4ba2153372548443200d0e4"}, {"lon": -76.97725666666666, "is_disabled": 0, "lat": 38.8724435, "fusion_lat": 0.0, "is_reserved": 0, "rental_uris": {"ios": "https://dc.lft.to/lastmile_qr_scan", "android": "https://dc.lft.to/lastmile_qr_scan"}, "fusion_lon": 0.0, "type": "electric_scooter", "bike_id": "2ac247c76bb4c661d400f36dcfef354e", "name": "2ac247c76bb4c661d400f36dcfef354e"}, {"lon": -77.03218566666666, "is_disabled": 0, "lat": 38.95787133333333, "fusion_lat": 0.0, "is_reserved": 0, "rental_uris": {"ios": "https://dc.lft.to/lastmile_qr_scan", "android": "https://dc.lft.to/lastmile_qr_scan"}, "fusion_lon": 0.0, "type": "electric_scooter", "bike_id": "20a51c1915b61314358b7579a463c197", "name": "20a51c1915b61314358b7579a463c197"}, {"lon": -77.02466966666667, "is_disabled": 0, "lat": 38.89715733333333, "fusion_lat": 0.0, "is_reserved": 0, "rental_uris": {"ios": "https://dc.lft.to/lastmile_qr_scan", "android": "https://dc.lft.to/lastmile_qr_scan"}, "fusion_lon": 0.0, "type": "electric_scooter", "bike_id": "73fedd06b9fbee46647647d31a973253", "name": "73fedd06b9fbee46647647d31a973253"}, {"lon": -77.03838266666666, "is_disabled": 0, "lat": 38.91562416666667, "fusion_lat": 0.0, "is_reserved": 0, "rental_uris": {"ios": "https://dc.lft.to/lastmile_qr_scan", "android": "https://dc.lft.to/lastmile_qr_scan"}, "fusion_lon": 0.0, "type": "electric_scooter", "bike_id": "84a4121af70a3813e675671adec7d189", "name": "84a4121af70a3813e675671adec7d189"}, {"lon": -77.033507, "is_disabled": 0, "lat": 38.895293, "fusion_lat": 0.0, "is_reserved": 0, "rental_uris": {"ios": "https://dc.lft.to/lastmile_qr_scan", "android": "https://dc.lft.to/lastmile_qr_scan"}, "fusion_lon": 0.0, "type": "electric_scooter", "bike_id": "98120299d0e114a62a627741a72120a5", "name": "98120299d0e114a62a627741a72120a5"}, {"lon": -77.06477416666667, "is_disabled": 0, "lat": 38.973852666666666, "fusion_lat": 0.0, "is_reserved": 0, "rental_uris": {"ios": "https://dc.lft.to/lastmile_qr_scan", "android": "https://dc.lft.to/lastmile_qr_scan"}, "fusion_lon": 0.0, "type": "electric_bike", "bike_id": "7d2794e31612a4590fe72ee840a82da3", "name": "7d2794e31612a4590fe72ee840a82da3"}, {"lon": -77.031831, "is_disabled": 0, "lat": 38.91745183333333, "fusion_lat": 0.0, "is_reserved": 0, "rental_uris": {"ios": "https://dc.lft.to/lastmile_qr_scan", "android": "https://dc.lft.to/lastmile_qr_scan"}, "fusion_lon": 0.0, "type": "electric_scooter", "bike_id": "c4905d6071290996dc976bc64f0cb686", "name": "c4905d6071290996dc976bc64f0cb686"}, {"lon": -76.99820133333333, "is_disabled": 0, "lat": 38.885344, "fusion_lat": 0.0, "is_reserved": 0, "rental_uris": {"ios": "https://dc.lft.to/lastmile_qr_scan", "android": "https://dc.lft.to/lastmile_qr_scan"}, "fusion_lon": 0.0, "type": "electric_scooter", "bike_id": "3a8bb3e75400efbfd1b656cf926ea352", "name": "3a8bb3e75400efbfd1b656cf926ea352"}, {"lon": -77.02281866666667, "is_disabled": 0, "lat": 38.916076833333335, "fusion_lat": 0.0, "is_reserved": 0, "rental_uris": {"ios": "https://dc.lft.to/lastmile_qr_scan", "android": "https://dc.lft.to/lastmile_qr_scan"}, "fusion_lon": 0.0, "type": "electric_scooter", "bike_id": "c94eff02c34d621ae835528574a7f66d", "name": "c94eff02c34d621ae835528574a7f66d"}, {"lon": -77.03729333333334, "is_disabled": 0, "lat": 38.926564166666665, "fusion_lat": 0.0, "is_reserved": 0, "rental_uris": {"ios": "https://dc.lft.to/lastmile_qr_scan", "android": "https://dc.lft.to/lastmile_qr_scan"}, "fusion_lon": 0.0, "type": "electric_scooter", "bike_id": "bb64b5b836ad1f10685f9bfeacae3fe9", "name": "bb64b5b836ad1f10685f9bfeacae3fe9"}, {"lon": -77.03264883333334, "is_disabled": 0, "lat": 38.93436783333333, "fusion_lat": 0.0, "is_reserved": 0, "rental_uris": {"ios": "https://dc.lft.to/lastmile_qr_scan", "android": "https://dc.lft.to/lastmile_qr_scan"}, "fusion_lon": 0.0, "type": "electric_scooter", "bike_id": "0b335bf0b7c5b29e6e9ab0177970cee8", "name": "0b335bf0b7c5b29e6e9ab0177970cee8"}, {"lon": -77.0433885, "is_disabled": 0, "lat": 38.922260333333334, "fusion_lat": 0.0, "is_reserved": 0, "rental_uris": {"ios": "https://dc.lft.to/lastmile_qr_scan", "android": "https://dc.lft.to/lastmile_qr_scan"}, "fusion_lon": 0.0, "type": "electric_scooter", "bike_id": "b5ac4018eae4abfb39edf0d33b36a0b9", "name": "b5ac4018eae4abfb39edf0d33b36a0b9"}, {"lon": -77.01662833333333, "is_disabled": 0, "lat": 38.88114816666667, "fusion_lat": 0.0, "is_reserved": 0, "rental_uris": {"ios": "https://dc.lft.to/lastmile_qr_scan", "android": "https://dc.lft.to/lastmile_qr_scan"}, "fusion_lon": 0.0, "type": "electric_scooter", "bike_id": "55b2b586f36fb78c2b4eaeec9bd773f0", "name": "55b2b586f36fb78c2b4eaeec9bd773f0"}, {"lon": -77.04156383333333, "is_disabled": 0, "lat": 38.91418783333334, "fusion_lat": 0.0, "is_reserved": 0, "rental_uris": {"ios": "https://dc.lft.to/lastmile_qr_scan", "android": "https://dc.lft.to/lastmile_qr_scan"}, "fusion_lon": 0.0, "type": "electric_scooter", "bike_id": "317bf0f0671feaa0c17ff9fdcfdc82dc", "name": "317bf0f0671feaa0c17ff9fdcfdc82dc"}, {"lon": -77.0376175, "is_disabled": 0, "lat": 38.925606333333334, "fusion_lat": 0.0, "is_reserved": 0, "rental_uris": {"ios": "https://dc.lft.to/lastmile_qr_scan", "android": "https://dc.lft.to/lastmile_qr_scan"}, "fusion_lon": 0.0, "type": "electric_scooter", "bike_id": "0cb872ea5a79bbe8fb986e83b01309db", "name": "0cb872ea5a79bbe8fb986e83b01309db"}, {"lon": -77.04469833333333, "is_disabled": 0, "lat": 38.89921616666667, "fusion_lat": 0.0, "is_reserved": 0, "rental_uris": {"ios": "https://dc.lft.to/lastmile_qr_scan", "android": "https://dc.lft.to/lastmile_qr_scan"}, "fusion_lon": 0.0, "type": "electric_scooter", "bike_id": "1900e66cf510b30465526e58cf8a5eea", "name": "1900e66cf510b30465526e58cf8a5eea"}, {"lon": -77.00547916666666, "is_disabled": 0, "lat": 38.8800565, "fusion_lat": 0.0, "is_reserved": 0, "rental_uris": {"ios": "https://dc.lft.to/lastmile_qr_scan", "android": "https://dc.lft.to/lastmile_qr_scan"}, "fusion_lon": 0.0, "type": "electric_scooter", "bike_id": "e329b906d17aea9f617c017a124c610e", "name": "e329b906d17aea9f617c017a124c610e"}, {"lon": -77.02042833333333, "is_disabled": 0, "lat": 38.92112516666667, "fusion_lat": 0.0, "is_reserved": 0, "rental_uris": {"ios": "https://dc.lft.to/lastmile_qr_scan", "android": "https://dc.lft.to/lastmile_qr_scan"}, "fusion_lon": 0.0, "type": "electric_scooter", "bike_id": "1e1fdfb62f1a45f6a7fa89e4bf8d3485", "name": "1e1fdfb62f1a45f6a7fa89e4bf8d3485"}, {"lon": -77.02991066666667, "is_disabled": 0, "lat": 38.901476333333335, "fusion_lat": 0.0, "is_reserved": 0, "rental_uris": {"ios": "https://dc.lft.to/lastmile_qr_scan", "android": "https://dc.lft.to/lastmile_qr_scan"}, "fusion_lon": 0.0, "type": "electric_scooter", "bike_id": "068f415a1c9b535e06924fb5597c0295", "name": "068f415a1c9b535e06924fb5597c0295"}, {"lon": -77.0178155, "is_disabled": 0, "lat": 38.87710833333333, "fusion_lat": 0.0, "is_reserved": 0, "rental_uris": {"ios": "https://dc.lft.to/lastmile_qr_scan", "android": "https://dc.lft.to/lastmile_qr_scan"}, "fusion_lon": 0.0, "type": "electric_scooter", "bike_id": "6a57f368c99c72b5ab44f44226b49eb7", "name": "6a57f368c99c72b5ab44f44226b49eb7"}, {"lon": -77.03219733333333, "is_disabled": 0, "lat": 38.90870266666667, "fusion_lat": 0.0, "is_reserved": 0, "rental_uris": {"ios": "https://dc.lft.to/lastmile_qr_scan", "android": "https://dc.lft.to/lastmile_qr_scan"}, "fusion_lon": 0.0, "type": "electric_scooter", "bike_id": "2f2d52a39f4c2bc04e017122b69437c5", "name": "2f2d52a39f4c2bc04e017122b69437c5"}, {"lon": -77.063027, "is_disabled": 0, "lat": 38.905311166666664, "fusion_lat": 0.0, "is_reserved": 0, "rental_uris": {"ios": "https://dc.lft.to/lastmile_qr_scan", "android": "https://dc.lft.to/lastmile_qr_scan"}, "fusion_lon": 0.0, "type": "electric_scooter", "bike_id": "dd4322bfd1627913e0aa8498cc2d4a28", "name": "dd4322bfd1627913e0aa8498cc2d4a28"}, {"lon": -77.03015633333334, "is_disabled": 0, "lat": 38.928633833333336, "fusion_lat": 0.0, "is_reserved": 0, "rental_uris": {"ios": "https://dc.lft.to/lastmile_qr_scan", "android": "https://dc.lft.to/lastmile_qr_scan"}, "fusion_lon": 0.0, "type": "electric_scooter", "bike_id": "c7b114652bf8babb9f72de4d42502b81", "name": "c7b114652bf8babb9f72de4d42502b81"}, {"lon": -77.02174566666666, "is_disabled": 0, "lat": 38.92001783333333, "fusion_lat": 0.0, "is_reserved": 0, "rental_uris": {"ios": "https://dc.lft.to/lastmile_qr_scan", "android": "https://dc.lft.to/lastmile_qr_scan"}, "fusion_lon": 0.0, "type": "electric_scooter", "bike_id": "874270a0f3dae61722b47fde47baee29", "name": "874270a0f3dae61722b47fde47baee29"}, {"lon": -77.02211816666667, "is_disabled": 0, "lat": 38.91270766666667, "fusion_lat": 0.0, "is_reserved": 0, "rental_uris": {"ios": "https://dc.lft.to/lastmile_qr_scan", "android": "https://dc.lft.to/lastmile_qr_scan"}, "fusion_lon": 0.0, "type": "electric_scooter", "bike_id": "4d2e89c9c605a1a31d449836eaed747d", "name": "4d2e89c9c605a1a31d449836eaed747d"}, {"lon": -77.09520866666666, "is_disabled": 0, "lat": 38.838102666666664, "fusion_lat": 0.0, "is_reserved": 0, "rental_uris": {"ios": "https://dc.lft.to/lastmile_qr_scan", "android": "https://dc.lft.to/lastmile_qr_scan"}, "fusion_lon": 0.0, "type": "electric_bike", "bike_id": "daedfd1254117eb747e3390a95477339", "name": "daedfd1254117eb747e3390a95477339"}, {"lon": -77.026775, "is_disabled": 0, "lat": 38.9141525, "fusion_lat": 0.0, "is_reserved": 0, "rental_uris": {"ios": "https://dc.lft.to/lastmile_qr_scan", "android": "https://dc.lft.to/lastmile_qr_scan"}, "fusion_lon": 0.0, "type": "electric_scooter", "bike_id": "8a55fdf9f0dbe390279dda69412bc5b7", "name": "8a55fdf9f0dbe390279dda69412bc5b7"}, {"lon": -77.0234885, "is_disabled": 0, "lat": 38.93534833333333, "fusion_lat": 0.0, "is_reserved": 0, "rental_uris": {"ios": "https://dc.lft.to/lastmile_qr_scan", "android": "https://dc.lft.to/lastmile_qr_scan"}, "fusion_lon": 0.0, "type": "electric_scooter", "bike_id": "8fa3d05f2db9a8d4616da6a3bebb0e69", "name": "8fa3d05f2db9a8d4616da6a3bebb0e69"}, {"lon": -77.01674566666667, "is_disabled": 0, "lat": 38.881052333333336, "fusion_lat": 0.0, "is_reserved": 0, "rental_uris": {"ios": "https://dc.lft.to/lastmile_qr_scan", "android": "https://dc.lft.to/lastmile_qr_scan"}, "fusion_lon": 0.0, "type": "electric_bike", "bike_id": "a58e133c273e0c4574b8a4869985e652", "name": "a58e133c273e0c4574b8a4869985e652"}, {"lon": -76.9955875, "is_disabled": 0, "lat": 38.885968, "fusion_lat": 0.0, "is_reserved": 0, "rental_uris": {"ios": "https://dc.lft.to/lastmile_qr_scan", "android": "https://dc.lft.to/lastmile_qr_scan"}, "fusion_lon": 0.0, "type": "electric_scooter", "bike_id": "f346e7252dad20e68ac8e0c3244f54bc", "name": "f346e7252dad20e68ac8e0c3244f54bc"}, {"lon": -76.995708, "is_disabled": 0, "lat": 38.8921235, "fusion_lat": 0.0, "is_reserved": 0, "rental_uris": {"ios": "https://dc.lft.to/lastmile_qr_scan", "android": "https://dc.lft.to/lastmile_qr_scan"}, "fusion_lon": 0.0, "type": "electric_scooter", "bike_id": "07847b6a8539e644e4cd0fde56160817", "name": "07847b6a8539e644e4cd0fde56160817"}, {"lon": -77.095313, "is_disabled": 0, "lat": 38.84732133333333, "fusion_lat": 0.0, "is_reserved": 0, "rental_uris": {"ios": "https://dc.lft.to/lastmile_qr_scan", "android": "https://dc.lft.to/lastmile_qr_scan"}, "fusion_lon": 0.0, "type": "electric_bike", "bike_id": "1069661fdc367888a32fafd05a2d8d51", "name": "1069661fdc367888a32fafd05a2d8d51"}, {"lon": -77.03950816666666, "is_disabled": 0, "lat": 38.90281516666667, "fusion_lat": 0.0, "is_reserved": 0, "rental_uris": {"ios": "https://dc.lft.to/lastmile_qr_scan", "android": "https://dc.lft.to/lastmile_qr_scan"}, "fusion_lon": 0.0, "type": "electric_scooter", "bike_id": "26442c036e8369e9f39665c1a9bb23b1", "name": "26442c036e8369e9f39665c1a9bb23b1"}, {"lon": -77.03625533333333, "is_disabled": 0, "lat": 38.965485, "fusion_lat": 0.0, "is_reserved": 0, "rental_uris": {"ios": "https://dc.lft.to/lastmile_qr_scan", "android": "https://dc.lft.to/lastmile_qr_scan"}, "fusion_lon": 0.0, "type": "electric_scooter", "bike_id": "accf908324f78fd07846cb6e71d08ed5", "name": "accf908324f78fd07846cb6e71d08ed5"}, {"lon": -77.046313, "is_disabled": 0, "lat": 38.902311, "fusion_lat": 0.0, "is_reserved": 0, "rental_uris": {"ios": "https://dc.lft.to/lastmile_qr_scan", "android": "https://dc.lft.to/lastmile_qr_scan"}, "fusion_lon": 0.0, "type": "electric_scooter", "bike_id": "3f019bf6aabd423145cdf66c70a2f124", "name": "3f019bf6aabd423145cdf66c70a2f124"}, {"lon": -77.02404233333333, "is_disabled": 0, "lat": 38.91552266666667, "fusion_lat": 0.0, "is_reserved": 0, "rental_uris": {"ios": "https://dc.lft.to/lastmile_qr_scan", "android": "https://dc.lft.to/lastmile_qr_scan"}, "fusion_lon": 0.0, "type": "electric_scooter", "bike_id": "7cbf78c6888146b52408bae536d121db", "name": "7cbf78c6888146b52408bae536d121db"}, {"lon": -77.02958133333334, "is_disabled": 0, "lat": 38.934584, "fusion_lat": 0.0, "is_reserved": 0, "rental_uris": {"ios": "https://dc.lft.to/lastmile_qr_scan", "android": "https://dc.lft.to/lastmile_qr_scan"}, "fusion_lon": 0.0, "type": "electric_scooter", "bike_id": "3f9fccb17d34255dbe80596fb7c66ab2", "name": "3f9fccb17d34255dbe80596fb7c66ab2"}, {"lon": -76.94636033333333, "is_disabled": 0, "lat": 38.89868083333333, "fusion_lat": 0.0, "is_reserved": 0, "rental_uris": {"ios": "https://dc.lft.to/lastmile_qr_scan", "android": "https://dc.lft.to/lastmile_qr_scan"}, "fusion_lon": 0.0, "type": "electric_scooter", "bike_id": "2d37679a28a977bbd82603944f6e4c15", "name": "2d37679a28a977bbd82603944f6e4c15"}, {"lon": -76.940484, "is_disabled": 0, "lat": 38.97858566666667, "fusion_lat": 0.0, "is_reserved": 0, "rental_uris": {"ios": "https://dc.lft.to/lastmile_qr_scan", "android": "https://dc.lft.to/lastmile_qr_scan"}, "fusion_lon": 0.0, "type": "electric_bike", "bike_id": "cfa0451fa4d6e1f675a1da09c5af4e4c", "name": "cfa0451fa4d6e1f675a1da09c5af4e4c"}, {"lon": -77.02614983333333, "is_disabled": 0, "lat": 38.88767716666667, "fusion_lat": 0.0, "is_reserved": 0, "rental_uris": {"ios": "https://dc.lft.to/lastmile_qr_scan", "android": "https://dc.lft.to/lastmile_qr_scan"}, "fusion_lon": 0.0, "type": "electric_scooter", "bike_id": "5776964d4026bbac2b1bee20c59666d2", "name": "5776964d4026bbac2b1bee20c59666d2"}, {"lon": -77.01908116666667, "is_disabled": 0, "lat": 38.878680333333335, "fusion_lat": 0.0, "is_reserved": 0, "rental_uris": {"ios": "https://dc.lft.to/lastmile_qr_scan", "android": "https://dc.lft.to/lastmile_qr_scan"}, "fusion_lon": 0.0, "type": "electric_scooter", "bike_id": "3b42f1f735c9c893a5f7b7a6fe4166a0", "name": "3b42f1f735c9c893a5f7b7a6fe4166a0"}, {"lon": -77.03859116666666, "is_disabled": 0, "lat": 38.917126833333334, "fusion_lat": 0.0, "is_reserved": 0, "rental_uris": {"ios": "https://dc.lft.to/lastmile_qr_scan", "android": "https://dc.lft.to/lastmile_qr_scan"}, "fusion_lon": 0.0, "type": "electric_scooter", "bike_id": "baa9bd40889b3243b399b03c039cfb06", "name": "baa9bd40889b3243b399b03c039cfb06"}, {"lon": -76.98715216666666, "is_disabled": 0, "lat": 38.86698616666666, "fusion_lat": 0.0, "is_reserved": 0, "rental_uris": {"ios": "https://dc.lft.to/lastmile_qr_scan", "android": "https://dc.lft.to/lastmile_qr_scan"}, "fusion_lon": 0.0, "type": "electric_scooter", "bike_id": "11b889ff391aac2e5875cc6f3d798c56", "name": "11b889ff391aac2e5875cc6f3d798c56"}, {"lon": -77.04864266666667, "is_disabled": 0, "lat": 38.905145166666664, "fusion_lat": 0.0, "is_reserved": 0, "rental_uris": {"ios": "https://dc.lft.to/lastmile_qr_scan", "android": "https://dc.lft.to/lastmile_qr_scan"}, "fusion_lon": 0.0, "type": "electric_scooter", "bike_id": "79cb0365d55775a48b5531b0d201a741", "name": "79cb0365d55775a48b5531b0d201a741"}, {"lon": -77.01289683333333, "is_disabled": 0, "lat": 38.901841833333336, "fusion_lat": 0.0, "is_reserved": 0, "rental_uris": {"ios": "https://dc.lft.to/lastmile_qr_scan", "android": "https://dc.lft.to/lastmile_qr_scan"}, "fusion_lon": 0.0, "type": "electric_scooter", "bike_id": "681ffad930f8929acfa4e280b6e7d9af", "name": "681ffad930f8929acfa4e280b6e7d9af"}, {"lon": -77.05390916666667, "is_disabled": 0, "lat": 38.80446033333333, "fusion_lat": 0.0, "is_reserved": 0, "rental_uris": {"ios": "https://dc.lft.to/lastmile_qr_scan", "android": "https://dc.lft.to/lastmile_qr_scan"}, "fusion_lon": 0.0, "type": "electric_bike", "bike_id": "6eb040cdd0c66d52587306c8842819ce", "name": "6eb040cdd0c66d52587306c8842819ce"}, {"lon": -76.9958165, "is_disabled": 0, "lat": 38.94735766666667, "fusion_lat": 0.0, "is_reserved": 0, "rental_uris": {"ios": "https://dc.lft.to/lastmile_qr_scan", "android": "https://dc.lft.to/lastmile_qr_scan"}, "fusion_lon": 0.0, "type": "electric_bike", "bike_id": "c4801a37d3c0944baeec7b4d85f19751", "name": "c4801a37d3c0944baeec7b4d85f19751"}, {"lon": -77.04731433333333, "is_disabled": 0, "lat": 38.90099766666667, "fusion_lat": 0.0, "is_reserved": 0, "rental_uris": {"ios": "https://dc.lft.to/lastmile_qr_scan", "android": "https://dc.lft.to/lastmile_qr_scan"}, "fusion_lon": 0.0, "type": "electric_scooter", "bike_id": "c0420d2944a961db8846cf2e1d07be69", "name": "c0420d2944a961db8846cf2e1d07be69"}, {"lon": -77.023439, "is_disabled": 0, "lat": 38.91201366666667, "fusion_lat": 0.0, "is_reserved": 0, "rental_uris": {"ios": "https://dc.lft.to/lastmile_qr_scan", "android": "https://dc.lft.to/lastmile_qr_scan"}, "fusion_lon": 0.0, "type": "electric_scooter", "bike_id": "1fcf9f14063682f1b8442467d4dcb812", "name": "1fcf9f14063682f1b8442467d4dcb812"}, {"lon": -77.02377516666667, "is_disabled": 0, "lat": 38.916647, "fusion_lat": 0.0, "is_reserved": 0, "rental_uris": {"ios": "https://dc.lft.to/lastmile_qr_scan", "android": "https://dc.lft.to/lastmile_qr_scan"}, "fusion_lon": 0.0, "type": "electric_scooter", "bike_id": "e067f3508b64922977c321dc6886c401", "name": "e067f3508b64922977c321dc6886c401"}, {"lon": -76.975287, "is_disabled": 0, "lat": 38.89888783333333, "fusion_lat": 0.0, "is_reserved": 0, "rental_uris": {"ios": "https://dc.lft.to/lastmile_qr_scan", "android": "https://dc.lft.to/lastmile_qr_scan"}, "fusion_lon": 0.0, "type": "electric_scooter", "bike_id": "b721b4de76524e8a56ffe9eb6e819fa1", "name": "b721b4de76524e8a56ffe9eb6e819fa1"}, {"lon": -77.01776133333334, "is_disabled": 0, "lat": 38.91501133333333, "fusion_lat": 0.0, "is_reserved": 0, "rental_uris": {"ios": "https://dc.lft.to/lastmile_qr_scan", "android": "https://dc.lft.to/lastmile_qr_scan"}, "fusion_lon": 0.0, "type": "electric_scooter", "bike_id": "ff0ac4b47a0ac65fa3b842c41c8d9668", "name": "ff0ac4b47a0ac65fa3b842c41c8d9668"}, {"lon": -77.02405316666666, "is_disabled": 0, "lat": 38.91419466666667, "fusion_lat": 0.0, "is_reserved": 0, "rental_uris": {"ios": "https://dc.lft.to/lastmile_qr_scan", "android": "https://dc.lft.to/lastmile_qr_scan"}, "fusion_lon": 0.0, "type": "electric_scooter", "bike_id": "40f80d33c1325ce6031e748dbd3f75b3", "name": "40f80d33c1325ce6031e748dbd3f75b3"}, {"lon": -77.0293035, "is_disabled": 0, "lat": 38.89986783333333, "fusion_lat": 0.0, "is_reserved": 0, "rental_uris": {"ios": "https://dc.lft.to/lastmile_qr_scan", "android": "https://dc.lft.to/lastmile_qr_scan"}, "fusion_lon": 0.0, "type": "electric_scooter", "bike_id": "8439d6d0d68d746498168c22d6c4e11b", "name": "8439d6d0d68d746498168c22d6c4e11b"}, {"lon": -77.042266, "is_disabled": 0, "lat": 38.921772, "fusion_lat": 0.0, "is_reserved": 0, "rental_uris": {"ios": "https://dc.lft.to/lastmile_qr_scan", "android": "https://dc.lft.to/lastmile_qr_scan"}, "fusion_lon": 0.0, "type": "electric_scooter", "bike_id": "baf8f87a77a906784b19afde9023f749", "name": "baf8f87a77a906784b19afde9023f749"}, {"lon": -77.02445033333333, "is_disabled": 0, "lat": 38.93591266666667, "fusion_lat": 0.0, "is_reserved": 0, "rental_uris": {"ios": "https://dc.lft.to/lastmile_qr_scan", "android": "https://dc.lft.to/lastmile_qr_scan"}, "fusion_lon": 0.0, "type": "electric_scooter", "bike_id": "4e1666f4cf3fbdad1aae34929c55f6f7", "name": "4e1666f4cf3fbdad1aae34929c55f6f7"}, {"lon": -77.02829633333333, "is_disabled": 0, "lat": 38.90560816666667, "fusion_lat": 0.0, "is_reserved": 0, "rental_uris": {"ios": "https://dc.lft.to/lastmile_qr_scan", "android": "https://dc.lft.to/lastmile_qr_scan"}, "fusion_lon": 0.0, "type": "electric_scooter", "bike_id": "62fe9a2656f00fa9db11e70fd98cbae5", "name": "62fe9a2656f00fa9db11e70fd98cbae5"}, {"lon": -76.98554466666667, "is_disabled": 0, "lat": 38.910337166666665, "fusion_lat": 0.0, "is_reserved": 0, "rental_uris": {"ios": "https://dc.lft.to/lastmile_qr_scan", "android": "https://dc.lft.to/lastmile_qr_scan"}, "fusion_lon": 0.0, "type": "electric_scooter", "bike_id": "3bfeade85d532f9c5888726974954eb8", "name": "3bfeade85d532f9c5888726974954eb8"}, {"lon": -77.0296885, "is_disabled": 0, "lat": 38.913030666666664, "fusion_lat": 0.0, "is_reserved": 0, "rental_uris": {"ios": "https://dc.lft.to/lastmile_qr_scan", "android": "https://dc.lft.to/lastmile_qr_scan"}, "fusion_lon": 0.0, "type": "electric_scooter", "bike_id": "2b76586f56d84fb99a1bb3049e7467fa", "name": "2b76586f56d84fb99a1bb3049e7467fa"}, {"lon": -77.00724533333333, "is_disabled": 0, "lat": 38.8849435, "fusion_lat": 0.0, "is_reserved": 0, "rental_uris": {"ios": "https://dc.lft.to/lastmile_qr_scan", "android": "https://dc.lft.to/lastmile_qr_scan"}, "fusion_lon": 0.0, "type": "electric_scooter", "bike_id": "97479b736bbb2b40ed36207c2001199b", "name": "97479b736bbb2b40ed36207c2001199b"}, {"lon": -76.979189, "is_disabled": 0, "lat": 38.916550666666666, "fusion_lat": 0.0, "is_reserved": 0, "rental_uris": {"ios": "https://dc.lft.to/lastmile_qr_scan", "android": "https://dc.lft.to/lastmile_qr_scan"}, "fusion_lon": 0.0, "type": "electric_scooter", "bike_id": "b40ee4c03daf77807ce0c347ca0e5aa7", "name": "b40ee4c03daf77807ce0c347ca0e5aa7"}, {"lon": -77.03200866666667, "is_disabled": 0, "lat": 38.9185125, "fusion_lat": 0.0, "is_reserved": 0, "rental_uris": {"ios": "https://dc.lft.to/lastmile_qr_scan", "android": "https://dc.lft.to/lastmile_qr_scan"}, "fusion_lon": 0.0, "type": "electric_scooter", "bike_id": "7ad7ed9dbc41a5c95c6fb7ddaae46d12", "name": "7ad7ed9dbc41a5c95c6fb7ddaae46d12"}, {"lon": -77.016045, "is_disabled": 0, "lat": 38.89229483333333, "fusion_lat": 0.0, "is_reserved": 0, "rental_uris": {"ios": "https://dc.lft.to/lastmile_qr_scan", "android": "https://dc.lft.to/lastmile_qr_scan"}, "fusion_lon": 0.0, "type": "electric_scooter", "bike_id": "7a58da5869d503ed8f2dfa9c7cda9214", "name": "7a58da5869d503ed8f2dfa9c7cda9214"}, {"lon": -77.00296333333333, "is_disabled": 0, "lat": 38.920294, "fusion_lat": 0.0, "is_reserved": 0, "rental_uris": {"ios": "https://dc.lft.to/lastmile_qr_scan", "android": "https://dc.lft.to/lastmile_qr_scan"}, "fusion_lon": 0.0, "type": "electric_scooter", "bike_id": "a7f49f21a61b1c4406fb0ab43a20b786", "name": "a7f49f21a61b1c4406fb0ab43a20b786"}, {"lon": -77.04158066666666, "is_disabled": 0, "lat": 38.914193833333336, "fusion_lat": 0.0, "is_reserved": 0, "rental_uris": {"ios": "https://dc.lft.to/lastmile_qr_scan", "android": "https://dc.lft.to/lastmile_qr_scan"}, "fusion_lon": 0.0, "type": "electric_scooter", "bike_id": "b79d833734df8f3994b91fb327fc4e51", "name": "b79d833734df8f3994b91fb327fc4e51"}, {"lon": -76.98598166666666, "is_disabled": 0, "lat": 38.906213666666666, "fusion_lat": 0.0, "is_reserved": 0, "rental_uris": {"ios": "https://dc.lft.to/lastmile_qr_scan", "android": "https://dc.lft.to/lastmile_qr_scan"}, "fusion_lon": 0.0, "type": "electric_bike", "bike_id": "0eb415ec7caf91d4fd12de226040f4dc", "name": "0eb415ec7caf91d4fd12de226040f4dc"}, {"lon": -77.0088755, "is_disabled": 0, "lat": 38.9233, "fusion_lat": 0.0, "is_reserved": 0, "rental_uris": {"ios": "https://dc.lft.to/lastmile_qr_scan", "android": "https://dc.lft.to/lastmile_qr_scan"}, "fusion_lon": 0.0, "type": "electric_scooter", "bike_id": "8f2943dc6f43c13f98f81aa250a7d40b", "name": "8f2943dc6f43c13f98f81aa250a7d40b"}, {"lon": -77.14060216666667, "is_disabled": 0, "lat": 38.987680833333336, "fusion_lat": 0.0, "is_reserved": 0, "rental_uris": {"ios": "https://dc.lft.to/lastmile_qr_scan", "android": "https://dc.lft.to/lastmile_qr_scan"}, "fusion_lon": 0.0, "type": "electric_bike", "bike_id": "ba75df2ab29cf5963d3ceded35b6a856", "name": "ba75df2ab29cf5963d3ceded35b6a856"}, {"lon": -77.02743416666667, "is_disabled": 0, "lat": 38.90958033333333, "fusion_lat": 0.0, "is_reserved": 0, "rental_uris": {"ios": "https://dc.lft.to/lastmile_qr_scan", "android": "https://dc.lft.to/lastmile_qr_scan"}, "fusion_lon": 0.0, "type": "electric_scooter", "bike_id": "3869c6821c98f15e9ebea9bcb9ecccf9", "name": "3869c6821c98f15e9ebea9bcb9ecccf9"}, {"lon": -77.03830983333333, "is_disabled": 0, "lat": 38.90780016666667, "fusion_lat": 0.0, "is_reserved": 0, "rental_uris": {"ios": "https://dc.lft.to/lastmile_qr_scan", "android": "https://dc.lft.to/lastmile_qr_scan"}, "fusion_lon": 0.0, "type": "electric_scooter", "bike_id": "cce18b8559514cfd7fbbd945cccfccf0", "name": "cce18b8559514cfd7fbbd945cccfccf0"}, {"lon": -77.00092683333334, "is_disabled": 0, "lat": 38.908362, "fusion_lat": 0.0, "is_reserved": 0, "rental_uris": {"ios": "https://dc.lft.to/lastmile_qr_scan", "android": "https://dc.lft.to/lastmile_qr_scan"}, "fusion_lon": 0.0, "type": "electric_scooter", "bike_id": "f6c9e22db72939c6014cb7fb975ca337", "name": "f6c9e22db72939c6014cb7fb975ca337"}, {"lon": -77.01108116666667, "is_disabled": 0, "lat": 38.907817, "fusion_lat": 0.0, "is_reserved": 0, "rental_uris": {"ios": "https://dc.lft.to/lastmile_qr_scan", "android": "https://dc.lft.to/lastmile_qr_scan"}, "fusion_lon": 0.0, "type": "electric_scooter", "bike_id": "98fac8d1274f7e6e5bb07339fca96a49", "name": "98fac8d1274f7e6e5bb07339fca96a49"}, {"lon": -77.02546183333334, "is_disabled": 0, "lat": 38.9970675, "fusion_lat": 0.0, "is_reserved": 0, "rental_uris": {"ios": "https://dc.lft.to/lastmile_qr_scan", "android": "https://dc.lft.to/lastmile_qr_scan"}, "fusion_lon": 0.0, "type": "electric_bike", "bike_id": "bcfa95fd15d0aef9d8b202c6366caccb", "name": "bcfa95fd15d0aef9d8b202c6366caccb"}, {"lon": -76.95590266666666, "is_disabled": 0, "lat": 38.88767416666666, "fusion_lat": 0.0, "is_reserved": 0, "rental_uris": {"ios": "https://dc.lft.to/lastmile_qr_scan", "android": "https://dc.lft.to/lastmile_qr_scan"}, "fusion_lon": 0.0, "type": "electric_scooter", "bike_id": "548bb36d9aedd7eb58373f82972abdaa", "name": "548bb36d9aedd7eb58373f82972abdaa"}, {"lon": -77.02639083333334, "is_disabled": 0, "lat": 38.98471583333333, "fusion_lat": 0.0, "is_reserved": 0, "rental_uris": {"ios": "https://dc.lft.to/lastmile_qr_scan", "android": "https://dc.lft.to/lastmile_qr_scan"}, "fusion_lon": 0.0, "type": "electric_scooter", "bike_id": "6760055d4dde1f25833ee65e1db0ca1e", "name": "6760055d4dde1f25833ee65e1db0ca1e"}, {"lon": -77.08929466666666, "is_disabled": 0, "lat": 38.88783466666667, "fusion_lat": 0.0, "is_reserved": 0, "rental_uris": {"ios": "https://dc.lft.to/lastmile_qr_scan", "android": "https://dc.lft.to/lastmile_qr_scan"}, "fusion_lon": 0.0, "type": "electric_bike", "bike_id": "990300419268900b8c0d9247c8775610", "name": "990300419268900b8c0d9247c8775610"}, {"lon": -77.027275, "is_disabled": 0, "lat": 38.89737233333334, "fusion_lat": 0.0, "is_reserved": 0, "rental_uris": {"ios": "https://dc.lft.to/lastmile_qr_scan", "android": "https://dc.lft.to/lastmile_qr_scan"}, "fusion_lon": 0.0, "type": "electric_scooter", "bike_id": "4d10dcd8a84d14142a4e694307c5abd9", "name": "4d10dcd8a84d14142a4e694307c5abd9"}, {"lon": -76.931761, "is_disabled": 0, "lat": 38.89886033333333, "fusion_lat": 0.0, "is_reserved": 0, "rental_uris": {"ios": "https://dc.lft.to/lastmile_qr_scan", "android": "https://dc.lft.to/lastmile_qr_scan"}, "fusion_lon": 0.0, "type": "electric_scooter", "bike_id": "897d5c62ce1f6265f88a8d453558d0f9", "name": "897d5c62ce1f6265f88a8d453558d0f9"}, {"lon": -76.99995633333333, "is_disabled": 0, "lat": 38.907992666666665, "fusion_lat": 0.0, "is_reserved": 0, "rental_uris": {"ios": "https://dc.lft.to/lastmile_qr_scan", "android": "https://dc.lft.to/lastmile_qr_scan"}, "fusion_lon": 0.0, "type": "electric_scooter", "bike_id": "b4512b83fa42445e5af1f648011cf128", "name": "b4512b83fa42445e5af1f648011cf128"}, {"lon": -77.07070916666666, "is_disabled": 0, "lat": 38.896474, "fusion_lat": 0.0, "is_reserved": 0, "rental_uris": {"ios": "https://dc.lft.to/lastmile_qr_scan", "android": "https://dc.lft.to/lastmile_qr_scan"}, "fusion_lon": 0.0, "type": "electric_scooter", "bike_id": "36ed9c29f7c7701909d8137bf306ed05", "name": "36ed9c29f7c7701909d8137bf306ed05"}, {"lon": -77.02277616666667, "is_disabled": 0, "lat": 38.92668283333333, "fusion_lat": 0.0, "is_reserved": 0, "rental_uris": {"ios": "https://dc.lft.to/lastmile_qr_scan", "android": "https://dc.lft.to/lastmile_qr_scan"}, "fusion_lon": 0.0, "type": "electric_scooter", "bike_id": "180fa003df1dfec31f77731b4e733894", "name": "180fa003df1dfec31f77731b4e733894"}, {"lon": -77.03921, "is_disabled": 0, "lat": 38.92875166666666, "fusion_lat": 0.0, "is_reserved": 0, "rental_uris": {"ios": "https://dc.lft.to/lastmile_qr_scan", "android": "https://dc.lft.to/lastmile_qr_scan"}, "fusion_lon": 0.0, "type": "electric_scooter", "bike_id": "fb124dd20a4fb343d46902e67236f4e7", "name": "fb124dd20a4fb343d46902e67236f4e7"}, {"lon": -77.03281416666667, "is_disabled": 0, "lat": 38.9197975, "fusion_lat": 0.0, "is_reserved": 0, "rental_uris": {"ios": "https://dc.lft.to/lastmile_qr_scan", "android": "https://dc.lft.to/lastmile_qr_scan"}, "fusion_lon": 0.0, "type": "electric_scooter", "bike_id": "5bad20cc8c2d3803a2eaade5de4b5fb5", "name": "5bad20cc8c2d3803a2eaade5de4b5fb5"}, {"lon": -77.03130416666667, "is_disabled": 0, "lat": 38.9237655, "fusion_lat": 0.0, "is_reserved": 0, "rental_uris": {"ios": "https://dc.lft.to/lastmile_qr_scan", "android": "https://dc.lft.to/lastmile_qr_scan"}, "fusion_lon": 0.0, "type": "electric_scooter", "bike_id": "df52c54a225f5f1a810b0876c4d340f1", "name": "df52c54a225f5f1a810b0876c4d340f1"}, {"lon": -77.00582216666666, "is_disabled": 0, "lat": 38.875721666666664, "fusion_lat": 0.0, "is_reserved": 0, "rental_uris": {"ios": "https://dc.lft.to/lastmile_qr_scan", "android": "https://dc.lft.to/lastmile_qr_scan"}, "fusion_lon": 0.0, "type": "electric_scooter", "bike_id": "286562b4b0c3dee56e53743b80937e89", "name": "286562b4b0c3dee56e53743b80937e89"}, {"lon": -76.98714233333334, "is_disabled": 0, "lat": 38.866293666666664, "fusion_lat": 0.0, "is_reserved": 0, "rental_uris": {"ios": "https://dc.lft.to/lastmile_qr_scan", "android": "https://dc.lft.to/lastmile_qr_scan"}, "fusion_lon": 0.0, "type": "electric_scooter", "bike_id": "596d3c7ea9b4ac6f1170dcd656a5fb1d", "name": "596d3c7ea9b4ac6f1170dcd656a5fb1d"}, {"lon": -77.04044783333333, "is_disabled": 0, "lat": 38.928783, "fusion_lat": 0.0, "is_reserved": 0, "rental_uris": {"ios": "https://dc.lft.to/lastmile_qr_scan", "android": "https://dc.lft.to/lastmile_qr_scan"}, "fusion_lon": 0.0, "type": "electric_scooter", "bike_id": "869e58966a336a9d937d6462e8604376", "name": "869e58966a336a9d937d6462e8604376"}, {"lon": -77.22884733333333, "is_disabled": 0, "lat": 38.90953533333333, "fusion_lat": 0.0, "is_reserved": 0, "rental_uris": {"ios": "https://dc.lft.to/lastmile_qr_scan", "android": "https://dc.lft.to/lastmile_qr_scan"}, "fusion_lon": 0.0, "type": "electric_bike", "bike_id": "64cb4fcaf84328d736be98e54f5a2c91", "name": "64cb4fcaf84328d736be98e54f5a2c91"}, {"lon": -77.02311483333334, "is_disabled": 0, "lat": 38.91784883333333, "fusion_lat": 0.0, "is_reserved": 0, "rental_uris": {"ios": "https://dc.lft.to/lastmile_qr_scan", "android": "https://dc.lft.to/lastmile_qr_scan"}, "fusion_lon": 0.0, "type": "electric_scooter", "bike_id": "7a805992bac4e9d74cdee8e7b79816e7", "name": "7a805992bac4e9d74cdee8e7b79816e7"}, {"lon": -77.07467833333334, "is_disabled": 0, "lat": 38.91916333333333, "fusion_lat": 0.0, "is_reserved": 0, "rental_uris": {"ios": "https://dc.lft.to/lastmile_qr_scan", "android": "https://dc.lft.to/lastmile_qr_scan"}, "fusion_lon": 0.0, "type": "electric_scooter", "bike_id": "e4f384863cc381e155db6c8bc368259d", "name": "e4f384863cc381e155db6c8bc368259d"}, {"lon": -76.98172416666667, "is_disabled": 0, "lat": 38.86965583333333, "fusion_lat": 0.0, "is_reserved": 0, "rental_uris": {"ios": "https://dc.lft.to/lastmile_qr_scan", "android": "https://dc.lft.to/lastmile_qr_scan"}, "fusion_lon": 0.0, "type": "electric_scooter", "bike_id": "ac157f12cf7d37dcfd926c3131df3d2a", "name": "ac157f12cf7d37dcfd926c3131df3d2a"}, {"lon": -77.03325633333333, "is_disabled": 0, "lat": 38.8984175, "fusion_lat": 0.0, "is_reserved": 0, "rental_uris": {"ios": "https://dc.lft.to/lastmile_qr_scan", "android": "https://dc.lft.to/lastmile_qr_scan"}, "fusion_lon": 0.0, "type": "electric_scooter", "bike_id": "77af92447debee1fa02fd212d2a4d363", "name": "77af92447debee1fa02fd212d2a4d363"}, {"lon": -76.97833683333333, "is_disabled": 0, "lat": 38.89849983333333, "fusion_lat": 0.0, "is_reserved": 0, "rental_uris": {"ios": "https://dc.lft.to/lastmile_qr_scan", "android": "https://dc.lft.to/lastmile_qr_scan"}, "fusion_lon": 0.0, "type": "electric_scooter", "bike_id": "85cf09c03b4d9140a0a819c93ea30dd1", "name": "85cf09c03b4d9140a0a819c93ea30dd1"}, {"lon": -77.03930066666666, "is_disabled": 0, "lat": 38.898646166666666, "fusion_lat": 0.0, "is_reserved": 0, "rental_uris": {"ios": "https://dc.lft.to/lastmile_qr_scan", "android": "https://dc.lft.to/lastmile_qr_scan"}, "fusion_lon": 0.0, "type": "electric_scooter", "bike_id": "a19b55c8cab6a6e546291cc98dabdc26", "name": "a19b55c8cab6a6e546291cc98dabdc26"}, {"lon": -77.04115383333334, "is_disabled": 0, "lat": 38.910625833333334, "fusion_lat": 0.0, "is_reserved": 0, "rental_uris": {"ios": "https://dc.lft.to/lastmile_qr_scan", "android": "https://dc.lft.to/lastmile_qr_scan"}, "fusion_lon": 0.0, "type": "electric_scooter", "bike_id": "d710d5d3542aa145219487ae992d83cb", "name": "d710d5d3542aa145219487ae992d83cb"}, {"lon": -77.03422633333334, "is_disabled": 0, "lat": 38.928651, "fusion_lat": 0.0, "is_reserved": 0, "rental_uris": {"ios": "https://dc.lft.to/lastmile_qr_scan", "android": "https://dc.lft.to/lastmile_qr_scan"}, "fusion_lon": 0.0, "type": "electric_scooter", "bike_id": "730da5e25b0215d90f67d6060d996a6a", "name": "730da5e25b0215d90f67d6060d996a6a"}, {"lon": -77.00767683333333, "is_disabled": 0, "lat": 38.879269666666666, "fusion_lat": 0.0, "is_reserved": 0, "rental_uris": {"ios": "https://dc.lft.to/lastmile_qr_scan", "android": "https://dc.lft.to/lastmile_qr_scan"}, "fusion_lon": 0.0, "type": "electric_scooter", "bike_id": "07642e5dd6a8b965e5eae234265de961", "name": "07642e5dd6a8b965e5eae234265de961"}, {"lon": -77.23255, "is_disabled": 0, "lat": 38.87256883333333, "fusion_lat": 0.0, "is_reserved": 0, "rental_uris": {"ios": "https://dc.lft.to/lastmile_qr_scan", "android": "https://dc.lft.to/lastmile_qr_scan"}, "fusion_lon": 0.0, "type": "electric_bike", "bike_id": "83aec3e3295b58e0f673aa179ddf7c9c", "name": "83aec3e3295b58e0f673aa179ddf7c9c"}, {"lon": -77.024515, "is_disabled": 0, "lat": 38.9385335, "fusion_lat": 0.0, "is_reserved": 0, "rental_uris": {"ios": "https://dc.lft.to/lastmile_qr_scan", "android": "https://dc.lft.to/lastmile_qr_scan"}, "fusion_lon": 0.0, "type": "electric_scooter", "bike_id": "e1ded30f894a645ffa97e73aed06b9c7", "name": "e1ded30f894a645ffa97e73aed06b9c7"}, {"lon": -77.03635583333333, "is_disabled": 0, "lat": 38.9178905, "fusion_lat": 0.0, "is_reserved": 0, "rental_uris": {"ios": "https://dc.lft.to/lastmile_qr_scan", "android": "https://dc.lft.to/lastmile_qr_scan"}, "fusion_lon": 0.0, "type": "electric_scooter", "bike_id": "b0cd1f7333ccfa72a216b59829271b87", "name": "b0cd1f7333ccfa72a216b59829271b87"}, {"lon": -77.01158333333333, "is_disabled": 0, "lat": 38.8962815, "fusion_lat": 0.0, "is_reserved": 0, "rental_uris": {"ios": "https://dc.lft.to/lastmile_qr_scan", "android": "https://dc.lft.to/lastmile_qr_scan"}, "fusion_lon": 0.0, "type": "electric_scooter", "bike_id": "5c9d1177b420b12755689529514ff70c", "name": "5c9d1177b420b12755689529514ff70c"}, {"lon": -77.0278495, "is_disabled": 0, "lat": 38.92776466666667, "fusion_lat": 0.0, "is_reserved": 0, "rental_uris": {"ios": "https://dc.lft.to/lastmile_qr_scan", "android": "https://dc.lft.to/lastmile_qr_scan"}, "fusion_lon": 0.0, "type": "electric_scooter", "bike_id": "dd4dc7d0c4377f2380a0f8b73e7c0445", "name": "dd4dc7d0c4377f2380a0f8b73e7c0445"}, {"lon": -77.04268733333333, "is_disabled": 0, "lat": 38.908342166666664, "fusion_lat": 0.0, "is_reserved": 0, "rental_uris": {"ios": "https://dc.lft.to/lastmile_qr_scan", "android": "https://dc.lft.to/lastmile_qr_scan"}, "fusion_lon": 0.0, "type": "electric_scooter", "bike_id": "5bac9ae889b54562c899a53455501e01", "name": "5bac9ae889b54562c899a53455501e01"}, {"lon": -77.01845566666667, "is_disabled": 0, "lat": 38.90971433333333, "fusion_lat": 0.0, "is_reserved": 0, "rental_uris": {"ios": "https://dc.lft.to/lastmile_qr_scan", "android": "https://dc.lft.to/lastmile_qr_scan"}, "fusion_lon": 0.0, "type": "electric_scooter", "bike_id": "613de635f5550ab57aff79a949b910c6", "name": "613de635f5550ab57aff79a949b910c6"}, {"lon": -76.98876433333334, "is_disabled": 0, "lat": 38.866601333333335, "fusion_lat": 0.0, "is_reserved": 0, "rental_uris": {"ios": "https://dc.lft.to/lastmile_qr_scan", "android": "https://dc.lft.to/lastmile_qr_scan"}, "fusion_lon": 0.0, "type": "electric_scooter", "bike_id": "1f2f7543623ca07ee347b324fa97b918", "name": "1f2f7543623ca07ee347b324fa97b918"}, {"lon": -77.03865933333333, "is_disabled": 0, "lat": 38.912546, "fusion_lat": 0.0, "is_reserved": 0, "rental_uris": {"ios": "https://dc.lft.to/lastmile_qr_scan", "android": "https://dc.lft.to/lastmile_qr_scan"}, "fusion_lon": 0.0, "type": "electric_scooter", "bike_id": "d5b1c391ef3a27127a16a4844d07eff1", "name": "d5b1c391ef3a27127a16a4844d07eff1"}, {"lon": -77.02124583333334, "is_disabled": 0, "lat": 38.921223, "fusion_lat": 0.0, "is_reserved": 0, "rental_uris": {"ios": "https://dc.lft.to/lastmile_qr_scan", "android": "https://dc.lft.to/lastmile_qr_scan"}, "fusion_lon": 0.0, "type": "electric_scooter", "bike_id": "5b3998214789cb7272e72a9af021a586", "name": "5b3998214789cb7272e72a9af021a586"}, {"lon": -77.042319, "is_disabled": 0, "lat": 38.92060816666667, "fusion_lat": 0.0, "is_reserved": 0, "rental_uris": {"ios": "https://dc.lft.to/lastmile_qr_scan", "android": "https://dc.lft.to/lastmile_qr_scan"}, "fusion_lon": 0.0, "type": "electric_scooter", "bike_id": "a7c1d2fd81e504e072cd11240730e872", "name": "a7c1d2fd81e504e072cd11240730e872"}, {"lon": -77.04473, "is_disabled": 0, "lat": 38.9119375, "fusion_lat": 0.0, "is_reserved": 0, "rental_uris": {"ios": "https://dc.lft.to/lastmile_qr_scan", "android": "https://dc.lft.to/lastmile_qr_scan"}, "fusion_lon": 0.0, "type": "electric_scooter", "bike_id": "caaf97f1070d5c8a5fc0023d14541574", "name": "caaf97f1070d5c8a5fc0023d14541574"}, {"lon": -77.00385633333333, "is_disabled": 0, "lat": 38.89545233333333, "fusion_lat": 0.0, "is_reserved": 0, "rental_uris": {"ios": "https://dc.lft.to/lastmile_qr_scan", "android": "https://dc.lft.to/lastmile_qr_scan"}, "fusion_lon": 0.0, "type": "electric_scooter", "bike_id": "da3d14ba759df386336da6123ce93ac9", "name": "da3d14ba759df386336da6123ce93ac9"}, {"lon": -77.063909, "is_disabled": 0, "lat": 38.944207666666664, "fusion_lat": 0.0, "is_reserved": 0, "rental_uris": {"ios": "https://dc.lft.to/lastmile_qr_scan", "android": "https://dc.lft.to/lastmile_qr_scan"}, "fusion_lon": 0.0, "type": "electric_scooter", "bike_id": "e5dabd9d85d708d3af69f707110da1d1", "name": "e5dabd9d85d708d3af69f707110da1d1"}, {"lon": -76.98370816666667, "is_disabled": 0, "lat": 38.914977666666665, "fusion_lat": 0.0, "is_reserved": 0, "rental_uris": {"ios": "https://dc.lft.to/lastmile_qr_scan", "android": "https://dc.lft.to/lastmile_qr_scan"}, "fusion_lon": 0.0, "type": "electric_scooter", "bike_id": "dfa4f1203c1fefbc7c8e255c3fc7f834", "name": "dfa4f1203c1fefbc7c8e255c3fc7f834"}, {"lon": -77.02808533333334, "is_disabled": 0, "lat": 38.908901, "fusion_lat": 0.0, "is_reserved": 0, "rental_uris": {"ios": "https://dc.lft.to/lastmile_qr_scan", "android": "https://dc.lft.to/lastmile_qr_scan"}, "fusion_lon": 0.0, "type": "electric_scooter", "bike_id": "263e56825bb87c90d5947c2d79d6e3c9", "name": "263e56825bb87c90d5947c2d79d6e3c9"}, {"lon": -77.02203916666667, "is_disabled": 0, "lat": 38.90198616666667, "fusion_lat": 0.0, "is_reserved": 0, "rental_uris": {"ios": "https://dc.lft.to/lastmile_qr_scan", "android": "https://dc.lft.to/lastmile_qr_scan"}, "fusion_lon": 0.0, "type": "electric_scooter", "bike_id": "02438ab6654bdbe80acf6f9d273df8d2", "name": "02438ab6654bdbe80acf6f9d273df8d2"}, {"lon": -77.02285233333333, "is_disabled": 0, "lat": 38.89495866666667, "fusion_lat": 0.0, "is_reserved": 0, "rental_uris": {"ios": "https://dc.lft.to/lastmile_qr_scan", "android": "https://dc.lft.to/lastmile_qr_scan"}, "fusion_lon": 0.0, "type": "electric_scooter", "bike_id": "4918eeacea0848b957e749d1b2ddff52", "name": "4918eeacea0848b957e749d1b2ddff52"}, {"lon": -76.96109866666667, "is_disabled": 0, "lat": 38.918576, "fusion_lat": 0.0, "is_reserved": 0, "rental_uris": {"ios": "https://dc.lft.to/lastmile_qr_scan", "android": "https://dc.lft.to/lastmile_qr_scan"}, "fusion_lon": 0.0, "type": "electric_scooter", "bike_id": "8d179962c674db51efe0d32e137632a7", "name": "8d179962c674db51efe0d32e137632a7"}, {"lon": -77.05038083333334, "is_disabled": 0, "lat": 38.92345516666666, "fusion_lat": 0.0, "is_reserved": 0, "rental_uris": {"ios": "https://dc.lft.to/lastmile_qr_scan", "android": "https://dc.lft.to/lastmile_qr_scan"}, "fusion_lon": 0.0, "type": "electric_scooter", "bike_id": "9326a6fd96552289edf0ecb99028fbc5", "name": "9326a6fd96552289edf0ecb99028fbc5"}, {"lon": -77.04866283333334, "is_disabled": 0, "lat": 38.906376, "fusion_lat": 0.0, "is_reserved": 0, "rental_uris": {"ios": "https://dc.lft.to/lastmile_qr_scan", "android": "https://dc.lft.to/lastmile_qr_scan"}, "fusion_lon": 0.0, "type": "electric_scooter", "bike_id": "4bbd2dcb78f104740eaeaae0e5b9414a", "name": "4bbd2dcb78f104740eaeaae0e5b9414a"}, {"lon": -77.04768016666667, "is_disabled": 0, "lat": 38.89768483333334, "fusion_lat": 0.0, "is_reserved": 0, "rental_uris": {"ios": "https://dc.lft.to/lastmile_qr_scan", "android": "https://dc.lft.to/lastmile_qr_scan"}, "fusion_lon": 0.0, "type": "electric_scooter", "bike_id": "8b230fef366f3e6c8be00b5222b3ede9", "name": "8b230fef366f3e6c8be00b5222b3ede9"}, {"lon": -77.0410685, "is_disabled": 0, "lat": 38.90873366666667, "fusion_lat": 0.0, "is_reserved": 0, "rental_uris": {"ios": "https://dc.lft.to/lastmile_qr_scan", "android": "https://dc.lft.to/lastmile_qr_scan"}, "fusion_lon": 0.0, "type": "electric_scooter", "bike_id": "cf276c1326945894c4cb31bca70aed34", "name": "cf276c1326945894c4cb31bca70aed34"}, {"lon": -77.0228785, "is_disabled": 0, "lat": 38.895149333333336, "fusion_lat": 0.0, "is_reserved": 0, "rental_uris": {"ios": "https://dc.lft.to/lastmile_qr_scan", "android": "https://dc.lft.to/lastmile_qr_scan"}, "fusion_lon": 0.0, "type": "electric_scooter", "bike_id": "480578991380cae1044dfba655c227a4", "name": "480578991380cae1044dfba655c227a4"},