{"data": {"bikes": [{"fusion_lon": 0.0, "is_reserved": 0, "lat": 38.90263133333333, "is_disabled": 0, "type": "electric_scooter", "lon": -77.0418155, "fusion_lat": 0.0, "name": "ed6c0bedae94c0de0ebea4bd132cb862", "rental_uris": {"android": "https://dc.lft.to/lastmile_qr_scan", "ios": "https://dc.lft.to/lastmile_qr_scan"}, "bike_id": "ed6c0bedae94c0de0ebea4bd132cb862"}, {"fusion_lon": 0.0, "is_reserved": 0, "lat": 38.88316366666667, "is_disabled": 0, "type": "electric_scooter", "lon": -77.01556133333334, "fusion_lat": 0.0, "name": "423ed5d4b3f57ed5cc80fd0cdd821584", "rental_uris": {"android": "https://dc.lft.to/lastmile_qr_scan", "ios": "https://dc.lft.to/lastmile_qr_scan"}, "bike_id": "423ed5d4b3f57ed5cc80fd0cdd821584"}, {"fusion_lon": 0.0, "is_reserved": 0, "lat": 38.9247365, "is_disabled": 0, "type": "electric_scooter", "lon": -77.0347605, "fusion_lat": 0.0, "name": "9edfc592d979ecc0d1fc09d3393213ac", "rental_uris": {"android": "https://dc.lft.to/lastmile_qr_scan", "ios": "https://dc.lft.to/lastmile_qr_scan"}, "bike_id": "9edfc592d979ecc0d1fc09d3393213ac"}, {"fusion_lon": 0.0, "is_reserved": 0, "lat": 38.90046266666667, "is_disabled": 0, "type": "electric_scooter", "lon": -77.00225333333333, "fusion_lat": 0.0, "name": "4bf8256b0e95979339cd05e11573bdbc", "rental_uris": {"android": "https://dc.lft.to/lastmile_qr_scan", "ios": "https://dc.lft.to/lastmile_qr_scan"}, "bike_id": "4bf8256b0e95979339cd05e11573bdbc"}, {"fusion_lon": 0.0, "is_reserved": 0, "lat": 38.91107516666667, "is_disabled": 0, "type": "electric_scooter", "lon": -77.02230866666666, "fusion_lat": 0.0, "name": "907ea346771d57fe11d5b4d50562bdde", "rental_uris": {"android": "https://dc.lft.to/lastmile_qr_scan", "ios": "https://dc.lft.to/lastmile_qr_scan"}, "bike_id": "907ea346771d57fe11d5b4d50562bdde"}, {"fusion_lon": 0.0, "is_reserved": 0, "lat": 38.90902366666667, "is_disabled": 0, "type": "electric_scooter", "lon": -77.042099, "fusion_lat": 0.0, "name": "464e58e5cd91aa2e9a0c60d407e61245", "rental_uris": {"android": "https://dc.lft.to/lastmile_qr_scan", "ios": "https://dc.lft.to/lastmile_qr_scan"}, "bike_id": "464e58e5cd91aa2e9a0c60d407e61245"}, {"fusion_lon": 0.0, "is_reserved": 0, "lat": 39.085096166666666, "is_disabled": 0, "type": "electric_bike", "lon": -76.9506285, "fusion_lat": 0.0, "name": "4b974b479e92430383b1fafc3cad68e6", "rental_uris": {"android": "https://dc.lft.to/lastmile_qr_scan", "ios": "https://dc.lft.to/lastmile_qr_scan"}, "bike_id": "4b974b479e92430383b1fafc3cad68e6"}, {"fusion_lon": 0.0, "is_reserved": 0, "lat": 38.8948445, "is_disabled": 0, "type": "electric_scooter", "lon": -77.01089, "fusion_lat": 0.0, "name": "886fde3900d8177012adbf09351f9680", "rental_uris": {"android": "https://dc.lft.to/lastmile_qr_scan", "ios": "https://dc.lft.to/lastmile_qr_scan"}, "bike_id": "886fde3900d8177012adbf09351f9680"}, {"fusion_lon": 0.0, "is_reserved": 0, "lat": 38.91722466666667, "is_disabled": 0, "type": "electric_scooter", "lon": -77.01928716666667, "fusion_lat": 0.0, "name": "76230245e3de2527b9e6ed474e824be2", "rental_uris": {"android": "https://dc.lft.to/lastmile_qr_scan", "ios": "https://dc.lft.to/lastmile_qr_scan"}, "bike_id": "76230245e3de2527b9e6ed474e824be2"}, {"fusion_lon": 0.0, "is_reserved": 0, "lat": 38.8961125, "is_disabled": 0, "type": "electric_scooter", "lon": -77.04432733333333, "fusion_lat": 0.0, "name": "730a4edc4a1f1b434a6311b9d6472239", "rental_uris": {"android": "https://dc.lft.to/lastmile_qr_scan", "ios": "https://dc.lft.to/lastmile_qr_scan"}, "bike_id": "730a4edc4a1f1b434a6311b9d6472239"}, {"fusion_lon": 0.0, "is_reserved": 0, "lat": 38.9260085, "is_disabled": 0, "type": "electric_scooter", "lon": -77.073293, "fusion_lat": 0.0, "name": "3538e47328ad29932ca0e367e44cc21a", "rental_uris": {"android": "https://dc.lft.to/lastmile_qr_scan", "ios": "https://dc.lft.to/lastmile_qr_scan"}, "bike_id": "3538e47328ad29932ca0e367e44cc21a"}, {"fusion_lon": 0.0, "is_reserved": 0, "lat": 38.92137666666667, "is_disabled": 0, "type": "electric_scooter", "lon": -77.018362, "fusion_lat": 0.0, "name": "0e84695b6f7ba2f6eddfbad31e3c8dd2", "rental_uris": {"android": "https://dc.lft.to/lastmile_qr_scan", "ios": "https://dc.lft.to/lastmile_qr_scan"}, "bike_id": "0e84695b6f7ba2f6eddfbad31e3c8dd2"}, {"fusion_lon": 0.0, "is_reserved": 0, "lat": 38.914321666666666, "is_disabled": 0, "type": "electric_scooter", "lon": -77.02201783333334, "fusion_lat": 0.0, "name": "a1b745526cb49d786072f1d45bd269e8", "rental_uris": {"android": "https://dc.lft.to/lastmile_qr_scan", "ios": "https://dc.lft.to/lastmile_qr_scan"}, "bike_id": "a1b745526cb49d786072f1d45bd269e8"}, {"fusion_lon": 0.0, "is_reserved": 0, "lat": 38.92082083333333, "is_disabled": 0, "type": "electric_scooter", "lon": -77.02302616666667, "fusion_lat": 0.0, "name": "134b68ff5193fef2fe126c8a816cb68d", "rental_uris": {"android": "https://dc.lft.to/lastmile_qr_scan", "ios": "https://dc.lft.to/lastmile_qr_scan"}, "bike_id": "134b68ff5193fef2fe126c8a816cb68d"}, {"fusion_lon": 0.0, "is_reserved": 0, "lat": 38.920323333333336, "is_disabled": 0, "type": "electric_scooter", "lon": -77.0418535, "fusion_lat": 0.0, "name": "23246bbb241faf1c1b8096a973e2cf6a", "rental_uris": {"android": "https://dc.lft.to/lastmile_qr_scan", "ios": "https://dc.lft.to/lastmile_qr_scan"}, "bike_id": "23246bbb241faf1c1b8096a973e2cf6a"}, {"fusion_lon": 0.0, "is_reserved": 0, "lat": 38.91932933333333, "is_disabled": 0, "type": "electric_scooter", "lon": -77.01908916666666, "fusion_lat": 0.0, "name": "6844ea5516dbf477833dc9ad103a06e1", "rental_uris": {"android": "https://dc.lft.to/lastmile_qr_scan", "ios": "https://dc.lft.to/lastmile_qr_scan"}, "bike_id": "6844ea5516dbf477833dc9ad103a06e1"}, {"fusion_lon": 0.0, "is_reserved": 0, "lat": 38.8643665, "is_disabled": 0, "type": "electric_scooter", "lon": -76.98995066666667, "fusion_lat": 0.0, "name": "970bff97e86564064655a1ec6bfd9ea9", "rental_uris": {"android": "https://dc.lft.to/lastmile_qr_scan", "ios": "https://dc.lft.to/lastmile_qr_scan"}, "bike_id": "970bff97e86564064655a1ec6bfd9ea9"}, {"fusion_lon": 0.0, "is_reserved": 0, "lat": 38.948020666666665, "is_disabled": 0, "type": "electric_scooter", "lon": -77.07908183333333, "fusion_lat": 0.0, "name": "82d3fba48691515dc25447891e5d4ac3", "rental_uris": {"android": "https://dc.lft.to/lastmile_qr_scan", "ios": "https://dc.lft.to/lastmile_qr_scan"}, "bike_id": "82d3fba48691515dc25447891e5d4ac3"}, {"fusion_lon": 0.0, "is_reserved": 0, "lat": 38.920406166666666, "is_disabled": 0, "type": "electric_scooter", "lon": -77.01678983333333, "fusion_lat": 0.0, "name": "970ab5d9a07811b86a032223f5693ee8", "rental_uris": {"android": "https://dc.lft.to/lastmile_qr_scan", "ios": "https://dc.lft.to/lastmile_qr_scan"}, "bike_id": "970ab5d9a07811b86a032223f5693ee8"}, {"fusion_lon": 0.0, "is_reserved": 0, "lat": 38.907014333333336, "is_disabled": 0, "type": "electric_scooter", "lon": -77.02402183333334, "fusion_lat": 0.0, "name": "062817ed50db835904bdd67ccf240461", "rental_uris": {"android": "https://dc.lft.to/lastmile_qr_scan", "ios": "https://dc.lft.to/lastmile_qr_scan"}, "bike_id": "062817ed50db835904bdd67ccf240461"}, {"fusion_lon": 0.0, "is_reserved": 0, "lat": 38.92134883333333, "is_disabled": 0, "type": "electric_scooter", "lon": -77.0092945, "fusion_lat": 0.0, "name": "d4821702ad9911bb37cb5a7678250e94", "rental_uris": {"android": "https://dc.lft.to/lastmile_qr_scan", "ios": "https://dc.lft.to/lastmile_qr_scan"}, "bike_id": "d4821702ad9911bb37cb5a7678250e94"}, {"fusion_lon": 0.0, "is_reserved": 0, "lat": 38.8962775, "is_disabled": 0, "type": "electric_scooter", "lon": -76.92968366666666, "fusion_lat": 0.0, "name": "597f0ad7ef270bba08400e50189398ee", "rental_uris": {"android": "https://dc.lft.to/lastmile_qr_scan", "ios": "https://dc.lft.to/lastmile_qr_scan"}, "bike_id": "597f0ad7ef270bba08400e50189398ee"}, {"fusion_lon": 0.0, "is_reserved": 0, "lat": 38.88639883333333, "is_disabled": 0, "type": "electric_scooter", "lon": -77.00344766666667, "fusion_lat": 0.0, "name": "9573b0999ae6e14c32e1ba788b40e59f", "rental_uris": {"android": "https://dc.lft.to/lastmile_qr_scan", "ios": "https://dc.lft.to/lastmile_qr_scan"}, "bike_id": "9573b0999ae6e14c32e1ba788b40e59f"}, {"fusion_lon": 0.0, "is_reserved": 0, "lat": 38.86578766666667, "is_disabled": 0, "type": "electric_bike", "lon": -77.12937083333334, "fusion_lat": 0.0, "name": "b39c4d960e08c86e5f2330204a29c140", "rental_uris": {"android": "https://dc.lft.to/lastmile_qr_scan", "ios": "https://dc.lft.to/lastmile_qr_scan"}, "bike_id": "b39c4d960e08c86e5f2330204a29c140"}, {"fusion_lon": 0.0, "is_reserved": 0, "lat": 38.92664033333333, "is_disabled": 0, "type": "electric_scooter", "lon": -77.01496966666667, "fusion_lat": 0.0, "name": "55f10dd6834f2beff573835717baf243", "rental_uris": {"android": "https://dc.lft.to/lastmile_qr_scan", "ios": "https://dc.lft.to/lastmile_qr_scan"}, "bike_id": "55f10dd6834f2beff573835717baf243"}, {"fusion_lon": 0.0, "is_reserved": 0, "lat": 38.92320933333333, "is_disabled": 0, "type": "electric_scooter", "lon": -77.029715, "fusion_lat": 0.0, "name": "c5a21b5555d1d150d9b13d814afef11b", "rental_uris": {"android": "https://dc.lft.to/lastmile_qr_scan", "ios": "https://dc.lft.to/lastmile_qr_scan"}, "bike_id": "c5a21b5555d1d150d9b13d814afef11b"}, {"fusion_lon": 0.0, "is_reserved": 0, "lat": 38.90702983333333, "is_disabled": 0, "type": "electric_scooter", "lon": -77.02393683333334, "fusion_lat": 0.0, "name": "775cd170819cdd9d237b70a9f0d1bf6a", "rental_uris": {"android": "https://dc.lft.to/lastmile_qr_scan", "ios": "https://dc.lft.to/lastmile_qr_scan"}, "bike_id": "775cd170819cdd9d237b70a9f0d1bf6a"}, {"fusion_lon": 0.0, "is_reserved": 0, "lat": 38.9075095, "is_disabled": 0, "type": "electric_scooter", "lon": -77.03442716666666, "fusion_lat": 0.0, "name": "4a6fb955249a343728600fd3c28c60ec", "rental_uris": {"android": "https://dc.lft.to/lastmile_qr_scan", "ios": "https://dc.lft.to/lastmile_qr_scan"}, "bike_id": "4a6fb955249a343728600fd3c28c60ec"}, {"fusion_lon": 0.0, "is_reserved": 0, "lat": 38.902559, "is_disabled": 0, "type": "electric_scooter", "lon": -77.03524466666667, "fusion_lat": 0.0, "name": "dd1496271537e79b28d81c1c936522c3", "rental_uris": {"android": "https://dc.lft.to/lastmile_qr_scan", "ios": "https://dc.lft.to/lastmile_qr_scan"}, "bike_id": "dd1496271537e79b28d81c1c936522c3"}, {"fusion_lon": 0.0, "is_reserved": 0, "lat": 38.881106, "is_disabled": 0, "type": "electric_scooter", "lon": -77.00063366666667, "fusion_lat": 0.0, "name": "8234ac43aa66a3fba5bac3009f66f9de", "rental_uris": {"android": "https://dc.lft.to/lastmile_qr_scan", "ios": "https://dc.lft.to/lastmile_qr_scan"}, "bike_id": "8234ac43aa66a3fba5bac3009f66f9de"}, {"fusion_lon": 0.0, "is_reserved": 0, "lat": 38.903780833333336, "is_disabled": 0, "type": "electric_scooter", "lon": -77.038424, "fusion_lat": 0.0, "name": "7d5a37c55a156fbf8185874955b1d8d5", "rental_uris": {"android": "https://dc.lft.to/lastmile_qr_scan", "ios": "https://dc.lft.to/lastmile_qr_scan"}, "bike_id": "7d5a37c55a156fbf8185874955b1d8d5"}, {"fusion_lon": 0.0, "is_reserved": 0, "lat": 38.93060083333334, "is_disabled": 0, "type": "electric_scooter", "lon": -77.023252, "fusion_lat": 0.0, "name": "883fa762657ed4c2cfb81981c43b9d17", "rental_uris": {"android": "https://dc.lft.to/lastmile_qr_scan", "ios": "https://dc.lft.to/lastmile_qr_scan"}, "bike_id": "883fa762657ed4c2cfb81981c43b9d17"}, {"fusion_lon": 0.0, "is_reserved": 0, "lat": 38.92048233333333, "is_disabled": 0, "type": "electric_scooter", "lon": -77.03440633333334, "fusion_lat": 0.0, "name": "6be1dbf3e95663581935e75b09917f7a", "rental_uris": {"android": "https://dc.lft.to/lastmile_qr_scan", "ios": "https://dc.lft.to/lastmile_qr_scan"}, "bike_id": "6be1dbf3e95663581935e75b09917f7a"}, {"fusion_lon": 0.0, "is_reserved": 0, "lat": 38.90105416666667, "is_disabled": 0, "type": "electric_scooter", "lon": -76.99960583333333, "fusion_lat": 0.0, "name": "591412637e7e56013eadc204829e292a", "rental_uris": {"android": "https://dc.lft.to/lastmile_qr_scan", "ios": "https://dc.lft.to/lastmile_qr_scan"}, "bike_id": "591412637e7e56013eadc204829e292a"}, {"fusion_lon": 0.0, "is_reserved": 0, "lat": 38.930670666666664, "is_disabled": 0, "type": "electric_scooter", "lon": -77.0413475, "fusion_lat": 0.0, "name": "995a47bde8784b59bf90696f8e819bc3", "rental_uris": {"android": "https://dc.lft.to/lastmile_qr_scan", "ios": "https://dc.lft.to/lastmile_qr_scan"}, "bike_id": "995a47bde8784b59bf90696f8e819bc3"}, {"fusion_lon": 0.0, "is_reserved": 0, "lat": 38.865427333333336, "is_disabled": 0, "type": "electric_bike", "lon": -76.97353133333333, "fusion_lat": 0.0, "name": "26481598233d73bedfde5e4f25bf0b8a", "rental_uris": {"android": "https://dc.lft.to/lastmile_qr_scan", "ios": "https://dc.lft.to/lastmile_qr_scan"}, "bike_id": "26481598233d73bedfde5e4f25bf0b8a"}, {"fusion_lon": 0.0, "is_reserved": 0, "lat": 38.85014983333333, "is_disabled": 0, "type": "electric_bike", "lon": -77.09817866666667, "fusion_lat": 0.0, "name": "d9e7cc5823456c19d80c2a4d0376dada", "rental_uris": {"android": "https://dc.lft.to/lastmile_qr_scan", "ios": "https://dc.lft.to/lastmile_qr_scan"}, "bike_id": "d9e7cc5823456c19d80c2a4d0376dada"}, {"fusion_lon": 0.0, "is_reserved": 0, "lat": 38.90610066666667, "is_disabled": 0, "type": "electric_scooter", "lon": -77.01885316666667, "fusion_lat": 0.0, "name": "e0187899f726e2259873d942c18395c6", "rental_uris": {"android": "https://dc.lft.to/lastmile_qr_scan", "ios": "https://dc.lft.to/lastmile_qr_scan"}, "bike_id": "e0187899f726e2259873d942c18395c6"}, {"fusion_lon": 0.0, "is_reserved": 0, "lat": 38.896101, "is_disabled": 0, "type": "electric_scooter", "lon": -76.99746933333333, "fusion_lat": 0.0, "name": "2ca6497a63f860a8f5814a00155971a5", "rental_uris": {"android": "https://dc.lft.to/lastmile_qr_scan", "ios": "https://dc.lft.to/lastmile_qr_scan"}, "bike_id": "2ca6497a63f860a8f5814a00155971a5"}, {"fusion_lon": 0.0, "is_reserved": 0, "lat": 38.89887916666667, "is_disabled": 0, "type": "electric_scooter", "lon": -77.04347383333334, "fusion_lat": 0.0, "name": "5415fc6cf5e2a6ca08d3899448695fbb", "rental_uris": {"android": "https://dc.lft.to/lastmile_qr_scan", "ios": "https://dc.lft.to/lastmile_qr_scan"}, "bike_id": "5415fc6cf5e2a6ca08d3899448695fbb"}, {"fusion_lon": 0.0, "is_reserved": 0, "lat": 38.891637333333335, "is_disabled": 0, "type": "electric_scooter", "lon": -76.99939, "fusion_lat": 0.0, "name": "675ffa729f01d6282438e2a9084e152b", "rental_uris": {"android": "https://dc.lft.to/lastmile_qr_scan", "ios": "https://dc.lft.to/lastmile_qr_scan"}, "bike_id": "675ffa729f01d6282438e2a9084e152b"}, {"fusion_lon": 0.0, "is_reserved": 0, "lat": 38.929359, "is_disabled": 0, "type": "electric_scooter", "lon": -77.03276166666667, "fusion_lat": 0.0, "name": "400630a0fe59a237122a951d4a39f53b", "rental_uris": {"android": "https://dc.lft.to/lastmile_qr_scan", "ios": "https://dc.lft.to/lastmile_qr_scan"}, "bike_id": "400630a0fe59a237122a951d4a39f53b"}, {"fusion_lon": 0.0, "is_reserved": 0, "lat": 38.985377, "is_disabled": 0, "type": "electric_bike", "lon": -77.004033, "fusion_lat": 0.0, "name": "484678bab1fea2857b68122588923dff", "rental_uris": {"android": "https://dc.lft.to/lastmile_qr_scan", "ios": "https://dc.lft.to/lastmile_qr_scan"}, "bike_id": "484678bab1fea2857b68122588923dff"}, {"fusion_lon": 0.0, "is_reserved": 0, "lat": 38.921490666666664, "is_disabled": 0, "type": "electric_scooter", "lon": -77.03360633333334, "fusion_lat": 0.0, "name": "589365817c156c4dab5f29c5f680d1a2", "rental_uris": {"android": "https://dc.lft.to/lastmile_qr_scan", "ios": "https://dc.lft.to/lastmile_qr_scan"}, "bike_id": "589365817c156c4dab5f29c5f680d1a2"}, {"fusion_lon": 0.0, "is_reserved": 0, "lat": 38.89603533333333, "is_disabled": 0, "type": "electric_scooter", "lon": -77.01332866666667, "fusion_lat": 0.0, "name": "2fcb69a28fb05fc42410d1e3e517335a", "rental_uris": {"android": "https://dc.lft.to/lastmile_qr_scan", "ios": "https://dc.lft.to/lastmile_qr_scan"}, "bike_id": "2fcb69a28fb05fc42410d1e3e517335a"}, {"fusion_lon": 0.0, "is_reserved": 0, "lat": 38.898393, "is_disabled": 0, "type": "electric_scooter", "lon": -76.93813166666666, "fusion_lat": 0.0, "name": "eb14154288af29d2664ef9847b3b4782", "rental_uris": {"android": "https://dc.lft.to/lastmile_qr_scan", "ios": "https://dc.lft.to/lastmile_qr_scan"}, "bike_id": "eb14154288af29d2664ef9847b3b4782"}, {"fusion_lon": 0.0, "is_reserved": 0, "lat": 38.83140366666667, "is_disabled": 0, "type": "electric_bike", "lon": -76.994069, "fusion_lat": 0.0, "name": "f2307fb4c887775d63dd19c66e6a4640", "rental_uris": {"android": "https://dc.lft.to/lastmile_qr_scan", "ios": "https://dc.lft.to/lastmile_qr_scan"}, "bike_id": "f2307fb4c887775d63dd19c66e6a4640"}, {"fusion_lon": 0.0, "is_reserved": 0, "lat": 38.92424233333333, "is_disabled": 0, "type": "electric_scooter", "lon": -77.05178716666667, "fusion_lat": 0.0, "name": "6253058685155a3fa0a8e27f3ddf99f3", "rental_uris": {"android": "https://dc.lft.to/lastmile_qr_scan", "ios": "https://dc.lft.to/lastmile_qr_scan"}, "bike_id": "6253058685155a3fa0a8e27f3ddf99f3"}, {"fusion_lon": 0.0, "is_reserved": 0, "lat": 38.905528333333336, "is_disabled": 0, "type": "electric_scooter", "lon": -77.05010716666666, "fusion_lat": 0.0, "name": "55ff3f51486b027f2ce2a212c499dc1b", "rental_uris": {"android": "https://dc.lft.to/lastmile_qr_scan", "ios": "https://dc.lft.to/lastmile_qr_scan"}, "bike_id": "55ff3f51486b027f2ce2a212c499dc1b"}, {"fusion_lon": 0.0, "is_reserved": 0, "lat": 38.92105, "is_disabled": 0, "type": "electric_scooter", "lon": -77.02500783333333, "fusion_lat": 0.0, "name": "42802223d19dbca33e9afe97cafb0c2f", "rental_uris": {"android": "https://dc.lft.to/lastmile_qr_scan", "ios": "https://dc.lft.to/lastmile_qr_scan"}, "bike_id": "42802223d19dbca33e9afe97cafb0c2f"}, {"fusion_lon": 0.0, "is_reserved": 0, "lat": 38.89922283333333, "is_disabled": 0, "type": "electric_scooter", "lon": -76.9457885, "fusion_lat": 0.0, "name": "0ab2048f27a92a45c51b0bb41b18ff5e", "rental_uris": {"android": "https://dc.lft.to/lastmile_qr_scan", "ios": "https://dc.lft.to/lastmile_qr_scan"}, "bike_id": "0ab2048f27a92a45c51b0bb41b18ff5e"}, {"fusion_lon": 0.0, "is_reserved": 0, "lat": 38.89193983333333, "is_disabled": 0, "type": "electric_scooter", "lon": -77.02381083333333, "fusion_lat": 0.0, "name": "05236c082e5b982cdd4a670d23c55820", "rental_uris": {"android": "https://dc.lft.to/lastmile_qr_scan", "ios": "https://dc.lft.to/lastmile_qr_scan"}, "bike_id": "05236c082e5b982cdd4a670d23c55820"}, {"fusion_lon": 0.0, "is_reserved": 0, "lat": 38.92882383333333, "is_disabled": 0, "type": "electric_scooter", "lon": -77.034773, "fusion_lat": 0.0, "name": "74390b5aebe7fa3cd0675d056032a6c3", "rental_uris": {"android": "https://dc.lft.to/lastmile_qr_scan", "ios": "https://dc.lft.to/lastmile_qr_scan"}, "bike_id": "74390b5aebe7fa3cd0675d056032a6c3"}, {"fusion_lon": 0.0, "is_reserved": 0, "lat": 38.948522, "is_disabled": 0, "type": "electric_bike", "lon": -77.080214, "fusion_lat": 0.0, "name": "f1ca54a2e7d9766d762f7be5535b64a3", "rental_uris": {"android": "https://dc.lft.to/lastmile_qr_scan", "ios": "https://dc.lft.to/lastmile_qr_scan"}, "bike_id": "f1ca54a2e7d9766d762f7be5535b64a3"}, {"fusion_lon": 0.0, "is_reserved": 0, "lat": 38.9032375, "is_disabled": 0, "type": "electric_scooter", "lon": -77.0205275, "fusion_lat": 0.0, "name": "bf48bdce9d75d2b0939972bdb95df748", "rental_uris": {"android": "https://dc.lft.to/lastmile_qr_scan", "ios": "https://dc.lft.to/lastmile_qr_scan"}, "bike_id": "bf48bdce9d75d2b0939972bdb95df748"}, {"fusion_lon": 0.0, "is_reserved": 0, "lat": 38.89565433333333, "is_disabled": 0, "type": "electric_bike", "lon": -77.12738183333333, "fusion_lat": 0.0, "name": "5df20571d6b0d992e1648a11c88332f5", "rental_uris": {"android": "https://dc.lft.to/lastmile_qr_scan", "ios": "https://dc.lft.to/lastmile_qr_scan"}, "bike_id": "5df20571d6b0d992e1648a11c88332f5"}, {"fusion_lon": 0.0, "is_reserved": 0, "lat": 38.89966733333333, "is_disabled": 0, "type": "electric_scooter", "lon": -77.02812766666666, "fusion_lat": 0.0, "name": "add7fd142a52575ebdd2acbfcb2d0546", "rental_uris": {"android": "https://dc.lft.to/lastmile_qr_scan", "ios": "https://dc.lft.to/lastmile_qr_scan"}, "bike_id": "add7fd142a52575ebdd2acbfcb2d0546"}, {"fusion_lon": 0.0, "is_reserved": 0, "lat": 38.90577066666667, "is_disabled": 0, "type": "electric_scooter", "lon": -77.03461583333333, "fusion_lat": 0.0, "name": "f26fc99b8a6e33d872c166eb723a33bc", "rental_uris": {"android": "https://dc.lft.to/lastmile_qr_scan", "ios": "https://dc.lft.to/lastmile_qr_scan"}, "bike_id": "f26fc99b8a6e33d872c166eb723a33bc"}, {"fusion_lon": 0.0, "is_reserved": 0, "lat": 39.026213, "is_disabled": 0, "type": "electric_bike", "lon": -77.03877216666666, "fusion_lat": 0.0, "name": "5296683ee00e6aed50df4fc37ef9e2cc", "rental_uris": {"android": "https://dc.lft.to/lastmile_qr_scan", "ios": "https://dc.lft.to/lastmile_qr_scan"}, "bike_id": "5296683ee00e6aed50df4fc37ef9e2cc"}, {"fusion_lon": 0.0, "is_reserved": 0, "lat": 38.896641, "is_disabled": 0, "type": "electric_scooter", "lon": -77.01177516666667, "fusion_lat": 0.0, "name": "d1446a603ffc3d0c892127a651df78ad", "rental_uris": {"android": "https://dc.lft.to/lastmile_qr_scan", "ios": "https://dc.lft.to/lastmile_qr_scan"}, "bike_id": "d1446a603ffc3d0c892127a651df78ad"}, {"fusion_lon": 0.0, "is_reserved": 0, "lat": 38.91787433333333, "is_disabled": 0, "type": "electric_scooter", "lon": -77.023068, "fusion_lat": 0.0, "name": "0ce1a7e9f22014d8ac32b80fdd56f373", "rental_uris": {"android": "https://dc.lft.to/lastmile_qr_scan", "ios": "https://dc.lft.to/lastmile_qr_scan"}, "bike_id": "0ce1a7e9f22014d8ac32b80fdd56f373"}, {"fusion_lon": 0.0, "is_reserved": 0, "lat": 38.90965516666667, "is_disabled": 0, "type": "electric_scooter", "lon": -77.02373483333334, "fusion_lat": 0.0, "name": "9056f689f212f606beea0c485e87bd9f", "rental_uris": {"android": "https://dc.lft.to/lastmile_qr_scan", "ios": "https://dc.lft.to/lastmile_qr_scan"}, "bike_id": "9056f689f212f606beea0c485e87bd9f"}, {"fusion_lon": 0.0, "is_reserved": 0, "lat": 38.94278383333334, "is_disabled": 0, "type": "electric_scooter", "lon": -77.02929766666666, "fusion_lat": 0.0, "name": "50ec06222d543420840f123ddb750f68", "rental_uris": {"android": "https://dc.lft.to/lastmile_qr_scan", "ios": "https://dc.lft.to/lastmile_qr_scan"}, "bike_id": "50ec06222d543420840f123ddb750f68"}, {"fusion_lon": 0.0, "is_reserved": 0, "lat": 38.91961366666666, "is_disabled": 0, "type": "electric_bike", "lon": -77.02767266666666, "fusion_lat": 0.0, "name": "79f5b6577dedf6f8a36415c58bbda73e", "rental_uris": {"android": "https://dc.lft.to/lastmile_qr_scan", "ios": "https://dc.lft.to/lastmile_qr_scan"}, "bike_id": "79f5b6577dedf6f8a36415c58bbda73e"}, {"fusion_lon": 0.0, "is_reserved": 0, "lat": 38.90410283333333, "is_disabled": 0, "type": "electric_scooter", "lon": -76.98080016666667, "fusion_lat": 0.0, "name": "0ccbf47a79dcfa9d35400eea35d46e95", "rental_uris": {"android": "https://dc.lft.to/lastmile_qr_scan", "ios": "https://dc.lft.to/lastmile_qr_scan"}, "bike_id": "0ccbf47a79dcfa9d35400eea35d46e95"}, {"fusion_lon": 0.0, "is_reserved": 0, "lat": 38.922157166666665, "is_disabled": 0, "type": "electric_scooter", "lon": -77.03893866666667, "fusion_lat": 0.0, "name": "d6d72559c10b7394f807289fc03e6b82", "rental_uris": {"android": "https://dc.lft.to/lastmile_qr_scan", "ios": "https://dc.lft.to/lastmile_qr_scan"}, "bike_id": "d6d72559c10b7394f807289fc03e6b82"}, {"fusion_lon": 0.0, "is_reserved": 0, "lat": 38.900546, "is_disabled": 0, "type": "electric_scooter", "lon": -76.998426, "fusion_lat": 0.0, "name": "8c010973acdc54e513e96361ed5620c7", "rental_uris": {"android": "https://dc.lft.to/lastmile_qr_scan", "ios": "https://dc.lft.to/lastmile_qr_scan"}, "bike_id": "8c010973acdc54e513e96361ed5620c7"}, {"fusion_lon": 0.0, "is_reserved": 0, "lat": 38.941834666666665, "is_disabled": 0, "type": "electric_scooter", "lon": -77.02488916666667, "fusion_lat": 0.0, "name": "fd37af6058b27151ffc759a26e537af1", "rental_uris": {"android": "https://dc.lft.to/lastmile_qr_scan", "ios": "https://dc.lft.to/lastmile_qr_scan"}, "bike_id": "fd37af6058b27151ffc759a26e537af1"}, {"fusion_lon": 0.0, "is_reserved": 0, "lat": 38.9231965, "is_disabled": 0, "type": "electric_scooter", "lon": -77.07305483333333, "fusion_lat": 0.0, "name": "a76593c01aa866701b803532c6c53cb6", "rental_uris": {"android": "https://dc.lft.to/lastmile_qr_scan", "ios": "https://dc.lft.to/lastmile_qr_scan"}, "bike_id": "a76593c01aa866701b803532c6c53cb6"}, {"fusion_lon": 0.0, "is_reserved": 0, "lat": 38.901804, "is_disabled": 0, "type": "electric_scooter", "lon": -77.02182183333333, "fusion_lat": 0.0, "name": "d83058ad5dc38fcc04ba4ca6cf81cee6", "rental_uris": {"android": "https://dc.lft.to/lastmile_qr_scan", "ios": "https://dc.lft.to/lastmile_qr_scan"}, "bike_id": "d83058ad5dc38fcc04ba4ca6cf81cee6"}, {"fusion_lon": 0.0, "is_reserved": 0, "lat": 38.928903166666665, "is_disabled": 0, "type": "electric_scooter", "lon": -77.0347795, "fusion_lat": 0.0, "name": "f539f0da784e6407bb78b75f3b8818a9", "rental_uris": {"android": "https://dc.lft.to/lastmile_qr_scan", "ios": "https://dc.lft.to/lastmile_qr_scan"}, "bike_id": "f539f0da784e6407bb78b75f3b8818a9"}, {"fusion_lon": 0.0, "is_reserved": 0, "lat": 38.9314685, "is_disabled": 0, "type": "electric_scooter", "lon": -77.03959583333334, "fusion_lat": 0.0, "name": "7b29862d046fef11e1a60282e1b4353e", "rental_uris": {"android": "https://dc.lft.to/lastmile_qr_scan", "ios": "https://dc.lft.to/lastmile_qr_scan"}, "bike_id": "7b29862d046fef11e1a60282e1b4353e"}, {"fusion_lon": 0.0, "is_reserved": 0, "lat": 38.8988035, "is_disabled": 0, "type": "electric_scooter", "lon": -77.032712, "fusion_lat": 0.0, "name": "9c41109c5a996f924a72308589f7592c", "rental_uris": {"android": "https://dc.lft.to/lastmile_qr_scan", "ios": "https://dc.lft.to/lastmile_qr_scan"}, "bike_id": "9c41109c5a996f924a72308589f7592c"}, {"fusion_lon": 0.0, "is_reserved": 0, "lat": 38.877832166666664, "is_disabled": 0, "type": "electric_scooter", "lon": -76.993592, "fusion_lat": 0.0, "name": "076805bb6e0e7e20dc90bac558b76121", "rental_uris": {"android": "https://dc.lft.to/lastmile_qr_scan", "ios": "https://dc.lft.to/lastmile_qr_scan"}, "bike_id": "076805bb6e0e7e20dc90bac558b76121"}, {"fusion_lon": 0.0, "is_reserved": 0, "lat": 38.905210333333336, "is_disabled": 0, "type": "electric_scooter", "lon": -77.04746616666667, "fusion_lat": 0.0, "name": "de4e02f1137442a3d214bf19af684870", "rental_uris": {"android": "https://dc.lft.to/lastmile_qr_scan", "ios": "https://dc.lft.to/lastmile_qr_scan"}, "bike_id": "de4e02f1137442a3d214bf19af684870"}, {"fusion_lon": 0.0, "is_reserved": 0, "lat": 38.87601333333333, "is_disabled": 0, "type": "electric_scooter", "lon": -77.01990733333334, "fusion_lat": 0.0, "name": "23ae76aef6e73f26a086707fb13189f0", "rental_uris": {"android": "https://dc.lft.to/lastmile_qr_scan", "ios": "https://dc.lft.to/lastmile_qr_scan"}, "bike_id": "23ae76aef6e73f26a086707fb13189f0"}, {"fusion_lon": 0.0, "is_reserved": 0, "lat": 38.80051983333333, "is_disabled": 0, "type": "electric_bike", "lon": -77.12838, "fusion_lat": 0.0, "name": "16695d345353d6112411251e43348c54", "rental_uris": {"android": "https://dc.lft.to/lastmile_qr_scan", "ios": "https://dc.lft.to/lastmile_qr_scan"}, "bike_id": "16695d345353d6112411251e43348c54"}, {"fusion_lon": 0.0, "is_reserved": 0, "lat": 38.91194816666667, "is_disabled": 0, "type": "electric_scooter", "lon": -77.00440516666667, "fusion_lat": 0.0, "name": "1635c282f037d6c3a7d51f3bedc23aaa", "rental_uris": {"android": "https://dc.lft.to/lastmile_qr_scan", "ios": "https://dc.lft.to/lastmile_qr_scan"}, "bike_id": "1635c282f037d6c3a7d51f3bedc23aaa"}, {"fusion_lon": 0.0, "is_reserved": 0, "lat": 38.900375, "is_disabled": 0, "type": "electric_scooter", "lon": -76.99733666666667, "fusion_lat": 0.0, "name": "e3e8b34c617f5b62be729ebaddf78e9e", "rental_uris": {"android": "https://dc.lft.to/lastmile_qr_scan", "ios": "https://dc.lft.to/lastmile_qr_scan"}, "bike_id": "e3e8b34c617f5b62be729ebaddf78e9e"}, {"fusion_lon": 0.0, "is_reserved": 0, "lat": 38.89712933333333, "is_disabled": 0, "type": "electric_scooter", "lon": -77.03186383333333, "fusion_lat": 0.0, "name": "2ed2b96e16f1ec778e3c0281e205e6c1", "rental_uris": {"android": "https://dc.lft.to/lastmile_qr_scan", "ios": "https://dc.lft.to/lastmile_qr_scan"}, "bike_id": "2ed2b96e16f1ec778e3c0281e205e6c1"}, {"fusion_lon": 0.0, "is_reserved": 0, "lat": 38.916251, "is_disabled": 0, "type": "electric_scooter", "lon": -77.01089283333333, "fusion_lat": 0.0, "name": "4335cae33abb15b676e7131d180a92e9", "rental_uris": {"android": "https://dc.lft.to/lastmile_qr_scan", "ios": "https://dc.lft.to/lastmile_qr_scan"}, "bike_id": "4335cae33abb15b676e7131d180a92e9"}, {"fusion_lon": 0.0, "is_reserved": 0, "lat": 38.922271333333335, "is_disabled": 0, "type": "electric_scooter", "lon": -77.04439183333334, "fusion_lat": 0.0, "name": "9ff1d2fd3d47bb88245e2abbee573e81", "rental_uris": {"android": "https://dc.lft.to/lastmile_qr_scan", "ios": "https://dc.lft.to/lastmile_qr_scan"}, "bike_id": "9ff1d2fd3d47bb88245e2abbee573e81"}, {"fusion_lon": 0.0, "is_reserved": 0, "lat": 38.92456766666667, "is_disabled": 0, "type": "electric_scooter", "lon": -76.99914666666666, "fusion_lat": 0.0, "name": "c0120743573140c588b3a68c6ba3b99e", "rental_uris": {"android": "https://dc.lft.to/lastmile_qr_scan", "ios": "https://dc.lft.to/lastmile_qr_scan"}, "bike_id": "c0120743573140c588b3a68c6ba3b99e"}, {"fusion_lon": 0.0, "is_reserved": 0, "lat": 38.884885, "is_disabled": 0, "type": "electric_scooter", "lon": -77.0071195, "fusion_lat": 0.0, "name": "425bd101903637a5e893745b44f24b80", "rental_uris": {"android": "https://dc.lft.to/lastmile_qr_scan", "ios": "https://dc.lft.to/lastmile_qr_scan"}, "bike_id": "425bd101903637a5e893745b44f24b80"}, {"fusion_lon": 0.0, "is_reserved": 0, "lat": 38.8984105, "is_disabled": 0, "type": "electric_scooter", "lon": -77.02276866666666, "fusion_lat": 0.0, "name": "60886094dde5013afb9b5324d61fb9b0", "rental_uris": {"android": "https://dc.lft.to/lastmile_qr_scan", "ios": "https://dc.lft.to/lastmile_qr_scan"}, "bike_id": "60886094dde5013afb9b5324d61fb9b0"}, {"fusion_lon": 0.0, "is_reserved": 0, "lat": 38.931792333333334, "is_disabled": 0, "type": "electric_scooter", "lon": -77.04299116666667, "fusion_lat": 0.0, "name": "9b45685c4cfc7f2d55b51c04cf646324", "rental_uris": {"android": "https://dc.lft.to/lastmile_qr_scan", "ios": "https://dc.lft.to/lastmile_qr_scan"}, "bike_id": "9b45685c4cfc7f2d55b51c04cf646324"}, {"fusion_lon": 0.0, "is_reserved": 0, "lat": 38.899395, "is_disabled": 0, "type": "electric_scooter", "lon": -77.04815766666667, "fusion_lat": 0.0, "name": "b85e4dded84198987878c8c670fdafb2", "rental_uris": {"android": "https://dc.lft.to/lastmile_qr_scan", "ios": "https://dc.lft.to/lastmile_qr_scan"}, "bike_id": "b85e4dded84198987878c8c670fdafb2"}, {"fusion_lon": 0.0, "is_reserved": 0, "lat": 38.904020833333334, "is_disabled": 0, "type": "electric_scooter", "lon": -77.04349433333333, "fusion_lat": 0.0, "name": "955412645e9bab656b28fa70ee487b62", "rental_uris": {"android": "https://dc.lft.to/lastmile_qr_scan", "ios": "https://dc.lft.to/lastmile_qr_scan"}, "bike_id": "955412645e9bab656b28fa70ee487b62"}, {"fusion_lon": 0.0, "is_reserved": 0, "lat": 38.887196, "is_disabled": 0, "type": "electric_scooter", "lon": -77.01980233333333, "fusion_lat": 0.0, "name": "32ab5ade930bfe1636d26078e70bc8bf", "rental_uris": {"android": "https://dc.lft.to/lastmile_qr_scan", "ios": "https://dc.lft.to/lastmile_qr_scan"}, "bike_id": "32ab5ade930bfe1636d26078e70bc8bf"}, {"fusion_lon": 0.0, "is_reserved": 0, "lat": 38.950652833333336, "is_disabled": 0, "type": "electric_bike", "lon": -77.011963, "fusion_lat": 0.0, "name": "8c49a09153211a9f220ab18ea934c2b3", "rental_uris": {"android": "https://dc.lft.to/lastmile_qr_scan", "ios": "https://dc.lft.to/lastmile_qr_scan"}, "bike_id": "8c49a09153211a9f220ab18ea934c2b3"}, {"fusion_lon": 0.0, "is_reserved": 0, "lat": 38.98774933333333, "is_disabled": 0, "type": "electric_bike", "lon": -76.9944375, "fusion_lat": 0.0, "name": "1c989d011e05247e8fe105da2c37e474", "rental_uris": {"android": "https://dc.lft.to/lastmile_qr_scan", "ios": "https://dc.lft.to/lastmile_qr_scan"}, "bike_id": "1c989d011e05247e8fe105da2c37e474"}, {"fusion_lon": 0.0, "is_reserved": 0, "lat": 38.920815, "is_disabled": 0, "type": "electric_scooter", "lon": -77.02303016666667, "fusion_lat": 0.0, "name": "11582e512409af2298def738e52d3b4c", "rental_uris": {"android": "https://dc.lft.to/lastmile_qr_scan", "ios": "https://dc.lft.to/lastmile_qr_scan"}, "bike_id": "11582e512409af2298def738e52d3b4c"}, {"fusion_lon": 0.0, "is_reserved": 0, "lat": 38.902781, "is_disabled": 0, "type": "electric_scooter", "lon": -77.03883366666666, "fusion_lat": 0.0, "name": "43f79034b601fa609d082904d1825134", "rental_uris": {"android": "https://dc.lft.to/lastmile_qr_scan", "ios": "https://dc.lft.to/lastmile_qr_scan"}, "bike_id": "43f79034b601fa609d082904d1825134"}, {"fusion_lon": 0.0, "is_reserved": 0, "lat": 38.92466833333334, "is_disabled": 0, "type": "electric_scooter", "lon": -77.044664, "fusion_lat": 0.0, "name": "da43d1c8268592f525dcb9e58c173a5f", "rental_uris": {"android": "https://dc.lft.to/lastmile_qr_scan", "ios": "https://dc.lft.to/lastmile_qr_scan"}, "bike_id": "da43d1c8268592f525dcb9e58c173a5f"}, {"fusion_lon": 0.0, "is_reserved": 0, "lat": 38.90267383333333, "is_disabled": 0, "type": "electric_scooter", "lon": -77.03632916666666, "fusion_lat": 0.0, "name": "a094aab13473bf0754a45b49effa2963", "rental_uris": {"android": "https://dc.lft.to/lastmile_qr_scan", "ios": "https://dc.lft.to/lastmile_qr_scan"}, "bike_id": "a094aab13473bf0754a45b49effa2963"}, {"fusion_lon": 0.0, "is_reserved": 0, "lat": 38.919335333333336, "is_disabled": 0, "type": "electric_scooter", "lon": -77.0248945, "fusion_lat": 0.0, "name": "e9b103e0da4c6d3c1c08c94885cee231", "rental_uris": {"android": "https://dc.lft.to/lastmile_qr_scan", "ios": "https://dc.lft.to/lastmile_qr_scan"}, "bike_id": "e9b103e0da4c6d3c1c08c94885cee231"}, {"fusion_lon": 0.0, "is_reserved": 0, "lat": 38.89637966666667, "is_disabled": 0, "type": "electric_scooter", "lon": -77.028305, "fusion_lat": 0.0, "name": "134532dd4906fb819459dc43ba366639", "rental_uris": {"android": "https://dc.lft.to/lastmile_qr_scan", "ios": "https://dc.lft.to/lastmile_qr_scan"}, "bike_id": "134532dd4906fb819459dc43ba366639"}, {"fusion_lon": 0.0, "is_reserved": 0, "lat": 38.89526466666667, "is_disabled": 0, "type": "electric_scooter", "lon": -77.010961, "fusion_lat": 0.0, "name": "02757a23a8aca48d15ee2171889a02b2", "rental_uris": {"android": "https://dc.lft.to/lastmile_qr_scan", "ios": "https://dc.lft.to/lastmile_qr_scan"}, "bike_id": "02757a23a8aca48d15ee2171889a02b2"}, {"fusion_lon": 0.0, "is_reserved": 0, "lat": 38.905042333333334, "is_disabled": 0, "type": "electric_scooter", "lon": -77.03455466666666, "fusion_lat": 0.0, "name": "f593152bee3698866ee8cc910d1c8560", "rental_uris": {"android": "https://dc.lft.to/lastmile_qr_scan", "ios": "https://dc.lft.to/lastmile_qr_scan"}, "bike_id": "f593152bee3698866ee8cc910d1c8560"}, {"fusion_lon": 0.0, "is_reserved": 0, "lat": 38.9187425, "is_disabled": 0, "type": "electric_scooter", "lon": -77.035029, "fusion_lat": 0.0, "name": "8aef9f620b952c2663e4ceb2454b68c2", "rental_uris": {"android": "https://dc.lft.to/lastmile_qr_scan", "ios": "https://dc.lft.to/lastmile_qr_scan"}, "bike_id": "8aef9f620b952c2663e4ceb2454b68c2"}, {"fusion_lon": 0.0, "is_reserved": 0, "lat": 38.893527, "is_disabled": 0, "type": "electric_scooter", "lon": -77.00333383333333, "fusion_lat": 0.0, "name": "efd4703452aa164f0b7d98291686606e", "rental_uris": {"android": "https://dc.lft.to/lastmile_qr_scan", "ios": "https://dc.lft.to/lastmile_qr_scan"}, "bike_id": "efd4703452aa164f0b7d98291686606e"}, {"fusion_lon": 0.0, "is_reserved": 0, "lat": 38.85756133333334, "is_disabled": 0, "type": "electric_bike", "lon": -76.9875595, "fusion_lat": 0.0, "name": "8bef8bc312afe40b8dc9af829497126d", "rental_uris": {"android": "https://dc.lft.to/lastmile_qr_scan", "ios": "https://dc.lft.to/lastmile_qr_scan"}, "bike_id": "8bef8bc312afe40b8dc9af829497126d"}, {"fusion_lon": 0.0, "is_reserved": 0, "lat": 38.91630983333334, "is_disabled": 0, "type": "electric_scooter", "lon": -77.02552316666667, "fusion_lat": 0.0, "name": "8a2283bfb89eb6c5e07b1decd6a4cc78", "rental_uris": {"android": "https://dc.lft.to/lastmile_qr_scan", "ios": "https://dc.lft.to/lastmile_qr_scan"}, "bike_id": "8a2283bfb89eb6c5e07b1decd6a4cc78"}, {"fusion_lon": 0.0, "is_reserved": 0, "lat": 38.91921983333334, "is_disabled": 0, "type": "electric_scooter", "lon": -77.03123083333334, "fusion_lat": 0.0, "name": "3a6379e1f92bf047be2faa2521da065b", "rental_uris": {"android": "https://dc.lft.to/lastmile_qr_scan", "ios": "https://dc.lft.to/lastmile_qr_scan"}, "bike_id": "3a6379e1f92bf047be2faa2521da065b"}, {"fusion_lon": 0.0, "is_reserved": 0, "lat": 38.90388866666667, "is_disabled": 0, "type": "electric_scooter", "lon": -77.062903, "fusion_lat": 0.0, "name": "20cfc019ea10766b02994bb8435a7e24", "rental_uris": {"android": "https://dc.lft.to/lastmile_qr_scan", "ios": "https://dc.lft.to/lastmile_qr_scan"}, "bike_id": "20cfc019ea10766b02994bb8435a7e24"}, {"fusion_lon": 0.0, "is_reserved": 0, "lat": 38.96580683333333, "is_disabled": 0, "type": "electric_scooter", "lon": -77.02775083333333, "fusion_lat": 0.0, "name": "4cf8a8d4557abcc78e984f6b01293fe4", "rental_uris": {"android": "https://dc.lft.to/lastmile_qr_scan", "ios": "https://dc.lft.to/lastmile_qr_scan"}, "bike_id": "4cf8a8d4557abcc78e984f6b01293fe4"}, {"fusion_lon": 0.0, "is_reserved": 0, "lat": 38.85869266666667, "is_disabled": 0, "type": "electric_bike", "lon": -77.09548816666667, "fusion_lat": 0.0, "name": "8cb499b6444211d9f4e21923620fcc6a", "rental_uris": {"android": "https://dc.lft.to/lastmile_qr_scan", "ios": "https://dc.lft.to/lastmile_qr_scan"}, "bike_id": "8cb499b6444211d9f4e21923620fcc6a"}, {"fusion_lon": 0.0, "is_reserved": 0, "lat": 38.92146916666667, "is_disabled": 0, "type": "electric_scooter", "lon": -77.0350455, "fusion_lat": 0.0, "name": "ff3d4504a29f16453fcc5c32b1c5c2f1", "rental_uris": {"android": "https://dc.lft.to/lastmile_qr_scan", "ios": "https://dc.lft.to/lastmile_qr_scan"}, "bike_id": "ff3d4504a29f16453fcc5c32b1c5c2f1"}, {"fusion_lon": 0.0, "is_reserved": 0, "lat": 38.9047315, "is_disabled": 0, "type": "electric_scooter", "lon": -77.04361116666666, "fusion_lat": 0.0, "name": "36f366a9d0abb6ecb5d61ac44a5c481f", "rental_uris": {"android": "https://dc.lft.to/lastmile_qr_scan", "ios": "https://dc.lft.to/lastmile_qr_scan"}, "bike_id": "36f366a9d0abb6ecb5d61ac44a5c481f"}, {"fusion_lon": 0.0, "is_reserved": 0, "lat": 38.926823166666665, "is_disabled": 0, "type": "electric_scooter", "lon": -77.02285, "fusion_lat": 0.0, "name": "a370942e7a1af6f85d3bc684f80d8577", "rental_uris": {"android": "https://dc.lft.to/lastmile_qr_scan", "ios": "https://dc.lft.to/lastmile_qr_scan"}, "bike_id": "a370942e7a1af6f85d3bc684f80d8577"}, {"fusion_lon": 0.0, "is_reserved": 0, "lat": 38.8812285, "is_disabled": 0, "type": "electric_scooter", "lon": -77.01337166666667, "fusion_lat": 0.0, "name": "547fc2b943f9d56d243c0753a0019582", "rental_uris": {"android": "https://dc.lft.to/lastmile_qr_scan", "ios": "https://dc.lft.to/lastmile_qr_scan"}, "bike_id": "547fc2b943f9d56d243c0753a0019582"}, {"fusion_lon": 0.0, "is_reserved": 0, "lat": 38.9248155, "is_disabled": 0, "type": "electric_scooter", "lon": -77.022288, "fusion_lat": 0.0, "name": "f84a77b58cb18c5f30c355f937e0523e", "rental_uris": {"android": "https://dc.lft.to/lastmile_qr_scan", "ios": "https://dc.lft.to/lastmile_qr_scan"}, "bike_id": "f84a77b58cb18c5f30c355f937e0523e"}, {"fusion_lon": 0.0, "is_reserved": 0, "lat": 38.89886516666667, "is_disabled": 0, "type": "electric_scooter", "lon": -77.03955083333334, "fusion_lat": 0.0, "name": "130bf885abb196b07c72c288675367e1", "rental_uris": {"android": "https://dc.lft.to/lastmile_qr_scan", "ios": "https://dc.lft.to/lastmile_qr_scan"}, "bike_id": "130bf885abb196b07c72c288675367e1"}, {"fusion_lon": 0.0, "is_reserved": 0, "lat": 38.941969666666665, "is_disabled": 0, "type": "electric_scooter", "lon": -77.02568116666667, "fusion_lat": 0.0, "name": "0ab7a8b69d8a0d40d5f08291dd7f5c89", "rental_uris": {"android": "https://dc.lft.to/lastmile_qr_scan", "ios": "https://dc.lft.to/lastmile_qr_scan"}, "bike_id": "0ab7a8b69d8a0d40d5f08291dd7f5c89"}, {"fusion_lon": 0.0, "is_reserved": 0, "lat": 38.9078485, "is_disabled": 0, "type": "electric_scooter", "lon": -76.98037783333334, "fusion_lat": 0.0, "name": "0c780f130e80c48558e2426d5dd7cf13", "rental_uris": {"android": "https://dc.lft.to/lastmile_qr_scan", "ios": "https://dc.lft.to/lastmile_qr_scan"}, "bike_id": "0c780f130e80c48558e2426d5dd7cf13"}, {"fusion_lon": 0.0, "is_reserved": 0, "lat": 38.919391, "is_disabled": 0, "type": "electric_scooter", "lon": -77.03190866666667, "fusion_lat": 0.0, "name": "3d86ea5ff83f32797c1fbb6a0b10c8f6", "rental_uris": {"android": "https://dc.lft.to/lastmile_qr_scan", "ios": "https://dc.lft.to/lastmile_qr_scan"}, "bike_id": "3d86ea5ff83f32797c1fbb6a0b10c8f6"}, {"fusion_lon": 0.0, "is_reserved": 0, "lat": 38.9330375, "is_disabled": 0, "type": "electric_scooter", "lon": -77.03270516666667, "fusion_lat": 0.0, "name": "9ad55b824087002b90fbbcec61919d7b", "rental_uris": {"android": "https://dc.lft.to/lastmile_qr_scan", "ios": "https://dc.lft.to/lastmile_qr_scan"}, "bike_id": "9ad55b824087002b90fbbcec61919d7b"}, {"fusion_lon": 0.0, "is_reserved": 0, "lat": 38.9065765, "is_disabled": 0, "type": "electric_scooter", "lon": -77.0268895, "fusion_lat": 0.0, "name": "ac8b5cb3951e45917f6b7c242c6b86d2", "rental_uris": {"android": "https://dc.lft.to/lastmile_qr_scan", "ios": "https://dc.lft.to/lastmile_qr_scan"}, "bike_id": "ac8b5cb3951e45917f6b7c242c6b86d2"}, {"fusion_lon": 0.0, "is_reserved": 0, "lat": 38.89741016666667, "is_disabled": 0, "type": "electric_scooter", "lon": -77.00866816666667, "fusion_lat": 0.0, "name": "a431b7870ca02b1d867750c545452b3a", "rental_uris": {"android": "https://dc.lft.to/lastmile_qr_scan", "ios": "https://dc.lft.to/lastmile_qr_scan"}, "bike_id": "a431b7870ca02b1d867750c545452b3a"}, {"fusion_lon": 0.0, "is_reserved": 0, "lat": 38.91251166666667, "is_disabled": 0, "type": "electric_scooter", "lon": -77.03863066666666, "fusion_lat": 0.0, "name": "19c6694833a4299ee50cf1393d9817c2", "rental_uris": {"android": "https://dc.lft.to/lastmile_qr_scan", "ios": "https://dc.lft.to/lastmile_qr_scan"}, "bike_id": "19c6694833a4299ee50cf1393d9817c2"}, {"fusion_lon": 0.0, "is_reserved": 0, "lat": 38.898261, "is_disabled": 0, "type": "electric_scooter", "lon": -76.94653683333334, "fusion_lat": 0.0, "name": "5dfcfcc3fee9583aed4cad265754958c", "rental_uris": {"android": "https://dc.lft.to/lastmile_qr_scan", "ios": "https://dc.lft.to/lastmile_qr_scan"}, "bike_id": "5dfcfcc3fee9583aed4cad265754958c"}, {"fusion_lon": 0.0, "is_reserved": 0, "lat": 38.926195, "is_disabled": 0, "type": "electric_scooter", "lon": -77.07136933333334, "fusion_lat": 0.0, "name": "cf6368acff88b6b0b377eb24d383452a", "rental_uris": {"android": "https://dc.lft.to/lastmile_qr_scan", "ios": "https://dc.lft.to/lastmile_qr_scan"}, "bike_id": "cf6368acff88b6b0b377eb24d383452a"}, {"fusion_lon": 0.0, "is_reserved": 0, "lat": 38.94133333333333, "is_disabled": 0, "type": "electric_scooter", "lon": -77.02156966666666, "fusion_lat": 0.0, "name": "fff6430b3d02e7120bd223a8cc00950a", "rental_uris": {"android": "https://dc.lft.to/lastmile_qr_scan", "ios": "https://dc.lft.to/lastmile_qr_scan"}, "bike_id": "fff6430b3d02e7120bd223a8cc00950a"}, {"fusion_lon": 0.0, "is_reserved": 0, "lat": 38.907331166666665, "is_disabled": 0, "type": "electric_scooter", "lon": -77.028043, "fusion_lat": 0.0, "name": "cd29c6efca1bd0377bdda4a1b1dbc329", "rental_uris": {"android": "https://dc.lft.to/lastmile_qr_scan", "ios": "https://dc.lft.to/lastmile_qr_scan"}, "bike_id": "cd29c6efca1bd0377bdda4a1b1dbc329"}, {"fusion_lon": 0.0, "is_reserved": 0, "lat": 38.905596333333335, "is_disabled": 0, "type": "electric_scooter", "lon": -77.01637316666667, "fusion_lat": 0.0, "name": "2cdf91ced8d9fb2508b9ae8f483e599c", "rental_uris": {"android": "https://dc.lft.to/lastmile_qr_scan", "ios": "https://dc.lft.to/lastmile_qr_scan"}, "bike_id": "2cdf91ced8d9fb2508b9ae8f483e599c"}, {"fusion_lon": 0.0, "is_reserved": 0, "lat": 38.90265733333333, "is_disabled": 0, "type": "electric_scooter", "lon": -77.059141, "fusion_lat": 0.0, "name": "42b04bd48fe1d41237852fd97c15eeed", "rental_uris": {"android": "https://dc.lft.to/lastmile_qr_scan", "ios": "https://dc.lft.to/lastmile_qr_scan"}, "bike_id": "42b04bd48fe1d41237852fd97c15eeed"}, {"fusion_lon": 0.0, "is_reserved": 0, "lat": 38.92595683333333, "is_disabled": 0, "type": "electric_scooter", "lon": -77.03633866666667, "fusion_lat": 0.0, "name": "d9a6fa593041b3d19da17d8f7ab14223", "rental_uris": {"android": "https://dc.lft.to/lastmile_qr_scan", "ios": "https://dc.lft.to/lastmile_qr_scan"}, "bike_id": "d9a6fa593041b3d19da17d8f7ab14223"}, {"fusion_lon": 0.0, "is_reserved": 0, "lat": 38.900694666666666, "is_disabled": 0, "type": "electric_scooter", "lon": -77.00881566666666, "fusion_lat": 0.0, "name": "f1f201572b52c0c693b200e324878f91", "rental_uris": {"android": "https://dc.lft.to/lastmile_qr_scan", "ios": "https://dc.lft.to/lastmile_qr_scan"}, "bike_id": "f1f201572b52c0c693b200e324878f91"}, {"fusion_lon": 0.0, "is_reserved": 0, "lat": 38.941975666666664, "is_disabled": 0, "type": "electric_scooter", "lon": -77.02568166666667, "fusion_lat": 0.0, "name": "542d329fb92a8bf632f09dae7e2f51f9", "rental_uris": {"android": "https://dc.lft.to/lastmile_qr_scan", "ios": "https://dc.lft.to/lastmile_qr_scan"}, "bike_id": "542d329fb92a8bf632f09dae7e2f51f9"}, {"fusion_lon": 0.0, "is_reserved": 0, "lat": 38.9096025, "is_disabled": 0, "type": "electric_scooter", "lon": -77.01844033333333, "fusion_lat": 0.0, "name": "d304205562175121cef77d111303b850", "rental_uris": {"android": "https://dc.lft.to/lastmile_qr_scan", "ios": "https://dc.lft.to/lastmile_qr_scan"}, "bike_id": "d304205562175121cef77d111303b850"}, {"fusion_lon": 0.0, "is_reserved": 0, "lat": 38.920989166666665, "is_disabled": 0, "type": "electric_scooter", "lon": -77.02508133333333, "fusion_lat": 0.0, "name": "4d29f626af502eef08c6d218caf1f444", "rental_uris": {"android": "https://dc.lft.to/lastmile_qr_scan", "ios": "https://dc.lft.to/lastmile_qr_scan"}, "bike_id": "4d29f626af502eef08c6d218caf1f444"}, {"fusion_lon": 0.0, "is_reserved": 0, "lat": 38.90134233333333, "is_disabled": 0, "type": "electric_scooter", "lon": -77.04389366666666, "fusion_lat": 0.0, "name": "acf4face9fa2a51652836bcf08fe4317", "rental_uris": {"android": "https://dc.lft.to/lastmile_qr_scan", "ios": "https://dc.lft.to/lastmile_qr_scan"}, "bike_id": "acf4face9fa2a51652836bcf08fe4317"}, {"fusion_lon": 0.0, "is_reserved": 0, "lat": 38.9368205, "is_disabled": 0, "type": "electric_scooter", "lon": -77.03626933333334, "fusion_lat": 0.0, "name": "2ec679f628718a1c974f590815aede2c", "rental_uris": {"android": "https://dc.lft.to/lastmile_qr_scan", "ios": "https://dc.lft.to/lastmile_qr_scan"}, "bike_id": "2ec679f628718a1c974f590815aede2c"}, {"fusion_lon": 0.0, "is_reserved": 0, "lat": 38.892474666666665, "is_disabled": 0, "type": "electric_scooter", "lon": -77.03956466666666, "fusion_lat": 0.0, "name": "1abf60816dcdc4b7ce7234a4144b3410", "rental_uris": {"android": "https://dc.lft.to/lastmile_qr_scan", "ios": "https://dc.lft.to/lastmile_qr_scan"}, "bike_id": "1abf60816dcdc4b7ce7234a4144b3410"}, {"fusion_lon": 0.0, "is_reserved": 0, "lat": 38.9012685, "is_disabled": 0, "type": "electric_scooter", "lon": -77.04173633333333, "fusion_lat": 0.0, "name": "4f549f8fdffa4b9e57d1815363df6743", "rental_uris": {"android": "https://dc.lft.to/lastmile_qr_scan", "ios": "https://dc.lft.to/lastmile_qr_scan"}, "bike_id": "4f549f8fdffa4b9e57d1815363df6743"}, {"fusion_lon": 0.0, "is_reserved": 0, "lat": 38.905467333333334, "is_disabled": 0, "type": "electric_scooter", "lon": -77.05021216666667, "fusion_lat": 0.0, "name": "7dc7c3365d395d878dd62f426afa259a", "rental_uris": {"android": "https://dc.lft.to/lastmile_qr_scan", "ios": "https://dc.lft.to/lastmile_qr_scan"}, "bike_id": "7dc7c3365d395d878dd62f426afa259a"}, {"fusion_lon": 0.0, "is_reserved": 0, "lat": 38.9107025, "is_disabled": 0, "type": "electric_scooter", "lon": -77.01602933333334, "fusion_lat": 0.0, "name": "07c8c387414794cd776d5a8e49771924", "rental_uris": {"android": "https://dc.lft.to/lastmile_qr_scan", "ios": "https://dc.lft.to/lastmile_qr_scan"}, "bike_id": "07c8c387414794cd776d5a8e49771924"}, {"fusion_lon": 0.0, "is_reserved": 0, "lat": 38.934926833333336, "is_disabled": 0, "type": "electric_bike", "lon": -76.98139866666666, "fusion_lat": 0.0, "name": "efeae0b00bd9626d62da88ad006c3e1c", "rental_uris": {"android": "https://dc.lft.to/lastmile_qr_scan", "ios": "https://dc.lft.to/lastmile_qr_scan"}, "bike_id": "efeae0b00bd9626d62da88ad006c3e1c"}, {"fusion_lon": 0.0, "is_reserved": 0, "lat": 38.8853475, "is_disabled": 0, "type": "electric_scooter", "lon": -77.0110005, "fusion_lat": 0.0, "name": "d0c818bce9ffd295bc2291cc64855ca9", "rental_uris": {"android": "https://dc.lft.to/lastmile_qr_scan", "ios": "https://dc.lft.to/lastmile_qr_scan"}, "bike_id": "d0c818bce9ffd295bc2291cc64855ca9"}, {"fusion_lon": 0.0, "is_reserved": 0, "lat": 38.952244, "is_disabled": 0, "type": "electric_scooter", "lon": -77.06982233333333, "fusion_lat": 0.0, "name": "69ceca77b9dfacbde03ae990eee09c5e", "rental_uris": {"android": "https://dc.lft.to/lastmile_qr_scan", "ios": "https://dc.lft.to/lastmile_qr_scan"}, "bike_id": "69ceca77b9dfacbde03ae990eee09c5e"}, {"fusion_lon": 0.0, "is_reserved": 0, "lat": 38.9056595, "is_disabled": 0, "type": "electric_scooter", "lon": -77.00602633333334, "fusion_lat": 0.0, "name": "3e02db7462bdf503d080d15c2a91fdde", "rental_uris": {"android": "https://dc.lft.to/lastmile_qr_scan", "ios": "https://dc.lft.to/lastmile_qr_scan"}, "bike_id": "3e02db7462bdf503d080d15c2a91fdde"}, {"fusion_lon": 0.0, "is_reserved": 0, "lat": 38.89836533333333, "is_disabled": 0, "type": "electric_scooter", "lon": -77.04017016666667, "fusion_lat": 0.0, "name": "0b12108e5f8030aec6e19f2a0618298d", "rental_uris": {"android": "https://dc.lft.to/lastmile_qr_scan", "ios": "https://dc.lft.to/lastmile_qr_scan"}, "bike_id": "0b12108e5f8030aec6e19f2a0618298d"}, {"fusion_lon": 0.0, "is_reserved": 0, "lat": 38.90558016666667, "is_disabled": 0, "type": "electric_scooter", "lon": -77.0347045, "fusion_lat": 0.0, "name": "2f7edf5fe18eccd29b0fde023461ac11", "rental_uris": {"android": "https://dc.lft.to/lastmile_qr_scan", "ios": "https://dc.lft.to/lastmile_qr_scan"}, "bike_id": "2f7edf5fe18eccd29b0fde023461ac11"}, {"fusion_lon": 0.0, "is_reserved": 0, "lat": 38.902424, "is_disabled": 0, "type": "electric_scooter", "lon": -77.02639616666667, "fusion_lat": 0.0, "name": "3b5c10d8b83b6a30603919a2e1747b16", "rental_uris": {"android": "https://dc.lft.to/lastmile_qr_scan", "ios": "https://dc.lft.to/lastmile_qr_scan"}, "bike_id": "3b5c10d8b83b6a30603919a2e1747b16"}, {"fusion_lon": 0.0, "is_reserved": 0, "lat": 38.915583, "is_disabled": 0, "type": "electric_scooter", "lon": -77.01203783333334, "fusion_lat": 0.0, "name": "7c2da2e4e97afb3a31f7b7700d3a25f0", "rental_uris": {"android": "https://dc.lft.to/lastmile_qr_scan", "ios": "https://dc.lft.to/lastmile_qr_scan"}, "bike_id": "7c2da2e4e97afb3a31f7b7700d3a25f0"}, {"fusion_lon": 0.0, "is_reserved": 0, "lat": 38.9090695, "is_disabled": 0, "type": "electric_scooter", "lon": -77.04212383333333, "fusion_lat": 0.0, "name": "79e86aa03a4f250e4b12ddf3851eab2a", "rental_uris": {"android": "https://dc.lft.to/lastmile_qr_scan", "ios": "https://dc.lft.to/lastmile_qr_scan"}, "bike_id": "79e86aa03a4f250e4b12ddf3851eab2a"}, {"fusion_lon": 0.0, "is_reserved": 0, "lat": 38.892501833333334, "is_disabled": 0, "type": "electric_bike", "lon": -76.98542333333333, "fusion_lat": 0.0, "name": "2c2539e02310c91600516a16a9fa8de0", "rental_uris": {"android": "https://dc.lft.to/lastmile_qr_scan", "ios": "https://dc.lft.to/lastmile_qr_scan"}, "bike_id": "2c2539e02310c91600516a16a9fa8de0"}, {"fusion_lon": 0.0, "is_reserved": 0, "lat": 38.879389, "is_disabled": 0, "type": "electric_scooter", "lon": -76.9837635, "fusion_lat": 0.0, "name": "9f3519a7881285d00cbfa65e2a7fce48", "rental_uris": {"android": "https://dc.lft.to/lastmile_qr_scan", "ios": "https://dc.lft.to/lastmile_qr_scan"}, "bike_id": "9f3519a7881285d00cbfa65e2a7fce48"}, {"fusion_lon": 0.0, "is_reserved": 0, "lat": 38.897233666666665, "is_disabled": 0, "type": "electric_scooter", "lon": -77.02663716666666, "fusion_lat": 0.0, "name": "90a3b8ec82b71834df4096a830784b9c", "rental_uris": {"android": "https://dc.lft.to/lastmile_qr_scan", "ios": "https://dc.lft.to/lastmile_qr_scan"}, "bike_id": "90a3b8ec82b71834df4096a830784b9c"}, {"fusion_lon": 0.0, "is_reserved": 0, "lat": 38.9285715, "is_disabled": 0, "type": "electric_scooter", "lon": -77.0362205, "fusion_lat": 0.0, "name": "ae28c41f4ded6c6f862387934e6c2826", "rental_uris": {"android": "https://dc.lft.to/lastmile_qr_scan", "ios": "https://dc.lft.to/lastmile_qr_scan"}, "bike_id": "ae28c41f4ded6c6f862387934e6c2826"}, {"fusion_lon": 0.0, "is_reserved": 0, "lat": 38.917107333333334, "is_disabled": 0, "type": "electric_scooter", "lon": -77.02399483333333, "fusion_lat": 0.0, "name": "b50f18856427bbfecd1752508f5eead6", "rental_uris": {"android": "https://dc.lft.to/lastmile_qr_scan", "ios": "https://dc.lft.to/lastmile_qr_scan"}, "bike_id": "b50f18856427bbfecd1752508f5eead6"}, {"fusion_lon": 0.0, "is_reserved": 0, "lat": 38.90063416666667, "is_disabled": 0, "type": "electric_scooter", "lon": -77.0453865, "fusion_lat": 0.0, "name": "57560b8c6ed1df5b033f142a31ad029e", "rental_uris": {"android": "https://dc.lft.to/lastmile_qr_scan", "ios": "https://dc.lft.to/lastmile_qr_scan"}, "bike_id": "57560b8c6ed1df5b033f142a31ad029e"}, {"fusion_lon": 0.0, "is_reserved": 0, "lat": 38.910960333333335, "is_disabled": 0, "type": "electric_scooter", "lon": -77.01226266666667, "fusion_lat": 0.0, "name": "7cfe01d0395f1c5cf8b16c660b9a237d", "rental_uris": {"android": "https://dc.lft.to/lastmile_qr_scan", "ios": "https://dc.lft.to/lastmile_qr_scan"}, "bike_id": "7cfe01d0395f1c5cf8b16c660b9a237d"}, {"fusion_lon": 0.0, "is_reserved": 0, "lat": 38.9010685, "is_disabled": 0, "type": "electric_scooter", "lon": -77.04986683333334, "fusion_lat": 0.0, "name": "e0956b4e307567d56b46ae1d860e2bdb", "rental_uris": {"android": "https://dc.lft.to/lastmile_qr_scan", "ios": "https://dc.lft.to/lastmile_qr_scan"}, "bike_id": "e0956b4e307567d56b46ae1d860e2bdb"}, {"fusion_lon": 0.0, "is_reserved": 0, "lat": 38.9255075, "is_disabled": 0, "type": "electric_scooter", "lon": -77.03227233333334, "fusion_lat": 0.0, "name": "e451fee8e853ba19d4f5d2bdd327c78f", "rental_uris": {"android": "https://dc.lft.to/lastmile_qr_scan", "ios": "https://dc.lft.to/lastmile_qr_scan"}, "bike_id": "e451fee8e853ba19d4f5d2bdd327c78f"}, {"fusion_lon": 0.0, "is_reserved": 0, "lat": 38.90945283333333, "is_disabled": 0, "type": "electric_scooter", "lon": -76.93597783333334, "fusion_lat": 0.0, "name": "0fad15deb832ab61edc90756920afdd4", "rental_uris": {"android": "https://dc.lft.to/lastmile_qr_scan", "ios": "https://dc.lft.to/lastmile_qr_scan"}, "bike_id": "0fad15deb832ab61edc90756920afdd4"}, {"fusion_lon": 0.0, "is_reserved": 0, "lat": 38.918484666666664, "is_disabled": 0, "type": "electric_scooter", "lon": -77.03219316666667, "fusion_lat": 0.0, "name": "45031bcbd5ea999c092b20202cd42305", "rental_uris": {"android": "https://dc.lft.to/lastmile_qr_scan", "ios": "https://dc.lft.to/lastmile_qr_scan"}, "bike_id": "45031bcbd5ea999c092b20202cd42305"}, {"fusion_lon": 0.0, "is_reserved": 0, "lat": 38.890833666666666, "is_disabled": 0, "type": "electric_scooter", "lon": -76.99953, "fusion_lat": 0.0, "name": "b0554aa5a53862418f3f58d6d3b36220", "rental_uris": {"android": "https://dc.lft.to/lastmile_qr_scan", "ios": "https://dc.lft.to/lastmile_qr_scan"}, "bike_id": "b0554aa5a53862418f3f58d6d3b36220"}, {"fusion_lon": 0.0, "is_reserved": 0, "lat": 38.82132716666667, "is_disabled": 0, "type": "electric_scooter", "lon": -77.0015755, "fusion_lat": 0.0, "name": "ecf39f1e39e661949e02f68069e155b6", "rental_uris": {"android": "https://dc.lft.to/lastmile_qr_scan", "ios": "https://dc.lft.to/lastmile_qr_scan"}, "bike_id": "ecf39f1e39e661949e02f68069e155b6"}, {"fusion_lon": 0.0, "is_reserved": 0, "lat": 38.92045066666667, "is_disabled": 0, "type": "electric_scooter", "lon": -77.0167005, "fusion_lat": 0.0, "name": "d2104238784715ea459ac112a99dc9df", "rental_uris": {"android": "https://dc.lft.to/lastmile_qr_scan", "ios": "https://dc.lft.to/lastmile_qr_scan"}, "bike_id": "d2104238784715ea459ac112a99dc9df"}, {"fusion_lon": 0.0, "is_reserved": 0, "lat": 38.8984065, "is_disabled": 0, "type": "electric_scooter", "lon": -77.02770816666667, "fusion_lat": 0.0, "name": "66829e178cdf0fcb1a0f4a894cec9db7", "rental_uris": {"android": "https://dc.lft.to/lastmile_qr_scan", "ios": "https://dc.lft.to/lastmile_qr_scan"}, "bike_id": "66829e178cdf0fcb1a0f4a894cec9db7"}, {"fusion_lon": 0.0, "is_reserved": 0, "lat": 38.895100666666664, "is_disabled": 0, "type": "electric_scooter", "lon": -77.019041, "fusion_lat": 0.0, "name": "6d0f045b63cd8b12cc277876edde52ff", "rental_uris": {"android": "https://dc.lft.to/lastmile_qr_scan", "ios": "https://dc.lft.to/lastmile_qr_scan"}, "bike_id": "6d0f045b63cd8b12cc277876edde52ff"}, {"fusion_lon": 0.0, "is_reserved": 0, "lat": 38.8922585, "is_disabled": 0, "type": "electric_scooter", "lon": -77.01725183333333, "fusion_lat": 0.0, "name": "192d442ab7e1a8e99532e5cf1a7d6284", "rental_uris": {"android": "https://dc.lft.to/lastmile_qr_scan", "ios": "https://dc.lft.to/lastmile_qr_scan"}, "bike_id": "192d442ab7e1a8e99532e5cf1a7d6284"}, {"fusion_lon": 0.0, "is_reserved": 0, "lat": 38.93320333333333, "is_disabled": 0, "type": "electric_bike", "lon": -77.08561866666666, "fusion_lat": 0.0, "name": "d3fb6dcb1d57c7d516057c5faa899663", "rental_uris": {"android": "https://dc.lft.to/lastmile_qr_scan", "ios": "https://dc.lft.to/lastmile_qr_scan"}, "bike_id": "d3fb6dcb1d57c7d516057c5faa899663"}, {"fusion_lon": 0.0, "is_reserved": 0, "lat": 38.898278, "is_disabled": 0, "type": "electric_scooter", "lon": -77.0306135, "fusion_lat": 0.0, "name": "0f95d438dbcd1246df65eb05bbeafa95", "rental_uris": {"android": "https://dc.lft.to/lastmile_qr_scan", "ios": "https://dc.lft.to/lastmile_qr_scan"}, "bike_id": "0f95d438dbcd1246df65eb05bbeafa95"}, {"fusion_lon": 0.0, "is_reserved": 0, "lat": 38.919924, "is_disabled": 0, "type": "electric_scooter", "lon": -77.02396916666666, "fusion_lat": 0.0, "name": "c2c0b84fcdb984365155abc38b9a864a", "rental_uris": {"android": "https://dc.lft.to/lastmile_qr_scan", "ios": "https://dc.lft.to/lastmile_qr_scan"}, "bike_id": "c2c0b84fcdb984365155abc38b9a864a"}, {"fusion_lon": 0.0, "is_reserved": 0, "lat": 38.935575, "is_disabled": 0, "type": "electric_scooter", "lon": -77.06431716666667, "fusion_lat": 0.0, "name": "c8229c568fcc866094de0be22a0238a0", "rental_uris": {"android": "https://dc.lft.to/lastmile_qr_scan", "ios": "https://dc.lft.to/lastmile_qr_scan"}, "bike_id": "c8229c568fcc866094de0be22a0238a0"}, {"fusion_lon": 0.0, "is_reserved": 0, "lat": 39.08437333333333, "is_disabled": 0, "type": "electric_bike", "lon": -76.95159283333334, "fusion_lat": 0.0, "name": "19d300cc85b0c666fbb82b964c10677a", "rental_uris": {"android": "https://dc.lft.to/lastmile_qr_scan", "ios": "https://dc.lft.to/lastmile_qr_scan"}, "bike_id": "19d300cc85b0c666fbb82b964c10677a"}, {"fusion_lon": 0.0, "is_reserved": 0, "lat": 38.90728033333333, "is_disabled": 0, "type": "electric_scooter", "lon": -77.00741266666667, "fusion_lat": 0.0, "name": "8c04df85f494092e0f560b3ba963f615", "rental_uris": {"android": "https://dc.lft.to/lastmile_qr_scan", "ios": "https://dc.lft.to/lastmile_qr_scan"}, "bike_id": "8c04df85f494092e0f560b3ba963f615"}, {"fusion_lon": 0.0, "is_reserved": 0, "lat": 38.92375916666667, "is_disabled": 0, "type": "electric_scooter", "lon": -77.03133633333333, "fusion_lat": 0.0, "name": "7d85f4d40028bb233b4be222ef3ffc45", "rental_uris": {"android": "https://dc.lft.to/lastmile_qr_scan", "ios": "https://dc.lft.to/lastmile_qr_scan"}, "bike_id": "7d85f4d40028bb233b4be222ef3ffc45"}, {"fusion_lon": 0.0, "is_reserved": 0, "lat": 38.93965816666667, "is_disabled": 0, "type": "electric_bike", "lon": -77.0376755, "fusion_lat": 0.0, "name": "5cc94b10b82794bd608e2de869c38c4f", "rental_uris": {"android": "https://dc.lft.to/lastmile_qr_scan", "ios": "https://dc.lft.to/lastmile_qr_scan"}, "bike_id": "5cc94b10b82794bd608e2de869c38c4f"}, {"fusion_lon": 0.0, "is_reserved": 0, "lat": 38.916196166666666, "is_disabled": 0, "type": "electric_scooter", "lon": -77.02296733333333, "fusion_lat": 0.0, "name": "6a8689281801df2de76f504e0a96527e", "rental_uris": {"android": "https://dc.lft.to/lastmile_qr_scan", "ios": "https://dc.lft.to/lastmile_qr_scan"}, "bike_id": "6a8689281801df2de76f504e0a96527e"}, {"fusion_lon": 0.0, "is_reserved": 0, "lat": 38.951508, "is_disabled": 0, "type": "electric_scooter", "lon": -77.01870133333334, "fusion_lat": 0.0, "name": "7cae4906abbbab3580b0aa6f1515a62c", "rental_uris": {"android": "https://dc.lft.to/lastmile_qr_scan", "ios": "https://dc.lft.to/lastmile_qr_scan"}, "bike_id": "7cae4906abbbab3580b0aa6f1515a62c"}, {"fusion_lon": 0.0, "is_reserved": 0, "lat": 38.930993, "is_disabled": 0, "type": "electric_scooter", "lon": -77.02650266666667, "fusion_lat": 0.0, "name": "4621d3a52707b9e1b41bbd62e6cdaa6b", "rental_uris": {"android": "https://dc.lft.to/lastmile_qr_scan", "ios": "https://dc.lft.to/lastmile_qr_scan"}, "bike_id": "4621d3a52707b9e1b41bbd62e6cdaa6b"}, {"fusion_lon": 0.0, "is_reserved": 0, "lat": 38.897968166666665, "is_disabled": 0, "type": "electric_scooter", "lon": -77.01199483333333, "fusion_lat": 0.0, "name": "077aba923b7b00e15ec85056e45fd397", "rental_uris": {"android": "https://dc.lft.to/lastmile_qr_scan", "ios": "https://dc.lft.to/lastmile_qr_scan"}, "bike_id": "077aba923b7b00e15ec85056e45fd397"}, {"fusion_lon": 0.0, "is_reserved": 0, "lat": 38.901431, "is_disabled": 0, "type": "electric_scooter", "lon": -77.03898483333333, "fusion_lat": 0.0, "name": "37bf0d139ac39bb9a2f483edee1358ed", "rental_uris": {"android": "https://dc.lft.to/lastmile_qr_scan", "ios": "https://dc.lft.to/lastmile_qr_scan"}, "bike_id": "37bf0d139ac39bb9a2f483edee1358ed"}, {"fusion_lon": 0.0, "is_reserved": 0, "lat": 38.925257333333334, "is_disabled": 0, "type": "electric_scooter", "lon": -77.02581783333333, "fusion_lat": 0.0, "name": "a5e87d84659cc81a87c8ce256ad9d1eb", "rental_uris": {"android": "https://dc.lft.to/lastmile_qr_scan", "ios": "https://dc.lft.to/lastmile_qr_scan"}, "bike_id": "a5e87d84659cc81a87c8ce256ad9d1eb"}, {"fusion_lon": 0.0, "is_reserved": 0, "lat": 38.91562483333333, "is_disabled": 0, "type": "electric_scooter", "lon": -77.03837116666666, "fusion_lat": 0.0, "name": "0aaf3651e6b3d23dc8f5460eaa9528ee", "rental_uris": {"android": "https://dc.lft.to/lastmile_qr_scan", "ios": "https://dc.lft.to/lastmile_qr_scan"}, "bike_id": "0aaf3651e6b3d23dc8f5460eaa9528ee"}, {"fusion_lon": 0.0, "is_reserved": 0, "lat": 38.93544833333333, "is_disabled": 0, "type": "electric_scooter", "lon": -77.02507966666667, "fusion_lat": 0.0, "name": "7d2075f3a3879d430152fc09fd07a52b", "rental_uris": {"android": "https://dc.lft.to/lastmile_qr_scan", "ios": "https://dc.lft.to/lastmile_qr_scan"}, "bike_id": "7d2075f3a3879d430152fc09fd07a52b"}, {"fusion_lon": 0.0, "is_reserved": 0, "lat": 38.876439500000004, "is_disabled": 0, "type": "electric_scooter", "lon": -77.0055165, "fusion_lat": 0.0, "name": "5f1423eb79240366b44ec1a03a6f7ba2", "rental_uris": {"android": "https://dc.lft.to/lastmile_qr_scan", "ios": "https://dc.lft.to/lastmile_qr_scan"}, "bike_id": "5f1423eb79240366b44ec1a03a6f7ba2"}, {"fusion_lon": 0.0, "is_reserved": 0, "lat": 38.819181, "is_disabled": 0, "type": "electric_bike", "lon": -77.12673733333334, "fusion_lat": 0.0, "name": "32e5cd064db73739657935baee999a40", "rental_uris": {"android": "https://dc.lft.to/lastmile_qr_scan", "ios": "https://dc.lft.to/lastmile_qr_scan"}, "bike_id": "32e5cd064db73739657935baee999a40"}, {"fusion_lon": 0.0, "is_reserved": 0, "lat": 38.920572166666666, "is_disabled": 0, "type": "electric_scooter", "lon": -77.04395283333334, "fusion_lat": 0.0, "name": "0c59ab0ce99485505be78d4438aaf631", "rental_uris": {"android": "https://dc.lft.to/lastmile_qr_scan", "ios": "https://dc.lft.to/lastmile_qr_scan"}, "bike_id": "0c59ab0ce99485505be78d4438aaf631"}, {"fusion_lon": 0.0, "is_reserved": 0, "lat": 38.91320016666667, "is_disabled": 0, "type": "electric_scooter", "lon": -77.03203433333333, "fusion_lat": 0.0, "name": "fe9165c312b2656640dc635062a53e8b", "rental_uris": {"android": "https://dc.lft.to/lastmile_qr_scan", "ios": "https://dc.lft.to/lastmile_qr_scan"}, "bike_id": "fe9165c312b2656640dc635062a53e8b"}, {"fusion_lon": 0.0, "is_reserved": 0, "lat": 38.897576, "is_disabled": 0, "type": "electric_scooter", "lon": -77.011822, "fusion_lat": 0.0, "name": "f78151e7da970169066c369811ca1494", "rental_uris": {"android": "https://dc.lft.to/lastmile_qr_scan", "ios": "https://dc.lft.to/lastmile_qr_scan"}, "bike_id": "f78151e7da970169066c369811ca1494"}, {"fusion_lon": 0.0, "is_reserved": 0, "lat": 38.905225333333334, "is_disabled": 0, "type": "electric_scooter", "lon": -77.04873966666666, "fusion_lat": 0.0, "name": "3482bf989f297ac9f4ed7cb561fa50fe", "rental_uris": {"android": "https://dc.lft.to/lastmile_qr_scan", "ios": "https://dc.lft.to/lastmile_qr_scan"}, "bike_id": "3482bf989f297ac9f4ed7cb561fa50fe"}, {"fusion_lon": 0.0, "is_reserved": 0, "lat": 38.8564685, "is_disabled": 0, "type": "electric_bike", "lon": -77.085281, "fusion_lat": 0.0, "name": "80e72dea56a6efdde822a0352c6f8e10", "rental_uris": {"android": "https://dc.lft.to/lastmile_qr_scan", "ios": "https://dc.lft.to/lastmile_qr_scan"}, "bike_id": "80e72dea56a6efdde822a0352c6f8e10"}, {"fusion_lon": 0.0, "is_reserved": 0, "lat": 38.90520766666667, "is_disabled": 0, "type": "electric_scooter", "lon": -77.06171716666667, "fusion_lat": 0.0, "name": "55f9158ae1ee9d495d444dcf0bcb5086", "rental_uris": {"android": "https://dc.lft.to/lastmile_qr_scan", "ios": "https://dc.lft.to/lastmile_qr_scan"}, "bike_id": "55f9158ae1ee9d495d444dcf0bcb5086"}, {"fusion_lon": 0.0, "is_reserved": 0, "lat": 38.92525966666667, "is_disabled": 0, "type": "electric_scooter", "lon": -77.00747116666666, "fusion_lat": 0.0, "name": "e7d9b9dd196e632ba2e6a4796133d610", "rental_uris": {"android": "https://dc.lft.to/lastmile_qr_scan", "ios": "https://dc.lft.to/lastmile_qr_scan"}, "bike_id": "e7d9b9dd196e632ba2e6a4796133d610"}, {"fusion_lon": 0.0, "is_reserved": 0, "lat": 38.91607466666667, "is_disabled": 0, "type": "electric_scooter", "lon": -77.04880716666666, "fusion_lat": 0.0, "name": "13707b13c8aa2b1a0cbd29925115c05f", "rental_uris": {"android": "https://dc.lft.to/lastmile_qr_scan", "ios": "https://dc.lft.to/lastmile_qr_scan"}, "bike_id": "13707b13c8aa2b1a0cbd29925115c05f"}, {"fusion_lon": 0.0, "is_reserved": 0, "lat": 38.923927, "is_disabled": 0, "type": "electric_scooter", "lon": -77.02735283333334, "fusion_lat": 0.0, "name": "23dc0c9c2559c8117e9cd4c3a8e63f3f", "rental_uris": {"android": "https://dc.lft.to/lastmile_qr_scan", "ios": "https://dc.lft.to/lastmile_qr_scan"}, "bike_id": "23dc0c9c2559c8117e9cd4c3a8e63f3f"}, {"fusion_lon": 0.0, "is_reserved": 0, "lat": 38.938512833333334, "is_disabled": 0, "type": "electric_scooter", "lon": -77.02476833333333, "fusion_lat": 0.0, "name": "fe6e3df5eb12dc31cf8b759a66f837cb", "rental_uris": {"android": "https://dc.lft.to/lastmile_qr_scan", "ios": "https://dc.lft.to/lastmile_qr_scan"}, "bike_id": "fe6e3df5eb12dc31cf8b759a66f837cb"}, {"fusion_lon": 0.0, "is_reserved": 0, "lat": 38.88468816666666, "is_disabled": 0, "type": "electric_scooter", "lon": -77.0321015, "fusion_lat": 0.0, "name": "c2d41dff1374f3a60779c078457bd46c", "rental_uris": {"android": "https://dc.lft.to/lastmile_qr_scan", "ios": "https://dc.lft.to/lastmile_qr_scan"}, "bike_id": "c2d41dff1374f3a60779c078457bd46c"}, {"fusion_lon": 0.0, "is_reserved": 0, "lat": 38.908460833333336, "is_disabled": 0, "type": "electric_scooter", "lon": -77.02064016666667, "fusion_lat": 0.0, "name": "4cd707f653d46c5868b0990c19fc3242", "rental_uris": {"android": "https://dc.lft.to/lastmile_qr_scan", "ios": "https://dc.lft.to/lastmile_qr_scan"}, "bike_id": "4cd707f653d46c5868b0990c19fc3242"}, {"fusion_lon": 0.0, "is_reserved": 0, "lat": 38.930784, "is_disabled": 0, "type": "electric_scooter", "lon": -77.0280875, "fusion_lat": 0.0, "name": "4c2d70fb88df48b712135222d6289875", "rental_uris": {"android": "https://dc.lft.to/lastmile_qr_scan", "ios": "https://dc.lft.to/lastmile_qr_scan"}, "bike_id": "4c2d70fb88df48b712135222d6289875"}, {"fusion_lon": 0.0, "is_reserved": 0, "lat": 38.91416733333333, "is_disabled": 0, "type": "electric_scooter", "lon": -77.031824, "fusion_lat": 0.0, "name": "e48236b6aeb224c955d3d84e2be7a35c", "rental_uris": {"android": "https://dc.lft.to/lastmile_qr_scan", "ios": "https://dc.lft.to/lastmile_qr_scan"}, "bike_id": "e48236b6aeb224c955d3d84e2be7a35c"}, {"fusion_lon": 0.0, "is_reserved": 0, "lat": 38.9227495, "is_disabled": 0, "type": "electric_scooter", "lon": -77.04278583333334, "fusion_lat": 0.0, "name": "aeb2ea4c9a209ea73eaed858f392838f", "rental_uris": {"android": "https://dc.lft.to/lastmile_qr_scan", "ios": "https://dc.lft.to/lastmile_qr_scan"}, "bike_id": "aeb2ea4c9a209ea73eaed858f392838f"}, {"fusion_lon": 0.0, "is_reserved": 0, "lat": 38.874682166666666, "is_disabled": 0, "type": "electric_scooter", "lon": -77.00531433333333, "fusion_lat": 0.0, "name": "b49ddce88f1bdd09af2464e8865bf73a", "rental_uris": {"android": "https://dc.lft.to/lastmile_qr_scan", "ios": "https://dc.lft.to/lastmile_qr_scan"}, "bike_id": "b49ddce88f1bdd09af2464e8865bf73a"}, {"fusion_lon": 0.0, "is_reserved": 0, "lat": 38.913681, "is_disabled": 0, "type": "electric_scooter", "lon": -77.00826666666667, "fusion_lat": 0.0, "name": "6ffaa6a237fa77aa35da73020c7f6803", "rental_uris": {"android": "https://dc.lft.to/lastmile_qr_scan", "ios": "https://dc.lft.to/lastmile_qr_scan"}, "bike_id": "6ffaa6a237fa77aa35da73020c7f6803"}, {"fusion_lon": 0.0, "is_reserved": 0, "lat": 38.896178166666665, "is_disabled": 0, "type": "electric_bike", "lon": -76.90736216666667, "fusion_lat": 0.0, "name": "d9775cde62ad226c9ff0cf990cc30e15", "rental_uris": {"android": "https://dc.lft.to/lastmile_qr_scan", "ios": "https://dc.lft.to/lastmile_qr_scan"}, "bike_id": "d9775cde62ad226c9ff0cf990cc30e15"}, {"fusion_lon": 0.0, "is_reserved": 0, "lat": 38.90250916666667, "is_disabled": 0, "type": "electric_scooter", "lon": -77.0517355, "fusion_lat": 0.0, "name": "9f82f1e209c44fa6ba631328b7803951", "rental_uris": {"android": "https://dc.lft.to/lastmile_qr_scan", "ios": "https://dc.lft.to/lastmile_qr_scan"}, "bike_id": "9f82f1e209c44fa6ba631328b7803951"}, {"fusion_lon": 0.0, "is_reserved": 0, "lat": 38.907259833333335, "is_disabled": 0, "type": "electric_scooter", "lon": -77.03830666666667, "fusion_lat": 0.0, "name": "57aa776bf36d248683ad4b6b4cf6c15a", "rental_uris": {"android": "https://dc.lft.to/lastmile_qr_scan", "ios": "https://dc.lft.to/lastmile_qr_scan"}, "bike_id": "57aa776bf36d248683ad4b6b4cf6c15a"}, {"fusion_lon": 0.0, "is_reserved": 0, "lat": 38.917081333333336, "is_disabled": 0, "type": "electric_scooter", "lon": -77.0239665, "fusion_lat": 0.0, "name": "1858971facd75d6f5b39ef47cd0a4712", "rental_uris": {"android": "https://dc.lft.to/lastmile_qr_scan", "ios": "https://dc.lft.to/lastmile_qr_scan"}, "bike_id": "1858971facd75d6f5b39ef47cd0a4712"}, {"fusion_lon": 0.0, "is_reserved": 0, "lat": 38.923514, "is_disabled": 0, "type": "electric_scooter", "lon": -77.024458, "fusion_lat": 0.0, "name": "08c78875a4d1d471e163d9831eac5fb1", "rental_uris": {"android": "https://dc.lft.to/lastmile_qr_scan", "ios": "https://dc.lft.to/lastmile_qr_scan"}, "bike_id": "08c78875a4d1d471e163d9831eac5fb1"}, {"fusion_lon": 0.0, "is_reserved": 0, "lat": 38.9232465, "is_disabled": 0, "type": "electric_scooter", "lon": -77.0195575, "fusion_lat": 0.0, "name": "171f9ac296b117ebbf68069886350152", "rental_uris": {"android": "https://dc.lft.to/lastmile_qr_scan", "ios": "https://dc.lft.to/lastmile_qr_scan"}, "bike_id": "171f9ac296b117ebbf68069886350152"}, {"fusion_lon": 0.0, "is_reserved": 0, "lat": 38.91053983333333, "is_disabled": 0, "type": "electric_scooter", "lon": -77.02801, "fusion_lat": 0.0, "name": "f6ce02130029a0baac601ea47f8eecbc", "rental_uris": {"android": "https://dc.lft.to/lastmile_qr_scan", "ios": "https://dc.lft.to/lastmile_qr_scan"}, "bike_id": "f6ce02130029a0baac601ea47f8eecbc"}, {"fusion_lon": 0.0, "is_reserved": 0, "lat": 38.928277333333334, "is_disabled": 0, "type": "electric_scooter", "lon": -77.0229865, "fusion_lat": 0.0, "name": "b9746f3760d202890d35ff20c1e93c44", "rental_uris": {"android": "https://dc.lft.to/lastmile_qr_scan", "ios": "https://dc.lft.to/lastmile_qr_scan"}, "bike_id": "b9746f3760d202890d35ff20c1e93c44"}, {"fusion_lon": 0.0, "is_reserved": 0, "lat": 38.89747583333333, "is_disabled": 0, "type": "electric_scooter", "lon": -77.01885433333334, "fusion_lat": 0.0, "name": "55446eeffbdb338b44796124b80f9323", "rental_uris": {"android": "https://dc.lft.to/lastmile_qr_scan", "ios": "https://dc.lft.to/lastmile_qr_scan"}, "bike_id": "55446eeffbdb338b44796124b80f9323"}, {"fusion_lon": 0.0, "is_reserved": 0, "lat": 38.9072585, "is_disabled": 0, "type": "electric_scooter", "lon": -77.03847566666667, "fusion_lat": 0.0, "name": "6d13c8c54b00e2028a89419742228a31", "rental_uris": {"android": "https://dc.lft.to/lastmile_qr_scan", "ios": "https://dc.lft.to/lastmile_qr_scan"}, "bike_id": "6d13c8c54b00e2028a89419742228a31"}, {"fusion_lon": 0.0, "is_reserved": 0, "lat": 38.91094116666667, "is_disabled": 0, "type": "electric_scooter", "lon": -77.04354333333333, "fusion_lat": 0.0, "name": "0ba13daedaca2085d3ad88530aadd04f", "rental_uris": {"android": "https://dc.lft.to/lastmile_qr_scan", "ios": "https://dc.lft.to/lastmile_qr_scan"}, "bike_id": "0ba13daedaca2085d3ad88530aadd04f"}, {"fusion_lon": 0.0, "is_reserved": 0, "lat": 38.93098283333333, "is_disabled": 0, "type": "electric_scooter", "lon": -77.02644416666666, "fusion_lat": 0.0, "name": "3e48c2e389947cd35dabc45d69285c9c", "rental_uris": {"android": "https://dc.lft.to/lastmile_qr_scan", "ios": "https://dc.lft.to/lastmile_qr_scan"}, "bike_id": "3e48c2e389947cd35dabc45d69285c9c"}, {"fusion_lon": 0.0, "is_reserved": 0, "lat": 38.87700433333333, "is_disabled": 0, "type": "electric_scooter", "lon": -77.11025516666666, "fusion_lat": 0.0, "name": "45df65eb7edc0242c9c6d06e89039a87", "rental_uris": {"android": "https://dc.lft.to/lastmile_qr_scan", "ios": "https://dc.lft.to/lastmile_qr_scan"}, "bike_id": "45df65eb7edc0242c9c6d06e89039a87"}, {"fusion_lon": 0.0, "is_reserved": 0, "lat": 38.9165255, "is_disabled": 0, "type": "electric_scooter", "lon": -77.02707616666666, "fusion_lat": 0.0, "name": "05b77813d4a020f51598d4c79219034f", "rental_uris": {"android": "https://dc.lft.to/lastmile_qr_scan", "ios": "https://dc.lft.to/lastmile_qr_scan"}, "bike_id": "05b77813d4a020f51598d4c79219034f"}, {"fusion_lon": 0.0, "is_reserved": 0, "lat": 38.931543833333336, "is_disabled": 0, "type": "electric_scooter", "lon": -77.03291233333333, "fusion_lat": 0.0, "name": "a1b42e4ced2f95f237fa5abeb908ebc1", "rental_uris": {"android": "https://dc.lft.to/lastmile_qr_scan", "ios": "https://dc.lft.to/lastmile_qr_scan"}, "bike_id": "a1b42e4ced2f95f237fa5abeb908ebc1"}, {"fusion_lon": 0.0, "is_reserved": 0, "lat": 38.906619166666665, "is_disabled": 0, "type": "electric_scooter", "lon": -77.04617883333333, "fusion_lat": 0.0, "name": "607957d0bd2bf7d7f651a95f8170caad", "rental_uris": {"android": "https://dc.lft.to/lastmile_qr_scan", "ios": "https://dc.lft.to/lastmile_qr_scan"}, "bike_id": "607957d0bd2bf7d7f651a95f8170caad"}, {"fusion_lon": 0.0, "is_reserved": 0, "lat": 38.918471833333335, "is_disabled": 0, "type": "electric_scooter", "lon": -77.03211933333333, "fusion_lat": 0.0, "name": "fbe1537fe104b82122cffc2b1cfb8ff0", "rental_uris": {"android": "https://dc.lft.to/lastmile_qr_scan", "ios": "https://dc.lft.to/lastmile_qr_scan"}, "bike_id": "fbe1537fe104b82122cffc2b1cfb8ff0"}, {"fusion_lon": 0.0, "is_reserved": 0, "lat": 38.91251533333333, "is_disabled": 0, "type": "electric_scooter", "lon": -76.9835225, "fusion_lat": 0.0, "name": "988ac9aee817d38dc4186b9314cea6d7", "rental_uris": {"android": "https://dc.lft.to/lastmile_qr_scan", "ios": "https://dc.lft.to/lastmile_qr_scan"}, "bike_id": "988ac9aee817d38dc4186b9314cea6d7"}, {"fusion_lon": 0.0, "is_reserved": 0, "lat": 38.900512166666665, "is_disabled": 0, "type": "electric_scooter", "lon": -77.019997, "fusion_lat": 0.0, "name": "ddc7a9731fccb350c628772bde46348e", "rental_uris": {"android": "https://dc.lft.to/lastmile_qr_scan", "ios": "https://dc.lft.to/lastmile_qr_scan"}, "bike_id": "ddc7a9731fccb350c628772bde46348e"}, {"fusion_lon": 0.0, "is_reserved": 0, "lat": 38.92471883333333, "is_disabled": 0, "type": "electric_scooter", "lon": -77.03540316666667, "fusion_lat": 0.0, "name": "8a336514aad960ac07c901dd738714e4", "rental_uris": {"android": "https://dc.lft.to/lastmile_qr_scan", "ios": "https://dc.lft.to/lastmile_qr_scan"}, "bike_id": "8a336514aad960ac07c901dd738714e4"}, {"fusion_lon": 0.0, "is_reserved": 0, "lat": 38.913477666666665, "is_disabled": 0, "type": "electric_scooter", "lon": -77.03189833333333, "fusion_lat": 0.0, "name": "240f1af1cafec4031e0e7e460f2201eb", "rental_uris": {"android": "https://dc.lft.to/lastmile_qr_scan", "ios": "https://dc.lft.to/lastmile_qr_scan"}, "bike_id": "240f1af1cafec4031e0e7e460f2201eb"}, {"fusion_lon": 0.0, "is_reserved": 0, "lat": 38.91270383333333, "is_disabled": 0, "type": "electric_scooter", "lon": -77.0222675, "fusion_lat": 0.0, "name": "6fb7e09d67eb70ba51c1ab91f02edbd9", "rental_uris": {"android": "https://dc.lft.to/lastmile_qr_scan", "ios": "https://dc.lft.to/lastmile_qr_scan"}, "bike_id": "6fb7e09d67eb70ba51c1ab91f02edbd9"}, {"fusion_lon": 0.0, "is_reserved": 0, "lat": 38.89354566666667, "is_disabled": 0, "type": "electric_scooter", "lon": -77.00341383333334, "fusion_lat": 0.0, "name": "8e92eaffdcceb7a303c1e9e089831cce", "rental_uris": {"android": "https://dc.lft.to/lastmile_qr_scan", "ios": "https://dc.lft.to/lastmile_qr_scan"}, "bike_id": "8e92eaffdcceb7a303c1e9e089831cce"}, {"fusion_lon": 0.0, "is_reserved": 0, "lat": 38.900356333333335, "is_disabled": 0, "type": "electric_scooter", "lon": -77.0316745, "fusion_lat": 0.0, "name": "5057bc0111aa9eddfa3a3587ed30248f", "rental_uris": {"android": "https://dc.lft.to/lastmile_qr_scan", "ios": "https://dc.lft.to/lastmile_qr_scan"}, "bike_id": "5057bc0111aa9eddfa3a3587ed30248f"}, {"fusion_lon": 0.0, "is_reserved": 0, "lat": 38.89826516666667, "is_disabled": 0, "type": "electric_scooter", "lon": -76.94654016666667, "fusion_lat": 0.0, "name": "c93e94d86fc03c011ba7a5abc228620c", "rental_uris": {"android": "https://dc.lft.to/lastmile_qr_scan", "ios": "https://dc.lft.to/lastmile_qr_scan"}, "bike_id": "c93e94d86fc03c011ba7a5abc228620c"}, {"fusion_lon": 0.0, "is_reserved": 0, "lat": 38.893229833333336, "is_disabled": 0, "type": "electric_scooter", "lon": -77.03186716666667, "fusion_lat": 0.0, "name": "f741fa201c950d5fe383ff4820f3f900", "rental_uris": {"android": "https://dc.lft.to/lastmile_qr_scan", "ios": "https://dc.lft.to/lastmile_qr_scan"}, "bike_id": "f741fa201c950d5fe383ff4820f3f900"}, {"fusion_lon": 0.0, "is_reserved": 0, "lat": 38.92748983333333, "is_disabled": 0, "type": "electric_scooter", "lon": -77.03361233333334, "fusion_lat": 0.0, "name": "374d7b2b11284dfe2462f5b66da88b54", "rental_uris": {"android": "https://dc.lft.to/lastmile_qr_scan", "ios": "https://dc.lft.to/lastmile_qr_scan"}, "bike_id": "374d7b2b11284dfe2462f5b66da88b54"}, {"fusion_lon": 0.0, "is_reserved": 0, "lat": 38.92232633333333, "is_disabled": 0, "type": "electric_bike", "lon": -77.0282935, "fusion_lat": 0.0, "name": "0a42c50f33189a5c7f17ebd37a8cb53d", "rental_uris": {"android": "https://dc.lft.to/lastmile_qr_scan", "ios": "https://dc.lft.to/lastmile_qr_scan"}, "bike_id": "0a42c50f33189a5c7f17ebd37a8cb53d"}, {"fusion_lon": 0.0, "is_reserved": 0, "lat": 38.90960316666666, "is_disabled": 0, "type": "electric_scooter", "lon": -77.034717, "fusion_lat": 0.0, "name": "40d942768b282bae760f15a8aa0edf08", "rental_uris": {"android": "https://dc.lft.to/lastmile_qr_scan", "ios": "https://dc.lft.to/lastmile_qr_scan"}, "bike_id": "40d942768b282bae760f15a8aa0edf08"}, {"fusion_lon": 0.0, "is_reserved": 0, "lat": 38.89649433333334, "is_disabled": 0, "type": "electric_scooter", "lon": -77.0434465, "fusion_lat": 0.0, "name": "bc86b67605827497e8bfa232507d3ee2", "rental_uris": {"android": "https://dc.lft.to/lastmile_qr_scan", "ios": "https://dc.lft.to/lastmile_qr_scan"}, "bike_id": "bc86b67605827497e8bfa232507d3ee2"}, {"fusion_lon": 0.0, "is_reserved": 0, "lat": 38.85512633333333, "is_disabled": 0, "type": "electric_scooter", "lon": -76.98635883333333, "fusion_lat": 0.0, "name": "6eee6e6a708d102d2d52a2a851513a25", "rental_uris": {"android": "https://dc.lft.to/lastmile_qr_scan", "ios": "https://dc.lft.to/lastmile_qr_scan"}, "bike_id": "6eee6e6a708d102d2d52a2a851513a25"}, {"fusion_lon": 0.0, "is_reserved": 0, "lat": 38.903627, "is_disabled": 0, "type": "electric_scooter", "lon": -77.04494916666667, "fusion_lat": 0.0, "name": "cc24c03a8d2c646c9599c76be9d7c675", "rental_uris": {"android": "https://dc.lft.to/lastmile_qr_scan", "ios": "https://dc.lft.to/lastmile_qr_scan"}, "bike_id": "cc24c03a8d2c646c9599c76be9d7c675"}, {"fusion_lon": 0.0, "is_reserved": 0, "lat": 38.9373085, "is_disabled": 0, "type": "electric_scooter", "lon": -77.03264883333334, "fusion_lat": 0.0, "name": "7133f88e87e59e3cab11cc252fe93bc9", "rental_uris": {"android": "https://dc.lft.to/lastmile_qr_scan", "ios": "https://dc.lft.to/lastmile_qr_scan"}, "bike_id": "7133f88e87e59e3cab11cc252fe93bc9"}, {"fusion_lon": 0.0, "is_reserved": 0, "lat": 38.919677166666666, "is_disabled": 0, "type": "electric_scooter", "lon": -76.99255683333334, "fusion_lat": 0.0, "name": "16765597588e4d384e5af90316d39a60", "rental_uris": {"android": "https://dc.lft.to/lastmile_qr_scan", "ios": "https://dc.lft.to/lastmile_qr_scan"}, "bike_id": "16765597588e4d384e5af90316d39a60"}, {"fusion_lon": 0.0, "is_reserved": 0, "lat": 38.898295166666664, "is_disabled": 0, "type": "electric_scooter", "lon": -77.048254, "fusion_lat": 0.0, "name": "dbdaaa341c0f3769af5d03559350505a", "rental_uris": {"android": "https://dc.lft.to/lastmile_qr_scan", "ios": "https://dc.lft.to/lastmile_qr_scan"}, "bike_id": "dbdaaa341c0f3769af5d03559350505a"}, {"fusion_lon": 0.0, "is_reserved": 0, "lat": 38.9040465, "is_disabled": 0, "type": "electric_scooter", "lon": -77.02950283333334, "fusion_lat": 0.0, "name": "b5e543f6158f2bf6a997f497c413cf18", "rental_uris": {"android": "https://dc.lft.to/lastmile_qr_scan", "ios": "https://dc.lft.to/lastmile_qr_scan"}, "bike_id": "b5e543f6158f2bf6a997f497c413cf18"}, {"fusion_lon": 0.0, "is_reserved": 0, "lat": 38.909912166666665, "is_disabled": 0, "type": "electric_scooter", "lon": -77.0401315, "fusion_lat": 0.0, "name": "8e9d9e1b711bcec8a0ef6aeb24d23e0a", "rental_uris": {"android": "https://dc.lft.to/lastmile_qr_scan", "ios": "https://dc.lft.to/lastmile_qr_scan"}, "bike_id": "8e9d9e1b711bcec8a0ef6aeb24d23e0a"}, {"fusion_lon": 0.0, "is_reserved": 0, "lat": 38.91108216666667, "is_disabled": 0, "type": "electric_scooter", "lon": -77.02177933333333, "fusion_lat": 0.0, "name": "a29f52e9f7aa0ba71ffce20cea7b0c02", "rental_uris": {"android": "https://dc.lft.to/lastmile_qr_scan", "ios": "https://dc.lft.to/lastmile_qr_scan"}, "bike_id": "a29f52e9f7aa0ba71ffce20cea7b0c02"}, {"fusion_lon": 0.0, "is_reserved": 0, "lat": 38.87648733333333, "is_disabled": 0, "type": "electric_scooter", "lon": -77.00094166666666, "fusion_lat": 0.0, "name": "295063ce75b91bc4b94733560e8107a3", "rental_uris": {"android": "https://dc.lft.to/lastmile_qr_scan", "ios": "https://dc.lft.to/lastmile_qr_scan"}, "bike_id": "295063ce75b91bc4b94733560e8107a3"}, {"fusion_lon": 0.0, "is_reserved": 0, "lat": 38.96123566666667, "is_disabled": 0, "type": "electric_bike", "lon": -77.032813, "fusion_lat": 0.0, "name": "2a10d9ca85bf682ab803f199d24d71e9", "rental_uris": {"android": "https://dc.lft.to/lastmile_qr_scan", "ios": "https://dc.lft.to/lastmile_qr_scan"}, "bike_id": "2a10d9ca85bf682ab803f199d24d71e9"}, {"fusion_lon": 0.0, "is_reserved": 0, "lat": 38.923182, "is_disabled": 0, "type": "electric_scooter", "lon": -77.0279965, "fusion_lat": 0.0, "name": "4b6e9a66d8e312e57bc2b4e72270eab7", "rental_uris": {"android": "https://dc.lft.to/lastmile_qr_scan", "ios": "https://dc.lft.to/lastmile_qr_scan"}, "bike_id": "4b6e9a66d8e312e57bc2b4e72270eab7"}, {"fusion_lon": 0.0, "is_reserved": 0, "lat": 38.8756075, "is_disabled": 0, "type": "electric_scooter", "lon": -77.00591716666666, "fusion_lat": 0.0, "name": "2136f1ee6c4697fbadff171803364b08", "rental_uris": {"android": "https://dc.lft.to/lastmile_qr_scan", "ios": "https://dc.lft.to/lastmile_qr_scan"}, "bike_id": "2136f1ee6c4697fbadff171803364b08"}, {"fusion_lon": 0.0, "is_reserved": 0, "lat": 38.8954665, "is_disabled": 0, "type": "electric_scooter", "lon": -76.94947433333333, "fusion_lat": 0.0, "name": "9ad4fb67ce6456a90ce3f42e45e2b35e", "rental_uris": {"android": "https://dc.lft.to/lastmile_qr_scan", "ios": "https://dc.lft.to/lastmile_qr_scan"}, "bike_id": "9ad4fb67ce6456a90ce3f42e45e2b35e"}, {"fusion_lon": 0.0, "is_reserved": 0, "lat": 38.926526333333335, "is_disabled": 0, "type": "electric_scooter", "lon": -77.033122, "fusion_lat": 0.0, "name": "c07ec4a8944f63ddc4810812a01d4328", "rental_uris": {"android": "https://dc.lft.to/lastmile_qr_scan", "ios": "https://dc.lft.to/lastmile_qr_scan"}, "bike_id": "c07ec4a8944f63ddc4810812a01d4328"}, {"fusion_lon": 0.0, "is_reserved": 0, "lat": 38.878917666666666, "is_disabled": 0, "type": "electric_scooter", "lon": -77.01389816666666, "fusion_lat": 0.0, "name": "cb902ef330c2df34dad4e8d08d5bc33e", "rental_uris": {"android": "https://dc.lft.to/lastmile_qr_scan", "ios": "https://dc.lft.to/lastmile_qr_scan"}, "bike_id": "cb902ef330c2df34dad4e8d08d5bc33e"}, {"fusion_lon": 0.0, "is_reserved": 0, "lat": 38.838110666666665, "is_disabled": 0, "type": "electric_bike", "lon": -77.09525816666667, "fusion_lat": 0.0, "name": "e42a65deee87d0e25135d465c1bd9f91", "rental_uris": {"android": "https://dc.lft.to/lastmile_qr_scan", "ios": "https://dc.lft.to/lastmile_qr_scan"}, "bike_id": "e42a65deee87d0e25135d465c1bd9f91"}, {"fusion_lon": 0.0, "is_reserved": 0, "lat": 38.9052935, "is_disabled": 0, "type": "electric_scooter", "lon": -77.05021033333334, "fusion_lat": 0.0, "name": "51fce280aee4a75b7c433e405585d62a", "rental_uris": {"android": "https://dc.lft.to/lastmile_qr_scan", "ios": "https://dc.lft.to/lastmile_qr_scan"}, "bike_id": "51fce280aee4a75b7c433e405585d62a"}, {"fusion_lon": 0.0, "is_reserved": 0, "lat": 38.891109, "is_disabled": 0, "type": "electric_scooter", "lon": -76.94380266666667, "fusion_lat": 0.0, "name": "d111b5f8d1d4d413e43886a283f15ba3", "rental_uris": {"android": "https://dc.lft.to/lastmile_qr_scan", "ios": "https://dc.lft.to/lastmile_qr_scan"}, "bike_id": "d111b5f8d1d4d413e43886a283f15ba3"}, {"fusion_lon": 0.0, "is_reserved": 0, "lat": 38.89363766666666, "is_disabled": 0, "type": "electric_scooter", "lon": -77.028153, "fusion_lat": 0.0, "name": "418249661385333e8f886bf0e911c3ac", "rental_uris": {"android": "https://dc.lft.to/lastmile_qr_scan", "ios": "https://dc.lft.to/lastmile_qr_scan"}, "bike_id": "418249661385333e8f886bf0e911c3ac"}, {"fusion_lon": 0.0, "is_reserved": 0, "lat": 38.90666216666666, "is_disabled": 0, "type": "electric_scooter", "lon": -77.0462025, "fusion_lat": 0.0, "name": "bc711ce370e83895292492611132e6ea", "rental_uris": {"android": "https://dc.lft.to/lastmile_qr_scan", "ios": "https://dc.lft.to/lastmile_qr_scan"}, "bike_id": "bc711ce370e83895292492611132e6ea"}, {"fusion_lon": 0.0, "is_reserved": 0, "lat": 38.90715866666667, "is_disabled": 0, "type": "electric_scooter", "lon": -76.93012933333333, "fusion_lat": 0.0, "name": "92b54f3d098470dea1a02b0793f6988e", "rental_uris": {"android": "https://dc.lft.to/lastmile_qr_scan", "ios": "https://dc.lft.to/lastmile_qr_scan"}, "bike_id": "92b54f3d098470dea1a02b0793f6988e"}, {"fusion_lon": 0.0, "is_reserved": 0, "lat": 38.9022615, "is_disabled": 0, "type": "electric_scooter", "lon": -77.0286125, "fusion_lat": 0.0, "name": "31faff304f98aefccfbe96137d32d055", "rental_uris": {"android": "https://dc.lft.to/lastmile_qr_scan", "ios": "https://dc.lft.to/lastmile_qr_scan"}, "bike_id": "31faff304f98aefccfbe96137d32d055"}, {"fusion_lon": 0.0, "is_reserved": 0, "lat": 38.92338733333333, "is_disabled": 0, "type": "electric_scooter", "lon": -77.03538, "fusion_lat": 0.0, "name": "d2afbfeaf5e3a34c3c82a956c680da33", "rental_uris": {"android": "https://dc.lft.to/lastmile_qr_scan", "ios": "https://dc.lft.to/lastmile_qr_scan"}, "bike_id": "d2afbfeaf5e3a34c3c82a956c680da33"}, {"fusion_lon": 0.0, "is_reserved": 0, "lat": 38.875759, "is_disabled": 0, "type": "electric_scooter", "lon": -76.97549183333334, "fusion_lat": 0.0, "name": "ddb4fcf16618a707590333f75ff84393", "rental_uris": {"android": "https://dc.lft.to/lastmile_qr_scan", "ios": "https://dc.lft.to/lastmile_qr_scan"}, "bike_id": "ddb4fcf16618a707590333f75ff84393"}, {"fusion_lon": 0.0, "is_reserved": 0, "lat": 38.92668666666667, "is_disabled": 0, "type": "electric_scooter", "lon": -77.0302715, "fusion_lat": 0.0, "name": "30d78f94d6d3772ccda1d637afbd4087", "rental_uris": {"android": "https://dc.lft.to/lastmile_qr_scan", "ios": "https://dc.lft.to/lastmile_qr_scan"}, "bike_id": "30d78f94d6d3772ccda1d637afbd4087"}, {"fusion_lon": 0.0, "is_reserved": 0, "lat": 38.911826166666664, "is_disabled": 0, "type": "electric_scooter", "lon": -77.04034116666666, "fusion_lat": 0.0, "name": "61fbb29e54037d98839a869f4f0eaa43", "rental_uris": {"android": "https://dc.lft.to/lastmile_qr_scan", "ios": "https://dc.lft.to/lastmile_qr_scan"}, "bike_id": "61fbb29e54037d98839a869f4f0eaa43"}, {"fusion_lon": 0.0, "is_reserved": 0, "lat": 38.922423, "is_disabled": 0, "type": "electric_scooter", "lon": -77.04254716666667, "fusion_lat": 0.0, "name": "ed0af7c797e47973d93d3c634e160706", "rental_uris": {"android": "https://dc.lft.to/lastmile_qr_scan", "ios": "https://dc.lft.to/lastmile_qr_scan"}, "bike_id": "ed0af7c797e47973d93d3c634e160706"}, {"fusion_lon": 0.0, "is_reserved": 0, "lat": 38.91286816666667, "is_disabled": 0, "type": "electric_scooter", "lon": -77.04041533333333, "fusion_lat": 0.0, "name": "f9bac55a9bddf8ced11dc6a0f8fbf117", "rental_uris": {"android": "https://dc.lft.to/lastmile_qr_scan", "ios": "https://dc.lft.to/lastmile_qr_scan"}, "bike_id": "f9bac55a9bddf8ced11dc6a0f8fbf117"}, {"fusion_lon": 0.0, "is_reserved": 0, "lat": 38.9180755, "is_disabled": 0, "type": "electric_scooter", "lon": -77.040323, "fusion_lat": 0.0, "name": "4fdafc77ceda7e57a910b25410e68e0e", "rental_uris": {"android": "https://dc.lft.to/lastmile_qr_scan", "ios": "https://dc.lft.to/lastmile_qr_scan"}, "bike_id": "4fdafc77ceda7e57a910b25410e68e0e"}, {"fusion_lon": 0.0, "is_reserved": 0, "lat": 38.92135483333333, "is_disabled": 0, "type": "electric_scooter", "lon": -77.04219433333333, "fusion_lat": 0.0, "name": "0a66575fd4b5be73a1777357ffa4f498", "rental_uris": {"android": "https://dc.lft.to/lastmile_qr_scan", "ios": "https://dc.lft.to/lastmile_qr_scan"}, "bike_id": "0a66575fd4b5be73a1777357ffa4f498"}, {"fusion_lon": 0.0, "is_reserved": 0, "lat": 38.902033833333334, "is_disabled": 0, "type": "electric_scooter", "lon": -77.0160485, "fusion_lat": 0.0, "name": "8617fd51263d42ff9be4aef8aafc513e", "rental_uris": {"android": "https://dc.lft.to/lastmile_qr_scan", "ios": "https://dc.lft.to/lastmile_qr_scan"}, "bike_id": "8617fd51263d42ff9be4aef8aafc513e"}, {"fusion_lon": 0.0, "is_reserved": 0, "lat": 38.8532095, "is_disabled": 0, "type": "electric_bike", "lon": -76.98013683333333, "fusion_lat": 0.0, "name": "dd15c9cbd43e74c2598143970cb31161", "rental_uris": {"android": "https://dc.lft.to/lastmile_qr_scan", "ios": "https://dc.lft.to/lastmile_qr_scan"}, "bike_id": "dd15c9cbd43e74c2598143970cb31161"}, {"fusion_lon": 0.0, "is_reserved": 0, "lat": 38.903884166666664, "is_disabled": 0, "type": "electric_scooter", "lon": -77.038321, "fusion_lat": 0.0, "name": "8cac525b3b0d594c83184becae07a8d2", "rental_uris": {"android": "https://dc.lft.to/lastmile_qr_scan", "ios": "https://dc.lft.to/lastmile_qr_scan"}, "bike_id": "8cac525b3b0d594c83184becae07a8d2"}, {"fusion_lon": 0.0, "is_reserved": 0, "lat": 38.93349416666667, "is_disabled": 0, "type": "electric_scooter", "lon": -77.02421883333334, "fusion_lat": 0.0, "name": "7c74c1653ce36755752a79f4c6a3e8fe", "rental_uris": {"android": "https://dc.lft.to/lastmile_qr_scan", "ios": "https://dc.lft.to/lastmile_qr_scan"}, "bike_id": "7c74c1653ce36755752a79f4c6a3e8fe"}, {"fusion_lon": 0.0, "is_reserved": 0, "lat": 38.8763375, "is_disabled": 0, "type": "electric_scooter", "lon": -77.005155, "fusion_lat": 0.0, "name": "197204c7da95e1efe87408722c742789", "rental_uris": {"android": "https://dc.lft.to/lastmile_qr_scan", "ios": "https://dc.lft.to/lastmile_qr_scan"}, "bike_id": "197204c7da95e1efe87408722c742789"}, {"fusion_lon": 0.0, "is_reserved": 0, "lat": 38.900181333333336, "is_disabled": 0, "type": "electric_scooter", "lon": -77.03338416666666, "fusion_lat": 0.0, "name": "062806af494afcea9384e8c693b61207", "rental_uris": {"android": "https://dc.lft.to/lastmile_qr_scan", "ios": "https://dc.lft.to/lastmile_qr_scan"}, "bike_id": "062806af494afcea9384e8c693b61207"}, {"fusion_lon": 0.0, "is_reserved": 0, "lat": 38.909632, "is_disabled": 0, "type": "electric_scooter", "lon": -77.04832566666667, "fusion_lat": 0.0, "name": "812cf753d7663219d6e781f67f590eb3", "rental_uris": {"android": "https://dc.lft.to/lastmile_qr_scan", "ios": "https://dc.lft.to/lastmile_qr_scan"}, "bike_id": "812cf753d7663219d6e781f67f590eb3"}, {"fusion_lon": 0.0, "is_reserved": 0, "lat": 38.899073666666666, "is_disabled": 0, "type": "electric_scooter", "lon": -77.03338316666667, "fusion_lat": 0.0, "name": "0d84225794681e1fe4480829bef81e77", "rental_uris": {"android": "https://dc.lft.to/lastmile_qr_scan", "ios": "https://dc.lft.to/lastmile_qr_scan"}, "bike_id": "0d84225794681e1fe4480829bef81e77"}, {"fusion_lon": 0.0, "is_reserved": 0, "lat": 38.92502866666667, "is_disabled": 0, "type": "electric_scooter", "lon": -77.03788633333333, "fusion_lat": 0.0, "name": "0cc13e78fb96ca28b2c1b7efd5618877", "rental_uris": {"android": "https://dc.lft.to/lastmile_qr_scan", "ios": "https://dc.lft.to/lastmile_qr_scan"}, "bike_id": "0cc13e78fb96ca28b2c1b7efd5618877"}, {"fusion_lon": 0.0, "is_reserved": 0, "lat": 38.9524135, "is_disabled": 0, "type": "electric_bike", "lon": -76.98245633333333, "fusion_lat": 0.0, "name": "79e364bf320686ac917afe9b034241b9", "rental_uris": {"android": "https://dc.lft.to/lastmile_qr_scan", "ios": "https://dc.lft.to/lastmile_qr_scan"}, "bike_id": "79e364bf320686ac917afe9b034241b9"}, {"fusion_lon": 0.0, "is_reserved": 0, "lat": 38.91269916666667, "is_disabled": 0, "type": "electric_scooter", "lon": -77.04502866666667, "fusion_lat": 0.0, "name": "7c3dee19be7ae30b38669ed8eb3a9ef3", "rental_uris": {"android": "https://dc.lft.to/lastmile_qr_scan", "ios": "https://dc.lft.to/lastmile_qr_scan"}, "bike_id": "7c3dee19be7ae30b38669ed8eb3a9ef3"}, {"fusion_lon": 0.0, "is_reserved": 0, "lat": 38.92686833333333, "is_disabled": 0, "type": "electric_scooter", "lon": -77.01458933333333, "fusion_lat": 0.0, "name": "78d1c7522a768472d809723a49de936c", "rental_uris": {"android": "https://dc.lft.to/lastmile_qr_scan", "ios": "https://dc.lft.to/lastmile_qr_scan"}, "bike_id": "78d1c7522a768472d809723a49de936c"}, {"fusion_lon": 0.0, "is_reserved": 0, "lat": 38.91994283333333, "is_disabled": 0, "type": "electric_scooter", "lon": -77.02171966666667, "fusion_lat": 0.0, "name": "339e806cec047f7cf76c56273f88243a", "rental_uris": {"android": "https://dc.lft.to/lastmile_qr_scan", "ios": "https://dc.lft.to/lastmile_qr_scan"}, "bike_id": "339e806cec047f7cf76c56273f88243a"}, {"fusion_lon": 0.0, "is_reserved": 0, "lat": 38.91563166666667, "is_disabled": 0, "type": "electric_scooter", "lon": -77.03836416666667, "fusion_lat": 0.0, "name": "e59b70456fced801622d246bce3f5f98", "rental_uris": {"android": "https://dc.lft.to/lastmile_qr_scan", "ios": "https://dc.lft.to/lastmile_qr_scan"}, "bike_id": "e59b70456fced801622d246bce3f5f98"}, {"fusion_lon": 0.0, "is_reserved": 0, "lat": 38.91830983333333, "is_disabled": 0, "type": "electric_scooter", "lon": -77.03176266666667, "fusion_lat": 0.0, "name": "4adc97d77f76b3f5de1f47ef77b2b0cc", "rental_uris": {"android": "https://dc.lft.to/lastmile_qr_scan", "ios": "https://dc.lft.to/lastmile_qr_scan"}, "bike_id": "4adc97d77f76b3f5de1f47ef77b2b0cc"}, {"fusion_lon": 0.0, "is_reserved": 0, "lat": 38.9192745, "is_disabled": 0, "type": "electric_scooter", "lon": -77.03433916666667, "fusion_lat": 0.0, "name": "e439947f11e3d89a0e2da2f5d2429605", "rental_uris": {"android": "https://dc.lft.to/lastmile_qr_scan", "ios": "https://dc.lft.to/lastmile_qr_scan"}, "bike_id": "e439947f11e3d89a0e2da2f5d2429605"}, {"fusion_lon": 0.0, "is_reserved": 0, "lat": 38.92219733333334, "is_disabled": 0, "type": "electric_scooter", "lon": -77.01813316666667, "fusion_lat": 0.0, "name": "800252853455edb922ad6f1f815b097a", "rental_uris": {"android": "https://dc.lft.to/lastmile_qr_scan", "ios": "https://dc.lft.to/lastmile_qr_scan"}, "bike_id": "800252853455edb922ad6f1f815b097a"}, {"fusion_lon": 0.0, "is_reserved": 0, "lat": 38.902657166666664, "is_disabled": 0, "type": "electric_scooter", "lon": -77.01534566666666, "fusion_lat": 0.0, "name": "6c45277dfc2ef456ea4cec1de84fd2ce", "rental_uris": {"android": "https://dc.lft.to/lastmile_qr_scan", "ios": "https://dc.lft.to/lastmile_qr_scan"}, "bike_id": "6c45277dfc2ef456ea4cec1de84fd2ce"}, {"fusion_lon": 0.0, "is_reserved": 0, "lat": 38.92082816666667, "is_disabled": 0, "type": "electric_scooter", "lon": -77.0228795, "fusion_lat": 0.0, "name": "b31047979c4625eaeb49a5017d1d4f18", "rental_uris": {"android": "https://dc.lft.to/lastmile_qr_scan", "ios": "https://dc.lft.to/lastmile_qr_scan"}, "bike_id": "b31047979c4625eaeb49a5017d1d4f18"}, {"fusion_lon": 0.0, "is_reserved": 0, "lat": 38.92079916666667, "is_disabled": 0, "type": "electric_scooter", "lon": -77.02304516666666, "fusion_lat": 0.0, "name": "7307e61cdb67c3ebf6a9013c20626c4d", "rental_uris": {"android": "https://dc.lft.to/lastmile_qr_scan", "ios": "https://dc.lft.to/lastmile_qr_scan"}, "bike_id": "7307e61cdb67c3ebf6a9013c20626c4d"}, {"fusion_lon": 0.0, "is_reserved": 0, "lat": 38.876879, "is_disabled": 0, "type": "electric_scooter", "lon": -77.01760333333333, "fusion_lat": 0.0, "name": "892f87d56a4534601da4597d25535cb3", "rental_uris": {"android": "https://dc.lft.to/lastmile_qr_scan", "ios": "https://dc.lft.to/lastmile_qr_scan"}, "bike_id": "892f87d56a4534601da4597d25535cb3"}, {"fusion_lon": 0.0, "is_reserved": 0, "lat": 39.034259166666665, "is_disabled": 0, "type": "electric_bike", "lon": -77.043153, "fusion_lat": 0.0, "name": "3e07f714a636e0c114b6c69ded7e19f3", "rental_uris": {"android": "https://dc.lft.to/lastmile_qr_scan", "ios": "https://dc.lft.to/lastmile_qr_scan"}, "bike_id": "3e07f714a636e0c114b6c69ded7e19f3"}, {"fusion_lon": 0.0, "is_reserved": 0, "lat": 38.919114666666665, "is_disabled": 0, "type": "electric_scooter", "lon": -77.00151266666667, "fusion_lat": 0.0, "name": "94fb0cf56926af40ad4a40a5bc4a5720", "rental_uris": {"android": "https://dc.lft.to/lastmile_qr_scan", "ios": "https://dc.lft.to/lastmile_qr_scan"}, "bike_id": "94fb0cf56926af40ad4a40a5bc4a5720"}, {"fusion_lon": 0.0, "is_reserved": 0, "lat": 38.90097866666667, "is_disabled": 0, "type": "electric_scooter", "lon": -77.02092316666666, "fusion_lat": 0.0, "name": "c302a8c5a32a66e02d6c6654825cfd9a", "rental_uris": {"android": "https://dc.lft.to/lastmile_qr_scan", "ios": "https://dc.lft.to/lastmile_qr_scan"}, "bike_id": "c302a8c5a32a66e02d6c6654825cfd9a"},