{"data": {"bikes": [{"lat": 38.93253166666667, "is_disabled": 0, "type": "electric_scooter", "lon": -77.06655683333334, "bike_id": "26667571c655d103cda95ee3c4122d87", "fusion_lat": 0.0, "name": "26667571c655d103cda95ee3c4122d87", "is_reserved": 0, "rental_uris": {"android": "https://dc.lft.to/lastmile_qr_scan", "ios": "https://dc.lft.to/lastmile_qr_scan"}, "fusion_lon": 0.0}, {"lat": 38.8799165, "is_disabled": 0, "type": "electric_scooter", "lon": -76.98678033333333, "bike_id": "a4477456a94bf4f7a74edabb3476bdc1", "fusion_lat": 0.0, "name": "a4477456a94bf4f7a74edabb3476bdc1", "is_reserved": 0, "rental_uris": {"android": "https://dc.lft.to/lastmile_qr_scan", "ios": "https://dc.lft.to/lastmile_qr_scan"}, "fusion_lon": 0.0}, {"lat": 38.9361305, "is_disabled": 0, "type": "electric_scooter", "lon": -77.05749516666667, "bike_id": "bcb35a90a6938c6262832403676ce7d5", "fusion_lat": 0.0, "name": "bcb35a90a6938c6262832403676ce7d5", "is_reserved": 0, "rental_uris": {"android": "https://dc.lft.to/lastmile_qr_scan", "ios": "https://dc.lft.to/lastmile_qr_scan"}, "fusion_lon": 0.0}, {"lat": 38.925073833333336, "is_disabled": 0, "type": "electric_scooter", "lon": -77.076416, "bike_id": "407070cce7c359dd4b4bc045009073df", "fusion_lat": 0.0, "name": "407070cce7c359dd4b4bc045009073df", "is_reserved": 0, "rental_uris": {"android": "https://dc.lft.to/lastmile_qr_scan", "ios": "https://dc.lft.to/lastmile_qr_scan"}, "fusion_lon": 0.0}, {"lat": 38.867005, "is_disabled": 0, "type": "electric_scooter", "lon": -76.98710283333334, "bike_id": "5a4d91d70f0c3d3ea2002bf54b858d19", "fusion_lat": 0.0, "name": "5a4d91d70f0c3d3ea2002bf54b858d19", "is_reserved": 0, "rental_uris": {"android": "https://dc.lft.to/lastmile_qr_scan", "ios": "https://dc.lft.to/lastmile_qr_scan"}, "fusion_lon": 0.0}, {"lat": 38.902481, "is_disabled": 0, "type": "electric_scooter", "lon": -77.01764766666666, "bike_id": "82d6b3a3e7590303e7ec221f2337d82a", "fusion_lat": 0.0, "name": "82d6b3a3e7590303e7ec221f2337d82a", "is_reserved": 0, "rental_uris": {"android": "https://dc.lft.to/lastmile_qr_scan", "ios": "https://dc.lft.to/lastmile_qr_scan"}, "fusion_lon": 0.0}, {"lat": 38.955662, "is_disabled": 0, "type": "electric_scooter", "lon": -77.02236066666667, "bike_id": "2809fde29c2c8e452a23ffb3d127c887", "fusion_lat": 0.0, "name": "2809fde29c2c8e452a23ffb3d127c887", "is_reserved": 0, "rental_uris": {"android": "https://dc.lft.to/lastmile_qr_scan", "ios": "https://dc.lft.to/lastmile_qr_scan"}, "fusion_lon": 0.0}, {"lat": 38.86564283333333, "is_disabled": 0, "type": "electric_scooter", "lon": -76.98951766666667, "bike_id": "030e5127066d49e93359b8d4dd05415a", "fusion_lat": 0.0, "name": "030e5127066d49e93359b8d4dd05415a", "is_reserved": 0, "rental_uris": {"android": "https://dc.lft.to/lastmile_qr_scan", "ios": "https://dc.lft.to/lastmile_qr_scan"}, "fusion_lon": 0.0}, {"lat": 38.909148333333334, "is_disabled": 0, "type": "electric_scooter", "lon": -77.03643616666666, "bike_id": "2119451b0e34176b6380ba951b70f798", "fusion_lat": 0.0, "name": "2119451b0e34176b6380ba951b70f798", "is_reserved": 0, "rental_uris": {"android": "https://dc.lft.to/lastmile_qr_scan", "ios": "https://dc.lft.to/lastmile_qr_scan"}, "fusion_lon": 0.0}, {"lat": 38.90182216666667, "is_disabled": 0, "type": "electric_scooter", "lon": -77.024947, "bike_id": "66b139d170cb3f0eef99dd0fd706021b", "fusion_lat": 0.0, "name": "66b139d170cb3f0eef99dd0fd706021b", "is_reserved": 0, "rental_uris": {"android": "https://dc.lft.to/lastmile_qr_scan", "ios": "https://dc.lft.to/lastmile_qr_scan"}, "fusion_lon": 0.0}, {"lat": 38.9080885, "is_disabled": 0, "type": "electric_scooter", "lon": -76.982766, "bike_id": "8ae4f849415dbc5eeb3f78e22005fa16", "fusion_lat": 0.0, "name": "8ae4f849415dbc5eeb3f78e22005fa16", "is_reserved": 0, "rental_uris": {"android": "https://dc.lft.to/lastmile_qr_scan", "ios": "https://dc.lft.to/lastmile_qr_scan"}, "fusion_lon": 0.0}, {"lat": 38.9259205, "is_disabled": 0, "type": "electric_scooter", "lon": -77.02267383333333, "bike_id": "e1151c305b01cd229fb58cc28052d8b3", "fusion_lat": 0.0, "name": "e1151c305b01cd229fb58cc28052d8b3", "is_reserved": 0, "rental_uris": {"android": "https://dc.lft.to/lastmile_qr_scan", "ios": "https://dc.lft.to/lastmile_qr_scan"}, "fusion_lon": 0.0}, {"lat": 38.900987666666666, "is_disabled": 0, "type": "electric_scooter", "lon": -77.0492845, "bike_id": "eb8e4bdd75bc117f096e7421169df949", "fusion_lat": 0.0, "name": "eb8e4bdd75bc117f096e7421169df949", "is_reserved": 0, "rental_uris": {"android": "https://dc.lft.to/lastmile_qr_scan", "ios": "https://dc.lft.to/lastmile_qr_scan"}, "fusion_lon": 0.0}, {"lat": 38.9397685, "is_disabled": 0, "type": "electric_scooter", "lon": -77.03586683333333, "bike_id": "99b971b6f1f1596c30a3e813531586e5", "fusion_lat": 0.0, "name": "99b971b6f1f1596c30a3e813531586e5", "is_reserved": 0, "rental_uris": {"android": "https://dc.lft.to/lastmile_qr_scan", "ios": "https://dc.lft.to/lastmile_qr_scan"}, "fusion_lon": 0.0}, {"lat": 38.92026216666667, "is_disabled": 0, "type": "electric_scooter", "lon": -77.03733366666667, "bike_id": "26517af9c15a0d73b6e0aebbd59ecab3", "fusion_lat": 0.0, "name": "26517af9c15a0d73b6e0aebbd59ecab3", "is_reserved": 0, "rental_uris": {"android": "https://dc.lft.to/lastmile_qr_scan", "ios": "https://dc.lft.to/lastmile_qr_scan"}, "fusion_lon": 0.0}, {"lat": 38.932886333333336, "is_disabled": 0, "type": "electric_scooter", "lon": -77.03554683333333, "bike_id": "c9aa745f3f786c5c8f3e7f7ec3504f8f", "fusion_lat": 0.0, "name": "c9aa745f3f786c5c8f3e7f7ec3504f8f", "is_reserved": 0, "rental_uris": {"android": "https://dc.lft.to/lastmile_qr_scan", "ios": "https://dc.lft.to/lastmile_qr_scan"}, "fusion_lon": 0.0}, {"lat": 38.9578435, "is_disabled": 0, "type": "electric_scooter", "lon": -77.027561, "bike_id": "fb4c8b8639d733ff182681f0bc96b756", "fusion_lat": 0.0, "name": "fb4c8b8639d733ff182681f0bc96b756", "is_reserved": 0, "rental_uris": {"android": "https://dc.lft.to/lastmile_qr_scan", "ios": "https://dc.lft.to/lastmile_qr_scan"}, "fusion_lon": 0.0}, {"lat": 38.95648533333333, "is_disabled": 0, "type": "electric_scooter", "lon": -77.02393466666666, "bike_id": "dbca933d0d68adda410d8597ab260aeb", "fusion_lat": 0.0, "name": "dbca933d0d68adda410d8597ab260aeb", "is_reserved": 0, "rental_uris": {"android": "https://dc.lft.to/lastmile_qr_scan", "ios": "https://dc.lft.to/lastmile_qr_scan"}, "fusion_lon": 0.0}, {"lat": 38.90877866666666, "is_disabled": 0, "type": "electric_scooter", "lon": -77.03669783333333, "bike_id": "3af621dbeca9eef19b61dce5b5a13b6c", "fusion_lat": 0.0, "name": "3af621dbeca9eef19b61dce5b5a13b6c", "is_reserved": 0, "rental_uris": {"android": "https://dc.lft.to/lastmile_qr_scan", "ios": "https://dc.lft.to/lastmile_qr_scan"}, "fusion_lon": 0.0}, {"lat": 38.904106166666665, "is_disabled": 0, "type": "electric_scooter", "lon": -77.02855216666667, "bike_id": "ccf78464dd4fbceb098fb922af7ac154", "fusion_lat": 0.0, "name": "ccf78464dd4fbceb098fb922af7ac154", "is_reserved": 0, "rental_uris": {"android": "https://dc.lft.to/lastmile_qr_scan", "ios": "https://dc.lft.to/lastmile_qr_scan"}, "fusion_lon": 0.0}, {"lat": 38.908649833333335, "is_disabled": 0, "type": "electric_scooter", "lon": -77.04593933333334, "bike_id": "530100af883e9dff792d4a22f25e2fe7", "fusion_lat": 0.0, "name": "530100af883e9dff792d4a22f25e2fe7", "is_reserved": 0, "rental_uris": {"android": "https://dc.lft.to/lastmile_qr_scan", "ios": "https://dc.lft.to/lastmile_qr_scan"}, "fusion_lon": 0.0}, {"lat": 38.836762, "is_disabled": 0, "type": "electric_scooter", "lon": -77.00573866666667, "bike_id": "18ea524dfa6f210922f803a7603d7a1c", "fusion_lat": 0.0, "name": "18ea524dfa6f210922f803a7603d7a1c", "is_reserved": 0, "rental_uris": {"android": "https://dc.lft.to/lastmile_qr_scan", "ios": "https://dc.lft.to/lastmile_qr_scan"}, "fusion_lon": 0.0}, {"lat": 38.90074466666667, "is_disabled": 0, "type": "electric_scooter", "lon": -77.00200533333333, "bike_id": "ef5cfb823c6c74122235d660eeeea07d", "fusion_lat": 0.0, "name": "ef5cfb823c6c74122235d660eeeea07d", "is_reserved": 0, "rental_uris": {"android": "https://dc.lft.to/lastmile_qr_scan", "ios": "https://dc.lft.to/lastmile_qr_scan"}, "fusion_lon": 0.0}, {"lat": 38.953671666666665, "is_disabled": 0, "type": "electric_bike", "lon": -76.9797605, "bike_id": "f7393e06387db77675410f428e888708", "fusion_lat": 0.0, "name": "f7393e06387db77675410f428e888708", "is_reserved": 0, "rental_uris": {"android": "https://dc.lft.to/lastmile_qr_scan", "ios": "https://dc.lft.to/lastmile_qr_scan"}, "fusion_lon": 0.0}, {"lat": 38.87010933333333, "is_disabled": 0, "type": "electric_bike", "lon": -76.96021916666666, "bike_id": "c019a169cb0158d05e73dce3dc8441a7", "fusion_lat": 0.0, "name": "c019a169cb0158d05e73dce3dc8441a7", "is_reserved": 0, "rental_uris": {"android": "https://dc.lft.to/lastmile_qr_scan", "ios": "https://dc.lft.to/lastmile_qr_scan"}, "fusion_lon": 0.0}, {"lat": 38.908539833333336, "is_disabled": 0, "type": "electric_scooter", "lon": -77.04770583333334, "bike_id": "9aad7641b6da6441c745431eb53a0143", "fusion_lat": 0.0, "name": "9aad7641b6da6441c745431eb53a0143", "is_reserved": 0, "rental_uris": {"android": "https://dc.lft.to/lastmile_qr_scan", "ios": "https://dc.lft.to/lastmile_qr_scan"}, "fusion_lon": 0.0}, {"lat": 38.9077955, "is_disabled": 0, "type": "electric_scooter", "lon": -77.00229216666666, "bike_id": "7e6ce0c195dabcf90050ade18d499cb9", "fusion_lat": 0.0, "name": "7e6ce0c195dabcf90050ade18d499cb9", "is_reserved": 0, "rental_uris": {"android": "https://dc.lft.to/lastmile_qr_scan", "ios": "https://dc.lft.to/lastmile_qr_scan"}, "fusion_lon": 0.0}, {"lat": 38.92033, "is_disabled": 0, "type": "electric_scooter", "lon": -77.0419385, "bike_id": "bab0238291ae9fbb85340ccaf17f6428", "fusion_lat": 0.0, "name": "bab0238291ae9fbb85340ccaf17f6428", "is_reserved": 0, "rental_uris": {"android": "https://dc.lft.to/lastmile_qr_scan", "ios": "https://dc.lft.to/lastmile_qr_scan"}, "fusion_lon": 0.0}, {"lat": 38.8791435, "is_disabled": 0, "type": "electric_scooter", "lon": -77.00889183333334, "bike_id": "399fa7f55184a71901d4f963a90d0039", "fusion_lat": 0.0, "name": "399fa7f55184a71901d4f963a90d0039", "is_reserved": 0, "rental_uris": {"android": "https://dc.lft.to/lastmile_qr_scan", "ios": "https://dc.lft.to/lastmile_qr_scan"}, "fusion_lon": 0.0}, {"lat": 38.91823816666667, "is_disabled": 0, "type": "electric_scooter", "lon": -77.01212983333333, "bike_id": "884e9ae28735ec51b77d6fc2d8f6eea3", "fusion_lat": 0.0, "name": "884e9ae28735ec51b77d6fc2d8f6eea3", "is_reserved": 0, "rental_uris": {"android": "https://dc.lft.to/lastmile_qr_scan", "ios": "https://dc.lft.to/lastmile_qr_scan"}, "fusion_lon": 0.0}, {"lat": 38.884489333333335, "is_disabled": 0, "type": "electric_scooter", "lon": -77.017589, "bike_id": "2a5d8f09f69c582da23292f7a2658965", "fusion_lat": 0.0, "name": "2a5d8f09f69c582da23292f7a2658965", "is_reserved": 0, "rental_uris": {"android": "https://dc.lft.to/lastmile_qr_scan", "ios": "https://dc.lft.to/lastmile_qr_scan"}, "fusion_lon": 0.0}, {"lat": 38.870651333333335, "is_disabled": 0, "type": "electric_scooter", "lon": -77.00840316666667, "bike_id": "e0460839e66fc5ccf92b08dfe8a978e3", "fusion_lat": 0.0, "name": "e0460839e66fc5ccf92b08dfe8a978e3", "is_reserved": 0, "rental_uris": {"android": "https://dc.lft.to/lastmile_qr_scan", "ios": "https://dc.lft.to/lastmile_qr_scan"}, "fusion_lon": 0.0}, {"lat": 38.9205035, "is_disabled": 0, "type": "electric_scooter", "lon": -77.02446183333333, "bike_id": "5751498f0c18884bb9448bf1e6f0eb8c", "fusion_lat": 0.0, "name": "5751498f0c18884bb9448bf1e6f0eb8c", "is_reserved": 0, "rental_uris": {"android": "https://dc.lft.to/lastmile_qr_scan", "ios": "https://dc.lft.to/lastmile_qr_scan"}, "fusion_lon": 0.0}, {"lat": 38.902694, "is_disabled": 0, "type": "electric_scooter", "lon": -77.00330116666666, "bike_id": "2d301176137fe611b1ad573f41c22a05", "fusion_lat": 0.0, "name": "2d301176137fe611b1ad573f41c22a05", "is_reserved": 0, "rental_uris": {"android": "https://dc.lft.to/lastmile_qr_scan", "ios": "https://dc.lft.to/lastmile_qr_scan"}, "fusion_lon": 0.0}, {"lat": 38.900133, "is_disabled": 0, "type": "electric_scooter", "lon": -77.02157816666667, "bike_id": "dbba2ab895362c1658160e8b7823b48e", "fusion_lat": 0.0, "name": "dbba2ab895362c1658160e8b7823b48e", "is_reserved": 0, "rental_uris": {"android": "https://dc.lft.to/lastmile_qr_scan", "ios": "https://dc.lft.to/lastmile_qr_scan"}, "fusion_lon": 0.0}, {"lat": 38.89501383333333, "is_disabled": 0, "type": "electric_scooter", "lon": -77.00324133333334, "bike_id": "30335bc9fa0cecb852bfbf90c290cb35", "fusion_lat": 0.0, "name": "30335bc9fa0cecb852bfbf90c290cb35", "is_reserved": 0, "rental_uris": {"android": "https://dc.lft.to/lastmile_qr_scan", "ios": "https://dc.lft.to/lastmile_qr_scan"}, "fusion_lon": 0.0}, {"lat": 38.899912666666665, "is_disabled": 0, "type": "electric_scooter", "lon": -77.04231383333334, "bike_id": "c48b71f0a8b910ccd4718c5befb02bef", "fusion_lat": 0.0, "name": "c48b71f0a8b910ccd4718c5befb02bef", "is_reserved": 0, "rental_uris": {"android": "https://dc.lft.to/lastmile_qr_scan", "ios": "https://dc.lft.to/lastmile_qr_scan"}, "fusion_lon": 0.0}, {"lat": 38.948243833333336, "is_disabled": 0, "type": "electric_scooter", "lon": -76.99903116666667, "bike_id": "b55f7235b0abece9cb4c29ca3a0bce13", "fusion_lat": 0.0, "name": "b55f7235b0abece9cb4c29ca3a0bce13", "is_reserved": 0, "rental_uris": {"android": "https://dc.lft.to/lastmile_qr_scan", "ios": "https://dc.lft.to/lastmile_qr_scan"}, "fusion_lon": 0.0}, {"lat": 38.905562, "is_disabled": 0, "type": "electric_scooter", "lon": -77.00488516666667, "bike_id": "c3e9d1a2e306e229117594542ce4418a", "fusion_lat": 0.0, "name": "c3e9d1a2e306e229117594542ce4418a", "is_reserved": 0, "rental_uris": {"android": "https://dc.lft.to/lastmile_qr_scan", "ios": "https://dc.lft.to/lastmile_qr_scan"}, "fusion_lon": 0.0}, {"lat": 38.88549016666666, "is_disabled": 0, "type": "electric_bike", "lon": -77.11786833333333, "bike_id": "2f5adc73e9a278ca505ec1bbe8258972", "fusion_lat": 0.0, "name": "2f5adc73e9a278ca505ec1bbe8258972", "is_reserved": 0, "rental_uris": {"android": "https://dc.lft.to/lastmile_qr_scan", "ios": "https://dc.lft.to/lastmile_qr_scan"}, "fusion_lon": 0.0}, {"lat": 38.90656766666667, "is_disabled": 0, "type": "electric_scooter", "lon": -77.008184, "bike_id": "4f08e5a3544006cb27d5a269bc3cc1ad", "fusion_lat": 0.0, "name": "4f08e5a3544006cb27d5a269bc3cc1ad", "is_reserved": 0, "rental_uris": {"android": "https://dc.lft.to/lastmile_qr_scan", "ios": "https://dc.lft.to/lastmile_qr_scan"}, "fusion_lon": 0.0}, {"lat": 38.90394916666666, "is_disabled": 0, "type": "electric_scooter", "lon": -76.99007616666667, "bike_id": "c05dcc13caff0845d26722e03df7bb5b", "fusion_lat": 0.0, "name": "c05dcc13caff0845d26722e03df7bb5b", "is_reserved": 0, "rental_uris": {"android": "https://dc.lft.to/lastmile_qr_scan", "ios": "https://dc.lft.to/lastmile_qr_scan"}, "fusion_lon": 0.0}, {"lat": 38.93380783333333, "is_disabled": 0, "type": "electric_scooter", "lon": -77.03551433333334, "bike_id": "2b05711f9e6497f42480b9f126a463a8", "fusion_lat": 0.0, "name": "2b05711f9e6497f42480b9f126a463a8", "is_reserved": 0, "rental_uris": {"android": "https://dc.lft.to/lastmile_qr_scan", "ios": "https://dc.lft.to/lastmile_qr_scan"}, "fusion_lon": 0.0}, {"lat": 38.886055, "is_disabled": 0, "type": "electric_scooter", "lon": -77.01891083333334, "bike_id": "541d8908c7d5bf2b7332b7e448946652", "fusion_lat": 0.0, "name": "541d8908c7d5bf2b7332b7e448946652", "is_reserved": 0, "rental_uris": {"android": "https://dc.lft.to/lastmile_qr_scan", "ios": "https://dc.lft.to/lastmile_qr_scan"}, "fusion_lon": 0.0}, {"lat": 38.886694, "is_disabled": 0, "type": "electric_bike", "lon": -77.1625345, "bike_id": "baa8762e885e85a39e1a5f18c0d37d7a", "fusion_lat": 0.0, "name": "baa8762e885e85a39e1a5f18c0d37d7a", "is_reserved": 0, "rental_uris": {"android": "https://dc.lft.to/lastmile_qr_scan", "ios": "https://dc.lft.to/lastmile_qr_scan"}, "fusion_lon": 0.0}, {"lat": 38.9571005, "is_disabled": 0, "type": "electric_scooter", "lon": -77.02404966666667, "bike_id": "3895eac31fe6f004bfa6219f1030b0da", "fusion_lat": 0.0, "name": "3895eac31fe6f004bfa6219f1030b0da", "is_reserved": 0, "rental_uris": {"android": "https://dc.lft.to/lastmile_qr_scan", "ios": "https://dc.lft.to/lastmile_qr_scan"}, "fusion_lon": 0.0}, {"lat": 38.919646, "is_disabled": 0, "type": "electric_scooter", "lon": -77.01437066666666, "bike_id": "f39bf8a379ac132bacfa3ba6ce8a61b4", "fusion_lat": 0.0, "name": "f39bf8a379ac132bacfa3ba6ce8a61b4", "is_reserved": 0, "rental_uris": {"android": "https://dc.lft.to/lastmile_qr_scan", "ios": "https://dc.lft.to/lastmile_qr_scan"}, "fusion_lon": 0.0}, {"lat": 38.919616, "is_disabled": 0, "type": "electric_scooter", "lon": -77.01216766666667, "bike_id": "b0fa947653e7c65777c994ed99967005", "fusion_lat": 0.0, "name": "b0fa947653e7c65777c994ed99967005", "is_reserved": 0, "rental_uris": {"android": "https://dc.lft.to/lastmile_qr_scan", "ios": "https://dc.lft.to/lastmile_qr_scan"}, "fusion_lon": 0.0}, {"lat": 38.906202666666665, "is_disabled": 0, "type": "electric_scooter", "lon": -77.01527533333334, "bike_id": "002bee79983d908ff4c501e5f150f0aa", "fusion_lat": 0.0, "name": "002bee79983d908ff4c501e5f150f0aa", "is_reserved": 0, "rental_uris": {"android": "https://dc.lft.to/lastmile_qr_scan", "ios": "https://dc.lft.to/lastmile_qr_scan"}, "fusion_lon": 0.0}, {"lat": 38.927508833333334, "is_disabled": 0, "type": "electric_scooter", "lon": -76.99718566666667, "bike_id": "058e200bcac77ff5cf4230b0871203d8", "fusion_lat": 0.0, "name": "058e200bcac77ff5cf4230b0871203d8", "is_reserved": 0, "rental_uris": {"android": "https://dc.lft.to/lastmile_qr_scan", "ios": "https://dc.lft.to/lastmile_qr_scan"}, "fusion_lon": 0.0}, {"lat": 38.903627, "is_disabled": 0, "type": "electric_scooter", "lon": -77.0034205, "bike_id": "195a11487ff7840f81a0bb829f6651e4", "fusion_lat": 0.0, "name": "195a11487ff7840f81a0bb829f6651e4", "is_reserved": 0, "rental_uris": {"android": "https://dc.lft.to/lastmile_qr_scan", "ios": "https://dc.lft.to/lastmile_qr_scan"}, "fusion_lon": 0.0}, {"lat": 38.92568816666667, "is_disabled": 0, "type": "electric_scooter", "lon": -77.05748183333333, "bike_id": "09da135e7083f3b5c94b6f23e5ea6783", "fusion_lat": 0.0, "name": "09da135e7083f3b5c94b6f23e5ea6783", "is_reserved": 0, "rental_uris": {"android": "https://dc.lft.to/lastmile_qr_scan", "ios": "https://dc.lft.to/lastmile_qr_scan"}, "fusion_lon": 0.0}, {"lat": 38.89803233333333, "is_disabled": 0, "type": "electric_scooter", "lon": -77.00053866666667, "bike_id": "92c8de8ea58ee56498e69fae31197236", "fusion_lat": 0.0, "name": "92c8de8ea58ee56498e69fae31197236", "is_reserved": 0, "rental_uris": {"android": "https://dc.lft.to/lastmile_qr_scan", "ios": "https://dc.lft.to/lastmile_qr_scan"}, "fusion_lon": 0.0}, {"lat": 38.897890333333336, "is_disabled": 0, "type": "electric_bike", "lon": -76.90439333333333, "bike_id": "ee933ad7b2b3ea4d3b57c1e4288d754e", "fusion_lat": 0.0, "name": "ee933ad7b2b3ea4d3b57c1e4288d754e", "is_reserved": 0, "rental_uris": {"android": "https://dc.lft.to/lastmile_qr_scan", "ios": "https://dc.lft.to/lastmile_qr_scan"}, "fusion_lon": 0.0}, {"lat": 38.880953833333336, "is_disabled": 0, "type": "electric_scooter", "lon": -76.99854516666667, "bike_id": "d4c6bc7877f0effd2202ba4450be516d", "fusion_lat": 0.0, "name": "d4c6bc7877f0effd2202ba4450be516d", "is_reserved": 0, "rental_uris": {"android": "https://dc.lft.to/lastmile_qr_scan", "ios": "https://dc.lft.to/lastmile_qr_scan"}, "fusion_lon": 0.0}, {"lat": 38.956346833333335, "is_disabled": 0, "type": "electric_bike", "lon": -76.93882316666667, "bike_id": "2f303dcaab8e45509776a9b912a22d09", "fusion_lat": 0.0, "name": "2f303dcaab8e45509776a9b912a22d09", "is_reserved": 0, "rental_uris": {"android": "https://dc.lft.to/lastmile_qr_scan", "ios": "https://dc.lft.to/lastmile_qr_scan"}, "fusion_lon": 0.0}, {"lat": 38.9035635, "is_disabled": 0, "type": "electric_scooter", "lon": -77.0309615, "bike_id": "5bfe7dc1886fb01cdb35e318c45da697", "fusion_lat": 0.0, "name": "5bfe7dc1886fb01cdb35e318c45da697", "is_reserved": 0, "rental_uris": {"android": "https://dc.lft.to/lastmile_qr_scan", "ios": "https://dc.lft.to/lastmile_qr_scan"}, "fusion_lon": 0.0}, {"lat": 38.842801333333334, "is_disabled": 0, "type": "electric_bike", "lon": -76.98845083333333, "bike_id": "90bf599dc2be7c81c358682e423e330d", "fusion_lat": 0.0, "name": "90bf599dc2be7c81c358682e423e330d", "is_reserved": 0, "rental_uris": {"android": "https://dc.lft.to/lastmile_qr_scan", "ios": "https://dc.lft.to/lastmile_qr_scan"}, "fusion_lon": 0.0}, {"lat": 38.9007, "is_disabled": 0, "type": "electric_scooter", "lon": -77.0496415, "bike_id": "1af5acc722b8c5506641c995cb3b3b63", "fusion_lat": 0.0, "name": "1af5acc722b8c5506641c995cb3b3b63", "is_reserved": 0, "rental_uris": {"android": "https://dc.lft.to/lastmile_qr_scan", "ios": "https://dc.lft.to/lastmile_qr_scan"}, "fusion_lon": 0.0}, {"lat": 38.903405666666664, "is_disabled": 0, "type": "electric_scooter", "lon": -76.97055633333333, "bike_id": "4389ccd41ede8363e5c453311b8aaff6", "fusion_lat": 0.0, "name": "4389ccd41ede8363e5c453311b8aaff6", "is_reserved": 0, "rental_uris": {"android": "https://dc.lft.to/lastmile_qr_scan", "ios": "https://dc.lft.to/lastmile_qr_scan"}, "fusion_lon": 0.0}, {"lat": 38.9573975, "is_disabled": 0, "type": "electric_scooter", "lon": -77.02381966666667, "bike_id": "1b3595f46e02f7c375afda00536654e3", "fusion_lat": 0.0, "name": "1b3595f46e02f7c375afda00536654e3", "is_reserved": 0, "rental_uris": {"android": "https://dc.lft.to/lastmile_qr_scan", "ios": "https://dc.lft.to/lastmile_qr_scan"}, "fusion_lon": 0.0}, {"lat": 38.9150865, "is_disabled": 0, "type": "electric_scooter", "lon": -76.98368483333333, "bike_id": "6d6ff8c825163b7aa973fa18a4965983", "fusion_lat": 0.0, "name": "6d6ff8c825163b7aa973fa18a4965983", "is_reserved": 0, "rental_uris": {"android": "https://dc.lft.to/lastmile_qr_scan", "ios": "https://dc.lft.to/lastmile_qr_scan"}, "fusion_lon": 0.0}, {"lat": 38.91201866666667, "is_disabled": 0, "type": "electric_scooter", "lon": -77.044631, "bike_id": "f50a3d28dbadce781c88951c25311b5f", "fusion_lat": 0.0, "name": "f50a3d28dbadce781c88951c25311b5f", "is_reserved": 0, "rental_uris": {"android": "https://dc.lft.to/lastmile_qr_scan", "ios": "https://dc.lft.to/lastmile_qr_scan"}, "fusion_lon": 0.0}, {"lat": 38.91563716666667, "is_disabled": 0, "type": "electric_scooter", "lon": -77.00982883333333, "bike_id": "ad0d440e8e469af0e34bc5a33e3d647c", "fusion_lat": 0.0, "name": "ad0d440e8e469af0e34bc5a33e3d647c", "is_reserved": 0, "rental_uris": {"android": "https://dc.lft.to/lastmile_qr_scan", "ios": "https://dc.lft.to/lastmile_qr_scan"}, "fusion_lon": 0.0}, {"lat": 38.86619533333333, "is_disabled": 0, "type": "electric_scooter", "lon": -76.986642, "bike_id": "532c58e35449432fd876a3c3a500806b", "fusion_lat": 0.0, "name": "532c58e35449432fd876a3c3a500806b", "is_reserved": 0, "rental_uris": {"android": "https://dc.lft.to/lastmile_qr_scan", "ios": "https://dc.lft.to/lastmile_qr_scan"}, "fusion_lon": 0.0}, {"lat": 38.90885316666667, "is_disabled": 0, "type": "electric_scooter", "lon": -77.03664616666667, "bike_id": "12684d5dd0c8cbb8e4271d2190a66e95", "fusion_lat": 0.0, "name": "12684d5dd0c8cbb8e4271d2190a66e95", "is_reserved": 0, "rental_uris": {"android": "https://dc.lft.to/lastmile_qr_scan", "ios": "https://dc.lft.to/lastmile_qr_scan"}, "fusion_lon": 0.0}, {"lat": 38.95078733333333, "is_disabled": 0, "type": "electric_bike", "lon": -77.01192083333333, "bike_id": "a76f646c5b4c41cdbdcf937a4fb35032", "fusion_lat": 0.0, "name": "a76f646c5b4c41cdbdcf937a4fb35032", "is_reserved": 0, "rental_uris": {"android": "https://dc.lft.to/lastmile_qr_scan", "ios": "https://dc.lft.to/lastmile_qr_scan"}, "fusion_lon": 0.0}, {"lat": 38.90151383333333, "is_disabled": 0, "type": "electric_scooter", "lon": -77.05111433333333, "bike_id": "664ff55a0ca306b932a9cac01e1d8142", "fusion_lat": 0.0, "name": "664ff55a0ca306b932a9cac01e1d8142", "is_reserved": 0, "rental_uris": {"android": "https://dc.lft.to/lastmile_qr_scan", "ios": "https://dc.lft.to/lastmile_qr_scan"}, "fusion_lon": 0.0}, {"lat": 38.894237833333335, "is_disabled": 0, "type": "electric_scooter", "lon": -77.0209765, "bike_id": "f16051747d376bf3905893bd8bab7f03", "fusion_lat": 0.0, "name": "f16051747d376bf3905893bd8bab7f03", "is_reserved": 0, "rental_uris": {"android": "https://dc.lft.to/lastmile_qr_scan", "ios": "https://dc.lft.to/lastmile_qr_scan"}, "fusion_lon": 0.0}, {"lat": 38.89676083333333, "is_disabled": 0, "type": "electric_bike", "lon": -77.00514916666667, "bike_id": "5120e3d00acb1cdfb6a64a96d1255e71", "fusion_lat": 0.0, "name": "5120e3d00acb1cdfb6a64a96d1255e71", "is_reserved": 0, "rental_uris": {"android": "https://dc.lft.to/lastmile_qr_scan", "ios": "https://dc.lft.to/lastmile_qr_scan"}, "fusion_lon": 0.0}, {"lat": 38.935853333333334, "is_disabled": 0, "type": "electric_scooter", "lon": -77.03764316666667, "bike_id": "52880de661c7fa078f1b859077da45d5", "fusion_lat": 0.0, "name": "52880de661c7fa078f1b859077da45d5", "is_reserved": 0, "rental_uris": {"android": "https://dc.lft.to/lastmile_qr_scan", "ios": "https://dc.lft.to/lastmile_qr_scan"}, "fusion_lon": 0.0}, {"lat": 38.887676666666664, "is_disabled": 0, "type": "electric_scooter", "lon": -76.98351116666667, "bike_id": "7b060dd1dc76eb5e2c297af60d8f7fd6", "fusion_lat": 0.0, "name": "7b060dd1dc76eb5e2c297af60d8f7fd6", "is_reserved": 0, "rental_uris": {"android": "https://dc.lft.to/lastmile_qr_scan", "ios": "https://dc.lft.to/lastmile_qr_scan"}, "fusion_lon": 0.0}, {"lat": 38.9075345, "is_disabled": 0, "type": "electric_scooter", "lon": -77.04152566666667, "bike_id": "37655274c96b3e8e02292690aec6f4b9", "fusion_lat": 0.0, "name": "37655274c96b3e8e02292690aec6f4b9", "is_reserved": 0, "rental_uris": {"android": "https://dc.lft.to/lastmile_qr_scan", "ios": "https://dc.lft.to/lastmile_qr_scan"}, "fusion_lon": 0.0}, {"lat": 38.8828115, "is_disabled": 0, "type": "electric_bike", "lon": -76.93238316666667, "bike_id": "f477908f630c678f4c0f014dc66473ac", "fusion_lat": 0.0, "name": "f477908f630c678f4c0f014dc66473ac", "is_reserved": 0, "rental_uris": {"android": "https://dc.lft.to/lastmile_qr_scan", "ios": "https://dc.lft.to/lastmile_qr_scan"}, "fusion_lon": 0.0}, {"lat": 38.93089833333333, "is_disabled": 0, "type": "electric_scooter", "lon": -77.07750883333334, "bike_id": "772e3eaae52aa3fcf55486ff861ba8ea", "fusion_lat": 0.0, "name": "772e3eaae52aa3fcf55486ff861ba8ea", "is_reserved": 0, "rental_uris": {"android": "https://dc.lft.to/lastmile_qr_scan", "ios": "https://dc.lft.to/lastmile_qr_scan"}, "fusion_lon": 0.0}, {"lat": 38.86699983333333, "is_disabled": 0, "type": "electric_scooter", "lon": -76.9871485, "bike_id": "574cd3f46b893e62daedd31d03716893", "fusion_lat": 0.0, "name": "574cd3f46b893e62daedd31d03716893", "is_reserved": 0, "rental_uris": {"android": "https://dc.lft.to/lastmile_qr_scan", "ios": "https://dc.lft.to/lastmile_qr_scan"}, "fusion_lon": 0.0}, {"lat": 38.89427033333333, "is_disabled": 0, "type": "electric_scooter", "lon": -77.03173216666667, "bike_id": "a5f1f4f397b62c5362b596cfda6449d3", "fusion_lat": 0.0, "name": "a5f1f4f397b62c5362b596cfda6449d3", "is_reserved": 0, "rental_uris": {"android": "https://dc.lft.to/lastmile_qr_scan", "ios": "https://dc.lft.to/lastmile_qr_scan"}, "fusion_lon": 0.0}, {"lat": 38.916822, "is_disabled": 0, "type": "electric_scooter", "lon": -77.02969566666667, "bike_id": "962679ba5fccf139717986adce255aba", "fusion_lat": 0.0, "name": "962679ba5fccf139717986adce255aba", "is_reserved": 0, "rental_uris": {"android": "https://dc.lft.to/lastmile_qr_scan", "ios": "https://dc.lft.to/lastmile_qr_scan"}, "fusion_lon": 0.0}, {"lat": 38.91006566666667, "is_disabled": 0, "type": "electric_scooter", "lon": -76.986202, "bike_id": "06ec24b8534f5406e06152bb86a35c2c", "fusion_lat": 0.0, "name": "06ec24b8534f5406e06152bb86a35c2c", "is_reserved": 0, "rental_uris": {"android": "https://dc.lft.to/lastmile_qr_scan", "ios": "https://dc.lft.to/lastmile_qr_scan"}, "fusion_lon": 0.0}, {"lat": 38.92421383333333, "is_disabled": 0, "type": "electric_scooter", "lon": -77.02983783333333, "bike_id": "eaf9822aba6f7c040bdcb34cf7ad9b7d", "fusion_lat": 0.0, "name": "eaf9822aba6f7c040bdcb34cf7ad9b7d", "is_reserved": 0, "rental_uris": {"android": "https://dc.lft.to/lastmile_qr_scan", "ios": "https://dc.lft.to/lastmile_qr_scan"}, "fusion_lon": 0.0}, {"lat": 38.899633, "is_disabled": 0, "type": "electric_scooter", "lon": -77.0338335, "bike_id": "cc1b125730cb9d7299d8e9988c3967d4", "fusion_lat": 0.0, "name": "cc1b125730cb9d7299d8e9988c3967d4", "is_reserved": 0, "rental_uris": {"android": "https://dc.lft.to/lastmile_qr_scan", "ios": "https://dc.lft.to/lastmile_qr_scan"}, "fusion_lon": 0.0}, {"lat": 38.90122216666666, "is_disabled": 0, "type": "electric_scooter", "lon": -77.01577833333333, "bike_id": "9b006b4b470e679a6860e4762e65d5f5", "fusion_lat": 0.0, "name": "9b006b4b470e679a6860e4762e65d5f5", "is_reserved": 0, "rental_uris": {"android": "https://dc.lft.to/lastmile_qr_scan", "ios": "https://dc.lft.to/lastmile_qr_scan"}, "fusion_lon": 0.0}, {"lat": 38.9525155, "is_disabled": 0, "type": "electric_bike", "lon": -77.02393216666667, "bike_id": "2eb02d93294a008c51abc5afe0fadeb4", "fusion_lat": 0.0, "name": "2eb02d93294a008c51abc5afe0fadeb4", "is_reserved": 0, "rental_uris": {"android": "https://dc.lft.to/lastmile_qr_scan", "ios": "https://dc.lft.to/lastmile_qr_scan"}, "fusion_lon": 0.0}, {"lat": 38.8341705, "is_disabled": 0, "type": "electric_bike", "lon": -77.10380816666667, "bike_id": "c6fa6b3ab1991d0e471181a527177e3b", "fusion_lat": 0.0, "name": "c6fa6b3ab1991d0e471181a527177e3b", "is_reserved": 0, "rental_uris": {"android": "https://dc.lft.to/lastmile_qr_scan", "ios": "https://dc.lft.to/lastmile_qr_scan"}, "fusion_lon": 0.0}, {"lat": 38.844665666666664, "is_disabled": 0, "type": "electric_bike", "lon": -76.98752233333333, "bike_id": "d2b1dc767afee31c5f049107674b3518", "fusion_lat": 0.0, "name": "d2b1dc767afee31c5f049107674b3518", "is_reserved": 0, "rental_uris": {"android": "https://dc.lft.to/lastmile_qr_scan", "ios": "https://dc.lft.to/lastmile_qr_scan"}, "fusion_lon": 0.0}, {"lat": 38.9050385, "is_disabled": 0, "type": "electric_scooter", "lon": -77.02948616666667, "bike_id": "2cf228f31c9b5cb02088bb9dfeede5d0", "fusion_lat": 0.0, "name": "2cf228f31c9b5cb02088bb9dfeede5d0", "is_reserved": 0, "rental_uris": {"android": "https://dc.lft.to/lastmile_qr_scan", "ios": "https://dc.lft.to/lastmile_qr_scan"}, "fusion_lon": 0.0}, {"lat": 38.924083833333334, "is_disabled": 0, "type": "electric_scooter", "lon": -77.02739133333333, "bike_id": "16e217d8ca8f491fb1ba2f8fa315285f", "fusion_lat": 0.0, "name": "16e217d8ca8f491fb1ba2f8fa315285f", "is_reserved": 0, "rental_uris": {"android": "https://dc.lft.to/lastmile_qr_scan", "ios": "https://dc.lft.to/lastmile_qr_scan"}, "fusion_lon": 0.0}, {"lat": 38.87631, "is_disabled": 0, "type": "electric_scooter", "lon": -76.96524966666667, "bike_id": "13d9007b59443a6f3c8be14f05ae92a4", "fusion_lat": 0.0, "name": "13d9007b59443a6f3c8be14f05ae92a4", "is_reserved": 0, "rental_uris": {"android": "https://dc.lft.to/lastmile_qr_scan", "ios": "https://dc.lft.to/lastmile_qr_scan"}, "fusion_lon": 0.0}, {"lat": 38.9061035, "is_disabled": 0, "type": "electric_scooter", "lon": -76.98981116666667, "bike_id": "14bd62970d903ba97cae530da0a7a59a", "fusion_lat": 0.0, "name": "14bd62970d903ba97cae530da0a7a59a", "is_reserved": 0, "rental_uris": {"android": "https://dc.lft.to/lastmile_qr_scan", "ios": "https://dc.lft.to/lastmile_qr_scan"}, "fusion_lon": 0.0}, {"lat": 38.86997233333334, "is_disabled": 0, "type": "electric_bike", "lon": -77.06569133333333, "bike_id": "40f1828e2738b7b94455c7147718588c", "fusion_lat": 0.0, "name": "40f1828e2738b7b94455c7147718588c", "is_reserved": 0, "rental_uris": {"android": "https://dc.lft.to/lastmile_qr_scan", "ios": "https://dc.lft.to/lastmile_qr_scan"}, "fusion_lon": 0.0}, {"lat": 38.93446766666667, "is_disabled": 0, "type": "electric_scooter", "lon": -77.03077016666667, "bike_id": "c179b0e0084f1eaf24ece711a74c2539", "fusion_lat": 0.0, "name": "c179b0e0084f1eaf24ece711a74c2539", "is_reserved": 0, "rental_uris": {"android": "https://dc.lft.to/lastmile_qr_scan", "ios": "https://dc.lft.to/lastmile_qr_scan"}, "fusion_lon": 0.0}, {"lat": 38.9036785, "is_disabled": 0, "type": "electric_scooter", "lon": -77.04250133333333, "bike_id": "2f41ccfdc77741bfd2296628269ca29f", "fusion_lat": 0.0, "name": "2f41ccfdc77741bfd2296628269ca29f", "is_reserved": 0, "rental_uris": {"android": "https://dc.lft.to/lastmile_qr_scan", "ios": "https://dc.lft.to/lastmile_qr_scan"}, "fusion_lon": 0.0}, {"lat": 38.900377666666664, "is_disabled": 0, "type": "electric_scooter", "lon": -76.98374633333333, "bike_id": "4a9bdd9a82aefaf6bc7ad0aaff4435a9", "fusion_lat": 0.0, "name": "4a9bdd9a82aefaf6bc7ad0aaff4435a9", "is_reserved": 0, "rental_uris": {"android": "https://dc.lft.to/lastmile_qr_scan", "ios": "https://dc.lft.to/lastmile_qr_scan"}, "fusion_lon": 0.0}, {"lat": 38.85934233333333, "is_disabled": 0, "type": "electric_scooter", "lon": -76.9971575, "bike_id": "dbf9cf63a8b02455d38222887e80a344", "fusion_lat": 0.0, "name": "dbf9cf63a8b02455d38222887e80a344", "is_reserved": 0, "rental_uris": {"android": "https://dc.lft.to/lastmile_qr_scan", "ios": "https://dc.lft.to/lastmile_qr_scan"}, "fusion_lon": 0.0}, {"lat": 38.86524933333333, "is_disabled": 0, "type": "electric_scooter", "lon": -76.99028216666666, "bike_id": "3d5833a3752943577e51c94c917e79ca", "fusion_lat": 0.0, "name": "3d5833a3752943577e51c94c917e79ca", "is_reserved": 0, "rental_uris": {"android": "https://dc.lft.to/lastmile_qr_scan", "ios": "https://dc.lft.to/lastmile_qr_scan"}, "fusion_lon": 0.0}, {"lat": 38.8634645, "is_disabled": 0, "type": "electric_scooter", "lon": -76.99000383333333, "bike_id": "a345d4611e756cc38c059193b22dd6c2", "fusion_lat": 0.0, "name": "a345d4611e756cc38c059193b22dd6c2", "is_reserved": 0, "rental_uris": {"android": "https://dc.lft.to/lastmile_qr_scan", "ios": "https://dc.lft.to/lastmile_qr_scan"}, "fusion_lon": 0.0}, {"lat": 38.955539, "is_disabled": 0, "type": "electric_bike", "lon": -76.9354175, "bike_id": "2ddbd46f1b64b32db49bcfcb1c400c86", "fusion_lat": 0.0, "name": "2ddbd46f1b64b32db49bcfcb1c400c86", "is_reserved": 0, "rental_uris": {"android": "https://dc.lft.to/lastmile_qr_scan", "ios": "https://dc.lft.to/lastmile_qr_scan"}, "fusion_lon": 0.0}, {"lat": 38.8486625, "is_disabled": 0, "type": "electric_scooter", "lon": -76.9769575, "bike_id": "ee710d7236168bd2a2b607ce41088f1a", "fusion_lat": 0.0, "name": "ee710d7236168bd2a2b607ce41088f1a", "is_reserved": 0, "rental_uris": {"android": "https://dc.lft.to/lastmile_qr_scan", "ios": "https://dc.lft.to/lastmile_qr_scan"}, "fusion_lon": 0.0}, {"lat": 38.912617833333336, "is_disabled": 0, "type": "electric_scooter", "lon": -77.04771166666667, "bike_id": "27e557f85f4ee227d9f146ea78c9a119", "fusion_lat": 0.0, "name": "27e557f85f4ee227d9f146ea78c9a119", "is_reserved": 0, "rental_uris": {"android": "https://dc.lft.to/lastmile_qr_scan", "ios": "https://dc.lft.to/lastmile_qr_scan"}, "fusion_lon": 0.0}, {"lat": 38.91553533333333, "is_disabled": 0, "type": "electric_scooter", "lon": -77.02425983333333, "bike_id": "919cd99f441f016f107062959260a6f2", "fusion_lat": 0.0, "name": "919cd99f441f016f107062959260a6f2", "is_reserved": 0, "rental_uris": {"android": "https://dc.lft.to/lastmile_qr_scan", "ios": "https://dc.lft.to/lastmile_qr_scan"}, "fusion_lon": 0.0}, {"lat": 38.89880633333333, "is_disabled": 0, "type": "electric_scooter", "lon": -77.05338383333333, "bike_id": "adb32cf22e5a01552a4f5cdb0e4948b7", "fusion_lat": 0.0, "name": "adb32cf22e5a01552a4f5cdb0e4948b7", "is_reserved": 0, "rental_uris": {"android": "https://dc.lft.to/lastmile_qr_scan", "ios": "https://dc.lft.to/lastmile_qr_scan"}, "fusion_lon": 0.0}, {"lat": 38.88279766666667, "is_disabled": 0, "type": "electric_bike", "lon": -76.98776366666667, "bike_id": "e4f538145218ff03639e32d8c6e9b74a", "fusion_lat": 0.0, "name": "e4f538145218ff03639e32d8c6e9b74a", "is_reserved": 0, "rental_uris": {"android": "https://dc.lft.to/lastmile_qr_scan", "ios": "https://dc.lft.to/lastmile_qr_scan"}, "fusion_lon": 0.0}, {"lat": 38.8991605, "is_disabled": 0, "type": "electric_scooter", "lon": -76.93380933333333, "bike_id": "5819e2dc684934891da3cdd0d50c4e77", "fusion_lat": 0.0, "name": "5819e2dc684934891da3cdd0d50c4e77", "is_reserved": 0, "rental_uris": {"android": "https://dc.lft.to/lastmile_qr_scan", "ios": "https://dc.lft.to/lastmile_qr_scan"}, "fusion_lon": 0.0}, {"lat": 39.03049133333333, "is_disabled": 0, "type": "electric_bike", "lon": -77.09484266666666, "bike_id": "92f45e999216c5637db417924307b3ac", "fusion_lat": 0.0, "name": "92f45e999216c5637db417924307b3ac", "is_reserved": 0, "rental_uris": {"android": "https://dc.lft.to/lastmile_qr_scan", "ios": "https://dc.lft.to/lastmile_qr_scan"}, "fusion_lon": 0.0}, {"lat": 38.907282333333335, "is_disabled": 0, "type": "electric_scooter", "lon": -77.04830383333334, "bike_id": "53bea92aafe6c83d249e2ea8026f06d3", "fusion_lat": 0.0, "name": "53bea92aafe6c83d249e2ea8026f06d3", "is_reserved": 0, "rental_uris": {"android": "https://dc.lft.to/lastmile_qr_scan", "ios": "https://dc.lft.to/lastmile_qr_scan"}, "fusion_lon": 0.0}, {"lat": 38.93840016666667, "is_disabled": 0, "type": "electric_bike", "lon": -76.988597, "bike_id": "52991d72896119c6ee83c07702dcf7d4", "fusion_lat": 0.0, "name": "52991d72896119c6ee83c07702dcf7d4", "is_reserved": 0, "rental_uris": {"android": "https://dc.lft.to/lastmile_qr_scan", "ios": "https://dc.lft.to/lastmile_qr_scan"}, "fusion_lon": 0.0}, {"lat": 38.90372416666666, "is_disabled": 0, "type": "electric_scooter", "lon": -77.03868366666667, "bike_id": "4ba49caa43cefbc2450d89505561be0a", "fusion_lat": 0.0, "name": "4ba49caa43cefbc2450d89505561be0a", "is_reserved": 0, "rental_uris": {"android": "https://dc.lft.to/lastmile_qr_scan", "ios": "https://dc.lft.to/lastmile_qr_scan"}, "fusion_lon": 0.0}, {"lat": 38.875733333333336, "is_disabled": 0, "type": "electric_scooter", "lon": -77.0207315, "bike_id": "3278c20a23e658d95bdff675b1c24700", "fusion_lat": 0.0, "name": "3278c20a23e658d95bdff675b1c24700", "is_reserved": 0, "rental_uris": {"android": "https://dc.lft.to/lastmile_qr_scan", "ios": "https://dc.lft.to/lastmile_qr_scan"}, "fusion_lon": 0.0}, {"lat": 38.91121366666667, "is_disabled": 0, "type": "electric_scooter", "lon": -77.02778466666666, "bike_id": "e905f0175c121d4a448b5807767443b8", "fusion_lat": 0.0, "name": "e905f0175c121d4a448b5807767443b8", "is_reserved": 0, "rental_uris": {"android": "https://dc.lft.to/lastmile_qr_scan", "ios": "https://dc.lft.to/lastmile_qr_scan"}, "fusion_lon": 0.0}, {"lat": 38.91711133333333, "is_disabled": 0, "type": "electric_scooter", "lon": -77.0386395, "bike_id": "2ce98de49f0e416ded32b61e57cc6b66", "fusion_lat": 0.0, "name": "2ce98de49f0e416ded32b61e57cc6b66", "is_reserved": 0, "rental_uris": {"android": "https://dc.lft.to/lastmile_qr_scan", "ios": "https://dc.lft.to/lastmile_qr_scan"}, "fusion_lon": 0.0}, {"lat": 38.909744833333335, "is_disabled": 0, "type": "electric_scooter", "lon": -77.03867116666666, "bike_id": "60516949634cef39512af9e891815499", "fusion_lat": 0.0, "name": "60516949634cef39512af9e891815499", "is_reserved": 0, "rental_uris": {"android": "https://dc.lft.to/lastmile_qr_scan", "ios": "https://dc.lft.to/lastmile_qr_scan"}, "fusion_lon": 0.0}, {"lat": 38.917102666666665, "is_disabled": 0, "type": "electric_scooter", "lon": -77.0372605, "bike_id": "7c81596ca9b475008dc12ac2d0b774da", "fusion_lat": 0.0, "name": "7c81596ca9b475008dc12ac2d0b774da", "is_reserved": 0, "rental_uris": {"android": "https://dc.lft.to/lastmile_qr_scan", "ios": "https://dc.lft.to/lastmile_qr_scan"}, "fusion_lon": 0.0}, {"lat": 38.885138, "is_disabled": 0, "type": "electric_scooter", "lon": -77.00679916666667, "bike_id": "afe7518fc99f9993c63234354e05b9e3", "fusion_lat": 0.0, "name": "afe7518fc99f9993c63234354e05b9e3", "is_reserved": 0, "rental_uris": {"android": "https://dc.lft.to/lastmile_qr_scan", "ios": "https://dc.lft.to/lastmile_qr_scan"}, "fusion_lon": 0.0}, {"lat": 38.914302166666666, "is_disabled": 0, "type": "electric_scooter", "lon": -77.022202, "bike_id": "c8b910dbc3a3f14dbd01bc242dc718fd", "fusion_lat": 0.0, "name": "c8b910dbc3a3f14dbd01bc242dc718fd", "is_reserved": 0, "rental_uris": {"android": "https://dc.lft.to/lastmile_qr_scan", "ios": "https://dc.lft.to/lastmile_qr_scan"}, "fusion_lon": 0.0}, {"lat": 38.86367766666667, "is_disabled": 0, "type": "electric_scooter", "lon": -76.99032316666667, "bike_id": "de9fbbb19032a6f2c347aea55e7d57be", "fusion_lat": 0.0, "name": "de9fbbb19032a6f2c347aea55e7d57be", "is_reserved": 0, "rental_uris": {"android": "https://dc.lft.to/lastmile_qr_scan", "ios": "https://dc.lft.to/lastmile_qr_scan"}, "fusion_lon": 0.0}, {"lat": 38.927494833333334, "is_disabled": 0, "type": "electric_scooter", "lon": -76.99719783333333, "bike_id": "ad02e21900d2d19ad531de664c10bac9", "fusion_lat": 0.0, "name": "ad02e21900d2d19ad531de664c10bac9", "is_reserved": 0, "rental_uris": {"android": "https://dc.lft.to/lastmile_qr_scan", "ios": "https://dc.lft.to/lastmile_qr_scan"}, "fusion_lon": 0.0}, {"lat": 38.915320333333334, "is_disabled": 0, "type": "electric_scooter", "lon": -76.9821845, "bike_id": "45d545755e1301f8df31b9de39fa61dd", "fusion_lat": 0.0, "name": "45d545755e1301f8df31b9de39fa61dd", "is_reserved": 0, "rental_uris": {"android": "https://dc.lft.to/lastmile_qr_scan", "ios": "https://dc.lft.to/lastmile_qr_scan"}, "fusion_lon": 0.0}, {"lat": 38.903708333333334, "is_disabled": 0, "type": "electric_scooter", "lon": -77.01636233333333, "bike_id": "afc1ad7515fae89c327405b609128ae0", "fusion_lat": 0.0, "name": "afc1ad7515fae89c327405b609128ae0", "is_reserved": 0, "rental_uris": {"android": "https://dc.lft.to/lastmile_qr_scan", "ios": "https://dc.lft.to/lastmile_qr_scan"}, "fusion_lon": 0.0}, {"lat": 38.91054333333334, "is_disabled": 0, "type": "electric_scooter", "lon": -77.01524133333334, "bike_id": "da98da1ecc3a0c65909064b7c2166ba5", "fusion_lat": 0.0, "name": "da98da1ecc3a0c65909064b7c2166ba5", "is_reserved": 0, "rental_uris": {"android": "https://dc.lft.to/lastmile_qr_scan", "ios": "https://dc.lft.to/lastmile_qr_scan"}, "fusion_lon": 0.0}, {"lat": 38.8625355, "is_disabled": 0, "type": "electric_scooter", "lon": -76.98703166666667, "bike_id": "2e7752c5dfe8c66dfee10f31edcf628d", "fusion_lat": 0.0, "name": "2e7752c5dfe8c66dfee10f31edcf628d", "is_reserved": 0, "rental_uris": {"android": "https://dc.lft.to/lastmile_qr_scan", "ios": "https://dc.lft.to/lastmile_qr_scan"}, "fusion_lon": 0.0}, {"lat": 38.939119833333336, "is_disabled": 0, "type": "electric_scooter", "lon": -77.02482533333334, "bike_id": "378782de551451e124efbadfe9b77b13", "fusion_lat": 0.0, "name": "378782de551451e124efbadfe9b77b13", "is_reserved": 0, "rental_uris": {"android": "https://dc.lft.to/lastmile_qr_scan", "ios": "https://dc.lft.to/lastmile_qr_scan"}, "fusion_lon": 0.0}, {"lat": 38.867493833333334, "is_disabled": 0, "type": "electric_scooter", "lon": -76.97666316666667, "bike_id": "dc1a458e376d3917a8556d56adf93b41", "fusion_lat": 0.0, "name": "dc1a458e376d3917a8556d56adf93b41", "is_reserved": 0, "rental_uris": {"android": "https://dc.lft.to/lastmile_qr_scan", "ios": "https://dc.lft.to/lastmile_qr_scan"}, "fusion_lon": 0.0}, {"lat": 38.90727066666667, "is_disabled": 0, "type": "electric_scooter", "lon": -77.042038, "bike_id": "092466437ac74ac44f7aa3515aca6e98", "fusion_lat": 0.0, "name": "092466437ac74ac44f7aa3515aca6e98", "is_reserved": 0, "rental_uris": {"android": "https://dc.lft.to/lastmile_qr_scan", "ios": "https://dc.lft.to/lastmile_qr_scan"}, "fusion_lon": 0.0}, {"lat": 38.87735133333334, "is_disabled": 0, "type": "electric_bike", "lon": -77.1184675, "bike_id": "facdcd9d8c5f77fb4f87a14312b002fe", "fusion_lat": 0.0, "name": "facdcd9d8c5f77fb4f87a14312b002fe", "is_reserved": 0, "rental_uris": {"android": "https://dc.lft.to/lastmile_qr_scan", "ios": "https://dc.lft.to/lastmile_qr_scan"}, "fusion_lon": 0.0}, {"lat": 38.9518415, "is_disabled": 0, "type": "electric_bike", "lon": -76.93542616666667, "bike_id": "d8cb4059f1c910105beec98822aa6d67", "fusion_lat": 0.0, "name": "d8cb4059f1c910105beec98822aa6d67", "is_reserved": 0, "rental_uris": {"android": "https://dc.lft.to/lastmile_qr_scan", "ios": "https://dc.lft.to/lastmile_qr_scan"}, "fusion_lon": 0.0}, {"lat": 38.91218333333333, "is_disabled": 0, "type": "electric_scooter", "lon": -77.075938, "bike_id": "b1c8bef0a203b7e66c42241804696046", "fusion_lat": 0.0, "name": "b1c8bef0a203b7e66c42241804696046", "is_reserved": 0, "rental_uris": {"android": "https://dc.lft.to/lastmile_qr_scan", "ios": "https://dc.lft.to/lastmile_qr_scan"}, "fusion_lon": 0.0}, {"lat": 38.9066375, "is_disabled": 0, "type": "electric_scooter", "lon": -77.01530633333333, "bike_id": "37d0d7bdbab2b312cfc88601a716fc44", "fusion_lat": 0.0, "name": "37d0d7bdbab2b312cfc88601a716fc44", "is_reserved": 0, "rental_uris": {"android": "https://dc.lft.to/lastmile_qr_scan", "ios": "https://dc.lft.to/lastmile_qr_scan"}, "fusion_lon": 0.0}, {"lat": 38.936362833333334, "is_disabled": 0, "type": "electric_scooter", "lon": -77.0248935, "bike_id": "e5544bf78905bd116c9c2f9930e70c2f", "fusion_lat": 0.0, "name": "e5544bf78905bd116c9c2f9930e70c2f", "is_reserved": 0, "rental_uris": {"android": "https://dc.lft.to/lastmile_qr_scan", "ios": "https://dc.lft.to/lastmile_qr_scan"}, "fusion_lon": 0.0}, {"lat": 38.90801416666667, "is_disabled": 0, "type": "electric_scooter", "lon": -77.06359033333334, "bike_id": "45dd035eb067ade4f7b570ff087f3454", "fusion_lat": 0.0, "name": "45dd035eb067ade4f7b570ff087f3454", "is_reserved": 0, "rental_uris": {"android": "https://dc.lft.to/lastmile_qr_scan", "ios": "https://dc.lft.to/lastmile_qr_scan"}, "fusion_lon": 0.0}, {"lat": 38.88489166666667, "is_disabled": 0, "type": "electric_scooter", "lon": -77.03473483333333, "bike_id": "311cd6a6d24436114fff1fc60f7d5a95", "fusion_lat": 0.0, "name": "311cd6a6d24436114fff1fc60f7d5a95", "is_reserved": 0, "rental_uris": {"android": "https://dc.lft.to/lastmile_qr_scan", "ios": "https://dc.lft.to/lastmile_qr_scan"}, "fusion_lon": 0.0}, {"lat": 38.9253095, "is_disabled": 0, "type": "electric_scooter", "lon": -77.04420483333334, "bike_id": "d19a91b843102790013acf7fb06d82e6", "fusion_lat": 0.0, "name": "d19a91b843102790013acf7fb06d82e6", "is_reserved": 0, "rental_uris": {"android": "https://dc.lft.to/lastmile_qr_scan", "ios": "https://dc.lft.to/lastmile_qr_scan"}, "fusion_lon": 0.0}, {"lat": 38.900412333333335, "is_disabled": 0, "type": "electric_scooter", "lon": -76.99377383333334, "bike_id": "c0871dd3f3f1c7e1d3a9efdbc7e5b8c7", "fusion_lat": 0.0, "name": "c0871dd3f3f1c7e1d3a9efdbc7e5b8c7", "is_reserved": 0, "rental_uris": {"android": "https://dc.lft.to/lastmile_qr_scan", "ios": "https://dc.lft.to/lastmile_qr_scan"}, "fusion_lon": 0.0}, {"lat": 38.914877833333335, "is_disabled": 0, "type": "electric_scooter", "lon": -77.03266833333333, "bike_id": "ef9dad3f06d071ff4a54ded675aaa5ec", "fusion_lat": 0.0, "name": "ef9dad3f06d071ff4a54ded675aaa5ec", "is_reserved": 0, "rental_uris": {"android": "https://dc.lft.to/lastmile_qr_scan", "ios": "https://dc.lft.to/lastmile_qr_scan"}, "fusion_lon": 0.0}, {"lat": 38.928523, "is_disabled": 0, "type": "electric_bike", "lon": -77.1067665, "bike_id": "081ba378c6f1a58dbd04ef82a51cdbdf", "fusion_lat": 0.0, "name": "081ba378c6f1a58dbd04ef82a51cdbdf", "is_reserved": 0, "rental_uris": {"android": "https://dc.lft.to/lastmile_qr_scan", "ios": "https://dc.lft.to/lastmile_qr_scan"}, "fusion_lon": 0.0}, {"lat": 38.93542633333333, "is_disabled": 0, "type": "electric_scooter", "lon": -77.03422933333333, "bike_id": "dc30490d9db6436745814b6ba4f4f8c1", "fusion_lat": 0.0, "name": "dc30490d9db6436745814b6ba4f4f8c1", "is_reserved": 0, "rental_uris": {"android": "https://dc.lft.to/lastmile_qr_scan", "ios": "https://dc.lft.to/lastmile_qr_scan"}, "fusion_lon": 0.0}, {"lat": 38.94708833333333, "is_disabled": 0, "type": "electric_scooter", "lon": -77.01940283333333, "bike_id": "b71b33ce2f03c309fe1658557b2b11a0", "fusion_lat": 0.0, "name": "b71b33ce2f03c309fe1658557b2b11a0", "is_reserved": 0, "rental_uris": {"android": "https://dc.lft.to/lastmile_qr_scan", "ios": "https://dc.lft.to/lastmile_qr_scan"}, "fusion_lon": 0.0}, {"lat": 38.9219035, "is_disabled": 0, "type": "electric_scooter", "lon": -77.04131866666667, "bike_id": "b3bb831cdc133126b505b55ba1876832", "fusion_lat": 0.0, "name": "b3bb831cdc133126b505b55ba1876832", "is_reserved": 0, "rental_uris": {"android": "https://dc.lft.to/lastmile_qr_scan", "ios": "https://dc.lft.to/lastmile_qr_scan"}, "fusion_lon": 0.0}, {"lat": 38.80744133333334, "is_disabled": 0, "type": "electric_bike", "lon": -77.09429366666667, "bike_id": "81aae451bba4aebc2f99dd6d29c84bd8", "fusion_lat": 0.0, "name": "81aae451bba4aebc2f99dd6d29c84bd8", "is_reserved": 0, "rental_uris": {"android": "https://dc.lft.to/lastmile_qr_scan", "ios": "https://dc.lft.to/lastmile_qr_scan"}, "fusion_lon": 0.0}, {"lat": 38.890123, "is_disabled": 0, "type": "electric_scooter", "lon": -77.00046433333333, "bike_id": "0fb13c15b2e0043fb9d6ba44d60a1271", "fusion_lat": 0.0, "name": "0fb13c15b2e0043fb9d6ba44d60a1271", "is_reserved": 0, "rental_uris": {"android": "https://dc.lft.to/lastmile_qr_scan", "ios": "https://dc.lft.to/lastmile_qr_scan"}, "fusion_lon": 0.0}, {"lat": 38.9027725, "is_disabled": 0, "type": "electric_scooter", "lon": -77.03662266666667, "bike_id": "61f16910110ece76cd35c4e296c644f3", "fusion_lat": 0.0, "name": "61f16910110ece76cd35c4e296c644f3", "is_reserved": 0, "rental_uris": {"android": "https://dc.lft.to/lastmile_qr_scan", "ios": "https://dc.lft.to/lastmile_qr_scan"}, "fusion_lon": 0.0}, {"lat": 38.936972833333336, "is_disabled": 0, "type": "electric_scooter", "lon": -77.03261483333333, "bike_id": "35df4fafc1fd5e66b2cac7fb39c554f2", "fusion_lat": 0.0, "name": "35df4fafc1fd5e66b2cac7fb39c554f2", "is_reserved": 0, "rental_uris": {"android": "https://dc.lft.to/lastmile_qr_scan", "ios": "https://dc.lft.to/lastmile_qr_scan"}, "fusion_lon": 0.0}, {"lat": 38.897582666666665, "is_disabled": 0, "type": "electric_scooter", "lon": -76.941858, "bike_id": "f2797f1606bfb98c47969204d36f5d9b", "fusion_lat": 0.0, "name": "f2797f1606bfb98c47969204d36f5d9b", "is_reserved": 0, "rental_uris": {"android": "https://dc.lft.to/lastmile_qr_scan", "ios": "https://dc.lft.to/lastmile_qr_scan"}, "fusion_lon": 0.0}, {"lat": 38.9053355, "is_disabled": 0, "type": "electric_scooter", "lon": -77.05679, "bike_id": "e5ac787489638e8ee9570025df29afaa", "fusion_lat": 0.0, "name": "e5ac787489638e8ee9570025df29afaa", "is_reserved": 0, "rental_uris": {"android": "https://dc.lft.to/lastmile_qr_scan", "ios": "https://dc.lft.to/lastmile_qr_scan"}, "fusion_lon": 0.0}, {"lat": 38.901574833333335, "is_disabled": 0, "type": "electric_scooter", "lon": -77.01842233333333, "bike_id": "79998ec2b0295079eec3a699459bc5ae", "fusion_lat": 0.0, "name": "79998ec2b0295079eec3a699459bc5ae", "is_reserved": 0, "rental_uris": {"android": "https://dc.lft.to/lastmile_qr_scan", "ios": "https://dc.lft.to/lastmile_qr_scan"}, "fusion_lon": 0.0}, {"lat": 38.923821333333336, "is_disabled": 0, "type": "electric_scooter", "lon": -77.03064783333333, "bike_id": "387948fe1efd888fdb6ef6c4209f2136", "fusion_lat": 0.0, "name": "387948fe1efd888fdb6ef6c4209f2136", "is_reserved": 0, "rental_uris": {"android": "https://dc.lft.to/lastmile_qr_scan", "ios": "https://dc.lft.to/lastmile_qr_scan"}, "fusion_lon": 0.0}, {"lat": 38.855148166666666, "is_disabled": 0, "type": "electric_bike", "lon": -76.98420866666666, "bike_id": "ec5a8f3060b80d0369c8d468efc20d35", "fusion_lat": 0.0, "name": "ec5a8f3060b80d0369c8d468efc20d35", "is_reserved": 0, "rental_uris": {"android": "https://dc.lft.to/lastmile_qr_scan", "ios": "https://dc.lft.to/lastmile_qr_scan"}, "fusion_lon": 0.0}, {"lat": 38.91490366666667, "is_disabled": 0, "type": "electric_scooter", "lon": -77.01373116666667, "bike_id": "4edf9bd01c121ee894daaab9ab24a5c9", "fusion_lat": 0.0, "name": "4edf9bd01c121ee894daaab9ab24a5c9", "is_reserved": 0, "rental_uris": {"android": "https://dc.lft.to/lastmile_qr_scan", "ios": "https://dc.lft.to/lastmile_qr_scan"}, "fusion_lon": 0.0}, {"lat": 38.911181666666664, "is_disabled": 0, "type": "electric_scooter", "lon": -77.048166, "bike_id": "52436df4201e8e35ee1f545807eb7379", "fusion_lat": 0.0, "name": "52436df4201e8e35ee1f545807eb7379", "is_reserved": 0, "rental_uris": {"android": "https://dc.lft.to/lastmile_qr_scan", "ios": "https://dc.lft.to/lastmile_qr_scan"}, "fusion_lon": 0.0}, {"lat": 38.92031566666667, "is_disabled": 0, "type": "electric_scooter", "lon": -77.04191616666667, "bike_id": "b436605792c767574144060328a60259", "fusion_lat": 0.0, "name": "b436605792c767574144060328a60259", "is_reserved": 0, "rental_uris": {"android": "https://dc.lft.to/lastmile_qr_scan", "ios": "https://dc.lft.to/lastmile_qr_scan"}, "fusion_lon": 0.0}, {"lat": 38.813477666666664, "is_disabled": 0, "type": "electric_bike", "lon": -77.04924666666666, "bike_id": "c889f0f1c046972fbc63248d21ac540c", "fusion_lat": 0.0, "name": "c889f0f1c046972fbc63248d21ac540c", "is_reserved": 0, "rental_uris": {"android": "https://dc.lft.to/lastmile_qr_scan", "ios": "https://dc.lft.to/lastmile_qr_scan"}, "fusion_lon": 0.0}, {"lat": 38.91022916666667, "is_disabled": 0, "type": "electric_scooter", "lon": -77.04873083333334, "bike_id": "a8c76f831166b07f4ba6fa32d64d959b", "fusion_lat": 0.0, "name": "a8c76f831166b07f4ba6fa32d64d959b", "is_reserved": 0, "rental_uris": {"android": "https://dc.lft.to/lastmile_qr_scan", "ios": "https://dc.lft.to/lastmile_qr_scan"}, "fusion_lon": 0.0}, {"lat": 38.96135116666667, "is_disabled": 0, "type": "electric_scooter", "lon": -77.02232916666667, "bike_id": "37c2fa97d17a213321115347e27f7227", "fusion_lat": 0.0, "name": "37c2fa97d17a213321115347e27f7227", "is_reserved": 0, "rental_uris": {"android": "https://dc.lft.to/lastmile_qr_scan", "ios": "https://dc.lft.to/lastmile_qr_scan"}, "fusion_lon": 0.0}, {"lat": 38.871484833333334, "is_disabled": 0, "type": "electric_bike", "lon": -76.93704066666666, "bike_id": "5208f152ec8481a77d793ac4646d5fe6", "fusion_lat": 0.0, "name": "5208f152ec8481a77d793ac4646d5fe6", "is_reserved": 0, "rental_uris": {"android": "https://dc.lft.to/lastmile_qr_scan", "ios": "https://dc.lft.to/lastmile_qr_scan"}, "fusion_lon": 0.0}, {"lat": 38.923726333333335, "is_disabled": 0, "type": "electric_scooter", "lon": -77.0315985, "bike_id": "c9824578a849db6847b172a3b518fe54", "fusion_lat": 0.0, "name": "c9824578a849db6847b172a3b518fe54", "is_reserved": 0, "rental_uris": {"android": "https://dc.lft.to/lastmile_qr_scan", "ios": "https://dc.lft.to/lastmile_qr_scan"}, "fusion_lon": 0.0}, {"lat": 38.92973683333334, "is_disabled": 0, "type": "electric_scooter", "lon": -77.01303433333334, "bike_id": "4d272508fb5df6b5f960486cd8a340e9", "fusion_lat": 0.0, "name": "4d272508fb5df6b5f960486cd8a340e9", "is_reserved": 0, "rental_uris": {"android": "https://dc.lft.to/lastmile_qr_scan", "ios": "https://dc.lft.to/lastmile_qr_scan"}, "fusion_lon": 0.0}, {"lat": 38.90730416666667, "is_disabled": 0, "type": "electric_scooter", "lon": -77.0345245, "bike_id": "a374e7a21a05f1b1948646df7224ccf9", "fusion_lat": 0.0, "name": "a374e7a21a05f1b1948646df7224ccf9", "is_reserved": 0, "rental_uris": {"android": "https://dc.lft.to/lastmile_qr_scan", "ios": "https://dc.lft.to/lastmile_qr_scan"}, "fusion_lon": 0.0}, {"lat": 38.90663, "is_disabled": 0, "type": "electric_scooter", "lon": -77.03854533333333, "bike_id": "dff35a73b5f68c263057bb10ee076e61", "fusion_lat": 0.0, "name": "dff35a73b5f68c263057bb10ee076e61", "is_reserved": 0, "rental_uris": {"android": "https://dc.lft.to/lastmile_qr_scan", "ios": "https://dc.lft.to/lastmile_qr_scan"}, "fusion_lon": 0.0}, {"lat": 38.857205666666665, "is_disabled": 0, "type": "electric_bike", "lon": -76.97096283333333, "bike_id": "11df617d23d65a996ac3f58f2dab30a8", "fusion_lat": 0.0, "name": "11df617d23d65a996ac3f58f2dab30a8", "is_reserved": 0, "rental_uris": {"android": "https://dc.lft.to/lastmile_qr_scan", "ios": "https://dc.lft.to/lastmile_qr_scan"}, "fusion_lon": 0.0}, {"lat": 38.90977983333333, "is_disabled": 0, "type": "electric_scooter", "lon": -77.03441966666666, "bike_id": "9d2133dc936911b390947dc75659f9e2", "fusion_lat": 0.0, "name": "9d2133dc936911b390947dc75659f9e2", "is_reserved": 0, "rental_uris": {"android": "https://dc.lft.to/lastmile_qr_scan", "ios": "https://dc.lft.to/lastmile_qr_scan"}, "fusion_lon": 0.0}, {"lat": 38.89737066666667, "is_disabled": 0, "type": "electric_scooter", "lon": -77.04764683333333, "bike_id": "a579e4bc43b2003b080e23c119666f4b", "fusion_lat": 0.0, "name": "a579e4bc43b2003b080e23c119666f4b", "is_reserved": 0, "rental_uris": {"android": "https://dc.lft.to/lastmile_qr_scan", "ios": "https://dc.lft.to/lastmile_qr_scan"}, "fusion_lon": 0.0}, {"lat": 38.90294266666667, "is_disabled": 0, "type": "electric_scooter", "lon": -77.0385625, "bike_id": "787fe644546c7522b6ed2c7f8cddaf6c", "fusion_lat": 0.0, "name": "787fe644546c7522b6ed2c7f8cddaf6c", "is_reserved": 0, "rental_uris": {"android": "https://dc.lft.to/lastmile_qr_scan", "ios": "https://dc.lft.to/lastmile_qr_scan"}, "fusion_lon": 0.0}, {"lat": 38.90817766666667, "is_disabled": 0, "type": "electric_scooter", "lon": -77.04328066666666, "bike_id": "74fd159b7dfac46916e5a673c1254a88", "fusion_lat": 0.0, "name": "74fd159b7dfac46916e5a673c1254a88", "is_reserved": 0, "rental_uris": {"android": "https://dc.lft.to/lastmile_qr_scan", "ios": "https://dc.lft.to/lastmile_qr_scan"}, "fusion_lon": 0.0}, {"lat": 38.9081915, "is_disabled": 0, "type": "electric_scooter", "lon": -77.04338233333333, "bike_id": "3a029d52212f0e8650bb43f3e60c28a6", "fusion_lat": 0.0, "name": "3a029d52212f0e8650bb43f3e60c28a6", "is_reserved": 0, "rental_uris": {"android": "https://dc.lft.to/lastmile_qr_scan", "ios": "https://dc.lft.to/lastmile_qr_scan"}, "fusion_lon": 0.0}, {"lat": 38.88493316666667, "is_disabled": 0, "type": "electric_scooter", "lon": -77.00727783333333, "bike_id": "a42ade79e11b6be33f6c14d91c49bc52", "fusion_lat": 0.0, "name": "a42ade79e11b6be33f6c14d91c49bc52", "is_reserved": 0, "rental_uris": {"android": "https://dc.lft.to/lastmile_qr_scan", "ios": "https://dc.lft.to/lastmile_qr_scan"}, "fusion_lon": 0.0}, {"lat": 38.939590833333334, "is_disabled": 0, "type": "electric_bike", "lon": -77.360923, "bike_id": "c57d318c525d8861cf37ce7ba58a7c0e", "fusion_lat": 0.0, "name": "c57d318c525d8861cf37ce7ba58a7c0e", "is_reserved": 0, "rental_uris": {"android": "https://dc.lft.to/lastmile_qr_scan", "ios": "https://dc.lft.to/lastmile_qr_scan"}, "fusion_lon": 0.0}, {"lat": 38.917063166666665, "is_disabled": 0, "type": "electric_scooter", "lon": -77.00115833333334, "bike_id": "b78c13b32c680ffae535149abf6f37dc", "fusion_lat": 0.0, "name": "b78c13b32c680ffae535149abf6f37dc", "is_reserved": 0, "rental_uris": {"android": "https://dc.lft.to/lastmile_qr_scan", "ios": "https://dc.lft.to/lastmile_qr_scan"}, "fusion_lon": 0.0}, {"lat": 38.9226895, "is_disabled": 0, "type": "electric_scooter", "lon": -77.04134466666666, "bike_id": "5d2d7c3fb35a191972d23812dd99ad4a", "fusion_lat": 0.0, "name": "5d2d7c3fb35a191972d23812dd99ad4a", "is_reserved": 0, "rental_uris": {"android": "https://dc.lft.to/lastmile_qr_scan", "ios": "https://dc.lft.to/lastmile_qr_scan"}, "fusion_lon": 0.0}, {"lat": 38.8955875, "is_disabled": 0, "type": "electric_scooter", "lon": -76.93077716666667, "bike_id": "e7bc691c35a69e387dc1ff237bcfa07a", "fusion_lat": 0.0, "name": "e7bc691c35a69e387dc1ff237bcfa07a", "is_reserved": 0, "rental_uris": {"android": "https://dc.lft.to/lastmile_qr_scan", "ios": "https://dc.lft.to/lastmile_qr_scan"}, "fusion_lon": 0.0}, {"lat": 38.95291366666667, "is_disabled": 0, "type": "electric_bike", "lon": -76.9459935, "bike_id": "0e44596f9670b913c40648f55f3ec0d0", "fusion_lat": 0.0, "name": "0e44596f9670b913c40648f55f3ec0d0", "is_reserved": 0, "rental_uris": {"android": "https://dc.lft.to/lastmile_qr_scan", "ios": "https://dc.lft.to/lastmile_qr_scan"}, "fusion_lon": 0.0}, {"lat": 38.902707166666666, "is_disabled": 0, "type": "electric_scooter", "lon": -77.00323066666667, "bike_id": "fdcdd4e599a56ed40090262676bc0b39", "fusion_lat": 0.0, "name": "fdcdd4e599a56ed40090262676bc0b39", "is_reserved": 0, "rental_uris": {"android": "https://dc.lft.to/lastmile_qr_scan", "ios": "https://dc.lft.to/lastmile_qr_scan"}, "fusion_lon": 0.0}, {"lat": 38.928232666666666, "is_disabled": 0, "type": "electric_scooter", "lon": -77.02619716666666, "bike_id": "f4fc6ddba38ae6b6e460a2a3b483d5b3", "fusion_lat": 0.0, "name": "f4fc6ddba38ae6b6e460a2a3b483d5b3", "is_reserved": 0, "rental_uris": {"android": "https://dc.lft.to/lastmile_qr_scan", "ios": "https://dc.lft.to/lastmile_qr_scan"}, "fusion_lon": 0.0}, {"lat": 38.956463666666664, "is_disabled": 0, "type": "electric_bike", "lon": -77.022557, "bike_id": "662a126557809fd3f4ab21788d4a2811", "fusion_lat": 0.0, "name": "662a126557809fd3f4ab21788d4a2811", "is_reserved": 0, "rental_uris": {"android": "https://dc.lft.to/lastmile_qr_scan", "ios": "https://dc.lft.to/lastmile_qr_scan"}, "fusion_lon": 0.0}, {"lat": 38.930340666666666, "is_disabled": 0, "type": "electric_scooter", "lon": -77.02967316666667, "bike_id": "09ae47ece67499fac1c6d53baf35d180", "fusion_lat": 0.0, "name": "09ae47ece67499fac1c6d53baf35d180", "is_reserved": 0, "rental_uris": {"android": "https://dc.lft.to/lastmile_qr_scan", "ios": "https://dc.lft.to/lastmile_qr_scan"}, "fusion_lon": 0.0}, {"lat": 38.92897466666667, "is_disabled": 0, "type": "electric_bike", "lon": -77.05777883333333, "bike_id": "0be10e1ff99b83e3a4979d89b1a84660", "fusion_lat": 0.0, "name": "0be10e1ff99b83e3a4979d89b1a84660", "is_reserved": 0, "rental_uris": {"android": "https://dc.lft.to/lastmile_qr_scan", "ios": "https://dc.lft.to/lastmile_qr_scan"}, "fusion_lon": 0.0}, {"lat": 38.937837, "is_disabled": 0, "type": "electric_scooter", "lon": -77.02471566666667, "bike_id": "732c8318ff65d5ebf2a8f535560073d2", "fusion_lat": 0.0, "name": "732c8318ff65d5ebf2a8f535560073d2", "is_reserved": 0, "rental_uris": {"android": "https://dc.lft.to/lastmile_qr_scan", "ios": "https://dc.lft.to/lastmile_qr_scan"}, "fusion_lon": 0.0}, {"lat": 38.9085245, "is_disabled": 0, "type": "electric_scooter", "lon": -77.0062665, "bike_id": "3e84c5552ce1f05e6ac5772a701912b6", "fusion_lat": 0.0, "name": "3e84c5552ce1f05e6ac5772a701912b6", "is_reserved": 0, "rental_uris": {"android": "https://dc.lft.to/lastmile_qr_scan", "ios": "https://dc.lft.to/lastmile_qr_scan"}, "fusion_lon": 0.0}, {"lat": 38.91799433333333, "is_disabled": 0, "type": "electric_bike", "lon": -77.22334833333333, "bike_id": "72827ffa6fd9aa82953e8da664fb979b", "fusion_lat": 0.0, "name": "72827ffa6fd9aa82953e8da664fb979b", "is_reserved": 0, "rental_uris": {"android": "https://dc.lft.to/lastmile_qr_scan", "ios": "https://dc.lft.to/lastmile_qr_scan"}, "fusion_lon": 0.0}, {"lat": 38.89675066666667, "is_disabled": 0, "type": "electric_scooter", "lon": -77.051481, "bike_id": "df8821d193bc98ced9643eb7fb34588c", "fusion_lat": 0.0, "name": "df8821d193bc98ced9643eb7fb34588c", "is_reserved": 0, "rental_uris": {"android": "https://dc.lft.to/lastmile_qr_scan", "ios": "https://dc.lft.to/lastmile_qr_scan"}, "fusion_lon": 0.0}, {"lat": 38.926451166666666, "is_disabled": 0, "type": "electric_scooter", "lon": -77.043065, "bike_id": "749338b02b86239abb1e2c3f76249377", "fusion_lat": 0.0, "name": "749338b02b86239abb1e2c3f76249377", "is_reserved": 0, "rental_uris": {"android": "https://dc.lft.to/lastmile_qr_scan", "ios": "https://dc.lft.to/lastmile_qr_scan"}, "fusion_lon": 0.0}, {"lat": 38.94514216666666, "is_disabled": 0, "type": "electric_scooter", "lon": -77.02174866666667, "bike_id": "b2cc3c995816c652d64a733dcb34e28d", "fusion_lat": 0.0, "name": "b2cc3c995816c652d64a733dcb34e28d", "is_reserved": 0, "rental_uris": {"android": "https://dc.lft.to/lastmile_qr_scan", "ios": "https://dc.lft.to/lastmile_qr_scan"}, "fusion_lon": 0.0}, {"lat": 38.892210166666665, "is_disabled": 0, "type": "electric_scooter", "lon": -76.93298616666667, "bike_id": "56d670036510542d24fd4b18f7959f2e", "fusion_lat": 0.0, "name": "56d670036510542d24fd4b18f7959f2e", "is_reserved": 0, "rental_uris": {"android": "https://dc.lft.to/lastmile_qr_scan", "ios": "https://dc.lft.to/lastmile_qr_scan"}, "fusion_lon": 0.0}, {"lat": 38.90409733333333, "is_disabled": 0, "type": "electric_scooter", "lon": -77.02506866666667, "bike_id": "42bf65b6fd542ff39597a594724957a9", "fusion_lat": 0.0, "name": "42bf65b6fd542ff39597a594724957a9", "is_reserved": 0, "rental_uris": {"android": "https://dc.lft.to/lastmile_qr_scan", "ios": "https://dc.lft.to/lastmile_qr_scan"}, "fusion_lon": 0.0}, {"lat": 38.93222766666667, "is_disabled": 0, "type": "electric_scooter", "lon": -77.02733566666667, "bike_id": "8201a67c00d6a526561689a5b95ac8a4", "fusion_lat": 0.0, "name": "8201a67c00d6a526561689a5b95ac8a4", "is_reserved": 0, "rental_uris": {"android": "https://dc.lft.to/lastmile_qr_scan", "ios": "https://dc.lft.to/lastmile_qr_scan"}, "fusion_lon": 0.0}, {"lat": 38.896385333333335, "is_disabled": 0, "type": "electric_scooter", "lon": -77.0449925, "bike_id": "1446f3ce32a996013465faa6067051d9", "fusion_lat": 0.0, "name": "1446f3ce32a996013465faa6067051d9", "is_reserved": 0, "rental_uris": {"android": "https://dc.lft.to/lastmile_qr_scan", "ios": "https://dc.lft.to/lastmile_qr_scan"}, "fusion_lon": 0.0}, {"lat": 38.928648833333334, "is_disabled": 0, "type": "electric_scooter", "lon": -77.03412716666666, "bike_id": "72e96e3132004f4ec17e04aa67097e6c", "fusion_lat": 0.0, "name": "72e96e3132004f4ec17e04aa67097e6c", "is_reserved": 0, "rental_uris": {"android": "https://dc.lft.to/lastmile_qr_scan", "ios": "https://dc.lft.to/lastmile_qr_scan"}, "fusion_lon": 0.0}, {"lat": 38.908605666666666, "is_disabled": 0, "type": "electric_scooter", "lon": -77.02930666666667, "bike_id": "c3839a2bf535482065ae1a1a87ea7e22", "fusion_lat": 0.0, "name": "c3839a2bf535482065ae1a1a87ea7e22", "is_reserved": 0, "rental_uris": {"android": "https://dc.lft.to/lastmile_qr_scan", "ios": "https://dc.lft.to/lastmile_qr_scan"}, "fusion_lon": 0.0}, {"lat": 38.86508533333333, "is_disabled": 0, "type": "electric_scooter", "lon": -76.990066, "bike_id": "20290e06e5912d1879106b9df5062f85", "fusion_lat": 0.0, "name": "20290e06e5912d1879106b9df5062f85", "is_reserved": 0, "rental_uris": {"android": "https://dc.lft.to/lastmile_qr_scan", "ios": "https://dc.lft.to/lastmile_qr_scan"}, "fusion_lon": 0.0}, {"lat": 38.914233333333335, "is_disabled": 0, "type": "electric_scooter", "lon": -77.0321025, "bike_id": "d6b101c9b8dd4ed4f2a7029da59daf49", "fusion_lat": 0.0, "name": "d6b101c9b8dd4ed4f2a7029da59daf49", "is_reserved": 0, "rental_uris": {"android": "https://dc.lft.to/lastmile_qr_scan", "ios": "https://dc.lft.to/lastmile_qr_scan"}, "fusion_lon": 0.0}, {"lat": 38.9009005, "is_disabled": 0, "type": "electric_scooter", "lon": -77.056005, "bike_id": "8de4bc7141191171714b98d998ab0e7a", "fusion_lat": 0.0, "name": "8de4bc7141191171714b98d998ab0e7a", "is_reserved": 0, "rental_uris": {"android": "https://dc.lft.to/lastmile_qr_scan", "ios": "https://dc.lft.to/lastmile_qr_scan"}, "fusion_lon": 0.0}, {"lat": 38.9003085, "is_disabled": 0, "type": "electric_scooter", "lon": -77.03323366666666, "bike_id": "4606486272e65bc0b643fbd0b8cdf663", "fusion_lat": 0.0, "name": "4606486272e65bc0b643fbd0b8cdf663", "is_reserved": 0, "rental_uris": {"android": "https://dc.lft.to/lastmile_qr_scan", "ios": "https://dc.lft.to/lastmile_qr_scan"}, "fusion_lon": 0.0}, {"lat": 38.92760366666667, "is_disabled": 0, "type": "electric_bike", "lon": -77.06880116666666, "bike_id": "9fd500b10b146d777150055fa3c2dd86", "fusion_lat": 0.0, "name": "9fd500b10b146d777150055fa3c2dd86", "is_reserved": 0, "rental_uris": {"android": "https://dc.lft.to/lastmile_qr_scan", "ios": "https://dc.lft.to/lastmile_qr_scan"}, "fusion_lon": 0.0}, {"lat": 38.8897315, "is_disabled": 0, "type": "electric_scooter", "lon": -76.93742066666667, "bike_id": "92afb218996783447e49ca8f682a7042", "fusion_lat": 0.0, "name": "92afb218996783447e49ca8f682a7042", "is_reserved": 0, "rental_uris": {"android": "https://dc.lft.to/lastmile_qr_scan", "ios": "https://dc.lft.to/lastmile_qr_scan"}, "fusion_lon": 0.0}, {"lat": 38.899748333333335, "is_disabled": 0, "type": "electric_scooter", "lon": -77.01902316666667, "bike_id": "6328e3c058d96f976e0ea60e8520c22d", "fusion_lat": 0.0, "name": "6328e3c058d96f976e0ea60e8520c22d", "is_reserved": 0, "rental_uris": {"android": "https://dc.lft.to/lastmile_qr_scan", "ios": "https://dc.lft.to/lastmile_qr_scan"}, "fusion_lon": 0.0}, {"lat": 38.917055833333336, "is_disabled": 0, "type": "electric_scooter", "lon": -77.0322, "bike_id": "7b13b3a4eb18e4a05d6fcdf4598ff415", "fusion_lat": 0.0, "name": "7b13b3a4eb18e4a05d6fcdf4598ff415", "is_reserved": 0, "rental_uris": {"android": "https://dc.lft.to/lastmile_qr_scan", "ios": "https://dc.lft.to/lastmile_qr_scan"}, "fusion_lon": 0.0}, {"lat": 39.02934333333334, "is_disabled": 0, "type": "electric_bike", "lon": -77.0492735, "bike_id": "a5ae227aace263a4bcfcbfcef9cb2bd9", "fusion_lat": 0.0, "name": "a5ae227aace263a4bcfcbfcef9cb2bd9", "is_reserved": 0, "rental_uris": {"android": "https://dc.lft.to/lastmile_qr_scan", "ios": "https://dc.lft.to/lastmile_qr_scan"}, "fusion_lon": 0.0}, {"lat": 38.884953, "is_disabled": 0, "type": "electric_scooter", "lon": -77.007138, "bike_id": "4bd1abe19d22893a4109867dcaaafefa", "fusion_lat": 0.0, "name": "4bd1abe19d22893a4109867dcaaafefa", "is_reserved": 0, "rental_uris": {"android": "https://dc.lft.to/lastmile_qr_scan", "ios": "https://dc.lft.to/lastmile_qr_scan"}, "fusion_lon": 0.0}, {"lat": 38.9215145, "is_disabled": 0, "type": "electric_scooter", "lon": -77.03508733333334, "bike_id": "ff04715d6cc37332a73870071d6bbe29", "fusion_lat": 0.0, "name": "ff04715d6cc37332a73870071d6bbe29", "is_reserved": 0, "rental_uris": {"android": "https://dc.lft.to/lastmile_qr_scan", "ios": "https://dc.lft.to/lastmile_qr_scan"}, "fusion_lon": 0.0}, {"lat": 38.872998, "is_disabled": 0, "type": "electric_scooter", "lon": -77.00926633333333, "bike_id": "d0088ff29d3cbae8a17a18d0666e1e93", "fusion_lat": 0.0, "name": "d0088ff29d3cbae8a17a18d0666e1e93", "is_reserved": 0, "rental_uris": {"android": "https://dc.lft.to/lastmile_qr_scan", "ios": "https://dc.lft.to/lastmile_qr_scan"}, "fusion_lon": 0.0}, {"lat": 38.95331066666667, "is_disabled": 0, "type": "electric_scooter", "lon": -77.02758033333333, "bike_id": "f78505e7b966cc3a0cef41c50cb17672", "fusion_lat": 0.0, "name": "f78505e7b966cc3a0cef41c50cb17672", "is_reserved": 0, "rental_uris": {"android": "https://dc.lft.to/lastmile_qr_scan", "ios": "https://dc.lft.to/lastmile_qr_scan"}, "fusion_lon": 0.0}, {"lat": 38.93531866666667, "is_disabled": 0, "type": "electric_bike", "lon": -77.0568375, "bike_id": "a7b6a024e0c40efd8fbf16e16dbc771f", "fusion_lat": 0.0, "name": "a7b6a024e0c40efd8fbf16e16dbc771f", "is_reserved": 0, "rental_uris": {"android": "https://dc.lft.to/lastmile_qr_scan", "ios": "https://dc.lft.to/lastmile_qr_scan"}, "fusion_lon": 0.0}, {"lat": 38.905614166666666, "is_disabled": 0, "type": "electric_scooter", "lon": -77.0298075, "bike_id": "fc4655accf48dadf22574003b412f8f0", "fusion_lat": 0.0, "name": "fc4655accf48dadf22574003b412f8f0", "is_reserved": 0, "rental_uris": {"android": "https://dc.lft.to/lastmile_qr_scan", "ios": "https://dc.lft.to/lastmile_qr_scan"}, "fusion_lon": 0.0}, {"lat": 38.9343385, "is_disabled": 0, "type": "electric_scooter", "lon": -77.03449483333333, "bike_id": "4d033f8e07eb342050aea87b883e22cd", "fusion_lat": 0.0, "name": "4d033f8e07eb342050aea87b883e22cd", "is_reserved": 0, "rental_uris": {"android": "https://dc.lft.to/lastmile_qr_scan", "ios": "https://dc.lft.to/lastmile_qr_scan"}, "fusion_lon": 0.0}, {"lat": 38.960212166666665, "is_disabled": 0, "type": "electric_bike", "lon": -77.01729616666667, "bike_id": "55aee74ae98ecf464615e02a57f8b4ca", "fusion_lat": 0.0, "name": "55aee74ae98ecf464615e02a57f8b4ca", "is_reserved": 0, "rental_uris": {"android": "https://dc.lft.to/lastmile_qr_scan", "ios": "https://dc.lft.to/lastmile_qr_scan"}, "fusion_lon": 0.0}, {"lat": 38.88466666666667, "is_disabled": 0, "type": "electric_scooter", "lon": -76.99257666666666, "bike_id": "f39c32b915d5a92512f0806d4653be68", "fusion_lat": 0.0, "name": "f39c32b915d5a92512f0806d4653be68", "is_reserved": 0, "rental_uris": {"android": "https://dc.lft.to/lastmile_qr_scan", "ios": "https://dc.lft.to/lastmile_qr_scan"}, "fusion_lon": 0.0}, {"lat": 38.9031515, "is_disabled": 0, "type": "electric_scooter", "lon": -76.9935965, "bike_id": "96da4d4502d4566c7c00094e6a4f3f5d", "fusion_lat": 0.0, "name": "96da4d4502d4566c7c00094e6a4f3f5d", "is_reserved": 0, "rental_uris": {"android": "https://dc.lft.to/lastmile_qr_scan", "ios": "https://dc.lft.to/lastmile_qr_scan"}, "fusion_lon": 0.0}, {"lat": 38.929171, "is_disabled": 0, "type": "electric_scooter", "lon": -77.02193933333334, "bike_id": "7e8194b185261d6b5651f7ff50104a03", "fusion_lat": 0.0, "name": "7e8194b185261d6b5651f7ff50104a03", "is_reserved": 0, "rental_uris": {"android": "https://dc.lft.to/lastmile_qr_scan", "ios": "https://dc.lft.to/lastmile_qr_scan"}, "fusion_lon": 0.0}, {"lat": 38.892223666666666, "is_disabled": 0, "type": "electric_scooter", "lon": -77.02113633333333, "bike_id": "b7183b1de2d08a719de562934a116a38", "fusion_lat": 0.0, "name": "b7183b1de2d08a719de562934a116a38", "is_reserved": 0, "rental_uris": {"android": "https://dc.lft.to/lastmile_qr_scan", "ios": "https://dc.lft.to/lastmile_qr_scan"}, "fusion_lon": 0.0}, {"lat": 38.90684483333333, "is_disabled": 0, "type": "electric_scooter", "lon": -77.060686, "bike_id": "b941d00de434571b3576bd1214789c7f", "fusion_lat": 0.0, "name": "b941d00de434571b3576bd1214789c7f", "is_reserved": 0, "rental_uris": {"android": "https://dc.lft.to/lastmile_qr_scan", "ios": "https://dc.lft.to/lastmile_qr_scan"}, "fusion_lon": 0.0}, {"lat": 38.925799833333336, "is_disabled": 0, "type": "electric_scooter", "lon": -77.05761116666666, "bike_id": "e0c9bf0446752e5a4a2452568389c647", "fusion_lat": 0.0, "name": "e0c9bf0446752e5a4a2452568389c647", "is_reserved": 0, "rental_uris": {"android": "https://dc.lft.to/lastmile_qr_scan", "ios": "https://dc.lft.to/lastmile_qr_scan"}, "fusion_lon": 0.0}, {"lat": 38.9211865, "is_disabled": 0, "type": "electric_scooter", "lon": -77.01805466666667, "bike_id": "9aed18ce4c41dc425622367972495f9a", "fusion_lat": 0.0, "name": "9aed18ce4c41dc425622367972495f9a", "is_reserved": 0, "rental_uris": {"android": "https://dc.lft.to/lastmile_qr_scan", "ios": "https://dc.lft.to/lastmile_qr_scan"}, "fusion_lon": 0.0}, {"lat": 38.902543, "is_disabled": 0, "type": "electric_scooter", "lon": -77.01754083333333, "bike_id": "936df208833b58a54bb55a174734854e", "fusion_lat": 0.0, "name": "936df208833b58a54bb55a174734854e", "is_reserved": 0, "rental_uris": {"android": "https://dc.lft.to/lastmile_qr_scan", "ios": "https://dc.lft.to/lastmile_qr_scan"}, "fusion_lon": 0.0}, {"lat": 38.961164, "is_disabled": 0, "type": "electric_scooter", "lon": -77.0281335, "bike_id": "c2a66ca7ce503f6398020b2148e163eb", "fusion_lat": 0.0, "name": "c2a66ca7ce503f6398020b2148e163eb", "is_reserved": 0, "rental_uris": {"android": "https://dc.lft.to/lastmile_qr_scan", "ios": "https://dc.lft.to/lastmile_qr_scan"}, "fusion_lon": 0.0}, {"lat": 38.905718, "is_disabled": 0, "type": "electric_scooter", "lon": -77.0179585, "bike_id": "080313665429e2bad1df2e2e32d38c4f", "fusion_lat": 0.0, "name": "080313665429e2bad1df2e2e32d38c4f", "is_reserved": 0, "rental_uris": {"android": "https://dc.lft.to/lastmile_qr_scan", "ios": "https://dc.lft.to/lastmile_qr_scan"}, "fusion_lon": 0.0}, {"lat": 38.903882, "is_disabled": 0, "type": "electric_scooter", "lon": -76.98490433333333, "bike_id": "9502e217cd75c6c5ef71d17552db5a7f", "fusion_lat": 0.0, "name": "9502e217cd75c6c5ef71d17552db5a7f", "is_reserved": 0, "rental_uris": {"android": "https://dc.lft.to/lastmile_qr_scan", "ios": "https://dc.lft.to/lastmile_qr_scan"}, "fusion_lon": 0.0}, {"lat": 38.9318885, "is_disabled": 0, "type": "electric_scooter", "lon": -77.038719, "bike_id": "4d6ea04b03191db36d249806c607e86c", "fusion_lat": 0.0, "name": "4d6ea04b03191db36d249806c607e86c", "is_reserved": 0, "rental_uris": {"android": "https://dc.lft.to/lastmile_qr_scan", "ios": "https://dc.lft.to/lastmile_qr_scan"}, "fusion_lon": 0.0}, {"lat": 38.922419833333336, "is_disabled": 0, "type": "electric_scooter", "lon": -77.02989583333333, "bike_id": "502e97a94a94b8250fdf4ad0651f1d49", "fusion_lat": 0.0, "name": "502e97a94a94b8250fdf4ad0651f1d49", "is_reserved": 0, "rental_uris": {"android": "https://dc.lft.to/lastmile_qr_scan", "ios": "https://dc.lft.to/lastmile_qr_scan"}, "fusion_lon": 0.0}, {"lat": 38.9386305, "is_disabled": 0, "type": "electric_scooter", "lon": -77.02594183333333, "bike_id": "e447b84d8e1a3c40f06f964e8d3dd20e", "fusion_lat": 0.0, "name": "e447b84d8e1a3c40f06f964e8d3dd20e", "is_reserved": 0, "rental_uris": {"android": "https://dc.lft.to/lastmile_qr_scan", "ios": "https://dc.lft.to/lastmile_qr_scan"}, "fusion_lon": 0.0}, {"lat": 38.92111, "is_disabled": 0, "type": "electric_scooter", "lon": -77.0421845, "bike_id": "63054ca111d8d7c52e0718e96937d926", "fusion_lat": 0.0, "name": "63054ca111d8d7c52e0718e96937d926", "is_reserved": 0, "rental_uris": {"android": "https://dc.lft.to/lastmile_qr_scan", "ios": "https://dc.lft.to/lastmile_qr_scan"}, "fusion_lon": 0.0}, {"lat": 38.9049, "is_disabled": 0, "type": "electric_scooter", "lon": -76.99543366666667, "bike_id": "0e3b181d222d32a93e920a082d3d839f", "fusion_lat": 0.0, "name": "0e3b181d222d32a93e920a082d3d839f", "is_reserved": 0, "rental_uris": {"android": "https://dc.lft.to/lastmile_qr_scan", "ios": "https://dc.lft.to/lastmile_qr_scan"}, "fusion_lon": 0.0}, {"lat": 38.912663, "is_disabled": 0, "type": "electric_scooter", "lon": -77.03028416666666, "bike_id": "eadd8a6a7738f73266c65a49553e6cfb", "fusion_lat": 0.0, "name": "eadd8a6a7738f73266c65a49553e6cfb", "is_reserved": 0, "rental_uris": {"android": "https://dc.lft.to/lastmile_qr_scan", "ios": "https://dc.lft.to/lastmile_qr_scan"}, "fusion_lon": 0.0}, {"lat": 38.9342635, "is_disabled": 0, "type": "electric_scooter", "lon": -77.0284305, "bike_id": "3326f752f090e22be578685d3de40b20", "fusion_lat": 0.0, "name": "3326f752f090e22be578685d3de40b20", "is_reserved": 0, "rental_uris": {"android": "https://dc.lft.to/lastmile_qr_scan", "ios": "https://dc.lft.to/lastmile_qr_scan"}, "fusion_lon": 0.0}, {"lat": 38.810498, "is_disabled": 0, "type": "electric_bike", "lon": -77.0850925, "bike_id": "e9afa3de9f6f9719ccfefa3ae0d3c0c3", "fusion_lat": 0.0, "name": "e9afa3de9f6f9719ccfefa3ae0d3c0c3", "is_reserved": 0, "rental_uris": {"android": "https://dc.lft.to/lastmile_qr_scan", "ios": "https://dc.lft.to/lastmile_qr_scan"}, "fusion_lon": 0.0}, {"lat": 38.854291833333335, "is_disabled": 0, "type": "electric_bike", "lon": -76.909752, "bike_id": "7dfe36628a257bbc92366135230dc137", "fusion_lat": 0.0, "name": "7dfe36628a257bbc92366135230dc137", "is_reserved": 0, "rental_uris": {"android": "https://dc.lft.to/lastmile_qr_scan", "ios": "https://dc.lft.to/lastmile_qr_scan"}, "fusion_lon": 0.0}, {"lat": 38.923861, "is_disabled": 0, "type": "electric_scooter", "lon": -77.02758933333334, "bike_id": "7842fcbd03b09fd3f7209c75aba0968e", "fusion_lat": 0.0, "name": "7842fcbd03b09fd3f7209c75aba0968e", "is_reserved": 0, "rental_uris": {"android": "https://dc.lft.to/lastmile_qr_scan", "ios": "https://dc.lft.to/lastmile_qr_scan"}, "fusion_lon": 0.0}, {"lat": 38.9460145, "is_disabled": 0, "type": "electric_scooter", "lon": -77.07037216666667, "bike_id": "da0541dc2d6208896923021650c71861", "fusion_lat": 0.0, "name": "da0541dc2d6208896923021650c71861", "is_reserved": 0, "rental_uris": {"android": "https://dc.lft.to/lastmile_qr_scan", "ios": "https://dc.lft.to/lastmile_qr_scan"}, "fusion_lon": 0.0}, {"lat": 38.91557066666667, "is_disabled": 0, "type": "electric_scooter", "lon": -77.009726, "bike_id": "9a2d5bfbd42ced39d17cd4ead62740b8", "fusion_lat": 0.0, "name": "9a2d5bfbd42ced39d17cd4ead62740b8", "is_reserved": 0, "rental_uris": {"android": "https://dc.lft.to/lastmile_qr_scan", "ios": "https://dc.lft.to/lastmile_qr_scan"}, "fusion_lon": 0.0}, {"lat": 38.93416666666667, "is_disabled": 0, "type": "electric_scooter", "lon": -77.02847116666666, "bike_id": "3dba6ca79a128f5fbacbb965ea3a875f", "fusion_lat": 0.0, "name": "3dba6ca79a128f5fbacbb965ea3a875f", "is_reserved": 0, "rental_uris": {"android": "https://dc.lft.to/lastmile_qr_scan", "ios": "https://dc.lft.to/lastmile_qr_scan"}, "fusion_lon": 0.0}, {"lat": 38.844295833333334, "is_disabled": 0, "type": "electric_scooter", "lon": -76.99812816666666, "bike_id": "f2ea17b52a42a2a88fb7dba333486813", "fusion_lat": 0.0, "name": "f2ea17b52a42a2a88fb7dba333486813", "is_reserved": 0, "rental_uris": {"android": "https://dc.lft.to/lastmile_qr_scan", "ios": "https://dc.lft.to/lastmile_qr_scan"}, "fusion_lon": 0.0}, {"lat": 38.91936033333333, "is_disabled": 0, "type": "electric_scooter", "lon": -77.070662, "bike_id": "72e71e0e3339ff272f08caf70efdb229", "fusion_lat": 0.0, "name": "72e71e0e3339ff272f08caf70efdb229", "is_reserved": 0, "rental_uris": {"android": "https://dc.lft.to/lastmile_qr_scan", "ios": "https://dc.lft.to/lastmile_qr_scan"}, "fusion_lon": 0.0}, {"lat": 38.844292333333335, "is_disabled": 0, "type": "electric_scooter", "lon": -76.99661716666667, "bike_id": "691feedae7ed06324fc422e4c62d5619", "fusion_lat": 0.0, "name": "691feedae7ed06324fc422e4c62d5619", "is_reserved": 0, "rental_uris": {"android": "https://dc.lft.to/lastmile_qr_scan", "ios": "https://dc.lft.to/lastmile_qr_scan"}, "fusion_lon": 0.0}, {"lat": 38.964305833333334, "is_disabled": 0, "type": "electric_bike", "lon": -77.0215975, "bike_id": "2ecf65cda2ac2680050afa710edb5a55", "fusion_lat": 0.0, "name": "2ecf65cda2ac2680050afa710edb5a55", "is_reserved": 0, "rental_uris": {"android": "https://dc.lft.to/lastmile_qr_scan", "ios": "https://dc.lft.to/lastmile_qr_scan"}, "fusion_lon": 0.0}, {"lat": 38.907315833333335, "is_disabled": 0, "type": "electric_scooter", "lon": -77.03988733333334, "bike_id": "c5f1dc14c9728476db595a6ba050b5b2", "fusion_lat": 0.0, "name": "c5f1dc14c9728476db595a6ba050b5b2", "is_reserved": 0, "rental_uris": {"android": "https://dc.lft.to/lastmile_qr_scan", "ios": "https://dc.lft.to/lastmile_qr_scan"}, "fusion_lon": 0.0}, {"lat": 38.89252283333333, "is_disabled": 0, "type": "electric_scooter", "lon": -77.033472, "bike_id": "205fabddb5f6bdbdea16fa61d5bf960f", "fusion_lat": 0.0, "name": "205fabddb5f6bdbdea16fa61d5bf960f", "is_reserved": 0, "rental_uris": {"android": "https://dc.lft.to/lastmile_qr_scan", "ios": "https://dc.lft.to/lastmile_qr_scan"}, "fusion_lon": 0.0}, {"lat": 38.8518935, "is_disabled": 0, "type": "electric_scooter", "lon": -76.97621416666667, "bike_id": "e28a9a807f55f6aac05cc2ef61525b4d", "fusion_lat": 0.0, "name": "e28a9a807f55f6aac05cc2ef61525b4d", "is_reserved": 0, "rental_uris": {"android": "https://dc.lft.to/lastmile_qr_scan", "ios": "https://dc.lft.to/lastmile_qr_scan"}, "fusion_lon": 0.0}, {"lat": 38.8625865, "is_disabled": 0, "type": "electric_scooter", "lon": -76.99517533333334, "bike_id": "5055fc67656957339f67674080da9650", "fusion_lat": 0.0, "name": "5055fc67656957339f67674080da9650", "is_reserved": 0, "rental_uris": {"android": "https://dc.lft.to/lastmile_qr_scan", "ios": "https://dc.lft.to/lastmile_qr_scan"}, "fusion_lon": 0.0}, {"lat": 38.93737483333334, "is_disabled": 0, "type": "electric_scooter", "lon": -77.03619316666666, "bike_id": "41ba68dbd9e8324cafdea32ca6411636", "fusion_lat": 0.0, "name": "41ba68dbd9e8324cafdea32ca6411636", "is_reserved": 0, "rental_uris": {"android": "https://dc.lft.to/lastmile_qr_scan", "ios": "https://dc.lft.to/lastmile_qr_scan"}, "fusion_lon": 0.0}, {"lat": 38.925949333333335, "is_disabled": 0, "type": "electric_scooter", "lon": -77.04399116666667, "bike_id": "67ef018f57cf372af8d8a41787cf5303", "fusion_lat": 0.0, "name": "67ef018f57cf372af8d8a41787cf5303", "is_reserved": 0, "rental_uris": {"android": "https://dc.lft.to/lastmile_qr_scan", "ios": "https://dc.lft.to/lastmile_qr_scan"}, "fusion_lon": 0.0}, {"lat": 38.9036535, "is_disabled": 0, "type": "electric_scooter", "lon": -77.0384885, "bike_id": "836e6deb5eaf9ded6dfeb7e1d69b6d94", "fusion_lat": 0.0, "name": "836e6deb5eaf9ded6dfeb7e1d69b6d94", "is_reserved": 0, "rental_uris": {"android": "https://dc.lft.to/lastmile_qr_scan", "ios": "https://dc.lft.to/lastmile_qr_scan"}, "fusion_lon": 0.0}, {"lat": 38.8984915, "is_disabled": 0, "type": "electric_scooter", "lon": -76.99031333333333, "bike_id": "be150fb823f4d82958ab4c66a43f3a2f", "fusion_lat": 0.0, "name": "be150fb823f4d82958ab4c66a43f3a2f", "is_reserved": 0, "rental_uris": {"android": "https://dc.lft.to/lastmile_qr_scan", "ios": "https://dc.lft.to/lastmile_qr_scan"}, "fusion_lon": 0.0}, {"lat": 38.897318166666665, "is_disabled": 0, "type": "electric_scooter", "lon": -77.04990233333334, "bike_id": "3f2a5fe1b7691186f9afa8ae6fa0b4ab", "fusion_lat": 0.0, "name": "3f2a5fe1b7691186f9afa8ae6fa0b4ab", "is_reserved": 0, "rental_uris": {"android": "https://dc.lft.to/lastmile_qr_scan", "ios": "https://dc.lft.to/lastmile_qr_scan"}, "fusion_lon": 0.0}, {"lat": 38.902562, "is_disabled": 0, "type": "electric_scooter", "lon": -77.0174505, "bike_id": "914c8231fa50a3176038232de0f833ad", "fusion_lat": 0.0, "name": "914c8231fa50a3176038232de0f833ad", "is_reserved": 0, "rental_uris": {"android": "https://dc.lft.to/lastmile_qr_scan", "ios": "https://dc.lft.to/lastmile_qr_scan"}, "fusion_lon": 0.0}, {"lat": 38.9097075, "is_disabled": 0, "type": "electric_scooter", "lon": -77.04783566666667, "bike_id": "01c6ed840e06914c40b39ed769604a04", "fusion_lat": 0.0, "name": "01c6ed840e06914c40b39ed769604a04", "is_reserved": 0, "rental_uris": {"android": "https://dc.lft.to/lastmile_qr_scan", "ios": "https://dc.lft.to/lastmile_qr_scan"}, "fusion_lon": 0.0}, {"lat": 38.9365725, "is_disabled": 0, "type": "electric_bike", "lon": -76.952205, "bike_id": "ff581db19b949d6db8ef953af02b9234", "fusion_lat": 0.0, "name": "ff581db19b949d6db8ef953af02b9234", "is_reserved": 0, "rental_uris": {"android": "https://dc.lft.to/lastmile_qr_scan", "ios": "https://dc.lft.to/lastmile_qr_scan"}, "fusion_lon": 0.0}, {"lat": 39.034250166666666, "is_disabled": 0, "type": "electric_bike", "lon": -77.04305983333333, "bike_id": "b4c62c9d397dc28fb3ec9eb47ec20bc7", "fusion_lat": 0.0, "name": "b4c62c9d397dc28fb3ec9eb47ec20bc7", "is_reserved": 0, "rental_uris": {"android": "https://dc.lft.to/lastmile_qr_scan", "ios": "https://dc.lft.to/lastmile_qr_scan"}, "fusion_lon": 0.0}, {"lat": 38.94552516666667, "is_disabled": 0, "type": "electric_bike", "lon": -76.89532683333333, "bike_id": "b5213cc55063339edb40af8346c55c73", "fusion_lat": 0.0, "name": "b5213cc55063339edb40af8346c55c73", "is_reserved": 0, "rental_uris": {"android": "https://dc.lft.to/lastmile_qr_scan", "ios": "https://dc.lft.to/lastmile_qr_scan"}, "fusion_lon": 0.0}, {"lat": 38.992590166666666, "is_disabled": 0, "type": "electric_scooter", "lon": -77.03654716666667, "bike_id": "32a9a9b90722cb02150f6dcc9768f02f", "fusion_lat": 0.0, "name": "32a9a9b90722cb02150f6dcc9768f02f", "is_reserved": 0, "rental_uris": {"android": "https://dc.lft.to/lastmile_qr_scan", "ios": "https://dc.lft.to/lastmile_qr_scan"}, "fusion_lon": 0.0}, {"lat": 38.90549466666667, "is_disabled": 0, "type": "electric_scooter", "lon": -77.00575133333334, "bike_id": "d984f8144ed8c963312b41f1bf24b512", "fusion_lat": 0.0, "name": "d984f8144ed8c963312b41f1bf24b512", "is_reserved": 0, "rental_uris": {"android": "https://dc.lft.to/lastmile_qr_scan", "ios": "https://dc.lft.to/lastmile_qr_scan"}, "fusion_lon": 0.0}, {"lat": 38.9119865, "is_disabled": 0, "type": "electric_scooter", "lon": -77.00191666666667, "bike_id": "c3f106006e0d126571412bb3e18aa327", "fusion_lat": 0.0, "name": "c3f106006e0d126571412bb3e18aa327", "is_reserved": 0, "rental_uris": {"android": "https://dc.lft.to/lastmile_qr_scan", "ios": "https://dc.lft.to/lastmile_qr_scan"}, "fusion_lon": 0.0}, {"lat": 38.88765866666667, "is_disabled": 0, "type": "electric_scooter", "lon": -76.95603233333334, "bike_id": "25cbbf6454edc1b95e1a818020e69532", "fusion_lat": 0.0, "name": "25cbbf6454edc1b95e1a818020e69532", "is_reserved": 0, "rental_uris": {"android": "https://dc.lft.to/lastmile_qr_scan", "ios": "https://dc.lft.to/lastmile_qr_scan"}, "fusion_lon": 0.0}, {"lat": 38.86623133333333, "is_disabled": 0, "type": "electric_scooter", "lon": -76.98697416666667, "bike_id": "63e7ab11d58d1ddb8a96f064efb88d1e", "fusion_lat": 0.0, "name": "63e7ab11d58d1ddb8a96f064efb88d1e", "is_reserved": 0, "rental_uris": {"android": "https://dc.lft.to/lastmile_qr_scan", "ios": "https://dc.lft.to/lastmile_qr_scan"}, "fusion_lon": 0.0}, {"lat": 38.884889666666666, "is_disabled": 0, "type": "electric_scooter", "lon": -77.007132, "bike_id": "405f810a9753dbbca5875a2f860de75e", "fusion_lat": 0.0, "name": "405f810a9753dbbca5875a2f860de75e", "is_reserved": 0, "rental_uris": {"android": "https://dc.lft.to/lastmile_qr_scan", "ios": "https://dc.lft.to/lastmile_qr_scan"}, "fusion_lon": 0.0}, {"lat": 38.9347655, "is_disabled": 0, "type": "electric_scooter", "lon": -77.03581133333333, "bike_id": "b4273e27b5e77461b28d47d9a1fab836", "fusion_lat": 0.0, "name": "b4273e27b5e77461b28d47d9a1fab836", "is_reserved": 0, "rental_uris": {"android": "https://dc.lft.to/lastmile_qr_scan", "ios": "https://dc.lft.to/lastmile_qr_scan"}, "fusion_lon": 0.0}, {"lat": 38.842916333333335, "is_disabled": 0, "type": "electric_scooter", "lon": -76.99936433333333, "bike_id": "330df419f19d5cf27010c2c658d13f4b", "fusion_lat": 0.0, "name": "330df419f19d5cf27010c2c658d13f4b", "is_reserved": 0, "rental_uris": {"android": "https://dc.lft.to/lastmile_qr_scan", "ios": "https://dc.lft.to/lastmile_qr_scan"}, "fusion_lon": 0.0}, {"lat": 38.84265116666667, "is_disabled": 0, "type": "electric_bike", "lon": -76.988382, "bike_id": "faeeb033db99cbfe674c3ff66c17e780", "fusion_lat": 0.0, "name": "faeeb033db99cbfe674c3ff66c17e780", "is_reserved": 0, "rental_uris": {"android": "https://dc.lft.to/lastmile_qr_scan", "ios": "https://dc.lft.to/lastmile_qr_scan"}, "fusion_lon": 0.0}, {"lat": 38.932288166666666, "is_disabled": 0, "type": "electric_scooter", "lon": -76.99600016666666, "bike_id": "dba1e0aff255e179e2ca0027ac9917e5", "fusion_lat": 0.0, "name": "dba1e0aff255e179e2ca0027ac9917e5", "is_reserved": 0, "rental_uris": {"android": "https://dc.lft.to/lastmile_qr_scan", "ios": "https://dc.lft.to/lastmile_qr_scan"}, "fusion_lon": 0.0}, {"lat": 38.942888333333336, "is_disabled": 0, "type": "electric_scooter", "lon": -77.0217235, "bike_id": "44b274fddec8c1c3e2b5698956d19ae8", "fusion_lat": 0.0, "name": "44b274fddec8c1c3e2b5698956d19ae8", "is_reserved": 0, "rental_uris": {"android": "https://dc.lft.to/lastmile_qr_scan", "ios": "https://dc.lft.to/lastmile_qr_scan"}, "fusion_lon": 0.0}, {"lat": 38.87576966666666, "is_disabled": 0, "type": "electric_bike", "lon": -77.105591, "bike_id": "5cd0eee9708a90c41ecde832b0de62f2", "fusion_lat": 0.0, "name": "5cd0eee9708a90c41ecde832b0de62f2", "is_reserved": 0, "rental_uris": {"android": "https://dc.lft.to/lastmile_qr_scan", "ios": "https://dc.lft.to/lastmile_qr_scan"}, "fusion_lon": 0.0}, {"lat": 38.914130666666665, "is_disabled": 0, "type": "electric_scooter", "lon": -77.03997666666666, "bike_id": "a7df1f4aa91780b4ab313d851c4be32c", "fusion_lat": 0.0, "name": "a7df1f4aa91780b4ab313d851c4be32c", "is_reserved": 0, "rental_uris": {"android": "https://dc.lft.to/lastmile_qr_scan", "ios": "https://dc.lft.to/lastmile_qr_scan"}, "fusion_lon": 0.0}, {"lat": 38.91472316666667, "is_disabled": 0, "type": "electric_scooter", "lon": -77.0034945, "bike_id": "8ba0746cdce1e610a390a15fee3ccf93", "fusion_lat": 0.0, "name": "8ba0746cdce1e610a390a15fee3ccf93", "is_reserved": 0, "rental_uris": {"android": "https://dc.lft.to/lastmile_qr_scan", "ios": "https://dc.lft.to/lastmile_qr_scan"}, "fusion_lon": 0.0}, {"lat": 38.90294466666667, "is_disabled": 0, "type": "electric_scooter", "lon": -77.00045783333333, "bike_id": "f9a8dfc2ac14f2b5bc7b2f9bf0432070", "fusion_lat": 0.0, "name": "f9a8dfc2ac14f2b5bc7b2f9bf0432070", "is_reserved": 0, "rental_uris": {"android": "https://dc.lft.to/lastmile_qr_scan", "ios": "https://dc.lft.to/lastmile_qr_scan"}, "fusion_lon": 0.0}, {"lat": 38.895041, "is_disabled": 0, "type": "electric_scooter", "lon": -77.02189866666667, "bike_id": "86dec8f7edf11c365a549745c012493e", "fusion_lat": 0.0, "name": "86dec8f7edf11c365a549745c012493e", "is_reserved": 0, "rental_uris": {"android": "https://dc.lft.to/lastmile_qr_scan", "ios": "https://dc.lft.to/lastmile_qr_scan"}, "fusion_lon": 0.0}, {"lat": 38.9248585, "is_disabled": 0, "type": "electric_scooter", "lon": -77.02837566666666, "bike_id": "a80905956c2c4d0f7ea7bb832340f424", "fusion_lat": 0.0, "name": "a80905956c2c4d0f7ea7bb832340f424", "is_reserved": 0, "rental_uris": {"android": "https://dc.lft.to/lastmile_qr_scan", "ios": "https://dc.lft.to/lastmile_qr_scan"}, "fusion_lon": 0.0}, {"lat": 38.92203083333333, "is_disabled": 0, "type": "electric_scooter", "lon": -77.03981633333333, "bike_id": "88f421d3695d2985db8917f32330961b", "fusion_lat": 0.0, "name": "88f421d3695d2985db8917f32330961b", "is_reserved": 0, "rental_uris": {"android": "https://dc.lft.to/lastmile_qr_scan", "ios": "https://dc.lft.to/lastmile_qr_scan"}, "fusion_lon": 0.0}, {"lat": 38.906876833333335, "is_disabled": 0, "type": "electric_scooter", "lon": -77.0626475, "bike_id": "6589031de12b3c59c7c7a15c2772a5c9", "fusion_lat": 0.0, "name": "6589031de12b3c59c7c7a15c2772a5c9", "is_reserved": 0, "rental_uris": {"android": "https://dc.lft.to/lastmile_qr_scan", "ios": "https://dc.lft.to/lastmile_qr_scan"}, "fusion_lon": 0.0}, {"lat": 38.986548666666664, "is_disabled": 0, "type": "electric_bike", "lon": -77.05638066666667, "bike_id": "ec72d1c6ccea1a7fffc8c16233570d34", "fusion_lat": 0.0, "name": "ec72d1c6ccea1a7fffc8c16233570d34", "is_reserved": 0, "rental_uris": {"android": "https://dc.lft.to/lastmile_qr_scan", "ios": "https://dc.lft.to/lastmile_qr_scan"}, "fusion_lon": 0.0}, {"lat": 38.915517, "is_disabled": 0, "type": "electric_scooter", "lon": -77.01231066666666, "bike_id": "d85c6945ad5d602f3f3feed08181f232", "fusion_lat": 0.0, "name": "d85c6945ad5d602f3f3feed08181f232", "is_reserved": 0, "rental_uris": {"android": "https://dc.lft.to/lastmile_qr_scan", "ios": "https://dc.lft.to/lastmile_qr_scan"}, "fusion_lon": 0.0}, {"lat": 38.84429216666667, "is_disabled": 0, "type": "electric_scooter", "lon": -76.99775, "bike_id": "93a1ec73c127eca363d3506aec6206dd", "fusion_lat": 0.0, "name": "93a1ec73c127eca363d3506aec6206dd", "is_reserved": 0, "rental_uris": {"android": "https://dc.lft.to/lastmile_qr_scan", "ios": "https://dc.lft.to/lastmile_qr_scan"}, "fusion_lon": 0.0}, {"lat": 38.9077375, "is_disabled": 0, "type": "electric_scooter", "lon": -77.03861133333334, "bike_id": "2e6a92b62a8422daf539d24357f88da3", "fusion_lat": 0.0, "name": "2e6a92b62a8422daf539d24357f88da3", "is_reserved": 0, "rental_uris": {"android": "https://dc.lft.to/lastmile_qr_scan", "ios": "https://dc.lft.to/lastmile_qr_scan"}, "fusion_lon": 0.0}, {"lat": 38.92304766666667, "is_disabled": 0, "type": "electric_bike", "lon": -76.993671, "bike_id": "e53d7506ebc6d3841a6d83f1380f58c5", "fusion_lat": 0.0, "name": "e53d7506ebc6d3841a6d83f1380f58c5", "is_reserved": 0, "rental_uris": {"android": "https://dc.lft.to/lastmile_qr_scan", "ios": "https://dc.lft.to/lastmile_qr_scan"}, "fusion_lon": 0.0}, {"lat": 38.95032716666667, "is_disabled": 0, "type": "electric_bike", "lon": -77.02962833333333, "bike_id": "0ef493134d6ad6185b86e8262e0c6ac1", "fusion_lat": 0.0, "name": "0ef493134d6ad6185b86e8262e0c6ac1", "is_reserved": 0, "rental_uris": {"android": "https://dc.lft.to/lastmile_qr_scan", "ios": "https://dc.lft.to/lastmile_qr_scan"}, "fusion_lon": 0.0}, {"lat": 38.90364816666667, "is_disabled": 0, "type": "electric_scooter", "lon": -77.042935, "bike_id": "381119f0d77540b54e714fe4f20a715d", "fusion_lat": 0.0, "name": "381119f0d77540b54e714fe4f20a715d", "is_reserved": 0, "rental_uris": {"android": "https://dc.lft.to/lastmile_qr_scan", "ios": "https://dc.lft.to/lastmile_qr_scan"}, "fusion_lon": 0.0}, {"lat": 38.925686, "is_disabled": 0, "type": "electric_scooter", "lon": -77.03536283333334, "bike_id": "76f5c1b8fc5c6683452c088ca198d93a", "fusion_lat": 0.0, "name": "76f5c1b8fc5c6683452c088ca198d93a", "is_reserved": 0, "rental_uris": {"android": "https://dc.lft.to/lastmile_qr_scan", "ios": "https://dc.lft.to/lastmile_qr_scan"}, "fusion_lon": 0.0}, {"lat": 38.90809383333333, "is_disabled": 0, "type": "electric_scooter", "lon": -76.98274133333334, "bike_id": "6f99a22df5b317cd625fb4f0683fdf72", "fusion_lat": 0.0, "name": "6f99a22df5b317cd625fb4f0683fdf72", "is_reserved": 0, "rental_uris": {"android": "https://dc.lft.to/lastmile_qr_scan", "ios": "https://dc.lft.to/lastmile_qr_scan"}, "fusion_lon": 0.0}, {"lat": 38.90272233333334, "is_disabled": 0, "type": "electric_scooter", "lon": -77.03379466666667, "bike_id": "4fc1dfa680f110d4d49b0c2d90073347", "fusion_lat": 0.0, "name": "4fc1dfa680f110d4d49b0c2d90073347", "is_reserved": 0, "rental_uris": {"android": "https://dc.lft.to/lastmile_qr_scan", "ios": "https://dc.lft.to/lastmile_qr_scan"}, "fusion_lon": 0.0}, {"lat": 38.8806195, "is_disabled": 0, "type": "electric_bike", "lon": -77.1095375, "bike_id": "5c20b81c5ab2fe802f5563c06f6a09a4", "fusion_lat": 0.0, "name": "5c20b81c5ab2fe802f5563c06f6a09a4", "is_reserved": 0, "rental_uris": {"android": "https://dc.lft.to/lastmile_qr_scan", "ios": "https://dc.lft.to/lastmile_qr_scan"}, "fusion_lon": 0.0}, {"lat": 38.90547483333334, "is_disabled": 0, "type": "electric_scooter", "lon": -77.0341065, "bike_id": "8e0ed1d6682cfc9d30746883a4364846", "fusion_lat": 0.0, "name": "8e0ed1d6682cfc9d30746883a4364846", "is_reserved": 0, "rental_uris": {"android": "https://dc.lft.to/lastmile_qr_scan", "ios": "https://dc.lft.to/lastmile_qr_scan"}, "fusion_lon": 0.0}, {"lat": 38.914174333333335, "is_disabled": 0, "type": "electric_scooter", "lon": -77.02207733333333, "bike_id": "13da7419067abc537162946ebee31ee0", "fusion_lat": 0.0, "name": "13da7419067abc537162946ebee31ee0", "is_reserved": 0, "rental_uris": {"android": "https://dc.lft.to/lastmile_qr_scan", "ios": "https://dc.lft.to/lastmile_qr_scan"}, "fusion_lon": 0.0}, {"lat": 38.893483833333335, "is_disabled": 0, "type": "electric_scooter", "lon": -76.9493415, "bike_id": "fc33db9e24b31c405b23862ee45da50d", "fusion_lat": 0.0, "name": "fc33db9e24b31c405b23862ee45da50d", "is_reserved": 0, "rental_uris": {"android": "https://dc.lft.to/lastmile_qr_scan", "ios": "https://dc.lft.to/lastmile_qr_scan"}, "fusion_lon": 0.0}, {"lat": 38.972742, "is_disabled": 0, "type": "electric_bike", "lon": -77.03623566666667, "bike_id": "a609521a46b311b302108741a5981941", "fusion_lat": 0.0, "name": "a609521a46b311b302108741a5981941", "is_reserved": 0, "rental_uris": {"android": "https://dc.lft.to/lastmile_qr_scan", "ios": "https://dc.lft.to/lastmile_qr_scan"}, "fusion_lon": 0.0}, {"lat": 38.894592833333334, "is_disabled": 0, "type": "electric_scooter", "lon": -77.02120233333333, "bike_id": "dae3b24ad716ffc95065c2e51b02e304", "fusion_lat": 0.0, "name": "dae3b24ad716ffc95065c2e51b02e304", "is_reserved": 0, "rental_uris": {"android": "https://dc.lft.to/lastmile_qr_scan", "ios": "https://dc.lft.to/lastmile_qr_scan"}, "fusion_lon": 0.0}, {"lat": 38.918178, "is_disabled": 0, "type": "electric_scooter", "lon": -77.0391605, "bike_id": "5cfc344bb6e2ea6db0fa63ec12f7a8c6", "fusion_lat": 0.0, "name": "5cfc344bb6e2ea6db0fa63ec12f7a8c6", "is_reserved": 0, "rental_uris": {"android": "https://dc.lft.to/lastmile_qr_scan", "ios": "https://dc.lft.to/lastmile_qr_scan"}, "fusion_lon": 0.0}, {"lat": 38.9097685, "is_disabled": 0, "type": "electric_bike", "lon": -76.98520283333333, "bike_id": "125356d7585c13eef5b02a7af3bd58c5", "fusion_lat": 0.0, "name": "125356d7585c13eef5b02a7af3bd58c5", "is_reserved": 0, "rental_uris": {"android": "https://dc.lft.to/lastmile_qr_scan", "ios": "https://dc.lft.to/lastmile_qr_scan"}, "fusion_lon": 0.0},