{"data": {"bikes": [{"rental_uris": {"android": "https://dc.lft.to/lastmile_qr_scan", "ios": "https://dc.lft.to/lastmile_qr_scan"}, "type": "electric_scooter", "lon": -77.01025883333334, "name": "430f77c6cb6989e73fadceaf419e6270", "bike_id": "430f77c6cb6989e73fadceaf419e6270", "fusion_lat": 0.0, "is_reserved": 0, "lat": 38.90637183333333, "fusion_lon": 0.0, "is_disabled": 0}, {"rental_uris": {"android": "https://dc.lft.to/lastmile_qr_scan", "ios": "https://dc.lft.to/lastmile_qr_scan"}, "type": "electric_scooter", "lon": -77.02727366666667, "name": "4fcd6b56a1af4ce483c4b01f4d9f4249", "bike_id": "4fcd6b56a1af4ce483c4b01f4d9f4249", "fusion_lat": 0.0, "is_reserved": 0, "lat": 38.93978883333333, "fusion_lon": 0.0, "is_disabled": 0}, {"rental_uris": {"android": "https://dc.lft.to/lastmile_qr_scan", "ios": "https://dc.lft.to/lastmile_qr_scan"}, "type": "electric_scooter", "lon": -77.06444383333333, "name": "dc61aa3515221ecef61cb50ea38cf0b5", "bike_id": "dc61aa3515221ecef61cb50ea38cf0b5", "fusion_lat": 0.0, "is_reserved": 0, "lat": 38.909885333333335, "fusion_lon": 0.0, "is_disabled": 0}, {"rental_uris": {"android": "https://dc.lft.to/lastmile_qr_scan", "ios": "https://dc.lft.to/lastmile_qr_scan"}, "type": "electric_scooter", "lon": -76.98733266666666, "name": "712986f3103d5bf5875462aa785895da", "bike_id": "712986f3103d5bf5875462aa785895da", "fusion_lat": 0.0, "is_reserved": 0, "lat": 38.867027666666665, "fusion_lon": 0.0, "is_disabled": 0}, {"rental_uris": {"android": "https://dc.lft.to/lastmile_qr_scan", "ios": "https://dc.lft.to/lastmile_qr_scan"}, "type": "electric_scooter", "lon": -77.03196666666666, "name": "52408ea25a5558bc96d6483778f9e8ee", "bike_id": "52408ea25a5558bc96d6483778f9e8ee", "fusion_lat": 0.0, "is_reserved": 0, "lat": 38.893180666666666, "fusion_lon": 0.0, "is_disabled": 0}, {"rental_uris": {"android": "https://dc.lft.to/lastmile_qr_scan", "ios": "https://dc.lft.to/lastmile_qr_scan"}, "type": "electric_scooter", "lon": -77.019948, "name": "3c95c4baad3a2afd97fb128f200b82f2", "bike_id": "3c95c4baad3a2afd97fb128f200b82f2", "fusion_lat": 0.0, "is_reserved": 0, "lat": 38.89836733333333, "fusion_lon": 0.0, "is_disabled": 0}, {"rental_uris": {"android": "https://dc.lft.to/lastmile_qr_scan", "ios": "https://dc.lft.to/lastmile_qr_scan"}, "type": "electric_scooter", "lon": -77.02347466666667, "name": "563244299a0bf8890c0e17c876346235", "bike_id": "563244299a0bf8890c0e17c876346235", "fusion_lat": 0.0, "is_reserved": 0, "lat": 38.922601, "fusion_lon": 0.0, "is_disabled": 0}, {"rental_uris": {"android": "https://dc.lft.to/lastmile_qr_scan", "ios": "https://dc.lft.to/lastmile_qr_scan"}, "type": "electric_bike", "lon": -77.10708333333334, "name": "e82e161c2a25027a97aed0c5b72c02eb", "bike_id": "e82e161c2a25027a97aed0c5b72c02eb", "fusion_lat": 0.0, "is_reserved": 0, "lat": 38.85528766666667, "fusion_lon": 0.0, "is_disabled": 0}, {"rental_uris": {"android": "https://dc.lft.to/lastmile_qr_scan", "ios": "https://dc.lft.to/lastmile_qr_scan"}, "type": "electric_bike", "lon": -76.95211016666667, "name": "f4e06c2d60f312a8390fc4fce96a7e9a", "bike_id": "f4e06c2d60f312a8390fc4fce96a7e9a", "fusion_lat": 0.0, "is_reserved": 0, "lat": 38.936632833333334, "fusion_lon": 0.0, "is_disabled": 0}, {"rental_uris": {"android": "https://dc.lft.to/lastmile_qr_scan", "ios": "https://dc.lft.to/lastmile_qr_scan"}, "type": "electric_scooter", "lon": -77.01696016666666, "name": "1e5425ab34f65a22e435d52cdb15dceb", "bike_id": "1e5425ab34f65a22e435d52cdb15dceb", "fusion_lat": 0.0, "is_reserved": 0, "lat": 38.91101966666667, "fusion_lon": 0.0, "is_disabled": 0}, {"rental_uris": {"android": "https://dc.lft.to/lastmile_qr_scan", "ios": "https://dc.lft.to/lastmile_qr_scan"}, "type": "electric_scooter", "lon": -77.05133633333334, "name": "5439c43a8e916d677d9db371e776e60c", "bike_id": "5439c43a8e916d677d9db371e776e60c", "fusion_lat": 0.0, "is_reserved": 0, "lat": 38.905178, "fusion_lon": 0.0, "is_disabled": 0}, {"rental_uris": {"android": "https://dc.lft.to/lastmile_qr_scan", "ios": "https://dc.lft.to/lastmile_qr_scan"}, "type": "electric_scooter", "lon": -77.02495833333333, "name": "330bfddff209a3a9f7a32d7a5cd4e06c", "bike_id": "330bfddff209a3a9f7a32d7a5cd4e06c", "fusion_lat": 0.0, "is_reserved": 0, "lat": 38.92065516666667, "fusion_lon": 0.0, "is_disabled": 0}, {"rental_uris": {"android": "https://dc.lft.to/lastmile_qr_scan", "ios": "https://dc.lft.to/lastmile_qr_scan"}, "type": "electric_scooter", "lon": -77.02813316666666, "name": "0bb533db3b30bdaeb6b59a30134427ae", "bike_id": "0bb533db3b30bdaeb6b59a30134427ae", "fusion_lat": 0.0, "is_reserved": 0, "lat": 38.906184333333336, "fusion_lon": 0.0, "is_disabled": 0}, {"rental_uris": {"android": "https://dc.lft.to/lastmile_qr_scan", "ios": "https://dc.lft.to/lastmile_qr_scan"}, "type": "electric_scooter", "lon": -77.00890783333334, "name": "1495edea883a45ff54f7bb08551ba0fe", "bike_id": "1495edea883a45ff54f7bb08551ba0fe", "fusion_lat": 0.0, "is_reserved": 0, "lat": 38.87625333333333, "fusion_lon": 0.0, "is_disabled": 0}, {"rental_uris": {"android": "https://dc.lft.to/lastmile_qr_scan", "ios": "https://dc.lft.to/lastmile_qr_scan"}, "type": "electric_scooter", "lon": -77.03110816666667, "name": "d9f1c47d15f947237d4e89c62c2f3c50", "bike_id": "d9f1c47d15f947237d4e89c62c2f3c50", "fusion_lat": 0.0, "is_reserved": 0, "lat": 38.89221216666667, "fusion_lon": 0.0, "is_disabled": 0}, {"rental_uris": {"android": "https://dc.lft.to/lastmile_qr_scan", "ios": "https://dc.lft.to/lastmile_qr_scan"}, "type": "electric_scooter", "lon": -77.0120685, "name": "a005c95c1179f2d9f765103517398b9e", "bike_id": "a005c95c1179f2d9f765103517398b9e", "fusion_lat": 0.0, "is_reserved": 0, "lat": 38.87150966666667, "fusion_lon": 0.0, "is_disabled": 0}, {"rental_uris": {"android": "https://dc.lft.to/lastmile_qr_scan", "ios": "https://dc.lft.to/lastmile_qr_scan"}, "type": "electric_scooter", "lon": -77.03470616666667, "name": "0833fea553be867970d970839f2c1ec1", "bike_id": "0833fea553be867970d970839f2c1ec1", "fusion_lat": 0.0, "is_reserved": 0, "lat": 38.902552166666666, "fusion_lon": 0.0, "is_disabled": 0}, {"rental_uris": {"android": "https://dc.lft.to/lastmile_qr_scan", "ios": "https://dc.lft.to/lastmile_qr_scan"}, "type": "electric_scooter", "lon": -77.04680216666667, "name": "a3467d7157964127fe6cd50b86b2c54f", "bike_id": "a3467d7157964127fe6cd50b86b2c54f", "fusion_lat": 0.0, "is_reserved": 0, "lat": 38.91580966666667, "fusion_lon": 0.0, "is_disabled": 0}, {"rental_uris": {"android": "https://dc.lft.to/lastmile_qr_scan", "ios": "https://dc.lft.to/lastmile_qr_scan"}, "type": "electric_scooter", "lon": -77.03069616666667, "name": "b3e96e094ae30772f8972ce6ae924c5a", "bike_id": "b3e96e094ae30772f8972ce6ae924c5a", "fusion_lat": 0.0, "is_reserved": 0, "lat": 38.88042683333333, "fusion_lon": 0.0, "is_disabled": 0}, {"rental_uris": {"android": "https://dc.lft.to/lastmile_qr_scan", "ios": "https://dc.lft.to/lastmile_qr_scan"}, "type": "electric_scooter", "lon": -77.03444066666667, "name": "5de60c4f6fc27bc36492447e84fa75c4", "bike_id": "5de60c4f6fc27bc36492447e84fa75c4", "fusion_lat": 0.0, "is_reserved": 0, "lat": 38.9100795, "fusion_lon": 0.0, "is_disabled": 0}, {"rental_uris": {"android": "https://dc.lft.to/lastmile_qr_scan", "ios": "https://dc.lft.to/lastmile_qr_scan"}, "type": "electric_scooter", "lon": -77.02596183333333, "name": "d833c8854d755e5fc1c285f4fc519c83", "bike_id": "d833c8854d755e5fc1c285f4fc519c83", "fusion_lat": 0.0, "is_reserved": 0, "lat": 38.8969895, "fusion_lon": 0.0, "is_disabled": 0}, {"rental_uris": {"android": "https://dc.lft.to/lastmile_qr_scan", "ios": "https://dc.lft.to/lastmile_qr_scan"}, "type": "electric_scooter", "lon": -77.03208666666667, "name": "73d884501155ce183d33878d3fa62598", "bike_id": "73d884501155ce183d33878d3fa62598", "fusion_lat": 0.0, "is_reserved": 0, "lat": 38.90918, "fusion_lon": 0.0, "is_disabled": 0}, {"rental_uris": {"android": "https://dc.lft.to/lastmile_qr_scan", "ios": "https://dc.lft.to/lastmile_qr_scan"}, "type": "electric_scooter", "lon": -76.929531, "name": "de5fd1f02f3782986c9b8dde6537372c", "bike_id": "de5fd1f02f3782986c9b8dde6537372c", "fusion_lat": 0.0, "is_reserved": 0, "lat": 38.898815666666664, "fusion_lon": 0.0, "is_disabled": 0}, {"rental_uris": {"android": "https://dc.lft.to/lastmile_qr_scan", "ios": "https://dc.lft.to/lastmile_qr_scan"}, "type": "electric_scooter", "lon": -77.02782016666667, "name": "c2b7c68e6fc8ca2f6b3c91f041bf7471", "bike_id": "c2b7c68e6fc8ca2f6b3c91f041bf7471", "fusion_lat": 0.0, "is_reserved": 0, "lat": 38.8816485, "fusion_lon": 0.0, "is_disabled": 0}, {"rental_uris": {"android": "https://dc.lft.to/lastmile_qr_scan", "ios": "https://dc.lft.to/lastmile_qr_scan"}, "type": "electric_bike", "lon": -77.13177733333333, "name": "50e41edd20a77f8a07bca02a238fee23", "bike_id": "50e41edd20a77f8a07bca02a238fee23", "fusion_lat": 0.0, "is_reserved": 0, "lat": 38.869056666666665, "fusion_lon": 0.0, "is_disabled": 0}, {"rental_uris": {"android": "https://dc.lft.to/lastmile_qr_scan", "ios": "https://dc.lft.to/lastmile_qr_scan"}, "type": "electric_bike", "lon": -76.9976775, "name": "21b13c4061b759599f91adbc6fc78d9b", "bike_id": "21b13c4061b759599f91adbc6fc78d9b", "fusion_lat": 0.0, "is_reserved": 0, "lat": 39.005905, "fusion_lon": 0.0, "is_disabled": 0}, {"rental_uris": {"android": "https://dc.lft.to/lastmile_qr_scan", "ios": "https://dc.lft.to/lastmile_qr_scan"}, "type": "electric_scooter", "lon": -77.03417133333333, "name": "3cffaf7f53e931641e592b8ed8cf0c66", "bike_id": "3cffaf7f53e931641e592b8ed8cf0c66", "fusion_lat": 0.0, "is_reserved": 0, "lat": 38.929429, "fusion_lon": 0.0, "is_disabled": 0}, {"rental_uris": {"android": "https://dc.lft.to/lastmile_qr_scan", "ios": "https://dc.lft.to/lastmile_qr_scan"}, "type": "electric_scooter", "lon": -76.99155716666667, "name": "d2963660f711bb4101800c648424810c", "bike_id": "d2963660f711bb4101800c648424810c", "fusion_lat": 0.0, "is_reserved": 0, "lat": 38.87904366666667, "fusion_lon": 0.0, "is_disabled": 0}, {"rental_uris": {"android": "https://dc.lft.to/lastmile_qr_scan", "ios": "https://dc.lft.to/lastmile_qr_scan"}, "type": "electric_scooter", "lon": -77.0121055, "name": "2f01a4702a7c42972c974d364f5b6c90", "bike_id": "2f01a4702a7c42972c974d364f5b6c90", "fusion_lat": 0.0, "is_reserved": 0, "lat": 38.8933085, "fusion_lon": 0.0, "is_disabled": 0}, {"rental_uris": {"android": "https://dc.lft.to/lastmile_qr_scan", "ios": "https://dc.lft.to/lastmile_qr_scan"}, "type": "electric_bike", "lon": -77.09569483333334, "name": "8522065f39a44b42cfbdbecb0ac51e88", "bike_id": "8522065f39a44b42cfbdbecb0ac51e88", "fusion_lat": 0.0, "is_reserved": 0, "lat": 38.9853815, "fusion_lon": 0.0, "is_disabled": 0}, {"rental_uris": {"android": "https://dc.lft.to/lastmile_qr_scan", "ios": "https://dc.lft.to/lastmile_qr_scan"}, "type": "electric_scooter", "lon": -77.0261455, "name": "2848ade2fab4eb9abbf17b6701f63e4e", "bike_id": "2848ade2fab4eb9abbf17b6701f63e4e", "fusion_lat": 0.0, "is_reserved": 0, "lat": 38.9169545, "fusion_lon": 0.0, "is_disabled": 0}, {"rental_uris": {"android": "https://dc.lft.to/lastmile_qr_scan", "ios": "https://dc.lft.to/lastmile_qr_scan"}, "type": "electric_scooter", "lon": -77.03869416666667, "name": "167614126e723eecc87f5fa7ab4dc840", "bike_id": "167614126e723eecc87f5fa7ab4dc840", "fusion_lat": 0.0, "is_reserved": 0, "lat": 38.91103733333333, "fusion_lon": 0.0, "is_disabled": 0}, {"rental_uris": {"android": "https://dc.lft.to/lastmile_qr_scan", "ios": "https://dc.lft.to/lastmile_qr_scan"}, "type": "electric_scooter", "lon": -77.00523316666667, "name": "0d5954ba02517608b8b4b43d8ad5426f", "bike_id": "0d5954ba02517608b8b4b43d8ad5426f", "fusion_lat": 0.0, "is_reserved": 0, "lat": 38.89671933333333, "fusion_lon": 0.0, "is_disabled": 0}, {"rental_uris": {"android": "https://dc.lft.to/lastmile_qr_scan", "ios": "https://dc.lft.to/lastmile_qr_scan"}, "type": "electric_scooter", "lon": -77.03766183333333, "name": "2ece689efbe152827d83ea27cd2aa17b", "bike_id": "2ece689efbe152827d83ea27cd2aa17b", "fusion_lat": 0.0, "is_reserved": 0, "lat": 38.924634166666664, "fusion_lon": 0.0, "is_disabled": 0}, {"rental_uris": {"android": "https://dc.lft.to/lastmile_qr_scan", "ios": "https://dc.lft.to/lastmile_qr_scan"}, "type": "electric_bike", "lon": -77.35314933333333, "name": "6235d34c75251014d74e07346c69dd75", "bike_id": "6235d34c75251014d74e07346c69dd75", "fusion_lat": 0.0, "is_reserved": 0, "lat": 38.949949, "fusion_lon": 0.0, "is_disabled": 0}, {"rental_uris": {"android": "https://dc.lft.to/lastmile_qr_scan", "ios": "https://dc.lft.to/lastmile_qr_scan"}, "type": "electric_scooter", "lon": -77.03378516666666, "name": "81bb2fd640bc581ffa5cc0149b46c794", "bike_id": "81bb2fd640bc581ffa5cc0149b46c794", "fusion_lat": 0.0, "is_reserved": 0, "lat": 38.9098125, "fusion_lon": 0.0, "is_disabled": 0}, {"rental_uris": {"android": "https://dc.lft.to/lastmile_qr_scan", "ios": "https://dc.lft.to/lastmile_qr_scan"}, "type": "electric_scooter", "lon": -76.997112, "name": "ad0e41c27581985aa3bac951ed7b467f", "bike_id": "ad0e41c27581985aa3bac951ed7b467f", "fusion_lat": 0.0, "is_reserved": 0, "lat": 38.91109616666667, "fusion_lon": 0.0, "is_disabled": 0}, {"rental_uris": {"android": "https://dc.lft.to/lastmile_qr_scan", "ios": "https://dc.lft.to/lastmile_qr_scan"}, "type": "electric_scooter", "lon": -76.94655416666667, "name": "4c586d95b86fedd5c8f0c67feb10fd02", "bike_id": "4c586d95b86fedd5c8f0c67feb10fd02", "fusion_lat": 0.0, "is_reserved": 0, "lat": 38.89824183333333, "fusion_lon": 0.0, "is_disabled": 0}, {"rental_uris": {"android": "https://dc.lft.to/lastmile_qr_scan", "ios": "https://dc.lft.to/lastmile_qr_scan"}, "type": "electric_scooter", "lon": -77.03000416666667, "name": "b39c9b3ab58dc3aa1ad3e75d96b1cb86", "bike_id": "b39c9b3ab58dc3aa1ad3e75d96b1cb86", "fusion_lat": 0.0, "is_reserved": 0, "lat": 38.92793133333333, "fusion_lon": 0.0, "is_disabled": 0}, {"rental_uris": {"android": "https://dc.lft.to/lastmile_qr_scan", "ios": "https://dc.lft.to/lastmile_qr_scan"}, "type": "electric_scooter", "lon": -77.063527, "name": "ba76e945ccd81d37a239f3d54bc3ade8", "bike_id": "ba76e945ccd81d37a239f3d54bc3ade8", "fusion_lat": 0.0, "is_reserved": 0, "lat": 38.9132625, "fusion_lon": 0.0, "is_disabled": 0}, {"rental_uris": {"android": "https://dc.lft.to/lastmile_qr_scan", "ios": "https://dc.lft.to/lastmile_qr_scan"}, "type": "electric_scooter", "lon": -77.021795, "name": "738f5ce3f349abf4f9d1d69338a95d5f", "bike_id": "738f5ce3f349abf4f9d1d69338a95d5f", "fusion_lat": 0.0, "is_reserved": 0, "lat": 38.89229816666667, "fusion_lon": 0.0, "is_disabled": 0}, {"rental_uris": {"android": "https://dc.lft.to/lastmile_qr_scan", "ios": "https://dc.lft.to/lastmile_qr_scan"}, "type": "electric_scooter", "lon": -77.03447383333334, "name": "f8657a6239ce91ee26fda51de63f8190", "bike_id": "f8657a6239ce91ee26fda51de63f8190", "fusion_lat": 0.0, "is_reserved": 0, "lat": 38.90259116666667, "fusion_lon": 0.0, "is_disabled": 0}, {"rental_uris": {"android": "https://dc.lft.to/lastmile_qr_scan", "ios": "https://dc.lft.to/lastmile_qr_scan"}, "type": "electric_scooter", "lon": -77.078882, "name": "b76583e1bfc7a2e9c5261b820c0d71bb", "bike_id": "b76583e1bfc7a2e9c5261b820c0d71bb", "fusion_lat": 0.0, "is_reserved": 0, "lat": 38.94856333333333, "fusion_lon": 0.0, "is_disabled": 0}, {"rental_uris": {"android": "https://dc.lft.to/lastmile_qr_scan", "ios": "https://dc.lft.to/lastmile_qr_scan"}, "type": "electric_scooter", "lon": -76.9746665, "name": "c596f72241f13a8e67b34905d9826ab8", "bike_id": "c596f72241f13a8e67b34905d9826ab8", "fusion_lat": 0.0, "is_reserved": 0, "lat": 38.88394433333333, "fusion_lon": 0.0, "is_disabled": 0}, {"rental_uris": {"android": "https://dc.lft.to/lastmile_qr_scan", "ios": "https://dc.lft.to/lastmile_qr_scan"}, "type": "electric_scooter", "lon": -76.94728133333334, "name": "14dc719162080d5871ff1934feab7f94", "bike_id": "14dc719162080d5871ff1934feab7f94", "fusion_lat": 0.0, "is_reserved": 0, "lat": 38.89736, "fusion_lon": 0.0, "is_disabled": 0}, {"rental_uris": {"android": "https://dc.lft.to/lastmile_qr_scan", "ios": "https://dc.lft.to/lastmile_qr_scan"}, "type": "electric_scooter", "lon": -77.01734283333333, "name": "8f0c9bd34949395637d2e60d162db39d", "bike_id": "8f0c9bd34949395637d2e60d162db39d", "fusion_lat": 0.0, "is_reserved": 0, "lat": 38.942051, "fusion_lon": 0.0, "is_disabled": 0}, {"rental_uris": {"android": "https://dc.lft.to/lastmile_qr_scan", "ios": "https://dc.lft.to/lastmile_qr_scan"}, "type": "electric_scooter", "lon": -77.048117, "name": "7d5c736f57a8fe6bb8cc123a6c893052", "bike_id": "7d5c736f57a8fe6bb8cc123a6c893052", "fusion_lat": 0.0, "is_reserved": 0, "lat": 38.919157166666665, "fusion_lon": 0.0, "is_disabled": 0}, {"rental_uris": {"android": "https://dc.lft.to/lastmile_qr_scan", "ios": "https://dc.lft.to/lastmile_qr_scan"}, "type": "electric_bike", "lon": -76.987428, "name": "463c074358570e1fe4e3829612371c28", "bike_id": "463c074358570e1fe4e3829612371c28", "fusion_lat": 0.0, "is_reserved": 0, "lat": 38.857872666666665, "fusion_lon": 0.0, "is_disabled": 0}, {"rental_uris": {"android": "https://dc.lft.to/lastmile_qr_scan", "ios": "https://dc.lft.to/lastmile_qr_scan"}, "type": "electric_scooter", "lon": -76.99818866666666, "name": "aea96e085b3da51b9467587352058ef5", "bike_id": "aea96e085b3da51b9467587352058ef5", "fusion_lat": 0.0, "is_reserved": 0, "lat": 38.84425933333333, "fusion_lon": 0.0, "is_disabled": 0}, {"rental_uris": {"android": "https://dc.lft.to/lastmile_qr_scan", "ios": "https://dc.lft.to/lastmile_qr_scan"}, "type": "electric_scooter", "lon": -77.00582833333333, "name": "8c87d5ca1c963effda5988f34b403fbd", "bike_id": "8c87d5ca1c963effda5988f34b403fbd", "fusion_lat": 0.0, "is_reserved": 0, "lat": 38.876507833333335, "fusion_lon": 0.0, "is_disabled": 0}, {"rental_uris": {"android": "https://dc.lft.to/lastmile_qr_scan", "ios": "https://dc.lft.to/lastmile_qr_scan"}, "type": "electric_scooter", "lon": -77.02173083333334, "name": "465da9c9d8293fb56c2d6a34901a9ffe", "bike_id": "465da9c9d8293fb56c2d6a34901a9ffe", "fusion_lat": 0.0, "is_reserved": 0, "lat": 38.897278666666665, "fusion_lon": 0.0, "is_disabled": 0}, {"rental_uris": {"android": "https://dc.lft.to/lastmile_qr_scan", "ios": "https://dc.lft.to/lastmile_qr_scan"}, "type": "electric_scooter", "lon": -77.02622983333333, "name": "232d7da6cb1402f2d073332eaafe3098", "bike_id": "232d7da6cb1402f2d073332eaafe3098", "fusion_lat": 0.0, "is_reserved": 0, "lat": 38.8859355, "fusion_lon": 0.0, "is_disabled": 0}, {"rental_uris": {"android": "https://dc.lft.to/lastmile_qr_scan", "ios": "https://dc.lft.to/lastmile_qr_scan"}, "type": "electric_scooter", "lon": -77.03347783333334, "name": "68dbdd02002e8c804f72b18756db11d5", "bike_id": "68dbdd02002e8c804f72b18756db11d5", "fusion_lat": 0.0, "is_reserved": 0, "lat": 38.92238033333334, "fusion_lon": 0.0, "is_disabled": 0}, {"rental_uris": {"android": "https://dc.lft.to/lastmile_qr_scan", "ios": "https://dc.lft.to/lastmile_qr_scan"}, "type": "electric_scooter", "lon": -77.0221815, "name": "87d445bea8b319c610dd93a2e4824396", "bike_id": "87d445bea8b319c610dd93a2e4824396", "fusion_lat": 0.0, "is_reserved": 0, "lat": 38.91565033333333, "fusion_lon": 0.0, "is_disabled": 0}, {"rental_uris": {"android": "https://dc.lft.to/lastmile_qr_scan", "ios": "https://dc.lft.to/lastmile_qr_scan"}, "type": "electric_scooter", "lon": -77.029686, "name": "226ee8fe85f325826286907bed5255d5", "bike_id": "226ee8fe85f325826286907bed5255d5", "fusion_lat": 0.0, "is_reserved": 0, "lat": 38.8921645, "fusion_lon": 0.0, "is_disabled": 0}, {"rental_uris": {"android": "https://dc.lft.to/lastmile_qr_scan", "ios": "https://dc.lft.to/lastmile_qr_scan"}, "type": "electric_bike", "lon": -77.12627833333333, "name": "7f042eea93b039426959ee2ecd28ec92", "bike_id": "7f042eea93b039426959ee2ecd28ec92", "fusion_lat": 0.0, "is_reserved": 0, "lat": 39.058122833333336, "fusion_lon": 0.0, "is_disabled": 0}, {"rental_uris": {"android": "https://dc.lft.to/lastmile_qr_scan", "ios": "https://dc.lft.to/lastmile_qr_scan"}, "type": "electric_bike", "lon": -77.08531566666667, "name": "7bd15367f90b1671cb3c647fbf234501", "bike_id": "7bd15367f90b1671cb3c647fbf234501", "fusion_lat": 0.0, "is_reserved": 0, "lat": 38.85643733333333, "fusion_lon": 0.0, "is_disabled": 0}, {"rental_uris": {"android": "https://dc.lft.to/lastmile_qr_scan", "ios": "https://dc.lft.to/lastmile_qr_scan"}, "type": "electric_scooter", "lon": -77.01105216666667, "name": "f1c70b8e6c070e35bdade6a87c1cae8a", "bike_id": "f1c70b8e6c070e35bdade6a87c1cae8a", "fusion_lat": 0.0, "is_reserved": 0, "lat": 38.90348783333334, "fusion_lon": 0.0, "is_disabled": 0}, {"rental_uris": {"android": "https://dc.lft.to/lastmile_qr_scan", "ios": "https://dc.lft.to/lastmile_qr_scan"}, "type": "electric_scooter", "lon": -77.03207966666666, "name": "6d59fa79bb5e203ca3defd6633472270", "bike_id": "6d59fa79bb5e203ca3defd6633472270", "fusion_lat": 0.0, "is_reserved": 0, "lat": 38.922773666666664, "fusion_lon": 0.0, "is_disabled": 0}, {"rental_uris": {"android": "https://dc.lft.to/lastmile_qr_scan", "ios": "https://dc.lft.to/lastmile_qr_scan"}, "type": "electric_scooter", "lon": -77.02549183333333, "name": "8f8b44b67e51a870b5b8096e29335b74", "bike_id": "8f8b44b67e51a870b5b8096e29335b74", "fusion_lat": 0.0, "is_reserved": 0, "lat": 38.892120166666665, "fusion_lon": 0.0, "is_disabled": 0}, {"rental_uris": {"android": "https://dc.lft.to/lastmile_qr_scan", "ios": "https://dc.lft.to/lastmile_qr_scan"}, "type": "electric_scooter", "lon": -76.94844833333333, "name": "11650eca796b971a36520e4e282ddb85", "bike_id": "11650eca796b971a36520e4e282ddb85", "fusion_lat": 0.0, "is_reserved": 0, "lat": 38.8948155, "fusion_lon": 0.0, "is_disabled": 0}, {"rental_uris": {"android": "https://dc.lft.to/lastmile_qr_scan", "ios": "https://dc.lft.to/lastmile_qr_scan"}, "type": "electric_scooter", "lon": -77.0484905, "name": "909cef72e7bafafd6fbeb76a33b41c02", "bike_id": "909cef72e7bafafd6fbeb76a33b41c02", "fusion_lat": 0.0, "is_reserved": 0, "lat": 38.913266666666665, "fusion_lon": 0.0, "is_disabled": 0}, {"rental_uris": {"android": "https://dc.lft.to/lastmile_qr_scan", "ios": "https://dc.lft.to/lastmile_qr_scan"}, "type": "electric_scooter", "lon": -76.99485916666667, "name": "a4038cc99a3dd60ffe40dafde5e7a89c", "bike_id": "a4038cc99a3dd60ffe40dafde5e7a89c", "fusion_lat": 0.0, "is_reserved": 0, "lat": 38.877342, "fusion_lon": 0.0, "is_disabled": 0}, {"rental_uris": {"android": "https://dc.lft.to/lastmile_qr_scan", "ios": "https://dc.lft.to/lastmile_qr_scan"}, "type": "electric_scooter", "lon": -77.01925116666666, "name": "cab4f5f0b24b379152ba7bab5f9805f5", "bike_id": "cab4f5f0b24b379152ba7bab5f9805f5", "fusion_lat": 0.0, "is_reserved": 0, "lat": 38.93571216666667, "fusion_lon": 0.0, "is_disabled": 0}, {"rental_uris": {"android": "https://dc.lft.to/lastmile_qr_scan", "ios": "https://dc.lft.to/lastmile_qr_scan"}, "type": "electric_scooter", "lon": -77.02177316666666, "name": "46ba9e318153f79b1783b02486affb46", "bike_id": "46ba9e318153f79b1783b02486affb46", "fusion_lat": 0.0, "is_reserved": 0, "lat": 38.88491666666667, "fusion_lon": 0.0, "is_disabled": 0}, {"rental_uris": {"android": "https://dc.lft.to/lastmile_qr_scan", "ios": "https://dc.lft.to/lastmile_qr_scan"}, "type": "electric_scooter", "lon": -77.00231166666667, "name": "0f3cb8a0d0ed6f0ccc2659bcc2e39d45", "bike_id": "0f3cb8a0d0ed6f0ccc2659bcc2e39d45", "fusion_lat": 0.0, "is_reserved": 0, "lat": 38.87493166666667, "fusion_lon": 0.0, "is_disabled": 0}, {"rental_uris": {"android": "https://dc.lft.to/lastmile_qr_scan", "ios": "https://dc.lft.to/lastmile_qr_scan"}, "type": "electric_scooter", "lon": -77.0417385, "name": "15c2a9c1a9becc35e8db86b680e6a71e", "bike_id": "15c2a9c1a9becc35e8db86b680e6a71e", "fusion_lat": 0.0, "is_reserved": 0, "lat": 38.91335866666667, "fusion_lon": 0.0, "is_disabled": 0}, {"rental_uris": {"android": "https://dc.lft.to/lastmile_qr_scan", "ios": "https://dc.lft.to/lastmile_qr_scan"}, "type": "electric_scooter", "lon": -77.03298233333334, "name": "5ac12a7dbeebb58f1038db6eb0c36158", "bike_id": "5ac12a7dbeebb58f1038db6eb0c36158", "fusion_lat": 0.0, "is_reserved": 0, "lat": 38.95647666666667, "fusion_lon": 0.0, "is_disabled": 0}, {"rental_uris": {"android": "https://dc.lft.to/lastmile_qr_scan", "ios": "https://dc.lft.to/lastmile_qr_scan"}, "type": "electric_bike", "lon": -77.10994583333333, "name": "5766a2a010adfd26b1bad874b05c786e", "bike_id": "5766a2a010adfd26b1bad874b05c786e", "fusion_lat": 0.0, "is_reserved": 0, "lat": 38.8704765, "fusion_lon": 0.0, "is_disabled": 0}, {"rental_uris": {"android": "https://dc.lft.to/lastmile_qr_scan", "ios": "https://dc.lft.to/lastmile_qr_scan"}, "type": "electric_scooter", "lon": -77.03455083333333, "name": "ae99f6692e0ddddeed2966f56977d7a5", "bike_id": "ae99f6692e0ddddeed2966f56977d7a5", "fusion_lat": 0.0, "is_reserved": 0, "lat": 38.903095, "fusion_lon": 0.0, "is_disabled": 0}, {"rental_uris": {"android": "https://dc.lft.to/lastmile_qr_scan", "ios": "https://dc.lft.to/lastmile_qr_scan"}, "type": "electric_scooter", "lon": -76.98997216666666, "name": "85c93e0155f1f2bf53f7878ff5a8bd39", "bike_id": "85c93e0155f1f2bf53f7878ff5a8bd39", "fusion_lat": 0.0, "is_reserved": 0, "lat": 38.86437016666667, "fusion_lon": 0.0, "is_disabled": 0}, {"rental_uris": {"android": "https://dc.lft.to/lastmile_qr_scan", "ios": "https://dc.lft.to/lastmile_qr_scan"}, "type": "electric_scooter", "lon": -77.02511483333333, "name": "2aa6b45043042c0a4a969b8654cbec13", "bike_id": "2aa6b45043042c0a4a969b8654cbec13", "fusion_lat": 0.0, "is_reserved": 0, "lat": 38.901577833333334, "fusion_lon": 0.0, "is_disabled": 0}, {"rental_uris": {"android": "https://dc.lft.to/lastmile_qr_scan", "ios": "https://dc.lft.to/lastmile_qr_scan"}, "type": "electric_scooter", "lon": -77.02449716666666, "name": "be5b42d739ccc3c59c92130aff9fde91", "bike_id": "be5b42d739ccc3c59c92130aff9fde91", "fusion_lat": 0.0, "is_reserved": 0, "lat": 38.89746183333333, "fusion_lon": 0.0, "is_disabled": 0}, {"rental_uris": {"android": "https://dc.lft.to/lastmile_qr_scan", "ios": "https://dc.lft.to/lastmile_qr_scan"}, "type": "electric_scooter", "lon": -77.02963716666666, "name": "54fa2b34b15fe01757f41626d87acee1", "bike_id": "54fa2b34b15fe01757f41626d87acee1", "fusion_lat": 0.0, "is_reserved": 0, "lat": 38.9064085, "fusion_lon": 0.0, "is_disabled": 0}, {"rental_uris": {"android": "https://dc.lft.to/lastmile_qr_scan", "ios": "https://dc.lft.to/lastmile_qr_scan"}, "type": "electric_scooter", "lon": -76.94637333333333, "name": "dd2670b05901c6c7e9a315a3edd998c3", "bike_id": "dd2670b05901c6c7e9a315a3edd998c3", "fusion_lat": 0.0, "is_reserved": 0, "lat": 38.898398666666665, "fusion_lon": 0.0, "is_disabled": 0}, {"rental_uris": {"android": "https://dc.lft.to/lastmile_qr_scan", "ios": "https://dc.lft.to/lastmile_qr_scan"}, "type": "electric_scooter", "lon": -77.04155116666666, "name": "46449a410a1e101a4b9d5b76046111e7", "bike_id": "46449a410a1e101a4b9d5b76046111e7", "fusion_lat": 0.0, "is_reserved": 0, "lat": 38.91743666666667, "fusion_lon": 0.0, "is_disabled": 0}, {"rental_uris": {"android": "https://dc.lft.to/lastmile_qr_scan", "ios": "https://dc.lft.to/lastmile_qr_scan"}, "type": "electric_scooter", "lon": -77.02354416666667, "name": "3213de7c734e551d2040d482bf6bf204", "bike_id": "3213de7c734e551d2040d482bf6bf204", "fusion_lat": 0.0, "is_reserved": 0, "lat": 38.892224, "fusion_lon": 0.0, "is_disabled": 0}, {"rental_uris": {"android": "https://dc.lft.to/lastmile_qr_scan", "ios": "https://dc.lft.to/lastmile_qr_scan"}, "type": "electric_scooter", "lon": -77.03229716666667, "name": "ec064360e52679853f22e9bdabf24eca", "bike_id": "ec064360e52679853f22e9bdabf24eca", "fusion_lat": 0.0, "is_reserved": 0, "lat": 38.92215683333333, "fusion_lon": 0.0, "is_disabled": 0}, {"rental_uris": {"android": "https://dc.lft.to/lastmile_qr_scan", "ios": "https://dc.lft.to/lastmile_qr_scan"}, "type": "electric_scooter", "lon": -77.02199116666667, "name": "3bc60b20206f644ecd43c9c3fe4e284e", "bike_id": "3bc60b20206f644ecd43c9c3fe4e284e", "fusion_lat": 0.0, "is_reserved": 0, "lat": 38.898738, "fusion_lon": 0.0, "is_disabled": 0}, {"rental_uris": {"android": "https://dc.lft.to/lastmile_qr_scan", "ios": "https://dc.lft.to/lastmile_qr_scan"}, "type": "electric_scooter", "lon": -77.0261495, "name": "b0cc3a94323aee85e90ee157df8acbd4", "bike_id": "b0cc3a94323aee85e90ee157df8acbd4", "fusion_lat": 0.0, "is_reserved": 0, "lat": 38.90017483333333, "fusion_lon": 0.0, "is_disabled": 0}, {"rental_uris": {"android": "https://dc.lft.to/lastmile_qr_scan", "ios": "https://dc.lft.to/lastmile_qr_scan"}, "type": "electric_scooter", "lon": -77.00752833333334, "name": "6de77f30faa0a26773918534ba02f4c1", "bike_id": "6de77f30faa0a26773918534ba02f4c1", "fusion_lat": 0.0, "is_reserved": 0, "lat": 38.876436166666664, "fusion_lon": 0.0, "is_disabled": 0}, {"rental_uris": {"android": "https://dc.lft.to/lastmile_qr_scan", "ios": "https://dc.lft.to/lastmile_qr_scan"}, "type": "electric_scooter", "lon": -77.0037535, "name": "187f92aae6d5e97132a59fbd8edc079b", "bike_id": "187f92aae6d5e97132a59fbd8edc079b", "fusion_lat": 0.0, "is_reserved": 0, "lat": 38.877455, "fusion_lon": 0.0, "is_disabled": 0}, {"rental_uris": {"android": "https://dc.lft.to/lastmile_qr_scan", "ios": "https://dc.lft.to/lastmile_qr_scan"}, "type": "electric_scooter", "lon": -77.068282, "name": "5d319a3ca25f4419217239d7f11fcdf7", "bike_id": "5d319a3ca25f4419217239d7f11fcdf7", "fusion_lat": 0.0, "is_reserved": 0, "lat": 38.916371833333336, "fusion_lon": 0.0, "is_disabled": 0}, {"rental_uris": {"android": "https://dc.lft.to/lastmile_qr_scan", "ios": "https://dc.lft.to/lastmile_qr_scan"}, "type": "electric_scooter", "lon": -77.05812166666666, "name": "b9253e5097dd96bda6883d3db5936523", "bike_id": "b9253e5097dd96bda6883d3db5936523", "fusion_lat": 0.0, "is_reserved": 0, "lat": 38.90376916666666, "fusion_lon": 0.0, "is_disabled": 0}, {"rental_uris": {"android": "https://dc.lft.to/lastmile_qr_scan", "ios": "https://dc.lft.to/lastmile_qr_scan"}, "type": "electric_scooter", "lon": -77.01032316666667, "name": "db8e3fb420e5b8c9c788b1edc67f1a69", "bike_id": "db8e3fb420e5b8c9c788b1edc67f1a69", "fusion_lat": 0.0, "is_reserved": 0, "lat": 38.900011666666664, "fusion_lon": 0.0, "is_disabled": 0}, {"rental_uris": {"android": "https://dc.lft.to/lastmile_qr_scan", "ios": "https://dc.lft.to/lastmile_qr_scan"}, "type": "electric_scooter", "lon": -77.03994866666666, "name": "b598ec52e80dd9d929ac865e1e7ca06f", "bike_id": "b598ec52e80dd9d929ac865e1e7ca06f", "fusion_lat": 0.0, "is_reserved": 0, "lat": 38.902667, "fusion_lon": 0.0, "is_disabled": 0}, {"rental_uris": {"android": "https://dc.lft.to/lastmile_qr_scan", "ios": "https://dc.lft.to/lastmile_qr_scan"}, "type": "electric_scooter", "lon": -77.03803433333333, "name": "4fc26b905ab05df33396c07625123269", "bike_id": "4fc26b905ab05df33396c07625123269", "fusion_lat": 0.0, "is_reserved": 0, "lat": 38.921773, "fusion_lon": 0.0, "is_disabled": 0}, {"rental_uris": {"android": "https://dc.lft.to/lastmile_qr_scan", "ios": "https://dc.lft.to/lastmile_qr_scan"}, "type": "electric_scooter", "lon": -77.005669, "name": "37a12fcb6cdce4b9fdc7515c84046a73", "bike_id": "37a12fcb6cdce4b9fdc7515c84046a73", "fusion_lat": 0.0, "is_reserved": 0, "lat": 38.88505383333333, "fusion_lon": 0.0, "is_disabled": 0}, {"rental_uris": {"android": "https://dc.lft.to/lastmile_qr_scan", "ios": "https://dc.lft.to/lastmile_qr_scan"}, "type": "electric_bike", "lon": -77.1323335, "name": "0c2ceba7db3c8f902cdf73476d5575e2", "bike_id": "0c2ceba7db3c8f902cdf73476d5575e2", "fusion_lat": 0.0, "is_reserved": 0, "lat": 38.86972083333333, "fusion_lon": 0.0, "is_disabled": 0}, {"rental_uris": {"android": "https://dc.lft.to/lastmile_qr_scan", "ios": "https://dc.lft.to/lastmile_qr_scan"}, "type": "electric_scooter", "lon": -77.0217765, "name": "fa4d3703c766a8e2318470754e58fe6f", "bike_id": "fa4d3703c766a8e2318470754e58fe6f", "fusion_lat": 0.0, "is_reserved": 0, "lat": 38.94289083333334, "fusion_lon": 0.0, "is_disabled": 0}, {"rental_uris": {"android": "https://dc.lft.to/lastmile_qr_scan", "ios": "https://dc.lft.to/lastmile_qr_scan"}, "type": "electric_scooter", "lon": -77.02155733333333, "name": "d98663e2da966fb93e10569789c34faf", "bike_id": "d98663e2da966fb93e10569789c34faf", "fusion_lat": 0.0, "is_reserved": 0, "lat": 38.8791435, "fusion_lon": 0.0, "is_disabled": 0}, {"rental_uris": {"android": "https://dc.lft.to/lastmile_qr_scan", "ios": "https://dc.lft.to/lastmile_qr_scan"}, "type": "electric_scooter", "lon": -77.02037633333333, "name": "5d71cac4dbd01463118f2b9251c1d34e", "bike_id": "5d71cac4dbd01463118f2b9251c1d34e", "fusion_lat": 0.0, "is_reserved": 0, "lat": 38.89270066666667, "fusion_lon": 0.0, "is_disabled": 0}, {"rental_uris": {"android": "https://dc.lft.to/lastmile_qr_scan", "ios": "https://dc.lft.to/lastmile_qr_scan"}, "type": "electric_scooter", "lon": -76.9846245, "name": "02d8634f041fd1ab1616888b8b6e1928", "bike_id": "02d8634f041fd1ab1616888b8b6e1928", "fusion_lat": 0.0, "is_reserved": 0, "lat": 38.89365733333333, "fusion_lon": 0.0, "is_disabled": 0}, {"rental_uris": {"android": "https://dc.lft.to/lastmile_qr_scan", "ios": "https://dc.lft.to/lastmile_qr_scan"}, "type": "electric_scooter", "lon": -77.01898916666667, "name": "836ed6407a6b12111661f0cbe8c144ff", "bike_id": "836ed6407a6b12111661f0cbe8c144ff", "fusion_lat": 0.0, "is_reserved": 0, "lat": 38.93917166666667, "fusion_lon": 0.0, "is_disabled": 0}, {"rental_uris": {"android": "https://dc.lft.to/lastmile_qr_scan", "ios": "https://dc.lft.to/lastmile_qr_scan"}, "type": "electric_bike", "lon": -76.9477635, "name": "971856c2ca04a2ef58410451529a57b5", "bike_id": "971856c2ca04a2ef58410451529a57b5", "fusion_lat": 0.0, "is_reserved": 0, "lat": 38.89632683333333, "fusion_lon": 0.0, "is_disabled": 0}, {"rental_uris": {"android": "https://dc.lft.to/lastmile_qr_scan", "ios": "https://dc.lft.to/lastmile_qr_scan"}, "type": "electric_scooter", "lon": -77.0374295, "name": "c0b0558ec2502cb595c6a6baecd4d110", "bike_id": "c0b0558ec2502cb595c6a6baecd4d110", "fusion_lat": 0.0, "is_reserved": 0, "lat": 38.902361166666665, "fusion_lon": 0.0, "is_disabled": 0}, {"rental_uris": {"android": "https://dc.lft.to/lastmile_qr_scan", "ios": "https://dc.lft.to/lastmile_qr_scan"}, "type": "electric_scooter", "lon": -77.05010333333334, "name": "52cf09db6fe866158cbf25905708be85", "bike_id": "52cf09db6fe866158cbf25905708be85", "fusion_lat": 0.0, "is_reserved": 0, "lat": 38.900854833333334, "fusion_lon": 0.0, "is_disabled": 0}, {"rental_uris": {"android": "https://dc.lft.to/lastmile_qr_scan", "ios": "https://dc.lft.to/lastmile_qr_scan"}, "type": "electric_scooter", "lon": -77.036292, "name": "9ca1452d939f041f8e44b1b807261127", "bike_id": "9ca1452d939f041f8e44b1b807261127", "fusion_lat": 0.0, "is_reserved": 0, "lat": 38.9027145, "fusion_lon": 0.0, "is_disabled": 0}, {"rental_uris": {"android": "https://dc.lft.to/lastmile_qr_scan", "ios": "https://dc.lft.to/lastmile_qr_scan"}, "type": "electric_scooter", "lon": -77.0121145, "name": "dc38ce811eb359eeac0950368e658029", "bike_id": "dc38ce811eb359eeac0950368e658029", "fusion_lat": 0.0, "is_reserved": 0, "lat": 38.918154666666666, "fusion_lon": 0.0, "is_disabled": 0}, {"rental_uris": {"android": "https://dc.lft.to/lastmile_qr_scan", "ios": "https://dc.lft.to/lastmile_qr_scan"}, "type": "electric_scooter", "lon": -77.02947316666666, "name": "dc4610363cb5698a91e19583da107bc2", "bike_id": "dc4610363cb5698a91e19583da107bc2", "fusion_lat": 0.0, "is_reserved": 0, "lat": 38.917153166666665, "fusion_lon": 0.0, "is_disabled": 0}, {"rental_uris": {"android": "https://dc.lft.to/lastmile_qr_scan", "ios": "https://dc.lft.to/lastmile_qr_scan"}, "type": "electric_scooter", "lon": -76.990894, "name": "c84bdd5e626a377e177515259d616007", "bike_id": "c84bdd5e626a377e177515259d616007", "fusion_lat": 0.0, "is_reserved": 0, "lat": 38.8427705, "fusion_lon": 0.0, "is_disabled": 0}, {"rental_uris": {"android": "https://dc.lft.to/lastmile_qr_scan", "ios": "https://dc.lft.to/lastmile_qr_scan"}, "type": "electric_scooter", "lon": -77.02733883333333, "name": "1af1dadb5fbe1335d7d3675b79d7da6b", "bike_id": "1af1dadb5fbe1335d7d3675b79d7da6b", "fusion_lat": 0.0, "is_reserved": 0, "lat": 38.9286625, "fusion_lon": 0.0, "is_disabled": 0}, {"rental_uris": {"android": "https://dc.lft.to/lastmile_qr_scan", "ios": "https://dc.lft.to/lastmile_qr_scan"}, "type": "electric_scooter", "lon": -76.970237, "name": "6b5ff049722bb22a12ab63d8a2888521", "bike_id": "6b5ff049722bb22a12ab63d8a2888521", "fusion_lat": 0.0, "is_reserved": 0, "lat": 38.920292833333335, "fusion_lon": 0.0, "is_disabled": 0}, {"rental_uris": {"android": "https://dc.lft.to/lastmile_qr_scan", "ios": "https://dc.lft.to/lastmile_qr_scan"}, "type": "electric_bike", "lon": -77.05108366666667, "name": "b7956bf5a97cf17d735dba9c5e87ed3e", "bike_id": "b7956bf5a97cf17d735dba9c5e87ed3e", "fusion_lat": 0.0, "is_reserved": 0, "lat": 38.9455895, "fusion_lon": 0.0, "is_disabled": 0}, {"rental_uris": {"android": "https://dc.lft.to/lastmile_qr_scan", "ios": "https://dc.lft.to/lastmile_qr_scan"}, "type": "electric_scooter", "lon": -76.95872233333333, "name": "dc63bffbf8f9aeefcb7bb7c3ebd854ff", "bike_id": "dc63bffbf8f9aeefcb7bb7c3ebd854ff", "fusion_lat": 0.0, "is_reserved": 0, "lat": 38.929945333333336, "fusion_lon": 0.0, "is_disabled": 0}, {"rental_uris": {"android": "https://dc.lft.to/lastmile_qr_scan", "ios": "https://dc.lft.to/lastmile_qr_scan"}, "type": "electric_scooter", "lon": -77.03879533333334, "name": "b9d6ee32e0390021b1ffadd950b51450", "bike_id": "b9d6ee32e0390021b1ffadd950b51450", "fusion_lat": 0.0, "is_reserved": 0, "lat": 38.93429316666667, "fusion_lon": 0.0, "is_disabled": 0}, {"rental_uris": {"android": "https://dc.lft.to/lastmile_qr_scan", "ios": "https://dc.lft.to/lastmile_qr_scan"}, "type": "electric_bike", "lon": -77.05625666666667, "name": "6b1fe766929b189de788d9212fd3f16a", "bike_id": "6b1fe766929b189de788d9212fd3f16a", "fusion_lat": 0.0, "is_reserved": 0, "lat": 38.857242166666666, "fusion_lon": 0.0, "is_disabled": 0}, {"rental_uris": {"android": "https://dc.lft.to/lastmile_qr_scan", "ios": "https://dc.lft.to/lastmile_qr_scan"}, "type": "electric_scooter", "lon": -77.05019183333333, "name": "79a8b0d3b50ad86cfac7c4948e79a195", "bike_id": "79a8b0d3b50ad86cfac7c4948e79a195", "fusion_lat": 0.0, "is_reserved": 0, "lat": 38.907583833333334, "fusion_lon": 0.0, "is_disabled": 0}, {"rental_uris": {"android": "https://dc.lft.to/lastmile_qr_scan", "ios": "https://dc.lft.to/lastmile_qr_scan"}, "type": "electric_scooter", "lon": -77.02717716666666, "name": "3be807a3d93c69982bff1bbe92fe35b0", "bike_id": "3be807a3d93c69982bff1bbe92fe35b0", "fusion_lat": 0.0, "is_reserved": 0, "lat": 38.91711266666667, "fusion_lon": 0.0, "is_disabled": 0}, {"rental_uris": {"android": "https://dc.lft.to/lastmile_qr_scan", "ios": "https://dc.lft.to/lastmile_qr_scan"}, "type": "electric_scooter", "lon": -77.06368183333333, "name": "8ac3e35e2e331237ea29b9057782a779", "bike_id": "8ac3e35e2e331237ea29b9057782a779", "fusion_lat": 0.0, "is_reserved": 0, "lat": 38.9441275, "fusion_lon": 0.0, "is_disabled": 0}, {"rental_uris": {"android": "https://dc.lft.to/lastmile_qr_scan", "ios": "https://dc.lft.to/lastmile_qr_scan"}, "type": "electric_scooter", "lon": -77.03448966666667, "name": "83f84f92e98d28e0cc9e831ce2520fe1", "bike_id": "83f84f92e98d28e0cc9e831ce2520fe1", "fusion_lat": 0.0, "is_reserved": 0, "lat": 38.917926666666666, "fusion_lon": 0.0, "is_disabled": 0}, {"rental_uris": {"android": "https://dc.lft.to/lastmile_qr_scan", "ios": "https://dc.lft.to/lastmile_qr_scan"}, "type": "electric_bike", "lon": -77.107308, "name": "7b74238057555bcfda6e6a2f7ecfadae", "bike_id": "7b74238057555bcfda6e6a2f7ecfadae", "fusion_lat": 0.0, "is_reserved": 0, "lat": 38.85537133333333, "fusion_lon": 0.0, "is_disabled": 0}, {"rental_uris": {"android": "https://dc.lft.to/lastmile_qr_scan", "ios": "https://dc.lft.to/lastmile_qr_scan"}, "type": "electric_scooter", "lon": -77.033363, "name": "c1a8abc91b2d233ad824e4ed8857015e", "bike_id": "c1a8abc91b2d233ad824e4ed8857015e", "fusion_lat": 0.0, "is_reserved": 0, "lat": 38.8984005, "fusion_lon": 0.0, "is_disabled": 0}, {"rental_uris": {"android": "https://dc.lft.to/lastmile_qr_scan", "ios": "https://dc.lft.to/lastmile_qr_scan"}, "type": "electric_bike", "lon": -77.08494083333333, "name": "d62ffd79ea78e4774ca2e115902c82b1", "bike_id": "d62ffd79ea78e4774ca2e115902c82b1", "fusion_lat": 0.0, "is_reserved": 0, "lat": 38.890481666666666, "fusion_lon": 0.0, "is_disabled": 0}, {"rental_uris": {"android": "https://dc.lft.to/lastmile_qr_scan", "ios": "https://dc.lft.to/lastmile_qr_scan"}, "type": "electric_scooter", "lon": -77.0151955, "name": "5f073062d50c178a1413db11dab0e517", "bike_id": "5f073062d50c178a1413db11dab0e517", "fusion_lat": 0.0, "is_reserved": 0, "lat": 38.9099215, "fusion_lon": 0.0, "is_disabled": 0}, {"rental_uris": {"android": "https://dc.lft.to/lastmile_qr_scan", "ios": "https://dc.lft.to/lastmile_qr_scan"}, "type": "electric_scooter", "lon": -77.02893166666667, "name": "4f9c439b7d3616e07ec462a826b28874", "bike_id": "4f9c439b7d3616e07ec462a826b28874", "fusion_lat": 0.0, "is_reserved": 0, "lat": 38.91409683333333, "fusion_lon": 0.0, "is_disabled": 0}, {"rental_uris": {"android": "https://dc.lft.to/lastmile_qr_scan", "ios": "https://dc.lft.to/lastmile_qr_scan"}, "type": "electric_scooter", "lon": -77.01260616666667, "name": "69c10497984f73e158ce7c78cea1a9c9", "bike_id": "69c10497984f73e158ce7c78cea1a9c9", "fusion_lat": 0.0, "is_reserved": 0, "lat": 38.90844166666667, "fusion_lon": 0.0, "is_disabled": 0}, {"rental_uris": {"android": "https://dc.lft.to/lastmile_qr_scan", "ios": "https://dc.lft.to/lastmile_qr_scan"}, "type": "electric_scooter", "lon": -76.99171716666666, "name": "3a853f6d875eaf86879f9afb05de7475", "bike_id": "3a853f6d875eaf86879f9afb05de7475", "fusion_lat": 0.0, "is_reserved": 0, "lat": 38.873385166666665, "fusion_lon": 0.0, "is_disabled": 0}, {"rental_uris": {"android": "https://dc.lft.to/lastmile_qr_scan", "ios": "https://dc.lft.to/lastmile_qr_scan"}, "type": "electric_scooter", "lon": -76.9789135, "name": "f7d7c5b3d103597557e15f4f7bdb5ab2", "bike_id": "f7d7c5b3d103597557e15f4f7bdb5ab2", "fusion_lat": 0.0, "is_reserved": 0, "lat": 38.869951666666665, "fusion_lon": 0.0, "is_disabled": 0}, {"rental_uris": {"android": "https://dc.lft.to/lastmile_qr_scan", "ios": "https://dc.lft.to/lastmile_qr_scan"}, "type": "electric_bike", "lon": -76.9984095, "name": "f592294cc7ead0758f4091e20db8d2e5", "bike_id": "f592294cc7ead0758f4091e20db8d2e5", "fusion_lat": 0.0, "is_reserved": 0, "lat": 38.83914, "fusion_lon": 0.0, "is_disabled": 0}, {"rental_uris": {"android": "https://dc.lft.to/lastmile_qr_scan", "ios": "https://dc.lft.to/lastmile_qr_scan"}, "type": "electric_scooter", "lon": -77.036452, "name": "1f28daf36bf7181aeb270e333c6b0537", "bike_id": "1f28daf36bf7181aeb270e333c6b0537", "fusion_lat": 0.0, "is_reserved": 0, "lat": 38.912227, "fusion_lon": 0.0, "is_disabled": 0}, {"rental_uris": {"android": "https://dc.lft.to/lastmile_qr_scan", "ios": "https://dc.lft.to/lastmile_qr_scan"}, "type": "electric_scooter", "lon": -77.029548, "name": "ccb05c04f7accdc86f38492949510392", "bike_id": "ccb05c04f7accdc86f38492949510392", "fusion_lat": 0.0, "is_reserved": 0, "lat": 38.91684866666667, "fusion_lon": 0.0, "is_disabled": 0}, {"rental_uris": {"android": "https://dc.lft.to/lastmile_qr_scan", "ios": "https://dc.lft.to/lastmile_qr_scan"}, "type": "electric_scooter", "lon": -76.99498833333334, "name": "0a1e2c67fb4832ca86ff38b3db36cccd", "bike_id": "0a1e2c67fb4832ca86ff38b3db36cccd", "fusion_lat": 0.0, "is_reserved": 0, "lat": 38.920840166666665, "fusion_lon": 0.0, "is_disabled": 0}, {"rental_uris": {"android": "https://dc.lft.to/lastmile_qr_scan", "ios": "https://dc.lft.to/lastmile_qr_scan"}, "type": "electric_bike", "lon": -77.01077783333334, "name": "2d4c07914c051069bd7b717dcb94f643", "bike_id": "2d4c07914c051069bd7b717dcb94f643", "fusion_lat": 0.0, "is_reserved": 0, "lat": 38.962616, "fusion_lon": 0.0, "is_disabled": 0}, {"rental_uris": {"android": "https://dc.lft.to/lastmile_qr_scan", "ios": "https://dc.lft.to/lastmile_qr_scan"}, "type": "electric_scooter", "lon": -77.01468016666666, "name": "f3f7455be8f90cc860c55df4de3ee27a", "bike_id": "f3f7455be8f90cc860c55df4de3ee27a", "fusion_lat": 0.0, "is_reserved": 0, "lat": 38.91033733333333, "fusion_lon": 0.0, "is_disabled": 0}, {"rental_uris": {"android": "https://dc.lft.to/lastmile_qr_scan", "ios": "https://dc.lft.to/lastmile_qr_scan"}, "type": "electric_scooter", "lon": -77.032945, "name": "15ab9005cffca47896a1f558763f9688", "bike_id": "15ab9005cffca47896a1f558763f9688", "fusion_lat": 0.0, "is_reserved": 0, "lat": 38.956479333333334, "fusion_lon": 0.0, "is_disabled": 0}, {"rental_uris": {"android": "https://dc.lft.to/lastmile_qr_scan", "ios": "https://dc.lft.to/lastmile_qr_scan"}, "type": "electric_scooter", "lon": -77.03518083333333, "name": "d7771884dacc5eac25ffd8c18b40da3e", "bike_id": "d7771884dacc5eac25ffd8c18b40da3e", "fusion_lat": 0.0, "is_reserved": 0, "lat": 38.90380016666667, "fusion_lon": 0.0, "is_disabled": 0}, {"rental_uris": {"android": "https://dc.lft.to/lastmile_qr_scan", "ios": "https://dc.lft.to/lastmile_qr_scan"}, "type": "electric_scooter", "lon": -76.9384305, "name": "ad183b4455bad79dad9790d846b040f2", "bike_id": "ad183b4455bad79dad9790d846b040f2", "fusion_lat": 0.0, "is_reserved": 0, "lat": 38.89010866666667, "fusion_lon": 0.0, "is_disabled": 0}, {"rental_uris": {"android": "https://dc.lft.to/lastmile_qr_scan", "ios": "https://dc.lft.to/lastmile_qr_scan"}, "type": "electric_scooter", "lon": -77.02693683333334, "name": "b6d650a050a3a49c5d12e50367aaf2cf", "bike_id": "b6d650a050a3a49c5d12e50367aaf2cf", "fusion_lat": 0.0, "is_reserved": 0, "lat": 38.9068625, "fusion_lon": 0.0, "is_disabled": 0}, {"rental_uris": {"android": "https://dc.lft.to/lastmile_qr_scan", "ios": "https://dc.lft.to/lastmile_qr_scan"}, "type": "electric_scooter", "lon": -77.02347083333333, "name": "dd6796135538c135992fed53b65e7b2f", "bike_id": "dd6796135538c135992fed53b65e7b2f", "fusion_lat": 0.0, "is_reserved": 0, "lat": 38.92983983333333, "fusion_lon": 0.0, "is_disabled": 0}, {"rental_uris": {"android": "https://dc.lft.to/lastmile_qr_scan", "ios": "https://dc.lft.to/lastmile_qr_scan"}, "type": "electric_scooter", "lon": -76.98345716666667, "name": "df267c6a9a169809d68ccb1a3d684d3d", "bike_id": "df267c6a9a169809d68ccb1a3d684d3d", "fusion_lat": 0.0, "is_reserved": 0, "lat": 38.86465783333333, "fusion_lon": 0.0, "is_disabled": 0}, {"rental_uris": {"android": "https://dc.lft.to/lastmile_qr_scan", "ios": "https://dc.lft.to/lastmile_qr_scan"}, "type": "electric_bike", "lon": -77.12515216666667, "name": "4861b4530019c8c6d7ee7ce70ef338e4", "bike_id": "4861b4530019c8c6d7ee7ce70ef338e4", "fusion_lat": 0.0, "is_reserved": 0, "lat": 39.024215, "fusion_lon": 0.0, "is_disabled": 0}, {"rental_uris": {"android": "https://dc.lft.to/lastmile_qr_scan", "ios": "https://dc.lft.to/lastmile_qr_scan"}, "type": "electric_scooter", "lon": -77.04308266666666, "name": "e0876e7c2ab6b8ddf34c9656ea89e179", "bike_id": "e0876e7c2ab6b8ddf34c9656ea89e179", "fusion_lat": 0.0, "is_reserved": 0, "lat": 38.926567666666664, "fusion_lon": 0.0, "is_disabled": 0}, {"rental_uris": {"android": "https://dc.lft.to/lastmile_qr_scan", "ios": "https://dc.lft.to/lastmile_qr_scan"}, "type": "electric_scooter", "lon": -77.04195066666666, "name": "6a73399e45ffe85935f51a55e8419989", "bike_id": "6a73399e45ffe85935f51a55e8419989", "fusion_lat": 0.0, "is_reserved": 0, "lat": 38.90745, "fusion_lon": 0.0, "is_disabled": 0}, {"rental_uris": {"android": "https://dc.lft.to/lastmile_qr_scan", "ios": "https://dc.lft.to/lastmile_qr_scan"}, "type": "electric_scooter", "lon": -77.07865883333334, "name": "7e2b5f281cd5463fcfe999e1d61830ef", "bike_id": "7e2b5f281cd5463fcfe999e1d61830ef", "fusion_lat": 0.0, "is_reserved": 0, "lat": 38.91910083333333, "fusion_lon": 0.0, "is_disabled": 0}, {"rental_uris": {"android": "https://dc.lft.to/lastmile_qr_scan", "ios": "https://dc.lft.to/lastmile_qr_scan"}, "type": "electric_scooter", "lon": -77.07149983333333, "name": "8492a8bc060c56ff73442a8183171866", "bike_id": "8492a8bc060c56ff73442a8183171866", "fusion_lat": 0.0, "is_reserved": 0, "lat": 38.938217, "fusion_lon": 0.0, "is_disabled": 0}, {"rental_uris": {"android": "https://dc.lft.to/lastmile_qr_scan", "ios": "https://dc.lft.to/lastmile_qr_scan"}, "type": "electric_scooter", "lon": -77.04834683333333, "name": "8fe14b4092823327dc13c35c7b5642d7", "bike_id": "8fe14b4092823327dc13c35c7b5642d7", "fusion_lat": 0.0, "is_reserved": 0, "lat": 38.90463283333333, "fusion_lon": 0.0, "is_disabled": 0}, {"rental_uris": {"android": "https://dc.lft.to/lastmile_qr_scan", "ios": "https://dc.lft.to/lastmile_qr_scan"}, "type": "electric_scooter", "lon": -77.00221233333333, "name": "a0b3ccc8927f0c750f8db02dd3290a3c", "bike_id": "a0b3ccc8927f0c750f8db02dd3290a3c", "fusion_lat": 0.0, "is_reserved": 0, "lat": 38.900267166666666, "fusion_lon": 0.0, "is_disabled": 0}, {"rental_uris": {"android": "https://dc.lft.to/lastmile_qr_scan", "ios": "https://dc.lft.to/lastmile_qr_scan"}, "type": "electric_scooter", "lon": -77.04168783333333, "name": "874ee7af9bcef5642438ec27cd71da08", "bike_id": "874ee7af9bcef5642438ec27cd71da08", "fusion_lat": 0.0, "is_reserved": 0, "lat": 38.91455466666667, "fusion_lon": 0.0, "is_disabled": 0}, {"rental_uris": {"android": "https://dc.lft.to/lastmile_qr_scan", "ios": "https://dc.lft.to/lastmile_qr_scan"}, "type": "electric_scooter", "lon": -77.06407883333334, "name": "9a2f608ac35d783ac1485661c780818c", "bike_id": "9a2f608ac35d783ac1485661c780818c", "fusion_lat": 0.0, "is_reserved": 0, "lat": 38.90929383333334, "fusion_lon": 0.0, "is_disabled": 0}, {"rental_uris": {"android": "https://dc.lft.to/lastmile_qr_scan", "ios": "https://dc.lft.to/lastmile_qr_scan"}, "type": "electric_scooter", "lon": -77.00029633333334, "name": "5fc45c801793fa0ca13176fcf040f073", "bike_id": "5fc45c801793fa0ca13176fcf040f073", "fusion_lat": 0.0, "is_reserved": 0, "lat": 38.900137, "fusion_lon": 0.0, "is_disabled": 0}, {"rental_uris": {"android": "https://dc.lft.to/lastmile_qr_scan", "ios": "https://dc.lft.to/lastmile_qr_scan"}, "type": "electric_scooter", "lon": -77.02368583333333, "name": "fc201da9574cd4d6a76cd17df1811648", "bike_id": "fc201da9574cd4d6a76cd17df1811648", "fusion_lat": 0.0, "is_reserved": 0, "lat": 38.920421833333336, "fusion_lon": 0.0, "is_disabled": 0}, {"rental_uris": {"android": "https://dc.lft.to/lastmile_qr_scan", "ios": "https://dc.lft.to/lastmile_qr_scan"}, "type": "electric_scooter", "lon": -77.0341735, "name": "d1cfa07f12863a1260f930f8b1c438df", "bike_id": "d1cfa07f12863a1260f930f8b1c438df", "fusion_lat": 0.0, "is_reserved": 0, "lat": 38.9317725, "fusion_lon": 0.0, "is_disabled": 0}, {"rental_uris": {"android": "https://dc.lft.to/lastmile_qr_scan", "ios": "https://dc.lft.to/lastmile_qr_scan"}, "type": "electric_scooter", "lon": -77.038478, "name": "ec2f1736f16caa99faefd4f32e50295e", "bike_id": "ec2f1736f16caa99faefd4f32e50295e", "fusion_lat": 0.0, "is_reserved": 0, "lat": 38.910503, "fusion_lon": 0.0, "is_disabled": 0}, {"rental_uris": {"android": "https://dc.lft.to/lastmile_qr_scan", "ios": "https://dc.lft.to/lastmile_qr_scan"}, "type": "electric_scooter", "lon": -77.021637, "name": "03afc4bf98820a8823f235ce2413ce78", "bike_id": "03afc4bf98820a8823f235ce2413ce78", "fusion_lat": 0.0, "is_reserved": 0, "lat": 38.89493366666667, "fusion_lon": 0.0, "is_disabled": 0}, {"rental_uris": {"android": "https://dc.lft.to/lastmile_qr_scan", "ios": "https://dc.lft.to/lastmile_qr_scan"}, "type": "electric_scooter", "lon": -77.08445066666667, "name": "dba66ff022dffcfba9da42884dca2acd", "bike_id": "dba66ff022dffcfba9da42884dca2acd", "fusion_lat": 0.0, "is_reserved": 0, "lat": 38.91176033333333, "fusion_lon": 0.0, "is_disabled": 0}, {"rental_uris": {"android": "https://dc.lft.to/lastmile_qr_scan", "ios": "https://dc.lft.to/lastmile_qr_scan"}, "type": "electric_scooter", "lon": -77.04354866666667, "name": "daf00fa73d43b233fd72fad70cf009af", "bike_id": "daf00fa73d43b233fd72fad70cf009af", "fusion_lat": 0.0, "is_reserved": 0, "lat": 38.907273333333336, "fusion_lon": 0.0, "is_disabled": 0}, {"rental_uris": {"android": "https://dc.lft.to/lastmile_qr_scan", "ios": "https://dc.lft.to/lastmile_qr_scan"}, "type": "electric_scooter", "lon": -76.990074, "name": "7e92fbad3a5aae3e0b0f539f02f7cad3", "bike_id": "7e92fbad3a5aae3e0b0f539f02f7cad3", "fusion_lat": 0.0, "is_reserved": 0, "lat": 38.90005883333333, "fusion_lon": 0.0, "is_disabled": 0}, {"rental_uris": {"android": "https://dc.lft.to/lastmile_qr_scan", "ios": "https://dc.lft.to/lastmile_qr_scan"}, "type": "electric_scooter", "lon": -77.01700033333333, "name": "1c5c5f2bc14fb17523fc5e03acbe40b7", "bike_id": "1c5c5f2bc14fb17523fc5e03acbe40b7", "fusion_lat": 0.0, "is_reserved": 0, "lat": 38.920031333333334, "fusion_lon": 0.0, "is_disabled": 0}, {"rental_uris": {"android": "https://dc.lft.to/lastmile_qr_scan", "ios": "https://dc.lft.to/lastmile_qr_scan"}, "type": "electric_scooter", "lon": -76.99571133333333, "name": "17352031915210ceeb6b0610ea3d8f7f", "bike_id": "17352031915210ceeb6b0610ea3d8f7f", "fusion_lat": 0.0, "is_reserved": 0, "lat": 38.8576505, "fusion_lon": 0.0, "is_disabled": 0}, {"rental_uris": {"android": "https://dc.lft.to/lastmile_qr_scan", "ios": "https://dc.lft.to/lastmile_qr_scan"}, "type": "electric_scooter", "lon": -76.98333733333334, "name": "0ce1173950ac610aff89dd10a6ce1ed9", "bike_id": "0ce1173950ac610aff89dd10a6ce1ed9", "fusion_lat": 0.0, "is_reserved": 0, "lat": 38.88986233333333, "fusion_lon": 0.0, "is_disabled": 0}, {"rental_uris": {"android": "https://dc.lft.to/lastmile_qr_scan", "ios": "https://dc.lft.to/lastmile_qr_scan"}, "type": "electric_scooter", "lon": -76.95217766666667, "name": "98206ee261d4213075b1871454627358", "bike_id": "98206ee261d4213075b1871454627358", "fusion_lat": 0.0, "is_reserved": 0, "lat": 38.89242133333333, "fusion_lon": 0.0, "is_disabled": 0}, {"rental_uris": {"android": "https://dc.lft.to/lastmile_qr_scan", "ios": "https://dc.lft.to/lastmile_qr_scan"}, "type": "electric_scooter", "lon": -77.04764816666666, "name": "b2c9cd76aa5686e53cb080c99875d5ec", "bike_id": "b2c9cd76aa5686e53cb080c99875d5ec", "fusion_lat": 0.0, "is_reserved": 0, "lat": 38.9176695, "fusion_lon": 0.0, "is_disabled": 0}, {"rental_uris": {"android": "https://dc.lft.to/lastmile_qr_scan", "ios": "https://dc.lft.to/lastmile_qr_scan"}, "type": "electric_scooter", "lon": -77.0242005, "name": "0faf387476d7958ead40ebc50e2dfb22", "bike_id": "0faf387476d7958ead40ebc50e2dfb22", "fusion_lat": 0.0, "is_reserved": 0, "lat": 38.903074333333336, "fusion_lon": 0.0, "is_disabled": 0}, {"rental_uris": {"android": "https://dc.lft.to/lastmile_qr_scan", "ios": "https://dc.lft.to/lastmile_qr_scan"}, "type": "electric_scooter", "lon": -77.0239385, "name": "fd658fb13a8b0b3023780866b32294f5", "bike_id": "fd658fb13a8b0b3023780866b32294f5", "fusion_lat": 0.0, "is_reserved": 0, "lat": 38.898860166666665, "fusion_lon": 0.0, "is_disabled": 0}, {"rental_uris": {"android": "https://dc.lft.to/lastmile_qr_scan", "ios": "https://dc.lft.to/lastmile_qr_scan"}, "type": "electric_scooter", "lon": -77.03635983333334, "name": "37c31c8bbc3a5e8238161d16aee4a668", "bike_id": "37c31c8bbc3a5e8238161d16aee4a668", "fusion_lat": 0.0, "is_reserved": 0, "lat": 38.9317035, "fusion_lon": 0.0, "is_disabled": 0}, {"rental_uris": {"android": "https://dc.lft.to/lastmile_qr_scan", "ios": "https://dc.lft.to/lastmile_qr_scan"}, "type": "electric_bike", "lon": -77.01628083333334, "name": "2eb32fcd5fa313c2a036df4190d89080", "bike_id": "2eb32fcd5fa313c2a036df4190d89080", "fusion_lat": 0.0, "is_reserved": 0, "lat": 38.990859, "fusion_lon": 0.0, "is_disabled": 0}, {"rental_uris": {"android": "https://dc.lft.to/lastmile_qr_scan", "ios": "https://dc.lft.to/lastmile_qr_scan"}, "type": "electric_scooter", "lon": -77.03824333333333, "name": "c567ff7a023c9c638311dd5dd29e77f6", "bike_id": "c567ff7a023c9c638311dd5dd29e77f6", "fusion_lat": 0.0, "is_reserved": 0, "lat": 38.92068066666667, "fusion_lon": 0.0, "is_disabled": 0}, {"rental_uris": {"android": "https://dc.lft.to/lastmile_qr_scan", "ios": "https://dc.lft.to/lastmile_qr_scan"}, "type": "electric_scooter", "lon": -77.02701866666666, "name": "b2460394a6b254bd0dd5370adef519de", "bike_id": "b2460394a6b254bd0dd5370adef519de", "fusion_lat": 0.0, "is_reserved": 0, "lat": 38.90849716666666, "fusion_lon": 0.0, "is_disabled": 0}, {"rental_uris": {"android": "https://dc.lft.to/lastmile_qr_scan", "ios": "https://dc.lft.to/lastmile_qr_scan"}, "type": "electric_bike", "lon": -76.966921, "name": "c1d1316c11180b52cd28171eb33ed79d", "bike_id": "c1d1316c11180b52cd28171eb33ed79d", "fusion_lat": 0.0, "is_reserved": 0, "lat": 38.94560116666667, "fusion_lon": 0.0, "is_disabled": 0}, {"rental_uris": {"android": "https://dc.lft.to/lastmile_qr_scan", "ios": "https://dc.lft.to/lastmile_qr_scan"}, "type": "electric_scooter", "lon": -77.0022755, "name": "affb410ed3e0c049cdc254dfd3d4ba99", "bike_id": "affb410ed3e0c049cdc254dfd3d4ba99", "fusion_lat": 0.0, "is_reserved": 0, "lat": 38.902868, "fusion_lon": 0.0, "is_disabled": 0}, {"rental_uris": {"android": "https://dc.lft.to/lastmile_qr_scan", "ios": "https://dc.lft.to/lastmile_qr_scan"}, "type": "electric_scooter", "lon": -77.03452966666667, "name": "6617eae47ed1b6b5597c0b980954d5fa", "bike_id": "6617eae47ed1b6b5597c0b980954d5fa", "fusion_lat": 0.0, "is_reserved": 0, "lat": 38.915799166666666, "fusion_lon": 0.0, "is_disabled": 0}, {"rental_uris": {"android": "https://dc.lft.to/lastmile_qr_scan", "ios": "https://dc.lft.to/lastmile_qr_scan"}, "type": "electric_scooter", "lon": -76.985647, "name": "228e7d5553c67501991d8f4921b5e2b4", "bike_id": "228e7d5553c67501991d8f4921b5e2b4", "fusion_lat": 0.0, "is_reserved": 0, "lat": 38.90925983333333, "fusion_lon": 0.0, "is_disabled": 0}, {"rental_uris": {"android": "https://dc.lft.to/lastmile_qr_scan", "ios": "https://dc.lft.to/lastmile_qr_scan"}, "type": "electric_scooter", "lon": -77.03171016666667, "name": "a931acc0992f121c1f714b0b0b0e046a", "bike_id": "a931acc0992f121c1f714b0b0b0e046a", "fusion_lat": 0.0, "is_reserved": 0, "lat": 38.89777983333333, "fusion_lon": 0.0, "is_disabled": 0}, {"rental_uris": {"android": "https://dc.lft.to/lastmile_qr_scan", "ios": "https://dc.lft.to/lastmile_qr_scan"}, "type": "electric_scooter", "lon": -76.91927683333333, "name": "d708ac4b8d31df336cbfd964f575368d", "bike_id": "d708ac4b8d31df336cbfd964f575368d", "fusion_lat": 0.0, "is_reserved": 0, "lat": 38.89072916666667, "fusion_lon": 0.0, "is_disabled": 0}, {"rental_uris": {"android": "https://dc.lft.to/lastmile_qr_scan", "ios": "https://dc.lft.to/lastmile_qr_scan"}, "type": "electric_scooter", "lon": -76.97664566666667, "name": "94c01faa361407a6f2140ec4615bb2f3", "bike_id": "94c01faa361407a6f2140ec4615bb2f3", "fusion_lat": 0.0, "is_reserved": 0, "lat": 38.898518833333334, "fusion_lon": 0.0, "is_disabled": 0}, {"rental_uris": {"android": "https://dc.lft.to/lastmile_qr_scan", "ios": "https://dc.lft.to/lastmile_qr_scan"}, "type": "electric_scooter", "lon": -77.04508966666667, "name": "6ba8d6ed71342b3598dd5ee2bda8c02d", "bike_id": "6ba8d6ed71342b3598dd5ee2bda8c02d", "fusion_lat": 0.0, "is_reserved": 0, "lat": 38.89219283333333, "fusion_lon": 0.0, "is_disabled": 0}, {"rental_uris": {"android": "https://dc.lft.to/lastmile_qr_scan", "ios": "https://dc.lft.to/lastmile_qr_scan"}, "type": "electric_scooter", "lon": -77.0313785, "name": "21b67550e1ba962278c4ca7306046aeb", "bike_id": "21b67550e1ba962278c4ca7306046aeb", "fusion_lat": 0.0, "is_reserved": 0, "lat": 38.912717666666666, "fusion_lon": 0.0, "is_disabled": 0}, {"rental_uris": {"android": "https://dc.lft.to/lastmile_qr_scan", "ios": "https://dc.lft.to/lastmile_qr_scan"}, "type": "electric_scooter", "lon": -77.00879966666666, "name": "a77b8aff36778262a174aab1c36d68bc", "bike_id": "a77b8aff36778262a174aab1c36d68bc", "fusion_lat": 0.0, "is_reserved": 0, "lat": 38.8734325, "fusion_lon": 0.0, "is_disabled": 0}, {"rental_uris": {"android": "https://dc.lft.to/lastmile_qr_scan", "ios": "https://dc.lft.to/lastmile_qr_scan"}, "type": "electric_scooter", "lon": -77.00218216666667, "name": "544fa1e81831ebfb7a755b9a55710d48", "bike_id": "544fa1e81831ebfb7a755b9a55710d48", "fusion_lat": 0.0, "is_reserved": 0, "lat": 38.89491616666667, "fusion_lon": 0.0, "is_disabled": 0}, {"rental_uris": {"android": "https://dc.lft.to/lastmile_qr_scan", "ios": "https://dc.lft.to/lastmile_qr_scan"}, "type": "electric_scooter", "lon": -77.03456466666667, "name": "eaae0a378482f75196a8053a72ee2a91", "bike_id": "eaae0a378482f75196a8053a72ee2a91", "fusion_lat": 0.0, "is_reserved": 0, "lat": 38.90410266666667, "fusion_lon": 0.0, "is_disabled": 0}, {"rental_uris": {"android": "https://dc.lft.to/lastmile_qr_scan", "ios": "https://dc.lft.to/lastmile_qr_scan"}, "type": "electric_scooter", "lon": -77.05303, "name": "779f8138146962baa97f4ddaf347a7a0", "bike_id": "779f8138146962baa97f4ddaf347a7a0", "fusion_lat": 0.0, "is_reserved": 0, "lat": 38.916926333333336, "fusion_lon": 0.0, "is_disabled": 0}, {"rental_uris": {"android": "https://dc.lft.to/lastmile_qr_scan", "ios": "https://dc.lft.to/lastmile_qr_scan"}, "type": "electric_bike", "lon": -76.9906165, "name": "c46deaa8948bfbf763f2f29705f4c6f8", "bike_id": "c46deaa8948bfbf763f2f29705f4c6f8", "fusion_lat": 0.0, "is_reserved": 0, "lat": 38.936853166666666, "fusion_lon": 0.0, "is_disabled": 0}, {"rental_uris": {"android": "https://dc.lft.to/lastmile_qr_scan", "ios": "https://dc.lft.to/lastmile_qr_scan"}, "type": "electric_scooter", "lon": -76.98498516666666, "name": "fb2c3e06eff4cac18bad3f222430ac19", "bike_id": "fb2c3e06eff4cac18bad3f222430ac19", "fusion_lat": 0.0, "is_reserved": 0, "lat": 38.86043266666667, "fusion_lon": 0.0, "is_disabled": 0}, {"rental_uris": {"android": "https://dc.lft.to/lastmile_qr_scan", "ios": "https://dc.lft.to/lastmile_qr_scan"}, "type": "electric_bike", "lon": -77.18293333333334, "name": "fe324c32205aa80a416baef939e7de6f", "bike_id": "fe324c32205aa80a416baef939e7de6f", "fusion_lat": 0.0, "is_reserved": 0, "lat": 38.883397333333335, "fusion_lon": 0.0, "is_disabled": 0}, {"rental_uris": {"android": "https://dc.lft.to/lastmile_qr_scan", "ios": "https://dc.lft.to/lastmile_qr_scan"}, "type": "electric_scooter", "lon": -76.99024483333334, "name": "090773eb0ef0a6170139e0c322282850", "bike_id": "090773eb0ef0a6170139e0c322282850", "fusion_lat": 0.0, "is_reserved": 0, "lat": 38.858673833333334, "fusion_lon": 0.0, "is_disabled": 0}, {"rental_uris": {"android": "https://dc.lft.to/lastmile_qr_scan", "ios": "https://dc.lft.to/lastmile_qr_scan"}, "type": "electric_scooter", "lon": -76.99760033333334, "name": "a51d135cfe3580dc52969fbe7b1f3954", "bike_id": "a51d135cfe3580dc52969fbe7b1f3954", "fusion_lat": 0.0, "is_reserved": 0, "lat": 38.921743666666664, "fusion_lon": 0.0, "is_disabled": 0}, {"rental_uris": {"android": "https://dc.lft.to/lastmile_qr_scan", "ios": "https://dc.lft.to/lastmile_qr_scan"}, "type": "electric_scooter", "lon": -77.0610685, "name": "aea78bea29e73ad2448ed62dd0477c6d", "bike_id": "aea78bea29e73ad2448ed62dd0477c6d", "fusion_lat": 0.0, "is_reserved": 0, "lat": 38.94320116666667, "fusion_lon": 0.0, "is_disabled": 0}, {"rental_uris": {"android": "https://dc.lft.to/lastmile_qr_scan", "ios": "https://dc.lft.to/lastmile_qr_scan"}, "type": "electric_scooter", "lon": -77.022982, "name": "e051ebcaa25a0ce8827f9c44bc792928", "bike_id": "e051ebcaa25a0ce8827f9c44bc792928", "fusion_lat": 0.0, "is_reserved": 0, "lat": 38.90861816666666, "fusion_lon": 0.0, "is_disabled": 0}, {"rental_uris": {"android": "https://dc.lft.to/lastmile_qr_scan", "ios": "https://dc.lft.to/lastmile_qr_scan"}, "type": "electric_scooter", "lon": -77.01708483333333, "name": "72149622617ef5bed49c58884f257375", "bike_id": "72149622617ef5bed49c58884f257375", "fusion_lat": 0.0, "is_reserved": 0, "lat": 38.907264, "fusion_lon": 0.0, "is_disabled": 0}, {"rental_uris": {"android": "https://dc.lft.to/lastmile_qr_scan", "ios": "https://dc.lft.to/lastmile_qr_scan"}, "type": "electric_scooter", "lon": -77.04741716666666, "name": "ec85e65f874afc07fb23cadf9c13174e", "bike_id": "ec85e65f874afc07fb23cadf9c13174e", "fusion_lat": 0.0, "is_reserved": 0, "lat": 38.90538633333333, "fusion_lon": 0.0, "is_disabled": 0}, {"rental_uris": {"android": "https://dc.lft.to/lastmile_qr_scan", "ios": "https://dc.lft.to/lastmile_qr_scan"}, "type": "electric_scooter", "lon": -76.9266285, "name": "a03a618c9df3aef92136a7a5d45393bf", "bike_id": "a03a618c9df3aef92136a7a5d45393bf", "fusion_lat": 0.0, "is_reserved": 0, "lat": 38.89540683333333, "fusion_lon": 0.0, "is_disabled": 0}, {"rental_uris": {"android": "https://dc.lft.to/lastmile_qr_scan", "ios": "https://dc.lft.to/lastmile_qr_scan"}, "type": "electric_scooter", "lon": -77.02465866666667, "name": "500f29c87263d81683188ebf3bdf6d45", "bike_id": "500f29c87263d81683188ebf3bdf6d45", "fusion_lat": 0.0, "is_reserved": 0, "lat": 38.93905783333334, "fusion_lon": 0.0, "is_disabled": 0}, {"rental_uris": {"android": "https://dc.lft.to/lastmile_qr_scan", "ios": "https://dc.lft.to/lastmile_qr_scan"}, "type": "electric_scooter", "lon": -77.0255125, "name": "ba7a00600f15797c2b2f20ed2b3729ea", "bike_id": "ba7a00600f15797c2b2f20ed2b3729ea", "fusion_lat": 0.0, "is_reserved": 0, "lat": 38.892186833333334, "fusion_lon": 0.0, "is_disabled": 0}, {"rental_uris": {"android": "https://dc.lft.to/lastmile_qr_scan", "ios": "https://dc.lft.to/lastmile_qr_scan"}, "type": "electric_scooter", "lon": -77.06159533333333, "name": "fb0ecded977d92f25f999d8623143178", "bike_id": "fb0ecded977d92f25f999d8623143178", "fusion_lat": 0.0, "is_reserved": 0, "lat": 38.90526966666667, "fusion_lon": 0.0, "is_disabled": 0}, {"rental_uris": {"android": "https://dc.lft.to/lastmile_qr_scan", "ios": "https://dc.lft.to/lastmile_qr_scan"}, "type": "electric_scooter", "lon": -76.98623633333334, "name": "c47bf01c9e6ab57edace4f2b121ed286", "bike_id": "c47bf01c9e6ab57edace4f2b121ed286", "fusion_lat": 0.0, "is_reserved": 0, "lat": 38.905816333333334, "fusion_lon": 0.0, "is_disabled": 0}, {"rental_uris": {"android": "https://dc.lft.to/lastmile_qr_scan", "ios": "https://dc.lft.to/lastmile_qr_scan"}, "type": "electric_scooter", "lon": -77.02009466666667, "name": "dfe3365a152a1da86c1060514d62f118", "bike_id": "dfe3365a152a1da86c1060514d62f118", "fusion_lat": 0.0, "is_reserved": 0, "lat": 38.879356, "fusion_lon": 0.0, "is_disabled": 0}, {"rental_uris": {"android": "https://dc.lft.to/lastmile_qr_scan", "ios": "https://dc.lft.to/lastmile_qr_scan"}, "type": "electric_scooter", "lon": -77.01770483333334, "name": "4d6890a1dbaa9e4f62a9831b65c1e73a", "bike_id": "4d6890a1dbaa9e4f62a9831b65c1e73a", "fusion_lat": 0.0, "is_reserved": 0, "lat": 38.90189866666667, "fusion_lon": 0.0, "is_disabled": 0}, {"rental_uris": {"android": "https://dc.lft.to/lastmile_qr_scan", "ios": "https://dc.lft.to/lastmile_qr_scan"}, "type": "electric_scooter", "lon": -77.073697, "name": "ac2689c1af15863f0cb148543030ecbc", "bike_id": "ac2689c1af15863f0cb148543030ecbc", "fusion_lat": 0.0, "is_reserved": 0, "lat": 38.94318483333333, "fusion_lon": 0.0, "is_disabled": 0}, {"rental_uris": {"android": "https://dc.lft.to/lastmile_qr_scan", "ios": "https://dc.lft.to/lastmile_qr_scan"}, "type": "electric_scooter", "lon": -76.9845665, "name": "0cc59f3f20ae4cd2292f75c8dbe828be", "bike_id": "0cc59f3f20ae4cd2292f75c8dbe828be", "fusion_lat": 0.0, "is_reserved": 0, "lat": 38.88017283333333, "fusion_lon": 0.0, "is_disabled": 0}, {"rental_uris": {"android": "https://dc.lft.to/lastmile_qr_scan", "ios": "https://dc.lft.to/lastmile_qr_scan"}, "type": "electric_scooter", "lon": -77.011767, "name": "e8f8a6d71f292f0354990f0825684fe9", "bike_id": "e8f8a6d71f292f0354990f0825684fe9", "fusion_lat": 0.0, "is_reserved": 0, "lat": 38.900175, "fusion_lon": 0.0, "is_disabled": 0}, {"rental_uris": {"android": "https://dc.lft.to/lastmile_qr_scan", "ios": "https://dc.lft.to/lastmile_qr_scan"}, "type": "electric_bike", "lon": -77.00865133333333, "name": "ae1d2f2acfb1b438dc191be5b0db9406", "bike_id": "ae1d2f2acfb1b438dc191be5b0db9406", "fusion_lat": 0.0, "is_reserved": 0, "lat": 38.8272525, "fusion_lon": 0.0, "is_disabled": 0}, {"rental_uris": {"android": "https://dc.lft.to/lastmile_qr_scan", "ios": "https://dc.lft.to/lastmile_qr_scan"}, "type": "electric_scooter", "lon": -77.03440133333334, "name": "48b603a95253d0c2e2ed7ce933d59efa", "bike_id": "48b603a95253d0c2e2ed7ce933d59efa", "fusion_lat": 0.0, "is_reserved": 0, "lat": 38.91036916666667, "fusion_lon": 0.0, "is_disabled": 0}, {"rental_uris": {"android": "https://dc.lft.to/lastmile_qr_scan", "ios": "https://dc.lft.to/lastmile_qr_scan"}, "type": "electric_scooter", "lon": -77.05406016666667, "name": "4990bbc69490d11214bd745dc47ef1cd", "bike_id": "4990bbc69490d11214bd745dc47ef1cd", "fusion_lat": 0.0, "is_reserved": 0, "lat": 38.86890116666667, "fusion_lon": 0.0, "is_disabled": 0}, {"rental_uris": {"android": "https://dc.lft.to/lastmile_qr_scan", "ios": "https://dc.lft.to/lastmile_qr_scan"}, "type": "electric_scooter", "lon": -76.993782, "name": "388b2e38f3f112da45bec71a6af82c3f", "bike_id": "388b2e38f3f112da45bec71a6af82c3f", "fusion_lat": 0.0, "is_reserved": 0, "lat": 38.92400083333333, "fusion_lon": 0.0, "is_disabled": 0}, {"rental_uris": {"android": "https://dc.lft.to/lastmile_qr_scan", "ios": "https://dc.lft.to/lastmile_qr_scan"}, "type": "electric_scooter", "lon": -77.01720433333334, "name": "635a9c7077156ae9346846c724c73ceb", "bike_id": "635a9c7077156ae9346846c724c73ceb", "fusion_lat": 0.0, "is_reserved": 0, "lat": 38.87934833333333, "fusion_lon": 0.0, "is_disabled": 0}, {"rental_uris": {"android": "https://dc.lft.to/lastmile_qr_scan", "ios": "https://dc.lft.to/lastmile_qr_scan"}, "type": "electric_scooter", "lon": -76.98568366666666, "name": "f630bfd2ae12834b2180a766ddd2aa9e", "bike_id": "f630bfd2ae12834b2180a766ddd2aa9e", "fusion_lat": 0.0, "is_reserved": 0, "lat": 38.855848333333334, "fusion_lon": 0.0, "is_disabled": 0}, {"rental_uris": {"android": "https://dc.lft.to/lastmile_qr_scan", "ios": "https://dc.lft.to/lastmile_qr_scan"}, "type": "electric_scooter", "lon": -76.996704, "name": "5e1652abaa3b57072e8414cca0aedc1f", "bike_id": "5e1652abaa3b57072e8414cca0aedc1f", "fusion_lat": 0.0, "is_reserved": 0, "lat": 38.92187416666667, "fusion_lon": 0.0, "is_disabled": 0}, {"rental_uris": {"android": "https://dc.lft.to/lastmile_qr_scan", "ios": "https://dc.lft.to/lastmile_qr_scan"}, "type": "electric_scooter", "lon": -77.03864533333333, "name": "9322ac5bdef320db0dde4c76d64c857e", "bike_id": "9322ac5bdef320db0dde4c76d64c857e", "fusion_lat": 0.0, "is_reserved": 0, "lat": 38.91168566666666, "fusion_lon": 0.0, "is_disabled": 0}, {"rental_uris": {"android": "https://dc.lft.to/lastmile_qr_scan", "ios": "https://dc.lft.to/lastmile_qr_scan"}, "type": "electric_scooter", "lon": -77.03467983333333, "name": "29199f55854834c07d33dd1a06c66813", "bike_id": "29199f55854834c07d33dd1a06c66813", "fusion_lat": 0.0, "is_reserved": 0, "lat": 38.90870266666667, "fusion_lon": 0.0, "is_disabled": 0}, {"rental_uris": {"android": "https://dc.lft.to/lastmile_qr_scan", "ios": "https://dc.lft.to/lastmile_qr_scan"}, "type": "electric_scooter", "lon": -77.02327133333333, "name": "071d1362d42c59dc9c7a5e33edfa9d4f", "bike_id": "071d1362d42c59dc9c7a5e33edfa9d4f", "fusion_lat": 0.0, "is_reserved": 0, "lat": 38.916712833333335, "fusion_lon": 0.0, "is_disabled": 0}, {"rental_uris": {"android": "https://dc.lft.to/lastmile_qr_scan", "ios": "https://dc.lft.to/lastmile_qr_scan"}, "type": "electric_scooter", "lon": -77.03216233333333, "name": "2f38b5e417be7dd74df2629302d3830f", "bike_id": "2f38b5e417be7dd74df2629302d3830f", "fusion_lat": 0.0, "is_reserved": 0, "lat": 38.9162755, "fusion_lon": 0.0, "is_disabled": 0}, {"rental_uris": {"android": "https://dc.lft.to/lastmile_qr_scan", "ios": "https://dc.lft.to/lastmile_qr_scan"}, "type": "electric_scooter", "lon": -77.039658, "name": "23474c60e8b292f89d9535b41a6920e9", "bike_id": "23474c60e8b292f89d9535b41a6920e9", "fusion_lat": 0.0, "is_reserved": 0, "lat": 38.905956833333335, "fusion_lon": 0.0, "is_disabled": 0}, {"rental_uris": {"android": "https://dc.lft.to/lastmile_qr_scan", "ios": "https://dc.lft.to/lastmile_qr_scan"}, "type": "electric_scooter", "lon": -77.0340325, "name": "bc9af62fff50d9a2a036c41515c16893", "bike_id": "bc9af62fff50d9a2a036c41515c16893", "fusion_lat": 0.0, "is_reserved": 0, "lat": 38.9191085, "fusion_lon": 0.0, "is_disabled": 0}, {"rental_uris": {"android": "https://dc.lft.to/lastmile_qr_scan", "ios": "https://dc.lft.to/lastmile_qr_scan"}, "type": "electric_bike", "lon": -77.0019735, "name": "1fc585a9821360435ddf93db020036f9", "bike_id": "1fc585a9821360435ddf93db020036f9", "fusion_lat": 0.0, "is_reserved": 0, "lat": 38.941492333333336, "fusion_lon": 0.0, "is_disabled": 0}, {"rental_uris": {"android": "https://dc.lft.to/lastmile_qr_scan", "ios": "https://dc.lft.to/lastmile_qr_scan"}, "type": "electric_scooter", "lon": -77.022146, "name": "ca891455570f2497ed516bb96611ae7c", "bike_id": "ca891455570f2497ed516bb96611ae7c", "fusion_lat": 0.0, "is_reserved": 0, "lat": 38.903012833333335, "fusion_lon": 0.0, "is_disabled": 0}, {"rental_uris": {"android": "https://dc.lft.to/lastmile_qr_scan", "ios": "https://dc.lft.to/lastmile_qr_scan"}, "type": "electric_scooter", "lon": -77.01349616666667, "name": "55de9679b1807475bc07249cb86bdcfb", "bike_id": "55de9679b1807475bc07249cb86bdcfb", "fusion_lat": 0.0, "is_reserved": 0, "lat": 38.9190915, "fusion_lon": 0.0, "is_disabled": 0}, {"rental_uris": {"android": "https://dc.lft.to/lastmile_qr_scan", "ios": "https://dc.lft.to/lastmile_qr_scan"}, "type": "electric_scooter", "lon": -77.01250616666667, "name": "55e9af6673e85c2ba7678c2b744f4f88", "bike_id": "55e9af6673e85c2ba7678c2b744f4f88", "fusion_lat": 0.0, "is_reserved": 0, "lat": 38.90865216666667, "fusion_lon": 0.0, "is_disabled": 0}, {"rental_uris": {"android": "https://dc.lft.to/lastmile_qr_scan", "ios": "https://dc.lft.to/lastmile_qr_scan"}, "type": "electric_scooter", "lon": -76.96523683333334, "name": "8daa12ebdb449ae4dca7cff8ec49ba72", "bike_id": "8daa12ebdb449ae4dca7cff8ec49ba72", "fusion_lat": 0.0, "is_reserved": 0, "lat": 38.874772166666666, "fusion_lon": 0.0, "is_disabled": 0}, {"rental_uris": {"android": "https://dc.lft.to/lastmile_qr_scan", "ios": "https://dc.lft.to/lastmile_qr_scan"}, "type": "electric_scooter", "lon": -77.0579385, "name": "7495f414983314e0738649c823dadeb4", "bike_id": "7495f414983314e0738649c823dadeb4", "fusion_lat": 0.0, "is_reserved": 0, "lat": 38.9348065, "fusion_lon": 0.0, "is_disabled": 0}, {"rental_uris": {"android": "https://dc.lft.to/lastmile_qr_scan", "ios": "https://dc.lft.to/lastmile_qr_scan"}, "type": "electric_scooter", "lon": -76.9748255, "name": "fccda4a96155f573a3efe989b6a4a890", "bike_id": "fccda4a96155f573a3efe989b6a4a890", "fusion_lat": 0.0, "is_reserved": 0, "lat": 38.903491, "fusion_lon": 0.0, "is_disabled": 0}, {"rental_uris": {"android": "https://dc.lft.to/lastmile_qr_scan", "ios": "https://dc.lft.to/lastmile_qr_scan"}, "type": "electric_scooter", "lon": -77.03209166666667, "name": "aa8ba529d1d0838b8e090f1ebecb8d44", "bike_id": "aa8ba529d1d0838b8e090f1ebecb8d44", "fusion_lat": 0.0, "is_reserved": 0, "lat": 38.898323500000004, "fusion_lon": 0.0, "is_disabled": 0}, {"rental_uris": {"android": "https://dc.lft.to/lastmile_qr_scan", "ios": "https://dc.lft.to/lastmile_qr_scan"}, "type": "electric_scooter", "lon": -77.04348216666666, "name": "7f6ef2055f33de82da295f5e2af09865", "bike_id": "7f6ef2055f33de82da295f5e2af09865", "fusion_lat": 0.0, "is_reserved": 0, "lat": 38.91352083333334, "fusion_lon": 0.0, "is_disabled": 0}, {"rental_uris": {"android": "https://dc.lft.to/lastmile_qr_scan", "ios": "https://dc.lft.to/lastmile_qr_scan"}, "type": "electric_scooter", "lon": -77.027767, "name": "1ac922f879a710bfe027a00c2d1afaa8", "bike_id": "1ac922f879a710bfe027a00c2d1afaa8", "fusion_lat": 0.0, "is_reserved": 0, "lat": 38.9395595, "fusion_lon": 0.0, "is_disabled": 0}, {"rental_uris": {"android": "https://dc.lft.to/lastmile_qr_scan", "ios": "https://dc.lft.to/lastmile_qr_scan"}, "type": "electric_scooter", "lon": -76.94856433333334, "name": "6b67ae8bd8c629eae6b1f3a2ac649006", "bike_id": "6b67ae8bd8c629eae6b1f3a2ac649006", "fusion_lat": 0.0, "is_reserved": 0, "lat": 38.88301533333333, "fusion_lon": 0.0, "is_disabled": 0}, {"rental_uris": {"android": "https://dc.lft.to/lastmile_qr_scan", "ios": "https://dc.lft.to/lastmile_qr_scan"}, "type": "electric_scooter", "lon": -77.03157466666667, "name": "bb3e299852dc814a1c9a3a1f3c1f9af7", "bike_id": "bb3e299852dc814a1c9a3a1f3c1f9af7", "fusion_lat": 0.0, "is_reserved": 0, "lat": 38.88732233333333, "fusion_lon": 0.0, "is_disabled": 0}, {"rental_uris": {"android": "https://dc.lft.to/lastmile_qr_scan", "ios": "https://dc.lft.to/lastmile_qr_scan"}, "type": "electric_scooter", "lon": -77.029222, "name": "f2989ac76a3ca08a81fd7ec805ecba3b", "bike_id": "f2989ac76a3ca08a81fd7ec805ecba3b", "fusion_lat": 0.0, "is_reserved": 0, "lat": 38.89843283333333, "fusion_lon": 0.0, "is_disabled": 0}, {"rental_uris": {"android": "https://dc.lft.to/lastmile_qr_scan", "ios": "https://dc.lft.to/lastmile_qr_scan"}, "type": "electric_scooter", "lon": -77.0424955, "name": "9443327132fa168f29ea8cc8591ecab6", "bike_id": "9443327132fa168f29ea8cc8591ecab6", "fusion_lat": 0.0, "is_reserved": 0, "lat": 38.922345166666666, "fusion_lon": 0.0, "is_disabled": 0}, {"rental_uris": {"android": "https://dc.lft.to/lastmile_qr_scan", "ios": "https://dc.lft.to/lastmile_qr_scan"}, "type": "electric_scooter", "lon": -77.05523883333333, "name": "7d74ad0d64b81e42855da57c60dd9c22", "bike_id": "7d74ad0d64b81e42855da57c60dd9c22", "fusion_lat": 0.0, "is_reserved": 0, "lat": 38.94407866666667, "fusion_lon": 0.0, "is_disabled": 0}, {"rental_uris": {"android": "https://dc.lft.to/lastmile_qr_scan", "ios": "https://dc.lft.to/lastmile_qr_scan"}, "type": "electric_scooter", "lon": -76.98931483333334, "name": "ee1b7451b68deca7afb8a0d2ce98fa41", "bike_id": "ee1b7451b68deca7afb8a0d2ce98fa41", "fusion_lat": 0.0, "is_reserved": 0, "lat": 38.902236, "fusion_lon": 0.0, "is_disabled": 0}, {"rental_uris": {"android": "https://dc.lft.to/lastmile_qr_scan", "ios": "https://dc.lft.to/lastmile_qr_scan"}, "type": "electric_scooter", "lon": -76.94846883333334, "name": "68a4ec897ca9818ebf0ee120dad22185", "bike_id": "68a4ec897ca9818ebf0ee120dad22185", "fusion_lat": 0.0, "is_reserved": 0, "lat": 38.894830666666664, "fusion_lon": 0.0, "is_disabled": 0}, {"rental_uris": {"android": "https://dc.lft.to/lastmile_qr_scan", "ios": "https://dc.lft.to/lastmile_qr_scan"}, "type": "electric_bike", "lon": -77.0220315, "name": "2981ed7f63bc7a491380498b443383dc", "bike_id": "2981ed7f63bc7a491380498b443383dc", "fusion_lat": 0.0, "is_reserved": 0, "lat": 38.9189695, "fusion_lon": 0.0, "is_disabled": 0}, {"rental_uris": {"android": "https://dc.lft.to/lastmile_qr_scan", "ios": "https://dc.lft.to/lastmile_qr_scan"}, "type": "electric_scooter", "lon": -77.036244, "name": "e249f94d4227d1a45ea78d413aa9fb48", "bike_id": "e249f94d4227d1a45ea78d413aa9fb48", "fusion_lat": 0.0, "is_reserved": 0, "lat": 38.95284233333334, "fusion_lon": 0.0, "is_disabled": 0}, {"rental_uris": {"android": "https://dc.lft.to/lastmile_qr_scan", "ios": "https://dc.lft.to/lastmile_qr_scan"}, "type": "electric_bike", "lon": -76.908178, "name": "67b3606b5662a8919803ce5cb7fdaee1", "bike_id": "67b3606b5662a8919803ce5cb7fdaee1", "fusion_lat": 0.0, "is_reserved": 0, "lat": 38.9945385, "fusion_lon": 0.0, "is_disabled": 0}, {"rental_uris": {"android": "https://dc.lft.to/lastmile_qr_scan", "ios": "https://dc.lft.to/lastmile_qr_scan"}, "type": "electric_scooter", "lon": -77.10173583333334, "name": "ba9a19e89adbd1067d59b25c1b26f63f", "bike_id": "ba9a19e89adbd1067d59b25c1b26f63f", "fusion_lat": 0.0, "is_reserved": 0, "lat": 38.925505333333334, "fusion_lon": 0.0, "is_disabled": 0}, {"rental_uris": {"android": "https://dc.lft.to/lastmile_qr_scan", "ios": "https://dc.lft.to/lastmile_qr_scan"}, "type": "electric_scooter", "lon": -76.99469, "name": "6ee84f3c6b7422564bc43473afdf164a", "bike_id": "6ee84f3c6b7422564bc43473afdf164a", "fusion_lat": 0.0, "is_reserved": 0, "lat": 38.8621695, "fusion_lon": 0.0, "is_disabled": 0}, {"rental_uris": {"android": "https://dc.lft.to/lastmile_qr_scan", "ios": "https://dc.lft.to/lastmile_qr_scan"}, "type": "electric_bike", "lon": -76.97909983333334, "name": "b545fcaf32de4631a262cd0fba0818c7", "bike_id": "b545fcaf32de4631a262cd0fba0818c7", "fusion_lat": 0.0, "is_reserved": 0, "lat": 38.85481216666667, "fusion_lon": 0.0, "is_disabled": 0}, {"rental_uris": {"android": "https://dc.lft.to/lastmile_qr_scan", "ios": "https://dc.lft.to/lastmile_qr_scan"}, "type": "electric_scooter", "lon": -77.03296416666667, "name": "7df2775dffebee6b0a450c10a415b166", "bike_id": "7df2775dffebee6b0a450c10a415b166", "fusion_lat": 0.0, "is_reserved": 0, "lat": 38.95638783333333, "fusion_lon": 0.0, "is_disabled": 0}, {"rental_uris": {"android": "https://dc.lft.to/lastmile_qr_scan", "ios": "https://dc.lft.to/lastmile_qr_scan"}, "type": "electric_scooter", "lon": -76.9871655, "name": "c5e3a6ffd47aedc9ee06b4a54ab3d92e", "bike_id": "c5e3a6ffd47aedc9ee06b4a54ab3d92e", "fusion_lat": 0.0, "is_reserved": 0, "lat": 38.8992515, "fusion_lon": 0.0, "is_disabled": 0}, {"rental_uris": {"android": "https://dc.lft.to/lastmile_qr_scan", "ios": "https://dc.lft.to/lastmile_qr_scan"}, "type": "electric_scooter", "lon": -77.04994916666666, "name": "d7f826e45522962eb8d1f54b10631b10", "bike_id": "d7f826e45522962eb8d1f54b10631b10", "fusion_lat": 0.0, "is_reserved": 0, "lat": 38.892193166666665, "fusion_lon": 0.0, "is_disabled": 0}, {"rental_uris": {"android": "https://dc.lft.to/lastmile_qr_scan", "ios": "https://dc.lft.to/lastmile_qr_scan"}, "type": "electric_scooter", "lon": -77.06242466666667, "name": "c8cf4df53e370193d28d3bc5f4395b0f", "bike_id": "c8cf4df53e370193d28d3bc5f4395b0f", "fusion_lat": 0.0, "is_reserved": 0, "lat": 38.905262, "fusion_lon": 0.0, "is_disabled": 0}, {"rental_uris": {"android": "https://dc.lft.to/lastmile_qr_scan", "ios": "https://dc.lft.to/lastmile_qr_scan"}, "type": "electric_scooter", "lon": -77.03036483333334, "name": "1e0e116be618377f160d32c3c56c4e1f", "bike_id": "1e0e116be618377f160d32c3c56c4e1f", "fusion_lat": 0.0, "is_reserved": 0, "lat": 38.92254616666666, "fusion_lon": 0.0, "is_disabled": 0}, {"rental_uris": {"android": "https://dc.lft.to/lastmile_qr_scan", "ios": "https://dc.lft.to/lastmile_qr_scan"}, "type": "electric_scooter", "lon": -77.02490033333333, "name": "d150ee7622372220244ede49f87e64d1", "bike_id": "d150ee7622372220244ede49f87e64d1", "fusion_lat": 0.0, "is_reserved": 0, "lat": 38.9387295, "fusion_lon": 0.0, "is_disabled": 0}, {"rental_uris": {"android": "https://dc.lft.to/lastmile_qr_scan", "ios": "https://dc.lft.to/lastmile_qr_scan"}, "type": "electric_scooter", "lon": -77.02719633333334, "name": "23d69e0f98e2bb3021863c57cd20c23e", "bike_id": "23d69e0f98e2bb3021863c57cd20c23e", "fusion_lat": 0.0, "is_reserved": 0, "lat": 38.9074075, "fusion_lon": 0.0, "is_disabled": 0}, {"rental_uris": {"android": "https://dc.lft.to/lastmile_qr_scan", "ios": "https://dc.lft.to/lastmile_qr_scan"}, "type": "electric_scooter", "lon": -77.02826933333333, "name": "03971e14ce051730e691ffa12d606eff", "bike_id": "03971e14ce051730e691ffa12d606eff", "fusion_lat": 0.0, "is_reserved": 0, "lat": 38.930656666666664, "fusion_lon": 0.0, "is_disabled": 0}, {"rental_uris": {"android": "https://dc.lft.to/lastmile_qr_scan", "ios": "https://dc.lft.to/lastmile_qr_scan"}, "type": "electric_scooter", "lon": -77.03837916666667, "name": "86c04db2716b098ccdb4b9f3d136a133", "bike_id": "86c04db2716b098ccdb4b9f3d136a133", "fusion_lat": 0.0, "is_reserved": 0, "lat": 38.903742666666666, "fusion_lon": 0.0, "is_disabled": 0}, {"rental_uris": {"android": "https://dc.lft.to/lastmile_qr_scan", "ios": "https://dc.lft.to/lastmile_qr_scan"}, "type": "electric_bike", "lon": -77.09557416666667, "name": "ee2d72bdb6db972d4a1bbac5c26a63e8", "bike_id": "ee2d72bdb6db972d4a1bbac5c26a63e8", "fusion_lat": 0.0, "is_reserved": 0, "lat": 38.83802883333333, "fusion_lon": 0.0, "is_disabled": 0}, {"rental_uris": {"android": "https://dc.lft.to/lastmile_qr_scan", "ios": "https://dc.lft.to/lastmile_qr_scan"}, "type": "electric_scooter", "lon": -77.01580833333334, "name": "e92ffa1705625e9f354cd34c548034e7", "bike_id": "e92ffa1705625e9f354cd34c548034e7", "fusion_lat": 0.0, "is_reserved": 0, "lat": 38.87690666666667, "fusion_lon": 0.0, "is_disabled": 0}, {"rental_uris": {"android": "https://dc.lft.to/lastmile_qr_scan", "ios": "https://dc.lft.to/lastmile_qr_scan"}, "type": "electric_bike", "lon": -77.10514766666667, "name": "ddc6563f4119cf03d0d7d163f5eb01f8", "bike_id": "ddc6563f4119cf03d0d7d163f5eb01f8", "fusion_lat": 0.0, "is_reserved": 0, "lat": 38.92843166666667, "fusion_lon": 0.0, "is_disabled": 0}, {"rental_uris": {"android": "https://dc.lft.to/lastmile_qr_scan", "ios": "https://dc.lft.to/lastmile_qr_scan"}, "type": "electric_scooter", "lon": -77.007565, "name": "42e967b390c678cdcd9d8d2f2b550b11", "bike_id": "42e967b390c678cdcd9d8d2f2b550b11", "fusion_lat": 0.0, "is_reserved": 0, "lat": 38.879122833333334, "fusion_lon": 0.0, "is_disabled": 0}, {"rental_uris": {"android": "https://dc.lft.to/lastmile_qr_scan", "ios": "https://dc.lft.to/lastmile_qr_scan"}, "type": "electric_scooter", "lon": -77.02862683333333, "name": "7e25915586387eed737f052987fccb37", "bike_id": "7e25915586387eed737f052987fccb37", "fusion_lat": 0.0, "is_reserved": 0, "lat": 38.93263833333334, "fusion_lon": 0.0, "is_disabled": 0}, {"rental_uris": {"android": "https://dc.lft.to/lastmile_qr_scan", "ios": "https://dc.lft.to/lastmile_qr_scan"}, "type": "electric_scooter", "lon": -77.04258, "name": "bf15fb98ae8cca96124bd9d5a8a1595a", "bike_id": "bf15fb98ae8cca96124bd9d5a8a1595a", "fusion_lat": 0.0, "is_reserved": 0, "lat": 38.91767983333333, "fusion_lon": 0.0, "is_disabled": 0}, {"rental_uris": {"android": "https://dc.lft.to/lastmile_qr_scan", "ios": "https://dc.lft.to/lastmile_qr_scan"}, "type": "electric_scooter", "lon": -77.03128666666667, "name": "668607fc0fa709f17ba4bdc7c09271d3", "bike_id": "668607fc0fa709f17ba4bdc7c09271d3", "fusion_lat": 0.0, "is_reserved": 0, "lat": 38.919095, "fusion_lon": 0.0, "is_disabled": 0}, {"rental_uris": {"android": "https://dc.lft.to/lastmile_qr_scan", "ios": "https://dc.lft.to/lastmile_qr_scan"}, "type": "electric_scooter", "lon": -77.02957533333333, "name": "cb55b85d6851f894bdd5431dc8671e56", "bike_id": "cb55b85d6851f894bdd5431dc8671e56", "fusion_lat": 0.0, "is_reserved": 0, "lat": 38.90769016666667, "fusion_lon": 0.0, "is_disabled": 0}, {"rental_uris": {"android": "https://dc.lft.to/lastmile_qr_scan", "ios": "https://dc.lft.to/lastmile_qr_scan"}, "type": "electric_scooter", "lon": -77.01338033333333, "name": "91ea13400e5903b6f335dfe82f34850b", "bike_id": "91ea13400e5903b6f335dfe82f34850b", "fusion_lat": 0.0, "is_reserved": 0, "lat": 38.881338, "fusion_lon": 0.0, "is_disabled": 0}, {"rental_uris": {"android": "https://dc.lft.to/lastmile_qr_scan", "ios": "https://dc.lft.to/lastmile_qr_scan"}, "type": "electric_scooter", "lon": -77.04197033333334, "name": "e35093542ff7651acaf5bce1c57a55a7", "bike_id": "e35093542ff7651acaf5bce1c57a55a7", "fusion_lat": 0.0, "is_reserved": 0, "lat": 38.92296733333333, "fusion_lon": 0.0, "is_disabled": 0}, {"rental_uris": {"android": "https://dc.lft.to/lastmile_qr_scan", "ios": "https://dc.lft.to/lastmile_qr_scan"}, "type": "electric_scooter", "lon": -77.04490816666667, "name": "6a6e391135978ad1ae93ec9532590ff1", "bike_id": "6a6e391135978ad1ae93ec9532590ff1", "fusion_lat": 0.0, "is_reserved": 0, "lat": 38.9058215, "fusion_lon": 0.0, "is_disabled": 0}, {"rental_uris": {"android": "https://dc.lft.to/lastmile_qr_scan", "ios": "https://dc.lft.to/lastmile_qr_scan"}, "type": "electric_scooter", "lon": -77.04505383333333, "name": "1b0353a646f79a952c2dcb505bc6dec3", "bike_id": "1b0353a646f79a952c2dcb505bc6dec3", "fusion_lat": 0.0, "is_reserved": 0, "lat": 38.906894666666666, "fusion_lon": 0.0, "is_disabled": 0}, {"rental_uris": {"android": "https://dc.lft.to/lastmile_qr_scan", "ios": "https://dc.lft.to/lastmile_qr_scan"}, "type": "electric_scooter", "lon": -77.02488516666666, "name": "9ce36defc90e50e0fa88dcbf38c0a524", "bike_id": "9ce36defc90e50e0fa88dcbf38c0a524", "fusion_lat": 0.0, "is_reserved": 0, "lat": 38.903894666666666, "fusion_lon": 0.0, "is_disabled": 0}, {"rental_uris": {"android": "https://dc.lft.to/lastmile_qr_scan", "ios": "https://dc.lft.to/lastmile_qr_scan"}, "type": "electric_scooter", "lon": -77.01760166666666, "name": "174e8e716a5e4200f91426d408a15531", "bike_id": "174e8e716a5e4200f91426d408a15531", "fusion_lat": 0.0, "is_reserved": 0, "lat": 38.9211, "fusion_lon": 0.0, "is_disabled": 0}, {"rental_uris": {"android": "https://dc.lft.to/lastmile_qr_scan", "ios": "https://dc.lft.to/lastmile_qr_scan"}, "type": "electric_scooter", "lon": -76.98929983333333, "name": "e1dad44f816cd8d88cc95eaa1d88853f", "bike_id": "e1dad44f816cd8d88cc95eaa1d88853f", "fusion_lat": 0.0, "is_reserved": 0, "lat": 38.88200533333333, "fusion_lon": 0.0, "is_disabled": 0}, {"rental_uris": {"android": "https://dc.lft.to/lastmile_qr_scan", "ios": "https://dc.lft.to/lastmile_qr_scan"}, "type": "electric_bike", "lon": -77.16239233333333, "name": "698be1c03650a14157d8f84aaabefa85", "bike_id": "698be1c03650a14157d8f84aaabefa85", "fusion_lat": 0.0, "is_reserved": 0, "lat": 38.886591833333334, "fusion_lon": 0.0, "is_disabled": 0}, {"rental_uris": {"android": "https://dc.lft.to/lastmile_qr_scan", "ios": "https://dc.lft.to/lastmile_qr_scan"}, "type": "electric_scooter", "lon": -77.01064183333334, "name": "e26e45b509a60d0121318d535edda873", "bike_id": "e26e45b509a60d0121318d535edda873", "fusion_lat": 0.0, "is_reserved": 0, "lat": 38.87244533333333, "fusion_lon": 0.0, "is_disabled": 0}, {"rental_uris": {"android": "https://dc.lft.to/lastmile_qr_scan", "ios": "https://dc.lft.to/lastmile_qr_scan"}, "type": "electric_scooter", "lon": -77.015852, "name": "54005e778c4d78bdacb3151b01caf21f", "bike_id": "54005e778c4d78bdacb3151b01caf21f", "fusion_lat": 0.0, "is_reserved": 0, "lat": 38.9284725, "fusion_lon": 0.0, "is_disabled": 0}, {"rental_uris": {"android": "https://dc.lft.to/lastmile_qr_scan", "ios": "https://dc.lft.to/lastmile_qr_scan"}, "type": "electric_scooter", "lon": -77.03244033333333, "name": "4f6a71c3b03f1e4171e6e28463cb44d5", "bike_id": "4f6a71c3b03f1e4171e6e28463cb44d5", "fusion_lat": 0.0, "is_reserved": 0, "lat": 38.92982516666667, "fusion_lon": 0.0, "is_disabled": 0}, {"rental_uris": {"android": "https://dc.lft.to/lastmile_qr_scan", "ios": "https://dc.lft.to/lastmile_qr_scan"}, "type": "electric_scooter", "lon": -77.029277, "name": "2a4a28573a9a12652962dc3d4c946038", "bike_id": "2a4a28573a9a12652962dc3d4c946038", "fusion_lat": 0.0, "is_reserved": 0, "lat": 38.895506166666664, "fusion_lon": 0.0, "is_disabled": 0}, {"rental_uris": {"android": "https://dc.lft.to/lastmile_qr_scan", "ios": "https://dc.lft.to/lastmile_qr_scan"}, "type": "electric_scooter", "lon": -77.0617415, "name": "a693f1863b984050681e451f53e6bf68", "bike_id": "a693f1863b984050681e451f53e6bf68", "fusion_lat": 0.0, "is_reserved": 0, "lat": 38.905306, "fusion_lon": 0.0, "is_disabled": 0}, {"rental_uris": {"android": "https://dc.lft.to/lastmile_qr_scan", "ios": "https://dc.lft.to/lastmile_qr_scan"}, "type": "electric_scooter", "lon": -77.02490383333334, "name": "ccebb5fcf6f9a260067cadfbdd174c50", "bike_id": "ccebb5fcf6f9a260067cadfbdd174c50", "fusion_lat": 0.0, "is_reserved": 0, "lat": 38.93874016666667, "fusion_lon": 0.0, "is_disabled": 0}, {"rental_uris": {"android": "https://dc.lft.to/lastmile_qr_scan", "ios": "https://dc.lft.to/lastmile_qr_scan"}, "type": "electric_scooter", "lon": -77.0238535, "name": "278f8a153b9b89d0c5c6751338949174", "bike_id": "278f8a153b9b89d0c5c6751338949174", "fusion_lat": 0.0, "is_reserved": 0, "lat": 38.8922535, "fusion_lon": 0.0, "is_disabled": 0}, {"rental_uris": {"android": "https://dc.lft.to/lastmile_qr_scan", "ios": "https://dc.lft.to/lastmile_qr_scan"}, "type": "electric_scooter", "lon": -77.04183283333333, "name": "093a4b84940282b68f4c45dd13f52573", "bike_id": "093a4b84940282b68f4c45dd13f52573", "fusion_lat": 0.0, "is_reserved": 0, "lat": 38.91258216666667, "fusion_lon": 0.0, "is_disabled": 0}, {"rental_uris": {"android": "https://dc.lft.to/lastmile_qr_scan", "ios": "https://dc.lft.to/lastmile_qr_scan"}, "type": "electric_scooter", "lon": -76.98606283333334, "name": "33c1e51dc3e32802516d22fa79f8aa7a", "bike_id": "33c1e51dc3e32802516d22fa79f8aa7a", "fusion_lat": 0.0, "is_reserved": 0, "lat": 38.900090666666664, "fusion_lon": 0.0, "is_disabled": 0}, {"rental_uris": {"android": "https://dc.lft.to/lastmile_qr_scan", "ios": "https://dc.lft.to/lastmile_qr_scan"}, "type": "electric_scooter", "lon": -77.032335, "name": "0b6bbb42eb72c7a3ce92fa3b5df45dbc", "bike_id": "0b6bbb42eb72c7a3ce92fa3b5df45dbc", "fusion_lat": 0.0, "is_reserved": 0, "lat": 38.915989, "fusion_lon": 0.0, "is_disabled": 0}, {"rental_uris": {"android": "https://dc.lft.to/lastmile_qr_scan", "ios": "https://dc.lft.to/lastmile_qr_scan"}, "type": "electric_scooter", "lon": -77.02775316666667, "name": "9f3d94aacaa83ea8d7f567a5ad151df1", "bike_id": "9f3d94aacaa83ea8d7f567a5ad151df1", "fusion_lat": 0.0, "is_reserved": 0, "lat": 38.89221666666667, "fusion_lon": 0.0, "is_disabled": 0}, {"rental_uris": {"android": "https://dc.lft.to/lastmile_qr_scan", "ios": "https://dc.lft.to/lastmile_qr_scan"}, "type": "electric_scooter", "lon": -76.9482795, "name": "300ff75e56cf475cd6a5ac49ef6eaf2b", "bike_id": "300ff75e56cf475cd6a5ac49ef6eaf2b", "fusion_lat": 0.0, "is_reserved": 0, "lat": 38.885141, "fusion_lon": 0.0, "is_disabled": 0}, {"rental_uris": {"android": "https://dc.lft.to/lastmile_qr_scan", "ios": "https://dc.lft.to/lastmile_qr_scan"}, "type": "electric_bike", "lon": -77.07354566666666, "name": "9096d873fb86524c5aa76ca831701959", "bike_id": "9096d873fb86524c5aa76ca831701959", "fusion_lat": 0.0, "is_reserved": 0, "lat": 38.96110183333333, "fusion_lon": 0.0, "is_disabled": 0}, {"rental_uris": {"android": "https://dc.lft.to/lastmile_qr_scan", "ios": "https://dc.lft.to/lastmile_qr_scan"}, "type": "electric_scooter", "lon": -77.045798, "name": "cb69275c630cf3d677b74d849192a574", "bike_id": "cb69275c630cf3d677b74d849192a574", "fusion_lat": 0.0, "is_reserved": 0, "lat": 38.91393733333334, "fusion_lon": 0.0, "is_disabled": 0}, {"rental_uris": {"android": "https://dc.lft.to/lastmile_qr_scan", "ios": "https://dc.lft.to/lastmile_qr_scan"}, "type": "electric_scooter", "lon": -77.0384905, "name": "b1120996b74f7b06c461788ee00c44ce", "bike_id": "b1120996b74f7b06c461788ee00c44ce", "fusion_lat": 0.0, "is_reserved": 0, "lat": 38.912083333333335, "fusion_lon": 0.0, "is_disabled": 0}, {"rental_uris": {"android": "https://dc.lft.to/lastmile_qr_scan", "ios": "https://dc.lft.to/lastmile_qr_scan"}, "type": "electric_scooter", "lon": -77.02290516666666, "name": "aff413a1827a9cf57e59aca5004e426c", "bike_id": "aff413a1827a9cf57e59aca5004e426c", "fusion_lat": 0.0, "is_reserved": 0, "lat": 38.916633166666664, "fusion_lon": 0.0, "is_disabled": 0}, {"rental_uris": {"android": "https://dc.lft.to/lastmile_qr_scan", "ios": "https://dc.lft.to/lastmile_qr_scan"}, "type": "electric_scooter", "lon": -77.01952066666666, "name": "e01acfea3e48bf5273a281c2f6d6f3c3", "bike_id": "e01acfea3e48bf5273a281c2f6d6f3c3", "fusion_lat": 0.0, "is_reserved": 0, "lat": 38.922451333333335, "fusion_lon": 0.0, "is_disabled": 0}, {"rental_uris": {"android": "https://dc.lft.to/lastmile_qr_scan", "ios": "https://dc.lft.to/lastmile_qr_scan"}, "type": "electric_scooter", "lon": -77.062902, "name": "be9fb09d6ffc29b006bce4333a9f04c3", "bike_id": "be9fb09d6ffc29b006bce4333a9f04c3", "fusion_lat": 0.0, "is_reserved": 0, "lat": 38.90617116666667, "fusion_lon": 0.0, "is_disabled": 0}, {"rental_uris": {"android": "https://dc.lft.to/lastmile_qr_scan", "ios": "https://dc.lft.to/lastmile_qr_scan"}, "type": "electric_scooter", "lon": -77.05445833333333, "name": "7d2a0955247ad0e45bf71f3a8c41b4bb", "bike_id": "7d2a0955247ad0e45bf71f3a8c41b4bb", "fusion_lat": 0.0, "is_reserved": 0, "lat": 38.895996, "fusion_lon": 0.0, "is_disabled": 0}, {"rental_uris": {"android": "https://dc.lft.to/lastmile_qr_scan", "ios": "https://dc.lft.to/lastmile_qr_scan"}, "type": "electric_scooter", "lon": -76.99853566666667, "name": "568649589560052cca7a220669fb3344", "bike_id": "568649589560052cca7a220669fb3344", "fusion_lat": 0.0, "is_reserved": 0, "lat": 38.900012333333336, "fusion_lon": 0.0, "is_disabled": 0}, {"rental_uris": {"android": "https://dc.lft.to/lastmile_qr_scan", "ios": "https://dc.lft.to/lastmile_qr_scan"}, "type": "electric_bike", "lon": -77.028844, "name": "e9787d5db04d32ce662d615050eb671a", "bike_id": "e9787d5db04d32ce662d615050eb671a", "fusion_lat": 0.0, "is_reserved": 0, "lat": 38.9794455, "fusion_lon": 0.0, "is_disabled": 0}, {"rental_uris": {"android": "https://dc.lft.to/lastmile_qr_scan", "ios": "https://dc.lft.to/lastmile_qr_scan"}, "type": "electric_bike", "lon": -77.0893105, "name": "04c61cbf66fff3a9c85c01f030cb0189", "bike_id": "04c61cbf66fff3a9c85c01f030cb0189", "fusion_lat": 0.0, "is_reserved": 0, "lat": 38.84091133333333, "fusion_lon": 0.0, "is_disabled": 0}, {"rental_uris": {"android": "https://dc.lft.to/lastmile_qr_scan", "ios": "https://dc.lft.to/lastmile_qr_scan"}, "type": "electric_scooter", "lon": -76.9494675, "name": "e4f3fa9a19b43ed53f4f1f645e1578b8", "bike_id": "e4f3fa9a19b43ed53f4f1f645e1578b8", "fusion_lat": 0.0, "is_reserved": 0, "lat": 38.8831715, "fusion_lon": 0.0, "is_disabled": 0}, {"rental_uris": {"android": "https://dc.lft.to/lastmile_qr_scan", "ios": "https://dc.lft.to/lastmile_qr_scan"}, "type": "electric_scooter", "lon": -77.029967, "name": "3a6b0dcbb09465ceee62bf7e2ace73e4", "bike_id": "3a6b0dcbb09465ceee62bf7e2ace73e4", "fusion_lat": 0.0, "is_reserved": 0, "lat": 38.924829, "fusion_lon": 0.0, "is_disabled": 0}, {"rental_uris": {"android": "https://dc.lft.to/lastmile_qr_scan", "ios": "https://dc.lft.to/lastmile_qr_scan"}, "type": "electric_bike", "lon": -77.02693783333333, "name": "ad7f52ac3b2e535542b9b6bbf31275e9", "bike_id": "ad7f52ac3b2e535542b9b6bbf31275e9", "fusion_lat": 0.0, "is_reserved": 0, "lat": 38.97374, "fusion_lon": 0.0, "is_disabled": 0}, {"rental_uris": {"android": "https://dc.lft.to/lastmile_qr_scan", "ios": "https://dc.lft.to/lastmile_qr_scan"}, "type": "electric_bike", "lon": -76.988473, "name": "06627f455ef3d6de722f758691ebece4", "bike_id": "06627f455ef3d6de722f758691ebece4", "fusion_lat": 0.0, "is_reserved": 0, "lat": 38.84266683333333, "fusion_lon": 0.0, "is_disabled": 0}, {"rental_uris": {"android": "https://dc.lft.to/lastmile_qr_scan", "ios": "https://dc.lft.to/lastmile_qr_scan"}, "type": "electric_scooter", "lon": -77.0329085, "name": "2908dc755076447ebba7d754d897d3b4", "bike_id": "2908dc755076447ebba7d754d897d3b4", "fusion_lat": 0.0, "is_reserved": 0, "lat": 38.956535833333334, "fusion_lon": 0.0, "is_disabled": 0}, {"rental_uris": {"android": "https://dc.lft.to/lastmile_qr_scan", "ios": "https://dc.lft.to/lastmile_qr_scan"}, "type": "electric_scooter", "lon": -77.02403933333333, "name": "6c3a0f2449646d9834b09380e9688480", "bike_id": "6c3a0f2449646d9834b09380e9688480", "fusion_lat": 0.0, "is_reserved": 0, "lat": 38.90739133333334, "fusion_lon": 0.0, "is_disabled": 0}, {"rental_uris": {"android": "https://dc.lft.to/lastmile_qr_scan", "ios": "https://dc.lft.to/lastmile_qr_scan"}, "type": "electric_scooter", "lon": -76.94771216666666, "name": "dd33dc77fbf6ef04b7009eff2917e72d", "bike_id": "dd33dc77fbf6ef04b7009eff2917e72d", "fusion_lat": 0.0, "is_reserved": 0, "lat": 38.89629583333333, "fusion_lon": 0.0, "is_disabled": 0}, {"rental_uris": {"android": "https://dc.lft.to/lastmile_qr_scan", "ios": "https://dc.lft.to/lastmile_qr_scan"}, "type": "electric_scooter", "lon": -76.983338, "name": "27ddbe9f98c59f939fa76a68ebc61d30", "bike_id": "27ddbe9f98c59f939fa76a68ebc61d30", "fusion_lat": 0.0, "is_reserved": 0, "lat": 38.86252416666667, "fusion_lon": 0.0, "is_disabled": 0},