{"data": {"bikes": [{"bike_id": "760bdf6aaa57b23cbf89759e59b2bfb9", "is_reserved": 0, "fusion_lon": 0.0, "lat": 38.902973, "is_disabled": 0, "name": "760bdf6aaa57b23cbf89759e59b2bfb9", "fusion_lat": 0.0, "rental_uris": {"ios": "https://dc.lft.to/lastmile_qr_scan", "android": "https://dc.lft.to/lastmile_qr_scan"}, "lon": -76.998588, "type": "electric_scooter"}, {"bike_id": "20d38a60a92505a8e6791700c767b0b0", "is_reserved": 0, "fusion_lon": 0.0, "lat": 38.91270266666667, "is_disabled": 0, "name": "20d38a60a92505a8e6791700c767b0b0", "fusion_lat": 0.0, "rental_uris": {"ios": "https://dc.lft.to/lastmile_qr_scan", "android": "https://dc.lft.to/lastmile_qr_scan"}, "lon": -77.0269125, "type": "electric_scooter"}, {"bike_id": "b59821f5e544c4d17d6da8018347e375", "is_reserved": 0, "fusion_lon": 0.0, "lat": 38.86352733333333, "is_disabled": 0, "name": "b59821f5e544c4d17d6da8018347e375", "fusion_lat": 0.0, "rental_uris": {"ios": "https://dc.lft.to/lastmile_qr_scan", "android": "https://dc.lft.to/lastmile_qr_scan"}, "lon": -76.99072116666666, "type": "electric_scooter"}, {"bike_id": "c8d78eb8d18c89190c5036a998a28bf3", "is_reserved": 0, "fusion_lon": 0.0, "lat": 38.8783485, "is_disabled": 0, "name": "c8d78eb8d18c89190c5036a998a28bf3", "fusion_lat": 0.0, "rental_uris": {"ios": "https://dc.lft.to/lastmile_qr_scan", "android": "https://dc.lft.to/lastmile_qr_scan"}, "lon": -76.990369, "type": "electric_scooter"}, {"bike_id": "9f0d02129981c33d5ee73858efe3c423", "is_reserved": 0, "fusion_lon": 0.0, "lat": 38.941726333333335, "is_disabled": 0, "name": "9f0d02129981c33d5ee73858efe3c423", "fusion_lat": 0.0, "rental_uris": {"ios": "https://dc.lft.to/lastmile_qr_scan", "android": "https://dc.lft.to/lastmile_qr_scan"}, "lon": -77.02499016666667, "type": "electric_scooter"}, {"bike_id": "19f1ad8c7f6f9fd486a98f2e98407432", "is_reserved": 0, "fusion_lon": 0.0, "lat": 38.842927, "is_disabled": 0, "name": "19f1ad8c7f6f9fd486a98f2e98407432", "fusion_lat": 0.0, "rental_uris": {"ios": "https://dc.lft.to/lastmile_qr_scan", "android": "https://dc.lft.to/lastmile_qr_scan"}, "lon": -76.99945483333333, "type": "electric_scooter"}, {"bike_id": "6edca79fdf9113c687f950936e91bdee", "is_reserved": 0, "fusion_lon": 0.0, "lat": 38.90576933333333, "is_disabled": 0, "name": "6edca79fdf9113c687f950936e91bdee", "fusion_lat": 0.0, "rental_uris": {"ios": "https://dc.lft.to/lastmile_qr_scan", "android": "https://dc.lft.to/lastmile_qr_scan"}, "lon": -77.02203116666666, "type": "electric_scooter"}, {"bike_id": "4e76a2ca76ab5ab04bbe3ce344bc4fa7", "is_reserved": 0, "fusion_lon": 0.0, "lat": 38.919241, "is_disabled": 0, "name": "4e76a2ca76ab5ab04bbe3ce344bc4fa7", "fusion_lat": 0.0, "rental_uris": {"ios": "https://dc.lft.to/lastmile_qr_scan", "android": "https://dc.lft.to/lastmile_qr_scan"}, "lon": -77.03197683333333, "type": "electric_scooter"}, {"bike_id": "9d800e30446261f1e9c5559a07e8d71d", "is_reserved": 0, "fusion_lon": 0.0, "lat": 38.876295999999996, "is_disabled": 0, "name": "9d800e30446261f1e9c5559a07e8d71d", "fusion_lat": 0.0, "rental_uris": {"ios": "https://dc.lft.to/lastmile_qr_scan", "android": "https://dc.lft.to/lastmile_qr_scan"}, "lon": -76.96523866666666, "type": "electric_scooter"}, {"bike_id": "65d7f66031398dedeead3443ff85ffeb", "is_reserved": 0, "fusion_lon": 0.0, "lat": 38.907742, "is_disabled": 0, "name": "65d7f66031398dedeead3443ff85ffeb", "fusion_lat": 0.0, "rental_uris": {"ios": "https://dc.lft.to/lastmile_qr_scan", "android": "https://dc.lft.to/lastmile_qr_scan"}, "lon": -77.06919, "type": "electric_scooter"}, {"bike_id": "0437fa42af96efc5a19e6fab6ea5c11c", "is_reserved": 0, "fusion_lon": 0.0, "lat": 38.9226305, "is_disabled": 0, "name": "0437fa42af96efc5a19e6fab6ea5c11c", "fusion_lat": 0.0, "rental_uris": {"ios": "https://dc.lft.to/lastmile_qr_scan", "android": "https://dc.lft.to/lastmile_qr_scan"}, "lon": -77.01829233333333, "type": "electric_scooter"}, {"bike_id": "bcb483ffe74d20f4ad6dd40b6c49c82b", "is_reserved": 0, "fusion_lon": 0.0, "lat": 38.9044715, "is_disabled": 0, "name": "bcb483ffe74d20f4ad6dd40b6c49c82b", "fusion_lat": 0.0, "rental_uris": {"ios": "https://dc.lft.to/lastmile_qr_scan", "android": "https://dc.lft.to/lastmile_qr_scan"}, "lon": -76.99624816666666, "type": "electric_scooter"}, {"bike_id": "3f4c224bc4a079088b0df6dab33d4cec", "is_reserved": 0, "fusion_lon": 0.0, "lat": 38.91620316666667, "is_disabled": 0, "name": "3f4c224bc4a079088b0df6dab33d4cec", "fusion_lat": 0.0, "rental_uris": {"ios": "https://dc.lft.to/lastmile_qr_scan", "android": "https://dc.lft.to/lastmile_qr_scan"}, "lon": -77.03176116666667, "type": "electric_scooter"}, {"bike_id": "40c45e90866004dc471ba87abb0d9807", "is_reserved": 0, "fusion_lon": 0.0, "lat": 38.911909666666666, "is_disabled": 0, "name": "40c45e90866004dc471ba87abb0d9807", "fusion_lat": 0.0, "rental_uris": {"ios": "https://dc.lft.to/lastmile_qr_scan", "android": "https://dc.lft.to/lastmile_qr_scan"}, "lon": -77.06089883333334, "type": "electric_scooter"}, {"bike_id": "6d4adecb4537ef9a739691984ed9b8fc", "is_reserved": 0, "fusion_lon": 0.0, "lat": 38.84423066666667, "is_disabled": 0, "name": "6d4adecb4537ef9a739691984ed9b8fc", "fusion_lat": 0.0, "rental_uris": {"ios": "https://dc.lft.to/lastmile_qr_scan", "android": "https://dc.lft.to/lastmile_qr_scan"}, "lon": -76.99778166666667, "type": "electric_scooter"}, {"bike_id": "fdfcc5c4bda57843a88305faebe49bec", "is_reserved": 0, "fusion_lon": 0.0, "lat": 38.898008833333336, "is_disabled": 0, "name": "fdfcc5c4bda57843a88305faebe49bec", "fusion_lat": 0.0, "rental_uris": {"ios": "https://dc.lft.to/lastmile_qr_scan", "android": "https://dc.lft.to/lastmile_qr_scan"}, "lon": -76.9916495, "type": "electric_scooter"}, {"bike_id": "a14d775996e4f1fe70973da7f92d8956", "is_reserved": 0, "fusion_lon": 0.0, "lat": 38.9349255, "is_disabled": 0, "name": "a14d775996e4f1fe70973da7f92d8956", "fusion_lat": 0.0, "rental_uris": {"ios": "https://dc.lft.to/lastmile_qr_scan", "android": "https://dc.lft.to/lastmile_qr_scan"}, "lon": -77.02844016666667, "type": "electric_scooter"}, {"bike_id": "f0a31d36028f62cb541e8f9dbf99c5c3", "is_reserved": 0, "fusion_lon": 0.0, "lat": 38.91184533333333, "is_disabled": 0, "name": "f0a31d36028f62cb541e8f9dbf99c5c3", "fusion_lat": 0.0, "rental_uris": {"ios": "https://dc.lft.to/lastmile_qr_scan", "android": "https://dc.lft.to/lastmile_qr_scan"}, "lon": -77.045484, "type": "electric_scooter"}, {"bike_id": "7ffee3f763242298bc86fe89377c3e54", "is_reserved": 0, "fusion_lon": 0.0, "lat": 38.903105333333336, "is_disabled": 0, "name": "7ffee3f763242298bc86fe89377c3e54", "fusion_lat": 0.0, "rental_uris": {"ios": "https://dc.lft.to/lastmile_qr_scan", "android": "https://dc.lft.to/lastmile_qr_scan"}, "lon": -77.03310483333334, "type": "electric_scooter"}, {"bike_id": "fb57f71b48cfd2afcda49df20beb5509", "is_reserved": 0, "fusion_lon": 0.0, "lat": 38.900158, "is_disabled": 0, "name": "fb57f71b48cfd2afcda49df20beb5509", "fusion_lat": 0.0, "rental_uris": {"ios": "https://dc.lft.to/lastmile_qr_scan", "android": "https://dc.lft.to/lastmile_qr_scan"}, "lon": -76.995225, "type": "electric_scooter"}, {"bike_id": "7d99b0de5eb362fa9b5377ae753cca75", "is_reserved": 0, "fusion_lon": 0.0, "lat": 38.810408, "is_disabled": 0, "name": "7d99b0de5eb362fa9b5377ae753cca75", "fusion_lat": 0.0, "rental_uris": {"ios": "https://dc.lft.to/lastmile_qr_scan", "android": "https://dc.lft.to/lastmile_qr_scan"}, "lon": -77.08510366666667, "type": "electric_bike"}, {"bike_id": "cb6eb248a7553d7415e99f2d48643e1e", "is_reserved": 0, "fusion_lon": 0.0, "lat": 38.9459955, "is_disabled": 0, "name": "cb6eb248a7553d7415e99f2d48643e1e", "fusion_lat": 0.0, "rental_uris": {"ios": "https://dc.lft.to/lastmile_qr_scan", "android": "https://dc.lft.to/lastmile_qr_scan"}, "lon": -77.02977983333334, "type": "electric_scooter"}, {"bike_id": "3d5a4b730dae07c30c7b0269f647b8f0", "is_reserved": 0, "fusion_lon": 0.0, "lat": 38.85428133333333, "is_disabled": 0, "name": "3d5a4b730dae07c30c7b0269f647b8f0", "fusion_lat": 0.0, "rental_uris": {"ios": "https://dc.lft.to/lastmile_qr_scan", "android": "https://dc.lft.to/lastmile_qr_scan"}, "lon": -76.90972633333334, "type": "electric_bike"}, {"bike_id": "b99e8299935b10c32d4ad9c96f1fbe17", "is_reserved": 0, "fusion_lon": 0.0, "lat": 38.89222733333333, "is_disabled": 0, "name": "b99e8299935b10c32d4ad9c96f1fbe17", "fusion_lat": 0.0, "rental_uris": {"ios": "https://dc.lft.to/lastmile_qr_scan", "android": "https://dc.lft.to/lastmile_qr_scan"}, "lon": -77.04859066666667, "type": "electric_scooter"}, {"bike_id": "2ee1f6a2933dbe478f1d8ec63943a6db", "is_reserved": 0, "fusion_lon": 0.0, "lat": 38.88610533333333, "is_disabled": 0, "name": "2ee1f6a2933dbe478f1d8ec63943a6db", "fusion_lat": 0.0, "rental_uris": {"ios": "https://dc.lft.to/lastmile_qr_scan", "android": "https://dc.lft.to/lastmile_qr_scan"}, "lon": -77.00572666666666, "type": "electric_scooter"}, {"bike_id": "a9b19c5d29c91d215fd9b39cfc48f5b2", "is_reserved": 0, "fusion_lon": 0.0, "lat": 38.914404833333336, "is_disabled": 0, "name": "a9b19c5d29c91d215fd9b39cfc48f5b2", "fusion_lat": 0.0, "rental_uris": {"ios": "https://dc.lft.to/lastmile_qr_scan", "android": "https://dc.lft.to/lastmile_qr_scan"}, "lon": -77.03463933333333, "type": "electric_scooter"}, {"bike_id": "f0ecad9cc7588d4298e915e97e23661d", "is_reserved": 0, "fusion_lon": 0.0, "lat": 38.91248566666667, "is_disabled": 0, "name": "f0ecad9cc7588d4298e915e97e23661d", "fusion_lat": 0.0, "rental_uris": {"ios": "https://dc.lft.to/lastmile_qr_scan", "android": "https://dc.lft.to/lastmile_qr_scan"}, "lon": -77.02692316666666, "type": "electric_scooter"}, {"bike_id": "2be36791f298b2c2bb243934e00b401e", "is_reserved": 0, "fusion_lon": 0.0, "lat": 38.9084165, "is_disabled": 0, "name": "2be36791f298b2c2bb243934e00b401e", "fusion_lat": 0.0, "rental_uris": {"ios": "https://dc.lft.to/lastmile_qr_scan", "android": "https://dc.lft.to/lastmile_qr_scan"}, "lon": -77.08530833333333, "type": "electric_scooter"}, {"bike_id": "748d3c1d168bb5d8b7fcfdad22204450", "is_reserved": 0, "fusion_lon": 0.0, "lat": 38.92084966666667, "is_disabled": 0, "name": "748d3c1d168bb5d8b7fcfdad22204450", "fusion_lat": 0.0, "rental_uris": {"ios": "https://dc.lft.to/lastmile_qr_scan", "android": "https://dc.lft.to/lastmile_qr_scan"}, "lon": -77.02512466666667, "type": "electric_scooter"}, {"bike_id": "da364b0547a3dfa5be401558a06ef487", "is_reserved": 0, "fusion_lon": 0.0, "lat": 38.903514, "is_disabled": 0, "name": "da364b0547a3dfa5be401558a06ef487", "fusion_lat": 0.0, "rental_uris": {"ios": "https://dc.lft.to/lastmile_qr_scan", "android": "https://dc.lft.to/lastmile_qr_scan"}, "lon": -77.04320466666667, "type": "electric_scooter"}, {"bike_id": "a6de9ad5bbf04178cfed3e6a7bfe9e0f", "is_reserved": 0, "fusion_lon": 0.0, "lat": 38.9273175, "is_disabled": 0, "name": "a6de9ad5bbf04178cfed3e6a7bfe9e0f", "fusion_lat": 0.0, "rental_uris": {"ios": "https://dc.lft.to/lastmile_qr_scan", "android": "https://dc.lft.to/lastmile_qr_scan"}, "lon": -77.02275116666667, "type": "electric_scooter"}, {"bike_id": "1893dc09ae7754de89db93f8ff27554e", "is_reserved": 0, "fusion_lon": 0.0, "lat": 38.87996866666667, "is_disabled": 0, "name": "1893dc09ae7754de89db93f8ff27554e", "fusion_lat": 0.0, "rental_uris": {"ios": "https://dc.lft.to/lastmile_qr_scan", "android": "https://dc.lft.to/lastmile_qr_scan"}, "lon": -76.9950065, "type": "electric_scooter"}, {"bike_id": "9395b81589ddbfd6214eeb36540aac30", "is_reserved": 0, "fusion_lon": 0.0, "lat": 38.86623216666667, "is_disabled": 0, "name": "9395b81589ddbfd6214eeb36540aac30", "fusion_lat": 0.0, "rental_uris": {"ios": "https://dc.lft.to/lastmile_qr_scan", "android": "https://dc.lft.to/lastmile_qr_scan"}, "lon": -76.98712466666667, "type": "electric_scooter"}, {"bike_id": "136aac0ccfe84a8e5258bd7d89121474", "is_reserved": 0, "fusion_lon": 0.0, "lat": 38.928891, "is_disabled": 0, "name": "136aac0ccfe84a8e5258bd7d89121474", "fusion_lat": 0.0, "rental_uris": {"ios": "https://dc.lft.to/lastmile_qr_scan", "android": "https://dc.lft.to/lastmile_qr_scan"}, "lon": -77.0545965, "type": "electric_scooter"}, {"bike_id": "949a3b3661ef2d13882d1cca380d70c4", "is_reserved": 0, "fusion_lon": 0.0, "lat": 38.908054666666665, "is_disabled": 0, "name": "949a3b3661ef2d13882d1cca380d70c4", "fusion_lat": 0.0, "rental_uris": {"ios": "https://dc.lft.to/lastmile_qr_scan", "android": "https://dc.lft.to/lastmile_qr_scan"}, "lon": -77.03461616666667, "type": "electric_scooter"}, {"bike_id": "95cf8cc512c61af8ddb82de9ad1582ad", "is_reserved": 0, "fusion_lon": 0.0, "lat": 38.90012433333333, "is_disabled": 0, "name": "95cf8cc512c61af8ddb82de9ad1582ad", "fusion_lat": 0.0, "rental_uris": {"ios": "https://dc.lft.to/lastmile_qr_scan", "android": "https://dc.lft.to/lastmile_qr_scan"}, "lon": -76.97307266666667, "type": "electric_scooter"}, {"bike_id": "badb9fa8c2fc478a00eb1b3a7da2f39e", "is_reserved": 0, "fusion_lon": 0.0, "lat": 38.89947016666667, "is_disabled": 0, "name": "badb9fa8c2fc478a00eb1b3a7da2f39e", "fusion_lat": 0.0, "rental_uris": {"ios": "https://dc.lft.to/lastmile_qr_scan", "android": "https://dc.lft.to/lastmile_qr_scan"}, "lon": -77.0033885, "type": "electric_scooter"}, {"bike_id": "af4215039585711c161b388a104c86ad", "is_reserved": 0, "fusion_lon": 0.0, "lat": 38.90492733333333, "is_disabled": 0, "name": "af4215039585711c161b388a104c86ad", "fusion_lat": 0.0, "rental_uris": {"ios": "https://dc.lft.to/lastmile_qr_scan", "android": "https://dc.lft.to/lastmile_qr_scan"}, "lon": -77.02954316666667, "type": "electric_scooter"}, {"bike_id": "362637ff318ea1b096b5238cadd2b5c0", "is_reserved": 0, "fusion_lon": 0.0, "lat": 38.90231633333333, "is_disabled": 0, "name": "362637ff318ea1b096b5238cadd2b5c0", "fusion_lat": 0.0, "rental_uris": {"ios": "https://dc.lft.to/lastmile_qr_scan", "android": "https://dc.lft.to/lastmile_qr_scan"}, "lon": -77.06072416666666, "type": "electric_scooter"}, {"bike_id": "ed7b5097a40499524bc40dbfcf170f82", "is_reserved": 0, "fusion_lon": 0.0, "lat": 38.895050166666664, "is_disabled": 0, "name": "ed7b5097a40499524bc40dbfcf170f82", "fusion_lat": 0.0, "rental_uris": {"ios": "https://dc.lft.to/lastmile_qr_scan", "android": "https://dc.lft.to/lastmile_qr_scan"}, "lon": -77.02196883333333, "type": "electric_scooter"}, {"bike_id": "67e19f50e1b5db68e25032363b9bbf22", "is_reserved": 0, "fusion_lon": 0.0, "lat": 38.86372333333333, "is_disabled": 0, "name": "67e19f50e1b5db68e25032363b9bbf22", "fusion_lat": 0.0, "rental_uris": {"ios": "https://dc.lft.to/lastmile_qr_scan", "android": "https://dc.lft.to/lastmile_qr_scan"}, "lon": -76.99059616666666, "type": "electric_scooter"}, {"bike_id": "6af74d386935402d3c52b67ce48e26db", "is_reserved": 0, "fusion_lon": 0.0, "lat": 38.899523333333335, "is_disabled": 0, "name": "6af74d386935402d3c52b67ce48e26db", "fusion_lat": 0.0, "rental_uris": {"ios": "https://dc.lft.to/lastmile_qr_scan", "android": "https://dc.lft.to/lastmile_qr_scan"}, "lon": -77.033406, "type": "electric_scooter"}, {"bike_id": "f2a5e37ab7e184d2294d2d50b3880d65", "is_reserved": 0, "fusion_lon": 0.0, "lat": 38.89878016666667, "is_disabled": 0, "name": "f2a5e37ab7e184d2294d2d50b3880d65", "fusion_lat": 0.0, "rental_uris": {"ios": "https://dc.lft.to/lastmile_qr_scan", "android": "https://dc.lft.to/lastmile_qr_scan"}, "lon": -76.93158083333333, "type": "electric_scooter"}, {"bike_id": "5d8a842e35fe42e05caa76e421a645ae", "is_reserved": 0, "fusion_lon": 0.0, "lat": 38.934382166666666, "is_disabled": 0, "name": "5d8a842e35fe42e05caa76e421a645ae", "fusion_lat": 0.0, "rental_uris": {"ios": "https://dc.lft.to/lastmile_qr_scan", "android": "https://dc.lft.to/lastmile_qr_scan"}, "lon": -77.03434566666667, "type": "electric_scooter"}, {"bike_id": "747577ad97cbc283ada2b08c1fe2c7c2", "is_reserved": 0, "fusion_lon": 0.0, "lat": 38.893621833333334, "is_disabled": 0, "name": "747577ad97cbc283ada2b08c1fe2c7c2", "fusion_lat": 0.0, "rental_uris": {"ios": "https://dc.lft.to/lastmile_qr_scan", "android": "https://dc.lft.to/lastmile_qr_scan"}, "lon": -76.98514933333334, "type": "electric_bike"}, {"bike_id": "286a5cecd6d888dda8ac328255a22a32", "is_reserved": 0, "fusion_lon": 0.0, "lat": 38.950732, "is_disabled": 0, "name": "286a5cecd6d888dda8ac328255a22a32", "fusion_lat": 0.0, "rental_uris": {"ios": "https://dc.lft.to/lastmile_qr_scan", "android": "https://dc.lft.to/lastmile_qr_scan"}, "lon": -77.01190583333333, "type": "electric_bike"}, {"bike_id": "7b6c0f0394ed7caab3b1244f4b42931a", "is_reserved": 0, "fusion_lon": 0.0, "lat": 38.924946166666665, "is_disabled": 0, "name": "7b6c0f0394ed7caab3b1244f4b42931a", "fusion_lat": 0.0, "rental_uris": {"ios": "https://dc.lft.to/lastmile_qr_scan", "android": "https://dc.lft.to/lastmile_qr_scan"}, "lon": -77.008883, "type": "electric_scooter"}, {"bike_id": "df593ca3faadd410294d212b49cd45fd", "is_reserved": 0, "fusion_lon": 0.0, "lat": 38.9077895, "is_disabled": 0, "name": "df593ca3faadd410294d212b49cd45fd", "fusion_lat": 0.0, "rental_uris": {"ios": "https://dc.lft.to/lastmile_qr_scan", "android": "https://dc.lft.to/lastmile_qr_scan"}, "lon": -77.03828983333334, "type": "electric_scooter"}, {"bike_id": "d01e13ec8ef5a5ced79daed95c3c8126", "is_reserved": 0, "fusion_lon": 0.0, "lat": 38.89507666666667, "is_disabled": 0, "name": "d01e13ec8ef5a5ced79daed95c3c8126", "fusion_lat": 0.0, "rental_uris": {"ios": "https://dc.lft.to/lastmile_qr_scan", "android": "https://dc.lft.to/lastmile_qr_scan"}, "lon": -77.021951, "type": "electric_scooter"}, {"bike_id": "17bdc1e2bf696f5ee219c8ca94eb0c93", "is_reserved": 0, "fusion_lon": 0.0, "lat": 38.91492266666667, "is_disabled": 0, "name": "17bdc1e2bf696f5ee219c8ca94eb0c93", "fusion_lat": 0.0, "rental_uris": {"ios": "https://dc.lft.to/lastmile_qr_scan", "android": "https://dc.lft.to/lastmile_qr_scan"}, "lon": -77.02693816666667, "type": "electric_scooter"}, {"bike_id": "dc7657c3cfe02f7f6d54d184fe85cba9", "is_reserved": 0, "fusion_lon": 0.0, "lat": 38.89926783333333, "is_disabled": 0, "name": "dc7657c3cfe02f7f6d54d184fe85cba9", "fusion_lat": 0.0, "rental_uris": {"ios": "https://dc.lft.to/lastmile_qr_scan", "android": "https://dc.lft.to/lastmile_qr_scan"}, "lon": -77.05427933333333, "type": "electric_scooter"}, {"bike_id": "380ca2f8094676c68d094fbbfee9a944", "is_reserved": 0, "fusion_lon": 0.0, "lat": 38.946081666666664, "is_disabled": 0, "name": "380ca2f8094676c68d094fbbfee9a944", "fusion_lat": 0.0, "rental_uris": {"ios": "https://dc.lft.to/lastmile_qr_scan", "android": "https://dc.lft.to/lastmile_qr_scan"}, "lon": -77.03504716666667, "type": "electric_scooter"}, {"bike_id": "e7a177ca51d65767f0e4e19793a078c1", "is_reserved": 0, "fusion_lon": 0.0, "lat": 38.949236666666664, "is_disabled": 0, "name": "e7a177ca51d65767f0e4e19793a078c1", "fusion_lat": 0.0, "rental_uris": {"ios": "https://dc.lft.to/lastmile_qr_scan", "android": "https://dc.lft.to/lastmile_qr_scan"}, "lon": -77.01928866666667, "type": "electric_scooter"}, {"bike_id": "086be20a32b239523a2c63c3733f898e", "is_reserved": 0, "fusion_lon": 0.0, "lat": 38.943206833333335, "is_disabled": 0, "name": "086be20a32b239523a2c63c3733f898e", "fusion_lat": 0.0, "rental_uris": {"ios": "https://dc.lft.to/lastmile_qr_scan", "android": "https://dc.lft.to/lastmile_qr_scan"}, "lon": -77.0738625, "type": "electric_scooter"}, {"bike_id": "cdc4b4afd1f4348051500999fcc7084c", "is_reserved": 0, "fusion_lon": 0.0, "lat": 38.90978033333333, "is_disabled": 0, "name": "cdc4b4afd1f4348051500999fcc7084c", "fusion_lat": 0.0, "rental_uris": {"ios": "https://dc.lft.to/lastmile_qr_scan", "android": "https://dc.lft.to/lastmile_qr_scan"}, "lon": -77.06712783333333, "type": "electric_scooter"}, {"bike_id": "473d172cf316e66754f8e02f0b084b29", "is_reserved": 0, "fusion_lon": 0.0, "lat": 38.88308, "is_disabled": 0, "name": "473d172cf316e66754f8e02f0b084b29", "fusion_lat": 0.0, "rental_uris": {"ios": "https://dc.lft.to/lastmile_qr_scan", "android": "https://dc.lft.to/lastmile_qr_scan"}, "lon": -77.01775, "type": "electric_scooter"}, {"bike_id": "bf9f9727c90ac50a900a6051d4f4860b", "is_reserved": 0, "fusion_lon": 0.0, "lat": 38.931123166666666, "is_disabled": 0, "name": "bf9f9727c90ac50a900a6051d4f4860b", "fusion_lat": 0.0, "rental_uris": {"ios": "https://dc.lft.to/lastmile_qr_scan", "android": "https://dc.lft.to/lastmile_qr_scan"}, "lon": -77.02093383333333, "type": "electric_scooter"}, {"bike_id": "816644d1ebbaecfbb9bfa394d9fe6182", "is_reserved": 0, "fusion_lon": 0.0, "lat": 38.905725, "is_disabled": 0, "name": "816644d1ebbaecfbb9bfa394d9fe6182", "fusion_lat": 0.0, "rental_uris": {"ios": "https://dc.lft.to/lastmile_qr_scan", "android": "https://dc.lft.to/lastmile_qr_scan"}, "lon": -77.02468016666667, "type": "electric_scooter"}, {"bike_id": "beb7ef642963ca7f85edfe886f9f063c", "is_reserved": 0, "fusion_lon": 0.0, "lat": 38.908988666666666, "is_disabled": 0, "name": "beb7ef642963ca7f85edfe886f9f063c", "fusion_lat": 0.0, "rental_uris": {"ios": "https://dc.lft.to/lastmile_qr_scan", "android": "https://dc.lft.to/lastmile_qr_scan"}, "lon": -77.02684733333334, "type": "electric_scooter"}, {"bike_id": "01ee00524face6621e58cff55093c555", "is_reserved": 0, "fusion_lon": 0.0, "lat": 38.912773, "is_disabled": 0, "name": "01ee00524face6621e58cff55093c555", "fusion_lat": 0.0, "rental_uris": {"ios": "https://dc.lft.to/lastmile_qr_scan", "android": "https://dc.lft.to/lastmile_qr_scan"}, "lon": -77.02296766666667, "type": "electric_scooter"}, {"bike_id": "92621d2e711bbc9de5e5f3d911be763a", "is_reserved": 0, "fusion_lon": 0.0, "lat": 38.918701166666665, "is_disabled": 0, "name": "92621d2e711bbc9de5e5f3d911be763a", "fusion_lat": 0.0, "rental_uris": {"ios": "https://dc.lft.to/lastmile_qr_scan", "android": "https://dc.lft.to/lastmile_qr_scan"}, "lon": -76.97127366666666, "type": "electric_scooter"}, {"bike_id": "da930270b5278760eac8009e2e7d655f", "is_reserved": 0, "fusion_lon": 0.0, "lat": 38.89614983333333, "is_disabled": 0, "name": "da930270b5278760eac8009e2e7d655f", "fusion_lat": 0.0, "rental_uris": {"ios": "https://dc.lft.to/lastmile_qr_scan", "android": "https://dc.lft.to/lastmile_qr_scan"}, "lon": -77.00048783333334, "type": "electric_bike"}, {"bike_id": "cffe288f7cac1be1aa5baa0b542ab0a5", "is_reserved": 0, "fusion_lon": 0.0, "lat": 38.9002205, "is_disabled": 0, "name": "cffe288f7cac1be1aa5baa0b542ab0a5", "fusion_lat": 0.0, "rental_uris": {"ios": "https://dc.lft.to/lastmile_qr_scan", "android": "https://dc.lft.to/lastmile_qr_scan"}, "lon": -77.01157366666666, "type": "electric_scooter"}, {"bike_id": "28e571f370e11f33cc05c7f0e8380027", "is_reserved": 0, "fusion_lon": 0.0, "lat": 38.91559483333333, "is_disabled": 0, "name": "28e571f370e11f33cc05c7f0e8380027", "fusion_lat": 0.0, "rental_uris": {"ios": "https://dc.lft.to/lastmile_qr_scan", "android": "https://dc.lft.to/lastmile_qr_scan"}, "lon": -77.03857016666667, "type": "electric_scooter"}, {"bike_id": "a251ca9c588503ae51cec7ec104ff82b", "is_reserved": 0, "fusion_lon": 0.0, "lat": 38.894693833333335, "is_disabled": 0, "name": "a251ca9c588503ae51cec7ec104ff82b", "fusion_lat": 0.0, "rental_uris": {"ios": "https://dc.lft.to/lastmile_qr_scan", "android": "https://dc.lft.to/lastmile_qr_scan"}, "lon": -77.04996933333334, "type": "electric_scooter"}, {"bike_id": "77b1a7f9f913d6c6bd44e1e2774c40be", "is_reserved": 0, "fusion_lon": 0.0, "lat": 38.923683833333335, "is_disabled": 0, "name": "77b1a7f9f913d6c6bd44e1e2774c40be", "fusion_lat": 0.0, "rental_uris": {"ios": "https://dc.lft.to/lastmile_qr_scan", "android": "https://dc.lft.to/lastmile_qr_scan"}, "lon": -77.02057283333333, "type": "electric_scooter"}, {"bike_id": "c90f4fd70ccc4039104be74d185ffb41", "is_reserved": 0, "fusion_lon": 0.0, "lat": 38.89731233333333, "is_disabled": 0, "name": "c90f4fd70ccc4039104be74d185ffb41", "fusion_lat": 0.0, "rental_uris": {"ios": "https://dc.lft.to/lastmile_qr_scan", "android": "https://dc.lft.to/lastmile_qr_scan"}, "lon": -77.0463915, "type": "electric_scooter"}, {"bike_id": "a09fa6f9353ba7f13eaec972d6a8ac8f", "is_reserved": 0, "fusion_lon": 0.0, "lat": 38.90802633333333, "is_disabled": 0, "name": "a09fa6f9353ba7f13eaec972d6a8ac8f", "fusion_lat": 0.0, "rental_uris": {"ios": "https://dc.lft.to/lastmile_qr_scan", "android": "https://dc.lft.to/lastmile_qr_scan"}, "lon": -77.034673, "type": "electric_scooter"}, {"bike_id": "5c6dd127073f3bf86f2faf6190f7ee08", "is_reserved": 0, "fusion_lon": 0.0, "lat": 38.903912, "is_disabled": 0, "name": "5c6dd127073f3bf86f2faf6190f7ee08", "fusion_lat": 0.0, "rental_uris": {"ios": "https://dc.lft.to/lastmile_qr_scan", "android": "https://dc.lft.to/lastmile_qr_scan"}, "lon": -77.01767566666666, "type": "electric_scooter"}, {"bike_id": "19eb62a5e468b429cab9bc456d100c80", "is_reserved": 0, "fusion_lon": 0.0, "lat": 38.87732483333333, "is_disabled": 0, "name": "19eb62a5e468b429cab9bc456d100c80", "fusion_lat": 0.0, "rental_uris": {"ios": "https://dc.lft.to/lastmile_qr_scan", "android": "https://dc.lft.to/lastmile_qr_scan"}, "lon": -76.97280066666667, "type": "electric_scooter"}, {"bike_id": "c3013ae50f7b870062a468c8de4f9ffd", "is_reserved": 0, "fusion_lon": 0.0, "lat": 38.861989, "is_disabled": 0, "name": "c3013ae50f7b870062a468c8de4f9ffd", "fusion_lat": 0.0, "rental_uris": {"ios": "https://dc.lft.to/lastmile_qr_scan", "android": "https://dc.lft.to/lastmile_qr_scan"}, "lon": -76.99462683333333, "type": "electric_scooter"}, {"bike_id": "d40228f51e08fbfbd9dcadbc607a9eaa", "is_reserved": 0, "fusion_lon": 0.0, "lat": 38.935001166666666, "is_disabled": 0, "name": "d40228f51e08fbfbd9dcadbc607a9eaa", "fusion_lat": 0.0, "rental_uris": {"ios": "https://dc.lft.to/lastmile_qr_scan", "android": "https://dc.lft.to/lastmile_qr_scan"}, "lon": -77.02721866666667, "type": "electric_scooter"}, {"bike_id": "ac0567fd5aebd8bafe74a263153c1ad3", "is_reserved": 0, "fusion_lon": 0.0, "lat": 38.902962333333335, "is_disabled": 0, "name": "ac0567fd5aebd8bafe74a263153c1ad3", "fusion_lat": 0.0, "rental_uris": {"ios": "https://dc.lft.to/lastmile_qr_scan", "android": "https://dc.lft.to/lastmile_qr_scan"}, "lon": -77.01624666666666, "type": "electric_bike"}, {"bike_id": "ed50750850f2956ed6b846b313754f68", "is_reserved": 0, "fusion_lon": 0.0, "lat": 38.9397485, "is_disabled": 0, "name": "ed50750850f2956ed6b846b313754f68", "fusion_lat": 0.0, "rental_uris": {"ios": "https://dc.lft.to/lastmile_qr_scan", "android": "https://dc.lft.to/lastmile_qr_scan"}, "lon": -77.0358795, "type": "electric_scooter"}, {"bike_id": "3fe14683b2fe514f27dc23a8c4763b16", "is_reserved": 0, "fusion_lon": 0.0, "lat": 38.904491166666666, "is_disabled": 0, "name": "3fe14683b2fe514f27dc23a8c4763b16", "fusion_lat": 0.0, "rental_uris": {"ios": "https://dc.lft.to/lastmile_qr_scan", "android": "https://dc.lft.to/lastmile_qr_scan"}, "lon": -77.0289945, "type": "electric_scooter"}, {"bike_id": "b23b52a751e847e38d8b8ea8cb2635f2", "is_reserved": 0, "fusion_lon": 0.0, "lat": 38.9197205, "is_disabled": 0, "name": "b23b52a751e847e38d8b8ea8cb2635f2", "fusion_lat": 0.0, "rental_uris": {"ios": "https://dc.lft.to/lastmile_qr_scan", "android": "https://dc.lft.to/lastmile_qr_scan"}, "lon": -77.023804, "type": "electric_scooter"}, {"bike_id": "6739a258670d2e42e17097d473b100a7", "is_reserved": 0, "fusion_lon": 0.0, "lat": 38.9217355, "is_disabled": 0, "name": "6739a258670d2e42e17097d473b100a7", "fusion_lat": 0.0, "rental_uris": {"ios": "https://dc.lft.to/lastmile_qr_scan", "android": "https://dc.lft.to/lastmile_qr_scan"}, "lon": -76.99390933333333, "type": "electric_scooter"}, {"bike_id": "f44e2a9f85903880f0de03f89cc9c603", "is_reserved": 0, "fusion_lon": 0.0, "lat": 38.929928333333336, "is_disabled": 0, "name": "f44e2a9f85903880f0de03f89cc9c603", "fusion_lat": 0.0, "rental_uris": {"ios": "https://dc.lft.to/lastmile_qr_scan", "android": "https://dc.lft.to/lastmile_qr_scan"}, "lon": -77.0794235, "type": "electric_scooter"}, {"bike_id": "f3166890ac80f426acd94917a80f3e3e", "is_reserved": 0, "fusion_lon": 0.0, "lat": 38.87141666666667, "is_disabled": 0, "name": "f3166890ac80f426acd94917a80f3e3e", "fusion_lat": 0.0, "rental_uris": {"ios": "https://dc.lft.to/lastmile_qr_scan", "android": "https://dc.lft.to/lastmile_qr_scan"}, "lon": -76.93729983333333, "type": "electric_bike"}, {"bike_id": "7a9334f735ba33eddb814ed449bed9b0", "is_reserved": 0, "fusion_lon": 0.0, "lat": 38.91630283333333, "is_disabled": 0, "name": "7a9334f735ba33eddb814ed449bed9b0", "fusion_lat": 0.0, "rental_uris": {"ios": "https://dc.lft.to/lastmile_qr_scan", "android": "https://dc.lft.to/lastmile_qr_scan"}, "lon": -77.0461375, "type": "electric_scooter"}, {"bike_id": "7b03a237b695217cb2cf17f007587ddc", "is_reserved": 0, "fusion_lon": 0.0, "lat": 38.86454416666667, "is_disabled": 0, "name": "7b03a237b695217cb2cf17f007587ddc", "fusion_lat": 0.0, "rental_uris": {"ios": "https://dc.lft.to/lastmile_qr_scan", "android": "https://dc.lft.to/lastmile_qr_scan"}, "lon": -76.94549666666667, "type": "electric_bike"}, {"bike_id": "1fd80d0d1592eb2c20238220f404af80", "is_reserved": 0, "fusion_lon": 0.0, "lat": 38.93675866666667, "is_disabled": 0, "name": "1fd80d0d1592eb2c20238220f404af80", "fusion_lat": 0.0, "rental_uris": {"ios": "https://dc.lft.to/lastmile_qr_scan", "android": "https://dc.lft.to/lastmile_qr_scan"}, "lon": -77.03593283333333, "type": "electric_scooter"}, {"bike_id": "31ea68f7aa9633c19f32c26b35769572", "is_reserved": 0, "fusion_lon": 0.0, "lat": 38.924071166666664, "is_disabled": 0, "name": "31ea68f7aa9633c19f32c26b35769572", "fusion_lat": 0.0, "rental_uris": {"ios": "https://dc.lft.to/lastmile_qr_scan", "android": "https://dc.lft.to/lastmile_qr_scan"}, "lon": -77.040654, "type": "electric_bike"}, {"bike_id": "0e050007f8eb625a6e543f20bdc8380c", "is_reserved": 0, "fusion_lon": 0.0, "lat": 38.924887, "is_disabled": 0, "name": "0e050007f8eb625a6e543f20bdc8380c", "fusion_lat": 0.0, "rental_uris": {"ios": "https://dc.lft.to/lastmile_qr_scan", "android": "https://dc.lft.to/lastmile_qr_scan"}, "lon": -77.02712383333333, "type": "electric_scooter"}, {"bike_id": "66c65cf17eb538c64a024bb3c50b8a11", "is_reserved": 0, "fusion_lon": 0.0, "lat": 38.921534666666666, "is_disabled": 0, "name": "66c65cf17eb538c64a024bb3c50b8a11", "fusion_lat": 0.0, "rental_uris": {"ios": "https://dc.lft.to/lastmile_qr_scan", "android": "https://dc.lft.to/lastmile_qr_scan"}, "lon": -77.01806383333333, "type": "electric_scooter"}, {"bike_id": "128b06591064e292a8ec6ec842296a5e", "is_reserved": 0, "fusion_lon": 0.0, "lat": 38.901219833333336, "is_disabled": 0, "name": "128b06591064e292a8ec6ec842296a5e", "fusion_lat": 0.0, "rental_uris": {"ios": "https://dc.lft.to/lastmile_qr_scan", "android": "https://dc.lft.to/lastmile_qr_scan"}, "lon": -77.04347533333333, "type": "electric_scooter"}, {"bike_id": "c22278000d80697e49f7c8327493a20f", "is_reserved": 0, "fusion_lon": 0.0, "lat": 38.898152333333336, "is_disabled": 0, "name": "c22278000d80697e49f7c8327493a20f", "fusion_lat": 0.0, "rental_uris": {"ios": "https://dc.lft.to/lastmile_qr_scan", "android": "https://dc.lft.to/lastmile_qr_scan"}, "lon": -77.03289383333333, "type": "electric_scooter"}, {"bike_id": "b3552e9d814c861bbc76dc59c11c23de", "is_reserved": 0, "fusion_lon": 0.0, "lat": 38.92206266666667, "is_disabled": 0, "name": "b3552e9d814c861bbc76dc59c11c23de", "fusion_lat": 0.0, "rental_uris": {"ios": "https://dc.lft.to/lastmile_qr_scan", "android": "https://dc.lft.to/lastmile_qr_scan"}, "lon": -77.03661183333334, "type": "electric_scooter"}, {"bike_id": "03e09b799583e7f99eccd84d2fab53ad", "is_reserved": 0, "fusion_lon": 0.0, "lat": 38.912688833333334, "is_disabled": 0, "name": "03e09b799583e7f99eccd84d2fab53ad", "fusion_lat": 0.0, "rental_uris": {"ios": "https://dc.lft.to/lastmile_qr_scan", "android": "https://dc.lft.to/lastmile_qr_scan"}, "lon": -77.02687933333333, "type": "electric_scooter"}, {"bike_id": "e26601ae4adae8ca5810174bf54e49eb", "is_reserved": 0, "fusion_lon": 0.0, "lat": 38.915607333333334, "is_disabled": 0, "name": "e26601ae4adae8ca5810174bf54e49eb", "fusion_lat": 0.0, "rental_uris": {"ios": "https://dc.lft.to/lastmile_qr_scan", "android": "https://dc.lft.to/lastmile_qr_scan"}, "lon": -77.04018333333333, "type": "electric_scooter"}, {"bike_id": "c3aac9ecad492bd4e0e02d47518c5691", "is_reserved": 0, "fusion_lon": 0.0, "lat": 38.92851566666667, "is_disabled": 0, "name": "c3aac9ecad492bd4e0e02d47518c5691", "fusion_lat": 0.0, "rental_uris": {"ios": "https://dc.lft.to/lastmile_qr_scan", "android": "https://dc.lft.to/lastmile_qr_scan"}, "lon": -77.10677, "type": "electric_bike"}, {"bike_id": "23e1eab6ab796a54fce914139457bf98", "is_reserved": 0, "fusion_lon": 0.0, "lat": 38.9236545, "is_disabled": 0, "name": "23e1eab6ab796a54fce914139457bf98", "fusion_lat": 0.0, "rental_uris": {"ios": "https://dc.lft.to/lastmile_qr_scan", "android": "https://dc.lft.to/lastmile_qr_scan"}, "lon": -77.0523065, "type": "electric_scooter"}, {"bike_id": "e0b5a116afab441e00568e7ef1a6440c", "is_reserved": 0, "fusion_lon": 0.0, "lat": 38.92401233333333, "is_disabled": 0, "name": "e0b5a116afab441e00568e7ef1a6440c", "fusion_lat": 0.0, "rental_uris": {"ios": "https://dc.lft.to/lastmile_qr_scan", "android": "https://dc.lft.to/lastmile_qr_scan"}, "lon": -77.05257716666667, "type": "electric_scooter"}, {"bike_id": "eaebec4b5e3a9a5aba468e084159c31a", "is_reserved": 0, "fusion_lon": 0.0, "lat": 38.92559166666667, "is_disabled": 0, "name": "eaebec4b5e3a9a5aba468e084159c31a", "fusion_lat": 0.0, "rental_uris": {"ios": "https://dc.lft.to/lastmile_qr_scan", "android": "https://dc.lft.to/lastmile_qr_scan"}, "lon": -77.04047466666667, "type": "electric_scooter"}, {"bike_id": "0eca0844bce6214400e8f7b77b910fe3", "is_reserved": 0, "fusion_lon": 0.0, "lat": 38.94825683333333, "is_disabled": 0, "name": "0eca0844bce6214400e8f7b77b910fe3", "fusion_lat": 0.0, "rental_uris": {"ios": "https://dc.lft.to/lastmile_qr_scan", "android": "https://dc.lft.to/lastmile_qr_scan"}, "lon": -77.02415983333333, "type": "electric_scooter"}, {"bike_id": "f234e77745e936dc43f6890d78dc2f54", "is_reserved": 0, "fusion_lon": 0.0, "lat": 38.898809166666666, "is_disabled": 0, "name": "f234e77745e936dc43f6890d78dc2f54", "fusion_lat": 0.0, "rental_uris": {"ios": "https://dc.lft.to/lastmile_qr_scan", "android": "https://dc.lft.to/lastmile_qr_scan"}, "lon": -76.93159016666667, "type": "electric_scooter"}, {"bike_id": "0c4c9de173311e8d94dcc6b300fcadfd", "is_reserved": 0, "fusion_lon": 0.0, "lat": 38.90726216666667, "is_disabled": 0, "name": "0c4c9de173311e8d94dcc6b300fcadfd", "fusion_lat": 0.0, "rental_uris": {"ios": "https://dc.lft.to/lastmile_qr_scan", "android": "https://dc.lft.to/lastmile_qr_scan"}, "lon": -77.03212033333334, "type": "electric_scooter"}, {"bike_id": "67aef10d5d653eb30be4c6491c6eea15", "is_reserved": 0, "fusion_lon": 0.0, "lat": 38.90959, "is_disabled": 0, "name": "67aef10d5d653eb30be4c6491c6eea15", "fusion_lat": 0.0, "rental_uris": {"ios": "https://dc.lft.to/lastmile_qr_scan", "android": "https://dc.lft.to/lastmile_qr_scan"}, "lon": -77.036799, "type": "electric_scooter"}, {"bike_id": "a940689de8d0197293879c39474b9ae5", "is_reserved": 0, "fusion_lon": 0.0, "lat": 38.884228, "is_disabled": 0, "name": "a940689de8d0197293879c39474b9ae5", "fusion_lat": 0.0, "rental_uris": {"ios": "https://dc.lft.to/lastmile_qr_scan", "android": "https://dc.lft.to/lastmile_qr_scan"}, "lon": -77.0240285, "type": "electric_scooter"}, {"bike_id": "38e1e68e9ae1e10992aef7972aee94ac", "is_reserved": 0, "fusion_lon": 0.0, "lat": 38.9240765, "is_disabled": 0, "name": "38e1e68e9ae1e10992aef7972aee94ac", "fusion_lat": 0.0, "rental_uris": {"ios": "https://dc.lft.to/lastmile_qr_scan", "android": "https://dc.lft.to/lastmile_qr_scan"}, "lon": -77.035322, "type": "electric_scooter"}, {"bike_id": "daabd1f0c936f2f9c58a153be9c139b8", "is_reserved": 0, "fusion_lon": 0.0, "lat": 38.90026566666667, "is_disabled": 0, "name": "daabd1f0c936f2f9c58a153be9c139b8", "fusion_lat": 0.0, "rental_uris": {"ios": "https://dc.lft.to/lastmile_qr_scan", "android": "https://dc.lft.to/lastmile_qr_scan"}, "lon": -77.00179016666667, "type": "electric_scooter"}, {"bike_id": "9d8da1db0b17d47250b7acabdd12ca0a", "is_reserved": 0, "fusion_lon": 0.0, "lat": 38.918047, "is_disabled": 0, "name": "9d8da1db0b17d47250b7acabdd12ca0a", "fusion_lat": 0.0, "rental_uris": {"ios": "https://dc.lft.to/lastmile_qr_scan", "android": "https://dc.lft.to/lastmile_qr_scan"}, "lon": -77.03438583333333, "type": "electric_scooter"}, {"bike_id": "7bd9f78a6166a146242bad407b72730f", "is_reserved": 0, "fusion_lon": 0.0, "lat": 38.939591, "is_disabled": 0, "name": "7bd9f78a6166a146242bad407b72730f", "fusion_lat": 0.0, "rental_uris": {"ios": "https://dc.lft.to/lastmile_qr_scan", "android": "https://dc.lft.to/lastmile_qr_scan"}, "lon": -77.032741, "type": "electric_scooter"}, {"bike_id": "d3d7aef744fc41266fdb06b8197e6019", "is_reserved": 0, "fusion_lon": 0.0, "lat": 38.89228516666667, "is_disabled": 0, "name": "d3d7aef744fc41266fdb06b8197e6019", "fusion_lat": 0.0, "rental_uris": {"ios": "https://dc.lft.to/lastmile_qr_scan", "android": "https://dc.lft.to/lastmile_qr_scan"}, "lon": -77.021726, "type": "electric_scooter"}, {"bike_id": "958f130dc59a8b6d252d9f6be680a435", "is_reserved": 0, "fusion_lon": 0.0, "lat": 38.8996375, "is_disabled": 0, "name": "958f130dc59a8b6d252d9f6be680a435", "fusion_lat": 0.0, "rental_uris": {"ios": "https://dc.lft.to/lastmile_qr_scan", "android": "https://dc.lft.to/lastmile_qr_scan"}, "lon": -77.01615783333334, "type": "electric_scooter"}, {"bike_id": "685f571b0fb6bd147c163ed4e3788390", "is_reserved": 0, "fusion_lon": 0.0, "lat": 38.933945666666666, "is_disabled": 0, "name": "685f571b0fb6bd147c163ed4e3788390", "fusion_lat": 0.0, "rental_uris": {"ios": "https://dc.lft.to/lastmile_qr_scan", "android": "https://dc.lft.to/lastmile_qr_scan"}, "lon": -77.02063416666667, "type": "electric_scooter"}, {"bike_id": "c148bf9a79ce05f6ab06dcbf811e626c", "is_reserved": 0, "fusion_lon": 0.0, "lat": 38.9528165, "is_disabled": 0, "name": "c148bf9a79ce05f6ab06dcbf811e626c", "fusion_lat": 0.0, "rental_uris": {"ios": "https://dc.lft.to/lastmile_qr_scan", "android": "https://dc.lft.to/lastmile_qr_scan"}, "lon": -77.00790566666667, "type": "electric_scooter"}, {"bike_id": "85cfeb7cef6f726012363429570c5189", "is_reserved": 0, "fusion_lon": 0.0, "lat": 38.900203833333336, "is_disabled": 0, "name": "85cfeb7cef6f726012363429570c5189", "fusion_lat": 0.0, "rental_uris": {"ios": "https://dc.lft.to/lastmile_qr_scan", "android": "https://dc.lft.to/lastmile_qr_scan"}, "lon": -76.99793416666667, "type": "electric_scooter"}, {"bike_id": "cfbdada297e92969f2a2ddbfb98d7420", "is_reserved": 0, "fusion_lon": 0.0, "lat": 38.92433066666667, "is_disabled": 0, "name": "cfbdada297e92969f2a2ddbfb98d7420", "fusion_lat": 0.0, "rental_uris": {"ios": "https://dc.lft.to/lastmile_qr_scan", "android": "https://dc.lft.to/lastmile_qr_scan"}, "lon": -77.03997416666667, "type": "electric_scooter"}, {"bike_id": "98e09506e3f258c1c2d8846174cde165", "is_reserved": 0, "fusion_lon": 0.0, "lat": 38.990648166666666, "is_disabled": 0, "name": "98e09506e3f258c1c2d8846174cde165", "fusion_lat": 0.0, "rental_uris": {"ios": "https://dc.lft.to/lastmile_qr_scan", "android": "https://dc.lft.to/lastmile_qr_scan"}, "lon": -77.1002615, "type": "electric_bike"}, {"bike_id": "e4d28e6edfc6f02cee69dc9ff01ed80c", "is_reserved": 0, "fusion_lon": 0.0, "lat": 38.85314283333334, "is_disabled": 0, "name": "e4d28e6edfc6f02cee69dc9ff01ed80c", "fusion_lat": 0.0, "rental_uris": {"ios": "https://dc.lft.to/lastmile_qr_scan", "android": "https://dc.lft.to/lastmile_qr_scan"}, "lon": -76.97999166666666, "type": "electric_scooter"}, {"bike_id": "256cc85d8ac65178d62d9b7912a02b2b", "is_reserved": 0, "fusion_lon": 0.0, "lat": 38.94049433333333, "is_disabled": 0, "name": "256cc85d8ac65178d62d9b7912a02b2b", "fusion_lat": 0.0, "rental_uris": {"ios": "https://dc.lft.to/lastmile_qr_scan", "android": "https://dc.lft.to/lastmile_qr_scan"}, "lon": -77.0297895, "type": "electric_scooter"}, {"bike_id": "72fb881563f87335e437c5fef599771a", "is_reserved": 0, "fusion_lon": 0.0, "lat": 38.872414166666665, "is_disabled": 0, "name": "72fb881563f87335e437c5fef599771a", "fusion_lat": 0.0, "rental_uris": {"ios": "https://dc.lft.to/lastmile_qr_scan", "android": "https://dc.lft.to/lastmile_qr_scan"}, "lon": -77.01180183333334, "type": "electric_bike"}, {"bike_id": "d377967052c8a603286e9f6d7de84546", "is_reserved": 0, "fusion_lon": 0.0, "lat": 38.92253616666667, "is_disabled": 0, "name": "d377967052c8a603286e9f6d7de84546", "fusion_lat": 0.0, "rental_uris": {"ios": "https://dc.lft.to/lastmile_qr_scan", "android": "https://dc.lft.to/lastmile_qr_scan"}, "lon": -77.04126216666667, "type": "electric_scooter"}, {"bike_id": "d86a5bda069563184ba49669a0d50de9", "is_reserved": 0, "fusion_lon": 0.0, "lat": 38.920910666666664, "is_disabled": 0, "name": "d86a5bda069563184ba49669a0d50de9", "fusion_lat": 0.0, "rental_uris": {"ios": "https://dc.lft.to/lastmile_qr_scan", "android": "https://dc.lft.to/lastmile_qr_scan"}, "lon": -76.99899933333333, "type": "electric_scooter"}, {"bike_id": "17fbac7aad2129a34e7b087e703bbf43", "is_reserved": 0, "fusion_lon": 0.0, "lat": 38.91873983333333, "is_disabled": 0, "name": "17fbac7aad2129a34e7b087e703bbf43", "fusion_lat": 0.0, "rental_uris": {"ios": "https://dc.lft.to/lastmile_qr_scan", "android": "https://dc.lft.to/lastmile_qr_scan"}, "lon": -77.03502633333333, "type": "electric_scooter"}, {"bike_id": "4917c4d28221ddd4d0678c43d1b48624", "is_reserved": 0, "fusion_lon": 0.0, "lat": 38.920472, "is_disabled": 0, "name": "4917c4d28221ddd4d0678c43d1b48624", "fusion_lat": 0.0, "rental_uris": {"ios": "https://dc.lft.to/lastmile_qr_scan", "android": "https://dc.lft.to/lastmile_qr_scan"}, "lon": -76.9981675, "type": "electric_scooter"}, {"bike_id": "61968355a5e9c2b07fdfe8907e2e90e6", "is_reserved": 0, "fusion_lon": 0.0, "lat": 38.91557816666667, "is_disabled": 0, "name": "61968355a5e9c2b07fdfe8907e2e90e6", "fusion_lat": 0.0, "rental_uris": {"ios": "https://dc.lft.to/lastmile_qr_scan", "android": "https://dc.lft.to/lastmile_qr_scan"}, "lon": -77.04677516666666, "type": "electric_scooter"}, {"bike_id": "f4216a90b13f9b6145cd38bcc02479e0", "is_reserved": 0, "fusion_lon": 0.0, "lat": 38.919646166666666, "is_disabled": 0, "name": "f4216a90b13f9b6145cd38bcc02479e0", "fusion_lat": 0.0, "rental_uris": {"ios": "https://dc.lft.to/lastmile_qr_scan", "android": "https://dc.lft.to/lastmile_qr_scan"}, "lon": -76.97256916666667, "type": "electric_bike"}, {"bike_id": "14187e376feaacad7e868323d34594aa", "is_reserved": 0, "fusion_lon": 0.0, "lat": 38.925531666666664, "is_disabled": 0, "name": "14187e376feaacad7e868323d34594aa", "fusion_lat": 0.0, "rental_uris": {"ios": "https://dc.lft.to/lastmile_qr_scan", "android": "https://dc.lft.to/lastmile_qr_scan"}, "lon": -77.001395, "type": "electric_bike"}, {"bike_id": "cebd485caa9872b05284293453d68ddb", "is_reserved": 0, "fusion_lon": 0.0, "lat": 38.90326133333333, "is_disabled": 0, "name": "cebd485caa9872b05284293453d68ddb", "fusion_lat": 0.0, "rental_uris": {"ios": "https://dc.lft.to/lastmile_qr_scan", "android": "https://dc.lft.to/lastmile_qr_scan"}, "lon": -77.03834283333333, "type": "electric_scooter"}, {"bike_id": "1bcff98849bbae683c305b42ff9e7e0e", "is_reserved": 0, "fusion_lon": 0.0, "lat": 38.905402333333335, "is_disabled": 0, "name": "1bcff98849bbae683c305b42ff9e7e0e", "fusion_lat": 0.0, "rental_uris": {"ios": "https://dc.lft.to/lastmile_qr_scan", "android": "https://dc.lft.to/lastmile_qr_scan"}, "lon": -77.00584683333334, "type": "electric_scooter"}, {"bike_id": "222900618b88a50da9b7e065a922f87f", "is_reserved": 0, "fusion_lon": 0.0, "lat": 38.95529716666667, "is_disabled": 0, "name": "222900618b88a50da9b7e065a922f87f", "fusion_lat": 0.0, "rental_uris": {"ios": "https://dc.lft.to/lastmile_qr_scan", "android": "https://dc.lft.to/lastmile_qr_scan"}, "lon": -77.02416166666667, "type": "electric_bike"}, {"bike_id": "253f8c40e4ac682bb393f70a9a0d64b2", "is_reserved": 0, "fusion_lon": 0.0, "lat": 38.949515166666664, "is_disabled": 0, "name": "253f8c40e4ac682bb393f70a9a0d64b2", "fusion_lat": 0.0, "rental_uris": {"ios": "https://dc.lft.to/lastmile_qr_scan", "android": "https://dc.lft.to/lastmile_qr_scan"}, "lon": -77.016122, "type": "electric_scooter"}, {"bike_id": "18d573edfb219d8aa7c67bd0ffc25192", "is_reserved": 0, "fusion_lon": 0.0, "lat": 38.902096666666665, "is_disabled": 0, "name": "18d573edfb219d8aa7c67bd0ffc25192", "fusion_lat": 0.0, "rental_uris": {"ios": "https://dc.lft.to/lastmile_qr_scan", "android": "https://dc.lft.to/lastmile_qr_scan"}, "lon": -76.94582466666667, "type": "electric_scooter"}, {"bike_id": "95985f67682bd95056eadda2c5c01aad", "is_reserved": 0, "fusion_lon": 0.0, "lat": 38.9356565, "is_disabled": 0, "name": "95985f67682bd95056eadda2c5c01aad", "fusion_lat": 0.0, "rental_uris": {"ios": "https://dc.lft.to/lastmile_qr_scan", "android": "https://dc.lft.to/lastmile_qr_scan"}, "lon": -77.03684416666667, "type": "electric_bike"}, {"bike_id": "0b035f5a5084aba57a226edd2bd64e1c", "is_reserved": 0, "fusion_lon": 0.0, "lat": 38.8852645, "is_disabled": 0, "name": "0b035f5a5084aba57a226edd2bd64e1c", "fusion_lat": 0.0, "rental_uris": {"ios": "https://dc.lft.to/lastmile_qr_scan", "android": "https://dc.lft.to/lastmile_qr_scan"}, "lon": -77.00577866666667, "type": "electric_scooter"}, {"bike_id": "ad98726d0494aade7db32bd133ff58c9", "is_reserved": 0, "fusion_lon": 0.0, "lat": 38.902725, "is_disabled": 0, "name": "ad98726d0494aade7db32bd133ff58c9", "fusion_lat": 0.0, "rental_uris": {"ios": "https://dc.lft.to/lastmile_qr_scan", "android": "https://dc.lft.to/lastmile_qr_scan"}, "lon": -77.038365, "type": "electric_scooter"}, {"bike_id": "df81f5e9f9f6e41ffa2f49c60051a79f", "is_reserved": 0, "fusion_lon": 0.0, "lat": 38.86662, "is_disabled": 0, "name": "df81f5e9f9f6e41ffa2f49c60051a79f", "fusion_lat": 0.0, "rental_uris": {"ios": "https://dc.lft.to/lastmile_qr_scan", "android": "https://dc.lft.to/lastmile_qr_scan"}, "lon": -76.98903433333334, "type": "electric_scooter"}, {"bike_id": "28e0ceff91ab6cf5a0a15879fee66a5f", "is_reserved": 0, "fusion_lon": 0.0, "lat": 38.89902683333333, "is_disabled": 0, "name": "28e0ceff91ab6cf5a0a15879fee66a5f", "fusion_lat": 0.0, "rental_uris": {"ios": "https://dc.lft.to/lastmile_qr_scan", "android": "https://dc.lft.to/lastmile_qr_scan"}, "lon": -77.03931283333333, "type": "electric_scooter"}, {"bike_id": "fdd4d5cce88dd3b12106ba887198b7b7", "is_reserved": 0, "fusion_lon": 0.0, "lat": 38.89756366666667, "is_disabled": 0, "name": "fdd4d5cce88dd3b12106ba887198b7b7", "fusion_lat": 0.0, "rental_uris": {"ios": "https://dc.lft.to/lastmile_qr_scan", "android": "https://dc.lft.to/lastmile_qr_scan"}, "lon": -77.04303433333334, "type": "electric_scooter"}, {"bike_id": "1a4343350f69bd40fa97240896e9c34c", "is_reserved": 0, "fusion_lon": 0.0, "lat": 38.9335795, "is_disabled": 0, "name": "1a4343350f69bd40fa97240896e9c34c", "fusion_lat": 0.0, "rental_uris": {"ios": "https://dc.lft.to/lastmile_qr_scan", "android": "https://dc.lft.to/lastmile_qr_scan"}, "lon": -77.06938083333333, "type": "electric_scooter"}, {"bike_id": "ac896ac17ac5ef6ccbbc056203e1b900", "is_reserved": 0, "fusion_lon": 0.0, "lat": 38.91120266666667, "is_disabled": 0, "name": "ac896ac17ac5ef6ccbbc056203e1b900", "fusion_lat": 0.0, "rental_uris": {"ios": "https://dc.lft.to/lastmile_qr_scan", "android": "https://dc.lft.to/lastmile_qr_scan"}, "lon": -77.0218485, "type": "electric_scooter"}, {"bike_id": "df49bd96223934d404b5be11002407e9", "is_reserved": 0, "fusion_lon": 0.0, "lat": 38.909760666666664, "is_disabled": 0, "name": "df49bd96223934d404b5be11002407e9", "fusion_lat": 0.0, "rental_uris": {"ios": "https://dc.lft.to/lastmile_qr_scan", "android": "https://dc.lft.to/lastmile_qr_scan"}, "lon": -77.04875783333334, "type": "electric_scooter"}, {"bike_id": "5b41a741f85b59069a881d7ba7893fc1", "is_reserved": 0, "fusion_lon": 0.0, "lat": 38.91348133333334, "is_disabled": 0, "name": "5b41a741f85b59069a881d7ba7893fc1", "fusion_lat": 0.0, "rental_uris": {"ios": "https://dc.lft.to/lastmile_qr_scan", "android": "https://dc.lft.to/lastmile_qr_scan"}, "lon": -77.03117716666667, "type": "electric_scooter"}, {"bike_id": "5fab57b38cba6514de8b4a60bd61c6c8", "is_reserved": 0, "fusion_lon": 0.0, "lat": 38.906291333333336, "is_disabled": 0, "name": "5fab57b38cba6514de8b4a60bd61c6c8", "fusion_lat": 0.0, "rental_uris": {"ios": "https://dc.lft.to/lastmile_qr_scan", "android": "https://dc.lft.to/lastmile_qr_scan"}, "lon": -77.05125883333334, "type": "electric_scooter"}, {"bike_id": "7ce658721e009ec9bfce7e88d4b18baa", "is_reserved": 0, "fusion_lon": 0.0, "lat": 38.90854916666667, "is_disabled": 0, "name": "7ce658721e009ec9bfce7e88d4b18baa", "fusion_lat": 0.0, "rental_uris": {"ios": "https://dc.lft.to/lastmile_qr_scan", "android": "https://dc.lft.to/lastmile_qr_scan"}, "lon": -76.9994265, "type": "electric_scooter"}, {"bike_id": "26511438e436c33fd5342b48c890fd1c", "is_reserved": 0, "fusion_lon": 0.0, "lat": 38.900474333333335, "is_disabled": 0, "name": "26511438e436c33fd5342b48c890fd1c", "fusion_lat": 0.0, "rental_uris": {"ios": "https://dc.lft.to/lastmile_qr_scan", "android": "https://dc.lft.to/lastmile_qr_scan"}, "lon": -77.00205466666667, "type": "electric_scooter"}, {"bike_id": "364e87b96caadea632f7d2e8ac31f501", "is_reserved": 0, "fusion_lon": 0.0, "lat": 38.896754333333334, "is_disabled": 0, "name": "364e87b96caadea632f7d2e8ac31f501", "fusion_lat": 0.0, "rental_uris": {"ios": "https://dc.lft.to/lastmile_qr_scan", "android": "https://dc.lft.to/lastmile_qr_scan"}, "lon": -76.99613733333334, "type": "electric_scooter"}, {"bike_id": "3eb3d86c79c8afbd7e521b019cddf55d", "is_reserved": 0, "fusion_lon": 0.0, "lat": 38.90462866666667, "is_disabled": 0, "name": "3eb3d86c79c8afbd7e521b019cddf55d", "fusion_lat": 0.0, "rental_uris": {"ios": "https://dc.lft.to/lastmile_qr_scan", "android": "https://dc.lft.to/lastmile_qr_scan"}, "lon": -77.01694916666666, "type": "electric_scooter"}, {"bike_id": "eaa2db8e65f6908f4e0b6f999b4a4210", "is_reserved": 0, "fusion_lon": 0.0, "lat": 38.84292583333333, "is_disabled": 0, "name": "eaa2db8e65f6908f4e0b6f999b4a4210", "fusion_lat": 0.0, "rental_uris": {"ios": "https://dc.lft.to/lastmile_qr_scan", "android": "https://dc.lft.to/lastmile_qr_scan"}, "lon": -76.99948416666666, "type": "electric_scooter"}, {"bike_id": "a38aa3e20dbc5605494ca71f8302e9ca", "is_reserved": 0, "fusion_lon": 0.0, "lat": 38.91741966666667, "is_disabled": 0, "name": "a38aa3e20dbc5605494ca71f8302e9ca", "fusion_lat": 0.0, "rental_uris": {"ios": "https://dc.lft.to/lastmile_qr_scan", "android": "https://dc.lft.to/lastmile_qr_scan"}, "lon": -77.00747566666666, "type": "electric_scooter"}, {"bike_id": "cb6c9e916ccef9f32cb65a964e3e968e", "is_reserved": 0, "fusion_lon": 0.0, "lat": 38.8669735, "is_disabled": 0, "name": "cb6c9e916ccef9f32cb65a964e3e968e", "fusion_lat": 0.0, "rental_uris": {"ios": "https://dc.lft.to/lastmile_qr_scan", "android": "https://dc.lft.to/lastmile_qr_scan"}, "lon": -76.9870915, "type": "electric_scooter"}, {"bike_id": "4a83139c463070a88d1d1995cdd1478c", "is_reserved": 0, "fusion_lon": 0.0, "lat": 38.90764633333333, "is_disabled": 0, "name": "4a83139c463070a88d1d1995cdd1478c", "fusion_lat": 0.0, "rental_uris": {"ios": "https://dc.lft.to/lastmile_qr_scan", "android": "https://dc.lft.to/lastmile_qr_scan"}, "lon": -77.00095883333333, "type": "electric_scooter"}, {"bike_id": "4f0efd751759c87672577f7e5ce85c4c", "is_reserved": 0, "fusion_lon": 0.0, "lat": 38.903661, "is_disabled": 0, "name": "4f0efd751759c87672577f7e5ce85c4c", "fusion_lat": 0.0, "rental_uris": {"ios": "https://dc.lft.to/lastmile_qr_scan", "android": "https://dc.lft.to/lastmile_qr_scan"}, "lon": -77.0189895, "type": "electric_scooter"}, {"bike_id": "c163aba8556512c104756dba20e79c80", "is_reserved": 0, "fusion_lon": 0.0, "lat": 38.940497, "is_disabled": 0, "name": "c163aba8556512c104756dba20e79c80", "fusion_lat": 0.0, "rental_uris": {"ios": "https://dc.lft.to/lastmile_qr_scan", "android": "https://dc.lft.to/lastmile_qr_scan"}, "lon": -77.09271683333333, "type": "electric_scooter"}, {"bike_id": "d09c6f4b1ea3b4bd954ee67f1fa440f6", "is_reserved": 0, "fusion_lon": 0.0, "lat": 38.903149666666664, "is_disabled": 0, "name": "d09c6f4b1ea3b4bd954ee67f1fa440f6", "fusion_lat": 0.0, "rental_uris": {"ios": "https://dc.lft.to/lastmile_qr_scan", "android": "https://dc.lft.to/lastmile_qr_scan"}, "lon": -77.03838416666666, "type": "electric_scooter"}, {"bike_id": "62275cf8dc395efde2a087ce0ac4ebd7", "is_reserved": 0, "fusion_lon": 0.0, "lat": 38.97422866666667, "is_disabled": 0, "name": "62275cf8dc395efde2a087ce0ac4ebd7", "fusion_lat": 0.0, "rental_uris": {"ios": "https://dc.lft.to/lastmile_qr_scan", "android": "https://dc.lft.to/lastmile_qr_scan"}, "lon": -77.01520466666666, "type": "electric_scooter"}, {"bike_id": "387721c66ac0c9a83fbd23d8496bd0a4", "is_reserved": 0, "fusion_lon": 0.0, "lat": 38.927409, "is_disabled": 0, "name": "387721c66ac0c9a83fbd23d8496bd0a4", "fusion_lat": 0.0, "rental_uris": {"ios": "https://dc.lft.to/lastmile_qr_scan", "android": "https://dc.lft.to/lastmile_qr_scan"}, "lon": -77.01204166666666, "type": "electric_scooter"}, {"bike_id": "b569d81e564f4587d917d36f36203bfc", "is_reserved": 0, "fusion_lon": 0.0, "lat": 38.914176499999996, "is_disabled": 0, "name": "b569d81e564f4587d917d36f36203bfc", "fusion_lat": 0.0, "rental_uris": {"ios": "https://dc.lft.to/lastmile_qr_scan", "android": "https://dc.lft.to/lastmile_qr_scan"}, "lon": -77.041433, "type": "electric_scooter"}, {"bike_id": "a59109b4a7ccad9726ad049cf02c766c", "is_reserved": 0, "fusion_lon": 0.0, "lat": 38.903154, "is_disabled": 0, "name": "a59109b4a7ccad9726ad049cf02c766c", "fusion_lat": 0.0, "rental_uris": {"ios": "https://dc.lft.to/lastmile_qr_scan", "android": "https://dc.lft.to/lastmile_qr_scan"}, "lon": -77.03310233333333, "type": "electric_scooter"}, {"bike_id": "36f1f82be4b95b36d9cac781db65e0da", "is_reserved": 0, "fusion_lon": 0.0, "lat": 38.915858166666666, "is_disabled": 0, "name": "36f1f82be4b95b36d9cac781db65e0da", "fusion_lat": 0.0, "rental_uris": {"ios": "https://dc.lft.to/lastmile_qr_scan", "android": "https://dc.lft.to/lastmile_qr_scan"}, "lon": -77.03171766666667, "type": "electric_scooter"}, {"bike_id": "00286add57dc622828228048542f9c6b", "is_reserved": 0, "fusion_lon": 0.0, "lat": 38.842671833333334, "is_disabled": 0, "name": "00286add57dc622828228048542f9c6b", "fusion_lat": 0.0, "rental_uris": {"ios": "https://dc.lft.to/lastmile_qr_scan", "android": "https://dc.lft.to/lastmile_qr_scan"}, "lon": -76.98839883333333, "type": "electric_bike"}, {"bike_id": "1d8b998001658a08475e1278dfaa0684", "is_reserved": 0, "fusion_lon": 0.0, "lat": 38.912435, "is_disabled": 0, "name": "1d8b998001658a08475e1278dfaa0684", "fusion_lat": 0.0, "rental_uris": {"ios": "https://dc.lft.to/lastmile_qr_scan", "android": "https://dc.lft.to/lastmile_qr_scan"}, "lon": -77.0162125, "type": "electric_scooter"}, {"bike_id": "f7ff2fe77e29e49568fb75adab8ab810", "is_reserved": 0, "fusion_lon": 0.0, "lat": 38.898236833333335, "is_disabled": 0, "name": "f7ff2fe77e29e49568fb75adab8ab810", "fusion_lat": 0.0, "rental_uris": {"ios": "https://dc.lft.to/lastmile_qr_scan", "android": "https://dc.lft.to/lastmile_qr_scan"}, "lon": -77.033422, "type": "electric_scooter"}, {"bike_id": "48423c51645b1092ac2111c5e947de05", "is_reserved": 0, "fusion_lon": 0.0, "lat": 38.9003065, "is_disabled": 0, "name": "48423c51645b1092ac2111c5e947de05", "fusion_lat": 0.0, "rental_uris": {"ios": "https://dc.lft.to/lastmile_qr_scan", "android": "https://dc.lft.to/lastmile_qr_scan"}, "lon": -77.01160083333333, "type": "electric_scooter"}, {"bike_id": "fb79326f274003aa9bc01aae7e94c98e", "is_reserved": 0, "fusion_lon": 0.0, "lat": 38.892246166666666, "is_disabled": 0, "name": "fb79326f274003aa9bc01aae7e94c98e", "fusion_lat": 0.0, "rental_uris": {"ios": "https://dc.lft.to/lastmile_qr_scan", "android": "https://dc.lft.to/lastmile_qr_scan"}, "lon": -77.02202183333333, "type": "electric_scooter"}, {"bike_id": "20b4b57da024783ea83cb65339e12bab", "is_reserved": 0, "fusion_lon": 0.0, "lat": 38.914276666666666, "is_disabled": 0, "name": "20b4b57da024783ea83cb65339e12bab", "fusion_lat": 0.0, "rental_uris": {"ios": "https://dc.lft.to/lastmile_qr_scan", "android": "https://dc.lft.to/lastmile_qr_scan"}, "lon": -77.04158083333333, "type": "electric_scooter"}, {"bike_id": "f7854587f2c382b1c4d353d0141081a1", "is_reserved": 0, "fusion_lon": 0.0, "lat": 38.880410499999996, "is_disabled": 0, "name": "f7854587f2c382b1c4d353d0141081a1", "fusion_lat": 0.0, "rental_uris": {"ios": "https://dc.lft.to/lastmile_qr_scan", "android": "https://dc.lft.to/lastmile_qr_scan"}, "lon": -77.01325583333333, "type": "electric_bike"}, {"bike_id": "eba7146c5ef0ade83a1f491c6c85e8ea", "is_reserved": 0, "fusion_lon": 0.0, "lat": 38.83931033333333, "is_disabled": 0, "name": "eba7146c5ef0ade83a1f491c6c85e8ea", "fusion_lat": 0.0, "rental_uris": {"ios": "https://dc.lft.to/lastmile_qr_scan", "android": "https://dc.lft.to/lastmile_qr_scan"}, "lon": -77.07899083333334, "type": "electric_bike"}, {"bike_id": "1dbb76c1ea6c72f026ec78251184d835", "is_reserved": 0, "fusion_lon": 0.0, "lat": 38.884905833333335, "is_disabled": 0, "name": "1dbb76c1ea6c72f026ec78251184d835", "fusion_lat": 0.0, "rental_uris": {"ios": "https://dc.lft.to/lastmile_qr_scan", "android": "https://dc.lft.to/lastmile_qr_scan"}, "lon": -77.007251, "type": "electric_scooter"}, {"bike_id": "950ce3d7d58288d8eaa4ac2352eb72b4", "is_reserved": 0, "fusion_lon": 0.0, "lat": 38.898169833333334, "is_disabled": 0, "name": "950ce3d7d58288d8eaa4ac2352eb72b4", "fusion_lat": 0.0, "rental_uris": {"ios": "https://dc.lft.to/lastmile_qr_scan", "android": "https://dc.lft.to/lastmile_qr_scan"}, "lon": -77.03307566666666, "type": "electric_scooter"}, {"bike_id": "97337c93bc095f0bcc68d12d9f6de5d6", "is_reserved": 0, "fusion_lon": 0.0, "lat": 38.9141555, "is_disabled": 0, "name": "97337c93bc095f0bcc68d12d9f6de5d6", "fusion_lat": 0.0, "rental_uris": {"ios": "https://dc.lft.to/lastmile_qr_scan", "android": "https://dc.lft.to/lastmile_qr_scan"}, "lon": -77.0381, "type": "electric_scooter"}, {"bike_id": "b06443597a053a241ae85f5f279014ff", "is_reserved": 0, "fusion_lon": 0.0, "lat": 38.894864166666665, "is_disabled": 0, "name": "b06443597a053a241ae85f5f279014ff", "fusion_lat": 0.0, "rental_uris": {"ios": "https://dc.lft.to/lastmile_qr_scan", "android": "https://dc.lft.to/lastmile_qr_scan"}, "lon": -77.02282833333334, "type": "electric_scooter"}, {"bike_id": "b80b0039fff73dad4d14d21f98dc8732", "is_reserved": 0, "fusion_lon": 0.0, "lat": 38.93081816666667, "is_disabled": 0, "name": "b80b0039fff73dad4d14d21f98dc8732", "fusion_lat": 0.0, "rental_uris": {"ios": "https://dc.lft.to/lastmile_qr_scan", "android": "https://dc.lft.to/lastmile_qr_scan"}, "lon": -77.02794966666667, "type": "electric_scooter"}, {"bike_id": "df352da2c4e74e102119aac5b461fc77", "is_reserved": 0, "fusion_lon": 0.0, "lat": 38.901380333333336, "is_disabled": 0, "name": "df352da2c4e74e102119aac5b461fc77", "fusion_lat": 0.0, "rental_uris": {"ios": "https://dc.lft.to/lastmile_qr_scan", "android": "https://dc.lft.to/lastmile_qr_scan"}, "lon": -77.028428, "type": "electric_scooter"}, {"bike_id": "c8b5230a3f7b276e78d3a9f09139ef9f", "is_reserved": 0, "fusion_lon": 0.0, "lat": 38.8399015, "is_disabled": 0, "name": "c8b5230a3f7b276e78d3a9f09139ef9f", "fusion_lat": 0.0, "rental_uris": {"ios": "https://dc.lft.to/lastmile_qr_scan", "android": "https://dc.lft.to/lastmile_qr_scan"}, "lon": -77.00568316666667, "type": "electric_bike"}, {"bike_id": "402b938527084768283cb42e3ca938b7", "is_reserved": 0, "fusion_lon": 0.0, "lat": 38.8665355, "is_disabled": 0, "name": "402b938527084768283cb42e3ca938b7", "fusion_lat": 0.0, "rental_uris": {"ios": "https://dc.lft.to/lastmile_qr_scan", "android": "https://dc.lft.to/lastmile_qr_scan"}, "lon": -76.99012416666666, "type": "electric_scooter"}, {"bike_id": "5e42610a0c249881a24bcae09df8ba73", "is_reserved": 0, "fusion_lon": 0.0, "lat": 38.916790666666664, "is_disabled": 0, "name": "5e42610a0c249881a24bcae09df8ba73", "fusion_lat": 0.0, "rental_uris": {"ios": "https://dc.lft.to/lastmile_qr_scan", "android": "https://dc.lft.to/lastmile_qr_scan"}, "lon": -77.029579, "type": "electric_scooter"}, {"bike_id": "96e1c38a35f5c8eaf55e19fc6b9797d1", "is_reserved": 0, "fusion_lon": 0.0, "lat": 38.8982225, "is_disabled": 0, "name": "96e1c38a35f5c8eaf55e19fc6b9797d1", "fusion_lat": 0.0, "rental_uris": {"ios": "https://dc.lft.to/lastmile_qr_scan", "android": "https://dc.lft.to/lastmile_qr_scan"}, "lon": -76.94653033333333, "type": "electric_scooter"}, {"bike_id": "52018b35b8bdacda99730ddd9b56cea8", "is_reserved": 0, "fusion_lon": 0.0, "lat": 38.881317, "is_disabled": 0, "name": "52018b35b8bdacda99730ddd9b56cea8", "fusion_lat": 0.0, "rental_uris": {"ios": "https://dc.lft.to/lastmile_qr_scan", "android": "https://dc.lft.to/lastmile_qr_scan"}, "lon": -76.9809075, "type": "electric_bike"}, {"bike_id": "d7a5415be033e895f2f569d545c2f515", "is_reserved": 0, "fusion_lon": 0.0, "lat": 38.90102316666667, "is_disabled": 0, "name": "d7a5415be033e895f2f569d545c2f515", "fusion_lat": 0.0, "rental_uris": {"ios": "https://dc.lft.to/lastmile_qr_scan", "android": "https://dc.lft.to/lastmile_qr_scan"}, "lon": -77.0505885, "type": "electric_scooter"}, {"bike_id": "c4d6f584e36408e91975d1a02c6a9243", "is_reserved": 0, "fusion_lon": 0.0, "lat": 38.904881833333334, "is_disabled": 0, "name": "c4d6f584e36408e91975d1a02c6a9243", "fusion_lat": 0.0, "rental_uris": {"ios": "https://dc.lft.to/lastmile_qr_scan", "android": "https://dc.lft.to/lastmile_qr_scan"}, "lon": -77.05746816666667, "type": "electric_scooter"}, {"bike_id": "30467f48553c347b954d01bfbab4f6a6", "is_reserved": 0, "fusion_lon": 0.0, "lat": 38.914223, "is_disabled": 0, "name": "30467f48553c347b954d01bfbab4f6a6", "fusion_lat": 0.0, "rental_uris": {"ios": "https://dc.lft.to/lastmile_qr_scan", "android": "https://dc.lft.to/lastmile_qr_scan"}, "lon": -77.04154316666667, "type": "electric_scooter"}, {"bike_id": "262499b34d7b5fb45f3dd12d2e9770e8", "is_reserved": 0, "fusion_lon": 0.0, "lat": 38.9198925, "is_disabled": 0, "name": "262499b34d7b5fb45f3dd12d2e9770e8", "fusion_lat": 0.0, "rental_uris": {"ios": "https://dc.lft.to/lastmile_qr_scan", "android": "https://dc.lft.to/lastmile_qr_scan"}, "lon": -77.03475183333333, "type": "electric_scooter"}, {"bike_id": "f39a200699afd2a3f84d475e4ae357d2", "is_reserved": 0, "fusion_lon": 0.0, "lat": 38.900550833333334, "is_disabled": 0, "name": "f39a200699afd2a3f84d475e4ae357d2", "fusion_lat": 0.0, "rental_uris": {"ios": "https://dc.lft.to/lastmile_qr_scan", "android": "https://dc.lft.to/lastmile_qr_scan"}, "lon": -77.05136316666666, "type": "electric_scooter"}, {"bike_id": "f8040592a299615dbd6deeb22a3a63c5", "is_reserved": 0, "fusion_lon": 0.0, "lat": 38.89102166666667, "is_disabled": 0, "name": "f8040592a299615dbd6deeb22a3a63c5", "fusion_lat": 0.0, "rental_uris": {"ios": "https://dc.lft.to/lastmile_qr_scan", "android": "https://dc.lft.to/lastmile_qr_scan"}, "lon": -76.98699933333333, "type": "electric_scooter"}, {"bike_id": "202bad5a147c7669636eb1a21b71ecf4", "is_reserved": 0, "fusion_lon": 0.0, "lat": 38.859171, "is_disabled": 0, "name": "202bad5a147c7669636eb1a21b71ecf4", "fusion_lat": 0.0, "rental_uris": {"ios": "https://dc.lft.to/lastmile_qr_scan", "android": "https://dc.lft.to/lastmile_qr_scan"}, "lon": -76.98976533333334, "type": "electric_scooter"}, {"bike_id": "7f5dd8bd9e8d75a474111917818be0e1", "is_reserved": 0, "fusion_lon": 0.0, "lat": 38.909692, "is_disabled": 0, "name": "7f5dd8bd9e8d75a474111917818be0e1", "fusion_lat": 0.0, "rental_uris": {"ios": "https://dc.lft.to/lastmile_qr_scan", "android": "https://dc.lft.to/lastmile_qr_scan"}, "lon": -77.02378433333334, "type": "electric_scooter"}, {"bike_id": "a3e38bd4a315c3cdb9aa30fb2e40d798", "is_reserved": 0, "fusion_lon": 0.0, "lat": 38.924980166666664, "is_disabled": 0, "name": "a3e38bd4a315c3cdb9aa30fb2e40d798", "fusion_lat": 0.0, "rental_uris": {"ios": "https://dc.lft.to/lastmile_qr_scan", "android": "https://dc.lft.to/lastmile_qr_scan"}, "lon": -77.02169016666667, "type": "electric_scooter"}, {"bike_id": "6a6d6b3f93d8a7d0a2b3552e5884b6ae", "is_reserved": 0, "fusion_lon": 0.0, "lat": 38.870821, "is_disabled": 0, "name": "6a6d6b3f93d8a7d0a2b3552e5884b6ae", "fusion_lat": 0.0, "rental_uris": {"ios": "https://dc.lft.to/lastmile_qr_scan", "android": "https://dc.lft.to/lastmile_qr_scan"}, "lon": -77.0121465, "type": "electric_bike"}, {"bike_id": "9a10c8f372c72792e325ac7d1769cd7e", "is_reserved": 0, "fusion_lon": 0.0, "lat": 38.922501, "is_disabled": 0, "name": "9a10c8f372c72792e325ac7d1769cd7e", "fusion_lat": 0.0, "rental_uris": {"ios": "https://dc.lft.to/lastmile_qr_scan", "android": "https://dc.lft.to/lastmile_qr_scan"}, "lon": -77.03083283333333, "type": "electric_scooter"}, {"bike_id": "cc5e8e574abb769319f4404d8ff94511", "is_reserved": 0, "fusion_lon": 0.0, "lat": 38.900297333333334, "is_disabled": 0, "name": "cc5e8e574abb769319f4404d8ff94511", "fusion_lat": 0.0, "rental_uris": {"ios": "https://dc.lft.to/lastmile_qr_scan", "android": "https://dc.lft.to/lastmile_qr_scan"}, "lon": -76.98756466666667, "type": "electric_scooter"}, {"bike_id": "f190b04fc4886501946647ff34caa46e", "is_reserved": 0, "fusion_lon": 0.0, "lat": 38.8792045, "is_disabled": 0, "name": "f190b04fc4886501946647ff34caa46e", "fusion_lat": 0.0, "rental_uris": {"ios": "https://dc.lft.to/lastmile_qr_scan", "android": "https://dc.lft.to/lastmile_qr_scan"}, "lon": -77.0233755, "type": "electric_scooter"}, {"bike_id": "f8811766e54d407c7a41f82057191457", "is_reserved": 0, "fusion_lon": 0.0, "lat": 38.918079666666664, "is_disabled": 0, "name": "f8811766e54d407c7a41f82057191457", "fusion_lat": 0.0, "rental_uris": {"ios": "https://dc.lft.to/lastmile_qr_scan", "android": "https://dc.lft.to/lastmile_qr_scan"}, "lon": -77.03561733333333, "type": "electric_scooter"}, {"bike_id": "34973fcfa79585baaa6bfe46081bb5b6", "is_reserved": 0, "fusion_lon": 0.0, "lat": 38.906260333333336, "is_disabled": 0, "name": "34973fcfa79585baaa6bfe46081bb5b6", "fusion_lat": 0.0, "rental_uris": {"ios": "https://dc.lft.to/lastmile_qr_scan", "android": "https://dc.lft.to/lastmile_qr_scan"}, "lon": -76.986084, "type": "electric_bike"}, {"bike_id": "adf79f7adeea2ed25819bf277af62f84", "is_reserved": 0, "fusion_lon": 0.0, "lat": 38.896845, "is_disabled": 0, "name": "adf79f7adeea2ed25819bf277af62f84", "fusion_lat": 0.0, "rental_uris": {"ios": "https://dc.lft.to/lastmile_qr_scan", "android": "https://dc.lft.to/lastmile_qr_scan"}, "lon": -76.9962075, "type": "electric_scooter"}, {"bike_id": "43a54bb57f63543db3f2fa92dd5dc872", "is_reserved": 0, "fusion_lon": 0.0, "lat": 38.9126505, "is_disabled": 0, "name": "43a54bb57f63543db3f2fa92dd5dc872", "fusion_lat": 0.0, "rental_uris": {"ios": "https://dc.lft.to/lastmile_qr_scan", "android": "https://dc.lft.to/lastmile_qr_scan"}, "lon": -77.0376595, "type": "electric_scooter"}, {"bike_id": "e1f1ade3b0c9d3dfe998a01308d072fd", "is_reserved": 0, "fusion_lon": 0.0, "lat": 38.897618333333334, "is_disabled": 0, "name": "e1f1ade3b0c9d3dfe998a01308d072fd", "fusion_lat": 0.0, "rental_uris": {"ios": "https://dc.lft.to/lastmile_qr_scan", "android": "https://dc.lft.to/lastmile_qr_scan"}, "lon": -76.9391195, "type": "electric_scooter"}, {"bike_id": "66c9a0ed893e79cc17bbe206b0821bc5", "is_reserved": 0, "fusion_lon": 0.0, "lat": 38.925917, "is_disabled": 0, "name": "66c9a0ed893e79cc17bbe206b0821bc5", "fusion_lat": 0.0, "rental_uris": {"ios": "https://dc.lft.to/lastmile_qr_scan", "android": "https://dc.lft.to/lastmile_qr_scan"}, "lon": -77.00484983333334, "type": "electric_scooter"}, {"bike_id": "e17013213838188cf7240cbb4f9982f6", "is_reserved": 0, "fusion_lon": 0.0, "lat": 38.90846633333334, "is_disabled": 0, "name": "e17013213838188cf7240cbb4f9982f6", "fusion_lat": 0.0, "rental_uris": {"ios": "https://dc.lft.to/lastmile_qr_scan", "android": "https://dc.lft.to/lastmile_qr_scan"}, "lon": -77.08527216666667, "type": "electric_scooter"}, {"bike_id": "cf421ca0978be5e236c3eedf041a451d", "is_reserved": 0, "fusion_lon": 0.0, "lat": 38.8923845, "is_disabled": 0, "name": "cf421ca0978be5e236c3eedf041a451d", "fusion_lat": 0.0, "rental_uris": {"ios": "https://dc.lft.to/lastmile_qr_scan", "android": "https://dc.lft.to/lastmile_qr_scan"}, "lon": -77.0279215, "type": "electric_scooter"}, {"bike_id": "6e6f61a26d86a15f62c0a93c93b1a362", "is_reserved": 0, "fusion_lon": 0.0, "lat": 38.88362133333333, "is_disabled": 0, "name": "6e6f61a26d86a15f62c0a93c93b1a362", "fusion_lat": 0.0, "rental_uris": {"ios": "https://dc.lft.to/lastmile_qr_scan", "android": "https://dc.lft.to/lastmile_qr_scan"}, "lon": -77.03172366666666, "type": "electric_scooter"}, {"bike_id": "5906079f7e43aa8e4e16e85b83a08747", "is_reserved": 0, "fusion_lon": 0.0, "lat": 38.921472333333334, "is_disabled": 0, "name": "5906079f7e43aa8e4e16e85b83a08747", "fusion_lat": 0.0, "rental_uris": {"ios": "https://dc.lft.to/lastmile_qr_scan", "android": "https://dc.lft.to/lastmile_qr_scan"}, "lon": -77.03377533333334, "type": "electric_scooter"}, {"bike_id": "74ac1ab2585ef33664fa7a68b0d9b3e8", "is_reserved": 0, "fusion_lon": 0.0, "lat": 38.92613983333333, "is_disabled": 0, "name": "74ac1ab2585ef33664fa7a68b0d9b3e8", "fusion_lat": 0.0, "rental_uris": {"ios": "https://dc.lft.to/lastmile_qr_scan", "android": "https://dc.lft.to/lastmile_qr_scan"}, "lon": -77.044189, "type": "electric_scooter"}, {"bike_id": "24959ea4a8e19e3b54e258079819d74b", "is_reserved": 0, "fusion_lon": 0.0, "lat": 38.892342666666664, "is_disabled": 0, "name": "24959ea4a8e19e3b54e258079819d74b", "fusion_lat": 0.0, "rental_uris": {"ios": "https://dc.lft.to/lastmile_qr_scan", "android": "https://dc.lft.to/lastmile_qr_scan"}, "lon": -77.0499895, "type": "electric_scooter"}, {"bike_id": "5b8b6aba33e559467d2e36c497cf6362", "is_reserved": 0, "fusion_lon": 0.0, "lat": 38.93528283333333, "is_disabled": 0, "name": "5b8b6aba33e559467d2e36c497cf6362", "fusion_lat": 0.0, "rental_uris": {"ios": "https://dc.lft.to/lastmile_qr_scan", "android": "https://dc.lft.to/lastmile_qr_scan"}, "lon": -77.02855083333333, "type": "electric_scooter"}, {"bike_id": "81294d3e4b264a97879e50f4b103de11", "is_reserved": 0, "fusion_lon": 0.0, "lat": 38.898713666666666, "is_disabled": 0, "name": "81294d3e4b264a97879e50f4b103de11", "fusion_lat": 0.0, "rental_uris": {"ios": "https://dc.lft.to/lastmile_qr_scan", "android": "https://dc.lft.to/lastmile_qr_scan"}, "lon": -76.93154883333334, "type": "electric_scooter"}, {"bike_id": "b415a79a84a01a8c230d1296d0750fba", "is_reserved": 0, "fusion_lon": 0.0, "lat": 38.90110283333333, "is_disabled": 0, "name": "b415a79a84a01a8c230d1296d0750fba", "fusion_lat": 0.0, "rental_uris": {"ios": "https://dc.lft.to/lastmile_qr_scan", "android": "https://dc.lft.to/lastmile_qr_scan"}, "lon": -77.04370683333333, "type": "electric_scooter"}, {"bike_id": "246ca3db2aacc408b6294ebf4e621559", "is_reserved": 0, "fusion_lon": 0.0, "lat": 38.912414166666665, "is_disabled": 0, "name": "246ca3db2aacc408b6294ebf4e621559", "fusion_lat": 0.0, "rental_uris": {"ios": "https://dc.lft.to/lastmile_qr_scan", "android": "https://dc.lft.to/lastmile_qr_scan"}, "lon": -77.01620616666666, "type": "electric_scooter"}, {"bike_id": "ded1969c41651be8cf2a199793a6f999", "is_reserved": 0, "fusion_lon": 0.0, "lat": 38.921556333333335, "is_disabled": 0, "name": "ded1969c41651be8cf2a199793a6f999", "fusion_lat": 0.0, "rental_uris": {"ios": "https://dc.lft.to/lastmile_qr_scan", "android": "https://dc.lft.to/lastmile_qr_scan"}, "lon": -77.03286883333334, "type": "electric_scooter"}, {"bike_id": "3e9ab42b71b7258241a98d3586cf681f", "is_reserved": 0, "fusion_lon": 0.0, "lat": 38.9248595, "is_disabled": 0, "name": "3e9ab42b71b7258241a98d3586cf681f", "fusion_lat": 0.0, "rental_uris": {"ios": "https://dc.lft.to/lastmile_qr_scan", "android": "https://dc.lft.to/lastmile_qr_scan"}, "lon": -77.0271305, "type": "electric_scooter"}, {"bike_id": "0dadf22d3988fc07c04bb4a11b7d1190", "is_reserved": 0, "fusion_lon": 0.0, "lat": 38.91796083333333, "is_disabled": 0, "name": "0dadf22d3988fc07c04bb4a11b7d1190", "fusion_lat": 0.0, "rental_uris": {"ios": "https://dc.lft.to/lastmile_qr_scan", "android": "https://dc.lft.to/lastmile_qr_scan"}, "lon": -77.02308733333334, "type": "electric_scooter"}, {"bike_id": "cf2abacfaab7a9f5505c60f832a0a80b", "is_reserved": 0, "fusion_lon": 0.0, "lat": 38.917182833333335, "is_disabled": 0, "name": "cf2abacfaab7a9f5505c60f832a0a80b", "fusion_lat": 0.0, "rental_uris": {"ios": "https://dc.lft.to/lastmile_qr_scan", "android": "https://dc.lft.to/lastmile_qr_scan"}, "lon": -77.03836033333333, "type": "electric_scooter"}, {"bike_id": "281c880b8ee3fe82cb9abf6087029d88", "is_reserved": 0, "fusion_lon": 0.0, "lat": 38.914011333333335, "is_disabled": 0, "name": "281c880b8ee3fe82cb9abf6087029d88", "fusion_lat": 0.0, "rental_uris": {"ios": "https://dc.lft.to/lastmile_qr_scan", "android": "https://dc.lft.to/lastmile_qr_scan"}, "lon": -77.00150883333333, "type": "electric_scooter"}, {"bike_id": "c75564b6d979f86e3927bb3f3a522e3b", "is_reserved": 0, "fusion_lon": 0.0, "lat": 38.912706166666666, "is_disabled": 0, "name": "c75564b6d979f86e3927bb3f3a522e3b", "fusion_lat": 0.0, "rental_uris": {"ios": "https://dc.lft.to/lastmile_qr_scan", "android": "https://dc.lft.to/lastmile_qr_scan"}, "lon": -77.02212516666667, "type": "electric_scooter"}, {"bike_id": "c68c83178f20716cad3c0a2517717029", "is_reserved": 0, "fusion_lon": 0.0, "lat": 38.920741166666666, "is_disabled": 0, "name": "c68c83178f20716cad3c0a2517717029", "fusion_lat": 0.0, "rental_uris": {"ios": "https://dc.lft.to/lastmile_qr_scan", "android": "https://dc.lft.to/lastmile_qr_scan"}, "lon": -77.02431233333333, "type": "electric_scooter"}, {"bike_id": "a2befc4e4392656887c5446429ff8e0f", "is_reserved": 0, "fusion_lon": 0.0, "lat": 38.909655, "is_disabled": 0, "name": "a2befc4e4392656887c5446429ff8e0f", "fusion_lat": 0.0, "rental_uris": {"ios": "https://dc.lft.to/lastmile_qr_scan", "android": "https://dc.lft.to/lastmile_qr_scan"}, "lon": -77.02717583333333, "type": "electric_scooter"}, {"bike_id": "de5243b2f880dd1dbfee1728de312dbf", "is_reserved": 0, "fusion_lon": 0.0, "lat": 38.9262465, "is_disabled": 0, "name": "de5243b2f880dd1dbfee1728de312dbf", "fusion_lat": 0.0, "rental_uris": {"ios": "https://dc.lft.to/lastmile_qr_scan", "android": "https://dc.lft.to/lastmile_qr_scan"}, "lon": -77.0331365, "type": "electric_bike"}, {"bike_id": "1acf58adae9cffcd8613ce0e122cb32d", "is_reserved": 0, "fusion_lon": 0.0, "lat": 38.943933333333334, "is_disabled": 0, "name": "1acf58adae9cffcd8613ce0e122cb32d", "fusion_lat": 0.0, "rental_uris": {"ios": "https://dc.lft.to/lastmile_qr_scan", "android": "https://dc.lft.to/lastmile_qr_scan"}, "lon": -77.038893, "type": "electric_scooter"}, {"bike_id": "c3af500a57a16f07bc8730586d8d7c37", "is_reserved": 0, "fusion_lon": 0.0, "lat": 38.865238, "is_disabled": 0, "name": "c3af500a57a16f07bc8730586d8d7c37", "fusion_lat": 0.0, "rental_uris": {"ios": "https://dc.lft.to/lastmile_qr_scan", "android": "https://dc.lft.to/lastmile_qr_scan"}, "lon": -76.99028266666667, "type": "electric_scooter"}, {"bike_id": "f534a873cb5972d890048666b9e037cf", "is_reserved": 0, "fusion_lon": 0.0, "lat": 38.94080983333333, "is_disabled": 0, "name": "f534a873cb5972d890048666b9e037cf", "fusion_lat": 0.0, "rental_uris": {"ios": "https://dc.lft.to/lastmile_qr_scan", "android": "https://dc.lft.to/lastmile_qr_scan"}, "lon": -77.06189383333333, "type": "electric_scooter"}, {"bike_id": "a4b5b974a761c341c160b322181ccf3f", "is_reserved": 0, "fusion_lon": 0.0, "lat": 38.916088, "is_disabled": 0, "name": "a4b5b974a761c341c160b322181ccf3f", "fusion_lat": 0.0, "rental_uris": {"ios": "https://dc.lft.to/lastmile_qr_scan", "android": "https://dc.lft.to/lastmile_qr_scan"}, "lon": -77.04571516666667, "type": "electric_scooter"}, {"bike_id": "8c62f3715037908d830180d9b0a51bd6", "is_reserved": 0, "fusion_lon": 0.0, "lat": 38.89725983333334, "is_disabled": 0, "name": "8c62f3715037908d830180d9b0a51bd6", "fusion_lat": 0.0, "rental_uris": {"ios": "https://dc.lft.to/lastmile_qr_scan", "android": "https://dc.lft.to/lastmile_qr_scan"}, "lon": -77.04616866666667, "type": "electric_scooter"}, {"bike_id": "1da77f9a43227f7be33fce15afd45ce4", "is_reserved": 0, "fusion_lon": 0.0, "lat": 38.892815, "is_disabled": 0, "name": "1da77f9a43227f7be33fce15afd45ce4", "fusion_lat": 0.0, "rental_uris": {"ios": "https://dc.lft.to/lastmile_qr_scan", "android": "https://dc.lft.to/lastmile_qr_scan"}, "lon": -77.02601883333334, "type": "electric_scooter"}, {"bike_id": "5a57d7dfcc0a7a7ddb5a08daea331dc6", "is_reserved": 0, "fusion_lon": 0.0, "lat": 38.92795383333333, "is_disabled": 0, "name": "5a57d7dfcc0a7a7ddb5a08daea331dc6", "fusion_lat": 0.0, "rental_uris": {"ios": "https://dc.lft.to/lastmile_qr_scan", "android": "https://dc.lft.to/lastmile_qr_scan"}, "lon": -77.02599166666667, "type": "electric_scooter"}, {"bike_id": "57a1fea340ef58dab4032e214a9a75d2", "is_reserved": 0, "fusion_lon": 0.0, "lat": 38.9284525, "is_disabled": 0, "name": "57a1fea340ef58dab4032e214a9a75d2", "fusion_lat": 0.0, "rental_uris": {"ios": "https://dc.lft.to/lastmile_qr_scan", "android": "https://dc.lft.to/lastmile_qr_scan"}, "lon": -77.02054983333333, "type": "electric_bike"}, {"bike_id": "06a1490ef438ab629845ae15df316c86", "is_reserved": 0, "fusion_lon": 0.0, "lat": 38.91613483333333, "is_disabled": 0, "name": "06a1490ef438ab629845ae15df316c86", "fusion_lat": 0.0, "rental_uris": {"ios": "https://dc.lft.to/lastmile_qr_scan", "android": "https://dc.lft.to/lastmile_qr_scan"}, "lon": -77.03640933333334, "type": "electric_scooter"}, {"bike_id": "d425bffe8e31909015e1da91ffdf9bda", "is_reserved": 0, "fusion_lon": 0.0, "lat": 38.909980833333336, "is_disabled": 0, "name": "d425bffe8e31909015e1da91ffdf9bda", "fusion_lat": 0.0, "rental_uris": {"ios": "https://dc.lft.to/lastmile_qr_scan", "android": "https://dc.lft.to/lastmile_qr_scan"}, "lon": -77.02094866666667, "type": "electric_scooter"}, {"bike_id": "9f8264a80d23d4cd7902e4d7228d88d0", "is_reserved": 0, "fusion_lon": 0.0, "lat": 38.899590833333335, "is_disabled": 0, "name": "9f8264a80d23d4cd7902e4d7228d88d0", "fusion_lat": 0.0, "rental_uris": {"ios": "https://dc.lft.to/lastmile_qr_scan", "android": "https://dc.lft.to/lastmile_qr_scan"}, "lon": -77.016105, "type": "electric_scooter"}, {"bike_id": "717eb67a471a740df3c8fced80505a96", "is_reserved": 0, "fusion_lon": 0.0, "lat": 38.915361, "is_disabled": 0, "name": "717eb67a471a740df3c8fced80505a96", "fusion_lat": 0.0, "rental_uris": {"ios": "https://dc.lft.to/lastmile_qr_scan", "android": "https://dc.lft.to/lastmile_qr_scan"}, "lon": -77.02350033333333, "type": "electric_scooter"}, {"bike_id": "a72d8e3c050ea324a366e534c7f4849c", "is_reserved": 0, "fusion_lon": 0.0, "lat": 38.893825, "is_disabled": 0, "name": "a72d8e3c050ea324a366e534c7f4849c", "fusion_lat": 0.0, "rental_uris": {"ios": "https://dc.lft.to/lastmile_qr_scan", "android": "https://dc.lft.to/lastmile_qr_scan"}, "lon": -76.94967933333334, "type": "electric_scooter"}, {"bike_id": "3fc6429d696e2b8607f1c9ea7df1d592", "is_reserved": 0, "fusion_lon": 0.0, "lat": 38.926854166666665, "is_disabled": 0, "name": "3fc6429d696e2b8607f1c9ea7df1d592", "fusion_lat": 0.0, "rental_uris": {"ios": "https://dc.lft.to/lastmile_qr_scan", "android": "https://dc.lft.to/lastmile_qr_scan"}, "lon": -77.01571933333334, "type": "electric_scooter"}, {"bike_id": "72e1336d6efdc48e316a1f1c750c4783", "is_reserved": 0, "fusion_lon": 0.0, "lat": 38.87477583333333, "is_disabled": 0, "name": "72e1336d6efdc48e316a1f1c750c4783", "fusion_lat": 0.0, "rental_uris": {"ios": "https://dc.lft.to/lastmile_qr_scan", "android": "https://dc.lft.to/lastmile_qr_scan"}, "lon": -76.965219, "type": "electric_bike"}, {"bike_id": "df711c5a3b06bf7ed25ba8e014cd1d21", "is_reserved": 0, "fusion_lon": 0.0, "lat": 38.917134833333336, "is_disabled": 0, "name": "df711c5a3b06bf7ed25ba8e014cd1d21", "fusion_lat": 0.0, "rental_uris": {"ios": "https://dc.lft.to/lastmile_qr_scan", "android": "https://dc.lft.to/lastmile_qr_scan"}, "lon": -77.0288725, "type": "electric_scooter"}, {"bike_id": "4cb30481f07b9970dce62494dd42a1c6", "is_reserved": 0, "fusion_lon": 0.0, "lat": 38.910090833333335, "is_disabled": 0, "name": "4cb30481f07b9970dce62494dd42a1c6", "fusion_lat": 0.0, "rental_uris": {"ios": "https://dc.lft.to/lastmile_qr_scan", "android": "https://dc.lft.to/lastmile_qr_scan"}, "lon": -77.03458116666667, "type": "electric_scooter"}, {"bike_id": "1b31a9d4218cf88a16d7481b4da866eb", "is_reserved": 0, "fusion_lon": 0.0, "lat": 38.966211, "is_disabled": 0, "name": "1b31a9d4218cf88a16d7481b4da866eb", "fusion_lat": 0.0, "rental_uris": {"ios": "https://dc.lft.to/lastmile_qr_scan", "android": "https://dc.lft.to/lastmile_qr_scan"}, "lon": -77.034294, "type": "electric_bike"}, {"bike_id": "6dd9aa1ae1adde80569d9dcb4ddf194a", "is_reserved": 0, "fusion_lon": 0.0, "lat": 38.9244305, "is_disabled": 0, "name": "6dd9aa1ae1adde80569d9dcb4ddf194a", "fusion_lat": 0.0, "rental_uris": {"ios": "https://dc.lft.to/lastmile_qr_scan", "android": "https://dc.lft.to/lastmile_qr_scan"}, "lon": -77.0337615, "type": "electric_scooter"}, {"bike_id": "b554532022ec13e303a2ff6a8f32b2cf", "is_reserved": 0, "fusion_lon": 0.0, "lat": 38.896193833333335, "is_disabled": 0, "name": "b554532022ec13e303a2ff6a8f32b2cf", "fusion_lat": 0.0, "rental_uris": {"ios": "https://dc.lft.to/lastmile_qr_scan", "android": "https://dc.lft.to/lastmile_qr_scan"}, "lon": -77.0322875, "type": "electric_scooter"}, {"bike_id": "80798418b225972b56ab0cd9c78c24a4", "is_reserved": 0, "fusion_lon": 0.0, "lat": 38.920852, "is_disabled": 0, "name": "80798418b225972b56ab0cd9c78c24a4", "fusion_lat": 0.0, "rental_uris": {"ios": "https://dc.lft.to/lastmile_qr_scan", "android": "https://dc.lft.to/lastmile_qr_scan"}, "lon": -77.03159633333334, "type": "electric_scooter"}, {"bike_id": "9bec21276936e15d79f348bf60315179", "is_reserved": 0, "fusion_lon": 0.0, "lat": 38.90387283333333, "is_disabled": 0, "name": "9bec21276936e15d79f348bf60315179", "fusion_lat": 0.0, "rental_uris": {"ios": "https://dc.lft.to/lastmile_qr_scan", "android": "https://dc.lft.to/lastmile_qr_scan"}, "lon": -77.04316783333333, "type": "electric_scooter"}, {"bike_id": "c25049ecfe71faf219f2d047a96ef247", "is_reserved": 0, "fusion_lon": 0.0, "lat": 38.95264566666667, "is_disabled": 0, "name": "c25049ecfe71faf219f2d047a96ef247", "fusion_lat": 0.0, "rental_uris": {"ios": "https://dc.lft.to/lastmile_qr_scan", "android": "https://dc.lft.to/lastmile_qr_scan"}, "lon": -77.0698445, "type": "electric_bike"}, {"bike_id": "ad098db03ab927da9dcdf0f2f6d16cc8", "is_reserved": 0, "fusion_lon": 0.0, "lat": 38.90573166666667, "is_disabled": 0, "name": "ad098db03ab927da9dcdf0f2f6d16cc8", "fusion_lat": 0.0, "rental_uris": {"ios": "https://dc.lft.to/lastmile_qr_scan", "android": "https://dc.lft.to/lastmile_qr_scan"}, "lon": -77.00264716666666, "type": "electric_scooter"}, {"bike_id": "0180c2c269e2257c1e8c029d749f6f2a", "is_reserved": 0, "fusion_lon": 0.0, "lat": 38.93095066666667, "is_disabled": 0, "name": "0180c2c269e2257c1e8c029d749f6f2a", "fusion_lat": 0.0, "rental_uris": {"ios": "https://dc.lft.to/lastmile_qr_scan", "android": "https://dc.lft.to/lastmile_qr_scan"}, "lon": -77.02508633333333, "type": "electric_scooter"}, {"bike_id": "89b3dcd6249fffa7fe4d2706e52fc016", "is_reserved": 0, "fusion_lon": 0.0, "lat": 38.922469666666665, "is_disabled": 0, "name": "89b3dcd6249fffa7fe4d2706e52fc016", "fusion_lat": 0.0, "rental_uris": {"ios": "https://dc.lft.to/lastmile_qr_scan", "android": "https://dc.lft.to/lastmile_qr_scan"}, "lon": -77.01824966666666, "type": "electric_scooter"}, {"bike_id": "e3c40032c7c4f8a89f2e8872b8afeb6c", "is_reserved": 0, "fusion_lon": 0.0, "lat": 38.90030733333333, "is_disabled": 0, "name": "e3c40032c7c4f8a89f2e8872b8afeb6c", "fusion_lat": 0.0, "rental_uris": {"ios": "https://dc.lft.to/lastmile_qr_scan", "android": "https://dc.lft.to/lastmile_qr_scan"}, "lon": -77.04682083333333, "type": "electric_scooter"}, {"bike_id": "e30892da947df214816329ff3b0c4c7f", "is_reserved": 0, "fusion_lon": 0.0, "lat": 38.866070666666666, "is_disabled": 0, "name": "e30892da947df214816329ff3b0c4c7f", "fusion_lat": 0.0, "rental_uris": {"ios": "https://dc.lft.to/lastmile_qr_scan", "android": "https://dc.lft.to/lastmile_qr_scan"}, "lon": -76.989154, "type": "electric_scooter"}, {"bike_id": "11288fdfe0bf1fdfa1e0471f836ed03a", "is_reserved": 0, "fusion_lon": 0.0, "lat": 38.905708833333335, "is_disabled": 0, "name": "11288fdfe0bf1fdfa1e0471f836ed03a", "fusion_lat": 0.0, "rental_uris": {"ios": "https://dc.lft.to/lastmile_qr_scan", "android": "https://dc.lft.to/lastmile_qr_scan"}, "lon": -77.02171866666667, "type": "electric_scooter"}, {"bike_id": "54335830ff7aefbe289c3f80630fb0c5", "is_reserved": 0, "fusion_lon": 0.0, "lat": 38.892153666666665, "is_disabled": 0, "name": "54335830ff7aefbe289c3f80630fb0c5", "fusion_lat": 0.0, "rental_uris": {"ios": "https://dc.lft.to/lastmile_qr_scan", "android": "https://dc.lft.to/lastmile_qr_scan"}, "lon": -77.03160716666666, "type": "electric_scooter"}, {"bike_id": "2669ea95a451bdb250666ca41fff78e4", "is_reserved": 0, "fusion_lon": 0.0, "lat": 38.923647833333334, "is_disabled": 0, "name": "2669ea95a451bdb250666ca41fff78e4", "fusion_lat": 0.0, "rental_uris": {"ios": "https://dc.lft.to/lastmile_qr_scan", "android": "https://dc.lft.to/lastmile_qr_scan"}, "lon": -77.05023983333334, "type": "electric_scooter"}, {"bike_id": "fcd5d23c81c523ca9791faad063078bc", "is_reserved": 0, "fusion_lon": 0.0, "lat": 38.933965, "is_disabled": 0, "name": "fcd5d23c81c523ca9791faad063078bc", "fusion_lat": 0.0, "rental_uris": {"ios": "https://dc.lft.to/lastmile_qr_scan", "android": "https://dc.lft.to/lastmile_qr_scan"}, "lon": -77.03883916666666, "type": "electric_scooter"}, {"bike_id": "e2e2d47a161668e5e795362a7924d45b", "is_reserved": 0, "fusion_lon": 0.0, "lat": 38.9590985, "is_disabled": 0, "name": "e2e2d47a161668e5e795362a7924d45b", "fusion_lat": 0.0, "rental_uris": {"ios": "https://dc.lft.to/lastmile_qr_scan", "android": "https://dc.lft.to/lastmile_qr_scan"}, "lon": -77.08072516666667, "type": "electric_scooter"}, {"bike_id": "4d18c9d4cf111c74eef85faf31f1e0fb", "is_reserved": 0, "fusion_lon": 0.0, "lat": 38.883119, "is_disabled": 0, "name": "4d18c9d4cf111c74eef85faf31f1e0fb", "fusion_lat": 0.0, "rental_uris": {"ios": "https://dc.lft.to/lastmile_qr_scan", "android": "https://dc.lft.to/lastmile_qr_scan"}, "lon": -77.00595466666667, "type": "electric_scooter"}, {"bike_id": "6918ba21f0588f66dc983cf0c80f4fcc", "is_reserved": 0, "fusion_lon": 0.0, "lat": 38.91086816666667, "is_disabled": 0, "name": "6918ba21f0588f66dc983cf0c80f4fcc", "fusion_lat": 0.0, "rental_uris": {"ios": "https://dc.lft.to/lastmile_qr_scan", "android": "https://dc.lft.to/lastmile_qr_scan"}, "lon": -77.03856016666667, "type": "electric_scooter"}, {"bike_id": "d13a47d6be67035520b3471908099f05", "is_reserved": 0, "fusion_lon": 0.0, "lat": 38.884887166666665, "is_disabled": 0, "name": "d13a47d6be67035520b3471908099f05", "fusion_lat": 0.0, "rental_uris": {"ios": "https://dc.lft.to/lastmile_qr_scan", "android": "https://dc.lft.to/lastmile_qr_scan"}, "lon": -77.00722816666666, "type": "electric_scooter"}, {"bike_id": "5034dc5e9f64f3450ce75f69ad3bf656", "is_reserved": 0, "fusion_lon": 0.0, "lat": 38.92654683333333, "is_disabled": 0, "name": "5034dc5e9f64f3450ce75f69ad3bf656", "fusion_lat": 0.0, "rental_uris": {"ios": "https://dc.lft.to/lastmile_qr_scan", "android": "https://dc.lft.to/lastmile_qr_scan"}, "lon": -77.03705666666667, "type": "electric_scooter"}, {"bike_id": "163d201e99384f3b5cadd9b5f581d4bb", "is_reserved": 0, "fusion_lon": 0.0, "lat": 38.9180315, "is_disabled": 0, "name": "163d201e99384f3b5cadd9b5f581d4bb", "fusion_lat": 0.0, "rental_uris": {"ios": "https://dc.lft.to/lastmile_qr_scan", "android": "https://dc.lft.to/lastmile_qr_scan"}, "lon": -77.03432066666667, "type": "electric_scooter"}, {"bike_id": "05a5bec8596ac87674267477a932aef6", "is_reserved": 0, "fusion_lon": 0.0, "lat": 38.9045335, "is_disabled": 0, "name": "05a5bec8596ac87674267477a932aef6", "fusion_lat": 0.0, "rental_uris": {"ios": "https://dc.lft.to/lastmile_qr_scan", "android": "https://dc.lft.to/lastmile_qr_scan"}, "lon": -77.05921883333333, "type": "electric_scooter"}, {"bike_id": "be5c5b281d92ba04637945c63779854d", "is_reserved": 0, "fusion_lon": 0.0, "lat": 38.864241, "is_disabled": 0, "name": "be5c5b281d92ba04637945c63779854d", "fusion_lat": 0.0, "rental_uris": {"ios": "https://dc.lft.to/lastmile_qr_scan", "android": "https://dc.lft.to/lastmile_qr_scan"}, "lon": -77.01331533333334, "type": "electric_scooter"}, {"bike_id": "71b535a9ed0870ca499277e4dc0bb565", "is_reserved": 0, "fusion_lon": 0.0, "lat": 38.95731766666667, "is_disabled": 0, "name": "71b535a9ed0870ca499277e4dc0bb565", "fusion_lat": 0.0, "rental_uris": {"ios": "https://dc.lft.to/lastmile_qr_scan", "android": "https://dc.lft.to/lastmile_qr_scan"}, "lon": -77.02415666666667, "type": "electric_scooter"}, {"bike_id": "66f7a36745e6ada3fb868fea00e7573a", "is_reserved": 0, "fusion_lon": 0.0, "lat": 38.909616666666665, "is_disabled": 0, "name": "66f7a36745e6ada3fb868fea00e7573a", "fusion_lat": 0.0, "rental_uris": {"ios": "https://dc.lft.to/lastmile_qr_scan", "android": "https://dc.lft.to/lastmile_qr_scan"}, "lon": -77.034203, "type": "electric_scooter"}, {"bike_id": "9eeae5524a40a4142b2b70a1c93bfd88", "is_reserved": 0, "fusion_lon": 0.0, "lat": 38.8843425, "is_disabled": 0, "name": "9eeae5524a40a4142b2b70a1c93bfd88", "fusion_lat": 0.0, "rental_uris": {"ios": "https://dc.lft.to/lastmile_qr_scan", "android": "https://dc.lft.to/lastmile_qr_scan"}, "lon": -77.03036083333333, "type": "electric_scooter"}, {"bike_id": "5f96b443578f3a543fa985a17a8cb7fe", "is_reserved": 0, "fusion_lon": 0.0, "lat": 38.901701, "is_disabled": 0, "name": "5f96b443578f3a543fa985a17a8cb7fe", "fusion_lat": 0.0, "rental_uris": {"ios": "https://dc.lft.to/lastmile_qr_scan", "android": "https://dc.lft.to/lastmile_qr_scan"}, "lon": -77.0000485, "type": "electric_scooter"}, {"bike_id": "bf2d1be4f8b8819071be9a3a98996293", "is_reserved": 0, "fusion_lon": 0.0, "lat": 38.91409433333333, "is_disabled": 0, "name": "bf2d1be4f8b8819071be9a3a98996293", "fusion_lat": 0.0, "rental_uris": {"ios": "https://dc.lft.to/lastmile_qr_scan", "android": "https://dc.lft.to/lastmile_qr_scan"}, "lon": -77.03807583333334, "type": "electric_scooter"}, {"bike_id": "7867451003b584ed0c2644b41bf38b52", "is_reserved": 0, "fusion_lon": 0.0, "lat": 38.86359783333333, "is_disabled": 0, "name": "7867451003b584ed0c2644b41bf38b52", "fusion_lat": 0.0, "rental_uris": {"ios": "https://dc.lft.to/lastmile_qr_scan", "android": "https://dc.lft.to/lastmile_qr_scan"}, "lon": -76.9906995, "type": "electric_scooter"}, {"bike_id": "c4a98242c9391cabe676065258c5d6e5", "is_reserved": 0, "fusion_lon": 0.0, "lat": 38.9581105, "is_disabled": 0, "name": "c4a98242c9391cabe676065258c5d6e5", "fusion_lat": 0.0, "rental_uris": {"ios": "https://dc.lft.to/lastmile_qr_scan", "android": "https://dc.lft.to/lastmile_qr_scan"}, "lon": -77.01377366666667, "type": "electric_bike"}, {"bike_id": "0c09dc048ab8816003f772a7c671cc19", "is_reserved": 0, "fusion_lon": 0.0, "lat": 38.92626216666667, "is_disabled": 0, "name": "0c09dc048ab8816003f772a7c671cc19", "fusion_lat": 0.0, "rental_uris": {"ios": "https://dc.lft.to/lastmile_qr_scan", "android": "https://dc.lft.to/lastmile_qr_scan"}, "lon": -77.03790583333334, "type": "electric_scooter"}, {"bike_id": "c0e30bbce5d93a2c049f4cc4ccdbf21e", "is_reserved": 0, "fusion_lon": 0.0, "lat": 38.925803, "is_disabled": 0, "name": "c0e30bbce5d93a2c049f4cc4ccdbf21e", "fusion_lat": 0.0, "rental_uris": {"ios": "https://dc.lft.to/lastmile_qr_scan", "android": "https://dc.lft.to/lastmile_qr_scan"}, "lon": -77.004698, "type": "electric_scooter"}, {"bike_id": "2fdddf162f7ba6c4b85a1beb6fb930bf", "is_reserved": 0, "fusion_lon": 0.0, "lat": 38.89341183333333, "is_disabled": 0, "name": "2fdddf162f7ba6c4b85a1beb6fb930bf", "fusion_lat": 0.0, "rental_uris": {"ios": "https://dc.lft.to/lastmile_qr_scan", "android": "https://dc.lft.to/lastmile_qr_scan"}, "lon": -76.98456366666667, "type": "electric_scooter"}, {"bike_id": "67615d1681f19fd2c0c32e203c669767", "is_reserved": 0, "fusion_lon": 0.0, "lat": 38.885213666666665, "is_disabled": 0, "name": "67615d1681f19fd2c0c32e203c669767", "fusion_lat": 0.0, "rental_uris": {"ios": "https://dc.lft.to/lastmile_qr_scan", "android": "https://dc.lft.to/lastmile_qr_scan"}, "lon": -77.015206, "type": "electric_scooter"}, {"bike_id": "a19a8363de9a512c26e0bd5a3f1027dd", "is_reserved": 0, "fusion_lon": 0.0, "lat": 38.935838333333336, "is_disabled": 0, "name": "a19a8363de9a512c26e0bd5a3f1027dd", "fusion_lat": 0.0, "rental_uris": {"ios": "https://dc.lft.to/lastmile_qr_scan", "android": "https://dc.lft.to/lastmile_qr_scan"}, "lon": -77.027625, "type": "electric_scooter"}, {"bike_id": "45c4aaf060d3aa8e28a029ef09c7c017", "is_reserved": 0, "fusion_lon": 0.0, "lat": 38.91332083333333, "is_disabled": 0, "name": "45c4aaf060d3aa8e28a029ef09c7c017", "fusion_lat": 0.0, "rental_uris": {"ios": "https://dc.lft.to/lastmile_qr_scan", "android": "https://dc.lft.to/lastmile_qr_scan"}, "lon": -77.04871266666666, "type": "electric_scooter"}, {"bike_id": "68b1c0a90f6828eb8add7ffd595588ad", "is_reserved": 0, "fusion_lon": 0.0, "lat": 38.9001035, "is_disabled": 0, "name": "68b1c0a90f6828eb8add7ffd595588ad", "fusion_lat": 0.0, "rental_uris": {"ios": "https://dc.lft.to/lastmile_qr_scan", "android": "https://dc.lft.to/lastmile_qr_scan"}, "lon": -76.99115883333333, "type": "electric_scooter"}, {"bike_id": "b1923ccb793b0c61d83fb42b03f1c01d", "is_reserved": 0, "fusion_lon": 0.0, "lat": 38.9170595, "is_disabled": 0, "name": "b1923ccb793b0c61d83fb42b03f1c01d", "fusion_lat": 0.0, "rental_uris": {"ios": "https://dc.lft.to/lastmile_qr_scan", "android": "https://dc.lft.to/lastmile_qr_scan"}, "lon": -77.03448483333334, "type": "electric_scooter"}, {"bike_id": "29e0fb45b32aaea34ab1275ca494ba90", "is_reserved": 0, "fusion_lon": 0.0, "lat": 38.92650883333334, "is_disabled": 0, "name": "29e0fb45b32aaea34ab1275ca494ba90", "fusion_lat": 0.0, "rental_uris": {"ios": "https://dc.lft.to/lastmile_qr_scan", "android": "https://dc.lft.to/lastmile_qr_scan"}, "lon": -77.03704533333334, "type": "electric_scooter"}, {"bike_id": "6f9cc1d83597ab2f0e5b6568791c465f", "is_reserved": 0, "fusion_lon": 0.0, "lat": 38.85316316666667, "is_disabled": 0, "name": "6f9cc1d83597ab2f0e5b6568791c465f", "fusion_lat": 0.0, "rental_uris": {"ios": "https://dc.lft.to/lastmile_qr_scan", "android": "https://dc.lft.to/lastmile_qr_scan"}, "lon": -76.98025066666666, "type": "electric_bike"}, {"bike_id": "c03816995270fffd0a3cc370e41ed3b2", "is_reserved": 0, "fusion_lon": 0.0, "lat": 38.87850516666666, "is_disabled": 0, "name": "c03816995270fffd0a3cc370e41ed3b2", "fusion_lat": 0.0, "rental_uris": {"ios": "https://dc.lft.to/lastmile_qr_scan", "android": "https://dc.lft.to/lastmile_qr_scan"}, "lon": -77.00494083333334, "type": "electric_scooter"}, {"bike_id": "7e72b26fb899c419c2d18fa2e9e6465f", "is_reserved": 0, "fusion_lon": 0.0, "lat": 38.927699833333335, "is_disabled": 0, "name": "7e72b26fb899c419c2d18fa2e9e6465f", "fusion_lat": 0.0, "rental_uris": {"ios": "https://dc.lft.to/lastmile_qr_scan", "android": "https://dc.lft.to/lastmile_qr_scan"}, "lon": -77.0267635, "type": "electric_scooter"}, {"bike_id": "379f3d5befebc6b49bcd1c9c662d69b8", "is_reserved": 0, "fusion_lon": 0.0, "lat": 38.8902805, "is_disabled": 0, "name": "379f3d5befebc6b49bcd1c9c662d69b8", "fusion_lat": 0.0, "rental_uris": {"ios": "https://dc.lft.to/lastmile_qr_scan", "android": "https://dc.lft.to/lastmile_qr_scan"}, "lon": -76.93625416666667, "type": "electric_scooter"}, {"bike_id": "f3b5d01f7d115b855ea1db8320ceead5", "is_reserved": 0, "fusion_lon": 0.0, "lat": 38.970922333333334, "is_disabled": 0, "name": "f3b5d01f7d115b855ea1db8320ceead5", "fusion_lat": 0.0, "rental_uris": {"ios": "https://dc.lft.to/lastmile_qr_scan", "android": "https://dc.lft.to/lastmile_qr_scan"}, "lon": -77.069631, "type": "electric_bike"}, {"bike_id": "0e8f6414b1049c7985a90beda1ac6d88", "is_reserved": 0, "fusion_lon": 0.0, "lat": 38.89894266666667, "is_disabled": 0, "name": "0e8f6414b1049c7985a90beda1ac6d88", "fusion_lat": 0.0, "rental_uris": {"ios": "https://dc.lft.to/lastmile_qr_scan", "android": "https://dc.lft.to/lastmile_qr_scan"}, "lon": -77.03261766666667, "type": "electric_scooter"}, {"bike_id": "a9a6cacff5f70880272545df33ed3365", "is_reserved": 0, "fusion_lon": 0.0, "lat": 38.92406883333334, "is_disabled": 0, "name": "a9a6cacff5f70880272545df33ed3365", "fusion_lat": 0.0, "rental_uris": {"ios": "https://dc.lft.to/lastmile_qr_scan", "android": "https://dc.lft.to/lastmile_qr_scan"}, "lon": -77.02964133333333, "type": "electric_scooter"}, {"bike_id": "017756c08715b438d6782481faf47c33", "is_reserved": 0, "fusion_lon": 0.0, "lat": 38.86960783333333, "is_disabled": 0, "name": "017756c08715b438d6782481faf47c33", "fusion_lat": 0.0, "rental_uris": {"ios": "https://dc.lft.to/lastmile_qr_scan", "android": "https://dc.lft.to/lastmile_qr_scan"}, "lon": -77.01375683333333, "type": "electric_scooter"}, {"bike_id": "252865a8e468d46f6744ecf5ab838ddf", "is_reserved": 0, "fusion_lon": 0.0, "lat": 38.892892, "is_disabled": 0, "name": "252865a8e468d46f6744ecf5ab838ddf", "fusion_lat": 0.0, "rental_uris": {"ios": "https://dc.lft.to/lastmile_qr_scan", "android": "https://dc.lft.to/lastmile_qr_scan"}, "lon": -77.01217183333333, "type": "electric_scooter"}, {"bike_id": "2c10689e84aa8267a2a440338466e5ee", "is_reserved": 0, "fusion_lon": 0.0, "lat": 38.968209333333334, "is_disabled": 0, "name": "2c10689e84aa8267a2a440338466e5ee", "fusion_lat": 0.0, "rental_uris": {"ios": "https://dc.lft.to/lastmile_qr_scan", "android": "https://dc.lft.to/lastmile_qr_scan"}, "lon": -77.01785283333334, "type": "electric_scooter"}, {"bike_id": "5f3004f966d68351466d529a26f64eca", "is_reserved": 0, "fusion_lon": 0.0, "lat": 38.92232816666667, "is_disabled": 0, "name": "5f3004f966d68351466d529a26f64eca", "fusion_lat": 0.0, "rental_uris": {"ios": "https://dc.lft.to/lastmile_qr_scan", "android": "https://dc.lft.to/lastmile_qr_scan"}, "lon": -77.03515266666666, "type": "electric_scooter"}, {"bike_id": "60aa5c02b4f7a1e5fe02b432b9b76881", "is_reserved": 0, "fusion_lon": 0.0, "lat": 38.9050125, "is_disabled": 0, "name": "60aa5c02b4f7a1e5fe02b432b9b76881", "fusion_lat": 0.0, "rental_uris": {"ios": "https://dc.lft.to/lastmile_qr_scan", "android": "https://dc.lft.to/lastmile_qr_scan"}, "lon": -77.04834983333333, "type": "electric_scooter"}, {"bike_id": "602c786195df05963d7be5dbae42909a", "is_reserved": 0, "fusion_lon": 0.0, "lat": 38.904576166666665, "is_disabled": 0, "name": "602c786195df05963d7be5dbae42909a", "fusion_lat": 0.0, "rental_uris": {"ios": "https://dc.lft.to/lastmile_qr_scan", "android": "https://dc.lft.to/lastmile_qr_scan"}, "lon": -76.99503966666667, "type": "electric_scooter"}, {"bike_id": "24f34c784d7b0851d426c4514bda2ede", "is_reserved": 0, "fusion_lon": 0.0, "lat": 38.8960535, "is_disabled": 0, "name": "24f34c784d7b0851d426c4514bda2ede", "fusion_lat": 0.0, "rental_uris": {"ios": "https://dc.lft.to/lastmile_qr_scan", "android": "https://dc.lft.to/lastmile_qr_scan"}, "lon": -77.04506666666667, "type": "electric_scooter"}, {"bike_id": "3ae55cdada3d69f97fe029f6b0cd9d83", "is_reserved": 0, "fusion_lon": 0.0, "lat": 38.8659465, "is_disabled": 0, "name": "3ae55cdada3d69f97fe029f6b0cd9d83", "fusion_lat": 0.0, "rental_uris": {"ios": "https://dc.lft.to/lastmile_qr_scan", "android": "https://dc.lft.to/lastmile_qr_scan"}, "lon": -76.932264, "type": "electric_bike"}, {"bike_id": "696be657d85d06240214ccec9dee3551", "is_reserved": 0, "fusion_lon": 0.0, "lat": 38.899928, "is_disabled": 0, "name": "696be657d85d06240214ccec9dee3551", "fusion_lat": 0.0, "rental_uris": {"ios": "https://dc.lft.to/lastmile_qr_scan", "android": "https://dc.lft.to/lastmile_qr_scan"}, "lon": -77.021504, "type": "electric_scooter"}, {"bike_id": "1fa5a8221caf8a4b7bc0f78a4dc34095", "is_reserved": 0, "fusion_lon": 0.0, "lat": 38.94182516666667, "is_disabled": 0, "name": "1fa5a8221caf8a4b7bc0f78a4dc34095", "fusion_lat": 0.0, "rental_uris": {"ios": "https://dc.lft.to/lastmile_qr_scan", "android": "https://dc.lft.to/lastmile_qr_scan"}, "lon": -77.02529183333333, "type": "electric_scooter"},