{"data": {"bikes": [{"fusion_lat": 0.0, "name": "f5f34f0eb89ea76e1e6deda5f3774c81", "is_disabled": 0, "rental_uris": {"android": "https://dc.lft.to/lastmile_qr_scan", "ios": "https://dc.lft.to/lastmile_qr_scan"}, "fusion_lon": 0.0, "lat": 38.91716266666667, "bike_id": "f5f34f0eb89ea76e1e6deda5f3774c81", "type": "electric_scooter", "is_reserved": 0, "lon": -77.0289765}, {"fusion_lat": 0.0, "name": "40b68583833948ad98d58dc82fc661e3", "is_disabled": 0, "rental_uris": {"android": "https://dc.lft.to/lastmile_qr_scan", "ios": "https://dc.lft.to/lastmile_qr_scan"}, "fusion_lon": 0.0, "lat": 38.876291, "bike_id": "40b68583833948ad98d58dc82fc661e3", "type": "electric_scooter", "is_reserved": 0, "lon": -77.01641383333333}, {"fusion_lat": 0.0, "name": "bc2459d7a60170001362f6c27a60394c", "is_disabled": 0, "rental_uris": {"android": "https://dc.lft.to/lastmile_qr_scan", "ios": "https://dc.lft.to/lastmile_qr_scan"}, "fusion_lon": 0.0, "lat": 38.887553833333335, "bike_id": "bc2459d7a60170001362f6c27a60394c", "type": "electric_scooter", "is_reserved": 0, "lon": -77.0025935}, {"fusion_lat": 0.0, "name": "bbd320a2479a51c9fcbcef83202a43c1", "is_disabled": 0, "rental_uris": {"android": "https://dc.lft.to/lastmile_qr_scan", "ios": "https://dc.lft.to/lastmile_qr_scan"}, "fusion_lon": 0.0, "lat": 38.909771666666664, "bike_id": "bbd320a2479a51c9fcbcef83202a43c1", "type": "electric_scooter", "is_reserved": 0, "lon": -77.0338085}, {"fusion_lat": 0.0, "name": "72a7a95ca358f9ee445959cf68c0f4e6", "is_disabled": 0, "rental_uris": {"android": "https://dc.lft.to/lastmile_qr_scan", "ios": "https://dc.lft.to/lastmile_qr_scan"}, "fusion_lon": 0.0, "lat": 38.93193133333333, "bike_id": "72a7a95ca358f9ee445959cf68c0f4e6", "type": "electric_scooter", "is_reserved": 0, "lon": -77.04297933333334}, {"fusion_lat": 0.0, "name": "01fd459be8ad11312144e253eb10377a", "is_disabled": 0, "rental_uris": {"android": "https://dc.lft.to/lastmile_qr_scan", "ios": "https://dc.lft.to/lastmile_qr_scan"}, "fusion_lon": 0.0, "lat": 38.884459666666665, "bike_id": "01fd459be8ad11312144e253eb10377a", "type": "electric_scooter", "is_reserved": 0, "lon": -77.0247795}, {"fusion_lat": 0.0, "name": "40fc105b93a846a9c0f06b363120bbc9", "is_disabled": 0, "rental_uris": {"android": "https://dc.lft.to/lastmile_qr_scan", "ios": "https://dc.lft.to/lastmile_qr_scan"}, "fusion_lon": 0.0, "lat": 38.887232833333336, "bike_id": "40fc105b93a846a9c0f06b363120bbc9", "type": "electric_scooter", "is_reserved": 0, "lon": -76.9835805}, {"fusion_lat": 0.0, "name": "e400c8e5a2a9e229a7f0e699bd565c11", "is_disabled": 0, "rental_uris": {"android": "https://dc.lft.to/lastmile_qr_scan", "ios": "https://dc.lft.to/lastmile_qr_scan"}, "fusion_lon": 0.0, "lat": 38.905489333333335, "bike_id": "e400c8e5a2a9e229a7f0e699bd565c11", "type": "electric_scooter", "is_reserved": 0, "lon": -77.0625435}, {"fusion_lat": 0.0, "name": "f5bd78659582aaaf23a47682fbe730e0", "is_disabled": 0, "rental_uris": {"android": "https://dc.lft.to/lastmile_qr_scan", "ios": "https://dc.lft.to/lastmile_qr_scan"}, "fusion_lon": 0.0, "lat": 38.841335666666666, "bike_id": "f5bd78659582aaaf23a47682fbe730e0", "type": "electric_bike", "is_reserved": 0, "lon": -76.94761516666667}, {"fusion_lat": 0.0, "name": "08de0acd29a7300ed9d616a55d38ffa4", "is_disabled": 0, "rental_uris": {"android": "https://dc.lft.to/lastmile_qr_scan", "ios": "https://dc.lft.to/lastmile_qr_scan"}, "fusion_lon": 0.0, "lat": 38.92653516666667, "bike_id": "08de0acd29a7300ed9d616a55d38ffa4", "type": "electric_scooter", "is_reserved": 0, "lon": -77.05334383333333}, {"fusion_lat": 0.0, "name": "0b7009703833d135aa89fb769399041d", "is_disabled": 0, "rental_uris": {"android": "https://dc.lft.to/lastmile_qr_scan", "ios": "https://dc.lft.to/lastmile_qr_scan"}, "fusion_lon": 0.0, "lat": 38.92210633333333, "bike_id": "0b7009703833d135aa89fb769399041d", "type": "electric_scooter", "is_reserved": 0, "lon": -77.04240016666667}, {"fusion_lat": 0.0, "name": "d6a7214decdf8445e6cf28068b7b8d30", "is_disabled": 0, "rental_uris": {"android": "https://dc.lft.to/lastmile_qr_scan", "ios": "https://dc.lft.to/lastmile_qr_scan"}, "fusion_lon": 0.0, "lat": 38.949772333333335, "bike_id": "d6a7214decdf8445e6cf28068b7b8d30", "type": "electric_scooter", "is_reserved": 0, "lon": -77.02446566666667}, {"fusion_lat": 0.0, "name": "ffb93b22ee89faf17d9bf7291e728183", "is_disabled": 0, "rental_uris": {"android": "https://dc.lft.to/lastmile_qr_scan", "ios": "https://dc.lft.to/lastmile_qr_scan"}, "fusion_lon": 0.0, "lat": 38.9075605, "bike_id": "ffb93b22ee89faf17d9bf7291e728183", "type": "electric_scooter", "is_reserved": 0, "lon": -77.0003065}, {"fusion_lat": 0.0, "name": "133e26fc583fe39f1cc6b1241861431b", "is_disabled": 0, "rental_uris": {"android": "https://dc.lft.to/lastmile_qr_scan", "ios": "https://dc.lft.to/lastmile_qr_scan"}, "fusion_lon": 0.0, "lat": 38.92450016666667, "bike_id": "133e26fc583fe39f1cc6b1241861431b", "type": "electric_scooter", "is_reserved": 0, "lon": -77.03976666666667}, {"fusion_lat": 0.0, "name": "109acfef4d3b801180314fb3aa4da339", "is_disabled": 0, "rental_uris": {"android": "https://dc.lft.to/lastmile_qr_scan", "ios": "https://dc.lft.to/lastmile_qr_scan"}, "fusion_lon": 0.0, "lat": 38.915374, "bike_id": "109acfef4d3b801180314fb3aa4da339", "type": "electric_scooter", "is_reserved": 0, "lon": -77.03210966666667}, {"fusion_lat": 0.0, "name": "115a3a25591d3d3c553edbfc0fe7b9d8", "is_disabled": 0, "rental_uris": {"android": "https://dc.lft.to/lastmile_qr_scan", "ios": "https://dc.lft.to/lastmile_qr_scan"}, "fusion_lon": 0.0, "lat": 38.899904166666666, "bike_id": "115a3a25591d3d3c553edbfc0fe7b9d8", "type": "electric_scooter", "is_reserved": 0, "lon": -77.023182}, {"fusion_lat": 0.0, "name": "763eb3ed38c6af0e8ad6f709117b4dcd", "is_disabled": 0, "rental_uris": {"android": "https://dc.lft.to/lastmile_qr_scan", "ios": "https://dc.lft.to/lastmile_qr_scan"}, "fusion_lon": 0.0, "lat": 38.892247833333336, "bike_id": "763eb3ed38c6af0e8ad6f709117b4dcd", "type": "electric_scooter", "is_reserved": 0, "lon": -77.05037633333333}, {"fusion_lat": 0.0, "name": "3ba12fd8f1c18c5ab0bba9281c125b29", "is_disabled": 0, "rental_uris": {"android": "https://dc.lft.to/lastmile_qr_scan", "ios": "https://dc.lft.to/lastmile_qr_scan"}, "fusion_lon": 0.0, "lat": 38.909525333333335, "bike_id": "3ba12fd8f1c18c5ab0bba9281c125b29", "type": "electric_scooter", "is_reserved": 0, "lon": -77.0271535}, {"fusion_lat": 0.0, "name": "a8d703643d68caed98787ff1f74aa046", "is_disabled": 0, "rental_uris": {"android": "https://dc.lft.to/lastmile_qr_scan", "ios": "https://dc.lft.to/lastmile_qr_scan"}, "fusion_lon": 0.0, "lat": 38.887141, "bike_id": "a8d703643d68caed98787ff1f74aa046", "type": "electric_scooter", "is_reserved": 0, "lon": -76.99673716666666}, {"fusion_lat": 0.0, "name": "6862f7dd06dc307152e60295a86219bd", "is_disabled": 0, "rental_uris": {"android": "https://dc.lft.to/lastmile_qr_scan", "ios": "https://dc.lft.to/lastmile_qr_scan"}, "fusion_lon": 0.0, "lat": 38.889650833333334, "bike_id": "6862f7dd06dc307152e60295a86219bd", "type": "electric_scooter", "is_reserved": 0, "lon": -77.01503166666667}, {"fusion_lat": 0.0, "name": "73090a77e7fbe29ed5e8755a2ad56ae1", "is_disabled": 0, "rental_uris": {"android": "https://dc.lft.to/lastmile_qr_scan", "ios": "https://dc.lft.to/lastmile_qr_scan"}, "fusion_lon": 0.0, "lat": 38.9206255, "bike_id": "73090a77e7fbe29ed5e8755a2ad56ae1", "type": "electric_scooter", "is_reserved": 0, "lon": -77.02711683333334}, {"fusion_lat": 0.0, "name": "b4b90aab43f1b9e7193f3e60d45b8949", "is_disabled": 0, "rental_uris": {"android": "https://dc.lft.to/lastmile_qr_scan", "ios": "https://dc.lft.to/lastmile_qr_scan"}, "fusion_lon": 0.0, "lat": 38.9017995, "bike_id": "b4b90aab43f1b9e7193f3e60d45b8949", "type": "electric_scooter", "is_reserved": 0, "lon": -77.05920283333333}, {"fusion_lat": 0.0, "name": "06be774fe967ee1ca4c722a348c30fa5", "is_disabled": 0, "rental_uris": {"android": "https://dc.lft.to/lastmile_qr_scan", "ios": "https://dc.lft.to/lastmile_qr_scan"}, "fusion_lon": 0.0, "lat": 38.922731166666665, "bike_id": "06be774fe967ee1ca4c722a348c30fa5", "type": "electric_scooter", "is_reserved": 0, "lon": -76.99424733333333}, {"fusion_lat": 0.0, "name": "3b1b20eace1b8a3cb68179aa8b5dcfa9", "is_disabled": 0, "rental_uris": {"android": "https://dc.lft.to/lastmile_qr_scan", "ios": "https://dc.lft.to/lastmile_qr_scan"}, "fusion_lon": 0.0, "lat": 38.89218316666667, "bike_id": "3b1b20eace1b8a3cb68179aa8b5dcfa9", "type": "electric_scooter", "is_reserved": 0, "lon": -77.02415866666666}, {"fusion_lat": 0.0, "name": "6ebfe060fcbd426ccba521c373f8ba4c", "is_disabled": 0, "rental_uris": {"android": "https://dc.lft.to/lastmile_qr_scan", "ios": "https://dc.lft.to/lastmile_qr_scan"}, "fusion_lon": 0.0, "lat": 38.91128766666667, "bike_id": "6ebfe060fcbd426ccba521c373f8ba4c", "type": "electric_scooter", "is_reserved": 0, "lon": -77.02198366666667}, {"fusion_lat": 0.0, "name": "08502a2e204245163551fcb85b24ec78", "is_disabled": 0, "rental_uris": {"android": "https://dc.lft.to/lastmile_qr_scan", "ios": "https://dc.lft.to/lastmile_qr_scan"}, "fusion_lon": 0.0, "lat": 38.90025633333333, "bike_id": "08502a2e204245163551fcb85b24ec78", "type": "electric_scooter", "is_reserved": 0, "lon": -76.99140783333333}, {"fusion_lat": 0.0, "name": "f3f5497bbe5405a50951bcae7f66b1bf", "is_disabled": 0, "rental_uris": {"android": "https://dc.lft.to/lastmile_qr_scan", "ios": "https://dc.lft.to/lastmile_qr_scan"}, "fusion_lon": 0.0, "lat": 38.923691, "bike_id": "f3f5497bbe5405a50951bcae7f66b1bf", "type": "electric_scooter", "is_reserved": 0, "lon": -77.0815055}, {"fusion_lat": 0.0, "name": "7a0a05b137c061f8f0074f7db069fce4", "is_disabled": 0, "rental_uris": {"android": "https://dc.lft.to/lastmile_qr_scan", "ios": "https://dc.lft.to/lastmile_qr_scan"}, "fusion_lon": 0.0, "lat": 38.969917833333334, "bike_id": "7a0a05b137c061f8f0074f7db069fce4", "type": "electric_scooter", "is_reserved": 0, "lon": -77.01163216666667}, {"fusion_lat": 0.0, "name": "e27afaab1b931a4a7ccf43b317efff7f", "is_disabled": 0, "rental_uris": {"android": "https://dc.lft.to/lastmile_qr_scan", "ios": "https://dc.lft.to/lastmile_qr_scan"}, "fusion_lon": 0.0, "lat": 38.916018, "bike_id": "e27afaab1b931a4a7ccf43b317efff7f", "type": "electric_scooter", "is_reserved": 0, "lon": -77.0459955}, {"fusion_lat": 0.0, "name": "b9a89095f2e6e8e02a8e3d4a046dc70a", "is_disabled": 0, "rental_uris": {"android": "https://dc.lft.to/lastmile_qr_scan", "ios": "https://dc.lft.to/lastmile_qr_scan"}, "fusion_lon": 0.0, "lat": 38.91555116666667, "bike_id": "b9a89095f2e6e8e02a8e3d4a046dc70a", "type": "electric_scooter", "is_reserved": 0, "lon": -77.032416}, {"fusion_lat": 0.0, "name": "1962437079599a32b4e6d457ea65aacb", "is_disabled": 0, "rental_uris": {"android": "https://dc.lft.to/lastmile_qr_scan", "ios": "https://dc.lft.to/lastmile_qr_scan"}, "fusion_lon": 0.0, "lat": 38.89014516666667, "bike_id": "1962437079599a32b4e6d457ea65aacb", "type": "electric_scooter", "is_reserved": 0, "lon": -76.93742533333334}, {"fusion_lat": 0.0, "name": "33ee19d163cbdde47a702800de7a277a", "is_disabled": 0, "rental_uris": {"android": "https://dc.lft.to/lastmile_qr_scan", "ios": "https://dc.lft.to/lastmile_qr_scan"}, "fusion_lon": 0.0, "lat": 38.9052345, "bike_id": "33ee19d163cbdde47a702800de7a277a", "type": "electric_scooter", "is_reserved": 0, "lon": -77.03482166666667}, {"fusion_lat": 0.0, "name": "5797e1a9031c3ab4712d7e7871bda109", "is_disabled": 0, "rental_uris": {"android": "https://dc.lft.to/lastmile_qr_scan", "ios": "https://dc.lft.to/lastmile_qr_scan"}, "fusion_lon": 0.0, "lat": 38.91348416666666, "bike_id": "5797e1a9031c3ab4712d7e7871bda109", "type": "electric_scooter", "is_reserved": 0, "lon": -77.00341366666666}, {"fusion_lat": 0.0, "name": "74249dee235d7cc0fb93bb18ab998e4e", "is_disabled": 0, "rental_uris": {"android": "https://dc.lft.to/lastmile_qr_scan", "ios": "https://dc.lft.to/lastmile_qr_scan"}, "fusion_lon": 0.0, "lat": 38.892190166666666, "bike_id": "74249dee235d7cc0fb93bb18ab998e4e", "type": "electric_scooter", "is_reserved": 0, "lon": -77.043683}, {"fusion_lat": 0.0, "name": "5f449eef9fc22c3d5fbfc64f2b369990", "is_disabled": 0, "rental_uris": {"android": "https://dc.lft.to/lastmile_qr_scan", "ios": "https://dc.lft.to/lastmile_qr_scan"}, "fusion_lon": 0.0, "lat": 38.90380316666667, "bike_id": "5f449eef9fc22c3d5fbfc64f2b369990", "type": "electric_scooter", "is_reserved": 0, "lon": -76.9848255}, {"fusion_lat": 0.0, "name": "ae9832f99a5b6e4dd649cfb6630a83f9", "is_disabled": 0, "rental_uris": {"android": "https://dc.lft.to/lastmile_qr_scan", "ios": "https://dc.lft.to/lastmile_qr_scan"}, "fusion_lon": 0.0, "lat": 38.8922475, "bike_id": "ae9832f99a5b6e4dd649cfb6630a83f9", "type": "electric_scooter", "is_reserved": 0, "lon": -77.0215475}, {"fusion_lat": 0.0, "name": "06a6f8f76172002d60c5a20c9f5bddcc", "is_disabled": 0, "rental_uris": {"android": "https://dc.lft.to/lastmile_qr_scan", "ios": "https://dc.lft.to/lastmile_qr_scan"}, "fusion_lon": 0.0, "lat": 38.874458833333335, "bike_id": "06a6f8f76172002d60c5a20c9f5bddcc", "type": "electric_scooter", "is_reserved": 0, "lon": -77.0186865}, {"fusion_lat": 0.0, "name": "48c2059ed086370cd424db93f9fcccd9", "is_disabled": 0, "rental_uris": {"android": "https://dc.lft.to/lastmile_qr_scan", "ios": "https://dc.lft.to/lastmile_qr_scan"}, "fusion_lon": 0.0, "lat": 38.925812666666666, "bike_id": "48c2059ed086370cd424db93f9fcccd9", "type": "electric_scooter", "is_reserved": 0, "lon": -77.027281}, {"fusion_lat": 0.0, "name": "be9e6c6a68d8fbd128f185644b1f0b1f", "is_disabled": 0, "rental_uris": {"android": "https://dc.lft.to/lastmile_qr_scan", "ios": "https://dc.lft.to/lastmile_qr_scan"}, "fusion_lon": 0.0, "lat": 38.92454516666667, "bike_id": "be9e6c6a68d8fbd128f185644b1f0b1f", "type": "electric_scooter", "is_reserved": 0, "lon": -77.02402583333334}, {"fusion_lat": 0.0, "name": "d7a7aee6b21d224ea6a1a1cea79c32b5", "is_disabled": 0, "rental_uris": {"android": "https://dc.lft.to/lastmile_qr_scan", "ios": "https://dc.lft.to/lastmile_qr_scan"}, "fusion_lon": 0.0, "lat": 38.92992983333333, "bike_id": "d7a7aee6b21d224ea6a1a1cea79c32b5", "type": "electric_scooter", "is_reserved": 0, "lon": -77.032336}, {"fusion_lat": 0.0, "name": "41c4efc77c8501fed9ab3b35e86cdf20", "is_disabled": 0, "rental_uris": {"android": "https://dc.lft.to/lastmile_qr_scan", "ios": "https://dc.lft.to/lastmile_qr_scan"}, "fusion_lon": 0.0, "lat": 38.92655366666666, "bike_id": "41c4efc77c8501fed9ab3b35e86cdf20", "type": "electric_scooter", "is_reserved": 0, "lon": -77.02426916666667}, {"fusion_lat": 0.0, "name": "5d7c369f5ef769906a969cc6887f3ef4", "is_disabled": 0, "rental_uris": {"android": "https://dc.lft.to/lastmile_qr_scan", "ios": "https://dc.lft.to/lastmile_qr_scan"}, "fusion_lon": 0.0, "lat": 38.91709516666667, "bike_id": "5d7c369f5ef769906a969cc6887f3ef4", "type": "electric_scooter", "is_reserved": 0, "lon": -77.03473066666666}, {"fusion_lat": 0.0, "name": "12acaad3f7b7e18dee2916c403610c2a", "is_disabled": 0, "rental_uris": {"android": "https://dc.lft.to/lastmile_qr_scan", "ios": "https://dc.lft.to/lastmile_qr_scan"}, "fusion_lon": 0.0, "lat": 38.892517166666664, "bike_id": "12acaad3f7b7e18dee2916c403610c2a", "type": "electric_scooter", "is_reserved": 0, "lon": -77.03346533333334}, {"fusion_lat": 0.0, "name": "10476f6c4bef6268a644c8c5e3dc12e2", "is_disabled": 0, "rental_uris": {"android": "https://dc.lft.to/lastmile_qr_scan", "ios": "https://dc.lft.to/lastmile_qr_scan"}, "fusion_lon": 0.0, "lat": 38.927512, "bike_id": "10476f6c4bef6268a644c8c5e3dc12e2", "type": "electric_scooter", "is_reserved": 0, "lon": -77.02534266666666}, {"fusion_lat": 0.0, "name": "a28960f0d9f587b8ab299f8b1c81c5a0", "is_disabled": 0, "rental_uris": {"android": "https://dc.lft.to/lastmile_qr_scan", "ios": "https://dc.lft.to/lastmile_qr_scan"}, "fusion_lon": 0.0, "lat": 38.909763166666664, "bike_id": "a28960f0d9f587b8ab299f8b1c81c5a0", "type": "electric_scooter", "is_reserved": 0, "lon": -77.00890966666667}, {"fusion_lat": 0.0, "name": "f3c0959da447efae2d2e16767114e25a", "is_disabled": 0, "rental_uris": {"android": "https://dc.lft.to/lastmile_qr_scan", "ios": "https://dc.lft.to/lastmile_qr_scan"}, "fusion_lon": 0.0, "lat": 38.887671, "bike_id": "f3c0959da447efae2d2e16767114e25a", "type": "electric_scooter", "is_reserved": 0, "lon": -76.97745833333333}, {"fusion_lat": 0.0, "name": "679627439f0db4c6fd88a55b3ece23c7", "is_disabled": 0, "rental_uris": {"android": "https://dc.lft.to/lastmile_qr_scan", "ios": "https://dc.lft.to/lastmile_qr_scan"}, "fusion_lon": 0.0, "lat": 38.9006405, "bike_id": "679627439f0db4c6fd88a55b3ece23c7", "type": "electric_scooter", "is_reserved": 0, "lon": -77.02616433333333}, {"fusion_lat": 0.0, "name": "f3a941d9d6fc6c8e75225f05f2b9c74b", "is_disabled": 0, "rental_uris": {"android": "https://dc.lft.to/lastmile_qr_scan", "ios": "https://dc.lft.to/lastmile_qr_scan"}, "fusion_lon": 0.0, "lat": 38.87917816666667, "bike_id": "f3a941d9d6fc6c8e75225f05f2b9c74b", "type": "electric_scooter", "is_reserved": 0, "lon": -77.00806916666667}, {"fusion_lat": 0.0, "name": "49477298288980076cba74ec486a9b18", "is_disabled": 0, "rental_uris": {"android": "https://dc.lft.to/lastmile_qr_scan", "ios": "https://dc.lft.to/lastmile_qr_scan"}, "fusion_lon": 0.0, "lat": 38.892201666666665, "bike_id": "49477298288980076cba74ec486a9b18", "type": "electric_scooter", "is_reserved": 0, "lon": -77.03142783333334}, {"fusion_lat": 0.0, "name": "46c19053482355c76833275ce9e5f1d7", "is_disabled": 0, "rental_uris": {"android": "https://dc.lft.to/lastmile_qr_scan", "ios": "https://dc.lft.to/lastmile_qr_scan"}, "fusion_lon": 0.0, "lat": 38.854595333333336, "bike_id": "46c19053482355c76833275ce9e5f1d7", "type": "electric_scooter", "is_reserved": 0, "lon": -76.97228816666667}, {"fusion_lat": 0.0, "name": "4d3c5c98b0b1239e2e4857952be1615e", "is_disabled": 0, "rental_uris": {"android": "https://dc.lft.to/lastmile_qr_scan", "ios": "https://dc.lft.to/lastmile_qr_scan"}, "fusion_lon": 0.0, "lat": 38.927276166666665, "bike_id": "4d3c5c98b0b1239e2e4857952be1615e", "type": "electric_scooter", "is_reserved": 0, "lon": -77.02305966666667}, {"fusion_lat": 0.0, "name": "bd71a7a74e33d52f8e037351524da8c8", "is_disabled": 0, "rental_uris": {"android": "https://dc.lft.to/lastmile_qr_scan", "ios": "https://dc.lft.to/lastmile_qr_scan"}, "fusion_lon": 0.0, "lat": 38.9097255, "bike_id": "bd71a7a74e33d52f8e037351524da8c8", "type": "electric_scooter", "is_reserved": 0, "lon": -77.03445466666666}, {"fusion_lat": 0.0, "name": "00a7904ef2ca4ba7be4c2681fbdfb21e", "is_disabled": 0, "rental_uris": {"android": "https://dc.lft.to/lastmile_qr_scan", "ios": "https://dc.lft.to/lastmile_qr_scan"}, "fusion_lon": 0.0, "lat": 38.93627083333333, "bike_id": "00a7904ef2ca4ba7be4c2681fbdfb21e", "type": "electric_scooter", "is_reserved": 0, "lon": -77.0365505}, {"fusion_lat": 0.0, "name": "c7ca2a76391752e51269a445e4fdc924", "is_disabled": 0, "rental_uris": {"android": "https://dc.lft.to/lastmile_qr_scan", "ios": "https://dc.lft.to/lastmile_qr_scan"}, "fusion_lon": 0.0, "lat": 38.89232483333333, "bike_id": "c7ca2a76391752e51269a445e4fdc924", "type": "electric_scooter", "is_reserved": 0, "lon": -77.01713466666666}, {"fusion_lat": 0.0, "name": "978c1d751eb26f8be76778b241c39bb5", "is_disabled": 0, "rental_uris": {"android": "https://dc.lft.to/lastmile_qr_scan", "ios": "https://dc.lft.to/lastmile_qr_scan"}, "fusion_lon": 0.0, "lat": 38.905348833333335, "bike_id": "978c1d751eb26f8be76778b241c39bb5", "type": "electric_scooter", "is_reserved": 0, "lon": -77.03458116666667}, {"fusion_lat": 0.0, "name": "b62687f1b7a7488a568d42eae1a6fffd", "is_disabled": 0, "rental_uris": {"android": "https://dc.lft.to/lastmile_qr_scan", "ios": "https://dc.lft.to/lastmile_qr_scan"}, "fusion_lon": 0.0, "lat": 38.88630366666667, "bike_id": "b62687f1b7a7488a568d42eae1a6fffd", "type": "electric_scooter", "is_reserved": 0, "lon": -77.01538166666667}, {"fusion_lat": 0.0, "name": "f8ce35d32070ff31dc881d293bd7e575", "is_disabled": 0, "rental_uris": {"android": "https://dc.lft.to/lastmile_qr_scan", "ios": "https://dc.lft.to/lastmile_qr_scan"}, "fusion_lon": 0.0, "lat": 38.904734833333336, "bike_id": "f8ce35d32070ff31dc881d293bd7e575", "type": "electric_scooter", "is_reserved": 0, "lon": -76.95202133333333}, {"fusion_lat": 0.0, "name": "2069586308bd43ffff7c24e40ada1290", "is_disabled": 0, "rental_uris": {"android": "https://dc.lft.to/lastmile_qr_scan", "ios": "https://dc.lft.to/lastmile_qr_scan"}, "fusion_lon": 0.0, "lat": 38.949101166666665, "bike_id": "2069586308bd43ffff7c24e40ada1290", "type": "electric_bike", "is_reserved": 0, "lon": -77.0380245}, {"fusion_lat": 0.0, "name": "0a738d5472fa71fb1be1297409dd9197", "is_disabled": 0, "rental_uris": {"android": "https://dc.lft.to/lastmile_qr_scan", "ios": "https://dc.lft.to/lastmile_qr_scan"}, "fusion_lon": 0.0, "lat": 38.906514, "bike_id": "0a738d5472fa71fb1be1297409dd9197", "type": "electric_scooter", "is_reserved": 0, "lon": -77.04284583333333}, {"fusion_lat": 0.0, "name": "5ccb4ef8276b9ccfa476a5a8ece65732", "is_disabled": 0, "rental_uris": {"android": "https://dc.lft.to/lastmile_qr_scan", "ios": "https://dc.lft.to/lastmile_qr_scan"}, "fusion_lon": 0.0, "lat": 38.9096245, "bike_id": "5ccb4ef8276b9ccfa476a5a8ece65732", "type": "electric_scooter", "is_reserved": 0, "lon": -77.03175816666666}, {"fusion_lat": 0.0, "name": "3e645e531f30c0dd618905a9e655740b", "is_disabled": 0, "rental_uris": {"android": "https://dc.lft.to/lastmile_qr_scan", "ios": "https://dc.lft.to/lastmile_qr_scan"}, "fusion_lon": 0.0, "lat": 38.9527865, "bike_id": "3e645e531f30c0dd618905a9e655740b", "type": "electric_bike", "is_reserved": 0, "lon": -77.06884666666667}, {"fusion_lat": 0.0, "name": "3f9ce3a5368183bf66913fd3a54b661c", "is_disabled": 0, "rental_uris": {"android": "https://dc.lft.to/lastmile_qr_scan", "ios": "https://dc.lft.to/lastmile_qr_scan"}, "fusion_lon": 0.0, "lat": 38.9207505, "bike_id": "3f9ce3a5368183bf66913fd3a54b661c", "type": "electric_scooter", "is_reserved": 0, "lon": -77.024026}, {"fusion_lat": 0.0, "name": "078574fa525b367ef414ca255ce803ad", "is_disabled": 0, "rental_uris": {"android": "https://dc.lft.to/lastmile_qr_scan", "ios": "https://dc.lft.to/lastmile_qr_scan"}, "fusion_lon": 0.0, "lat": 38.899330666666664, "bike_id": "078574fa525b367ef414ca255ce803ad", "type": "electric_scooter", "is_reserved": 0, "lon": -77.014588}, {"fusion_lat": 0.0, "name": "7bfc600d8c621cd73dbe956ecf3a9c75", "is_disabled": 0, "rental_uris": {"android": "https://dc.lft.to/lastmile_qr_scan", "ios": "https://dc.lft.to/lastmile_qr_scan"}, "fusion_lon": 0.0, "lat": 38.89182, "bike_id": "7bfc600d8c621cd73dbe956ecf3a9c75", "type": "electric_scooter", "is_reserved": 0, "lon": -77.02174416666666}, {"fusion_lat": 0.0, "name": "58f2a82e7159c7ee2ea8e034f704db9f", "is_disabled": 0, "rental_uris": {"android": "https://dc.lft.to/lastmile_qr_scan", "ios": "https://dc.lft.to/lastmile_qr_scan"}, "fusion_lon": 0.0, "lat": 38.93557216666667, "bike_id": "58f2a82e7159c7ee2ea8e034f704db9f", "type": "electric_scooter", "is_reserved": 0, "lon": -77.03483666666666}, {"fusion_lat": 0.0, "name": "759e8f909e108732c50f2d407dbf0083", "is_disabled": 0, "rental_uris": {"android": "https://dc.lft.to/lastmile_qr_scan", "ios": "https://dc.lft.to/lastmile_qr_scan"}, "fusion_lon": 0.0, "lat": 38.902426, "bike_id": "759e8f909e108732c50f2d407dbf0083", "type": "electric_scooter", "is_reserved": 0, "lon": -77.019145}, {"fusion_lat": 0.0, "name": "ffa21f3c94658f7c775f1d7a4bddc222", "is_disabled": 0, "rental_uris": {"android": "https://dc.lft.to/lastmile_qr_scan", "ios": "https://dc.lft.to/lastmile_qr_scan"}, "fusion_lon": 0.0, "lat": 38.93040966666667, "bike_id": "ffa21f3c94658f7c775f1d7a4bddc222", "type": "electric_scooter", "is_reserved": 0, "lon": -77.03356666666667}, {"fusion_lat": 0.0, "name": "ef3ddf9f34f35a0e9b0cb4392464f882", "is_disabled": 0, "rental_uris": {"android": "https://dc.lft.to/lastmile_qr_scan", "ios": "https://dc.lft.to/lastmile_qr_scan"}, "fusion_lon": 0.0, "lat": 38.93063183333334, "bike_id": "ef3ddf9f34f35a0e9b0cb4392464f882", "type": "electric_scooter", "is_reserved": 0, "lon": -77.029807}, {"fusion_lat": 0.0, "name": "80c491ceb9f890ec7438bd34d3767fc6", "is_disabled": 0, "rental_uris": {"android": "https://dc.lft.to/lastmile_qr_scan", "ios": "https://dc.lft.to/lastmile_qr_scan"}, "fusion_lon": 0.0, "lat": 38.916715833333335, "bike_id": "80c491ceb9f890ec7438bd34d3767fc6", "type": "electric_scooter", "is_reserved": 0, "lon": -77.027186}, {"fusion_lat": 0.0, "name": "cafe342d9c3c7cba8293a8dfbe4f8ee8", "is_disabled": 0, "rental_uris": {"android": "https://dc.lft.to/lastmile_qr_scan", "ios": "https://dc.lft.to/lastmile_qr_scan"}, "fusion_lon": 0.0, "lat": 38.949183833333336, "bike_id": "cafe342d9c3c7cba8293a8dfbe4f8ee8", "type": "electric_scooter", "is_reserved": 0, "lon": -77.0185435}, {"fusion_lat": 0.0, "name": "0d5747c83a4bf40f39317a3a689faa8d", "is_disabled": 0, "rental_uris": {"android": "https://dc.lft.to/lastmile_qr_scan", "ios": "https://dc.lft.to/lastmile_qr_scan"}, "fusion_lon": 0.0, "lat": 38.916767666666665, "bike_id": "0d5747c83a4bf40f39317a3a689faa8d", "type": "electric_scooter", "is_reserved": 0, "lon": -77.031848}, {"fusion_lat": 0.0, "name": "8acd616769d7015a38c245ec5b371a10", "is_disabled": 0, "rental_uris": {"android": "https://dc.lft.to/lastmile_qr_scan", "ios": "https://dc.lft.to/lastmile_qr_scan"}, "fusion_lon": 0.0, "lat": 38.90048816666667, "bike_id": "8acd616769d7015a38c245ec5b371a10", "type": "electric_scooter", "is_reserved": 0, "lon": -77.00063983333334}, {"fusion_lat": 0.0, "name": "8e2d2013e798e0bff24cd62e014b0777", "is_disabled": 0, "rental_uris": {"android": "https://dc.lft.to/lastmile_qr_scan", "ios": "https://dc.lft.to/lastmile_qr_scan"}, "fusion_lon": 0.0, "lat": 38.8961335, "bike_id": "8e2d2013e798e0bff24cd62e014b0777", "type": "electric_bike", "is_reserved": 0, "lon": -77.02208616666667}, {"fusion_lat": 0.0, "name": "8e8b4fbe4a03ee65c79483f846a7b644", "is_disabled": 0, "rental_uris": {"android": "https://dc.lft.to/lastmile_qr_scan", "ios": "https://dc.lft.to/lastmile_qr_scan"}, "fusion_lon": 0.0, "lat": 38.995278666666664, "bike_id": "8e8b4fbe4a03ee65c79483f846a7b644", "type": "electric_bike", "is_reserved": 0, "lon": -77.02914666666666}, {"fusion_lat": 0.0, "name": "600b8e128e31bcf0ba1ba242c923d22a", "is_disabled": 0, "rental_uris": {"android": "https://dc.lft.to/lastmile_qr_scan", "ios": "https://dc.lft.to/lastmile_qr_scan"}, "fusion_lon": 0.0, "lat": 38.9228625, "bike_id": "600b8e128e31bcf0ba1ba242c923d22a", "type": "electric_scooter", "is_reserved": 0, "lon": -77.07323633333333}, {"fusion_lat": 0.0, "name": "a1e684e8eabc4e73304d8ef5ae4d588c", "is_disabled": 0, "rental_uris": {"android": "https://dc.lft.to/lastmile_qr_scan", "ios": "https://dc.lft.to/lastmile_qr_scan"}, "fusion_lon": 0.0, "lat": 38.9029735, "bike_id": "a1e684e8eabc4e73304d8ef5ae4d588c", "type": "electric_scooter", "is_reserved": 0, "lon": -76.99037433333334}, {"fusion_lat": 0.0, "name": "958ed3fd5b57becedba92f69651d81e7", "is_disabled": 0, "rental_uris": {"android": "https://dc.lft.to/lastmile_qr_scan", "ios": "https://dc.lft.to/lastmile_qr_scan"}, "fusion_lon": 0.0, "lat": 38.9180375, "bike_id": "958ed3fd5b57becedba92f69651d81e7", "type": "electric_scooter", "is_reserved": 0, "lon": -77.03441733333334}, {"fusion_lat": 0.0, "name": "4397423fffb3f60e0b3f4d94b4440d4d", "is_disabled": 0, "rental_uris": {"android": "https://dc.lft.to/lastmile_qr_scan", "ios": "https://dc.lft.to/lastmile_qr_scan"}, "fusion_lon": 0.0, "lat": 38.937047, "bike_id": "4397423fffb3f60e0b3f4d94b4440d4d", "type": "electric_scooter", "is_reserved": 0, "lon": -77.06102616666666}, {"fusion_lat": 0.0, "name": "966f068a765301c69d5de2b041d5e527", "is_disabled": 0, "rental_uris": {"android": "https://dc.lft.to/lastmile_qr_scan", "ios": "https://dc.lft.to/lastmile_qr_scan"}, "fusion_lon": 0.0, "lat": 38.935819333333335, "bike_id": "966f068a765301c69d5de2b041d5e527", "type": "electric_scooter", "is_reserved": 0, "lon": -77.02384233333333}, {"fusion_lat": 0.0, "name": "bfa53b031ec450fc4c56851dc505f13e", "is_disabled": 0, "rental_uris": {"android": "https://dc.lft.to/lastmile_qr_scan", "ios": "https://dc.lft.to/lastmile_qr_scan"}, "fusion_lon": 0.0, "lat": 38.887538, "bike_id": "bfa53b031ec450fc4c56851dc505f13e", "type": "electric_scooter", "is_reserved": 0, "lon": -76.99787183333333}, {"fusion_lat": 0.0, "name": "70bd6bde1502764241fbff53c574a3ae", "is_disabled": 0, "rental_uris": {"android": "https://dc.lft.to/lastmile_qr_scan", "ios": "https://dc.lft.to/lastmile_qr_scan"}, "fusion_lon": 0.0, "lat": 38.90118366666667, "bike_id": "70bd6bde1502764241fbff53c574a3ae", "type": "electric_scooter", "is_reserved": 0, "lon": -77.04013533333334}, {"fusion_lat": 0.0, "name": "6ec83bb605e203259f07ea73e1e53b0c", "is_disabled": 0, "rental_uris": {"android": "https://dc.lft.to/lastmile_qr_scan", "ios": "https://dc.lft.to/lastmile_qr_scan"}, "fusion_lon": 0.0, "lat": 38.91034883333333, "bike_id": "6ec83bb605e203259f07ea73e1e53b0c", "type": "electric_scooter", "is_reserved": 0, "lon": -77.042752}, {"fusion_lat": 0.0, "name": "a24f9984152b620e519a8119112425b5", "is_disabled": 0, "rental_uris": {"android": "https://dc.lft.to/lastmile_qr_scan", "ios": "https://dc.lft.to/lastmile_qr_scan"}, "fusion_lon": 0.0, "lat": 38.91708933333334, "bike_id": "a24f9984152b620e519a8119112425b5", "type": "electric_scooter", "is_reserved": 0, "lon": -77.02744883333334}, {"fusion_lat": 0.0, "name": "428396f92ea1a86c24acb73a1ab45d2b", "is_disabled": 0, "rental_uris": {"android": "https://dc.lft.to/lastmile_qr_scan", "ios": "https://dc.lft.to/lastmile_qr_scan"}, "fusion_lon": 0.0, "lat": 38.92123616666667, "bike_id": "428396f92ea1a86c24acb73a1ab45d2b", "type": "electric_scooter", "is_reserved": 0, "lon": -77.03169066666666}, {"fusion_lat": 0.0, "name": "8baff6346421a0015f2fa75cdccecf7e", "is_disabled": 0, "rental_uris": {"android": "https://dc.lft.to/lastmile_qr_scan", "ios": "https://dc.lft.to/lastmile_qr_scan"}, "fusion_lon": 0.0, "lat": 38.884307, "bike_id": "8baff6346421a0015f2fa75cdccecf7e", "type": "electric_scooter", "is_reserved": 0, "lon": -77.02888316666666}, {"fusion_lat": 0.0, "name": "66a9a393c7e00a12d4d02a7309d567b2", "is_disabled": 0, "rental_uris": {"android": "https://dc.lft.to/lastmile_qr_scan", "ios": "https://dc.lft.to/lastmile_qr_scan"}, "fusion_lon": 0.0, "lat": 38.92349433333333, "bike_id": "66a9a393c7e00a12d4d02a7309d567b2", "type": "electric_scooter", "is_reserved": 0, "lon": -76.99250933333333}, {"fusion_lat": 0.0, "name": "02e6885de7b61da0de390f94c9b9323e", "is_disabled": 0, "rental_uris": {"android": "https://dc.lft.to/lastmile_qr_scan", "ios": "https://dc.lft.to/lastmile_qr_scan"}, "fusion_lon": 0.0, "lat": 38.847543333333334, "bike_id": "02e6885de7b61da0de390f94c9b9323e", "type": "electric_scooter", "is_reserved": 0, "lon": -76.99499716666666}, {"fusion_lat": 0.0, "name": "0996ed7a36c9f748446f01fe69905cb6", "is_disabled": 0, "rental_uris": {"android": "https://dc.lft.to/lastmile_qr_scan", "ios": "https://dc.lft.to/lastmile_qr_scan"}, "fusion_lon": 0.0, "lat": 38.900051833333336, "bike_id": "0996ed7a36c9f748446f01fe69905cb6", "type": "electric_scooter", "is_reserved": 0, "lon": -77.03158916666666}, {"fusion_lat": 0.0, "name": "cd85e2efa792c0974824cdc258f1f532", "is_disabled": 0, "rental_uris": {"android": "https://dc.lft.to/lastmile_qr_scan", "ios": "https://dc.lft.to/lastmile_qr_scan"}, "fusion_lon": 0.0, "lat": 38.889892333333336, "bike_id": "cd85e2efa792c0974824cdc258f1f532", "type": "electric_scooter", "is_reserved": 0, "lon": -76.92986283333333}, {"fusion_lat": 0.0, "name": "9b35c69670d2a79732a718755e0f36f2", "is_disabled": 0, "rental_uris": {"android": "https://dc.lft.to/lastmile_qr_scan", "ios": "https://dc.lft.to/lastmile_qr_scan"}, "fusion_lon": 0.0, "lat": 38.918024833333334, "bike_id": "9b35c69670d2a79732a718755e0f36f2", "type": "electric_scooter", "is_reserved": 0, "lon": -77.02710216666667}, {"fusion_lat": 0.0, "name": "0ae589d03dfb3cc10579d2c3df01a54d", "is_disabled": 0, "rental_uris": {"android": "https://dc.lft.to/lastmile_qr_scan", "ios": "https://dc.lft.to/lastmile_qr_scan"}, "fusion_lon": 0.0, "lat": 38.91214983333333, "bike_id": "0ae589d03dfb3cc10579d2c3df01a54d", "type": "electric_scooter", "is_reserved": 0, "lon": -77.04494966666667}, {"fusion_lat": 0.0, "name": "9cdbc5fcdb6d91d5caf2d0bc714aef7d", "is_disabled": 0, "rental_uris": {"android": "https://dc.lft.to/lastmile_qr_scan", "ios": "https://dc.lft.to/lastmile_qr_scan"}, "fusion_lon": 0.0, "lat": 38.9288915, "bike_id": "9cdbc5fcdb6d91d5caf2d0bc714aef7d", "type": "electric_scooter", "is_reserved": 0, "lon": -77.032671}, {"fusion_lat": 0.0, "name": "f6c38453947a91bcfc0ba0c1667d2703", "is_disabled": 0, "rental_uris": {"android": "https://dc.lft.to/lastmile_qr_scan", "ios": "https://dc.lft.to/lastmile_qr_scan"}, "fusion_lon": 0.0, "lat": 38.922127, "bike_id": "f6c38453947a91bcfc0ba0c1667d2703", "type": "electric_scooter", "is_reserved": 0, "lon": -77.04263633333333}, {"fusion_lat": 0.0, "name": "2af364a52a40c78a14bbf25f8cd8e6b8", "is_disabled": 0, "rental_uris": {"android": "https://dc.lft.to/lastmile_qr_scan", "ios": "https://dc.lft.to/lastmile_qr_scan"}, "fusion_lon": 0.0, "lat": 38.9110625, "bike_id": "2af364a52a40c78a14bbf25f8cd8e6b8", "type": "electric_scooter", "is_reserved": 0, "lon": -77.04500783333333}, {"fusion_lat": 0.0, "name": "193238b39440ef08e972941c05a28d34", "is_disabled": 0, "rental_uris": {"android": "https://dc.lft.to/lastmile_qr_scan", "ios": "https://dc.lft.to/lastmile_qr_scan"}, "fusion_lon": 0.0, "lat": 38.90175933333333, "bike_id": "193238b39440ef08e972941c05a28d34", "type": "electric_scooter", "is_reserved": 0, "lon": -77.025051}, {"fusion_lat": 0.0, "name": "2e8786d65bf178b1229ecd8835056fd1", "is_disabled": 0, "rental_uris": {"android": "https://dc.lft.to/lastmile_qr_scan", "ios": "https://dc.lft.to/lastmile_qr_scan"}, "fusion_lon": 0.0, "lat": 38.8922365, "bike_id": "2e8786d65bf178b1229ecd8835056fd1", "type": "electric_scooter", "is_reserved": 0, "lon": -77.027782}, {"fusion_lat": 0.0, "name": "196e3cb029d25ab693fc8ad9dbce99af", "is_disabled": 0, "rental_uris": {"android": "https://dc.lft.to/lastmile_qr_scan", "ios": "https://dc.lft.to/lastmile_qr_scan"}, "fusion_lon": 0.0, "lat": 38.9055025, "bike_id": "196e3cb029d25ab693fc8ad9dbce99af", "type": "electric_scooter", "is_reserved": 0, "lon": -77.0629475}, {"fusion_lat": 0.0, "name": "a6dff3766a5de058b5552958ac08988d", "is_disabled": 0, "rental_uris": {"android": "https://dc.lft.to/lastmile_qr_scan", "ios": "https://dc.lft.to/lastmile_qr_scan"}, "fusion_lon": 0.0, "lat": 38.911997666666664, "bike_id": "a6dff3766a5de058b5552958ac08988d", "type": "electric_scooter", "is_reserved": 0, "lon": -77.038461}, {"fusion_lat": 0.0, "name": "674122587fbfc9f4f7e57c7b5f31577c", "is_disabled": 0, "rental_uris": {"android": "https://dc.lft.to/lastmile_qr_scan", "ios": "https://dc.lft.to/lastmile_qr_scan"}, "fusion_lon": 0.0, "lat": 38.874553, "bike_id": "674122587fbfc9f4f7e57c7b5f31577c", "type": "electric_scooter", "is_reserved": 0, "lon": -77.00924333333333}, {"fusion_lat": 0.0, "name": "2ac66cd4dc223da8d3ca50cf2554e504", "is_disabled": 0, "rental_uris": {"android": "https://dc.lft.to/lastmile_qr_scan", "ios": "https://dc.lft.to/lastmile_qr_scan"}, "fusion_lon": 0.0, "lat": 38.929877833333336, "bike_id": "2ac66cd4dc223da8d3ca50cf2554e504", "type": "electric_scooter", "is_reserved": 0, "lon": -77.0323485}, {"fusion_lat": 0.0, "name": "4efe00b4b95aac02c8706346bdf423bf", "is_disabled": 0, "rental_uris": {"android": "https://dc.lft.to/lastmile_qr_scan", "ios": "https://dc.lft.to/lastmile_qr_scan"}, "fusion_lon": 0.0, "lat": 38.89700333333333, "bike_id": "4efe00b4b95aac02c8706346bdf423bf", "type": "electric_scooter", "is_reserved": 0, "lon": -77.02376933333333}, {"fusion_lat": 0.0, "name": "8562ced13e17fd4d3533c11381724273", "is_disabled": 0, "rental_uris": {"android": "https://dc.lft.to/lastmile_qr_scan", "ios": "https://dc.lft.to/lastmile_qr_scan"}, "fusion_lon": 0.0, "lat": 38.9666565, "bike_id": "8562ced13e17fd4d3533c11381724273", "type": "electric_bike", "is_reserved": 0, "lon": -76.97448916666667}, {"fusion_lat": 0.0, "name": "2f084ba4af62d3025d001ba5684d38de", "is_disabled": 0, "rental_uris": {"android": "https://dc.lft.to/lastmile_qr_scan", "ios": "https://dc.lft.to/lastmile_qr_scan"}, "fusion_lon": 0.0, "lat": 38.91602916666667, "bike_id": "2f084ba4af62d3025d001ba5684d38de", "type": "electric_scooter", "is_reserved": 0, "lon": -77.04912083333333}, {"fusion_lat": 0.0, "name": "1b340cd4489ee1f268cf18f177703b1a", "is_disabled": 0, "rental_uris": {"android": "https://dc.lft.to/lastmile_qr_scan", "ios": "https://dc.lft.to/lastmile_qr_scan"}, "fusion_lon": 0.0, "lat": 38.928122, "bike_id": "1b340cd4489ee1f268cf18f177703b1a", "type": "electric_scooter", "is_reserved": 0, "lon": -77.043508}, {"fusion_lat": 0.0, "name": "4c33d02e4d0a89d0381fa1e3d4711f02", "is_disabled": 0, "rental_uris": {"android": "https://dc.lft.to/lastmile_qr_scan", "ios": "https://dc.lft.to/lastmile_qr_scan"}, "fusion_lon": 0.0, "lat": 38.84085966666667, "bike_id": "4c33d02e4d0a89d0381fa1e3d4711f02", "type": "electric_bike", "is_reserved": 0, "lon": -76.9702895}, {"fusion_lat": 0.0, "name": "1ffe1f8725eeaa6fe8f064de5df76651", "is_disabled": 0, "rental_uris": {"android": "https://dc.lft.to/lastmile_qr_scan", "ios": "https://dc.lft.to/lastmile_qr_scan"}, "fusion_lon": 0.0, "lat": 38.93843366666667, "bike_id": "1ffe1f8725eeaa6fe8f064de5df76651", "type": "electric_scooter", "is_reserved": 0, "lon": -77.06246016666667}, {"fusion_lat": 0.0, "name": "e0c2b103827325197a9824b15e06a003", "is_disabled": 0, "rental_uris": {"android": "https://dc.lft.to/lastmile_qr_scan", "ios": "https://dc.lft.to/lastmile_qr_scan"}, "fusion_lon": 0.0, "lat": 38.931147, "bike_id": "e0c2b103827325197a9824b15e06a003", "type": "electric_scooter", "is_reserved": 0, "lon": -77.0209545}, {"fusion_lat": 0.0, "name": "20d68e5f7364990fb2633823374e2b1c", "is_disabled": 0, "rental_uris": {"android": "https://dc.lft.to/lastmile_qr_scan", "ios": "https://dc.lft.to/lastmile_qr_scan"}, "fusion_lon": 0.0, "lat": 38.9261465, "bike_id": "20d68e5f7364990fb2633823374e2b1c", "type": "electric_scooter", "is_reserved": 0, "lon": -77.04330966666667}, {"fusion_lat": 0.0, "name": "27c8074d2de3c3a7eee581689339300a", "is_disabled": 0, "rental_uris": {"android": "https://dc.lft.to/lastmile_qr_scan", "ios": "https://dc.lft.to/lastmile_qr_scan"}, "fusion_lon": 0.0, "lat": 38.90026133333333, "bike_id": "27c8074d2de3c3a7eee581689339300a", "type": "electric_scooter", "is_reserved": 0, "lon": -77.00030566666666}, {"fusion_lat": 0.0, "name": "f9b5e170356678c6663a44bba5befd0b", "is_disabled": 0, "rental_uris": {"android": "https://dc.lft.to/lastmile_qr_scan", "ios": "https://dc.lft.to/lastmile_qr_scan"}, "fusion_lon": 0.0, "lat": 38.919995666666665, "bike_id": "f9b5e170356678c6663a44bba5befd0b", "type": "electric_scooter", "is_reserved": 0, "lon": -77.03276666666666}, {"fusion_lat": 0.0, "name": "230122bcdf1b9a87d3384192c21001c5", "is_disabled": 0, "rental_uris": {"android": "https://dc.lft.to/lastmile_qr_scan", "ios": "https://dc.lft.to/lastmile_qr_scan"}, "fusion_lon": 0.0, "lat": 38.92006833333333, "bike_id": "230122bcdf1b9a87d3384192c21001c5", "type": "electric_scooter", "is_reserved": 0, "lon": -77.07126566666666}, {"fusion_lat": 0.0, "name": "51d2d0b5b522fa338f47617f07ffab5c", "is_disabled": 0, "rental_uris": {"android": "https://dc.lft.to/lastmile_qr_scan", "ios": "https://dc.lft.to/lastmile_qr_scan"}, "fusion_lon": 0.0, "lat": 38.9296265, "bike_id": "51d2d0b5b522fa338f47617f07ffab5c", "type": "electric_scooter", "is_reserved": 0, "lon": -77.020145}, {"fusion_lat": 0.0, "name": "dae72cbd45ffe01dcd2ce8bd0d0470ff", "is_disabled": 0, "rental_uris": {"android": "https://dc.lft.to/lastmile_qr_scan", "ios": "https://dc.lft.to/lastmile_qr_scan"}, "fusion_lon": 0.0, "lat": 38.89503, "bike_id": "dae72cbd45ffe01dcd2ce8bd0d0470ff", "type": "electric_scooter", "is_reserved": 0, "lon": -77.02195083333334}, {"fusion_lat": 0.0, "name": "a014dcb1e7ddd3f4b125990da82bf082", "is_disabled": 0, "rental_uris": {"android": "https://dc.lft.to/lastmile_qr_scan", "ios": "https://dc.lft.to/lastmile_qr_scan"}, "fusion_lon": 0.0, "lat": 38.909353333333335, "bike_id": "a014dcb1e7ddd3f4b125990da82bf082", "type": "electric_scooter", "is_reserved": 0, "lon": -77.02129183333334}, {"fusion_lat": 0.0, "name": "ad2018c89e02246283f446896a4ae36d", "is_disabled": 0, "rental_uris": {"android": "https://dc.lft.to/lastmile_qr_scan", "ios": "https://dc.lft.to/lastmile_qr_scan"}, "fusion_lon": 0.0, "lat": 38.889871666666664, "bike_id": "ad2018c89e02246283f446896a4ae36d", "type": "electric_scooter", "is_reserved": 0, "lon": -76.9963805}, {"fusion_lat": 0.0, "name": "04de0e03b573dc015ab952c687d344dd", "is_disabled": 0, "rental_uris": {"android": "https://dc.lft.to/lastmile_qr_scan", "ios": "https://dc.lft.to/lastmile_qr_scan"}, "fusion_lon": 0.0, "lat": 38.93944466666667, "bike_id": "04de0e03b573dc015ab952c687d344dd", "type": "electric_scooter", "is_reserved": 0, "lon": -77.03325966666667}, {"fusion_lat": 0.0, "name": "4be8219c93252c28aa4de96dcd1489ee", "is_disabled": 0, "rental_uris": {"android": "https://dc.lft.to/lastmile_qr_scan", "ios": "https://dc.lft.to/lastmile_qr_scan"}, "fusion_lon": 0.0, "lat": 38.88982333333333, "bike_id": "4be8219c93252c28aa4de96dcd1489ee", "type": "electric_scooter", "is_reserved": 0, "lon": -76.9874085}, {"fusion_lat": 0.0, "name": "17cba6e981b7298341e4178d244e356f", "is_disabled": 0, "rental_uris": {"android": "https://dc.lft.to/lastmile_qr_scan", "ios": "https://dc.lft.to/lastmile_qr_scan"}, "fusion_lon": 0.0, "lat": 38.90036833333333, "bike_id": "17cba6e981b7298341e4178d244e356f", "type": "electric_scooter", "is_reserved": 0, "lon": -77.00198733333333}, {"fusion_lat": 0.0, "name": "c9d200aadc87f722c5de5cd950e8ad69", "is_disabled": 0, "rental_uris": {"android": "https://dc.lft.to/lastmile_qr_scan", "ios": "https://dc.lft.to/lastmile_qr_scan"}, "fusion_lon": 0.0, "lat": 38.91737666666667, "bike_id": "c9d200aadc87f722c5de5cd950e8ad69", "type": "electric_scooter", "is_reserved": 0, "lon": -77.048275}, {"fusion_lat": 0.0, "name": "0125333619a75b6f467356a8509c76c4", "is_disabled": 0, "rental_uris": {"android": "https://dc.lft.to/lastmile_qr_scan", "ios": "https://dc.lft.to/lastmile_qr_scan"}, "fusion_lon": 0.0, "lat": 38.920417, "bike_id": "0125333619a75b6f467356a8509c76c4", "type": "electric_scooter", "is_reserved": 0, "lon": -77.03394566666667}, {"fusion_lat": 0.0, "name": "890c856c0b06b505756c98ff4299f598", "is_disabled": 0, "rental_uris": {"android": "https://dc.lft.to/lastmile_qr_scan", "ios": "https://dc.lft.to/lastmile_qr_scan"}, "fusion_lon": 0.0, "lat": 38.90565433333333, "bike_id": "890c856c0b06b505756c98ff4299f598", "type": "electric_scooter", "is_reserved": 0, "lon": -77.03449166666667}, {"fusion_lat": 0.0, "name": "13eb5000339d5b0f7884b0f65eff4b36", "is_disabled": 0, "rental_uris": {"android": "https://dc.lft.to/lastmile_qr_scan", "ios": "https://dc.lft.to/lastmile_qr_scan"}, "fusion_lon": 0.0, "lat": 38.858869, "bike_id": "13eb5000339d5b0f7884b0f65eff4b36", "type": "electric_bike", "is_reserved": 0, "lon": -77.09544183333334}, {"fusion_lat": 0.0, "name": "049aa6ba7902f65d1dd1be9b922826cf", "is_disabled": 0, "rental_uris": {"android": "https://dc.lft.to/lastmile_qr_scan", "ios": "https://dc.lft.to/lastmile_qr_scan"}, "fusion_lon": 0.0, "lat": 38.8994375, "bike_id": "049aa6ba7902f65d1dd1be9b922826cf", "type": "electric_scooter", "is_reserved": 0, "lon": -77.053564}, {"fusion_lat": 0.0, "name": "771d264ed6258a72871e9a3f84f74587", "is_disabled": 0, "rental_uris": {"android": "https://dc.lft.to/lastmile_qr_scan", "ios": "https://dc.lft.to/lastmile_qr_scan"}, "fusion_lon": 0.0, "lat": 38.90954816666667, "bike_id": "771d264ed6258a72871e9a3f84f74587", "type": "electric_scooter", "is_reserved": 0, "lon": -77.0238395}, {"fusion_lat": 0.0, "name": "ff581242b84fa5c5d2467fe6a5b12690", "is_disabled": 0, "rental_uris": {"android": "https://dc.lft.to/lastmile_qr_scan", "ios": "https://dc.lft.to/lastmile_qr_scan"}, "fusion_lon": 0.0, "lat": 38.92541816666667, "bike_id": "ff581242b84fa5c5d2467fe6a5b12690", "type": "electric_scooter", "is_reserved": 0, "lon": -77.05114683333333}, {"fusion_lat": 0.0, "name": "4a1d0614291890aaed53c16370d2116e", "is_disabled": 0, "rental_uris": {"android": "https://dc.lft.to/lastmile_qr_scan", "ios": "https://dc.lft.to/lastmile_qr_scan"}, "fusion_lon": 0.0, "lat": 38.962191833333335, "bike_id": "4a1d0614291890aaed53c16370d2116e", "type": "electric_bike", "is_reserved": 0, "lon": -77.0262525}, {"fusion_lat": 0.0, "name": "4497c6044fdf483589ef0fc137c61e74", "is_disabled": 0, "rental_uris": {"android": "https://dc.lft.to/lastmile_qr_scan", "ios": "https://dc.lft.to/lastmile_qr_scan"}, "fusion_lon": 0.0, "lat": 38.91676866666667, "bike_id": "4497c6044fdf483589ef0fc137c61e74", "type": "electric_scooter", "is_reserved": 0, "lon": -77.0227885}, {"fusion_lat": 0.0, "name": "6588246c03f08fdf48acddb640511365", "is_disabled": 0, "rental_uris": {"android": "https://dc.lft.to/lastmile_qr_scan", "ios": "https://dc.lft.to/lastmile_qr_scan"}, "fusion_lon": 0.0, "lat": 38.84350216666667, "bike_id": "6588246c03f08fdf48acddb640511365", "type": "electric_bike", "is_reserved": 0, "lon": -76.97828716666666}, {"fusion_lat": 0.0, "name": "d57a720082d3e49eb270faa7aebb584b", "is_disabled": 0, "rental_uris": {"android": "https://dc.lft.to/lastmile_qr_scan", "ios": "https://dc.lft.to/lastmile_qr_scan"}, "fusion_lon": 0.0, "lat": 38.905332, "bike_id": "d57a720082d3e49eb270faa7aebb584b", "type": "electric_scooter", "is_reserved": 0, "lon": -77.05972283333334}, {"fusion_lat": 0.0, "name": "64b46b87dd9d95ea3c01ce5bd94880b6", "is_disabled": 0, "rental_uris": {"android": "https://dc.lft.to/lastmile_qr_scan", "ios": "https://dc.lft.to/lastmile_qr_scan"}, "fusion_lon": 0.0, "lat": 38.8836245, "bike_id": "64b46b87dd9d95ea3c01ce5bd94880b6", "type": "electric_scooter", "is_reserved": 0, "lon": -76.94159983333333}, {"fusion_lat": 0.0, "name": "39cc880fbd947872a752f691ded76f59", "is_disabled": 0, "rental_uris": {"android": "https://dc.lft.to/lastmile_qr_scan", "ios": "https://dc.lft.to/lastmile_qr_scan"}, "fusion_lon": 0.0, "lat": 38.911824, "bike_id": "39cc880fbd947872a752f691ded76f59", "type": "electric_bike", "is_reserved": 0, "lon": -77.00273533333333}, {"fusion_lat": 0.0, "name": "4e4ca90d083e4f4bdd5e69a0bb29b2a5", "is_disabled": 0, "rental_uris": {"android": "https://dc.lft.to/lastmile_qr_scan", "ios": "https://dc.lft.to/lastmile_qr_scan"}, "fusion_lon": 0.0, "lat": 38.91262866666667, "bike_id": "4e4ca90d083e4f4bdd5e69a0bb29b2a5", "type": "electric_scooter", "is_reserved": 0, "lon": -77.022537}, {"fusion_lat": 0.0, "name": "f083c25fab42c62574612601cb5c1119", "is_disabled": 0, "rental_uris": {"android": "https://dc.lft.to/lastmile_qr_scan", "ios": "https://dc.lft.to/lastmile_qr_scan"}, "fusion_lon": 0.0, "lat": 38.945007833333335, "bike_id": "f083c25fab42c62574612601cb5c1119", "type": "electric_scooter", "is_reserved": 0, "lon": -77.031471}, {"fusion_lat": 0.0, "name": "ee4709b9967790003f45787e48181783", "is_disabled": 0, "rental_uris": {"android": "https://dc.lft.to/lastmile_qr_scan", "ios": "https://dc.lft.to/lastmile_qr_scan"}, "fusion_lon": 0.0, "lat": 38.87707133333333, "bike_id": "ee4709b9967790003f45787e48181783", "type": "electric_scooter", "is_reserved": 0, "lon": -77.00315966666666}, {"fusion_lat": 0.0, "name": "3971123a11c229287970a9e4d08c52fe", "is_disabled": 0, "rental_uris": {"android": "https://dc.lft.to/lastmile_qr_scan", "ios": "https://dc.lft.to/lastmile_qr_scan"}, "fusion_lon": 0.0, "lat": 38.896842666666664, "bike_id": "3971123a11c229287970a9e4d08c52fe", "type": "electric_scooter", "is_reserved": 0, "lon": -76.9370915}, {"fusion_lat": 0.0, "name": "2f374ba09dded5b875e24f0e1b801c77", "is_disabled": 0, "rental_uris": {"android": "https://dc.lft.to/lastmile_qr_scan", "ios": "https://dc.lft.to/lastmile_qr_scan"}, "fusion_lon": 0.0, "lat": 38.9392805, "bike_id": "2f374ba09dded5b875e24f0e1b801c77", "type": "electric_scooter", "is_reserved": 0, "lon": -77.07478283333333}, {"fusion_lat": 0.0, "name": "6161ba5acfa724cf6c52a4b95d975555", "is_disabled": 0, "rental_uris": {"android": "https://dc.lft.to/lastmile_qr_scan", "ios": "https://dc.lft.to/lastmile_qr_scan"}, "fusion_lon": 0.0, "lat": 38.89231383333333, "bike_id": "6161ba5acfa724cf6c52a4b95d975555", "type": "electric_scooter", "is_reserved": 0, "lon": -77.03173716666667}, {"fusion_lat": 0.0, "name": "3e2f11f5b62a90e0cd591f2e15f20493", "is_disabled": 0, "rental_uris": {"android": "https://dc.lft.to/lastmile_qr_scan", "ios": "https://dc.lft.to/lastmile_qr_scan"}, "fusion_lon": 0.0, "lat": 38.92739683333333, "bike_id": "3e2f11f5b62a90e0cd591f2e15f20493", "type": "electric_scooter", "is_reserved": 0, "lon": -77.04218283333333}, {"fusion_lat": 0.0, "name": "9f4da71f2b45fb23ef7214956700e20b", "is_disabled": 0, "rental_uris": {"android": "https://dc.lft.to/lastmile_qr_scan", "ios": "https://dc.lft.to/lastmile_qr_scan"}, "fusion_lon": 0.0, "lat": 38.905308, "bike_id": "9f4da71f2b45fb23ef7214956700e20b", "type": "electric_scooter", "is_reserved": 0, "lon": -77.05680533333333}, {"fusion_lat": 0.0, "name": "aadd62851f58291258f3100e996c4fce", "is_disabled": 0, "rental_uris": {"android": "https://dc.lft.to/lastmile_qr_scan", "ios": "https://dc.lft.to/lastmile_qr_scan"}, "fusion_lon": 0.0, "lat": 38.902323833333334, "bike_id": "aadd62851f58291258f3100e996c4fce", "type": "electric_scooter", "is_reserved": 0, "lon": -77.01655683333334}, {"fusion_lat": 0.0, "name": "112718c1dee11108803a7d6415370f71", "is_disabled": 0, "rental_uris": {"android": "https://dc.lft.to/lastmile_qr_scan", "ios": "https://dc.lft.to/lastmile_qr_scan"}, "fusion_lon": 0.0, "lat": 38.9073225, "bike_id": "112718c1dee11108803a7d6415370f71", "type": "electric_scooter", "is_reserved": 0, "lon": -77.0049585}, {"fusion_lat": 0.0, "name": "ec938f564ca4c75a847b53cc39839b4d", "is_disabled": 0, "rental_uris": {"android": "https://dc.lft.to/lastmile_qr_scan", "ios": "https://dc.lft.to/lastmile_qr_scan"}, "fusion_lon": 0.0, "lat": 38.9002665, "bike_id": "ec938f564ca4c75a847b53cc39839b4d", "type": "electric_scooter", "is_reserved": 0, "lon": -76.988538}, {"fusion_lat": 0.0, "name": "38c76d291f9fc360c77d0331725175a6", "is_disabled": 0, "rental_uris": {"android": "https://dc.lft.to/lastmile_qr_scan", "ios": "https://dc.lft.to/lastmile_qr_scan"}, "fusion_lon": 0.0, "lat": 38.8845355, "bike_id": "38c76d291f9fc360c77d0331725175a6", "type": "electric_scooter", "is_reserved": 0, "lon": -76.99841433333333}, {"fusion_lat": 0.0, "name": "bc4b2acbada96732616a83911ddfb253", "is_disabled": 0, "rental_uris": {"android": "https://dc.lft.to/lastmile_qr_scan", "ios": "https://dc.lft.to/lastmile_qr_scan"}, "fusion_lon": 0.0, "lat": 38.8029525, "bike_id": "bc4b2acbada96732616a83911ddfb253", "type": "electric_bike", "is_reserved": 0, "lon": -77.0593975}, {"fusion_lat": 0.0, "name": "adcdbacfa0f908cdfea29acc0740a0a3", "is_disabled": 0, "rental_uris": {"android": "https://dc.lft.to/lastmile_qr_scan", "ios": "https://dc.lft.to/lastmile_qr_scan"}, "fusion_lon": 0.0, "lat": 38.8922125, "bike_id": "adcdbacfa0f908cdfea29acc0740a0a3", "type": "electric_scooter", "is_reserved": 0, "lon": -77.04195816666666}, {"fusion_lat": 0.0, "name": "cfd48bdfc059482d99714a87d59c60f2", "is_disabled": 0, "rental_uris": {"android": "https://dc.lft.to/lastmile_qr_scan", "ios": "https://dc.lft.to/lastmile_qr_scan"}, "fusion_lon": 0.0, "lat": 38.9279435, "bike_id": "cfd48bdfc059482d99714a87d59c60f2", "type": "electric_scooter", "is_reserved": 0, "lon": -77.02718183333333}, {"fusion_lat": 0.0, "name": "0811828fa98289370c4e2ee4ada15daf", "is_disabled": 0, "rental_uris": {"android": "https://dc.lft.to/lastmile_qr_scan", "ios": "https://dc.lft.to/lastmile_qr_scan"}, "fusion_lon": 0.0, "lat": 38.8922065, "bike_id": "0811828fa98289370c4e2ee4ada15daf", "type": "electric_scooter", "is_reserved": 0, "lon": -77.02413133333333}, {"fusion_lat": 0.0, "name": "5ecad6c01f9a7b8e0f3411f934f9f624", "is_disabled": 0, "rental_uris": {"android": "https://dc.lft.to/lastmile_qr_scan", "ios": "https://dc.lft.to/lastmile_qr_scan"}, "fusion_lon": 0.0, "lat": 38.902218833333336, "bike_id": "5ecad6c01f9a7b8e0f3411f934f9f624", "type": "electric_scooter", "is_reserved": 0, "lon": -77.059843}, {"fusion_lat": 0.0, "name": "330f35209bcc810108a1db78f97bb299", "is_disabled": 0, "rental_uris": {"android": "https://dc.lft.to/lastmile_qr_scan", "ios": "https://dc.lft.to/lastmile_qr_scan"}, "fusion_lon": 0.0, "lat": 38.98787566666667, "bike_id": "330f35209bcc810108a1db78f97bb299", "type": "electric_bike", "is_reserved": 0, "lon": -77.14098983333334}, {"fusion_lat": 0.0, "name": "82eaba2a5b4f370dfcdf80a29da2bce1", "is_disabled": 0, "rental_uris": {"android": "https://dc.lft.to/lastmile_qr_scan", "ios": "https://dc.lft.to/lastmile_qr_scan"}, "fusion_lon": 0.0, "lat": 38.9170465, "bike_id": "82eaba2a5b4f370dfcdf80a29da2bce1", "type": "electric_scooter", "is_reserved": 0, "lon": -77.00872366666667}, {"fusion_lat": 0.0, "name": "e6b409986431ec13dfa85852e27c5153", "is_disabled": 0, "rental_uris": {"android": "https://dc.lft.to/lastmile_qr_scan", "ios": "https://dc.lft.to/lastmile_qr_scan"}, "fusion_lon": 0.0, "lat": 38.88507333333333, "bike_id": "e6b409986431ec13dfa85852e27c5153", "type": "electric_scooter", "is_reserved": 0, "lon": -76.99764183333333}, {"fusion_lat": 0.0, "name": "3389f16e277cba249d5dc2c9793d940f", "is_disabled": 0, "rental_uris": {"android": "https://dc.lft.to/lastmile_qr_scan", "ios": "https://dc.lft.to/lastmile_qr_scan"}, "fusion_lon": 0.0, "lat": 38.90720016666667, "bike_id": "3389f16e277cba249d5dc2c9793d940f", "type": "electric_scooter", "is_reserved": 0, "lon": -77.02502383333334}, {"fusion_lat": 0.0, "name": "a6568834289244f0324f8623d3521b8f", "is_disabled": 0, "rental_uris": {"android": "https://dc.lft.to/lastmile_qr_scan", "ios": "https://dc.lft.to/lastmile_qr_scan"}, "fusion_lon": 0.0, "lat": 38.94163983333333, "bike_id": "a6568834289244f0324f8623d3521b8f", "type": "electric_bike", "is_reserved": 0, "lon": -76.96644766666667}, {"fusion_lat": 0.0, "name": "a2834f0cd249d8530ef3e266e08ff044", "is_disabled": 0, "rental_uris": {"android": "https://dc.lft.to/lastmile_qr_scan", "ios": "https://dc.lft.to/lastmile_qr_scan"}, "fusion_lon": 0.0, "lat": 38.941491166666665, "bike_id": "a2834f0cd249d8530ef3e266e08ff044", "type": "electric_bike", "is_reserved": 0, "lon": -77.00195066666667}, {"fusion_lat": 0.0, "name": "84d05883d920b1e79c2aeaa95ed35859", "is_disabled": 0, "rental_uris": {"android": "https://dc.lft.to/lastmile_qr_scan", "ios": "https://dc.lft.to/lastmile_qr_scan"}, "fusion_lon": 0.0, "lat": 38.929598166666665, "bike_id": "84d05883d920b1e79c2aeaa95ed35859", "type": "electric_scooter", "is_reserved": 0, "lon": -77.0313765}, {"fusion_lat": 0.0, "name": "fec0a3b680f8369a3c7e29ed63239427", "is_disabled": 0, "rental_uris": {"android": "https://dc.lft.to/lastmile_qr_scan", "ios": "https://dc.lft.to/lastmile_qr_scan"}, "fusion_lon": 0.0, "lat": 38.87708283333333, "bike_id": "fec0a3b680f8369a3c7e29ed63239427", "type": "electric_scooter", "is_reserved": 0, "lon": -76.99381983333333}, {"fusion_lat": 0.0, "name": "a0d73a0d865dc12257b9deb513a506c8", "is_disabled": 0, "rental_uris": {"android": "https://dc.lft.to/lastmile_qr_scan", "ios": "https://dc.lft.to/lastmile_qr_scan"}, "fusion_lon": 0.0, "lat": 38.93501633333333, "bike_id": "a0d73a0d865dc12257b9deb513a506c8", "type": "electric_scooter", "is_reserved": 0, "lon": -77.073662}, {"fusion_lat": 0.0, "name": "5d7a509f390707e01d07db01e2918ae8", "is_disabled": 0, "rental_uris": {"android": "https://dc.lft.to/lastmile_qr_scan", "ios": "https://dc.lft.to/lastmile_qr_scan"}, "fusion_lon": 0.0, "lat": 38.92646166666667, "bike_id": "5d7a509f390707e01d07db01e2918ae8", "type": "electric_scooter", "is_reserved": 0, "lon": -77.03716566666667}, {"fusion_lat": 0.0, "name": "b5a7d0d4e4a7bb1d121f4c853d2f13a2", "is_disabled": 0, "rental_uris": {"android": "https://dc.lft.to/lastmile_qr_scan", "ios": "https://dc.lft.to/lastmile_qr_scan"}, "fusion_lon": 0.0, "lat": 38.9190455, "bike_id": "b5a7d0d4e4a7bb1d121f4c853d2f13a2", "type": "electric_scooter", "is_reserved": 0, "lon": -77.0136305}, {"fusion_lat": 0.0, "name": "ca742287fc75f52485cb8161802498e5", "is_disabled": 0, "rental_uris": {"android": "https://dc.lft.to/lastmile_qr_scan", "ios": "https://dc.lft.to/lastmile_qr_scan"}, "fusion_lon": 0.0, "lat": 38.983900166666665, "bike_id": "ca742287fc75f52485cb8161802498e5", "type": "electric_scooter", "is_reserved": 0, "lon": -77.02629916666666}, {"fusion_lat": 0.0, "name": "ea2e6e39b688b6b3631ec08986e7bb1b", "is_disabled": 0, "rental_uris": {"android": "https://dc.lft.to/lastmile_qr_scan", "ios": "https://dc.lft.to/lastmile_qr_scan"}, "fusion_lon": 0.0, "lat": 38.891948, "bike_id": "ea2e6e39b688b6b3631ec08986e7bb1b", "type": "electric_scooter", "is_reserved": 0, "lon": -77.02234683333333}, {"fusion_lat": 0.0, "name": "cc09b9c067cb5e73d5ee6bf640b4aae3", "is_disabled": 0, "rental_uris": {"android": "https://dc.lft.to/lastmile_qr_scan", "ios": "https://dc.lft.to/lastmile_qr_scan"}, "fusion_lon": 0.0, "lat": 38.92181383333333, "bike_id": "cc09b9c067cb5e73d5ee6bf640b4aae3", "type": "electric_scooter", "is_reserved": 0, "lon": -77.04225966666667}, {"fusion_lat": 0.0, "name": "cf9e6d04b277dc4410b48f1f556c4c9c", "is_disabled": 0, "rental_uris": {"android": "https://dc.lft.to/lastmile_qr_scan", "ios": "https://dc.lft.to/lastmile_qr_scan"}, "fusion_lon": 0.0, "lat": 38.91775916666667, "bike_id": "cf9e6d04b277dc4410b48f1f556c4c9c", "type": "electric_scooter", "is_reserved": 0, "lon": -77.04096233333334}, {"fusion_lat": 0.0, "name": "007879128674b5bb4c7d90851cddc584", "is_disabled": 0, "rental_uris": {"android": "https://dc.lft.to/lastmile_qr_scan", "ios": "https://dc.lft.to/lastmile_qr_scan"}, "fusion_lon": 0.0, "lat": 38.9151735, "bike_id": "007879128674b5bb4c7d90851cddc584", "type": "electric_scooter", "is_reserved": 0, "lon": -77.026934}, {"fusion_lat": 0.0, "name": "9ca5576db719964e68d05e4a5de2c0ea", "is_disabled": 0, "rental_uris": {"android": "https://dc.lft.to/lastmile_qr_scan", "ios": "https://dc.lft.to/lastmile_qr_scan"}, "fusion_lon": 0.0, "lat": 38.895104, "bike_id": "9ca5576db719964e68d05e4a5de2c0ea", "type": "electric_scooter", "is_reserved": 0, "lon": -76.94886133333333}, {"fusion_lat": 0.0, "name": "87aef0c05f60b06827fc4c4dfc1d4628", "is_disabled": 0, "rental_uris": {"android": "https://dc.lft.to/lastmile_qr_scan", "ios": "https://dc.lft.to/lastmile_qr_scan"}, "fusion_lon": 0.0, "lat": 38.945220166666665, "bike_id": "87aef0c05f60b06827fc4c4dfc1d4628", "type": "electric_scooter", "is_reserved": 0, "lon": -77.02273466666666}, {"fusion_lat": 0.0, "name": "574df1b29b6406888ec7bacbe9eff0e4", "is_disabled": 0, "rental_uris": {"android": "https://dc.lft.to/lastmile_qr_scan", "ios": "https://dc.lft.to/lastmile_qr_scan"}, "fusion_lon": 0.0, "lat": 38.939203666666664, "bike_id": "574df1b29b6406888ec7bacbe9eff0e4", "type": "electric_scooter", "is_reserved": 0, "lon": -77.0279965}, {"fusion_lat": 0.0, "name": "7c1ebed9d03fb558fcf7148c5d4baac4", "is_disabled": 0, "rental_uris": {"android": "https://dc.lft.to/lastmile_qr_scan", "ios": "https://dc.lft.to/lastmile_qr_scan"}, "fusion_lon": 0.0, "lat": 38.910274, "bike_id": "7c1ebed9d03fb558fcf7148c5d4baac4", "type": "electric_scooter", "is_reserved": 0, "lon": -77.00761966666667}, {"fusion_lat": 0.0, "name": "af4e5c3c32efc381974deb905f8ca55d", "is_disabled": 0, "rental_uris": {"android": "https://dc.lft.to/lastmile_qr_scan", "ios": "https://dc.lft.to/lastmile_qr_scan"}, "fusion_lon": 0.0, "lat": 38.88417, "bike_id": "af4e5c3c32efc381974deb905f8ca55d", "type": "electric_scooter", "is_reserved": 0, "lon": -77.01990716666667}, {"fusion_lat": 0.0, "name": "a7d603e89bbbf0f272a186162f48ed2c", "is_disabled": 0, "rental_uris": {"android": "https://dc.lft.to/lastmile_qr_scan", "ios": "https://dc.lft.to/lastmile_qr_scan"}, "fusion_lon": 0.0, "lat": 38.9003155, "bike_id": "a7d603e89bbbf0f272a186162f48ed2c", "type": "electric_scooter", "is_reserved": 0, "lon": -76.99135266666667}, {"fusion_lat": 0.0, "name": "e9bb00a4a4c1fdd84a33a68f80611938", "is_disabled": 0, "rental_uris": {"android": "https://dc.lft.to/lastmile_qr_scan", "ios": "https://dc.lft.to/lastmile_qr_scan"}, "fusion_lon": 0.0, "lat": 38.961507166666664, "bike_id": "e9bb00a4a4c1fdd84a33a68f80611938", "type": "electric_bike", "is_reserved": 0, "lon": -77.03234}, {"fusion_lat": 0.0, "name": "69008cc8c608682cda29bcc9fa70a506", "is_disabled": 0, "rental_uris": {"android": "https://dc.lft.to/lastmile_qr_scan", "ios": "https://dc.lft.to/lastmile_qr_scan"}, "fusion_lon": 0.0, "lat": 38.89925, "bike_id": "69008cc8c608682cda29bcc9fa70a506", "type": "electric_scooter", "is_reserved": 0, "lon": -77.00355616666667}, {"fusion_lat": 0.0, "name": "a55d0c0da2259e6a16e61b9d0cfd6c2a", "is_disabled": 0, "rental_uris": {"android": "https://dc.lft.to/lastmile_qr_scan", "ios": "https://dc.lft.to/lastmile_qr_scan"}, "fusion_lon": 0.0, "lat": 38.923396333333336, "bike_id": "a55d0c0da2259e6a16e61b9d0cfd6c2a", "type": "electric_scooter", "is_reserved": 0, "lon": -77.00190733333334}, {"fusion_lat": 0.0, "name": "b5fca5283b5df59affea3084d7ab665d", "is_disabled": 0, "rental_uris": {"android": "https://dc.lft.to/lastmile_qr_scan", "ios": "https://dc.lft.to/lastmile_qr_scan"}, "fusion_lon": 0.0, "lat": 38.92064533333333, "bike_id": "b5fca5283b5df59affea3084d7ab665d", "type": "electric_scooter", "is_reserved": 0, "lon": -76.99859183333334}, {"fusion_lat": 0.0, "name": "4c54a82e246ca1b3c69c78c2db9b68b3", "is_disabled": 0, "rental_uris": {"android": "https://dc.lft.to/lastmile_qr_scan", "ios": "https://dc.lft.to/lastmile_qr_scan"}, "fusion_lon": 0.0, "lat": 38.905532666666666, "bike_id": "4c54a82e246ca1b3c69c78c2db9b68b3", "type": "electric_scooter", "is_reserved": 0, "lon": -77.00589683333334}, {"fusion_lat": 0.0, "name": "b2797d49bdee2e8cc0824694391a0fd1", "is_disabled": 0, "rental_uris": {"android": "https://dc.lft.to/lastmile_qr_scan", "ios": "https://dc.lft.to/lastmile_qr_scan"}, "fusion_lon": 0.0, "lat": 38.906731, "bike_id": "b2797d49bdee2e8cc0824694391a0fd1", "type": "electric_scooter", "is_reserved": 0, "lon": -77.02206683333333}, {"fusion_lat": 0.0, "name": "bb4d8c718ab83bd7404a3cf4e84ec73c", "is_disabled": 0, "rental_uris": {"android": "https://dc.lft.to/lastmile_qr_scan", "ios": "https://dc.lft.to/lastmile_qr_scan"}, "fusion_lon": 0.0, "lat": 38.91319883333333, "bike_id": "bb4d8c718ab83bd7404a3cf4e84ec73c", "type": "electric_scooter", "is_reserved": 0, "lon": -77.04709533333333}, {"fusion_lat": 0.0, "name": "f0b5b05e4cbf0f41fa59fe18cd6f8662", "is_disabled": 0, "rental_uris": {"android": "https://dc.lft.to/lastmile_qr_scan", "ios": "https://dc.lft.to/lastmile_qr_scan"}, "fusion_lon": 0.0, "lat": 38.8875565, "bike_id": "f0b5b05e4cbf0f41fa59fe18cd6f8662", "type": "electric_scooter", "is_reserved": 0, "lon": -77.001636}, {"fusion_lat": 0.0, "name": "a03a0de0d5259396d83dcbde76f5aab1", "is_disabled": 0, "rental_uris": {"android": "https://dc.lft.to/lastmile_qr_scan", "ios": "https://dc.lft.to/lastmile_qr_scan"}, "fusion_lon": 0.0, "lat": 38.892181, "bike_id": "a03a0de0d5259396d83dcbde76f5aab1", "type": "electric_scooter", "is_reserved": 0, "lon": -77.043774}, {"fusion_lat": 0.0, "name": "e5a162a6e3039ef4dd93160167853481", "is_disabled": 0, "rental_uris": {"android": "https://dc.lft.to/lastmile_qr_scan", "ios": "https://dc.lft.to/lastmile_qr_scan"}, "fusion_lon": 0.0, "lat": 38.91120033333333, "bike_id": "e5a162a6e3039ef4dd93160167853481", "type": "electric_scooter", "is_reserved": 0, "lon": -77.0343115}, {"fusion_lat": 0.0, "name": "515761c206f267e61dd6ca184e7824d0", "is_disabled": 0, "rental_uris": {"android": "https://dc.lft.to/lastmile_qr_scan", "ios": "https://dc.lft.to/lastmile_qr_scan"}, "fusion_lon": 0.0, "lat": 38.920803666666664, "bike_id": "515761c206f267e61dd6ca184e7824d0", "type": "electric_scooter", "is_reserved": 0, "lon": -77.02304316666667}, {"fusion_lat": 0.0, "name": "56da8422e7fae98c74802ee311f803ea", "is_disabled": 0, "rental_uris": {"android": "https://dc.lft.to/lastmile_qr_scan", "ios": "https://dc.lft.to/lastmile_qr_scan"}, "fusion_lon": 0.0, "lat": 38.917160333333335, "bike_id": "56da8422e7fae98c74802ee311f803ea", "type": "electric_scooter", "is_reserved": 0, "lon": -76.9687155}, {"fusion_lat": 0.0, "name": "16c098453d211db81d3df2d2f2345256", "is_disabled": 0, "rental_uris": {"android": "https://dc.lft.to/lastmile_qr_scan", "ios": "https://dc.lft.to/lastmile_qr_scan"}, "fusion_lon": 0.0, "lat": 38.91027016666666, "bike_id": "16c098453d211db81d3df2d2f2345256", "type": "electric_scooter", "is_reserved": 0, "lon": -77.0076235}, {"fusion_lat": 0.0, "name": "8c86b2687e92e0dafdeab24a6570698b", "is_disabled": 0, "rental_uris": {"android": "https://dc.lft.to/lastmile_qr_scan", "ios": "https://dc.lft.to/lastmile_qr_scan"}, "fusion_lon": 0.0, "lat": 38.9401545, "bike_id": "8c86b2687e92e0dafdeab24a6570698b", "type": "electric_scooter", "is_reserved": 0, "lon": -77.0276495}, {"fusion_lat": 0.0, "name": "7a9ec0c1e6b00c92bbb039cb8fe60061", "is_disabled": 0, "rental_uris": {"android": "https://dc.lft.to/lastmile_qr_scan", "ios": "https://dc.lft.to/lastmile_qr_scan"}, "fusion_lon": 0.0, "lat": 38.9095635, "bike_id": "7a9ec0c1e6b00c92bbb039cb8fe60061", "type": "electric_scooter", "is_reserved": 0, "lon": -77.04458683333333}, {"fusion_lat": 0.0, "name": "ce0a77e41ed2d26c221821de2c1a681a", "is_disabled": 0, "rental_uris": {"android": "https://dc.lft.to/lastmile_qr_scan", "ios": "https://dc.lft.to/lastmile_qr_scan"}, "fusion_lon": 0.0, "lat": 38.87635266666667, "bike_id": "ce0a77e41ed2d26c221821de2c1a681a", "type": "electric_scooter", "is_reserved": 0, "lon": -77.01645466666666}, {"fusion_lat": 0.0, "name": "50b141da35ef850597ae7762cae839bc", "is_disabled": 0, "rental_uris": {"android": "https://dc.lft.to/lastmile_qr_scan", "ios": "https://dc.lft.to/lastmile_qr_scan"}, "fusion_lon": 0.0, "lat": 38.922369333333336, "bike_id": "50b141da35ef850597ae7762cae839bc", "type": "electric_scooter", "is_reserved": 0, "lon": -77.03517116666667}, {"fusion_lat": 0.0, "name": "b1925a16ca88a8167853138a884f55d6", "is_disabled": 0, "rental_uris": {"android": "https://dc.lft.to/lastmile_qr_scan", "ios": "https://dc.lft.to/lastmile_qr_scan"}, "fusion_lon": 0.0, "lat": 38.926120833333336, "bike_id": "b1925a16ca88a8167853138a884f55d6", "type": "electric_scooter", "is_reserved": 0, "lon": -77.02219616666666}, {"fusion_lat": 0.0, "name": "8ae8094fe1224bd189cebdce7c351784", "is_disabled": 0, "rental_uris": {"android": "https://dc.lft.to/lastmile_qr_scan", "ios": "https://dc.lft.to/lastmile_qr_scan"}, "fusion_lon": 0.0, "lat": 38.904091, "bike_id": "8ae8094fe1224bd189cebdce7c351784", "type": "electric_scooter", "is_reserved": 0, "lon": -76.9733095}, {"fusion_lat": 0.0, "name": "800606921caa93037c33e5d426946fd8", "is_disabled": 0, "rental_uris": {"android": "https://dc.lft.to/lastmile_qr_scan", "ios": "https://dc.lft.to/lastmile_qr_scan"}, "fusion_lon": 0.0, "lat": 38.91555866666667, "bike_id": "800606921caa93037c33e5d426946fd8", "type": "electric_scooter", "is_reserved": 0, "lon": -77.03814416666667}, {"fusion_lat": 0.0, "name": "fb60cb6bc04530e732da7c5af5abe97b", "is_disabled": 0, "rental_uris": {"android": "https://dc.lft.to/lastmile_qr_scan", "ios": "https://dc.lft.to/lastmile_qr_scan"}, "fusion_lon": 0.0, "lat": 38.8998715, "bike_id": "fb60cb6bc04530e732da7c5af5abe97b", "type": "electric_scooter", "is_reserved": 0, "lon": -77.02517033333334}, {"fusion_lat": 0.0, "name": "f8af9e4392fe8904c1d2956db02286ce", "is_disabled": 0, "rental_uris": {"android": "https://dc.lft.to/lastmile_qr_scan", "ios": "https://dc.lft.to/lastmile_qr_scan"}, "fusion_lon": 0.0, "lat": 38.89758066666667, "bike_id": "f8af9e4392fe8904c1d2956db02286ce", "type": "electric_scooter", "is_reserved": 0, "lon": -77.051373}, {"fusion_lat": 0.0, "name": "6032966145473c635481df53e7850106", "is_disabled": 0, "rental_uris": {"android": "https://dc.lft.to/lastmile_qr_scan", "ios": "https://dc.lft.to/lastmile_qr_scan"}, "fusion_lon": 0.0, "lat": 38.8973005, "bike_id": "6032966145473c635481df53e7850106", "type": "electric_scooter", "is_reserved": 0, "lon": -77.04553366666667}, {"fusion_lat": 0.0, "name": "1e0f72de0683084e3dbc4ae4fa7a6890", "is_disabled": 0, "rental_uris": {"android": "https://dc.lft.to/lastmile_qr_scan", "ios": "https://dc.lft.to/lastmile_qr_scan"}, "fusion_lon": 0.0, "lat": 38.8843965, "bike_id": "1e0f72de0683084e3dbc4ae4fa7a6890", "type": "electric_scooter", "is_reserved": 0, "lon": -77.00347966666666}, {"fusion_lat": 0.0, "name": "cb3f3ea3aff45f8854e24801c49212ed", "is_disabled": 0, "rental_uris": {"android": "https://dc.lft.to/lastmile_qr_scan", "ios": "https://dc.lft.to/lastmile_qr_scan"}, "fusion_lon": 0.0, "lat": 38.89713916666667, "bike_id": "cb3f3ea3aff45f8854e24801c49212ed", "type": "electric_scooter", "is_reserved": 0, "lon": -77.00739616666667}, {"fusion_lat": 0.0, "name": "d912634a81e5987b9e568529b3405bfc", "is_disabled": 0, "rental_uris": {"android": "https://dc.lft.to/lastmile_qr_scan", "ios": "https://dc.lft.to/lastmile_qr_scan"}, "fusion_lon": 0.0, "lat": 38.9293355, "bike_id": "d912634a81e5987b9e568529b3405bfc", "type": "electric_scooter", "is_reserved": 0, "lon": -77.03276816666667}, {"fusion_lat": 0.0, "name": "8269f2f6710d419512ff985cb2a6cec2", "is_disabled": 0, "rental_uris": {"android": "https://dc.lft.to/lastmile_qr_scan", "ios": "https://dc.lft.to/lastmile_qr_scan"}, "fusion_lon": 0.0, "lat": 38.83402533333334, "bike_id": "8269f2f6710d419512ff985cb2a6cec2", "type": "electric_bike", "is_reserved": 0, "lon": -77.00332216666666}, {"fusion_lat": 0.0, "name": "e1f50e62c3ee9aa0a8cf3cee18ec83b4", "is_disabled": 0, "rental_uris": {"android": "https://dc.lft.to/lastmile_qr_scan", "ios": "https://dc.lft.to/lastmile_qr_scan"}, "fusion_lon": 0.0, "lat": 38.935731, "bike_id": "e1f50e62c3ee9aa0a8cf3cee18ec83b4", "type": "electric_scooter", "is_reserved": 0, "lon": -77.0192215}, {"fusion_lat": 0.0, "name": "92f88e7ad164c20b9a59fd4943dd30bf", "is_disabled": 0, "rental_uris": {"android": "https://dc.lft.to/lastmile_qr_scan", "ios": "https://dc.lft.to/lastmile_qr_scan"}, "fusion_lon": 0.0, "lat": 38.92249283333334, "bike_id": "92f88e7ad164c20b9a59fd4943dd30bf", "type": "electric_scooter", "is_reserved": 0, "lon": -77.03385533333334}, {"fusion_lat": 0.0, "name": "50dfbae091d6649ccc54c6164efa7df8", "is_disabled": 0, "rental_uris": {"android": "https://dc.lft.to/lastmile_qr_scan", "ios": "https://dc.lft.to/lastmile_qr_scan"}, "fusion_lon": 0.0, "lat": 38.90506933333333, "bike_id": "50dfbae091d6649ccc54c6164efa7df8", "type": "electric_scooter", "is_reserved": 0, "lon": -77.0578525}, {"fusion_lat": 0.0, "name": "59c62a440e6208def90b084f6ae090cc", "is_disabled": 0, "rental_uris": {"android": "https://dc.lft.to/lastmile_qr_scan", "ios": "https://dc.lft.to/lastmile_qr_scan"}, "fusion_lon": 0.0, "lat": 38.916070500000004, "bike_id": "59c62a440e6208def90b084f6ae090cc", "type": "electric_scooter", "is_reserved": 0, "lon": -77.01737616666666}, {"fusion_lat": 0.0, "name": "ba9c0c650ebc07e5aebb81ef6da25cb2", "is_disabled": 0, "rental_uris": {"android": "https://dc.lft.to/lastmile_qr_scan", "ios": "https://dc.lft.to/lastmile_qr_scan"}, "fusion_lon": 0.0, "lat": 38.895385833333336, "bike_id": "ba9c0c650ebc07e5aebb81ef6da25cb2", "type": "electric_scooter", "is_reserved": 0, "lon": -77.01094916666666}, {"fusion_lat": 0.0, "name": "f2b6323d8c2c6b0b168c971cf73d7a86", "is_disabled": 0, "rental_uris": {"android": "https://dc.lft.to/lastmile_qr_scan", "ios": "https://dc.lft.to/lastmile_qr_scan"}, "fusion_lon": 0.0, "lat": 38.85770333333333, "bike_id": "f2b6323d8c2c6b0b168c971cf73d7a86", "type": "electric_bike", "is_reserved": 0, "lon": -76.98766016666667}, {"fusion_lat": 0.0, "name": "09058834a6cf90ebe025681bec5ffa50", "is_disabled": 0, "rental_uris": {"android": "https://dc.lft.to/lastmile_qr_scan", "ios": "https://dc.lft.to/lastmile_qr_scan"}, "fusion_lon": 0.0, "lat": 38.90518483333334, "bike_id": "09058834a6cf90ebe025681bec5ffa50", "type": "electric_scooter", "is_reserved": 0, "lon": -77.06374866666667}, {"fusion_lat": 0.0, "name": "fdaadebac069752135f9338f7e1cb95e", "is_disabled": 0, "rental_uris": {"android": "https://dc.lft.to/lastmile_qr_scan", "ios": "https://dc.lft.to/lastmile_qr_scan"}, "fusion_lon": 0.0, "lat": 38.916953666666664, "bike_id": "fdaadebac069752135f9338f7e1cb95e", "type": "electric_scooter", "is_reserved": 0, "lon": -77.01235083333333}, {"fusion_lat": 0.0, "name": "337e8726dd260022d86e8d79c8a349bc", "is_disabled": 0, "rental_uris": {"android": "https://dc.lft.to/lastmile_qr_scan", "ios": "https://dc.lft.to/lastmile_qr_scan"}, "fusion_lon": 0.0, "lat": 38.940841666666664, "bike_id": "337e8726dd260022d86e8d79c8a349bc", "type": "electric_scooter", "is_reserved": 0, "lon": -77.06182716666666}, {"fusion_lat": 0.0, "name": "e083d261c4617d6a584bb2f7dfc02bbd", "is_disabled": 0, "rental_uris": {"android": "https://dc.lft.to/lastmile_qr_scan", "ios": "https://dc.lft.to/lastmile_qr_scan"}, "fusion_lon": 0.0, "lat": 38.883897, "bike_id": "e083d261c4617d6a584bb2f7dfc02bbd", "type": "electric_scooter", "is_reserved": 0, "lon": -76.93046483333333}, {"fusion_lat": 0.0, "name": "de7d80f7d51018f925f7867304813b40", "is_disabled": 0, "rental_uris": {"android": "https://dc.lft.to/lastmile_qr_scan", "ios": "https://dc.lft.to/lastmile_qr_scan"}, "fusion_lon": 0.0, "lat": 38.90567466666667, "bike_id": "de7d80f7d51018f925f7867304813b40", "type": "electric_scooter", "is_reserved": 0, "lon": -77.03072383333334}, {"fusion_lat": 0.0, "name": "6287202b26377e8cb00de98bb61b013d", "is_disabled": 0, "rental_uris": {"android": "https://dc.lft.to/lastmile_qr_scan", "ios": "https://dc.lft.to/lastmile_qr_scan"}, "fusion_lon": 0.0, "lat": 38.89224166666666, "bike_id": "6287202b26377e8cb00de98bb61b013d", "type": "electric_scooter", "is_reserved": 0, "lon": -77.02627933333333}, {"fusion_lat": 0.0, "name": "e2b3c9ade31d20e46985cb2eea14a52c", "is_disabled": 0, "rental_uris": {"android": "https://dc.lft.to/lastmile_qr_scan", "ios": "https://dc.lft.to/lastmile_qr_scan"}, "fusion_lon": 0.0, "lat": 39.0107335, "bike_id": "e2b3c9ade31d20e46985cb2eea14a52c", "type": "electric_bike", "is_reserved": 0, "lon": -76.91065866666666}, {"fusion_lat": 0.0, "name": "79e132541673aca10c593fcc75338ca5", "is_disabled": 0, "rental_uris": {"android": "https://dc.lft.to/lastmile_qr_scan", "ios": "https://dc.lft.to/lastmile_qr_scan"}, "fusion_lon": 0.0, "lat": 38.919629, "bike_id": "79e132541673aca10c593fcc75338ca5", "type": "electric_scooter", "is_reserved": 0, "lon": -77.0179125}, {"fusion_lat": 0.0, "name": "203e710c3367f1793904fe2ae49ce470", "is_disabled": 0, "rental_uris": {"android": "https://dc.lft.to/lastmile_qr_scan", "ios": "https://dc.lft.to/lastmile_qr_scan"}, "fusion_lon": 0.0, "lat": 38.892207, "bike_id": "203e710c3367f1793904fe2ae49ce470", "type": "electric_scooter", "is_reserved": 0, "lon": -77.02630216666667}, {"fusion_lat": 0.0, "name": "8b977bfb372bf6a174182b6ea0c00ddc", "is_disabled": 0, "rental_uris": {"android": "https://dc.lft.to/lastmile_qr_scan", "ios": "https://dc.lft.to/lastmile_qr_scan"}, "fusion_lon": 0.0, "lat": 38.930498, "bike_id": "8b977bfb372bf6a174182b6ea0c00ddc", "type": "electric_scooter", "is_reserved": 0, "lon": -77.04061716666666}, {"fusion_lat": 0.0, "name": "a127303bc8957b8c086c65d4ccccb77d", "is_disabled": 0, "rental_uris": {"android": "https://dc.lft.to/lastmile_qr_scan", "ios": "https://dc.lft.to/lastmile_qr_scan"}, "fusion_lon": 0.0, "lat": 38.90955316666667, "bike_id": "a127303bc8957b8c086c65d4ccccb77d", "type": "electric_scooter", "is_reserved": 0, "lon": -77.04868416666666}, {"fusion_lat": 0.0, "name": "f437342de783e7868672e00839b6fa2d", "is_disabled": 0, "rental_uris": {"android": "https://dc.lft.to/lastmile_qr_scan", "ios": "https://dc.lft.to/lastmile_qr_scan"}, "fusion_lon": 0.0, "lat": 38.956566, "bike_id": "f437342de783e7868672e00839b6fa2d", "type": "electric_scooter", "is_reserved": 0, "lon": -77.0332815}, {"fusion_lat": 0.0, "name": "23d6d021bead693c1c6c2b9c3c59f00b", "is_disabled": 0, "rental_uris": {"android": "https://dc.lft.to/lastmile_qr_scan", "ios": "https://dc.lft.to/lastmile_qr_scan"}, "fusion_lon": 0.0, "lat": 38.897483666666666, "bike_id": "23d6d021bead693c1c6c2b9c3c59f00b", "type": "electric_scooter", "is_reserved": 0, "lon": -77.02806883333334}, {"fusion_lat": 0.0, "name": "e451e080ac74fa31b8c3029e58f80b4e", "is_disabled": 0, "rental_uris": {"android": "https://dc.lft.to/lastmile_qr_scan", "ios": "https://dc.lft.to/lastmile_qr_scan"}, "fusion_lon": 0.0, "lat": 38.92206783333334, "bike_id": "e451e080ac74fa31b8c3029e58f80b4e", "type": "electric_scooter", "is_reserved": 0, "lon": -77.04120833333333}, {"fusion_lat": 0.0, "name": "de5326f790ffd31ba971d526f4e6b7ec", "is_disabled": 0, "rental_uris": {"android": "https://dc.lft.to/lastmile_qr_scan", "ios": "https://dc.lft.to/lastmile_qr_scan"}, "fusion_lon": 0.0, "lat": 38.924172166666665, "bike_id": "de5326f790ffd31ba971d526f4e6b7ec", "type": "electric_scooter", "is_reserved": 0, "lon": -77.0201195}, {"fusion_lat": 0.0, "name": "c4907bc37f2df0ddc6b8b80868e93a10", "is_disabled": 0, "rental_uris": {"android": "https://dc.lft.to/lastmile_qr_scan", "ios": "https://dc.lft.to/lastmile_qr_scan"}, "fusion_lon": 0.0, "lat": 38.9563805, "bike_id": "c4907bc37f2df0ddc6b8b80868e93a10", "type": "electric_bike", "is_reserved": 0, "lon": -76.93869983333333}, {"fusion_lat": 0.0, "name": "2531dea30a7e90b67e34de9687e44f0d", "is_disabled": 0, "rental_uris": {"android": "https://dc.lft.to/lastmile_qr_scan", "ios": "https://dc.lft.to/lastmile_qr_scan"}, "fusion_lon": 0.0, "lat": 38.9221895, "bike_id": "2531dea30a7e90b67e34de9687e44f0d", "type": "electric_scooter", "is_reserved": 0, "lon": -77.04252533333333}, {"fusion_lat": 0.0, "name": "7b7a106fac1fd3247d6d0fb16b5ca25c", "is_disabled": 0, "rental_uris": {"android": "https://dc.lft.to/lastmile_qr_scan", "ios": "https://dc.lft.to/lastmile_qr_scan"}, "fusion_lon": 0.0, "lat": 38.945255, "bike_id": "7b7a106fac1fd3247d6d0fb16b5ca25c", "type": "electric_scooter", "is_reserved": 0, "lon": -77.02082416666667}, {"fusion_lat": 0.0, "name": "d7241ca433cafeab278f34b48c0bcdc9", "is_disabled": 0, "rental_uris": {"android": "https://dc.lft.to/lastmile_qr_scan", "ios": "https://dc.lft.to/lastmile_qr_scan"}, "fusion_lon": 0.0, "lat": 38.89961983333333, "bike_id": "d7241ca433cafeab278f34b48c0bcdc9", "type": "electric_scooter", "is_reserved": 0, "lon": -77.01511366666666}, {"fusion_lat": 0.0, "name": "e7414775e103baf0f25c9d5335f42863", "is_disabled": 0, "rental_uris": {"android": "https://dc.lft.to/lastmile_qr_scan", "ios": "https://dc.lft.to/lastmile_qr_scan"}, "fusion_lon": 0.0, "lat": 38.914888166666664, "bike_id": "e7414775e103baf0f25c9d5335f42863", "type": "electric_scooter", "is_reserved": 0, "lon": -77.032597}, {"fusion_lat": 0.0, "name": "134010b2377c0d4a81b34041a55d8e86", "is_disabled": 0, "rental_uris": {"android": "https://dc.lft.to/lastmile_qr_scan", "ios": "https://dc.lft.to/lastmile_qr_scan"}, "fusion_lon": 0.0, "lat": 38.92150133333333, "bike_id": "134010b2377c0d4a81b34041a55d8e86", "type": "electric_scooter", "is_reserved": 0, "lon": -77.03352516666666}, {"fusion_lat": 0.0, "name": "5bfca16de072a3a0a670a665acb38477", "is_disabled": 0, "rental_uris": {"android": "https://dc.lft.to/lastmile_qr_scan", "ios": "https://dc.lft.to/lastmile_qr_scan"}, "fusion_lon": 0.0, "lat": 38.93522, "bike_id": "5bfca16de072a3a0a670a665acb38477", "type": "electric_scooter", "is_reserved": 0, "lon": -77.03259633333333}, {"fusion_lat": 0.0, "name": "8287407475e40d61625a7f5c08384573", "is_disabled": 0, "rental_uris": {"android": "https://dc.lft.to/lastmile_qr_scan", "ios": "https://dc.lft.to/lastmile_qr_scan"}, "fusion_lon": 0.0, "lat": 38.90409733333333, "bike_id": "8287407475e40d61625a7f5c08384573", "type": "electric_scooter", "is_reserved": 0, "lon": -76.973301}, {"fusion_lat": 0.0, "name": "8d6ac3977a24cec11d1a1e643c970137", "is_disabled": 0, "rental_uris": {"android": "https://dc.lft.to/lastmile_qr_scan", "ios": "https://dc.lft.to/lastmile_qr_scan"}, "fusion_lon": 0.0, "lat": 38.90256466666666, "bike_id": "8d6ac3977a24cec11d1a1e643c970137", "type": "electric_scooter", "is_reserved": 0, "lon": -76.974543}, {"fusion_lat": 0.0, "name": "d9b3c600ac0015fed87d5ff02a430ac5", "is_disabled": 0, "rental_uris": {"android": "https://dc.lft.to/lastmile_qr_scan", "ios": "https://dc.lft.to/lastmile_qr_scan"}, "fusion_lon": 0.0, "lat": 38.9015325, "bike_id": "d9b3c600ac0015fed87d5ff02a430ac5", "type": "electric_scooter", "is_reserved": 0, "lon": -77.02319866666667}, {"fusion_lat": 0.0, "name": "407cbfb6c347cbd9e1649856157ef3f8", "is_disabled": 0, "rental_uris": {"android": "https://dc.lft.to/lastmile_qr_scan", "ios": "https://dc.lft.to/lastmile_qr_scan"}, "fusion_lon": 0.0, "lat": 38.923183, "bike_id": "407cbfb6c347cbd9e1649856157ef3f8", "type": "electric_scooter", "is_reserved": 0, "lon": -77.02039733333334}, {"fusion_lat": 0.0, "name": "e7f7c5866210415e5683b6a390c50b21", "is_disabled": 0, "rental_uris": {"android": "https://dc.lft.to/lastmile_qr_scan", "ios": "https://dc.lft.to/lastmile_qr_scan"}, "fusion_lon": 0.0, "lat": 38.929274666666664, "bike_id": "e7f7c5866210415e5683b6a390c50b21", "type": "electric_scooter", "is_reserved": 0, "lon": -77.023362}, {"fusion_lat": 0.0, "name": "df247dae40288ca789b92f8b33ca0cb6", "is_disabled": 0, "rental_uris": {"android": "https://dc.lft.to/lastmile_qr_scan", "ios": "https://dc.lft.to/lastmile_qr_scan"}, "fusion_lon": 0.0, "lat": 38.907246666666666, "bike_id": "df247dae40288ca789b92f8b33ca0cb6", "type": "electric_scooter", "is_reserved": 0, "lon": -77.028847}, {"fusion_lat": 0.0, "name": "4b8873034e643c362e31c2e1f1ed0995", "is_disabled": 0, "rental_uris": {"android": "https://dc.lft.to/lastmile_qr_scan", "ios": "https://dc.lft.to/lastmile_qr_scan"}, "fusion_lon": 0.0, "lat": 38.9308105, "bike_id": "4b8873034e643c362e31c2e1f1ed0995", "type": "electric_scooter", "is_reserved": 0, "lon": -77.0776135}, {"fusion_lat": 0.0, "name": "267bf1936c5f184cf5d759c4a5af8052", "is_disabled": 0, "rental_uris": {"android": "https://dc.lft.to/lastmile_qr_scan", "ios": "https://dc.lft.to/lastmile_qr_scan"}, "fusion_lon": 0.0, "lat": 38.919141833333335, "bike_id": "267bf1936c5f184cf5d759c4a5af8052", "type": "electric_scooter", "is_reserved": 0, "lon": -77.04152283333333}, {"fusion_lat": 0.0, "name": "596317bfae18001c30ab81777648670e", "is_disabled": 0, "rental_uris": {"android": "https://dc.lft.to/lastmile_qr_scan", "ios": "https://dc.lft.to/lastmile_qr_scan"}, "fusion_lon": 0.0, "lat": 38.903989333333335, "bike_id": "596317bfae18001c30ab81777648670e", "type": "electric_scooter", "is_reserved": 0, "lon": -76.99004783333334}, {"fusion_lat": 0.0, "name": "04d25d0c026526fab25fcc57136be327", "is_disabled": 0, "rental_uris": {"android": "https://dc.lft.to/lastmile_qr_scan", "ios": "https://dc.lft.to/lastmile_qr_scan"}, "fusion_lon": 0.0, "lat": 38.9523425, "bike_id": "04d25d0c026526fab25fcc57136be327", "type": "electric_scooter", "is_reserved": 0, "lon": -76.99005483333333}, {"fusion_lat": 0.0, "name": "5c3e814459d5354d3c22b02bf74db390", "is_disabled": 0, "rental_uris": {"android": "https://dc.lft.to/lastmile_qr_scan", "ios": "https://dc.lft.to/lastmile_qr_scan"}, "fusion_lon": 0.0, "lat": 38.92604133333333, "bike_id": "5c3e814459d5354d3c22b02bf74db390", "type": "electric_scooter", "is_reserved": 0, "lon": -77.021564}, {"fusion_lat": 0.0, "name": "4d7d8deb2fff8fb75f0ff4cbfd6bffab", "is_disabled": 0, "rental_uris": {"android": "https://dc.lft.to/lastmile_qr_scan", "ios": "https://dc.lft.to/lastmile_qr_scan"}, "fusion_lon": 0.0, "lat": 38.928096833333335, "bike_id": "4d7d8deb2fff8fb75f0ff4cbfd6bffab", "type": "electric_scooter", "is_reserved": 0, "lon": -77.04359283333334}, {"fusion_lat": 0.0, "name": "dd9dbf7ea04b77f3f0865f6ff6145e9d", "is_disabled": 0, "rental_uris": {"android": "https://dc.lft.to/lastmile_qr_scan", "ios": "https://dc.lft.to/lastmile_qr_scan"}, "fusion_lon": 0.0, "lat": 38.906803333333336, "bike_id": "dd9dbf7ea04b77f3f0865f6ff6145e9d", "type": "electric_bike", "is_reserved": 0, "lon": -76.94493416666667}, {"fusion_lat": 0.0, "name": "a85c0b438f461bc110280831c015faec", "is_disabled": 0, "rental_uris": {"android": "https://dc.lft.to/lastmile_qr_scan", "ios": "https://dc.lft.to/lastmile_qr_scan"}, "fusion_lon": 0.0, "lat": 38.90579116666667, "bike_id": "a85c0b438f461bc110280831c015faec", "type": "electric_scooter", "is_reserved": 0, "lon": -77.02916866666666}, {"fusion_lat": 0.0, "name": "54f59599eebcc04a1b96643f49eaadf6", "is_disabled": 0, "rental_uris": {"android": "https://dc.lft.to/lastmile_qr_scan", "ios": "https://dc.lft.to/lastmile_qr_scan"}, "fusion_lon": 0.0, "lat": 38.897423333333336, "bike_id": "54f59599eebcc04a1b96643f49eaadf6", "type": "electric_scooter", "is_reserved": 0, "lon": -77.025032}, {"fusion_lat": 0.0, "name": "e6271eb64b8f5809fcae71c738870f60", "is_disabled": 0, "rental_uris": {"android": "https://dc.lft.to/lastmile_qr_scan", "ios": "https://dc.lft.to/lastmile_qr_scan"}, "fusion_lon": 0.0, "lat": 38.8876895, "bike_id": "e6271eb64b8f5809fcae71c738870f60", "type": "electric_scooter", "is_reserved": 0, "lon": -76.97740816666666}, {"fusion_lat": 0.0, "name": "fbe5f525922e5b366e9460a8b65beeb3", "is_disabled": 0, "rental_uris": {"android": "https://dc.lft.to/lastmile_qr_scan", "ios": "https://dc.lft.to/lastmile_qr_scan"}, "fusion_lon": 0.0, "lat": 38.86915466666667, "bike_id": "fbe5f525922e5b366e9460a8b65beeb3", "type": "electric_bike", "is_reserved": 0, "lon": -76.97503166666667}, {"fusion_lat": 0.0, "name": "3b68155d13614bde638566b620355ac9", "is_disabled": 0, "rental_uris": {"android": "https://dc.lft.to/lastmile_qr_scan", "ios": "https://dc.lft.to/lastmile_qr_scan"}, "fusion_lon": 0.0, "lat": 38.9170245, "bike_id": "3b68155d13614bde638566b620355ac9", "type": "electric_scooter", "is_reserved": 0, "lon": -77.02483333333333}, {"fusion_lat": 0.0, "name": "ffdc027ce70d44c108debe5f1e852c95", "is_disabled": 0, "rental_uris": {"android": "https://dc.lft.to/lastmile_qr_scan", "ios": "https://dc.lft.to/lastmile_qr_scan"}, "fusion_lon": 0.0, "lat": 38.9287005, "bike_id": "ffdc027ce70d44c108debe5f1e852c95", "type": "electric_scooter", "is_reserved": 0, "lon": -77.03039383333333}, {"fusion_lat": 0.0, "name": "90c0310d7a55eabd9fc239a481824fa9", "is_disabled": 0, "rental_uris": {"android": "https://dc.lft.to/lastmile_qr_scan", "ios": "https://dc.lft.to/lastmile_qr_scan"}, "fusion_lon": 0.0, "lat": 38.901493333333335, "bike_id": "90c0310d7a55eabd9fc239a481824fa9", "type": "electric_scooter", "is_reserved": 0, "lon": -76.93070733333333}, {"fusion_lat": 0.0, "name": "f8424e9acc965ffbddab28bacf99f2d5", "is_disabled": 0, "rental_uris": {"android": "https://dc.lft.to/lastmile_qr_scan", "ios": "https://dc.lft.to/lastmile_qr_scan"}, "fusion_lon": 0.0, "lat": 38.8874505, "bike_id": "f8424e9acc965ffbddab28bacf99f2d5", "type": "electric_scooter", "is_reserved": 0, "lon": -77.0315785}, {"fusion_lat": 0.0, "name": "c670876137df798004b67a5245d3f839", "is_disabled": 0, "rental_uris": {"android": "https://dc.lft.to/lastmile_qr_scan", "ios": "https://dc.lft.to/lastmile_qr_scan"}, "fusion_lon": 0.0, "lat": 38.91241216666667, "bike_id": "c670876137df798004b67a5245d3f839", "type": "electric_scooter", "is_reserved": 0, "lon": -77.0064815}, {"fusion_lat": 0.0, "name": "2404ca247931965a166ca4d77208edb3", "is_disabled": 0, "rental_uris": {"android": "https://dc.lft.to/lastmile_qr_scan", "ios": "https://dc.lft.to/lastmile_qr_scan"}, "fusion_lon": 0.0, "lat": 38.905690166666666, "bike_id": "2404ca247931965a166ca4d77208edb3", "type": "electric_scooter", "is_reserved": 0, "lon": -77.02106116666667}, {"fusion_lat": 0.0, "name": "5854640a3855510c28b78dc5700e5394", "is_disabled": 0, "rental_uris": {"android": "https://dc.lft.to/lastmile_qr_scan", "ios": "https://dc.lft.to/lastmile_qr_scan"}, "fusion_lon": 0.0, "lat": 38.909367, "bike_id": "5854640a3855510c28b78dc5700e5394", "type": "electric_scooter", "is_reserved": 0, "lon": -77.01843216666667}, {"fusion_lat": 0.0, "name": "5d75e68970b9e56e0f71f8abe6521f34", "is_disabled": 0, "rental_uris": {"android": "https://dc.lft.to/lastmile_qr_scan", "ios": "https://dc.lft.to/lastmile_qr_scan"}, "fusion_lon": 0.0, "lat": 38.88512733333334, "bike_id": "5d75e68970b9e56e0f71f8abe6521f34", "type": "electric_scooter", "is_reserved": 0, "lon": -77.015058}, {"fusion_lat": 0.0, "name": "a08f5081bdf65861279b191cfa33bd37", "is_disabled": 0, "rental_uris": {"android": "https://dc.lft.to/lastmile_qr_scan", "ios": "https://dc.lft.to/lastmile_qr_scan"}, "fusion_lon": 0.0, "lat": 38.911462666666665, "bike_id": "a08f5081bdf65861279b191cfa33bd37", "type": "electric_scooter", "is_reserved": 0, "lon": -77.03204783333334}, {"fusion_lat": 0.0, "name": "02fbce119f6530c92701dc4fcfa4f8ed", "is_disabled": 0, "rental_uris": {"android": "https://dc.lft.to/lastmile_qr_scan", "ios": "https://dc.lft.to/lastmile_qr_scan"}, "fusion_lon": 0.0, "lat": 38.89329716666667, "bike_id": "02fbce119f6530c92701dc4fcfa4f8ed", "type": "electric_scooter", "is_reserved": 0, "lon": -77.02245}, {"fusion_lat": 0.0, "name": "dcf23a3d6d23ead9625963cd7e3ba845", "is_disabled": 0, "rental_uris": {"android": "https://dc.lft.to/lastmile_qr_scan", "ios": "https://dc.lft.to/lastmile_qr_scan"}, "fusion_lon": 0.0, "lat": 38.89220683333333, "bike_id": "dcf23a3d6d23ead9625963cd7e3ba845", "type": "electric_scooter", "is_reserved": 0, "lon": -77.02710633333334}, {"fusion_lat": 0.0, "name": "e7c373736303e8fe66ad137153dcb13a", "is_disabled": 0, "rental_uris": {"android": "https://dc.lft.to/lastmile_qr_scan", "ios": "https://dc.lft.to/lastmile_qr_scan"}, "fusion_lon": 0.0, "lat": 38.887381166666664, "bike_id": "e7c373736303e8fe66ad137153dcb13a", "type": "electric_scooter", "is_reserved": 0, "lon": -77.0220875}, {"fusion_lat": 0.0, "name": "96fe5f905d1b3a719a625541f27ecdac", "is_disabled": 0, "rental_uris": {"android": "https://dc.lft.to/lastmile_qr_scan", "ios": "https://dc.lft.to/lastmile_qr_scan"}, "fusion_lon": 0.0, "lat": 38.93651833333333, "bike_id": "96fe5f905d1b3a719a625541f27ecdac", "type": "electric_scooter", "is_reserved": 0, "lon": -77.03056566666666}, {"fusion_lat": 0.0, "name": "351d3aee62bd087866997379bbb40792", "is_disabled": 0, "rental_uris": {"android": "https://dc.lft.to/lastmile_qr_scan", "ios": "https://dc.lft.to/lastmile_qr_scan"}, "fusion_lon": 0.0, "lat": 38.89964583333333, "bike_id": "351d3aee62bd087866997379bbb40792", "type": "electric_scooter", "is_reserved": 0, "lon": -76.98719716666666}, {"fusion_lat": 0.0, "name": "b64e7ae470585f357807935ffe100cee", "is_disabled": 0, "rental_uris": {"android": "https://dc.lft.to/lastmile_qr_scan", "ios": "https://dc.lft.to/lastmile_qr_scan"}, "fusion_lon": 0.0, "lat": 38.944692, "bike_id": "b64e7ae470585f357807935ffe100cee", "type": "electric_bike", "is_reserved": 0, "lon": -77.06364783333333}, {"fusion_lat": 0.0, "name": "f48e347ac64305d346333f024deab59e", "is_disabled": 0, "rental_uris": {"android": "https://dc.lft.to/lastmile_qr_scan", "ios": "https://dc.lft.to/lastmile_qr_scan"}, "fusion_lon": 0.0, "lat": 38.892233833333336, "bike_id": "f48e347ac64305d346333f024deab59e", "type": "electric_scooter", "is_reserved": 0, "lon": -77.03214566666666}, {"fusion_lat": 0.0, "name": "fdf0abc4dde16ae8db7e46f8b07dc5dc", "is_disabled": 0, "rental_uris": {"android": "https://dc.lft.to/lastmile_qr_scan", "ios": "https://dc.lft.to/lastmile_qr_scan"}, "fusion_lon": 0.0, "lat": 38.887259, "bike_id": "fdf0abc4dde16ae8db7e46f8b07dc5dc", "type": "electric_scooter", "is_reserved": 0, "lon": -76.98353066666667}, {"fusion_lat": 0.0, "name": "db4c78cafafb0ecf74d341313e2b8afd", "is_disabled": 0, "rental_uris": {"android": "https://dc.lft.to/lastmile_qr_scan", "ios": "https://dc.lft.to/lastmile_qr_scan"}, "fusion_lon": 0.0, "lat": 38.929738, "bike_id": "db4c78cafafb0ecf74d341313e2b8afd", "type": "electric_scooter", "is_reserved": 0, "lon": -77.02788366666667}, {"fusion_lat": 0.0, "name": "f8ed0b496b3532dfd632c5b7d9b4797f", "is_disabled": 0, "rental_uris": {"android": "https://dc.lft.to/lastmile_qr_scan", "ios": "https://dc.lft.to/lastmile_qr_scan"}, "fusion_lon": 0.0, "lat": 38.92075483333333, "bike_id": "f8ed0b496b3532dfd632c5b7d9b4797f", "type": "electric_bike", "is_reserved": 0, "lon": -76.98939466666667}, {"fusion_lat": 0.0, "name": "bd4e12cf4f534475832b5d7d23bfa6b4", "is_disabled": 0, "rental_uris": {"android": "https://dc.lft.to/lastmile_qr_scan", "ios": "https://dc.lft.to/lastmile_qr_scan"}, "fusion_lon": 0.0, "lat": 38.942277833333335, "bike_id": "bd4e12cf4f534475832b5d7d23bfa6b4", "type": "electric_scooter", "is_reserved": 0, "lon": -77.01381916666666}, {"fusion_lat": 0.0, "name": "68ffc62a49bd666931231d79247ea1fa", "is_disabled": 0, "rental_uris": {"android": "https://dc.lft.to/lastmile_qr_scan", "ios": "https://dc.lft.to/lastmile_qr_scan"}, "fusion_lon": 0.0, "lat": 38.8789685, "bike_id": "68ffc62a49bd666931231d79247ea1fa", "type": "electric_scooter", "is_reserved": 0, "lon": -77.01362833333333}, {"fusion_lat": 0.0, "name": "8982682e5288cc764fb17bd7cb03971a", "is_disabled": 0, "rental_uris": {"android": "https://dc.lft.to/lastmile_qr_scan", "ios": "https://dc.lft.to/lastmile_qr_scan"}, "fusion_lon": 0.0, "lat": 38.919384666666666, "bike_id": "8982682e5288cc764fb17bd7cb03971a", "type": "electric_scooter", "is_reserved": 0, "lon": -77.07061183333333}, {"fusion_lat": 0.0, "name": "34ce651e6eb2575688bf65c9baaf0ba0", "is_disabled": 0, "rental_uris": {"android": "https://dc.lft.to/lastmile_qr_scan", "ios": "https://dc.lft.to/lastmile_qr_scan"}, "fusion_lon": 0.0, "lat": 38.903656, "bike_id": "34ce651e6eb2575688bf65c9baaf0ba0", "type": "electric_scooter", "is_reserved": 0, "lon": -77.0448655}, {"fusion_lat": 0.0, "name": "f6268f52508af43c735d155864eebba2", "is_disabled": 0, "rental_uris": {"android": "https://dc.lft.to/lastmile_qr_scan", "ios": "https://dc.lft.to/lastmile_qr_scan"}, "fusion_lon": 0.0, "lat": 38.90473733333333, "bike_id": "f6268f52508af43c735d155864eebba2", "type": "electric_scooter", "is_reserved": 0, "lon": -77.05686966666667}, {"fusion_lat": 0.0, "name": "330696daed01d127117de0e0fdcb42d9", "is_disabled": 0, "rental_uris": {"android": "https://dc.lft.to/lastmile_qr_scan", "ios": "https://dc.lft.to/lastmile_qr_scan"}, "fusion_lon": 0.0, "lat": 38.89525416666667, "bike_id": "330696daed01d127117de0e0fdcb42d9", "type": "electric_scooter", "is_reserved": 0, "lon": -76.9341405}, {"fusion_lat": 0.0, "name": "c0a4dc7bb345bb12f28d2f7d91c8ccf6", "is_disabled": 0, "rental_uris": {"android": "https://dc.lft.to/lastmile_qr_scan", "ios": "https://dc.lft.to/lastmile_qr_scan"}, "fusion_lon": 0.0, "lat": 38.909737, "bike_id": "c0a4dc7bb345bb12f28d2f7d91c8ccf6", "type": "electric_scooter", "is_reserved": 0, "lon": -77.03433433333333}, {"fusion_lat": 0.0, "name": "2e9ca3ba7a4d4c1c2065c24e79be1a2c", "is_disabled": 0, "rental_uris": {"android": "https://dc.lft.to/lastmile_qr_scan", "ios": "https://dc.lft.to/lastmile_qr_scan"}, "fusion_lon": 0.0, "lat": 38.907217, "bike_id": "2e9ca3ba7a4d4c1c2065c24e79be1a2c", "type": "electric_scooter", "is_reserved": 0, "lon": -77.0473685}, {"fusion_lat": 0.0, "name": "6873e2d5e272d0be06e3115123f8710a", "is_disabled": 0, "rental_uris": {"android": "https://dc.lft.to/lastmile_qr_scan", "ios": "https://dc.lft.to/lastmile_qr_scan"}, "fusion_lon": 0.0, "lat": 38.922866166666665, "bike_id": "6873e2d5e272d0be06e3115123f8710a", "type": "electric_scooter", "is_reserved": 0, "lon": -77.02524933333333}, {"fusion_lat": 0.0, "name": "e04cb09965dd5d477fdd72d19f133763", "is_disabled": 0, "rental_uris": {"android": "https://dc.lft.to/lastmile_qr_scan", "ios": "https://dc.lft.to/lastmile_qr_scan"}, "fusion_lon": 0.0, "lat": 38.906146166666666, "bike_id": "e04cb09965dd5d477fdd72d19f133763", "type": "electric_scooter", "is_reserved": 0, "lon": -77.04888066666666}, {"fusion_lat": 0.0, "name": "03ed82ec24a779394a14ff2de4d5adf8", "is_disabled": 0, "rental_uris": {"android": "https://dc.lft.to/lastmile_qr_scan", "ios": "https://dc.lft.to/lastmile_qr_scan"}, "fusion_lon": 0.0, "lat": 38.892187166666666, "bike_id": "03ed82ec24a779394a14ff2de4d5adf8", "type": "electric_scooter", "is_reserved": 0, "lon": -77.0241305}, {"fusion_lat": 0.0, "name": "928695e46671ce13b3777f0637cf7842", "is_disabled": 0, "rental_uris": {"android": "https://dc.lft.to/lastmile_qr_scan", "ios": "https://dc.lft.to/lastmile_qr_scan"}, "fusion_lon": 0.0, "lat": 38.9124635, "bike_id": "928695e46671ce13b3777f0637cf7842", "type": "electric_scooter", "is_reserved": 0, "lon": -77.03209033333333}, {"fusion_lat": 0.0, "name": "afb8fef66a3fd19f8ffab6daf6172565", "is_disabled": 0, "rental_uris": {"android": "https://dc.lft.to/lastmile_qr_scan", "ios": "https://dc.lft.to/lastmile_qr_scan"}, "fusion_lon": 0.0, "lat": 38.89219533333333, "bike_id": "afb8fef66a3fd19f8ffab6daf6172565", "type": "electric_scooter", "is_reserved": 0, "lon": -77.04196333333333}, {"fusion_lat": 0.0, "name": "8756d805123f0e668b718560b6ef973d", "is_disabled": 0, "rental_uris": {"android": "https://dc.lft.to/lastmile_qr_scan", "ios": "https://dc.lft.to/lastmile_qr_scan"}, "fusion_lon": 0.0, "lat": 38.9446425, "bike_id": "8756d805123f0e668b718560b6ef973d", "type": "electric_scooter", "is_reserved": 0, "lon": -77.0065955}, {"fusion_lat": 0.0, "name": "e77934196dd1c2734c9569e4b518a66b", "is_disabled": 0, "rental_uris": {"android": "https://dc.lft.to/lastmile_qr_scan", "ios": "https://dc.lft.to/lastmile_qr_scan"}, "fusion_lon": 0.0, "lat": 38.92356, "bike_id": "e77934196dd1c2734c9569e4b518a66b", "type": "electric_scooter", "is_reserved": 0, "lon": -77.04387183333333}, {"fusion_lat": 0.0, "name": "975c67086b88fa3fe5bd7d53fd25b8ce", "is_disabled": 0, "rental_uris": {"android": "https://dc.lft.to/lastmile_qr_scan", "ios": "https://dc.lft.to/lastmile_qr_scan"}, "fusion_lon": 0.0, "lat": 38.892244, "bike_id": "975c67086b88fa3fe5bd7d53fd25b8ce", "type": "electric_scooter", "is_reserved": 0, "lon": -77.0450335}, {"fusion_lat": 0.0, "name": "87c7e2ec4bf14450e11013982ee5740f", "is_disabled": 0, "rental_uris": {"android": "https://dc.lft.to/lastmile_qr_scan", "ios": "https://dc.lft.to/lastmile_qr_scan"}, "fusion_lon": 0.0, "lat": 38.874779833333335, "bike_id": "87c7e2ec4bf14450e11013982ee5740f", "type": "electric_scooter", "is_reserved": 0, "lon": -77.01897966666667}, {"fusion_lat": 0.0, "name": "b46729ef964a6125c296fa8b0187713b", "is_disabled": 0, "rental_uris": {"android": "https://dc.lft.to/lastmile_qr_scan", "ios": "https://dc.lft.to/lastmile_qr_scan"}, "fusion_lon": 0.0, "lat": 38.916206, "bike_id": "b46729ef964a6125c296fa8b0187713b", "type": "electric_scooter", "is_reserved": 0, "lon": -77.03852083333334}, {"fusion_lat": 0.0, "name": "4722c55da16c8c9f6e3103f0336751f8", "is_disabled": 0, "rental_uris": {"android": "https://dc.lft.to/lastmile_qr_scan", "ios": "https://dc.lft.to/lastmile_qr_scan"}, "fusion_lon": 0.0, "lat": 38.89912833333333, "bike_id": "4722c55da16c8c9f6e3103f0336751f8", "type": "electric_scooter", "is_reserved": 0, "lon": -76.94545316666667}, {"fusion_lat": 0.0, "name": "cb571f954527d6ea365441584763d04c", "is_disabled": 0, "rental_uris": {"android": "https://dc.lft.to/lastmile_qr_scan", "ios": "https://dc.lft.to/lastmile_qr_scan"}, "fusion_lon": 0.0, "lat": 38.887666833333334, "bike_id": "cb571f954527d6ea365441584763d04c", "type": "electric_scooter", "is_reserved": 0, "lon": -76.97752116666666}, {"fusion_lat": 0.0, "name": "31b25c81607aae1d33a08658f6a4ada1", "is_disabled": 0, "rental_uris": {"android": "https://dc.lft.to/lastmile_qr_scan", "ios": "https://dc.lft.to/lastmile_qr_scan"}, "fusion_lon": 0.0, "lat": 38.8245985, "bike_id": "31b25c81607aae1d33a08658f6a4ada1", "type": "electric_bike", "is_reserved": 0, "lon": -77.00790266666667}, {"fusion_lat": 0.0, "name": "19094e213e3c40712928c1d441a78c0d", "is_disabled": 0, "rental_uris": {"android": "https://dc.lft.to/lastmile_qr_scan", "ios": "https://dc.lft.to/lastmile_qr_scan"},