{"data": {"bikes": [{"rental_uris": {"android": "https://dc.lft.to/lastmile_qr_scan", "ios": "https://dc.lft.to/lastmile_qr_scan"}, "lon": -77.01965333333334, "name": "9362d8028f569f82d4d1ae007de5c6f8", "fusion_lon": 0.0, "bike_id": "9362d8028f569f82d4d1ae007de5c6f8", "is_reserved": 0, "type": "electric_scooter", "lat": 38.92319783333333, "fusion_lat": 0.0, "is_disabled": 0}, {"rental_uris": {"android": "https://dc.lft.to/lastmile_qr_scan", "ios": "https://dc.lft.to/lastmile_qr_scan"}, "lon": -77.02609866666667, "name": "e7b8d6212552b26a0913d547a382e55f", "fusion_lon": 0.0, "bike_id": "e7b8d6212552b26a0913d547a382e55f", "is_reserved": 0, "type": "electric_bike", "lat": 38.98080483333333, "fusion_lat": 0.0, "is_disabled": 0}, {"rental_uris": {"android": "https://dc.lft.to/lastmile_qr_scan", "ios": "https://dc.lft.to/lastmile_qr_scan"}, "lon": -77.04010516666666, "name": "9593213caa52f2f184638a76e103e8bf", "fusion_lon": 0.0, "bike_id": "9593213caa52f2f184638a76e103e8bf", "is_reserved": 0, "type": "electric_scooter", "lat": 38.918009166666664, "fusion_lat": 0.0, "is_disabled": 0}, {"rental_uris": {"android": "https://dc.lft.to/lastmile_qr_scan", "ios": "https://dc.lft.to/lastmile_qr_scan"}, "lon": -77.0327755, "name": "bd8d878e9ffadef708538eafaca3f241", "fusion_lon": 0.0, "bike_id": "bd8d878e9ffadef708538eafaca3f241", "is_reserved": 0, "type": "electric_scooter", "lat": 38.92748566666667, "fusion_lat": 0.0, "is_disabled": 0}, {"rental_uris": {"android": "https://dc.lft.to/lastmile_qr_scan", "ios": "https://dc.lft.to/lastmile_qr_scan"}, "lon": -77.03180116666667, "name": "7934cbed3e346b2334a10199eb52e3ea", "fusion_lon": 0.0, "bike_id": "7934cbed3e346b2334a10199eb52e3ea", "is_reserved": 0, "type": "electric_scooter", "lat": 38.919157166666665, "fusion_lat": 0.0, "is_disabled": 0}, {"rental_uris": {"android": "https://dc.lft.to/lastmile_qr_scan", "ios": "https://dc.lft.to/lastmile_qr_scan"}, "lon": -77.02963866666667, "name": "b7530bba78108f68af4e4b0474698585", "fusion_lon": 0.0, "bike_id": "b7530bba78108f68af4e4b0474698585", "is_reserved": 0, "type": "electric_scooter", "lat": 38.942221833333335, "fusion_lat": 0.0, "is_disabled": 0}, {"rental_uris": {"android": "https://dc.lft.to/lastmile_qr_scan", "ios": "https://dc.lft.to/lastmile_qr_scan"}, "lon": -77.052431, "name": "c7dbf0576d90403ea3c928ca12c0ba0e", "fusion_lon": 0.0, "bike_id": "c7dbf0576d90403ea3c928ca12c0ba0e", "is_reserved": 0, "type": "electric_scooter", "lat": 38.9235565, "fusion_lat": 0.0, "is_disabled": 0}, {"rental_uris": {"android": "https://dc.lft.to/lastmile_qr_scan", "ios": "https://dc.lft.to/lastmile_qr_scan"}, "lon": -77.08324083333333, "name": "786b1df42152f7b6dd468fe7f4ffcf65", "fusion_lon": 0.0, "bike_id": "786b1df42152f7b6dd468fe7f4ffcf65", "is_reserved": 0, "type": "electric_bike", "lat": 38.85431483333333, "fusion_lat": 0.0, "is_disabled": 0}, {"rental_uris": {"android": "https://dc.lft.to/lastmile_qr_scan", "ios": "https://dc.lft.to/lastmile_qr_scan"}, "lon": -77.01226383333334, "name": "c1e5a7bcf577f9697f2e0737139564dc", "fusion_lon": 0.0, "bike_id": "c1e5a7bcf577f9697f2e0737139564dc", "is_reserved": 0, "type": "electric_scooter", "lat": 38.901110333333335, "fusion_lat": 0.0, "is_disabled": 0}, {"rental_uris": {"android": "https://dc.lft.to/lastmile_qr_scan", "ios": "https://dc.lft.to/lastmile_qr_scan"}, "lon": -76.97590783333334, "name": "f5911b18a0a394c31e9b18421af8ac0f", "fusion_lon": 0.0, "bike_id": "f5911b18a0a394c31e9b18421af8ac0f", "is_reserved": 0, "type": "electric_scooter", "lat": 38.9033305, "fusion_lat": 0.0, "is_disabled": 0}, {"rental_uris": {"android": "https://dc.lft.to/lastmile_qr_scan", "ios": "https://dc.lft.to/lastmile_qr_scan"}, "lon": -77.031766, "name": "0b2efd31e5525ec0825ac6c3ec718ebe", "fusion_lon": 0.0, "bike_id": "0b2efd31e5525ec0825ac6c3ec718ebe", "is_reserved": 0, "type": "electric_scooter", "lat": 38.91412483333333, "fusion_lat": 0.0, "is_disabled": 0}, {"rental_uris": {"android": "https://dc.lft.to/lastmile_qr_scan", "ios": "https://dc.lft.to/lastmile_qr_scan"}, "lon": -76.99331983333333, "name": "a9a5be94f8fd39ac8b7b6dd048d8fab2", "fusion_lon": 0.0, "bike_id": "a9a5be94f8fd39ac8b7b6dd048d8fab2", "is_reserved": 0, "type": "electric_bike", "lat": 38.94673233333333, "fusion_lat": 0.0, "is_disabled": 0}, {"rental_uris": {"android": "https://dc.lft.to/lastmile_qr_scan", "ios": "https://dc.lft.to/lastmile_qr_scan"}, "lon": -77.04413533333333, "name": "3f423620be3c4b2790fc585301d7b35a", "fusion_lon": 0.0, "bike_id": "3f423620be3c4b2790fc585301d7b35a", "is_reserved": 0, "type": "electric_scooter", "lat": 38.9113225, "fusion_lat": 0.0, "is_disabled": 0}, {"rental_uris": {"android": "https://dc.lft.to/lastmile_qr_scan", "ios": "https://dc.lft.to/lastmile_qr_scan"}, "lon": -76.908562, "name": "406ded169e284108beae9995bd35c6cd", "fusion_lon": 0.0, "bike_id": "406ded169e284108beae9995bd35c6cd", "is_reserved": 0, "type": "electric_bike", "lat": 38.99882016666667, "fusion_lat": 0.0, "is_disabled": 0}, {"rental_uris": {"android": "https://dc.lft.to/lastmile_qr_scan", "ios": "https://dc.lft.to/lastmile_qr_scan"}, "lon": -77.03759983333333, "name": "a313e6fe06978146cec2a73b68555f71", "fusion_lon": 0.0, "bike_id": "a313e6fe06978146cec2a73b68555f71", "is_reserved": 0, "type": "electric_scooter", "lat": 38.91690283333333, "fusion_lat": 0.0, "is_disabled": 0}, {"rental_uris": {"android": "https://dc.lft.to/lastmile_qr_scan", "ios": "https://dc.lft.to/lastmile_qr_scan"}, "lon": -77.00607116666667, "name": "fd656c7043a06153d1b14ede4654d4e3", "fusion_lon": 0.0, "bike_id": "fd656c7043a06153d1b14ede4654d4e3", "is_reserved": 0, "type": "electric_scooter", "lat": 38.9064715, "fusion_lat": 0.0, "is_disabled": 0}, {"rental_uris": {"android": "https://dc.lft.to/lastmile_qr_scan", "ios": "https://dc.lft.to/lastmile_qr_scan"}, "lon": -76.99121216666667, "name": "c9a3890671cf679d89647c54a1033937", "fusion_lon": 0.0, "bike_id": "c9a3890671cf679d89647c54a1033937", "is_reserved": 0, "type": "electric_scooter", "lat": 38.89706066666667, "fusion_lat": 0.0, "is_disabled": 0}, {"rental_uris": {"android": "https://dc.lft.to/lastmile_qr_scan", "ios": "https://dc.lft.to/lastmile_qr_scan"}, "lon": -77.22907566666666, "name": "80078d2b710bb244490e3334dad23e7e", "fusion_lon": 0.0, "bike_id": "80078d2b710bb244490e3334dad23e7e", "is_reserved": 0, "type": "electric_bike", "lat": 38.870426333333334, "fusion_lat": 0.0, "is_disabled": 0}, {"rental_uris": {"android": "https://dc.lft.to/lastmile_qr_scan", "ios": "https://dc.lft.to/lastmile_qr_scan"}, "lon": -77.02036566666666, "name": "0ed7820798cdd1b0c428d5bc5395dedd", "fusion_lon": 0.0, "bike_id": "0ed7820798cdd1b0c428d5bc5395dedd", "is_reserved": 0, "type": "electric_scooter", "lat": 38.92437316666667, "fusion_lat": 0.0, "is_disabled": 0}, {"rental_uris": {"android": "https://dc.lft.to/lastmile_qr_scan", "ios": "https://dc.lft.to/lastmile_qr_scan"}, "lon": -77.058637, "name": "a87e41c53469ad363503889827b040dd", "fusion_lon": 0.0, "bike_id": "a87e41c53469ad363503889827b040dd", "is_reserved": 0, "type": "electric_scooter", "lat": 38.935844, "fusion_lat": 0.0, "is_disabled": 0}, {"rental_uris": {"android": "https://dc.lft.to/lastmile_qr_scan", "ios": "https://dc.lft.to/lastmile_qr_scan"}, "lon": -77.04613466666666, "name": "7faff8a25ca13519a0114b7907ade5ef", "fusion_lon": 0.0, "bike_id": "7faff8a25ca13519a0114b7907ade5ef", "is_reserved": 0, "type": "electric_scooter", "lat": 38.91073216666667, "fusion_lat": 0.0, "is_disabled": 0}, {"rental_uris": {"android": "https://dc.lft.to/lastmile_qr_scan", "ios": "https://dc.lft.to/lastmile_qr_scan"}, "lon": -77.050601, "name": "1a9cf056f583ad022d05590f0f221ce9", "fusion_lon": 0.0, "bike_id": "1a9cf056f583ad022d05590f0f221ce9", "is_reserved": 0, "type": "electric_scooter", "lat": 38.9016225, "fusion_lat": 0.0, "is_disabled": 0}, {"rental_uris": {"android": "https://dc.lft.to/lastmile_qr_scan", "ios": "https://dc.lft.to/lastmile_qr_scan"}, "lon": -77.02070283333333, "name": "2094d78298ec88a4662481dac71e9c33", "fusion_lon": 0.0, "bike_id": "2094d78298ec88a4662481dac71e9c33", "is_reserved": 0, "type": "electric_scooter", "lat": 38.949122833333334, "fusion_lat": 0.0, "is_disabled": 0}, {"rental_uris": {"android": "https://dc.lft.to/lastmile_qr_scan", "ios": "https://dc.lft.to/lastmile_qr_scan"}, "lon": -77.02104833333334, "name": "fcbf18e488f6a8285c2bf199e799ad34", "fusion_lon": 0.0, "bike_id": "fcbf18e488f6a8285c2bf199e799ad34", "is_reserved": 0, "type": "electric_scooter", "lat": 38.90183183333333, "fusion_lat": 0.0, "is_disabled": 0}, {"rental_uris": {"android": "https://dc.lft.to/lastmile_qr_scan", "ios": "https://dc.lft.to/lastmile_qr_scan"}, "lon": -77.03047583333333, "name": "1a9e504c6e23f031e99dd9c5c3293401", "fusion_lon": 0.0, "bike_id": "1a9e504c6e23f031e99dd9c5c3293401", "is_reserved": 0, "type": "electric_scooter", "lat": 38.90115866666667, "fusion_lat": 0.0, "is_disabled": 0}, {"rental_uris": {"android": "https://dc.lft.to/lastmile_qr_scan", "ios": "https://dc.lft.to/lastmile_qr_scan"}, "lon": -76.99571016666667, "name": "dd75f8bca4ef964cd9737165f8042b81", "fusion_lon": 0.0, "bike_id": "dd75f8bca4ef964cd9737165f8042b81", "is_reserved": 0, "type": "electric_scooter", "lat": 38.884689, "fusion_lat": 0.0, "is_disabled": 0}, {"rental_uris": {"android": "https://dc.lft.to/lastmile_qr_scan", "ios": "https://dc.lft.to/lastmile_qr_scan"}, "lon": -77.0243795, "name": "edb31406838ba5881e2daab4a52f5975", "fusion_lon": 0.0, "bike_id": "edb31406838ba5881e2daab4a52f5975", "is_reserved": 0, "type": "electric_scooter", "lat": 38.894668, "fusion_lat": 0.0, "is_disabled": 0}, {"rental_uris": {"android": "https://dc.lft.to/lastmile_qr_scan", "ios": "https://dc.lft.to/lastmile_qr_scan"}, "lon": -77.03473333333334, "name": "122215cc577f4e5d5a61ba307ed696eb", "fusion_lon": 0.0, "bike_id": "122215cc577f4e5d5a61ba307ed696eb", "is_reserved": 0, "type": "electric_scooter", "lat": 38.90559483333333, "fusion_lat": 0.0, "is_disabled": 0}, {"rental_uris": {"android": "https://dc.lft.to/lastmile_qr_scan", "ios": "https://dc.lft.to/lastmile_qr_scan"}, "lon": -77.0374875, "name": "5a623f5254e0a424012dfb6f68fe361b", "fusion_lon": 0.0, "bike_id": "5a623f5254e0a424012dfb6f68fe361b", "is_reserved": 0, "type": "electric_scooter", "lat": 38.902359, "fusion_lat": 0.0, "is_disabled": 0}, {"rental_uris": {"android": "https://dc.lft.to/lastmile_qr_scan", "ios": "https://dc.lft.to/lastmile_qr_scan"}, "lon": -77.049993, "name": "970330a2f4aae9bcd60d8e4a1a6fe9b9", "fusion_lon": 0.0, "bike_id": "970330a2f4aae9bcd60d8e4a1a6fe9b9", "is_reserved": 0, "type": "electric_scooter", "lat": 38.901269, "fusion_lat": 0.0, "is_disabled": 0}, {"rental_uris": {"android": "https://dc.lft.to/lastmile_qr_scan", "ios": "https://dc.lft.to/lastmile_qr_scan"}, "lon": -77.02688416666666, "name": "91f08709838415e39d7a9a4a112c1b86", "fusion_lon": 0.0, "bike_id": "91f08709838415e39d7a9a4a112c1b86", "is_reserved": 0, "type": "electric_scooter", "lat": 38.907188833333336, "fusion_lat": 0.0, "is_disabled": 0}, {"rental_uris": {"android": "https://dc.lft.to/lastmile_qr_scan", "ios": "https://dc.lft.to/lastmile_qr_scan"}, "lon": -77.02189616666666, "name": "d133923e11310ef0716e3d6de06065f8", "fusion_lon": 0.0, "bike_id": "d133923e11310ef0716e3d6de06065f8", "is_reserved": 0, "type": "electric_scooter", "lat": 38.897164, "fusion_lat": 0.0, "is_disabled": 0}, {"rental_uris": {"android": "https://dc.lft.to/lastmile_qr_scan", "ios": "https://dc.lft.to/lastmile_qr_scan"}, "lon": -77.019559, "name": "26f7786d817576dff6ea5b88229d641e", "fusion_lon": 0.0, "bike_id": "26f7786d817576dff6ea5b88229d641e", "is_reserved": 0, "type": "electric_scooter", "lat": 38.917526, "fusion_lat": 0.0, "is_disabled": 0}, {"rental_uris": {"android": "https://dc.lft.to/lastmile_qr_scan", "ios": "https://dc.lft.to/lastmile_qr_scan"}, "lon": -77.015111, "name": "2e0fb0a6b56a50ad658f9eabebf77c13", "fusion_lon": 0.0, "bike_id": "2e0fb0a6b56a50ad658f9eabebf77c13", "is_reserved": 0, "type": "electric_scooter", "lat": 38.92672533333333, "fusion_lat": 0.0, "is_disabled": 0}, {"rental_uris": {"android": "https://dc.lft.to/lastmile_qr_scan", "ios": "https://dc.lft.to/lastmile_qr_scan"}, "lon": -77.03194333333333, "name": "34ff210acf9b907a21edcaf6a1ed7562", "fusion_lon": 0.0, "bike_id": "34ff210acf9b907a21edcaf6a1ed7562", "is_reserved": 0, "type": "electric_scooter", "lat": 38.903306666666666, "fusion_lat": 0.0, "is_disabled": 0}, {"rental_uris": {"android": "https://dc.lft.to/lastmile_qr_scan", "ios": "https://dc.lft.to/lastmile_qr_scan"}, "lon": -77.03130233333333, "name": "144b1831adb21dac64f680cdeb0ea478", "fusion_lon": 0.0, "bike_id": "144b1831adb21dac64f680cdeb0ea478", "is_reserved": 0, "type": "electric_bike", "lat": 38.93179466666667, "fusion_lat": 0.0, "is_disabled": 0}, {"rental_uris": {"android": "https://dc.lft.to/lastmile_qr_scan", "ios": "https://dc.lft.to/lastmile_qr_scan"}, "lon": -77.02564333333333, "name": "404ca2220f4bbee8d8c71f7b1cc41813", "fusion_lon": 0.0, "bike_id": "404ca2220f4bbee8d8c71f7b1cc41813", "is_reserved": 0, "type": "electric_scooter", "lat": 38.93352483333334, "fusion_lat": 0.0, "is_disabled": 0}, {"rental_uris": {"android": "https://dc.lft.to/lastmile_qr_scan", "ios": "https://dc.lft.to/lastmile_qr_scan"}, "lon": -77.0265805, "name": "816bd250707d829548deacf6c53fff64", "fusion_lon": 0.0, "bike_id": "816bd250707d829548deacf6c53fff64", "is_reserved": 0, "type": "electric_scooter", "lat": 38.894823333333335, "fusion_lat": 0.0, "is_disabled": 0}, {"rental_uris": {"android": "https://dc.lft.to/lastmile_qr_scan", "ios": "https://dc.lft.to/lastmile_qr_scan"}, "lon": -77.04192633333334, "name": "9a6455850d074c43e4b09290ab4e1f05", "fusion_lon": 0.0, "bike_id": "9a6455850d074c43e4b09290ab4e1f05", "is_reserved": 0, "type": "electric_scooter", "lat": 38.9205385, "fusion_lat": 0.0, "is_disabled": 0}, {"rental_uris": {"android": "https://dc.lft.to/lastmile_qr_scan", "ios": "https://dc.lft.to/lastmile_qr_scan"}, "lon": -77.022559, "name": "fde993fa931f8447ddea1791a552541f", "fusion_lon": 0.0, "bike_id": "fde993fa931f8447ddea1791a552541f", "is_reserved": 0, "type": "electric_scooter", "lat": 38.92684366666667, "fusion_lat": 0.0, "is_disabled": 0}, {"rental_uris": {"android": "https://dc.lft.to/lastmile_qr_scan", "ios": "https://dc.lft.to/lastmile_qr_scan"}, "lon": -77.056973, "name": "5774a305b1c95daa295e1cd914f157c7", "fusion_lon": 0.0, "bike_id": "5774a305b1c95daa295e1cd914f157c7", "is_reserved": 0, "type": "electric_scooter", "lat": 38.9335985, "fusion_lat": 0.0, "is_disabled": 0}, {"rental_uris": {"android": "https://dc.lft.to/lastmile_qr_scan", "ios": "https://dc.lft.to/lastmile_qr_scan"}, "lon": -77.02119383333333, "name": "d0ea54b38cc92dc6b36d63df495674de", "fusion_lon": 0.0, "bike_id": "d0ea54b38cc92dc6b36d63df495674de", "is_reserved": 0, "type": "electric_scooter", "lat": 38.930055833333334, "fusion_lat": 0.0, "is_disabled": 0}, {"rental_uris": {"android": "https://dc.lft.to/lastmile_qr_scan", "ios": "https://dc.lft.to/lastmile_qr_scan"}, "lon": -77.04218833333333, "name": "0fb6e492839ebd3ab6fa3fab0853cfa6", "fusion_lon": 0.0, "bike_id": "0fb6e492839ebd3ab6fa3fab0853cfa6", "is_reserved": 0, "type": "electric_scooter", "lat": 38.9074955, "fusion_lat": 0.0, "is_disabled": 0}, {"rental_uris": {"android": "https://dc.lft.to/lastmile_qr_scan", "ios": "https://dc.lft.to/lastmile_qr_scan"}, "lon": -77.0280145, "name": "2e92df8c753fe47e1f3858deda98873e", "fusion_lon": 0.0, "bike_id": "2e92df8c753fe47e1f3858deda98873e", "is_reserved": 0, "type": "electric_scooter", "lat": 38.89605666666667, "fusion_lat": 0.0, "is_disabled": 0}, {"rental_uris": {"android": "https://dc.lft.to/lastmile_qr_scan", "ios": "https://dc.lft.to/lastmile_qr_scan"}, "lon": -77.09527666666666, "name": "274595a8f249ea1444fe2eedd786fb4d", "fusion_lon": 0.0, "bike_id": "274595a8f249ea1444fe2eedd786fb4d", "is_reserved": 0, "type": "electric_bike", "lat": 38.8380735, "fusion_lat": 0.0, "is_disabled": 0}, {"rental_uris": {"android": "https://dc.lft.to/lastmile_qr_scan", "ios": "https://dc.lft.to/lastmile_qr_scan"}, "lon": -77.03215433333334, "name": "bcdd8a99994b612f6e65499f624195fd", "fusion_lon": 0.0, "bike_id": "bcdd8a99994b612f6e65499f624195fd", "is_reserved": 0, "type": "electric_scooter", "lat": 38.91472316666667, "fusion_lat": 0.0, "is_disabled": 0}, {"rental_uris": {"android": "https://dc.lft.to/lastmile_qr_scan", "ios": "https://dc.lft.to/lastmile_qr_scan"}, "lon": -76.97620633333334, "name": "c1bdea836a02b21945a6e5e6b12e4626", "fusion_lon": 0.0, "bike_id": "c1bdea836a02b21945a6e5e6b12e4626", "is_reserved": 0, "type": "electric_bike", "lat": 38.84032783333333, "fusion_lat": 0.0, "is_disabled": 0}, {"rental_uris": {"android": "https://dc.lft.to/lastmile_qr_scan", "ios": "https://dc.lft.to/lastmile_qr_scan"}, "lon": -77.04190233333334, "name": "acb36ecd0310ae9ee02737dfd6953033", "fusion_lon": 0.0, "bike_id": "acb36ecd0310ae9ee02737dfd6953033", "is_reserved": 0, "type": "electric_scooter", "lat": 38.905420666666664, "fusion_lat": 0.0, "is_disabled": 0}, {"rental_uris": {"android": "https://dc.lft.to/lastmile_qr_scan", "ios": "https://dc.lft.to/lastmile_qr_scan"}, "lon": -77.020098, "name": "1870056ad2045f1a3dcad6a6cc9f1b4e", "fusion_lon": 0.0, "bike_id": "1870056ad2045f1a3dcad6a6cc9f1b4e", "is_reserved": 0, "type": "electric_scooter", "lat": 38.9350655, "fusion_lat": 0.0, "is_disabled": 0}, {"rental_uris": {"android": "https://dc.lft.to/lastmile_qr_scan", "ios": "https://dc.lft.to/lastmile_qr_scan"}, "lon": -77.026458, "name": "c74b75089282075e2afbf3f1d914c88e", "fusion_lon": 0.0, "bike_id": "c74b75089282075e2afbf3f1d914c88e", "is_reserved": 0, "type": "electric_scooter", "lat": 38.982246, "fusion_lat": 0.0, "is_disabled": 0}, {"rental_uris": {"android": "https://dc.lft.to/lastmile_qr_scan", "ios": "https://dc.lft.to/lastmile_qr_scan"}, "lon": -76.99323683333333, "name": "040d0a1c2c972b57749594fb4e3c4305", "fusion_lon": 0.0, "bike_id": "040d0a1c2c972b57749594fb4e3c4305", "is_reserved": 0, "type": "electric_scooter", "lat": 38.876551666666664, "fusion_lat": 0.0, "is_disabled": 0}, {"rental_uris": {"android": "https://dc.lft.to/lastmile_qr_scan", "ios": "https://dc.lft.to/lastmile_qr_scan"}, "lon": -76.996742, "name": "49f8aa9839dc7f618184f872929b041c", "fusion_lon": 0.0, "bike_id": "49f8aa9839dc7f618184f872929b041c", "is_reserved": 0, "type": "electric_scooter", "lat": 38.885131, "fusion_lat": 0.0, "is_disabled": 0}, {"rental_uris": {"android": "https://dc.lft.to/lastmile_qr_scan", "ios": "https://dc.lft.to/lastmile_qr_scan"}, "lon": -77.03186833333334, "name": "d5d6a195e1d0b85a3dae49dbd8eb47b2", "fusion_lon": 0.0, "bike_id": "d5d6a195e1d0b85a3dae49dbd8eb47b2", "is_reserved": 0, "type": "electric_scooter", "lat": 38.916879, "fusion_lat": 0.0, "is_disabled": 0}, {"rental_uris": {"android": "https://dc.lft.to/lastmile_qr_scan", "ios": "https://dc.lft.to/lastmile_qr_scan"}, "lon": -77.06328766666667, "name": "74ea6d5dd2bb7158592342cd260d73d3", "fusion_lon": 0.0, "bike_id": "74ea6d5dd2bb7158592342cd260d73d3", "is_reserved": 0, "type": "electric_scooter", "lat": 38.944142166666666, "fusion_lat": 0.0, "is_disabled": 0}, {"rental_uris": {"android": "https://dc.lft.to/lastmile_qr_scan", "ios": "https://dc.lft.to/lastmile_qr_scan"}, "lon": -77.02384983333333, "name": "3cbc583653eaf5b9c109b74008f02e28", "fusion_lon": 0.0, "bike_id": "3cbc583653eaf5b9c109b74008f02e28", "is_reserved": 0, "type": "electric_scooter", "lat": 38.892361333333334, "fusion_lat": 0.0, "is_disabled": 0}, {"rental_uris": {"android": "https://dc.lft.to/lastmile_qr_scan", "ios": "https://dc.lft.to/lastmile_qr_scan"}, "lon": -77.02164366666666, "name": "0ae4fcc09d69bedf7101d74d943f05b3", "fusion_lon": 0.0, "bike_id": "0ae4fcc09d69bedf7101d74d943f05b3", "is_reserved": 0, "type": "electric_scooter", "lat": 38.92491316666667, "fusion_lat": 0.0, "is_disabled": 0}, {"rental_uris": {"android": "https://dc.lft.to/lastmile_qr_scan", "ios": "https://dc.lft.to/lastmile_qr_scan"}, "lon": -77.00202983333334, "name": "3eba50cc1e8336147fe6074886ba1e12", "fusion_lon": 0.0, "bike_id": "3eba50cc1e8336147fe6074886ba1e12", "is_reserved": 0, "type": "electric_scooter", "lat": 38.9023565, "fusion_lat": 0.0, "is_disabled": 0}, {"rental_uris": {"android": "https://dc.lft.to/lastmile_qr_scan", "ios": "https://dc.lft.to/lastmile_qr_scan"}, "lon": -77.00914033333333, "name": "ba939e582e123ab5edfe5bb7f70f131f", "fusion_lon": 0.0, "bike_id": "ba939e582e123ab5edfe5bb7f70f131f", "is_reserved": 0, "type": "electric_scooter", "lat": 38.957523, "fusion_lat": 0.0, "is_disabled": 0}, {"rental_uris": {"android": "https://dc.lft.to/lastmile_qr_scan", "ios": "https://dc.lft.to/lastmile_qr_scan"}, "lon": -77.02677233333333, "name": "b9e55f2a1a8a532af9ed1f30bcffc1db", "fusion_lon": 0.0, "bike_id": "b9e55f2a1a8a532af9ed1f30bcffc1db", "is_reserved": 0, "type": "electric_scooter", "lat": 38.921656166666665, "fusion_lat": 0.0, "is_disabled": 0}, {"rental_uris": {"android": "https://dc.lft.to/lastmile_qr_scan", "ios": "https://dc.lft.to/lastmile_qr_scan"}, "lon": -77.06622233333333, "name": "15e556ee1f35be5841a2ec7886f05cad", "fusion_lon": 0.0, "bike_id": "15e556ee1f35be5841a2ec7886f05cad", "is_reserved": 0, "type": "electric_scooter", "lat": 38.9116965, "fusion_lat": 0.0, "is_disabled": 0}, {"rental_uris": {"android": "https://dc.lft.to/lastmile_qr_scan", "ios": "https://dc.lft.to/lastmile_qr_scan"}, "lon": -77.02180316666667, "name": "80c78803d12c107b43f748b307eabbf9", "fusion_lon": 0.0, "bike_id": "80c78803d12c107b43f748b307eabbf9", "is_reserved": 0, "type": "electric_scooter", "lat": 38.943107, "fusion_lat": 0.0, "is_disabled": 0}, {"rental_uris": {"android": "https://dc.lft.to/lastmile_qr_scan", "ios": "https://dc.lft.to/lastmile_qr_scan"}, "lon": -77.0290825, "name": "1699bb0df66fa723ae850b0f3bef16d2", "fusion_lon": 0.0, "bike_id": "1699bb0df66fa723ae850b0f3bef16d2", "is_reserved": 0, "type": "electric_scooter", "lat": 38.92307183333333, "fusion_lat": 0.0, "is_disabled": 0}, {"rental_uris": {"android": "https://dc.lft.to/lastmile_qr_scan", "ios": "https://dc.lft.to/lastmile_qr_scan"}, "lon": -77.010751, "name": "aa4555ffe99e1ed00c85ea4773703e19", "fusion_lon": 0.0, "bike_id": "aa4555ffe99e1ed00c85ea4773703e19", "is_reserved": 0, "type": "electric_scooter", "lat": 38.917081, "fusion_lat": 0.0, "is_disabled": 0}, {"rental_uris": {"android": "https://dc.lft.to/lastmile_qr_scan", "ios": "https://dc.lft.to/lastmile_qr_scan"}, "lon": -77.028009, "name": "ac477998314c4b7cee357c631f2bceca", "fusion_lon": 0.0, "bike_id": "ac477998314c4b7cee357c631f2bceca", "is_reserved": 0, "type": "electric_scooter", "lat": 38.907194833333335, "fusion_lat": 0.0, "is_disabled": 0}, {"rental_uris": {"android": "https://dc.lft.to/lastmile_qr_scan", "ios": "https://dc.lft.to/lastmile_qr_scan"}, "lon": -77.026447, "name": "3a6360e72e511741f94c1a052206fbe7", "fusion_lon": 0.0, "bike_id": "3a6360e72e511741f94c1a052206fbe7", "is_reserved": 0, "type": "electric_scooter", "lat": 38.90244633333333, "fusion_lat": 0.0, "is_disabled": 0}, {"rental_uris": {"android": "https://dc.lft.to/lastmile_qr_scan", "ios": "https://dc.lft.to/lastmile_qr_scan"}, "lon": -77.02708783333334, "name": "bb9f8c3f7405b125d6498f55342a6bdf", "fusion_lon": 0.0, "bike_id": "bb9f8c3f7405b125d6498f55342a6bdf", "is_reserved": 0, "type": "electric_scooter", "lat": 38.900838, "fusion_lat": 0.0, "is_disabled": 0}, {"rental_uris": {"android": "https://dc.lft.to/lastmile_qr_scan", "ios": "https://dc.lft.to/lastmile_qr_scan"}, "lon": -77.02346333333334, "name": "ab91c8ea8891c02a481174073a6b240e", "fusion_lon": 0.0, "bike_id": "ab91c8ea8891c02a481174073a6b240e", "is_reserved": 0, "type": "electric_scooter", "lat": 38.94965916666666, "fusion_lat": 0.0, "is_disabled": 0}, {"rental_uris": {"android": "https://dc.lft.to/lastmile_qr_scan", "ios": "https://dc.lft.to/lastmile_qr_scan"}, "lon": -77.07253966666667, "name": "23c5478bb0f7fc0638c12e294ca55f4b", "fusion_lon": 0.0, "bike_id": "23c5478bb0f7fc0638c12e294ca55f4b", "is_reserved": 0, "type": "electric_scooter", "lat": 38.907772333333334, "fusion_lat": 0.0, "is_disabled": 0}, {"rental_uris": {"android": "https://dc.lft.to/lastmile_qr_scan", "ios": "https://dc.lft.to/lastmile_qr_scan"}, "lon": -77.02393866666667, "name": "1c9c446f0f7e66467c7552552edfcebe", "fusion_lon": 0.0, "bike_id": "1c9c446f0f7e66467c7552552edfcebe", "is_reserved": 0, "type": "electric_scooter", "lat": 38.9070805, "fusion_lat": 0.0, "is_disabled": 0}, {"rental_uris": {"android": "https://dc.lft.to/lastmile_qr_scan", "ios": "https://dc.lft.to/lastmile_qr_scan"}, "lon": -77.041981, "name": "3017b699a432eefe70d8c1926314f721", "fusion_lon": 0.0, "bike_id": "3017b699a432eefe70d8c1926314f721", "is_reserved": 0, "type": "electric_scooter", "lat": 38.905638833333335, "fusion_lat": 0.0, "is_disabled": 0}, {"rental_uris": {"android": "https://dc.lft.to/lastmile_qr_scan", "ios": "https://dc.lft.to/lastmile_qr_scan"}, "lon": -77.00337083333334, "name": "ee7f606443cbcb93ce066e8adccaa8af", "fusion_lon": 0.0, "bike_id": "ee7f606443cbcb93ce066e8adccaa8af", "is_reserved": 0, "type": "electric_scooter", "lat": 38.889846, "fusion_lat": 0.0, "is_disabled": 0}, {"rental_uris": {"android": "https://dc.lft.to/lastmile_qr_scan", "ios": "https://dc.lft.to/lastmile_qr_scan"}, "lon": -77.03865883333333, "name": "6a560703d6dd54b1e8ac6742e8d0d855", "fusion_lon": 0.0, "bike_id": "6a560703d6dd54b1e8ac6742e8d0d855", "is_reserved": 0, "type": "electric_scooter", "lat": 38.917126, "fusion_lat": 0.0, "is_disabled": 0}, {"rental_uris": {"android": "https://dc.lft.to/lastmile_qr_scan", "ios": "https://dc.lft.to/lastmile_qr_scan"}, "lon": -77.03639166666666, "name": "fa257ecd6a72373056f89c9c731bde5f", "fusion_lon": 0.0, "bike_id": "fa257ecd6a72373056f89c9c731bde5f", "is_reserved": 0, "type": "electric_scooter", "lat": 38.91818266666667, "fusion_lat": 0.0, "is_disabled": 0}, {"rental_uris": {"android": "https://dc.lft.to/lastmile_qr_scan", "ios": "https://dc.lft.to/lastmile_qr_scan"}, "lon": -76.96528816666667, "name": "0b596ae7c5340133f3bea4f6d1fe81b7", "fusion_lon": 0.0, "bike_id": "0b596ae7c5340133f3bea4f6d1fe81b7", "is_reserved": 0, "type": "electric_bike", "lat": 38.874719999999996, "fusion_lat": 0.0, "is_disabled": 0}, {"rental_uris": {"android": "https://dc.lft.to/lastmile_qr_scan", "ios": "https://dc.lft.to/lastmile_qr_scan"}, "lon": -77.03454366666666, "name": "26512b5fdd0e2f774dce60e4251f64c5", "fusion_lon": 0.0, "bike_id": "26512b5fdd0e2f774dce60e4251f64c5", "is_reserved": 0, "type": "electric_scooter", "lat": 38.906463, "fusion_lat": 0.0, "is_disabled": 0}, {"rental_uris": {"android": "https://dc.lft.to/lastmile_qr_scan", "ios": "https://dc.lft.to/lastmile_qr_scan"}, "lon": -77.01616516666667, "name": "7524bca1df9d9da75bc38ebdcb7d6e9f", "fusion_lon": 0.0, "bike_id": "7524bca1df9d9da75bc38ebdcb7d6e9f", "is_reserved": 0, "type": "electric_scooter", "lat": 38.89968183333333, "fusion_lat": 0.0, "is_disabled": 0}, {"rental_uris": {"android": "https://dc.lft.to/lastmile_qr_scan", "ios": "https://dc.lft.to/lastmile_qr_scan"}, "lon": -77.0284165, "name": "80c928ef547e2688008e8e233461631b", "fusion_lon": 0.0, "bike_id": "80c928ef547e2688008e8e233461631b", "is_reserved": 0, "type": "electric_scooter", "lat": 38.932769, "fusion_lat": 0.0, "is_disabled": 0}, {"rental_uris": {"android": "https://dc.lft.to/lastmile_qr_scan", "ios": "https://dc.lft.to/lastmile_qr_scan"}, "lon": -77.02695533333333, "name": "2c8a008c4fa54ebe0c9cbbbbc1062a28", "fusion_lon": 0.0, "bike_id": "2c8a008c4fa54ebe0c9cbbbbc1062a28", "is_reserved": 0, "type": "electric_scooter", "lat": 38.92399916666667, "fusion_lat": 0.0, "is_disabled": 0}, {"rental_uris": {"android": "https://dc.lft.to/lastmile_qr_scan", "ios": "https://dc.lft.to/lastmile_qr_scan"}, "lon": -77.0328275, "name": "170e4e5cb5f6a8fa30da34761d8575e6", "fusion_lon": 0.0, "bike_id": "170e4e5cb5f6a8fa30da34761d8575e6", "is_reserved": 0, "type": "electric_scooter", "lat": 38.93963883333333, "fusion_lat": 0.0, "is_disabled": 0}, {"rental_uris": {"android": "https://dc.lft.to/lastmile_qr_scan", "ios": "https://dc.lft.to/lastmile_qr_scan"}, "lon": -76.95228983333334, "name": "51f6ab4bf69bb6a8ae24d263ccc6e5c2", "fusion_lon": 0.0, "bike_id": "51f6ab4bf69bb6a8ae24d263ccc6e5c2", "is_reserved": 0, "type": "electric_bike", "lat": 38.8480715, "fusion_lat": 0.0, "is_disabled": 0}, {"rental_uris": {"android": "https://dc.lft.to/lastmile_qr_scan", "ios": "https://dc.lft.to/lastmile_qr_scan"}, "lon": -77.03235283333333, "name": "ce1b96f3336992485fc2598a11b6f50b", "fusion_lon": 0.0, "bike_id": "ce1b96f3336992485fc2598a11b6f50b", "is_reserved": 0, "type": "electric_scooter", "lat": 38.926831166666666, "fusion_lat": 0.0, "is_disabled": 0}, {"rental_uris": {"android": "https://dc.lft.to/lastmile_qr_scan", "ios": "https://dc.lft.to/lastmile_qr_scan"}, "lon": -77.03368216666667, "name": "b687cf40c7c3a8b420187cf5f588a181", "fusion_lon": 0.0, "bike_id": "b687cf40c7c3a8b420187cf5f588a181", "is_reserved": 0, "type": "electric_scooter", "lat": 38.92361266666666, "fusion_lat": 0.0, "is_disabled": 0}, {"rental_uris": {"android": "https://dc.lft.to/lastmile_qr_scan", "ios": "https://dc.lft.to/lastmile_qr_scan"}, "lon": -77.03748883333333, "name": "82c4cb4de5b18e4c53e38b72aed19e82", "fusion_lon": 0.0, "bike_id": "82c4cb4de5b18e4c53e38b72aed19e82", "is_reserved": 0, "type": "electric_scooter", "lat": 38.930800166666664, "fusion_lat": 0.0, "is_disabled": 0}, {"rental_uris": {"android": "https://dc.lft.to/lastmile_qr_scan", "ios": "https://dc.lft.to/lastmile_qr_scan"}, "lon": -76.97479433333334, "name": "fd7a108d545346e5ffd790fedf8ebe7f", "fusion_lon": 0.0, "bike_id": "fd7a108d545346e5ffd790fedf8ebe7f", "is_reserved": 0, "type": "electric_scooter", "lat": 38.871744666666665, "fusion_lat": 0.0, "is_disabled": 0}, {"rental_uris": {"android": "https://dc.lft.to/lastmile_qr_scan", "ios": "https://dc.lft.to/lastmile_qr_scan"}, "lon": -77.04201783333333, "name": "58df314f2c39aeb7cac4e72eeb793c06", "fusion_lon": 0.0, "bike_id": "58df314f2c39aeb7cac4e72eeb793c06", "is_reserved": 0, "type": "electric_scooter", "lat": 38.902575166666665, "fusion_lat": 0.0, "is_disabled": 0}, {"rental_uris": {"android": "https://dc.lft.to/lastmile_qr_scan", "ios": "https://dc.lft.to/lastmile_qr_scan"}, "lon": -77.00199866666667, "name": "bffc7c82b173b6cfe68c082387e2a86d", "fusion_lon": 0.0, "bike_id": "bffc7c82b173b6cfe68c082387e2a86d", "is_reserved": 0, "type": "electric_scooter", "lat": 38.8867945, "fusion_lat": 0.0, "is_disabled": 0}, {"rental_uris": {"android": "https://dc.lft.to/lastmile_qr_scan", "ios": "https://dc.lft.to/lastmile_qr_scan"}, "lon": -77.00066666666666, "name": "1441830562420551504b11488dc88167", "fusion_lon": 0.0, "bike_id": "1441830562420551504b11488dc88167", "is_reserved": 0, "type": "electric_scooter", "lat": 38.875141, "fusion_lat": 0.0, "is_disabled": 0}, {"rental_uris": {"android": "https://dc.lft.to/lastmile_qr_scan", "ios": "https://dc.lft.to/lastmile_qr_scan"}, "lon": -77.02476216666666, "name": "a670c03266f0c6023a556a10c22cdf43", "fusion_lon": 0.0, "bike_id": "a670c03266f0c6023a556a10c22cdf43", "is_reserved": 0, "type": "electric_scooter", "lat": 38.930996, "fusion_lat": 0.0, "is_disabled": 0}, {"rental_uris": {"android": "https://dc.lft.to/lastmile_qr_scan", "ios": "https://dc.lft.to/lastmile_qr_scan"}, "lon": -77.0275835, "name": "bacc3197cfe7c77d25521e1626b5dc51", "fusion_lon": 0.0, "bike_id": "bacc3197cfe7c77d25521e1626b5dc51", "is_reserved": 0, "type": "electric_scooter", "lat": 38.939529, "fusion_lat": 0.0, "is_disabled": 0}, {"rental_uris": {"android": "https://dc.lft.to/lastmile_qr_scan", "ios": "https://dc.lft.to/lastmile_qr_scan"}, "lon": -77.03423966666666, "name": "54d2a86866201d48cef53e5e26ae138e", "fusion_lon": 0.0, "bike_id": "54d2a86866201d48cef53e5e26ae138e", "is_reserved": 0, "type": "electric_scooter", "lat": 38.903747, "fusion_lat": 0.0, "is_disabled": 0}, {"rental_uris": {"android": "https://dc.lft.to/lastmile_qr_scan", "ios": "https://dc.lft.to/lastmile_qr_scan"}, "lon": -77.01953966666666, "name": "895f84b05ad6b5570dc34710f253e839", "fusion_lon": 0.0, "bike_id": "895f84b05ad6b5570dc34710f253e839", "is_reserved": 0, "type": "electric_scooter", "lat": 38.92250683333333, "fusion_lat": 0.0, "is_disabled": 0}, {"rental_uris": {"android": "https://dc.lft.to/lastmile_qr_scan", "ios": "https://dc.lft.to/lastmile_qr_scan"}, "lon": -77.034628, "name": "a78001c618648befd0c3aab800b0b650", "fusion_lon": 0.0, "bike_id": "a78001c618648befd0c3aab800b0b650", "is_reserved": 0, "type": "electric_scooter", "lat": 38.917143333333335, "fusion_lat": 0.0, "is_disabled": 0}, {"rental_uris": {"android": "https://dc.lft.to/lastmile_qr_scan", "ios": "https://dc.lft.to/lastmile_qr_scan"}, "lon": -76.9991205, "name": "c4a47d40c0ff2dbb6f61d1cf7cbe3dbd", "fusion_lon": 0.0, "bike_id": "c4a47d40c0ff2dbb6f61d1cf7cbe3dbd", "is_reserved": 0, "type": "electric_scooter", "lat": 38.92459083333333, "fusion_lat": 0.0, "is_disabled": 0}, {"rental_uris": {"android": "https://dc.lft.to/lastmile_qr_scan", "ios": "https://dc.lft.to/lastmile_qr_scan"}, "lon": -77.023869, "name": "9e4c1d0bc30ca91fc44d9af4c2a3dceb", "fusion_lon": 0.0, "bike_id": "9e4c1d0bc30ca91fc44d9af4c2a3dceb", "is_reserved": 0, "type": "electric_scooter", "lat": 38.90990133333333, "fusion_lat": 0.0, "is_disabled": 0}, {"rental_uris": {"android": "https://dc.lft.to/lastmile_qr_scan", "ios": "https://dc.lft.to/lastmile_qr_scan"}, "lon": -77.057221, "name": "a97ca5fbe1ea1042dfce7f32e32dc6a0", "fusion_lon": 0.0, "bike_id": "a97ca5fbe1ea1042dfce7f32e32dc6a0", "is_reserved": 0, "type": "electric_bike", "lat": 38.917018166666665, "fusion_lat": 0.0, "is_disabled": 0}, {"rental_uris": {"android": "https://dc.lft.to/lastmile_qr_scan", "ios": "https://dc.lft.to/lastmile_qr_scan"}, "lon": -77.00333116666667, "name": "d2d968e7120c8ff01875130390d7e46b", "fusion_lon": 0.0, "bike_id": "d2d968e7120c8ff01875130390d7e46b", "is_reserved": 0, "type": "electric_scooter", "lat": 38.91882733333333, "fusion_lat": 0.0, "is_disabled": 0}, {"rental_uris": {"android": "https://dc.lft.to/lastmile_qr_scan", "ios": "https://dc.lft.to/lastmile_qr_scan"}, "lon": -77.032634, "name": "9d52609e3bac8eb6a7a8e33aa1370a5e", "fusion_lon": 0.0, "bike_id": "9d52609e3bac8eb6a7a8e33aa1370a5e", "is_reserved": 0, "type": "electric_scooter", "lat": 38.92737966666667, "fusion_lat": 0.0, "is_disabled": 0}, {"rental_uris": {"android": "https://dc.lft.to/lastmile_qr_scan", "ios": "https://dc.lft.to/lastmile_qr_scan"}, "lon": -77.02000333333334, "name": "ef1e04222e1a529dab11a489baacf9bf", "fusion_lon": 0.0, "bike_id": "ef1e04222e1a529dab11a489baacf9bf", "is_reserved": 0, "type": "electric_scooter", "lat": 38.87577783333333, "fusion_lat": 0.0, "is_disabled": 0}, {"rental_uris": {"android": "https://dc.lft.to/lastmile_qr_scan", "ios": "https://dc.lft.to/lastmile_qr_scan"}, "lon": -77.02498416666667, "name": "37d0e2a6f4760612a6c9a6c565bf922f", "fusion_lon": 0.0, "bike_id": "37d0e2a6f4760612a6c9a6c565bf922f", "is_reserved": 0, "type": "electric_scooter", "lat": 38.923904666666665, "fusion_lat": 0.0, "is_disabled": 0}, {"rental_uris": {"android": "https://dc.lft.to/lastmile_qr_scan", "ios": "https://dc.lft.to/lastmile_qr_scan"}, "lon": -77.0298025, "name": "2cfc14a1d26b19f9aa26b05521b0698e", "fusion_lon": 0.0, "bike_id": "2cfc14a1d26b19f9aa26b05521b0698e", "is_reserved": 0, "type": "electric_scooter", "lat": 38.905672333333335, "fusion_lat": 0.0, "is_disabled": 0}, {"rental_uris": {"android": "https://dc.lft.to/lastmile_qr_scan", "ios": "https://dc.lft.to/lastmile_qr_scan"}, "lon": -76.98671566666667, "name": "aa1013579eb4e7e34cad96307a6a229f", "fusion_lon": 0.0, "bike_id": "aa1013579eb4e7e34cad96307a6a229f", "is_reserved": 0, "type": "electric_scooter", "lat": 38.868618, "fusion_lat": 0.0, "is_disabled": 0}, {"rental_uris": {"android": "https://dc.lft.to/lastmile_qr_scan", "ios": "https://dc.lft.to/lastmile_qr_scan"}, "lon": -76.99856766666667, "name": "f74b804d0f9bfab7c45129dffc9b8521", "fusion_lon": 0.0, "bike_id": "f74b804d0f9bfab7c45129dffc9b8521", "is_reserved": 0, "type": "electric_scooter", "lat": 38.8962055, "fusion_lat": 0.0, "is_disabled": 0}, {"rental_uris": {"android": "https://dc.lft.to/lastmile_qr_scan", "ios": "https://dc.lft.to/lastmile_qr_scan"}, "lon": -77.02330216666667, "name": "acd23076c70a511b74928770f765f3c1", "fusion_lon": 0.0, "bike_id": "acd23076c70a511b74928770f765f3c1", "is_reserved": 0, "type": "electric_scooter", "lat": 38.92061316666667, "fusion_lat": 0.0, "is_disabled": 0}, {"rental_uris": {"android": "https://dc.lft.to/lastmile_qr_scan", "ios": "https://dc.lft.to/lastmile_qr_scan"}, "lon": -76.92522783333334, "name": "26471a1563809a63574588b879896aae", "fusion_lon": 0.0, "bike_id": "26471a1563809a63574588b879896aae", "is_reserved": 0, "type": "electric_bike", "lat": 38.9590665, "fusion_lat": 0.0, "is_disabled": 0}, {"rental_uris": {"android": "https://dc.lft.to/lastmile_qr_scan", "ios": "https://dc.lft.to/lastmile_qr_scan"}, "lon": -77.0400925, "name": "02524e8330f1e9f64b011ab1a5fd98e6", "fusion_lon": 0.0, "bike_id": "02524e8330f1e9f64b011ab1a5fd98e6", "is_reserved": 0, "type": "electric_scooter", "lat": 38.934212, "fusion_lat": 0.0, "is_disabled": 0}, {"rental_uris": {"android": "https://dc.lft.to/lastmile_qr_scan", "ios": "https://dc.lft.to/lastmile_qr_scan"}, "lon": -77.03151683333333, "name": "d22b2fbccd4b96a9fc0d2d0d980be556", "fusion_lon": 0.0, "bike_id": "d22b2fbccd4b96a9fc0d2d0d980be556", "is_reserved": 0, "type": "electric_scooter", "lat": 38.918004333333336, "fusion_lat": 0.0, "is_disabled": 0}, {"rental_uris": {"android": "https://dc.lft.to/lastmile_qr_scan", "ios": "https://dc.lft.to/lastmile_qr_scan"}, "lon": -77.02679733333333, "name": "1cfd455068d3efa77ef9d4f51b3dd30a", "fusion_lon": 0.0, "bike_id": "1cfd455068d3efa77ef9d4f51b3dd30a", "is_reserved": 0, "type": "electric_scooter", "lat": 38.897023, "fusion_lat": 0.0, "is_disabled": 0}, {"rental_uris": {"android": "https://dc.lft.to/lastmile_qr_scan", "ios": "https://dc.lft.to/lastmile_qr_scan"}, "lon": -77.007472, "name": "60b955fb7c33222c98c8ad79126b2bc5", "fusion_lon": 0.0, "bike_id": "60b955fb7c33222c98c8ad79126b2bc5", "is_reserved": 0, "type": "electric_scooter", "lat": 38.926777666666666, "fusion_lat": 0.0, "is_disabled": 0}, {"rental_uris": {"android": "https://dc.lft.to/lastmile_qr_scan", "ios": "https://dc.lft.to/lastmile_qr_scan"}, "lon": -77.043519, "name": "9c931e7bb7ee82ff381fd21d36323957", "fusion_lon": 0.0, "bike_id": "9c931e7bb7ee82ff381fd21d36323957", "is_reserved": 0, "type": "electric_scooter", "lat": 38.903999666666664, "fusion_lat": 0.0, "is_disabled": 0}, {"rental_uris": {"android": "https://dc.lft.to/lastmile_qr_scan", "ios": "https://dc.lft.to/lastmile_qr_scan"}, "lon": -76.9833835, "name": "d9d0f07e1d144fd384748dbc8392f1d8", "fusion_lon": 0.0, "bike_id": "d9d0f07e1d144fd384748dbc8392f1d8", "is_reserved": 0, "type": "electric_scooter", "lat": 38.895436, "fusion_lat": 0.0, "is_disabled": 0}, {"rental_uris": {"android": "https://dc.lft.to/lastmile_qr_scan", "ios": "https://dc.lft.to/lastmile_qr_scan"}, "lon": -76.942547, "name": "f59be3216c70b78ca4ab5f7875de975f", "fusion_lon": 0.0, "bike_id": "f59be3216c70b78ca4ab5f7875de975f", "is_reserved": 0, "type": "electric_bike", "lat": 38.94796616666667, "fusion_lat": 0.0, "is_disabled": 0}, {"rental_uris": {"android": "https://dc.lft.to/lastmile_qr_scan", "ios": "https://dc.lft.to/lastmile_qr_scan"}, "lon": -77.032073, "name": "d4c124b4743a6f1a5b2d2a6b5e1aaf0f", "fusion_lon": 0.0, "bike_id": "d4c124b4743a6f1a5b2d2a6b5e1aaf0f", "is_reserved": 0, "type": "electric_scooter", "lat": 38.9134295, "fusion_lat": 0.0, "is_disabled": 0}, {"rental_uris": {"android": "https://dc.lft.to/lastmile_qr_scan", "ios": "https://dc.lft.to/lastmile_qr_scan"}, "lon": -77.02987733333333, "name": "82f20eb3ddef6fb7e8b7b7736ba8c2ea", "fusion_lon": 0.0, "bike_id": "82f20eb3ddef6fb7e8b7b7736ba8c2ea", "is_reserved": 0, "type": "electric_scooter", "lat": 38.9223405, "fusion_lat": 0.0, "is_disabled": 0}, {"rental_uris": {"android": "https://dc.lft.to/lastmile_qr_scan", "ios": "https://dc.lft.to/lastmile_qr_scan"}, "lon": -77.031501, "name": "c9e568ccdf9a977a6122b99cc49b9337", "fusion_lon": 0.0, "bike_id": "c9e568ccdf9a977a6122b99cc49b9337", "is_reserved": 0, "type": "electric_scooter", "lat": 38.92787083333333, "fusion_lat": 0.0, "is_disabled": 0}, {"rental_uris": {"android": "https://dc.lft.to/lastmile_qr_scan", "ios": "https://dc.lft.to/lastmile_qr_scan"}, "lon": -77.0239185, "name": "a04dcdf68ba7cbc2361c8a56b82d051f", "fusion_lon": 0.0, "bike_id": "a04dcdf68ba7cbc2361c8a56b82d051f", "is_reserved": 0, "type": "electric_scooter", "lat": 38.90690466666667, "fusion_lat": 0.0, "is_disabled": 0}, {"rental_uris": {"android": "https://dc.lft.to/lastmile_qr_scan", "ios": "https://dc.lft.to/lastmile_qr_scan"}, "lon": -77.05912016666667, "name": "1ae7fec74fcd57570cb840a8a7bf2da6", "fusion_lon": 0.0, "bike_id": "1ae7fec74fcd57570cb840a8a7bf2da6", "is_reserved": 0, "type": "electric_scooter", "lat": 38.93617616666667, "fusion_lat": 0.0, "is_disabled": 0}, {"rental_uris": {"android": "https://dc.lft.to/lastmile_qr_scan", "ios": "https://dc.lft.to/lastmile_qr_scan"}, "lon": -76.98395533333333, "name": "19d4de276113133d66cf24cacf5fc13c", "fusion_lon": 0.0, "bike_id": "19d4de276113133d66cf24cacf5fc13c", "is_reserved": 0, "type": "electric_scooter", "lat": 38.9089935, "fusion_lat": 0.0, "is_disabled": 0}, {"rental_uris": {"android": "https://dc.lft.to/lastmile_qr_scan", "ios": "https://dc.lft.to/lastmile_qr_scan"}, "lon": -77.03177116666667, "name": "cbf8b3e54e71719ba9a1b38792c8a7f4", "fusion_lon": 0.0, "bike_id": "cbf8b3e54e71719ba9a1b38792c8a7f4", "is_reserved": 0, "type": "electric_scooter", "lat": 38.88624633333333, "fusion_lat": 0.0, "is_disabled": 0}, {"rental_uris": {"android": "https://dc.lft.to/lastmile_qr_scan", "ios": "https://dc.lft.to/lastmile_qr_scan"}, "lon": -76.956585, "name": "b9d404703b8f9c5f0d515f935056bb8e", "fusion_lon": 0.0, "bike_id": "b9d404703b8f9c5f0d515f935056bb8e", "is_reserved": 0, "type": "electric_bike", "lat": 38.884889, "fusion_lat": 0.0, "is_disabled": 0}, {"rental_uris": {"android": "https://dc.lft.to/lastmile_qr_scan", "ios": "https://dc.lft.to/lastmile_qr_scan"}, "lon": -77.00666566666666, "name": "10acbe0a679cad57847e97c4eb8b14f2", "fusion_lon": 0.0, "bike_id": "10acbe0a679cad57847e97c4eb8b14f2", "is_reserved": 0, "type": "electric_scooter", "lat": 38.899800166666665, "fusion_lat": 0.0, "is_disabled": 0}, {"rental_uris": {"android": "https://dc.lft.to/lastmile_qr_scan", "ios": "https://dc.lft.to/lastmile_qr_scan"}, "lon": -77.01862416666667, "name": "7b3bb237ab7c3f7283a958f639a4d9bb", "fusion_lon": 0.0, "bike_id": "7b3bb237ab7c3f7283a958f639a4d9bb", "is_reserved": 0, "type": "electric_scooter", "lat": 38.900799, "fusion_lat": 0.0, "is_disabled": 0}, {"rental_uris": {"android": "https://dc.lft.to/lastmile_qr_scan", "ios": "https://dc.lft.to/lastmile_qr_scan"}, "lon": -77.01669283333334, "name": "284154efe98c8df20c1877529052d9aa", "fusion_lon": 0.0, "bike_id": "284154efe98c8df20c1877529052d9aa", "is_reserved": 0, "type": "electric_scooter", "lat": 38.91328883333333, "fusion_lat": 0.0, "is_disabled": 0}, {"rental_uris": {"android": "https://dc.lft.to/lastmile_qr_scan", "ios": "https://dc.lft.to/lastmile_qr_scan"}, "lon": -77.044575, "name": "6c23b53bf4b89fc99edb377d52bee2f6", "fusion_lon": 0.0, "bike_id": "6c23b53bf4b89fc99edb377d52bee2f6", "is_reserved": 0, "type": "electric_scooter", "lat": 38.900146666666664, "fusion_lat": 0.0, "is_disabled": 0}, {"rental_uris": {"android": "https://dc.lft.to/lastmile_qr_scan", "ios": "https://dc.lft.to/lastmile_qr_scan"}, "lon": -77.01904816666666, "name": "61ca493a0cdcda7018381a13ae6a970d", "fusion_lon": 0.0, "bike_id": "61ca493a0cdcda7018381a13ae6a970d", "is_reserved": 0, "type": "electric_scooter", "lat": 38.8979865, "fusion_lat": 0.0, "is_disabled": 0}, {"rental_uris": {"android": "https://dc.lft.to/lastmile_qr_scan", "ios": "https://dc.lft.to/lastmile_qr_scan"}, "lon": -77.02603483333333, "name": "333f03902617a0dcdb2c06dc35074900", "fusion_lon": 0.0, "bike_id": "333f03902617a0dcdb2c06dc35074900", "is_reserved": 0, "type": "electric_scooter", "lat": 38.9280015, "fusion_lat": 0.0, "is_disabled": 0}, {"rental_uris": {"android": "https://dc.lft.to/lastmile_qr_scan", "ios": "https://dc.lft.to/lastmile_qr_scan"}, "lon": -77.0235255, "name": "05a550962c16b85b96ab6e760829d32c", "fusion_lon": 0.0, "bike_id": "05a550962c16b85b96ab6e760829d32c", "is_reserved": 0, "type": "electric_scooter", "lat": 38.935360333333335, "fusion_lat": 0.0, "is_disabled": 0}, {"rental_uris": {"android": "https://dc.lft.to/lastmile_qr_scan", "ios": "https://dc.lft.to/lastmile_qr_scan"}, "lon": -77.00954566666667, "name": "31763e1b0cfc20b3cbd79339ed008159", "fusion_lon": 0.0, "bike_id": "31763e1b0cfc20b3cbd79339ed008159", "is_reserved": 0, "type": "electric_scooter", "lat": 38.88317266666667, "fusion_lat": 0.0, "is_disabled": 0}, {"rental_uris": {"android": "https://dc.lft.to/lastmile_qr_scan", "ios": "https://dc.lft.to/lastmile_qr_scan"}, "lon": -77.01865266666667, "name": "caf94811591442013680a9ad9015978c", "fusion_lon": 0.0, "bike_id": "caf94811591442013680a9ad9015978c", "is_reserved": 0, "type": "electric_scooter", "lat": 38.90080116666667, "fusion_lat": 0.0, "is_disabled": 0}, {"rental_uris": {"android": "https://dc.lft.to/lastmile_qr_scan", "ios": "https://dc.lft.to/lastmile_qr_scan"}, "lon": -77.12079833333334, "name": "7f1e6960e813db9616da81acfa35b3e5", "fusion_lon": 0.0, "bike_id": "7f1e6960e813db9616da81acfa35b3e5", "is_reserved": 0, "type": "electric_bike", "lat": 38.78394483333334, "fusion_lat": 0.0, "is_disabled": 0}, {"rental_uris": {"android": "https://dc.lft.to/lastmile_qr_scan", "ios": "https://dc.lft.to/lastmile_qr_scan"}, "lon": -77.03421133333333, "name": "55f4e351dda9fa7a51a6e4da8f691a68", "fusion_lon": 0.0, "bike_id": "55f4e351dda9fa7a51a6e4da8f691a68", "is_reserved": 0, "type": "electric_scooter", "lat": 38.91922816666667, "fusion_lat": 0.0, "is_disabled": 0}, {"rental_uris": {"android": "https://dc.lft.to/lastmile_qr_scan", "ios": "https://dc.lft.to/lastmile_qr_scan"}, "lon": -77.0010245, "name": "7c8b1cec07ca2055febffe7fdb6c115e", "fusion_lon": 0.0, "bike_id": "7c8b1cec07ca2055febffe7fdb6c115e", "is_reserved": 0, "type": "electric_scooter", "lat": 38.881245, "fusion_lat": 0.0, "is_disabled": 0}, {"rental_uris": {"android": "https://dc.lft.to/lastmile_qr_scan", "ios": "https://dc.lft.to/lastmile_qr_scan"}, "lon": -76.9957425, "name": "c55e428b4154908adfde2e6d0d35f5cc", "fusion_lon": 0.0, "bike_id": "c55e428b4154908adfde2e6d0d35f5cc", "is_reserved": 0, "type": "electric_scooter", "lat": 38.894794833333336, "fusion_lat": 0.0, "is_disabled": 0}, {"rental_uris": {"android": "https://dc.lft.to/lastmile_qr_scan", "ios": "https://dc.lft.to/lastmile_qr_scan"}, "lon": -77.03365633333334, "name": "4ca3032a3eed709e40eba11541090c9e", "fusion_lon": 0.0, "bike_id": "4ca3032a3eed709e40eba11541090c9e", "is_reserved": 0, "type": "electric_scooter", "lat": 38.90017483333333, "fusion_lat": 0.0, "is_disabled": 0}, {"rental_uris": {"android": "https://dc.lft.to/lastmile_qr_scan", "ios": "https://dc.lft.to/lastmile_qr_scan"}, "lon": -77.01746333333334, "name": "9b87f022c1453127e231c28cd4fbc806", "fusion_lon": 0.0, "bike_id": "9b87f022c1453127e231c28cd4fbc806", "is_reserved": 0, "type": "electric_scooter", "lat": 38.893521666666665, "fusion_lat": 0.0, "is_disabled": 0}, {"rental_uris": {"android": "https://dc.lft.to/lastmile_qr_scan", "ios": "https://dc.lft.to/lastmile_qr_scan"}, "lon": -77.03281916666667, "name": "61b7f64f43a0299508257a3b2d53ca9e", "fusion_lon": 0.0, "bike_id": "61b7f64f43a0299508257a3b2d53ca9e", "is_reserved": 0, "type": "electric_scooter", "lat": 38.928650166666664, "fusion_lat": 0.0, "is_disabled": 0}, {"rental_uris": {"android": "https://dc.lft.to/lastmile_qr_scan", "ios": "https://dc.lft.to/lastmile_qr_scan"}, "lon": -76.9774825, "name": "2131b25a7dddd7b99d800459aeb5434f", "fusion_lon": 0.0, "bike_id": "2131b25a7dddd7b99d800459aeb5434f", "is_reserved": 0, "type": "electric_scooter", "lat": 38.864906833333336, "fusion_lat": 0.0, "is_disabled": 0}, {"rental_uris": {"android": "https://dc.lft.to/lastmile_qr_scan", "ios": "https://dc.lft.to/lastmile_qr_scan"}, "lon": -77.02408216666667, "name": "4367df21ca88f1c6bd3f674b692aae4b", "fusion_lon": 0.0, "bike_id": "4367df21ca88f1c6bd3f674b692aae4b", "is_reserved": 0, "type": "electric_scooter", "lat": 38.9190825, "fusion_lat": 0.0, "is_disabled": 0}, {"rental_uris": {"android": "https://dc.lft.to/lastmile_qr_scan", "ios": "https://dc.lft.to/lastmile_qr_scan"}, "lon": -76.9882545, "name": "a2c61458c00cf189395c550165c3a425", "fusion_lon": 0.0, "bike_id": "a2c61458c00cf189395c550165c3a425", "is_reserved": 0, "type": "electric_scooter", "lat": 38.90035016666667, "fusion_lat": 0.0, "is_disabled": 0}, {"rental_uris": {"android": "https://dc.lft.to/lastmile_qr_scan", "ios": "https://dc.lft.to/lastmile_qr_scan"}, "lon": -77.02585983333333, "name": "3bf5e8d9e5fd3b50cb1724c6ccfd183f", "fusion_lon": 0.0, "bike_id": "3bf5e8d9e5fd3b50cb1724c6ccfd183f", "is_reserved": 0, "type": "electric_scooter", "lat": 38.90427866666667, "fusion_lat": 0.0, "is_disabled": 0}, {"rental_uris": {"android": "https://dc.lft.to/lastmile_qr_scan", "ios": "https://dc.lft.to/lastmile_qr_scan"}, "lon": -76.986771, "name": "d54f190e07ce1349598902868945e90b", "fusion_lon": 0.0, "bike_id": "d54f190e07ce1349598902868945e90b", "is_reserved": 0, "type": "electric_bike", "lat": 38.899650333333334, "fusion_lat": 0.0, "is_disabled": 0}, {"rental_uris": {"android": "https://dc.lft.to/lastmile_qr_scan", "ios": "https://dc.lft.to/lastmile_qr_scan"}, "lon": -77.02665016666667, "name": "9e60d7b5017071f148e91cf8b285822d", "fusion_lon": 0.0, "bike_id": "9e60d7b5017071f148e91cf8b285822d", "is_reserved": 0, "type": "electric_scooter", "lat": 38.92172083333333, "fusion_lat": 0.0, "is_disabled": 0}, {"rental_uris": {"android": "https://dc.lft.to/lastmile_qr_scan", "ios": "https://dc.lft.to/lastmile_qr_scan"}, "lon": -77.02163883333333, "name": "9f158d1892b11e90709505eac27076fa", "fusion_lon": 0.0, "bike_id": "9f158d1892b11e90709505eac27076fa", "is_reserved": 0, "type": "electric_scooter", "lat": 38.926080166666665, "fusion_lat": 0.0, "is_disabled": 0}, {"rental_uris": {"android": "https://dc.lft.to/lastmile_qr_scan", "ios": "https://dc.lft.to/lastmile_qr_scan"}, "lon": -77.03567316666667, "name": "32cb481914eaca7516253677009d6c0d", "fusion_lon": 0.0, "bike_id": "32cb481914eaca7516253677009d6c0d", "is_reserved": 0, "type": "electric_scooter", "lat": 38.939791166666666, "fusion_lat": 0.0, "is_disabled": 0}, {"rental_uris": {"android": "https://dc.lft.to/lastmile_qr_scan", "ios": "https://dc.lft.to/lastmile_qr_scan"}, "lon": -77.000531, "name": "ffaec673ac068e021849c82ed2813106", "fusion_lon": 0.0, "bike_id": "ffaec673ac068e021849c82ed2813106", "is_reserved": 0, "type": "electric_bike", "lat": 38.79328916666667, "fusion_lat": 0.0, "is_disabled": 0}, {"rental_uris": {"android": "https://dc.lft.to/lastmile_qr_scan", "ios": "https://dc.lft.to/lastmile_qr_scan"}, "lon": -76.99046883333334, "name": "e8a46677ad916cb2c65f0fa072413970", "fusion_lon": 0.0, "bike_id": "e8a46677ad916cb2c65f0fa072413970", "is_reserved": 0, "type": "electric_scooter", "lat": 38.905803, "fusion_lat": 0.0, "is_disabled": 0}, {"rental_uris": {"android": "https://dc.lft.to/lastmile_qr_scan", "ios": "https://dc.lft.to/lastmile_qr_scan"}, "lon": -77.03765733333333, "name": "fb4dc603dd7931ae88e95c00359de700", "fusion_lon": 0.0, "bike_id": "fb4dc603dd7931ae88e95c00359de700", "is_reserved": 0, "type": "electric_scooter", "lat": 38.906735833333336, "fusion_lat": 0.0, "is_disabled": 0}, {"rental_uris": {"android": "https://dc.lft.to/lastmile_qr_scan", "ios": "https://dc.lft.to/lastmile_qr_scan"}, "lon": -77.0333605, "name": "36e4e836afc5edddb938171678c159a9", "fusion_lon": 0.0, "bike_id": "36e4e836afc5edddb938171678c159a9", "is_reserved": 0, "type": "electric_scooter", "lat": 38.90243266666667, "fusion_lat": 0.0, "is_disabled": 0}, {"rental_uris": {"android": "https://dc.lft.to/lastmile_qr_scan", "ios": "https://dc.lft.to/lastmile_qr_scan"}, "lon": -77.0483915, "name": "7a9274d3cde2550043857c40d76e4c78", "fusion_lon": 0.0, "bike_id": "7a9274d3cde2550043857c40d76e4c78", "is_reserved": 0, "type": "electric_scooter", "lat": 38.918625166666665, "fusion_lat": 0.0, "is_disabled": 0}, {"rental_uris": {"android": "https://dc.lft.to/lastmile_qr_scan", "ios": "https://dc.lft.to/lastmile_qr_scan"}, "lon": -76.92126533333334, "name": "23b9a6df02969a7c6bb16ea88e2805e9", "fusion_lon": 0.0, "bike_id": "23b9a6df02969a7c6bb16ea88e2805e9", "is_reserved": 0, "type": "electric_scooter", "lat": 38.89303133333333, "fusion_lat": 0.0, "is_disabled": 0}, {"rental_uris": {"android": "https://dc.lft.to/lastmile_qr_scan", "ios": "https://dc.lft.to/lastmile_qr_scan"}, "lon": -77.02439616666666, "name": "2da0d195da9210ac26f293e8be5138a0", "fusion_lon": 0.0, "bike_id": "2da0d195da9210ac26f293e8be5138a0", "is_reserved": 0, "type": "electric_scooter", "lat": 38.90210533333333, "fusion_lat": 0.0, "is_disabled": 0}, {"rental_uris": {"android": "https://dc.lft.to/lastmile_qr_scan", "ios": "https://dc.lft.to/lastmile_qr_scan"}, "lon": -77.05212683333333, "name": "92364c48143f8e37a5b2b09002be0e43", "fusion_lon": 0.0, "bike_id": "92364c48143f8e37a5b2b09002be0e43", "is_reserved": 0, "type": "electric_scooter", "lat": 38.924801, "fusion_lat": 0.0, "is_disabled": 0}, {"rental_uris": {"android": "https://dc.lft.to/lastmile_qr_scan", "ios": "https://dc.lft.to/lastmile_qr_scan"}, "lon": -77.02711616666667, "name": "75a6cbf96dbb6acee9d0a6b902a0e1c3", "fusion_lon": 0.0, "bike_id": "75a6cbf96dbb6acee9d0a6b902a0e1c3", "is_reserved": 0, "type": "electric_scooter", "lat": 38.89926366666667, "fusion_lat": 0.0, "is_disabled": 0}, {"rental_uris": {"android": "https://dc.lft.to/lastmile_qr_scan", "ios": "https://dc.lft.to/lastmile_qr_scan"}, "lon": -77.00808216666667, "name": "f007c6466ce07f1e926543894814205b", "fusion_lon": 0.0, "bike_id": "f007c6466ce07f1e926543894814205b", "is_reserved": 0, "type": "electric_scooter", "lat": 38.9072605, "fusion_lat": 0.0, "is_disabled": 0}, {"rental_uris": {"android": "https://dc.lft.to/lastmile_qr_scan", "ios": "https://dc.lft.to/lastmile_qr_scan"}, "lon": -77.04575883333334, "name": "1b17abfe5c33c3f8a4a0005b2438f14a", "fusion_lon": 0.0, "bike_id": "1b17abfe5c33c3f8a4a0005b2438f14a", "is_reserved": 0, "type": "electric_scooter", "lat": 38.923107333333334, "fusion_lat": 0.0, "is_disabled": 0}, {"rental_uris": {"android": "https://dc.lft.to/lastmile_qr_scan", "ios": "https://dc.lft.to/lastmile_qr_scan"}, "lon": -76.98125733333333, "name": "9ae5ab88d82b10de9494016fe677cdb4", "fusion_lon": 0.0, "bike_id": "9ae5ab88d82b10de9494016fe677cdb4", "is_reserved": 0, "type": "electric_scooter", "lat": 38.90403633333333, "fusion_lat": 0.0, "is_disabled": 0}, {"rental_uris": {"android": "https://dc.lft.to/lastmile_qr_scan", "ios": "https://dc.lft.to/lastmile_qr_scan"}, "lon": -76.94161883333334, "name": "eae2ca01c7284436afd18484d2750fca", "fusion_lon": 0.0, "bike_id": "eae2ca01c7284436afd18484d2750fca", "is_reserved": 0, "type": "electric_bike", "lat": 38.9082655, "fusion_lat": 0.0, "is_disabled": 0}, {"rental_uris": {"android": "https://dc.lft.to/lastmile_qr_scan", "ios": "https://dc.lft.to/lastmile_qr_scan"}, "lon": -77.007275, "name": "62506e6ac20ef4901491a51b3d8c5cf8", "fusion_lon": 0.0, "bike_id": "62506e6ac20ef4901491a51b3d8c5cf8", "is_reserved": 0, "type": "electric_scooter", "lat": 38.9119435, "fusion_lat": 0.0, "is_disabled": 0}, {"rental_uris": {"android": "https://dc.lft.to/lastmile_qr_scan", "ios": "https://dc.lft.to/lastmile_qr_scan"}, "lon": -77.03796966666667, "name": "edef591ff475dfcaded1aef897917be7", "fusion_lon": 0.0, "bike_id": "edef591ff475dfcaded1aef897917be7", "is_reserved": 0, "type": "electric_scooter", "lat": 38.901206, "fusion_lat": 0.0, "is_disabled": 0}, {"rental_uris": {"android": "https://dc.lft.to/lastmile_qr_scan", "ios": "https://dc.lft.to/lastmile_qr_scan"}, "lon": -77.01625683333333, "name": "c268e2867ca8c19d6583c3c424bd6efd", "fusion_lon": 0.0, "bike_id": "c268e2867ca8c19d6583c3c424bd6efd", "is_reserved": 0, "type": "electric_scooter", "lat": 38.906855666666665, "fusion_lat": 0.0, "is_disabled": 0}, {"rental_uris": {"android": "https://dc.lft.to/lastmile_qr_scan", "ios": "https://dc.lft.to/lastmile_qr_scan"}, "lon": -77.03169583333333, "name": "097685bd9068443bb36e32a98246f034", "fusion_lon": 0.0, "bike_id": "097685bd9068443bb36e32a98246f034", "is_reserved": 0, "type": "electric_scooter", "lat": 38.9083645, "fusion_lat": 0.0, "is_disabled": 0}, {"rental_uris": {"android": "https://dc.lft.to/lastmile_qr_scan", "ios": "https://dc.lft.to/lastmile_qr_scan"}, "lon": -77.034717, "name": "334c63b6ea75567a2e582ad2180963d1", "fusion_lon": 0.0, "bike_id": "334c63b6ea75567a2e582ad2180963d1", "is_reserved": 0, "type": "electric_scooter", "lat": 38.902758, "fusion_lat": 0.0, "is_disabled": 0}, {"rental_uris": {"android": "https://dc.lft.to/lastmile_qr_scan", "ios": "https://dc.lft.to/lastmile_qr_scan"}, "lon": -77.00334083333334, "name": "600ec1356eb9b0f3acd61d5071d15aeb", "fusion_lon": 0.0, "bike_id": "600ec1356eb9b0f3acd61d5071d15aeb", "is_reserved": 0, "type": "electric_scooter", "lat": 38.8935555, "fusion_lat": 0.0, "is_disabled": 0}, {"rental_uris": {"android": "https://dc.lft.to/lastmile_qr_scan", "ios": "https://dc.lft.to/lastmile_qr_scan"}, "lon": -76.97714383333333, "name": "a8739c8fe61fee233751d7661210ceba", "fusion_lon": 0.0, "bike_id": "a8739c8fe61fee233751d7661210ceba", "is_reserved": 0, "type": "electric_scooter", "lat": 38.88792566666667, "fusion_lat": 0.0, "is_disabled": 0}, {"rental_uris": {"android": "https://dc.lft.to/lastmile_qr_scan", "ios": "https://dc.lft.to/lastmile_qr_scan"}, "lon": -77.05226166666667, "name": "9ac29ec97e569f28d1026cf3d2fcf974", "fusion_lon": 0.0, "bike_id": "9ac29ec97e569f28d1026cf3d2fcf974", "is_reserved": 0, "type": "electric_scooter", "lat": 38.92472166666667, "fusion_lat": 0.0, "is_disabled": 0}, {"rental_uris": {"android": "https://dc.lft.to/lastmile_qr_scan", "ios": "https://dc.lft.to/lastmile_qr_scan"}, "lon": -77.06482983333333, "name": "41ac389d12914b1345fd90a083e5bc4c", "fusion_lon": 0.0, "bike_id": "41ac389d12914b1345fd90a083e5bc4c", "is_reserved": 0, "type": "electric_scooter", "lat": 38.936336, "fusion_lat": 0.0, "is_disabled": 0}, {"rental_uris": {"android": "https://dc.lft.to/lastmile_qr_scan", "ios": "https://dc.lft.to/lastmile_qr_scan"}, "lon": -77.0446655, "name": "d73ddc9a925fb167e6ab7aa351f86afa", "fusion_lon": 0.0, "bike_id": "d73ddc9a925fb167e6ab7aa351f86afa", "is_reserved": 0, "type": "electric_scooter", "lat": 38.90079733333334, "fusion_lat": 0.0, "is_disabled": 0}, {"rental_uris": {"android": "https://dc.lft.to/lastmile_qr_scan", "ios": "https://dc.lft.to/lastmile_qr_scan"}, "lon": -76.9814815, "name": "6f060c63b54fcd5fee97c2c49a3763b2", "fusion_lon": 0.0, "bike_id": "6f060c63b54fcd5fee97c2c49a3763b2", "is_reserved": 0, "type": "electric_scooter", "lat": 38.9031415, "fusion_lat": 0.0, "is_disabled": 0}, {"rental_uris": {"android": "https://dc.lft.to/lastmile_qr_scan", "ios": "https://dc.lft.to/lastmile_qr_scan"}, "lon": -77.016954, "name": "56141259f1e8b1af28706fcbdef78abb", "fusion_lon": 0.0, "bike_id": "56141259f1e8b1af28706fcbdef78abb", "is_reserved": 0, "type": "electric_scooter", "lat": 38.97496316666667, "fusion_lat": 0.0, "is_disabled": 0}, {"rental_uris": {"android": "https://dc.lft.to/lastmile_qr_scan", "ios": "https://dc.lft.to/lastmile_qr_scan"}, "lon": -77.031896, "name": "fc3600b997ba6a5eefa7cf68ebef8c6e", "fusion_lon": 0.0, "bike_id": "fc3600b997ba6a5eefa7cf68ebef8c6e", "is_reserved": 0, "type": "electric_scooter", "lat": 38.900001333333336, "fusion_lat": 0.0, "is_disabled": 0}, {"rental_uris": {"android": "https://dc.lft.to/lastmile_qr_scan", "ios": "https://dc.lft.to/lastmile_qr_scan"}, "lon": -76.99699, "name": "647921df01da096302ecb8d036e8186c", "fusion_lon": 0.0, "bike_id": "647921df01da096302ecb8d036e8186c", "is_reserved": 0, "type": "electric_scooter", "lat": 38.90825683333333, "fusion_lat": 0.0, "is_disabled": 0}, {"rental_uris": {"android": "https://dc.lft.to/lastmile_qr_scan", "ios": "https://dc.lft.to/lastmile_qr_scan"}, "lon": -77.01830333333334, "name": "955a98d035778518d278d5053946df3a", "fusion_lon": 0.0, "bike_id": "955a98d035778518d278d5053946df3a", "is_reserved": 0, "type": "electric_scooter", "lat": 38.902397666666666, "fusion_lat": 0.0, "is_disabled": 0}, {"rental_uris": {"android": "https://dc.lft.to/lastmile_qr_scan", "ios": "https://dc.lft.to/lastmile_qr_scan"}, "lon": -77.03564016666667, "name": "918a5a355fe4c5b566ac61e6024ec576", "fusion_lon": 0.0, "bike_id": "918a5a355fe4c5b566ac61e6024ec576", "is_reserved": 0, "type": "electric_scooter", "lat": 38.90467016666667, "fusion_lat": 0.0, "is_disabled": 0}, {"rental_uris": {"android": "https://dc.lft.to/lastmile_qr_scan", "ios": "https://dc.lft.to/lastmile_qr_scan"}, "lon": -77.0206875, "name": "cf854e1e3efd77b87050dedd8ffe3dd4", "fusion_lon": 0.0, "bike_id": "cf854e1e3efd77b87050dedd8ffe3dd4", "is_reserved": 0, "type": "electric_scooter", "lat": 38.932566666666666, "fusion_lat": 0.0, "is_disabled": 0}, {"rental_uris": {"android": "https://dc.lft.to/lastmile_qr_scan", "ios": "https://dc.lft.to/lastmile_qr_scan"}, "lon": -77.0366455, "name": "8481093d1d06e653165d321a171df144", "fusion_lon": 0.0, "bike_id": "8481093d1d06e653165d321a171df144", "is_reserved": 0, "type": "electric_scooter", "lat": 38.921285166666664, "fusion_lat": 0.0, "is_disabled": 0}, {"rental_uris": {"android": "https://dc.lft.to/lastmile_qr_scan", "ios": "https://dc.lft.to/lastmile_qr_scan"}, "lon": -77.03344916666667, "name": "c500419a3073ae3afe574fb9e3d389d4", "fusion_lon": 0.0, "bike_id": "c500419a3073ae3afe574fb9e3d389d4", "is_reserved": 0, "type": "electric_scooter", "lat": 38.913504333333336, "fusion_lat": 0.0, "is_disabled": 0}, {"rental_uris": {"android": "https://dc.lft.to/lastmile_qr_scan", "ios": "https://dc.lft.to/lastmile_qr_scan"}, "lon": -77.01677616666667, "name": "fe1706b33e2338c38a702a4dc83ddc63", "fusion_lon": 0.0, "bike_id": "fe1706b33e2338c38a702a4dc83ddc63", "is_reserved": 0, "type": "electric_scooter", "lat": 38.92042416666666, "fusion_lat": 0.0, "is_disabled": 0}, {"rental_uris": {"android": "https://dc.lft.to/lastmile_qr_scan", "ios": "https://dc.lft.to/lastmile_qr_scan"}, "lon": -77.03308216666667, "name": "98028933fcdbb2e191f58b701b4deba5", "fusion_lon": 0.0, "bike_id": "98028933fcdbb2e191f58b701b4deba5", "is_reserved": 0, "type": "electric_scooter", "lat": 38.9180525, "fusion_lat": 0.0, "is_disabled": 0}, {"rental_uris": {"android": "https://dc.lft.to/lastmile_qr_scan", "ios": "https://dc.lft.to/lastmile_qr_scan"}, "lon": -77.01786466666667, "name": "486467571f0582c24decc0af67e39361", "fusion_lon": 0.0, "bike_id": "486467571f0582c24decc0af67e39361", "is_reserved": 0, "type": "electric_scooter", "lat": 38.903954, "fusion_lat": 0.0, "is_disabled": 0}, {"rental_uris": {"android": "https://dc.lft.to/lastmile_qr_scan", "ios": "https://dc.lft.to/lastmile_qr_scan"}, "lon": -77.006107, "name": "bc962d39f447772311699b8852b8085f", "fusion_lon": 0.0, "bike_id": "bc962d39f447772311699b8852b8085f", "is_reserved": 0, "type": "electric_scooter", "lat": 38.8718185, "fusion_lat": 0.0, "is_disabled": 0}, {"rental_uris": {"android": "https://dc.lft.to/lastmile_qr_scan", "ios": "https://dc.lft.to/lastmile_qr_scan"}, "lon": -77.01151816666666, "name": "53fe015d2b0e67fca55296a0607c3673", "fusion_lon": 0.0, "bike_id": "53fe015d2b0e67fca55296a0607c3673", "is_reserved": 0, "type": "electric_scooter", "lat": 38.913307, "fusion_lat": 0.0, "is_disabled": 0}, {"rental_uris": {"android": "https://dc.lft.to/lastmile_qr_scan", "ios": "https://dc.lft.to/lastmile_qr_scan"}, "lon": -77.0388415, "name": "d028f035c8ca1a018053e49f3637c4d9", "fusion_lon": 0.0, "bike_id": "d028f035c8ca1a018053e49f3637c4d9", "is_reserved": 0, "type": "electric_scooter", "lat": 38.9336645, "fusion_lat": 0.0, "is_disabled": 0}, {"rental_uris": {"android": "https://dc.lft.to/lastmile_qr_scan", "ios": "https://dc.lft.to/lastmile_qr_scan"}, "lon": -77.05340633333333, "name": "70a0075021b6edae2f32a1224d02e91d", "fusion_lon": 0.0, "bike_id": "70a0075021b6edae2f32a1224d02e91d", "is_reserved": 0, "type": "electric_scooter", "lat": 38.906446333333335, "fusion_lat": 0.0, "is_disabled": 0}, {"rental_uris": {"android": "https://dc.lft.to/lastmile_qr_scan", "ios": "https://dc.lft.to/lastmile_qr_scan"}, "lon": -77.039684, "name": "8f5d63bfe4bf4530ac5bdefdf779ace0", "fusion_lon": 0.0, "bike_id": "8f5d63bfe4bf4530ac5bdefdf779ace0", "is_reserved": 0, "type": "electric_scooter", "lat": 38.892948, "fusion_lat": 0.0, "is_disabled": 0}, {"rental_uris": {"android": "https://dc.lft.to/lastmile_qr_scan", "ios": "https://dc.lft.to/lastmile_qr_scan"}, "lon": -77.02481516666667, "name": "caa6809acb703975d63bc57b3007d876", "fusion_lon": 0.0, "bike_id": "caa6809acb703975d63bc57b3007d876", "is_reserved": 0, "type": "electric_scooter", "lat": 38.9419725, "fusion_lat": 0.0, "is_disabled": 0}, {"rental_uris": {"android": "https://dc.lft.to/lastmile_qr_scan", "ios": "https://dc.lft.to/lastmile_qr_scan"}, "lon": -77.04721816666667, "name": "15410b172f4ff993dc0736bfc3691e9a", "fusion_lon": 0.0, "bike_id": "15410b172f4ff993dc0736bfc3691e9a", "is_reserved": 0, "type": "electric_scooter", "lat": 38.897292166666666, "fusion_lat": 0.0, "is_disabled": 0}, {"rental_uris": {"android": "https://dc.lft.to/lastmile_qr_scan", "ios": "https://dc.lft.to/lastmile_qr_scan"}, "lon": -77.0435405, "name": "30acacef0a84e8ac729d6d5871360cd4", "fusion_lon": 0.0, "bike_id": "30acacef0a84e8ac729d6d5871360cd4", "is_reserved": 0, "type": "electric_scooter", "lat": 38.90832483333333, "fusion_lat": 0.0, "is_disabled": 0}, {"rental_uris": {"android": "https://dc.lft.to/lastmile_qr_scan", "ios": "https://dc.lft.to/lastmile_qr_scan"}, "lon": -77.01351333333334, "name": "da5e13b181a9474e2876295902a6e41e", "fusion_lon": 0.0, "bike_id": "da5e13b181a9474e2876295902a6e41e", "is_reserved": 0, "type": "electric_scooter", "lat": 38.91868616666667, "fusion_lat": 0.0, "is_disabled": 0}, {"rental_uris": {"android": "https://dc.lft.to/lastmile_qr_scan", "ios": "https://dc.lft.to/lastmile_qr_scan"}, "lon": -77.00891633333333, "name": "2ea7da72c093fae4613f2aff6187fff0", "fusion_lon": 0.0, "bike_id": "2ea7da72c093fae4613f2aff6187fff0", "is_reserved": 0, "type": "electric_scooter", "lat": 38.96646233333333, "fusion_lat": 0.0, "is_disabled": 0}, {"rental_uris": {"android": "https://dc.lft.to/lastmile_qr_scan", "ios": "https://dc.lft.to/lastmile_qr_scan"}, "lon": -77.00698833333334, "name": "a5a8e9760e6fb3a33aa72440f4d9b1ac", "fusion_lon": 0.0, "bike_id": "a5a8e9760e6fb3a33aa72440f4d9b1ac", "is_reserved": 0, "type": "electric_scooter", "lat": 38.905600166666666, "fusion_lat": 0.0, "is_disabled": 0}, {"rental_uris": {"android": "https://dc.lft.to/lastmile_qr_scan", "ios": "https://dc.lft.to/lastmile_qr_scan"}, "lon": -77.021608, "name": "d3df0b5810ca87143037807576621520", "fusion_lon": 0.0, "bike_id": "d3df0b5810ca87143037807576621520", "is_reserved": 0, "type": "electric_scooter", "lat": 38.92610116666667, "fusion_lat": 0.0, "is_disabled": 0}, {"rental_uris": {"android": "https://dc.lft.to/lastmile_qr_scan", "ios": "https://dc.lft.to/lastmile_qr_scan"}, "lon": -77.01618366666666, "name": "c181e37e10924ff54373a1f30b529ba3", "fusion_lon": 0.0, "bike_id": "c181e37e10924ff54373a1f30b529ba3", "is_reserved": 0, "type": "electric_scooter", "lat": 38.90590016666667, "fusion_lat": 0.0, "is_disabled": 0}, {"rental_uris": {"android": "https://dc.lft.to/lastmile_qr_scan", "ios": "https://dc.lft.to/lastmile_qr_scan"}, "lon": -77.03854083333333, "name": "61eb51d71a993a7f3bee0c51611ddfdc", "fusion_lon": 0.0, "bike_id": "61eb51d71a993a7f3bee0c51611ddfdc", "is_reserved": 0, "type": "electric_scooter", "lat": 38.916571833333336, "fusion_lat": 0.0, "is_disabled": 0}, {"rental_uris": {"android": "https://dc.lft.to/lastmile_qr_scan", "ios": "https://dc.lft.to/lastmile_qr_scan"}, "lon": -76.986913, "name": "b9bf36afdcaa0b632f09c458f807383c", "fusion_lon": 0.0, "bike_id": "b9bf36afdcaa0b632f09c458f807383c", "is_reserved": 0, "type": "electric_bike", "lat": 38.9447255, "fusion_lat": 0.0, "is_disabled": 0}, {"rental_uris": {"android": "https://dc.lft.to/lastmile_qr_scan", "ios": "https://dc.lft.to/lastmile_qr_scan"}, "lon": -77.02404116666666, "name": "a59a721c86e5b6f27512dda97221a64f", "fusion_lon": 0.0, "bike_id": "a59a721c86e5b6f27512dda97221a64f", "is_reserved": 0, "type": "electric_scooter", "lat": 38.92501566666667, "fusion_lat": 0.0, "is_disabled": 0}, {"rental_uris": {"android": "https://dc.lft.to/lastmile_qr_scan", "ios": "https://dc.lft.to/lastmile_qr_scan"}, "lon": -76.99488183333334, "name": "e8a9cfe4a9070dcda74bf03ed9addc2d", "fusion_lon": 0.0, "bike_id": "e8a9cfe4a9070dcda74bf03ed9addc2d", "is_reserved": 0, "type": "electric_scooter", "lat": 38.89474666666667, "fusion_lat": 0.0, "is_disabled": 0}, {"rental_uris": {"android": "https://dc.lft.to/lastmile_qr_scan", "ios": "https://dc.lft.to/lastmile_qr_scan"}, "lon": -77.0648295, "name": "f11909f256450b2e9d098948d7af5294", "fusion_lon": 0.0, "bike_id": "f11909f256450b2e9d098948d7af5294", "is_reserved": 0, "type": "electric_scooter", "lat": 38.9465515, "fusion_lat": 0.0, "is_disabled": 0}, {"rental_uris": {"android": "https://dc.lft.to/lastmile_qr_scan", "ios": "https://dc.lft.to/lastmile_qr_scan"}, "lon": -77.0224905, "name": "4c9c5f32248cfc6c570addce238c9d80", "fusion_lon": 0.0, "bike_id": "4c9c5f32248cfc6c570addce238c9d80", "is_reserved": 0, "type": "electric_scooter", "lat": 38.89983133333333, "fusion_lat": 0.0, "is_disabled": 0}, {"rental_uris": {"android": "https://dc.lft.to/lastmile_qr_scan", "ios": "https://dc.lft.to/lastmile_qr_scan"}, "lon": -77.0179965, "name": "00fa2054beaa99e62ea73ec163de279b", "fusion_lon": 0.0, "bike_id": "00fa2054beaa99e62ea73ec163de279b", "is_reserved": 0, "type": "electric_bike", "lat": 38.994126333333334, "fusion_lat": 0.0, "is_disabled": 0}, {"rental_uris": {"android": "https://dc.lft.to/lastmile_qr_scan", "ios": "https://dc.lft.to/lastmile_qr_scan"}, "lon": -77.01308466666667, "name": "5103281e2c45aed04794ca17d0921075", "fusion_lon": 0.0, "bike_id": "5103281e2c45aed04794ca17d0921075", "is_reserved": 0, "type": "electric_scooter", "lat": 38.89698083333333, "fusion_lat": 0.0, "is_disabled": 0}, {"rental_uris": {"android": "https://dc.lft.to/lastmile_qr_scan", "ios": "https://dc.lft.to/lastmile_qr_scan"}, "lon": -77.011315, "name": "bf877b8b8543f2fd31bb4e7703e4f7ff", "fusion_lon": 0.0, "bike_id": "bf877b8b8543f2fd31bb4e7703e4f7ff", "is_reserved": 0, "type": "electric_scooter", "lat": 38.895524333333334, "fusion_lat": 0.0, "is_disabled": 0}, {"rental_uris": {"android": "https://dc.lft.to/lastmile_qr_scan", "ios": "https://dc.lft.to/lastmile_qr_scan"}, "lon": -77.03174366666667, "name": "33562b8a95179b640a3eba474cf39fca", "fusion_lon": 0.0, "bike_id": "33562b8a95179b640a3eba474cf39fca", "is_reserved": 0, "type": "electric_scooter", "lat": 38.91419, "fusion_lat": 0.0, "is_disabled": 0}, {"rental_uris": {"android": "https://dc.lft.to/lastmile_qr_scan", "ios": "https://dc.lft.to/lastmile_qr_scan"}, "lon": -76.99702166666667, "name": "d8ed9492cd194d4f5fc1182dabb200cc", "fusion_lon": 0.0, "bike_id": "d8ed9492cd194d4f5fc1182dabb200cc", "is_reserved": 0, "type": "electric_bike", "lat": 38.838632, "fusion_lat": 0.0, "is_disabled": 0}, {"rental_uris": {"android": "https://dc.lft.to/lastmile_qr_scan", "ios": "https://dc.lft.to/lastmile_qr_scan"}, "lon": -77.02904683333334, "name": "ab193c6012b316a7deaaf8d4feb78ed0", "fusion_lon": 0.0, "bike_id": "ab193c6012b316a7deaaf8d4feb78ed0", "is_reserved": 0, "type": "electric_scooter", "lat": 38.940404, "fusion_lat": 0.0, "is_disabled": 0}, {"rental_uris": {"android": "https://dc.lft.to/lastmile_qr_scan", "ios": "https://dc.lft.to/lastmile_qr_scan"}, "lon": -77.01357333333333, "name": "93bc946c3c72d25dc7e3cac67b30197e", "fusion_lon": 0.0, "bike_id": "93bc946c3c72d25dc7e3cac67b30197e", "is_reserved": 0, "type": "electric_bike", "lat": 38.8977995, "fusion_lat": 0.0, "is_disabled": 0}, {"rental_uris": {"android": "https://dc.lft.to/lastmile_qr_scan", "ios": "https://dc.lft.to/lastmile_qr_scan"}, "lon": -77.0175875, "name": "53691e106e9aa9ccdecdb261679f44c6", "fusion_lon": 0.0, "bike_id": "53691e106e9aa9ccdecdb261679f44c6", "is_reserved": 0, "type": "electric_scooter", "lat": 38.8772495, "fusion_lat": 0.0, "is_disabled": 0}, {"rental_uris": {"android": "https://dc.lft.to/lastmile_qr_scan", "ios": "https://dc.lft.to/lastmile_qr_scan"}, "lon": -77.3446295, "name": "b71f9061add3dbb85f63bdffd4a3b77f", "fusion_lon": 0.0, "bike_id": "b71f9061add3dbb85f63bdffd4a3b77f", "is_reserved": 0, "type": "electric_bike", "lat": 38.9453495, "fusion_lat": 0.0, "is_disabled": 0}, {"rental_uris": {"android": "https://dc.lft.to/lastmile_qr_scan", "ios": "https://dc.lft.to/lastmile_qr_scan"}, "lon": -77.00340716666666, "name": "e1dd78ebd7faed4e50b7d009c77cdf5e", "fusion_lon": 0.0, "bike_id": "e1dd78ebd7faed4e50b7d009c77cdf5e", "is_reserved": 0, "type": "electric_scooter", "lat": 38.893541166666665, "fusion_lat": 0.0, "is_disabled": 0}, {"rental_uris": {"android": "https://dc.lft.to/lastmile_qr_scan", "ios": "https://dc.lft.to/lastmile_qr_scan"}, "lon": -77.02801466666666, "name": "fb8b232f44d32df3535e4dddc9f88fa0", "fusion_lon": 0.0, "bike_id": "fb8b232f44d32df3535e4dddc9f88fa0", "is_reserved": 0, "type": "electric_scooter", "lat": 38.9296905, "fusion_lat": 0.0, "is_disabled": 0}, {"rental_uris": {"android": "https://dc.lft.to/lastmile_qr_scan", "ios": "https://dc.lft.to/lastmile_qr_scan"}, "lon": -77.02432566666667, "name": "a3ea51b5dea6a2271db067ade84e2632", "fusion_lon": 0.0, "bike_id": "a3ea51b5dea6a2271db067ade84e2632", "is_reserved": 0, "type": "electric_scooter", "lat": 38.90556633333333, "fusion_lat": 0.0, "is_disabled": 0}, {"rental_uris": {"android": "https://dc.lft.to/lastmile_qr_scan", "ios": "https://dc.lft.to/lastmile_qr_scan"}, "lon": -77.07169583333334, "name": "4fcde90238824d34b238e140b4a8ea32", "fusion_lon": 0.0, "bike_id": "4fcde90238824d34b238e140b4a8ea32", "is_reserved": 0, "type": "electric_bike", "lat": 38.90868833333333, "fusion_lat": 0.0, "is_disabled": 0}, {"rental_uris": {"android": "https://dc.lft.to/lastmile_qr_scan", "ios": "https://dc.lft.to/lastmile_qr_scan"}, "lon": -76.936787, "name": "e624fc9cc081a87bf03c1c063bfc1105", "fusion_lon": 0.0, "bike_id": "e624fc9cc081a87bf03c1c063bfc1105", "is_reserved": 0, "type": "electric_scooter", "lat": 38.88661233333333, "fusion_lat": 0.0, "is_disabled": 0}, {"rental_uris": {"android": "https://dc.lft.to/lastmile_qr_scan", "ios": "https://dc.lft.to/lastmile_qr_scan"}, "lon": -76.95150516666666, "name": "69a9b9c023939eda58e294015ea636f6", "fusion_lon": 0.0, "bike_id": "69a9b9c023939eda58e294015ea636f6", "is_reserved": 0, "type": "electric_bike", "lat": 39.084281833333335, "fusion_lat": 0.0, "is_disabled": 0}, {"rental_uris": {"android": "https://dc.lft.to/lastmile_qr_scan", "ios": "https://dc.lft.to/lastmile_qr_scan"}, "lon": -76.98066866666667, "name": "96591b4156670516d9b6b95782e4895f", "fusion_lon": 0.0, "bike_id": "96591b4156670516d9b6b95782e4895f", "is_reserved": 0, "type": "electric_scooter", "lat": 38.86496483333333, "fusion_lat": 0.0, "is_disabled": 0}, {"rental_uris": {"android": "https://dc.lft.to/lastmile_qr_scan", "ios": "https://dc.lft.to/lastmile_qr_scan"}, "lon": -77.02396833333333, "name": "66d561ec854930a98eeb359fbff73453", "fusion_lon": 0.0, "bike_id": "66d561ec854930a98eeb359fbff73453", "is_reserved": 0, "type": "electric_scooter", "lat": 38.909857833333334, "fusion_lat": 0.0, "is_disabled": 0}, {"rental_uris": {"android": "https://dc.lft.to/lastmile_qr_scan", "ios": "https://dc.lft.to/lastmile_qr_scan"}, "lon": -77.02164633333334, "name": "fdde88ef327d79cd643600cfed0c5415", "fusion_lon": 0.0, "bike_id": "fdde88ef327d79cd643600cfed0c5415", "is_reserved": 0, "type": "electric_scooter", "lat": 38.92446316666667, "fusion_lat": 0.0, "is_disabled": 0}, {"rental_uris": {"android": "https://dc.lft.to/lastmile_qr_scan", "ios": "https://dc.lft.to/lastmile_qr_scan"}, "lon": -77.02714466666667, "name": "99eef87d1e72417f0f5d6c9229ddd82f", "fusion_lon": 0.0, "bike_id": "99eef87d1e72417f0f5d6c9229ddd82f", "is_reserved": 0, "type": "electric_scooter", "lat": 38.92480666666667, "fusion_lat": 0.0, "is_disabled": 0}, {"rental_uris": {"android": "https://dc.lft.to/lastmile_qr_scan", "ios": "https://dc.lft.to/lastmile_qr_scan"}, "lon": -77.03195166666667, "name": "5a512cfdda99462f176b704d6309795e", "fusion_lon": 0.0, "bike_id": "5a512cfdda99462f176b704d6309795e", "is_reserved": 0, "type": "electric_scooter", "lat": 38.88721183333333, "fusion_lat": 0.0, "is_disabled": 0}, {"rental_uris": {"android": "https://dc.lft.to/lastmile_qr_scan", "ios": "https://dc.lft.to/lastmile_qr_scan"}, "lon": -77.041591, "name": "644716342647527f86088df66655885d", "fusion_lon": 0.0, "bike_id": "644716342647527f86088df66655885d", "is_reserved": 0, "type": "electric_scooter", "lat": 38.917436333333335, "fusion_lat": 0.0, "is_disabled": 0}, {"rental_uris": {"android": "https://dc.lft.to/lastmile_qr_scan", "ios": "https://dc.lft.to/lastmile_qr_scan"}, "lon": -77.0403935, "name": "1c49cbc3c4384e68132398d873297736", "fusion_lon": 0.0, "bike_id": "1c49cbc3c4384e68132398d873297736", "is_reserved": 0, "type": "electric_scooter", "lat": 38.9051075, "fusion_lat": 0.0, "is_disabled": 0}, {"rental_uris": {"android": "https://dc.lft.to/lastmile_qr_scan", "ios": "https://dc.lft.to/lastmile_qr_scan"}, "lon": -77.00211416666667, "name": "79acbc79b0519f085a6193fdc43b4cfd", "fusion_lon": 0.0, "bike_id": "79acbc79b0519f085a6193fdc43b4cfd", "is_reserved": 0, "type": "electric_scooter", "lat": 38.891043333333336, "fusion_lat": 0.0, "is_disabled": 0}, {"rental_uris": {"android": "https://dc.lft.to/lastmile_qr_scan", "ios": "https://dc.lft.to/lastmile_qr_scan"}, "lon": -77.0273185, "name": "726cc53f784d2799413a009a329e68c6", "fusion_lon": 0.0, "bike_id": "726cc53f784d2799413a009a329e68c6", "is_reserved": 0, "type": "electric_scooter", "lat": 38.898584, "fusion_lat": 0.0, "is_disabled": 0}, {"rental_uris": {"android": "https://dc.lft.to/lastmile_qr_scan", "ios": "https://dc.lft.to/lastmile_qr_scan"}, "lon": -77.04499266666667, "name": "9dc34677bb87274ff6538c7b7e964e3d", "fusion_lon": 0.0, "bike_id": "9dc34677bb87274ff6538c7b7e964e3d", "is_reserved": 0, "type": "electric_scooter", "lat": 38.91368933333333, "fusion_lat": 0.0, "is_disabled": 0}, {"rental_uris": {"android": "https://dc.lft.to/lastmile_qr_scan", "ios": "https://dc.lft.to/lastmile_qr_scan"}, "lon": -77.03016733333334, "name": "6e55a75d0f99220e682ec8c006cdf30d", "fusion_lon": 0.0, "bike_id": "6e55a75d0f99220e682ec8c006cdf30d", "is_reserved": 0, "type": "electric_bike", "lat": 38.922469166666666, "fusion_lat": 0.0, "is_disabled": 0}, {"rental_uris": {"android": "https://dc.lft.to/lastmile_qr_scan", "ios": "https://dc.lft.to/lastmile_qr_scan"}, "lon": -77.037668, "name": "ef3735da7b9ddc5120ea3a8f426afc1c", "fusion_lon": 0.0, "bike_id": "ef3735da7b9ddc5120ea3a8f426afc1c", "is_reserved": 0, "type": "electric_scooter", "lat": 38.916911999999996, "fusion_lat": 0.0, "is_disabled": 0}, {"rental_uris": {"android": "https://dc.lft.to/lastmile_qr_scan", "ios": "https://dc.lft.to/lastmile_qr_scan"}, "lon": -77.02215833333334, "name": "fe70826f9ece6a620bc82ca301b8c87b", "fusion_lon": 0.0, "bike_id": "fe70826f9ece6a620bc82ca301b8c87b", "is_reserved": 0, "type": "electric_scooter", "lat": 38.91267083333334, "fusion_lat": 0.0, "is_disabled": 0}, {"rental_uris": {"android": "https://dc.lft.to/lastmile_qr_scan", "ios": "https://dc.lft.to/lastmile_qr_scan"}, "lon": -76.99569766666667, "name": "c0075ef56f729df90b835fba71a98ce0", "fusion_lon": 0.0, "bike_id": "c0075ef56f729df90b835fba71a98ce0", "is_reserved": 0, "type": "electric_scooter", "lat": 38.955402, "fusion_lat": 0.0, "is_disabled": 0}, {"rental_uris": {"android": "https://dc.lft.to/lastmile_qr_scan", "ios": "https://dc.lft.to/lastmile_qr_scan"}, "lon": -77.06021883333334, "name": "7210ca5cd67ac70f0d25e346052a59f8", "fusion_lon": 0.0, "bike_id": "7210ca5cd67ac70f0d25e346052a59f8", "is_reserved": 0, "type": "electric_scooter", "lat": 38.90500683333333, "fusion_lat": 0.0, "is_disabled": 0}, {"rental_uris": {"android": "https://dc.lft.to/lastmile_qr_scan", "ios": "https://dc.lft.to/lastmile_qr_scan"}, "lon": -77.0237895, "name": "3f7bf9bea01b4e70ef4bdf8c2d2982be", "fusion_lon": 0.0, "bike_id": "3f7bf9bea01b4e70ef4bdf8c2d2982be", "is_reserved": 0, "type": "electric_scooter", "lat": 38.9020205, "fusion_lat": 0.0, "is_disabled": 0}, {"rental_uris": {"android": "https://dc.lft.to/lastmile_qr_scan", "ios": "https://dc.lft.to/lastmile_qr_scan"}, "lon": -77.03356533333333, "name": "63bfaf8d043b37386d137aa33857c7da", "fusion_lon": 0.0, "bike_id": "63bfaf8d043b37386d137aa33857c7da", "is_reserved": 0, "type": "electric_scooter", "lat": 38.8953105, "fusion_lat": 0.0, "is_disabled": 0}, {"rental_uris": {"android": "https://dc.lft.to/lastmile_qr_scan", "ios": "https://dc.lft.to/lastmile_qr_scan"}, "lon": -77.03612933333334, "name": "4da494cb4c89ab3fe1a4c9cf9c19dfba", "fusion_lon": 0.0, "bike_id": "4da494cb4c89ab3fe1a4c9cf9c19dfba", "is_reserved": 0, "type": "electric_scooter", "lat": 38.9280205, "fusion_lat": 0.0, "is_disabled": 0}, {"rental_uris": {"android": "https://dc.lft.to/lastmile_qr_scan", "ios": "https://dc.lft.to/lastmile_qr_scan"}, "lon": -77.04875416666667, "name": "dc4044b32b9b228f0fe2c9b17a8bc57f", "fusion_lon": 0.0, "bike_id": "dc4044b32b9b228f0fe2c9b17a8bc57f", "is_reserved": 0, "type": "electric_scooter", "lat": 38.90170083333334, "fusion_lat": 0.0, "is_disabled": 0}, {"rental_uris": {"android": "https://dc.lft.to/lastmile_qr_scan", "ios": "https://dc.lft.to/lastmile_qr_scan"}, "lon": -77.050923, "name": "797ab82faf9f9ee5d768f6fff5b2535d", "fusion_lon": 0.0, "bike_id": "797ab82faf9f9ee5d768f6fff5b2535d", "is_reserved": 0, "type": "electric_scooter", "lat": 38.92343966666667, "fusion_lat": 0.0, "is_disabled": 0}, {"rental_uris": {"android": "https://dc.lft.to/lastmile_qr_scan", "ios": "https://dc.lft.to/lastmile_qr_scan"}, "lon": -77.0033755, "name": "353cb036641e88f062b068ab37eeac0f", "fusion_lon": 0.0, "bike_id": "353cb036641e88f062b068ab37eeac0f", "is_reserved": 0, "type": "electric_scooter", "lat": 38.8935365, "fusion_lat": 0.0, "is_disabled": 0}, {"rental_uris": {"android": "https://dc.lft.to/lastmile_qr_scan", "ios": "https://dc.lft.to/lastmile_qr_scan"}, "lon": -77.00782866666667, "name": "6933f7e8216d0f0eb0c159dc13f0c064", "fusion_lon": 0.0, "bike_id": "6933f7e8216d0f0eb0c159dc13f0c064", "is_reserved": 0, "type": "electric_scooter", "lat": 38.9057695, "fusion_lat": 0.0, "is_disabled": 0}, {"rental_uris": {"android": "https://dc.lft.to/lastmile_qr_scan", "ios": "https://dc.lft.to/lastmile_qr_scan"}, "lon": -77.0641105, "name": "30a372cee6a06cd383abb045b80930fb", "fusion_lon": 0.0, "bike_id": "30a372cee6a06cd383abb045b80930fb", "is_reserved": 0, "type": "electric_scooter", "lat": 38.912217166666665, "fusion_lat": 0.0, "is_disabled": 0}, {"rental_uris": {"android": "https://dc.lft.to/lastmile_qr_scan", "ios": "https://dc.lft.to/lastmile_qr_scan"}, "lon": -76.98492766666666, "name": "d44046815188e2b5c7a4d0e9865df10c", "fusion_lon": 0.0, "bike_id": "d44046815188e2b5c7a4d0e9865df10c", "is_reserved": 0, "type": "electric_scooter", "lat": 38.90369166666667, "fusion_lat": 0.0, "is_disabled": 0}, {"rental_uris": {"android": "https://dc.lft.to/lastmile_qr_scan", "ios": "https://dc.lft.to/lastmile_qr_scan"}, "lon": -77.0398595, "name": "cbf1a96433a7b6b8b6d99fd044c705ce", "fusion_lon": 0.0, "bike_id": "cbf1a96433a7b6b8b6d99fd044c705ce", "is_reserved": 0, "type": "electric_scooter", "lat": 38.898978166666666, "fusion_lat": 0.0, "is_disabled": 0}, {"rental_uris": {"android": "https://dc.lft.to/lastmile_qr_scan", "ios": "https://dc.lft.to/lastmile_qr_scan"}, "lon": -77.033114, "name": "3ee2d4236a326a1f5d5e3b576634fd38", "fusion_lon": 0.0, "bike_id": "3ee2d4236a326a1f5d5e3b576634fd38", "is_reserved": 0, "type": "electric_scooter", "lat": 38.91987116666667, "fusion_lat": 0.0, "is_disabled": 0}, {"rental_uris": {"android": "https://dc.lft.to/lastmile_qr_scan", "ios": "https://dc.lft.to/lastmile_qr_scan"}, "lon": -76.988272, "name": "4dad332062d6cdc2bd5840969c8a6e43", "fusion_lon": 0.0, "bike_id": "4dad332062d6cdc2bd5840969c8a6e43", "is_reserved": 0, "type": "electric_scooter", "lat": 38.883618, "fusion_lat": 0.0, "is_disabled": 0}, {"rental_uris": {"android": "https://dc.lft.to/lastmile_qr_scan", "ios": "https://dc.lft.to/lastmile_qr_scan"}, "lon": -77.02181283333333, "name": "8dd7707e333aeded4d807848eeae9b79", "fusion_lon": 0.0, "bike_id": "8dd7707e333aeded4d807848eeae9b79", "is_reserved": 0, "type": "electric_scooter", "lat": 38.92868633333333, "fusion_lat": 0.0, "is_disabled": 0}, {"rental_uris": {"android": "https://dc.lft.to/lastmile_qr_scan", "ios": "https://dc.lft.to/lastmile_qr_scan"}, "lon": -77.0324565, "name": "112f6a173d25caa621ca61673dab431e", "fusion_lon": 0.0, "bike_id": "112f6a173d25caa621ca61673dab431e", "is_reserved": 0, "type": "electric_scooter", "lat": 38.937669166666666, "fusion_lat": 0.0, "is_disabled": 0}, {"rental_uris": {"android": "https://dc.lft.to/lastmile_qr_scan", "ios": "https://dc.lft.to/lastmile_qr_scan"}, "lon": -77.02466516666667, "name": "d793abeaca546856c068717d80d49124", "fusion_lon": 0.0, "bike_id": "d793abeaca546856c068717d80d49124", "is_reserved": 0, "type": "electric_scooter", "lat": 38.937752, "fusion_lat": 0.0, "is_disabled": 0}, {"rental_uris": {"android": "https://dc.lft.to/lastmile_qr_scan", "ios": "https://dc.lft.to/lastmile_qr_scan"}, "lon": -76.999772, "name": "965d951ab38cee2ee615b4c100dca3e8", "fusion_lon": 0.0, "bike_id": "965d951ab38cee2ee615b4c100dca3e8", "is_reserved": 0, "type": "electric_scooter", "lat": 38.87490116666667, "fusion_lat": 0.0, "is_disabled": 0}, {"rental_uris": {"android": "https://dc.lft.to/lastmile_qr_scan", "ios": "https://dc.lft.to/lastmile_qr_scan"}, "lon": -77.03823583333333, "name": "5db097e484e25a46c68e964b256f6eba", "fusion_lon": 0.0, "bike_id": "5db097e484e25a46c68e964b256f6eba", "is_reserved": 0, "type": "electric_scooter", "lat": 38.91687816666666, "fusion_lat": 0.0, "is_disabled": 0}, {"rental_uris": {"android": "https://dc.lft.to/lastmile_qr_scan", "ios": "https://dc.lft.to/lastmile_qr_scan"}, "lon": -77.0262345, "name": "4618a4bdeea055bd5ef72652ececa8e3", "fusion_lon": 0.0, "bike_id": "4618a4bdeea055bd5ef72652ececa8e3", "is_reserved": 0, "type": "electric_scooter", "lat": 38.883752666666666, "fusion_lat": 0.0, "is_disabled": 0}, {"rental_uris": {"android": "https://dc.lft.to/lastmile_qr_scan", "ios": "https://dc.lft.to/lastmile_qr_scan"}, "lon": -76.93367983333333, "name": "432449d66a48bf17c2b60ea9ad61a9cb", "fusion_lon": 0.0, "bike_id": "432449d66a48bf17c2b60ea9ad61a9cb", "is_reserved": 0, "type": "electric_scooter", "lat": 38.89916783333334, "fusion_lat": 0.0, "is_disabled": 0}, {"rental_uris": {"android": "https://dc.lft.to/lastmile_qr_scan", "ios": "https://dc.lft.to/lastmile_qr_scan"}, "lon": -77.02734966666667, "name": "72c36b24f4d908ec75c173cdc9c28b4c", "fusion_lon": 0.0, "bike_id": "72c36b24f4d908ec75c173cdc9c28b4c", "is_reserved": 0, "type": "electric_scooter", "lat": 38.9344985, "fusion_lat": 0.0, "is_disabled": 0}, {"rental_uris": {"android": "https://dc.lft.to/lastmile_qr_scan", "ios": "https://dc.lft.to/lastmile_qr_scan"}, "lon": -77.03668066666667, "name": "8e1dd6e1cb4ec3f45ed9d7c667c6c478", "fusion_lon": 0.0, "bike_id": "8e1dd6e1cb4ec3f45ed9d7c667c6c478", "is_reserved": 0, "type": "electric_scooter", "lat": 38.92236616666667, "fusion_lat": 0.0, "is_disabled": 0}, {"rental_uris": {"android": "https://dc.lft.to/lastmile_qr_scan", "ios": "https://dc.lft.to/lastmile_qr_scan"}, "lon": -77.06028416666666, "name": "36399e9487f85ff82d6f4d0ce3381039", "fusion_lon": 0.0, "bike_id": "36399e9487f85ff82d6f4d0ce3381039", "is_reserved": 0, "type": "electric_bike", "lat": 38.905060166666665, "fusion_lat": 0.0, "is_disabled": 0}, {"rental_uris": {"android": "https://dc.lft.to/lastmile_qr_scan", "ios": "https://dc.lft.to/lastmile_qr_scan"}, "lon": -77.04729983333333, "name": "8e5ce95f0e2f0ead28a1c702623e5979", "fusion_lon": 0.0, "bike_id": "8e5ce95f0e2f0ead28a1c702623e5979", "is_reserved": 0, "type": "electric_scooter", "lat": 38.9131915, "fusion_lat": 0.0, "is_disabled": 0}, {"rental_uris": {"android": "https://dc.lft.to/lastmile_qr_scan", "ios": "https://dc.lft.to/lastmile_qr_scan"}, "lon": -77.03521266666667, "name": "03174ba3b7b8ff1ff80ca163c35bc286", "fusion_lon": 0.0, "bike_id": "03174ba3b7b8ff1ff80ca163c35bc286", "is_reserved": 0, "type": "electric_bike", "lat": 38.92340766666667, "fusion_lat": 0.0, "is_disabled": 0}, {"rental_uris": {"android": "https://dc.lft.to/lastmile_qr_scan", "ios": "https://dc.lft.to/lastmile_qr_scan"}, "lon": -77.0296565, "name": "fa6ea3ee89aa5ad081e221b8d63a54fc", "fusion_lon": 0.0, "bike_id": "fa6ea3ee89aa5ad081e221b8d63a54fc", "is_reserved": 0, "type": "electric_scooter", "lat": 38.92927516666666, "fusion_lat": 0.0, "is_disabled": 0}, {"rental_uris": {"android": "https://dc.lft.to/lastmile_qr_scan", "ios": "https://dc.lft.to/lastmile_qr_scan"}, "lon": -77.04237916666666, "name": "b6150ab82696f02b84f06f5cd4705e90", "fusion_lon": 0.0, "bike_id": "b6150ab82696f02b84f06f5cd4705e90", "is_reserved": 0, "type": "electric_scooter", "lat": 38.90557366666667, "fusion_lat": 0.0, "is_disabled": 0}, {"rental_uris": {"android": "https://dc.lft.to/lastmile_qr_scan", "ios": "https://dc.lft.to/lastmile_qr_scan"}, "lon": -77.02034533333334, "name": "946040db250563a1ae7a62204bb56c42", "fusion_lon": 0.0, "bike_id": "946040db250563a1ae7a62204bb56c42", "is_reserved": 0, "type": "electric_scooter", "lat": 38.8943305, "fusion_lat": 0.0, "is_disabled": 0}, {"rental_uris": {"android": "https://dc.lft.to/lastmile_qr_scan", "ios": "https://dc.lft.to/lastmile_qr_scan"}, "lon": -77.02237766666667, "name": "7a87a2165241028d576f2ea455f57519", "fusion_lon": 0.0, "bike_id": "7a87a2165241028d576f2ea455f57519", "is_reserved": 0, "type": "electric_bike", "lat": 38.897323166666666, "fusion_lat": 0.0, "is_disabled": 0}, {"rental_uris": {"android": "https://dc.lft.to/lastmile_qr_scan", "ios": "https://dc.lft.to/lastmile_qr_scan"}, "lon": -77.07767233333334, "name": "b532fdcb6461f21fa0bd221be7e6f953", "fusion_lon": 0.0, "bike_id": "b532fdcb6461f21fa0bd221be7e6f953", "is_reserved": 0, "type": "electric_scooter", "lat": 38.9546315, "fusion_lat": 0.0, "is_disabled": 0}, {"rental_uris": {"android": "https://dc.lft.to/lastmile_qr_scan", "ios": "https://dc.lft.to/lastmile_qr_scan"}, "lon": -77.03657483333333, "name": "3001f1a50c541336a129391cad7826e0", "fusion_lon": 0.0, "bike_id": "3001f1a50c541336a129391cad7826e0", "is_reserved": 0, "type": "electric_scooter", "lat": 38.93015883333333, "fusion_lat": 0.0, "is_disabled": 0}, {"rental_uris": {"android": "https://dc.lft.to/lastmile_qr_scan", "ios": "https://dc.lft.to/lastmile_qr_scan"}, "lon": -77.02543883333334, "name": "243b0cba85bcf734eb665c3abbfb1b42", "fusion_lon": 0.0, "bike_id": "243b0cba85bcf734eb665c3abbfb1b42", "is_reserved": 0, "type": "electric_bike", "lat": 38.9890885, "fusion_lat": 0.0, "is_disabled": 0}, {"rental_uris": {"android": "https://dc.lft.to/lastmile_qr_scan", "ios": "https://dc.lft.to/lastmile_qr_scan"}, "lon": -77.0169275, "name": "48c86266e83c66a1c4eba4ee05bb80b1", "fusion_lon": 0.0, "bike_id": "48c86266e83c66a1c4eba4ee05bb80b1", "is_reserved": 0, "type": "electric_scooter", "lat": 38.90456666666667, "fusion_lat": 0.0, "is_disabled": 0}, {"rental_uris": {"android": "https://dc.lft.to/lastmile_qr_scan", "ios": "https://dc.lft.to/lastmile_qr_scan"}, "lon": -77.03662533333333, "name": "03e6d0141e05625b621f48fce36609d5", "fusion_lon": 0.0, "bike_id": "03e6d0141e05625b621f48fce36609d5", "is_reserved": 0, "type": "electric_scooter", "lat": 38.92278733333333, "fusion_lat": 0.0, "is_disabled": 0}, {"rental_uris": {"android": "https://dc.lft.to/lastmile_qr_scan", "ios": "https://dc.lft.to/lastmile_qr_scan"}, "lon": -77.01796866666666, "name": "756f30a726616dc591013487e3ffe8cd", "fusion_lon": 0.0, "bike_id": "756f30a726616dc591013487e3ffe8cd", "is_reserved": 0, "type": "electric_scooter", "lat": 38.919419833333336, "fusion_lat": 0.0, "is_disabled": 0}, {"rental_uris": {"android": "https://dc.lft.to/lastmile_qr_scan", "ios": "https://dc.lft.to/lastmile_qr_scan"}, "lon": -77.05710466666666, "name": "e05703a7944496ee1560efe249117536", "fusion_lon": 0.0, "bike_id": "e05703a7944496ee1560efe249117536", "is_reserved": 0, "type": "electric_scooter", "lat": 38.933449833333334, "fusion_lat": 0.0, "is_disabled": 0}, {"rental_uris": {"android": "https://dc.lft.to/lastmile_qr_scan", "ios": "https://dc.lft.to/lastmile_qr_scan"}, "lon": -77.0422905, "name": "b9533d370259a75e00b6bd38a7425705", "fusion_lon": 0.0, "bike_id": "b9533d370259a75e00b6bd38a7425705", "is_reserved": 0, "type": "electric_scooter", "lat": 38.92107, "fusion_lat": 0.0, "is_disabled": 0}, {"rental_uris": {"android": "https://dc.lft.to/lastmile_qr_scan", "ios": "https://dc.lft.to/lastmile_qr_scan"}, "lon": -77.03838266666666, "name": "a7d0f7d1358d1a57995bd698300b59f4", "fusion_lon": 0.0, "bike_id": "a7d0f7d1358d1a57995bd698300b59f4", "is_reserved": 0, "type": "electric_scooter", "lat": 38.911886833333334, "fusion_lat": 0.0, "is_disabled": 0}, {"rental_uris": {"android": "https://dc.lft.to/lastmile_qr_scan", "ios": "https://dc.lft.to/lastmile_qr_scan"}, "lon": -77.0020045, "name": "62df2339a4d26110be6475c035cc682c", "fusion_lon": 0.0, "bike_id": "62df2339a4d26110be6475c035cc682c", "is_reserved": 0, "type": "electric_scooter", "lat": 38.900422166666665, "fusion_lat": 0.0, "is_disabled": 0}, {"rental_uris": {"android": "https://dc.lft.to/lastmile_qr_scan", "ios": "https://dc.lft.to/lastmile_qr_scan"}, "lon": -77.01619883333333, "name": "dcb5ea5271af053b193e699ddee94374", "fusion_lon": 0.0, "bike_id": "dcb5ea5271af053b193e699ddee94374", "is_reserved": 0, "type": "electric_scooter", "lat": 38.90599816666667, "fusion_lat": 0.0, "is_disabled": 0}, {"rental_uris": {"android": "https://dc.lft.to/lastmile_qr_scan", "ios": "https://dc.lft.to/lastmile_qr_scan"}, "lon": -77.11872133333334, "name": "53fdea54274e5da383198c180cdd583a", "fusion_lon": 0.0, "bike_id": "53fdea54274e5da383198c180cdd583a", "is_reserved": 0, "type": "electric_bike", "lat": 38.898446166666666, "fusion_lat": 0.0, "is_disabled": 0}, {"rental_uris": {"android": "https://dc.lft.to/lastmile_qr_scan", "ios": "https://dc.lft.to/lastmile_qr_scan"}, "lon": -77.045136, "name": "845f44ce12c532abb2ab046bda613fd2", "fusion_lon": 0.0, "bike_id": "845f44ce12c532abb2ab046bda613fd2", "is_reserved": 0, "type": "electric_scooter", "lat": 38.886032666666665, "fusion_lat": 0.0, "is_disabled": 0}, {"rental_uris": {"android": "https://dc.lft.to/lastmile_qr_scan", "ios": "https://dc.lft.to/lastmile_qr_scan"}, "lon": -77.04661416666667, "name": "2946ce5b04e34abe2e6cc277e5835b2f", "fusion_lon": 0.0, "bike_id": "2946ce5b04e34abe2e6cc277e5835b2f", "is_reserved": 0, "type": "electric_scooter", "lat": 38.89469116666667, "fusion_lat": 0.0, "is_disabled": 0}, {"rental_uris": {"android": "https://dc.lft.to/lastmile_qr_scan", "ios": "https://dc.lft.to/lastmile_qr_scan"}, "lon": -77.02363716666666, "name": "b638e364514dedda08e2f12d44b6e0d1", "fusion_lon": 0.0, "bike_id": "b638e364514dedda08e2f12d44b6e0d1", "is_reserved": 0, "type": "electric_scooter", "lat": 38.9310055, "fusion_lat": 0.0, "is_disabled": 0}, {"rental_uris": {"android": "https://dc.lft.to/lastmile_qr_scan", "ios": "https://dc.lft.to/lastmile_qr_scan"}, "lon": -77.064843, "name": "3300fbad169ac955d749014f824f78c7", "fusion_lon": 0.0, "bike_id": "3300fbad169ac955d749014f824f78c7", "is_reserved": 0, "type": "electric_scooter", "lat": 38.94656466666667, "fusion_lat": 0.0, "is_disabled": 0}, {"rental_uris": {"android": "https://dc.lft.to/lastmile_qr_scan", "ios": "https://dc.lft.to/lastmile_qr_scan"}, "lon": -77.04350033333333, "name": "31e08f6a5931856b1d967d777fa6cc08", "fusion_lon": 0.0, "bike_id": "31e08f6a5931856b1d967d777fa6cc08", "is_reserved": 0, "type": "electric_scooter", "lat": 38.9051585, "fusion_lat": 0.0, "is_disabled": 0}, {"rental_uris": {"android": "https://dc.lft.to/lastmile_qr_scan", "ios": "https://dc.lft.to/lastmile_qr_scan"}, "lon": -76.93755266666666, "name": "d479e10015937ce6168b9e4a90863f52", "fusion_lon": 0.0, "bike_id": "d479e10015937ce6168b9e4a90863f52", "is_reserved": 0, "type": "electric_scooter", "lat": 38.890488500000004, "fusion_lat": 0.0, "is_disabled": 0}, {"rental_uris": {"android": "https://dc.lft.to/lastmile_qr_scan", "ios": "https://dc.lft.to/lastmile_qr_scan"}, "lon": -77.03948433333333, "name": "155454b60768d0c7f05b58322ea4b083", "fusion_lon": 0.0, "bike_id": "155454b60768d0c7f05b58322ea4b083", "is_reserved": 0, "type": "electric_scooter", "lat": 38.9306345, "fusion_lat": 0.0, "is_disabled": 0}, {"rental_uris": {"android": "https://dc.lft.to/lastmile_qr_scan", "ios": "https://dc.lft.to/lastmile_qr_scan"}, "lon": -77.04619716666667, "name": "f5ec61fc8676fd73de8439b41cf86b1f", "fusion_lon": 0.0, "bike_id": "f5ec61fc8676fd73de8439b41cf86b1f", "is_reserved": 0, "type": "electric_scooter", "lat": 38.90116033333334, "fusion_lat": 0.0, "is_disabled": 0}, {"rental_uris": {"android": "https://dc.lft.to/lastmile_qr_scan", "ios": "https://dc.lft.to/lastmile_qr_scan"}, "lon": -77.0328205, "name": "cfc33889ca19940a84e50601527e86dc", "fusion_lon": 0.0, "bike_id": "cfc33889ca19940a84e50601527e86dc", "is_reserved": 0, "type": "electric_scooter", "lat": 38.939651833333336, "fusion_lat": 0.0, "is_disabled": 0}, {"rental_uris": {"android": "https://dc.lft.to/lastmile_qr_scan", "ios": "https://dc.lft.to/lastmile_qr_scan"}, "lon": -77.02519816666667, "name": "7cb00ad89fb343f21cdbb6249f12034e", "fusion_lon": 0.0, "bike_id": "7cb00ad89fb343f21cdbb6249f12034e", "is_reserved": 0, "type": "electric_scooter", "lat": 38.9210905, "fusion_lat": 0.0, "is_disabled": 0}, {"rental_uris": {"android": "https://dc.lft.to/lastmile_qr_scan", "ios": "https://dc.lft.to/lastmile_qr_scan"}, "lon": -77.04344383333333, "name": "32d8e46277e0a9afac91c5c70450c616", "fusion_lon": 0.0, "bike_id": "32d8e46277e0a9afac91c5c70450c616", "is_reserved": 0, "type": "electric_scooter", "lat": 38.905394333333334, "fusion_lat": 0.0, "is_disabled": 0}, {"rental_uris": {"android": "https://dc.lft.to/lastmile_qr_scan", "ios": "https://dc.lft.to/lastmile_qr_scan"}, "lon": -77.01027683333334, "name": "0190d6b358c2d70dbd76defbb99d37d3", "fusion_lon": 0.0, "bike_id": "0190d6b358c2d70dbd76defbb99d37d3", "is_reserved": 0, "type": "electric_scooter", "lat": 38.87934716666667, "fusion_lat": 0.0, "is_disabled": 0}, {"rental_uris": {"android": "https://dc.lft.to/lastmile_qr_scan", "ios": "https://dc.lft.to/lastmile_qr_scan"}, "lon": -77.0467965, "name": "3f99bbac8b8cb2e9a1b643a5c5cf9260", "fusion_lon": 0.0, "bike_id": "3f99bbac8b8cb2e9a1b643a5c5cf9260", "is_reserved": 0, "type": "electric_scooter", "lat": 38.895017833333334, "fusion_lat": 0.0, "is_disabled": 0}, {"rental_uris": {"android": "https://dc.lft.to/lastmile_qr_scan", "ios": "https://dc.lft.to/lastmile_qr_scan"}, "lon": -77.02893283333333, "name": "ea44d416da5d47138a0fc969d6ca31b6", "fusion_lon": 0.0, "bike_id": "ea44d416da5d47138a0fc969d6ca31b6", "is_reserved": 0, "type": "electric_scooter", "lat": 38.91808533333333, "fusion_lat": 0.0, "is_disabled": 0}, {"rental_uris": {"android": "https://dc.lft.to/lastmile_qr_scan", "ios": "https://dc.lft.to/lastmile_qr_scan"}, "lon": -77.06444716666667, "name": "1799592ffbc159c9de1b9ce7811326ef", "fusion_lon": 0.0, "bike_id": "1799592ffbc159c9de1b9ce7811326ef", "is_reserved": 0, "type": "electric_scooter", "lat": 38.907861833333335, "fusion_lat": 0.0, "is_disabled": 0}, {"rental_uris": {"android": "https://dc.lft.to/lastmile_qr_scan", "ios": "https://dc.lft.to/lastmile_qr_scan"},