{"data": {"bikes": [{"rental_uris": {"ios": "https://dc.lft.to/lastmile_qr_scan", "android": "https://dc.lft.to/lastmile_qr_scan"}, "lat": 38.87594566666667, "is_disabled": 0, "bike_id": "152b1b225d735c38cdc951f2c962ab8c", "name": "152b1b225d735c38cdc951f2c962ab8c", "type": "electric_bike", "fusion_lon": 0.0, "is_reserved": 0, "fusion_lat": 0.0, "lon": -77.0075925}, {"rental_uris": {"ios": "https://dc.lft.to/lastmile_qr_scan", "android": "https://dc.lft.to/lastmile_qr_scan"}, "lat": 38.89219583333333, "is_disabled": 0, "bike_id": "6c28c78cc2a03efa8c7d8514aa5ad1f6", "name": "6c28c78cc2a03efa8c7d8514aa5ad1f6", "type": "electric_scooter", "fusion_lon": 0.0, "is_reserved": 0, "fusion_lat": 0.0, "lon": -77.03223583333333}, {"rental_uris": {"ios": "https://dc.lft.to/lastmile_qr_scan", "android": "https://dc.lft.to/lastmile_qr_scan"}, "lat": 38.9044075, "is_disabled": 0, "bike_id": "5b3865022558e93eabd60b851614554e", "name": "5b3865022558e93eabd60b851614554e", "type": "electric_scooter", "fusion_lon": 0.0, "is_reserved": 0, "fusion_lat": 0.0, "lon": -77.06109266666667}, {"rental_uris": {"ios": "https://dc.lft.to/lastmile_qr_scan", "android": "https://dc.lft.to/lastmile_qr_scan"}, "lat": 38.92757566666667, "is_disabled": 0, "bike_id": "fc1195ab1946dfc979766a05dd221e84", "name": "fc1195ab1946dfc979766a05dd221e84", "type": "electric_scooter", "fusion_lon": 0.0, "is_reserved": 0, "fusion_lat": 0.0, "lon": -77.03294733333334}, {"rental_uris": {"ios": "https://dc.lft.to/lastmile_qr_scan", "android": "https://dc.lft.to/lastmile_qr_scan"}, "lat": 38.9464415, "is_disabled": 0, "bike_id": "1d240f8913c69f0b79f31db222d2817d", "name": "1d240f8913c69f0b79f31db222d2817d", "type": "electric_scooter", "fusion_lon": 0.0, "is_reserved": 0, "fusion_lat": 0.0, "lon": -77.03025916666667}, {"rental_uris": {"ios": "https://dc.lft.to/lastmile_qr_scan", "android": "https://dc.lft.to/lastmile_qr_scan"}, "lat": 38.9026795, "is_disabled": 0, "bike_id": "32aa79ddecf63cbfb023ecc8fed18f89", "name": "32aa79ddecf63cbfb023ecc8fed18f89", "type": "electric_scooter", "fusion_lon": 0.0, "is_reserved": 0, "fusion_lat": 0.0, "lon": -77.0384345}, {"rental_uris": {"ios": "https://dc.lft.to/lastmile_qr_scan", "android": "https://dc.lft.to/lastmile_qr_scan"}, "lat": 38.903623, "is_disabled": 0, "bike_id": "e6a7a7c3def3a28986480bbf02936c54", "name": "e6a7a7c3def3a28986480bbf02936c54", "type": "electric_scooter", "fusion_lon": 0.0, "is_reserved": 0, "fusion_lat": 0.0, "lon": -77.020048}, {"rental_uris": {"ios": "https://dc.lft.to/lastmile_qr_scan", "android": "https://dc.lft.to/lastmile_qr_scan"}, "lat": 38.929065666666666, "is_disabled": 0, "bike_id": "67483df102d7de0e302407e1a74111d0", "name": "67483df102d7de0e302407e1a74111d0", "type": "electric_scooter", "fusion_lon": 0.0, "is_reserved": 0, "fusion_lat": 0.0, "lon": -77.0376025}, {"rental_uris": {"ios": "https://dc.lft.to/lastmile_qr_scan", "android": "https://dc.lft.to/lastmile_qr_scan"}, "lat": 38.9014525, "is_disabled": 0, "bike_id": "864299d24e035388d6e157a6641b8766", "name": "864299d24e035388d6e157a6641b8766", "type": "electric_scooter", "fusion_lon": 0.0, "is_reserved": 0, "fusion_lat": 0.0, "lon": -77.02295216666667}, {"rental_uris": {"ios": "https://dc.lft.to/lastmile_qr_scan", "android": "https://dc.lft.to/lastmile_qr_scan"}, "lat": 38.898996333333336, "is_disabled": 0, "bike_id": "c6bc418237dfecd70033346cacca52b5", "name": "c6bc418237dfecd70033346cacca52b5", "type": "electric_scooter", "fusion_lon": 0.0, "is_reserved": 0, "fusion_lat": 0.0, "lon": -77.0498635}, {"rental_uris": {"ios": "https://dc.lft.to/lastmile_qr_scan", "android": "https://dc.lft.to/lastmile_qr_scan"}, "lat": 38.9223915, "is_disabled": 0, "bike_id": "abdfd6995eb78518eb587c1765f384f4", "name": "abdfd6995eb78518eb587c1765f384f4", "type": "electric_scooter", "fusion_lon": 0.0, "is_reserved": 0, "fusion_lat": 0.0, "lon": -77.04398766666667}, {"rental_uris": {"ios": "https://dc.lft.to/lastmile_qr_scan", "android": "https://dc.lft.to/lastmile_qr_scan"}, "lat": 39.089082, "is_disabled": 0, "bike_id": "6c68e13f016cab827afa374e10cfc32a", "name": "6c68e13f016cab827afa374e10cfc32a", "type": "electric_bike", "fusion_lon": 0.0, "is_reserved": 0, "fusion_lat": 0.0, "lon": -77.1784715}, {"rental_uris": {"ios": "https://dc.lft.to/lastmile_qr_scan", "android": "https://dc.lft.to/lastmile_qr_scan"}, "lat": 39.054482166666666, "is_disabled": 0, "bike_id": "8a5c3eae05325957da693a287d670bdf", "name": "8a5c3eae05325957da693a287d670bdf", "type": "electric_bike", "fusion_lon": 0.0, "is_reserved": 0, "fusion_lat": 0.0, "lon": -77.04304916666666}, {"rental_uris": {"ios": "https://dc.lft.to/lastmile_qr_scan", "android": "https://dc.lft.to/lastmile_qr_scan"}, "lat": 38.913419166666664, "is_disabled": 0, "bike_id": "c48dc0629daac3de6f01b6a007522c08", "name": "c48dc0629daac3de6f01b6a007522c08", "type": "electric_scooter", "fusion_lon": 0.0, "is_reserved": 0, "fusion_lat": 0.0, "lon": -77.02404183333333}, {"rental_uris": {"ios": "https://dc.lft.to/lastmile_qr_scan", "android": "https://dc.lft.to/lastmile_qr_scan"}, "lat": 38.929998499999996, "is_disabled": 0, "bike_id": "886975216317a93c82b9ffdec4d05f11", "name": "886975216317a93c82b9ffdec4d05f11", "type": "electric_scooter", "fusion_lon": 0.0, "is_reserved": 0, "fusion_lat": 0.0, "lon": -77.02353683333334}, {"rental_uris": {"ios": "https://dc.lft.to/lastmile_qr_scan", "android": "https://dc.lft.to/lastmile_qr_scan"}, "lat": 38.93554966666667, "is_disabled": 0, "bike_id": "dffe234fd983df06f1afec02a04e7166", "name": "dffe234fd983df06f1afec02a04e7166", "type": "electric_scooter", "fusion_lon": 0.0, "is_reserved": 0, "fusion_lat": 0.0, "lon": -77.08211233333333}, {"rental_uris": {"ios": "https://dc.lft.to/lastmile_qr_scan", "android": "https://dc.lft.to/lastmile_qr_scan"}, "lat": 38.900447, "is_disabled": 0, "bike_id": "cc6309242ead867b187a8cc8fcbce492", "name": "cc6309242ead867b187a8cc8fcbce492", "type": "electric_scooter", "fusion_lon": 0.0, "is_reserved": 0, "fusion_lat": 0.0, "lon": -77.01236783333333}, {"rental_uris": {"ios": "https://dc.lft.to/lastmile_qr_scan", "android": "https://dc.lft.to/lastmile_qr_scan"}, "lat": 38.950004166666666, "is_disabled": 0, "bike_id": "bef4ca9a635d91b0e4531b5a73f1fe59", "name": "bef4ca9a635d91b0e4531b5a73f1fe59", "type": "electric_scooter", "fusion_lon": 0.0, "is_reserved": 0, "fusion_lat": 0.0, "lon": -77.02701833333333}, {"rental_uris": {"ios": "https://dc.lft.to/lastmile_qr_scan", "android": "https://dc.lft.to/lastmile_qr_scan"}, "lat": 38.89881166666667, "is_disabled": 0, "bike_id": "f5e5e12f59108f71e7e2c278398a5aaa", "name": "f5e5e12f59108f71e7e2c278398a5aaa", "type": "electric_scooter", "fusion_lon": 0.0, "is_reserved": 0, "fusion_lat": 0.0, "lon": -76.93153833333334}, {"rental_uris": {"ios": "https://dc.lft.to/lastmile_qr_scan", "android": "https://dc.lft.to/lastmile_qr_scan"}, "lat": 38.911211, "is_disabled": 0, "bike_id": "428fb84755b2b9d6e91f364eafed02ac", "name": "428fb84755b2b9d6e91f364eafed02ac", "type": "electric_scooter", "fusion_lon": 0.0, "is_reserved": 0, "fusion_lat": 0.0, "lon": -77.03837216666666}, {"rental_uris": {"ios": "https://dc.lft.to/lastmile_qr_scan", "android": "https://dc.lft.to/lastmile_qr_scan"}, "lat": 38.90266466666667, "is_disabled": 0, "bike_id": "4bb2dccebde5d15755a4bf9a941a71dc", "name": "4bb2dccebde5d15755a4bf9a941a71dc", "type": "electric_scooter", "fusion_lon": 0.0, "is_reserved": 0, "fusion_lat": 0.0, "lon": -77.03428966666667}, {"rental_uris": {"ios": "https://dc.lft.to/lastmile_qr_scan", "android": "https://dc.lft.to/lastmile_qr_scan"}, "lat": 38.90245566666667, "is_disabled": 0, "bike_id": "1fd3b4fe741ecbb0e8b5dd99eb409d89", "name": "1fd3b4fe741ecbb0e8b5dd99eb409d89", "type": "electric_scooter", "fusion_lon": 0.0, "is_reserved": 0, "fusion_lat": 0.0, "lon": -76.99885016666667}, {"rental_uris": {"ios": "https://dc.lft.to/lastmile_qr_scan", "android": "https://dc.lft.to/lastmile_qr_scan"}, "lat": 38.904298, "is_disabled": 0, "bike_id": "0ce82c4a0118b3440f9123c49ecbb9ff", "name": "0ce82c4a0118b3440f9123c49ecbb9ff", "type": "electric_scooter", "fusion_lon": 0.0, "is_reserved": 0, "fusion_lat": 0.0, "lon": -77.04654116666667}, {"rental_uris": {"ios": "https://dc.lft.to/lastmile_qr_scan", "android": "https://dc.lft.to/lastmile_qr_scan"}, "lat": 38.902889, "is_disabled": 0, "bike_id": "e0e9b0ce4126e02d1748d56dbd999d6a", "name": "e0e9b0ce4126e02d1748d56dbd999d6a", "type": "electric_scooter", "fusion_lon": 0.0, "is_reserved": 0, "fusion_lat": 0.0, "lon": -76.93658783333333}, {"rental_uris": {"ios": "https://dc.lft.to/lastmile_qr_scan", "android": "https://dc.lft.to/lastmile_qr_scan"}, "lat": 38.894013666666666, "is_disabled": 0, "bike_id": "7298055e72d8cc7abeabd8f764bb1901", "name": "7298055e72d8cc7abeabd8f764bb1901", "type": "electric_scooter", "fusion_lon": 0.0, "is_reserved": 0, "fusion_lat": 0.0, "lon": -77.02151333333333}, {"rental_uris": {"ios": "https://dc.lft.to/lastmile_qr_scan", "android": "https://dc.lft.to/lastmile_qr_scan"}, "lat": 38.9079405, "is_disabled": 0, "bike_id": "06a9bedd07602c1b80af0fdb21856fc9", "name": "06a9bedd07602c1b80af0fdb21856fc9", "type": "electric_scooter", "fusion_lon": 0.0, "is_reserved": 0, "fusion_lat": 0.0, "lon": -76.94118166666667}, {"rental_uris": {"ios": "https://dc.lft.to/lastmile_qr_scan", "android": "https://dc.lft.to/lastmile_qr_scan"}, "lat": 38.911747, "is_disabled": 0, "bike_id": "aeadc25eff7c088096d3303700f332fa", "name": "aeadc25eff7c088096d3303700f332fa", "type": "electric_scooter", "fusion_lon": 0.0, "is_reserved": 0, "fusion_lat": 0.0, "lon": -76.98768216666667}, {"rental_uris": {"ios": "https://dc.lft.to/lastmile_qr_scan", "android": "https://dc.lft.to/lastmile_qr_scan"}, "lat": 38.921184, "is_disabled": 0, "bike_id": "66bae37a2bafbda872984b403ae1d141", "name": "66bae37a2bafbda872984b403ae1d141", "type": "electric_scooter", "fusion_lon": 0.0, "is_reserved": 0, "fusion_lat": 0.0, "lon": -77.03663883333333}, {"rental_uris": {"ios": "https://dc.lft.to/lastmile_qr_scan", "android": "https://dc.lft.to/lastmile_qr_scan"}, "lat": 38.887387, "is_disabled": 0, "bike_id": "8421bae21b49a07c082cbc3bd92a15d4", "name": "8421bae21b49a07c082cbc3bd92a15d4", "type": "electric_scooter", "fusion_lon": 0.0, "is_reserved": 0, "fusion_lat": 0.0, "lon": -77.023936}, {"rental_uris": {"ios": "https://dc.lft.to/lastmile_qr_scan", "android": "https://dc.lft.to/lastmile_qr_scan"}, "lat": 38.914209166666666, "is_disabled": 0, "bike_id": "e07d37e7be8389e94910f32982e7d03f", "name": "e07d37e7be8389e94910f32982e7d03f", "type": "electric_scooter", "fusion_lon": 0.0, "is_reserved": 0, "fusion_lat": 0.0, "lon": -77.04019966666667}, {"rental_uris": {"ios": "https://dc.lft.to/lastmile_qr_scan", "android": "https://dc.lft.to/lastmile_qr_scan"}, "lat": 38.921672, "is_disabled": 0, "bike_id": "35d9de47f917b7ba02eb6c2388776040", "name": "35d9de47f917b7ba02eb6c2388776040", "type": "electric_scooter", "fusion_lon": 0.0, "is_reserved": 0, "fusion_lat": 0.0, "lon": -77.04359466666666}, {"rental_uris": {"ios": "https://dc.lft.to/lastmile_qr_scan", "android": "https://dc.lft.to/lastmile_qr_scan"}, "lat": 38.85578833333334, "is_disabled": 0, "bike_id": "c0ce6013a27f8fdb41d340ab31b2aaa6", "name": "c0ce6013a27f8fdb41d340ab31b2aaa6", "type": "electric_scooter", "fusion_lon": 0.0, "is_reserved": 0, "fusion_lat": 0.0, "lon": -76.98686316666667}, {"rental_uris": {"ios": "https://dc.lft.to/lastmile_qr_scan", "android": "https://dc.lft.to/lastmile_qr_scan"}, "lat": 38.94230733333333, "is_disabled": 0, "bike_id": "defd24ee2adcb623768b20add530a0a0", "name": "defd24ee2adcb623768b20add530a0a0", "type": "electric_scooter", "fusion_lon": 0.0, "is_reserved": 0, "fusion_lat": 0.0, "lon": -77.0616195}, {"rental_uris": {"ios": "https://dc.lft.to/lastmile_qr_scan", "android": "https://dc.lft.to/lastmile_qr_scan"}, "lat": 38.902819666666666, "is_disabled": 0, "bike_id": "6cb4b9171b947bc8ac1487ecbeff360a", "name": "6cb4b9171b947bc8ac1487ecbeff360a", "type": "electric_scooter", "fusion_lon": 0.0, "is_reserved": 0, "fusion_lat": 0.0, "lon": -77.02644633333334}, {"rental_uris": {"ios": "https://dc.lft.to/lastmile_qr_scan", "android": "https://dc.lft.to/lastmile_qr_scan"}, "lat": 38.88823083333333, "is_disabled": 0, "bike_id": "9f4164608b7a2de43df3af7e8a48039b", "name": "9f4164608b7a2de43df3af7e8a48039b", "type": "electric_bike", "fusion_lon": 0.0, "is_reserved": 0, "fusion_lat": 0.0, "lon": -77.12743466666667}, {"rental_uris": {"ios": "https://dc.lft.to/lastmile_qr_scan", "android": "https://dc.lft.to/lastmile_qr_scan"}, "lat": 38.90573916666666, "is_disabled": 0, "bike_id": "8d99fadc780f2a9483fa0cc8366f521e", "name": "8d99fadc780f2a9483fa0cc8366f521e", "type": "electric_scooter", "fusion_lon": 0.0, "is_reserved": 0, "fusion_lat": 0.0, "lon": -77.005806}, {"rental_uris": {"ios": "https://dc.lft.to/lastmile_qr_scan", "android": "https://dc.lft.to/lastmile_qr_scan"}, "lat": 38.9038605, "is_disabled": 0, "bike_id": "f47a444961275f028220d81f51d3acbb", "name": "f47a444961275f028220d81f51d3acbb", "type": "electric_scooter", "fusion_lon": 0.0, "is_reserved": 0, "fusion_lat": 0.0, "lon": -77.04335416666666}, {"rental_uris": {"ios": "https://dc.lft.to/lastmile_qr_scan", "android": "https://dc.lft.to/lastmile_qr_scan"}, "lat": 38.905667666666666, "is_disabled": 0, "bike_id": "40b78bf90bb7a680cfd162d74256d3c6", "name": "40b78bf90bb7a680cfd162d74256d3c6", "type": "electric_scooter", "fusion_lon": 0.0, "is_reserved": 0, "fusion_lat": 0.0, "lon": -77.0058515}, {"rental_uris": {"ios": "https://dc.lft.to/lastmile_qr_scan", "android": "https://dc.lft.to/lastmile_qr_scan"}, "lat": 38.87461033333334, "is_disabled": 0, "bike_id": "c621fd174829cb60c04a43096d88c72e", "name": "c621fd174829cb60c04a43096d88c72e", "type": "electric_scooter", "fusion_lon": 0.0, "is_reserved": 0, "fusion_lat": 0.0, "lon": -77.00608516666667}, {"rental_uris": {"ios": "https://dc.lft.to/lastmile_qr_scan", "android": "https://dc.lft.to/lastmile_qr_scan"}, "lat": 38.94136966666667, "is_disabled": 0, "bike_id": "d0dec498eade708e76650c0b0fd1b09a", "name": "d0dec498eade708e76650c0b0fd1b09a", "type": "electric_scooter", "fusion_lon": 0.0, "is_reserved": 0, "fusion_lat": 0.0, "lon": -77.091988}, {"rental_uris": {"ios": "https://dc.lft.to/lastmile_qr_scan", "android": "https://dc.lft.to/lastmile_qr_scan"}, "lat": 38.90855766666667, "is_disabled": 0, "bike_id": "4f565ea88b1c96dba480cd218e8c1d6f", "name": "4f565ea88b1c96dba480cd218e8c1d6f", "type": "electric_scooter", "fusion_lon": 0.0, "is_reserved": 0, "fusion_lat": 0.0, "lon": -77.045569}, {"rental_uris": {"ios": "https://dc.lft.to/lastmile_qr_scan", "android": "https://dc.lft.to/lastmile_qr_scan"}, "lat": 38.955696, "is_disabled": 0, "bike_id": "d55783872b9d0bc24931986c22339980", "name": "d55783872b9d0bc24931986c22339980", "type": "electric_scooter", "fusion_lon": 0.0, "is_reserved": 0, "fusion_lat": 0.0, "lon": -77.006307}, {"rental_uris": {"ios": "https://dc.lft.to/lastmile_qr_scan", "android": "https://dc.lft.to/lastmile_qr_scan"}, "lat": 38.89644233333333, "is_disabled": 0, "bike_id": "f73ee840c2351d0d8d0b47f77a309e84", "name": "f73ee840c2351d0d8d0b47f77a309e84", "type": "electric_scooter", "fusion_lon": 0.0, "is_reserved": 0, "fusion_lat": 0.0, "lon": -77.02692266666666}, {"rental_uris": {"ios": "https://dc.lft.to/lastmile_qr_scan", "android": "https://dc.lft.to/lastmile_qr_scan"}, "lat": 38.90270966666667, "is_disabled": 0, "bike_id": "9468183ea8595a2a12d51f7f15eb26a6", "name": "9468183ea8595a2a12d51f7f15eb26a6", "type": "electric_scooter", "fusion_lon": 0.0, "is_reserved": 0, "fusion_lat": 0.0, "lon": -77.03472516666666}, {"rental_uris": {"ios": "https://dc.lft.to/lastmile_qr_scan", "android": "https://dc.lft.to/lastmile_qr_scan"}, "lat": 38.90061633333333, "is_disabled": 0, "bike_id": "4dcb7b1df51e145cb2b8931623a5f7d6", "name": "4dcb7b1df51e145cb2b8931623a5f7d6", "type": "electric_scooter", "fusion_lon": 0.0, "is_reserved": 0, "fusion_lat": 0.0, "lon": -77.0020475}, {"rental_uris": {"ios": "https://dc.lft.to/lastmile_qr_scan", "android": "https://dc.lft.to/lastmile_qr_scan"}, "lat": 38.917079333333334, "is_disabled": 0, "bike_id": "94949e1a254a7c04b666178f4963b29f", "name": "94949e1a254a7c04b666178f4963b29f", "type": "electric_scooter", "fusion_lon": 0.0, "is_reserved": 0, "fusion_lat": 0.0, "lon": -77.03568016666667}, {"rental_uris": {"ios": "https://dc.lft.to/lastmile_qr_scan", "android": "https://dc.lft.to/lastmile_qr_scan"}, "lat": 38.852165, "is_disabled": 0, "bike_id": "024cb4cd6960f433867e69e13999ba3a", "name": "024cb4cd6960f433867e69e13999ba3a", "type": "electric_bike", "fusion_lon": 0.0, "is_reserved": 0, "fusion_lat": 0.0, "lon": -77.129627}, {"rental_uris": {"ios": "https://dc.lft.to/lastmile_qr_scan", "android": "https://dc.lft.to/lastmile_qr_scan"}, "lat": 38.91765866666667, "is_disabled": 0, "bike_id": "f978517e81e1bd9b9cfcfb1387af3eb7", "name": "f978517e81e1bd9b9cfcfb1387af3eb7", "type": "electric_scooter", "fusion_lon": 0.0, "is_reserved": 0, "fusion_lat": 0.0, "lon": -77.02487116666667}, {"rental_uris": {"ios": "https://dc.lft.to/lastmile_qr_scan", "android": "https://dc.lft.to/lastmile_qr_scan"}, "lat": 38.91255066666667, "is_disabled": 0, "bike_id": "fe8b2760becc6c24017133bcee4f0dde", "name": "fe8b2760becc6c24017133bcee4f0dde", "type": "electric_scooter", "fusion_lon": 0.0, "is_reserved": 0, "fusion_lat": 0.0, "lon": -77.00931983333334}, {"rental_uris": {"ios": "https://dc.lft.to/lastmile_qr_scan", "android": "https://dc.lft.to/lastmile_qr_scan"}, "lat": 38.894871333333334, "is_disabled": 0, "bike_id": "185a97740cb095910c41935a7082cfdd", "name": "185a97740cb095910c41935a7082cfdd", "type": "electric_scooter", "fusion_lon": 0.0, "is_reserved": 0, "fusion_lat": 0.0, "lon": -76.995167}, {"rental_uris": {"ios": "https://dc.lft.to/lastmile_qr_scan", "android": "https://dc.lft.to/lastmile_qr_scan"}, "lat": 38.90510416666667, "is_disabled": 0, "bike_id": "5d22953803bf4019f98020e308e53a27", "name": "5d22953803bf4019f98020e308e53a27", "type": "electric_scooter", "fusion_lon": 0.0, "is_reserved": 0, "fusion_lat": 0.0, "lon": -77.04064066666666}, {"rental_uris": {"ios": "https://dc.lft.to/lastmile_qr_scan", "android": "https://dc.lft.to/lastmile_qr_scan"}, "lat": 38.91335516666667, "is_disabled": 0, "bike_id": "6213e2af753888c63249d818657380ea", "name": "6213e2af753888c63249d818657380ea", "type": "electric_scooter", "fusion_lon": 0.0, "is_reserved": 0, "fusion_lat": 0.0, "lon": -77.045253}, {"rental_uris": {"ios": "https://dc.lft.to/lastmile_qr_scan", "android": "https://dc.lft.to/lastmile_qr_scan"}, "lat": 38.90955816666666, "is_disabled": 0, "bike_id": "b984ecfe62900c1aee143726bd4a13b1", "name": "b984ecfe62900c1aee143726bd4a13b1", "type": "electric_scooter", "fusion_lon": 0.0, "is_reserved": 0, "fusion_lat": 0.0, "lon": -77.03255683333333}, {"rental_uris": {"ios": "https://dc.lft.to/lastmile_qr_scan", "android": "https://dc.lft.to/lastmile_qr_scan"}, "lat": 38.8659525, "is_disabled": 0, "bike_id": "01df3502d8b6e4d1c4eef2a22486759f", "name": "01df3502d8b6e4d1c4eef2a22486759f", "type": "electric_bike", "fusion_lon": 0.0, "is_reserved": 0, "fusion_lat": 0.0, "lon": -76.9322815}, {"rental_uris": {"ios": "https://dc.lft.to/lastmile_qr_scan", "android": "https://dc.lft.to/lastmile_qr_scan"}, "lat": 38.905678333333334, "is_disabled": 0, "bike_id": "69721974fc2e032dad32c7f516b84094", "name": "69721974fc2e032dad32c7f516b84094", "type": "electric_scooter", "fusion_lon": 0.0, "is_reserved": 0, "fusion_lat": 0.0, "lon": -77.00779133333333}, {"rental_uris": {"ios": "https://dc.lft.to/lastmile_qr_scan", "android": "https://dc.lft.to/lastmile_qr_scan"}, "lat": 38.89838966666667, "is_disabled": 0, "bike_id": "bc1656725e168af19e4039e98b8490f8", "name": "bc1656725e168af19e4039e98b8490f8", "type": "electric_scooter", "fusion_lon": 0.0, "is_reserved": 0, "fusion_lat": 0.0, "lon": -77.02952216666667}, {"rental_uris": {"ios": "https://dc.lft.to/lastmile_qr_scan", "android": "https://dc.lft.to/lastmile_qr_scan"}, "lat": 38.923641, "is_disabled": 0, "bike_id": "b6355d7469ae70303309b0404363e2de", "name": "b6355d7469ae70303309b0404363e2de", "type": "electric_scooter", "fusion_lon": 0.0, "is_reserved": 0, "fusion_lat": 0.0, "lon": -77.05029683333333}, {"rental_uris": {"ios": "https://dc.lft.to/lastmile_qr_scan", "android": "https://dc.lft.to/lastmile_qr_scan"}, "lat": 38.90269283333333, "is_disabled": 0, "bike_id": "500a8527b7a803f271a3c8657f739bd4", "name": "500a8527b7a803f271a3c8657f739bd4", "type": "electric_scooter", "fusion_lon": 0.0, "is_reserved": 0, "fusion_lat": 0.0, "lon": -77.01776533333333}, {"rental_uris": {"ios": "https://dc.lft.to/lastmile_qr_scan", "android": "https://dc.lft.to/lastmile_qr_scan"}, "lat": 38.936722333333336, "is_disabled": 0, "bike_id": "29d15aaca6c57315624bb9df44cb3321", "name": "29d15aaca6c57315624bb9df44cb3321", "type": "electric_scooter", "fusion_lon": 0.0, "is_reserved": 0, "fusion_lat": 0.0, "lon": -77.03264666666666}, {"rental_uris": {"ios": "https://dc.lft.to/lastmile_qr_scan", "android": "https://dc.lft.to/lastmile_qr_scan"}, "lat": 38.914902166666664, "is_disabled": 0, "bike_id": "56336684761b561fe9c3b4890ecb7adf", "name": "56336684761b561fe9c3b4890ecb7adf", "type": "electric_scooter", "fusion_lon": 0.0, "is_reserved": 0, "fusion_lat": 0.0, "lon": -77.01460883333333}, {"rental_uris": {"ios": "https://dc.lft.to/lastmile_qr_scan", "android": "https://dc.lft.to/lastmile_qr_scan"}, "lat": 38.865095333333336, "is_disabled": 0, "bike_id": "96694627b312a009b3de9552d37c0a8f", "name": "96694627b312a009b3de9552d37c0a8f", "type": "electric_scooter", "fusion_lon": 0.0, "is_reserved": 0, "fusion_lat": 0.0, "lon": -76.99002383333334}, {"rental_uris": {"ios": "https://dc.lft.to/lastmile_qr_scan", "android": "https://dc.lft.to/lastmile_qr_scan"}, "lat": 38.9080385, "is_disabled": 0, "bike_id": "3a61a22e75ce59217a991047cd2f6fc6", "name": "3a61a22e75ce59217a991047cd2f6fc6", "type": "electric_scooter", "fusion_lon": 0.0, "is_reserved": 0, "fusion_lat": 0.0, "lon": -77.05145433333334}, {"rental_uris": {"ios": "https://dc.lft.to/lastmile_qr_scan", "android": "https://dc.lft.to/lastmile_qr_scan"}, "lat": 38.89966416666667, "is_disabled": 0, "bike_id": "9f8c8a2c963d667fe246adf08033dcd8", "name": "9f8c8a2c963d667fe246adf08033dcd8", "type": "electric_scooter", "fusion_lon": 0.0, "is_reserved": 0, "fusion_lat": 0.0, "lon": -76.93432566666667}, {"rental_uris": {"ios": "https://dc.lft.to/lastmile_qr_scan", "android": "https://dc.lft.to/lastmile_qr_scan"}, "lat": 38.93354933333333, "is_disabled": 0, "bike_id": "c1f7c1533a10eabf6c842e90ba535e42", "name": "c1f7c1533a10eabf6c842e90ba535e42", "type": "electric_scooter", "fusion_lon": 0.0, "is_reserved": 0, "fusion_lat": 0.0, "lon": -76.994323}, {"rental_uris": {"ios": "https://dc.lft.to/lastmile_qr_scan", "android": "https://dc.lft.to/lastmile_qr_scan"}, "lat": 38.92582266666667, "is_disabled": 0, "bike_id": "2299a019178f0f93e121c16d78d941fa", "name": "2299a019178f0f93e121c16d78d941fa", "type": "electric_bike", "fusion_lon": 0.0, "is_reserved": 0, "fusion_lat": 0.0, "lon": -76.99497583333333}, {"rental_uris": {"ios": "https://dc.lft.to/lastmile_qr_scan", "android": "https://dc.lft.to/lastmile_qr_scan"}, "lat": 38.880289, "is_disabled": 0, "bike_id": "b4c163ffbf37ecc8775a38010a4e06c9", "name": "b4c163ffbf37ecc8775a38010a4e06c9", "type": "electric_scooter", "fusion_lon": 0.0, "is_reserved": 0, "fusion_lat": 0.0, "lon": -76.98823016666667}, {"rental_uris": {"ios": "https://dc.lft.to/lastmile_qr_scan", "android": "https://dc.lft.to/lastmile_qr_scan"}, "lat": 38.9026555, "is_disabled": 0, "bike_id": "587f2aa7b84a35ef92a7a22ae12574ce", "name": "587f2aa7b84a35ef92a7a22ae12574ce", "type": "electric_scooter", "fusion_lon": 0.0, "is_reserved": 0, "fusion_lat": 0.0, "lon": -77.03459533333333}, {"rental_uris": {"ios": "https://dc.lft.to/lastmile_qr_scan", "android": "https://dc.lft.to/lastmile_qr_scan"}, "lat": 38.89922833333333, "is_disabled": 0, "bike_id": "5bfc7af5c98a25dcf6dbdfefbf65f28c", "name": "5bfc7af5c98a25dcf6dbdfefbf65f28c", "type": "electric_scooter", "fusion_lon": 0.0, "is_reserved": 0, "fusion_lat": 0.0, "lon": -77.02419083333334}, {"rental_uris": {"ios": "https://dc.lft.to/lastmile_qr_scan", "android": "https://dc.lft.to/lastmile_qr_scan"}, "lat": 38.88102716666667, "is_disabled": 0, "bike_id": "1e1ffff99583149491539123d72b098d", "name": "1e1ffff99583149491539123d72b098d", "type": "electric_scooter", "fusion_lon": 0.0, "is_reserved": 0, "fusion_lat": 0.0, "lon": -77.02650633333333}, {"rental_uris": {"ios": "https://dc.lft.to/lastmile_qr_scan", "android": "https://dc.lft.to/lastmile_qr_scan"}, "lat": 38.9020295, "is_disabled": 0, "bike_id": "8aa415acb27f66856d8e17289ec6a49b", "name": "8aa415acb27f66856d8e17289ec6a49b", "type": "electric_scooter", "fusion_lon": 0.0, "is_reserved": 0, "fusion_lat": 0.0, "lon": -77.04830783333334}, {"rental_uris": {"ios": "https://dc.lft.to/lastmile_qr_scan", "android": "https://dc.lft.to/lastmile_qr_scan"}, "lat": 38.863765, "is_disabled": 0, "bike_id": "0d4aee2da90f600dab5f441a24d908ce", "name": "0d4aee2da90f600dab5f441a24d908ce", "type": "electric_scooter", "fusion_lon": 0.0, "is_reserved": 0, "fusion_lat": 0.0, "lon": -76.97463083333334}, {"rental_uris": {"ios": "https://dc.lft.to/lastmile_qr_scan", "android": "https://dc.lft.to/lastmile_qr_scan"}, "lat": 38.920625333333334, "is_disabled": 0, "bike_id": "8184a8bb83717bea05e85cbf17e93996", "name": "8184a8bb83717bea05e85cbf17e93996", "type": "electric_scooter", "fusion_lon": 0.0, "is_reserved": 0, "fusion_lat": 0.0, "lon": -77.04179333333333}, {"rental_uris": {"ios": "https://dc.lft.to/lastmile_qr_scan", "android": "https://dc.lft.to/lastmile_qr_scan"}, "lat": 38.911048666666666, "is_disabled": 0, "bike_id": "106b004c3b134c3dd11d4e2b95f373ec", "name": "106b004c3b134c3dd11d4e2b95f373ec", "type": "electric_scooter", "fusion_lon": 0.0, "is_reserved": 0, "fusion_lat": 0.0, "lon": -77.04227583333333}, {"rental_uris": {"ios": "https://dc.lft.to/lastmile_qr_scan", "android": "https://dc.lft.to/lastmile_qr_scan"}, "lat": 38.905254, "is_disabled": 0, "bike_id": "3812b445d422aa17c16b9b0d37293d72", "name": "3812b445d422aa17c16b9b0d37293d72", "type": "electric_scooter", "fusion_lon": 0.0, "is_reserved": 0, "fusion_lat": 0.0, "lon": -77.0434515}, {"rental_uris": {"ios": "https://dc.lft.to/lastmile_qr_scan", "android": "https://dc.lft.to/lastmile_qr_scan"}, "lat": 38.89852, "is_disabled": 0, "bike_id": "0e3cc0304e4644ac6420fba30c0b6c0c", "name": "0e3cc0304e4644ac6420fba30c0b6c0c", "type": "electric_scooter", "fusion_lon": 0.0, "is_reserved": 0, "fusion_lat": 0.0, "lon": -77.03305783333333}, {"rental_uris": {"ios": "https://dc.lft.to/lastmile_qr_scan", "android": "https://dc.lft.to/lastmile_qr_scan"}, "lat": 38.84431683333333, "is_disabled": 0, "bike_id": "34623eb07a1b0651bd5c110327c846b5", "name": "34623eb07a1b0651bd5c110327c846b5", "type": "electric_scooter", "fusion_lon": 0.0, "is_reserved": 0, "fusion_lat": 0.0, "lon": -76.9978315}, {"rental_uris": {"ios": "https://dc.lft.to/lastmile_qr_scan", "android": "https://dc.lft.to/lastmile_qr_scan"}, "lat": 38.883256833333334, "is_disabled": 0, "bike_id": "8077e9afc93c2a85a7b1165cbf948772", "name": "8077e9afc93c2a85a7b1165cbf948772", "type": "electric_scooter", "fusion_lon": 0.0, "is_reserved": 0, "fusion_lat": 0.0, "lon": -76.94943533333333}, {"rental_uris": {"ios": "https://dc.lft.to/lastmile_qr_scan", "android": "https://dc.lft.to/lastmile_qr_scan"}, "lat": 38.907680666666664, "is_disabled": 0, "bike_id": "fffa9f49d9dcb2e4c587c50b2be655a2", "name": "fffa9f49d9dcb2e4c587c50b2be655a2", "type": "electric_scooter", "fusion_lon": 0.0, "is_reserved": 0, "fusion_lat": 0.0, "lon": -77.03572416666667}, {"rental_uris": {"ios": "https://dc.lft.to/lastmile_qr_scan", "android": "https://dc.lft.to/lastmile_qr_scan"}, "lat": 38.8361, "is_disabled": 0, "bike_id": "f2bf3c044b62effcb88967c17d7dab03", "name": "f2bf3c044b62effcb88967c17d7dab03", "type": "electric_bike", "fusion_lon": 0.0, "is_reserved": 0, "fusion_lat": 0.0, "lon": -77.00375}, {"rental_uris": {"ios": "https://dc.lft.to/lastmile_qr_scan", "android": "https://dc.lft.to/lastmile_qr_scan"}, "lat": 38.956526333333336, "is_disabled": 0, "bike_id": "7ee816814a450996ef7ddc113838673a", "name": "7ee816814a450996ef7ddc113838673a", "type": "electric_scooter", "fusion_lon": 0.0, "is_reserved": 0, "fusion_lat": 0.0, "lon": -77.032905}, {"rental_uris": {"ios": "https://dc.lft.to/lastmile_qr_scan", "android": "https://dc.lft.to/lastmile_qr_scan"}, "lat": 38.9030785, "is_disabled": 0, "bike_id": "00e2415aa3e343279f432dd9548f37fb", "name": "00e2415aa3e343279f432dd9548f37fb", "type": "electric_scooter", "fusion_lon": 0.0, "is_reserved": 0, "fusion_lat": 0.0, "lon": -77.02119983333333}, {"rental_uris": {"ios": "https://dc.lft.to/lastmile_qr_scan", "android": "https://dc.lft.to/lastmile_qr_scan"}, "lat": 38.912677, "is_disabled": 0, "bike_id": "5e6676d86f7da226465c203bc25b7868", "name": "5e6676d86f7da226465c203bc25b7868", "type": "electric_scooter", "fusion_lon": 0.0, "is_reserved": 0, "fusion_lat": 0.0, "lon": -77.026614}, {"rental_uris": {"ios": "https://dc.lft.to/lastmile_qr_scan", "android": "https://dc.lft.to/lastmile_qr_scan"}, "lat": 38.84106283333333, "is_disabled": 0, "bike_id": "aa2acd9c0f15a52c502214dfbff64849", "name": "aa2acd9c0f15a52c502214dfbff64849", "type": "electric_bike", "fusion_lon": 0.0, "is_reserved": 0, "fusion_lat": 0.0, "lon": -77.0895435}, {"rental_uris": {"ios": "https://dc.lft.to/lastmile_qr_scan", "android": "https://dc.lft.to/lastmile_qr_scan"}, "lat": 38.90022166666667, "is_disabled": 0, "bike_id": "feef9437daefba21d15b3823b2b401a5", "name": "feef9437daefba21d15b3823b2b401a5", "type": "electric_scooter", "fusion_lon": 0.0, "is_reserved": 0, "fusion_lat": 0.0, "lon": -77.0015585}, {"rental_uris": {"ios": "https://dc.lft.to/lastmile_qr_scan", "android": "https://dc.lft.to/lastmile_qr_scan"}, "lat": 38.95090483333333, "is_disabled": 0, "bike_id": "89b1191de086215116cb200ebfeecc08", "name": "89b1191de086215116cb200ebfeecc08", "type": "electric_bike", "fusion_lon": 0.0, "is_reserved": 0, "fusion_lat": 0.0, "lon": -77.01228716666667}, {"rental_uris": {"ios": "https://dc.lft.to/lastmile_qr_scan", "android": "https://dc.lft.to/lastmile_qr_scan"}, "lat": 38.89637583333333, "is_disabled": 0, "bike_id": "7d2528c4046e77b35150973b6a81de02", "name": "7d2528c4046e77b35150973b6a81de02", "type": "electric_scooter", "fusion_lon": 0.0, "is_reserved": 0, "fusion_lat": 0.0, "lon": -76.94771066666667}, {"rental_uris": {"ios": "https://dc.lft.to/lastmile_qr_scan", "android": "https://dc.lft.to/lastmile_qr_scan"}, "lat": 38.9759355, "is_disabled": 0, "bike_id": "9725c712517a8114aaed4d4c73602089", "name": "9725c712517a8114aaed4d4c73602089", "type": "electric_bike", "fusion_lon": 0.0, "is_reserved": 0, "fusion_lat": 0.0, "lon": -77.03511033333334}, {"rental_uris": {"ios": "https://dc.lft.to/lastmile_qr_scan", "android": "https://dc.lft.to/lastmile_qr_scan"}, "lat": 38.9265725, "is_disabled": 0, "bike_id": "4654948aaefcf6ac5225e6cfabc2f1a3", "name": "4654948aaefcf6ac5225e6cfabc2f1a3", "type": "electric_scooter", "fusion_lon": 0.0, "is_reserved": 0, "fusion_lat": 0.0, "lon": -77.0405515}, {"rental_uris": {"ios": "https://dc.lft.to/lastmile_qr_scan", "android": "https://dc.lft.to/lastmile_qr_scan"}, "lat": 38.897927, "is_disabled": 0, "bike_id": "0ef4a16faf0b5ea22b10b49d6ab197ea", "name": "0ef4a16faf0b5ea22b10b49d6ab197ea", "type": "electric_scooter", "fusion_lon": 0.0, "is_reserved": 0, "fusion_lat": 0.0, "lon": -77.02731933333334}, {"rental_uris": {"ios": "https://dc.lft.to/lastmile_qr_scan", "android": "https://dc.lft.to/lastmile_qr_scan"}, "lat": 38.90256616666667, "is_disabled": 0, "bike_id": "67138ac18ed8fabaf4336eabb8cc10b0", "name": "67138ac18ed8fabaf4336eabb8cc10b0", "type": "electric_scooter", "fusion_lon": 0.0, "is_reserved": 0, "fusion_lat": 0.0, "lon": -77.0328225}, {"rental_uris": {"ios": "https://dc.lft.to/lastmile_qr_scan", "android": "https://dc.lft.to/lastmile_qr_scan"}, "lat": 38.9156865, "is_disabled": 0, "bike_id": "327b7805671cd6d73f508e24873f73a4", "name": "327b7805671cd6d73f508e24873f73a4", "type": "electric_scooter", "fusion_lon": 0.0, "is_reserved": 0, "fusion_lat": 0.0, "lon": -77.00834733333333}, {"rental_uris": {"ios": "https://dc.lft.to/lastmile_qr_scan", "android": "https://dc.lft.to/lastmile_qr_scan"}, "lat": 38.88747016666667, "is_disabled": 0, "bike_id": "3829b68749640d1faa4146f92b8ec5a0", "name": "3829b68749640d1faa4146f92b8ec5a0", "type": "electric_scooter", "fusion_lon": 0.0, "is_reserved": 0, "fusion_lat": 0.0, "lon": -77.02167716666666}, {"rental_uris": {"ios": "https://dc.lft.to/lastmile_qr_scan", "android": "https://dc.lft.to/lastmile_qr_scan"}, "lat": 38.910976166666664, "is_disabled": 0, "bike_id": "7806aae772069ac96ac069d107fd1df5", "name": "7806aae772069ac96ac069d107fd1df5", "type": "electric_scooter", "fusion_lon": 0.0, "is_reserved": 0, "fusion_lat": 0.0, "lon": -77.043947}, {"rental_uris": {"ios": "https://dc.lft.to/lastmile_qr_scan", "android": "https://dc.lft.to/lastmile_qr_scan"}, "lat": 38.923384166666665, "is_disabled": 0, "bike_id": "007a2beff8fe047e6bd512b143cbdbb7", "name": "007a2beff8fe047e6bd512b143cbdbb7", "type": "electric_scooter", "fusion_lon": 0.0, "is_reserved": 0, "fusion_lat": 0.0, "lon": -77.046438}, {"rental_uris": {"ios": "https://dc.lft.to/lastmile_qr_scan", "android": "https://dc.lft.to/lastmile_qr_scan"}, "lat": 38.901434333333334, "is_disabled": 0, "bike_id": "c4dc99db95ce6afd75156d3289589499", "name": "c4dc99db95ce6afd75156d3289589499", "type": "electric_scooter", "fusion_lon": 0.0, "is_reserved": 0, "fusion_lat": 0.0, "lon": -77.03244816666667}, {"rental_uris": {"ios": "https://dc.lft.to/lastmile_qr_scan", "android": "https://dc.lft.to/lastmile_qr_scan"}, "lat": 38.91618066666667, "is_disabled": 0, "bike_id": "64e4bd7eb8967d6c3ab40118dc66f454", "name": "64e4bd7eb8967d6c3ab40118dc66f454", "type": "electric_scooter", "fusion_lon": 0.0, "is_reserved": 0, "fusion_lat": 0.0, "lon": -77.02277266666667}, {"rental_uris": {"ios": "https://dc.lft.to/lastmile_qr_scan", "android": "https://dc.lft.to/lastmile_qr_scan"}, "lat": 38.8973695, "is_disabled": 0, "bike_id": "2bdf4a52dd437101b3b6b8bbee086a2c", "name": "2bdf4a52dd437101b3b6b8bbee086a2c", "type": "electric_bike", "fusion_lon": 0.0, "is_reserved": 0, "fusion_lat": 0.0, "lon": -76.90536983333334}, {"rental_uris": {"ios": "https://dc.lft.to/lastmile_qr_scan", "android": "https://dc.lft.to/lastmile_qr_scan"}, "lat": 38.93708633333333, "is_disabled": 0, "bike_id": "30e672bc05a507fc6df38fb899da7408", "name": "30e672bc05a507fc6df38fb899da7408", "type": "electric_scooter", "fusion_lon": 0.0, "is_reserved": 0, "fusion_lat": 0.0, "lon": -77.02111916666667}, {"rental_uris": {"ios": "https://dc.lft.to/lastmile_qr_scan", "android": "https://dc.lft.to/lastmile_qr_scan"}, "lat": 38.92501983333333, "is_disabled": 0, "bike_id": "b6562056bbde05b8f861d4a42b2bbff4", "name": "b6562056bbde05b8f861d4a42b2bbff4", "type": "electric_scooter", "fusion_lon": 0.0, "is_reserved": 0, "fusion_lat": 0.0, "lon": -77.02713916666667}, {"rental_uris": {"ios": "https://dc.lft.to/lastmile_qr_scan", "android": "https://dc.lft.to/lastmile_qr_scan"}, "lat": 38.94421533333333, "is_disabled": 0, "bike_id": "2105f311d9473717933fa43c2cb3b950", "name": "2105f311d9473717933fa43c2cb3b950", "type": "electric_scooter", "fusion_lon": 0.0, "is_reserved": 0, "fusion_lat": 0.0, "lon": -77.055048}, {"rental_uris": {"ios": "https://dc.lft.to/lastmile_qr_scan", "android": "https://dc.lft.to/lastmile_qr_scan"}, "lat": 38.89294916666667, "is_disabled": 0, "bike_id": "9ecb486036113a7b5419480dc5e206c7", "name": "9ecb486036113a7b5419480dc5e206c7", "type": "electric_scooter", "fusion_lon": 0.0, "is_reserved": 0, "fusion_lat": 0.0, "lon": -77.02604033333333}, {"rental_uris": {"ios": "https://dc.lft.to/lastmile_qr_scan", "android": "https://dc.lft.to/lastmile_qr_scan"}, "lat": 38.90979683333333, "is_disabled": 0, "bike_id": "98b1dc1ad29a58c7c26db6614c1207b9", "name": "98b1dc1ad29a58c7c26db6614c1207b9", "type": "electric_scooter", "fusion_lon": 0.0, "is_reserved": 0, "fusion_lat": 0.0, "lon": -77.03885266666667}, {"rental_uris": {"ios": "https://dc.lft.to/lastmile_qr_scan", "android": "https://dc.lft.to/lastmile_qr_scan"}, "lat": 38.90584, "is_disabled": 0, "bike_id": "c8dfd77339c686e2eeb475ffbd1e9020", "name": "c8dfd77339c686e2eeb475ffbd1e9020", "type": "electric_scooter", "fusion_lon": 0.0, "is_reserved": 0, "fusion_lat": 0.0, "lon": -77.04667266666667}, {"rental_uris": {"ios": "https://dc.lft.to/lastmile_qr_scan", "android": "https://dc.lft.to/lastmile_qr_scan"}, "lat": 38.911415833333336, "is_disabled": 0, "bike_id": "00d038ce7133a06f08119f3b03269db4", "name": "00d038ce7133a06f08119f3b03269db4", "type": "electric_scooter", "fusion_lon": 0.0, "is_reserved": 0, "fusion_lat": 0.0, "lon": -76.99011933333334}, {"rental_uris": {"ios": "https://dc.lft.to/lastmile_qr_scan", "android": "https://dc.lft.to/lastmile_qr_scan"}, "lat": 38.88596283333333, "is_disabled": 0, "bike_id": "e94bc55e0bcf905d140fd5a41ee998ea", "name": "e94bc55e0bcf905d140fd5a41ee998ea", "type": "electric_scooter", "fusion_lon": 0.0, "is_reserved": 0, "fusion_lat": 0.0, "lon": -76.9525455}, {"rental_uris": {"ios": "https://dc.lft.to/lastmile_qr_scan", "android": "https://dc.lft.to/lastmile_qr_scan"}, "lat": 38.902572166666666, "is_disabled": 0, "bike_id": "acaf68b154b65a61d08ce8767922e409", "name": "acaf68b154b65a61d08ce8767922e409", "type": "electric_scooter", "fusion_lon": 0.0, "is_reserved": 0, "fusion_lat": 0.0, "lon": -77.0462305}, {"rental_uris": {"ios": "https://dc.lft.to/lastmile_qr_scan", "android": "https://dc.lft.to/lastmile_qr_scan"}, "lat": 38.903916, "is_disabled": 0, "bike_id": "93c545152f361d4a5e7eea5be1a4876e", "name": "93c545152f361d4a5e7eea5be1a4876e", "type": "electric_scooter", "fusion_lon": 0.0, "is_reserved": 0, "fusion_lat": 0.0, "lon": -77.01349383333333}, {"rental_uris": {"ios": "https://dc.lft.to/lastmile_qr_scan", "android": "https://dc.lft.to/lastmile_qr_scan"}, "lat": 38.903918, "is_disabled": 0, "bike_id": "ee9eaddf32a7560aab0c58d3ab39e9b4", "name": "ee9eaddf32a7560aab0c58d3ab39e9b4", "type": "electric_scooter", "fusion_lon": 0.0, "is_reserved": 0, "fusion_lat": 0.0, "lon": -76.97906716666667}, {"rental_uris": {"ios": "https://dc.lft.to/lastmile_qr_scan", "android": "https://dc.lft.to/lastmile_qr_scan"}, "lat": 38.8899135, "is_disabled": 0, "bike_id": "862771ed226ec51802ea8247fdfb450d", "name": "862771ed226ec51802ea8247fdfb450d", "type": "electric_scooter", "fusion_lon": 0.0, "is_reserved": 0, "fusion_lat": 0.0, "lon": -76.998201}, {"rental_uris": {"ios": "https://dc.lft.to/lastmile_qr_scan", "android": "https://dc.lft.to/lastmile_qr_scan"}, "lat": 38.91193716666667, "is_disabled": 0, "bike_id": "edf6d3522fa2487034f5b262d16e23c5", "name": "edf6d3522fa2487034f5b262d16e23c5", "type": "electric_scooter", "fusion_lon": 0.0, "is_reserved": 0, "fusion_lat": 0.0, "lon": -77.0386155}, {"rental_uris": {"ios": "https://dc.lft.to/lastmile_qr_scan", "android": "https://dc.lft.to/lastmile_qr_scan"}, "lat": 38.900463, "is_disabled": 0, "bike_id": "521514b4dbcac897aeb39bfcd38cae50", "name": "521514b4dbcac897aeb39bfcd38cae50", "type": "electric_scooter", "fusion_lon": 0.0, "is_reserved": 0, "fusion_lat": 0.0, "lon": -77.02980933333333}, {"rental_uris": {"ios": "https://dc.lft.to/lastmile_qr_scan", "android": "https://dc.lft.to/lastmile_qr_scan"}, "lat": 38.923813333333335, "is_disabled": 0, "bike_id": "13cc4bf6f1820c7b98202f5a97932c5a", "name": "13cc4bf6f1820c7b98202f5a97932c5a", "type": "electric_scooter", "fusion_lon": 0.0, "is_reserved": 0, "fusion_lat": 0.0, "lon": -77.031282}, {"rental_uris": {"ios": "https://dc.lft.to/lastmile_qr_scan", "android": "https://dc.lft.to/lastmile_qr_scan"}, "lat": 38.89375416666667, "is_disabled": 0, "bike_id": "0ee31b216e0dd1a58cc781718c472e60", "name": "0ee31b216e0dd1a58cc781718c472e60", "type": "electric_scooter", "fusion_lon": 0.0, "is_reserved": 0, "fusion_lat": 0.0, "lon": -77.047957}, {"rental_uris": {"ios": "https://dc.lft.to/lastmile_qr_scan", "android": "https://dc.lft.to/lastmile_qr_scan"}, "lat": 38.90654116666666, "is_disabled": 0, "bike_id": "9321037c81cff9e1b5b1f63c27b25eb2", "name": "9321037c81cff9e1b5b1f63c27b25eb2", "type": "electric_bike", "fusion_lon": 0.0, "is_reserved": 0, "fusion_lat": 0.0, "lon": -77.01136233333334}, {"rental_uris": {"ios": "https://dc.lft.to/lastmile_qr_scan", "android": "https://dc.lft.to/lastmile_qr_scan"}, "lat": 39.010382666666665, "is_disabled": 0, "bike_id": "c2a920cb94986ef5fc16c0409e87dc81", "name": "c2a920cb94986ef5fc16c0409e87dc81", "type": "electric_bike", "fusion_lon": 0.0, "is_reserved": 0, "fusion_lat": 0.0, "lon": -76.91122916666667}, {"rental_uris": {"ios": "https://dc.lft.to/lastmile_qr_scan", "android": "https://dc.lft.to/lastmile_qr_scan"}, "lat": 38.8845095, "is_disabled": 0, "bike_id": "8d066359ccaef8f3a1aa87898a55781b", "name": "8d066359ccaef8f3a1aa87898a55781b", "type": "electric_scooter", "fusion_lon": 0.0, "is_reserved": 0, "fusion_lat": 0.0, "lon": -77.01041416666666}, {"rental_uris": {"ios": "https://dc.lft.to/lastmile_qr_scan", "android": "https://dc.lft.to/lastmile_qr_scan"}, "lat": 38.89186733333333, "is_disabled": 0, "bike_id": "7b7eca507587232bab330d385c632769", "name": "7b7eca507587232bab330d385c632769", "type": "electric_bike", "fusion_lon": 0.0, "is_reserved": 0, "fusion_lat": 0.0, "lon": -76.95029366666667}, {"rental_uris": {"ios": "https://dc.lft.to/lastmile_qr_scan", "android": "https://dc.lft.to/lastmile_qr_scan"}, "lat": 38.9631305, "is_disabled": 0, "bike_id": "f80a674e4dcf6b9b8efa3c047b951c97", "name": "f80a674e4dcf6b9b8efa3c047b951c97", "type": "electric_bike", "fusion_lon": 0.0, "is_reserved": 0, "fusion_lat": 0.0, "lon": -77.0110145}, {"rental_uris": {"ios": "https://dc.lft.to/lastmile_qr_scan", "android": "https://dc.lft.to/lastmile_qr_scan"}, "lat": 38.87703966666667, "is_disabled": 0, "bike_id": "e6e375ee360c9ea756cda51a8aed2a8b", "name": "e6e375ee360c9ea756cda51a8aed2a8b", "type": "electric_scooter", "fusion_lon": 0.0, "is_reserved": 0, "fusion_lat": 0.0, "lon": -77.017405}, {"rental_uris": {"ios": "https://dc.lft.to/lastmile_qr_scan", "android": "https://dc.lft.to/lastmile_qr_scan"}, "lat": 38.9050105, "is_disabled": 0, "bike_id": "8c63e74eb8bd714234adcd0fbe7d991d", "name": "8c63e74eb8bd714234adcd0fbe7d991d", "type": "electric_scooter", "fusion_lon": 0.0, "is_reserved": 0, "fusion_lat": 0.0, "lon": -76.986834}, {"rental_uris": {"ios": "https://dc.lft.to/lastmile_qr_scan", "android": "https://dc.lft.to/lastmile_qr_scan"}, "lat": 38.904152833333335, "is_disabled": 0, "bike_id": "aec05f581fd81d0120ea78da75368b45", "name": "aec05f581fd81d0120ea78da75368b45", "type": "electric_scooter", "fusion_lon": 0.0, "is_reserved": 0, "fusion_lat": 0.0, "lon": -77.001378}, {"rental_uris": {"ios": "https://dc.lft.to/lastmile_qr_scan", "android": "https://dc.lft.to/lastmile_qr_scan"}, "lat": 38.90006316666667, "is_disabled": 0, "bike_id": "b2cac982096245cfa2fcd049ed061ea6", "name": "b2cac982096245cfa2fcd049ed061ea6", "type": "electric_scooter", "fusion_lon": 0.0, "is_reserved": 0, "fusion_lat": 0.0, "lon": -77.02896433333333}, {"rental_uris": {"ios": "https://dc.lft.to/lastmile_qr_scan", "android": "https://dc.lft.to/lastmile_qr_scan"}, "lat": 38.912705, "is_disabled": 0, "bike_id": "ed2f6717928a4e80786d1887f1b50105", "name": "ed2f6717928a4e80786d1887f1b50105", "type": "electric_scooter", "fusion_lon": 0.0, "is_reserved": 0, "fusion_lat": 0.0, "lon": -77.0724745}, {"rental_uris": {"ios": "https://dc.lft.to/lastmile_qr_scan", "android": "https://dc.lft.to/lastmile_qr_scan"}, "lat": 38.902836666666666, "is_disabled": 0, "bike_id": "f0ccfc1c3c821528552ab3ca19c8a365", "name": "f0ccfc1c3c821528552ab3ca19c8a365", "type": "electric_scooter", "fusion_lon": 0.0, "is_reserved": 0, "fusion_lat": 0.0, "lon": -77.0345925}, {"rental_uris": {"ios": "https://dc.lft.to/lastmile_qr_scan", "android": "https://dc.lft.to/lastmile_qr_scan"}, "lat": 38.910299, "is_disabled": 0, "bike_id": "89dc3d938c4e90dea7b9659f486bfe9b", "name": "89dc3d938c4e90dea7b9659f486bfe9b", "type": "electric_scooter", "fusion_lon": 0.0, "is_reserved": 0, "fusion_lat": 0.0, "lon": -77.04153133333334}, {"rental_uris": {"ios": "https://dc.lft.to/lastmile_qr_scan", "android": "https://dc.lft.to/lastmile_qr_scan"}, "lat": 38.9048025, "is_disabled": 0, "bike_id": "db7e1986cf597caed7e580f15c6e078f", "name": "db7e1986cf597caed7e580f15c6e078f", "type": "electric_scooter", "fusion_lon": 0.0, "is_reserved": 0, "fusion_lat": 0.0, "lon": -76.973288}, {"rental_uris": {"ios": "https://dc.lft.to/lastmile_qr_scan", "android": "https://dc.lft.to/lastmile_qr_scan"}, "lat": 38.923824833333335, "is_disabled": 0, "bike_id": "2a5ad2390e55e2a7f4cbde0793874e85", "name": "2a5ad2390e55e2a7f4cbde0793874e85", "type": "electric_scooter", "fusion_lon": 0.0, "is_reserved": 0, "fusion_lat": 0.0, "lon": -77.0403575}, {"rental_uris": {"ios": "https://dc.lft.to/lastmile_qr_scan", "android": "https://dc.lft.to/lastmile_qr_scan"}, "lat": 38.8765465, "is_disabled": 0, "bike_id": "c52043bb90bbf2430b34a6433e888e22", "name": "c52043bb90bbf2430b34a6433e888e22", "type": "electric_scooter", "fusion_lon": 0.0, "is_reserved": 0, "fusion_lat": 0.0, "lon": -76.99336383333333}, {"rental_uris": {"ios": "https://dc.lft.to/lastmile_qr_scan", "android": "https://dc.lft.to/lastmile_qr_scan"}, "lat": 38.90795466666667, "is_disabled": 0, "bike_id": "193f3b721c83359122c63d2472d76519", "name": "193f3b721c83359122c63d2472d76519", "type": "electric_scooter", "fusion_lon": 0.0, "is_reserved": 0, "fusion_lat": 0.0, "lon": -76.99733016666667}, {"rental_uris": {"ios": "https://dc.lft.to/lastmile_qr_scan", "android": "https://dc.lft.to/lastmile_qr_scan"}, "lat": 38.88772016666667, "is_disabled": 0, "bike_id": "9568d44cd45a996dbd600c431a298bef", "name": "9568d44cd45a996dbd600c431a298bef", "type": "electric_scooter", "fusion_lon": 0.0, "is_reserved": 0, "fusion_lat": 0.0, "lon": -77.02173616666667}, {"rental_uris": {"ios": "https://dc.lft.to/lastmile_qr_scan", "android": "https://dc.lft.to/lastmile_qr_scan"}, "lat": 38.922785, "is_disabled": 0, "bike_id": "3ff41b130b0da28c5af07f500eb63650", "name": "3ff41b130b0da28c5af07f500eb63650", "type": "electric_scooter", "fusion_lon": 0.0, "is_reserved": 0, "fusion_lat": 0.0, "lon": -76.99777166666667}, {"rental_uris": {"ios": "https://dc.lft.to/lastmile_qr_scan", "android": "https://dc.lft.to/lastmile_qr_scan"}, "lat": 38.892286166666665, "is_disabled": 0, "bike_id": "64eb2c18982c83b43452b0a05200b26f", "name": "64eb2c18982c83b43452b0a05200b26f", "type": "electric_scooter", "fusion_lon": 0.0, "is_reserved": 0, "fusion_lat": 0.0, "lon": -77.02823833333333}, {"rental_uris": {"ios": "https://dc.lft.to/lastmile_qr_scan", "android": "https://dc.lft.to/lastmile_qr_scan"}, "lat": 38.90519066666667, "is_disabled": 0, "bike_id": "7dc8541774932372b4ec69a88cfbd4c9", "name": "7dc8541774932372b4ec69a88cfbd4c9", "type": "electric_scooter", "fusion_lon": 0.0, "is_reserved": 0, "fusion_lat": 0.0, "lon": -77.04048633333333}, {"rental_uris": {"ios": "https://dc.lft.to/lastmile_qr_scan", "android": "https://dc.lft.to/lastmile_qr_scan"}, "lat": 38.852509833333336, "is_disabled": 0, "bike_id": "a806b73c58e0f8cae05b3f5602f1c436", "name": "a806b73c58e0f8cae05b3f5602f1c436", "type": "electric_bike", "fusion_lon": 0.0, "is_reserved": 0, "fusion_lat": 0.0, "lon": -77.114271}, {"rental_uris": {"ios": "https://dc.lft.to/lastmile_qr_scan", "android": "https://dc.lft.to/lastmile_qr_scan"}, "lat": 38.900208, "is_disabled": 0, "bike_id": "c28a0e0ba344faee13c8cbe7bd9b12d1", "name": "c28a0e0ba344faee13c8cbe7bd9b12d1", "type": "electric_scooter", "fusion_lon": 0.0, "is_reserved": 0, "fusion_lat": 0.0, "lon": -77.044784}, {"rental_uris": {"ios": "https://dc.lft.to/lastmile_qr_scan", "android": "https://dc.lft.to/lastmile_qr_scan"}, "lat": 38.86484816666667, "is_disabled": 0, "bike_id": "8cc3a9e5a842eec46acd2e073962ae30", "name": "8cc3a9e5a842eec46acd2e073962ae30", "type": "electric_scooter", "fusion_lon": 0.0, "is_reserved": 0, "fusion_lat": 0.0, "lon": -76.98350266666667}, {"rental_uris": {"ios": "https://dc.lft.to/lastmile_qr_scan", "android": "https://dc.lft.to/lastmile_qr_scan"}, "lat": 38.9096235, "is_disabled": 0, "bike_id": "a86dcfbc714c105bd7fab911dbf32b2b", "name": "a86dcfbc714c105bd7fab911dbf32b2b", "type": "electric_scooter", "fusion_lon": 0.0, "is_reserved": 0, "fusion_lat": 0.0, "lon": -77.03367866666666}, {"rental_uris": {"ios": "https://dc.lft.to/lastmile_qr_scan", "android": "https://dc.lft.to/lastmile_qr_scan"}, "lat": 38.90273116666667, "is_disabled": 0, "bike_id": "486df9bafd76498e550cb81362dbec04", "name": "486df9bafd76498e550cb81362dbec04", "type": "electric_scooter", "fusion_lon": 0.0, "is_reserved": 0, "fusion_lat": 0.0, "lon": -77.03206566666667}, {"rental_uris": {"ios": "https://dc.lft.to/lastmile_qr_scan", "android": "https://dc.lft.to/lastmile_qr_scan"}, "lat": 38.9497865, "is_disabled": 0, "bike_id": "662f16c07da2cf6507e71f97fe08b11b", "name": "662f16c07da2cf6507e71f97fe08b11b", "type": "electric_scooter", "fusion_lon": 0.0, "is_reserved": 0, "fusion_lat": 0.0, "lon": -77.06751416666667}, {"rental_uris": {"ios": "https://dc.lft.to/lastmile_qr_scan", "android": "https://dc.lft.to/lastmile_qr_scan"}, "lat": 38.8998935, "is_disabled": 0, "bike_id": "2a9dcd0998db807b0bcf6efd49958305", "name": "2a9dcd0998db807b0bcf6efd49958305", "type": "electric_scooter", "fusion_lon": 0.0, "is_reserved": 0, "fusion_lat": 0.0, "lon": -77.03159683333334}, {"rental_uris": {"ios": "https://dc.lft.to/lastmile_qr_scan", "android": "https://dc.lft.to/lastmile_qr_scan"}, "lat": 38.8672235, "is_disabled": 0, "bike_id": "060cd725d3fb866d145813afb18719ef", "name": "060cd725d3fb866d145813afb18719ef", "type": "electric_bike", "fusion_lon": 0.0, "is_reserved": 0, "fusion_lat": 0.0, "lon": -76.989255}, {"rental_uris": {"ios": "https://dc.lft.to/lastmile_qr_scan", "android": "https://dc.lft.to/lastmile_qr_scan"}, "lat": 38.93274683333333, "is_disabled": 0, "bike_id": "59bff3802ae888a2d6d895f944952af3", "name": "59bff3802ae888a2d6d895f944952af3", "type": "electric_scooter", "fusion_lon": 0.0, "is_reserved": 0, "fusion_lat": 0.0, "lon": -77.03910883333333}, {"rental_uris": {"ios": "https://dc.lft.to/lastmile_qr_scan", "android": "https://dc.lft.to/lastmile_qr_scan"}, "lat": 38.924155999999996, "is_disabled": 0, "bike_id": "9753749148dbb307647c3e7b308c2079", "name": "9753749148dbb307647c3e7b308c2079", "type": "electric_scooter", "fusion_lon": 0.0, "is_reserved": 0, "fusion_lat": 0.0, "lon": -77.02008533333333}, {"rental_uris": {"ios": "https://dc.lft.to/lastmile_qr_scan", "android": "https://dc.lft.to/lastmile_qr_scan"}, "lat": 38.908452833333335, "is_disabled": 0, "bike_id": "3bf97d93067729cfc36c97fbd9c528b0", "name": "3bf97d93067729cfc36c97fbd9c528b0", "type": "electric_scooter", "fusion_lon": 0.0, "is_reserved": 0, "fusion_lat": 0.0, "lon": -77.02587933333334}, {"rental_uris": {"ios": "https://dc.lft.to/lastmile_qr_scan", "android": "https://dc.lft.to/lastmile_qr_scan"}, "lat": 38.90324566666666, "is_disabled": 0, "bike_id": "c7becc2ce9a9ec2a48f7f0303bad95c9", "name": "c7becc2ce9a9ec2a48f7f0303bad95c9", "type": "electric_scooter", "fusion_lon": 0.0, "is_reserved": 0, "fusion_lat": 0.0, "lon": -77.05177066666667}, {"rental_uris": {"ios": "https://dc.lft.to/lastmile_qr_scan", "android": "https://dc.lft.to/lastmile_qr_scan"}, "lat": 38.912684, "is_disabled": 0, "bike_id": "16590f1f45638afd6bab63f40ccc48d6", "name": "16590f1f45638afd6bab63f40ccc48d6", "type": "electric_scooter", "fusion_lon": 0.0, "is_reserved": 0, "fusion_lat": 0.0, "lon": -77.03269}, {"rental_uris": {"ios": "https://dc.lft.to/lastmile_qr_scan", "android": "https://dc.lft.to/lastmile_qr_scan"}, "lat": 38.919818666666664, "is_disabled": 0, "bike_id": "090faa424d0bfaeb39aa86d18246dd81", "name": "090faa424d0bfaeb39aa86d18246dd81", "type": "electric_scooter", "fusion_lon": 0.0, "is_reserved": 0, "fusion_lat": 0.0, "lon": -77.01851916666666}, {"rental_uris": {"ios": "https://dc.lft.to/lastmile_qr_scan", "android": "https://dc.lft.to/lastmile_qr_scan"}, "lat": 38.958823, "is_disabled": 0, "bike_id": "33b4194daacc9c655e18aae30dc57ca8", "name": "33b4194daacc9c655e18aae30dc57ca8", "type": "electric_scooter", "fusion_lon": 0.0, "is_reserved": 0, "fusion_lat": 0.0, "lon": -77.00769033333333}, {"rental_uris": {"ios": "https://dc.lft.to/lastmile_qr_scan", "android": "https://dc.lft.to/lastmile_qr_scan"}, "lat": 38.939752166666665, "is_disabled": 0, "bike_id": "ae659a70efd7fc8d94284c481ef5d6c4", "name": "ae659a70efd7fc8d94284c481ef5d6c4", "type": "electric_scooter", "fusion_lon": 0.0, "is_reserved": 0, "fusion_lat": 0.0, "lon": -77.032035}, {"rental_uris": {"ios": "https://dc.lft.to/lastmile_qr_scan", "android": "https://dc.lft.to/lastmile_qr_scan"}, "lat": 38.84481366666667, "is_disabled": 0, "bike_id": "f89651f17229cf592d0bb0a30257cd12", "name": "f89651f17229cf592d0bb0a30257cd12", "type": "electric_bike", "fusion_lon": 0.0, "is_reserved": 0, "fusion_lat": 0.0, "lon": -76.9721635}, {"rental_uris": {"ios": "https://dc.lft.to/lastmile_qr_scan", "android": "https://dc.lft.to/lastmile_qr_scan"}, "lat": 38.9000485, "is_disabled": 0, "bike_id": "06ec3509e6b32bb7ef6f9ef9b74ae363", "name": "06ec3509e6b32bb7ef6f9ef9b74ae363", "type": "electric_scooter", "fusion_lon": 0.0, "is_reserved": 0, "fusion_lat": 0.0, "lon": -77.04650166666667}, {"rental_uris": {"ios": "https://dc.lft.to/lastmile_qr_scan", "android": "https://dc.lft.to/lastmile_qr_scan"}, "lat": 38.86508766666667, "is_disabled": 0, "bike_id": "d681144d6fcbd9be678e2fd9b6b2301c", "name": "d681144d6fcbd9be678e2fd9b6b2301c", "type": "electric_scooter", "fusion_lon": 0.0, "is_reserved": 0, "fusion_lat": 0.0, "lon": -76.99004983333333}, {"rental_uris": {"ios": "https://dc.lft.to/lastmile_qr_scan", "android": "https://dc.lft.to/lastmile_qr_scan"}, "lat": 38.83839866666667, "is_disabled": 0, "bike_id": "4076a50a8f37bbcd3ba517aa2116dff8", "name": "4076a50a8f37bbcd3ba517aa2116dff8", "type": "electric_scooter", "fusion_lon": 0.0, "is_reserved": 0, "fusion_lat": 0.0, "lon": -76.99979466666667}, {"rental_uris": {"ios": "https://dc.lft.to/lastmile_qr_scan", "android": "https://dc.lft.to/lastmile_qr_scan"}, "lat": 38.91118433333333, "is_disabled": 0, "bike_id": "b68032b36c233add32d36fa32cc6ac27", "name": "b68032b36c233add32d36fa32cc6ac27", "type": "electric_scooter", "fusion_lon": 0.0, "is_reserved": 0, "fusion_lat": 0.0, "lon": -77.042204}, {"rental_uris": {"ios": "https://dc.lft.to/lastmile_qr_scan", "android": "https://dc.lft.to/lastmile_qr_scan"}, "lat": 38.9050275, "is_disabled": 0, "bike_id": "909456a82157df8f3a5bc114715ba0f5", "name": "909456a82157df8f3a5bc114715ba0f5", "type": "electric_scooter", "fusion_lon": 0.0, "is_reserved": 0, "fusion_lat": 0.0, "lon": -77.04480766666667}, {"rental_uris": {"ios": "https://dc.lft.to/lastmile_qr_scan", "android": "https://dc.lft.to/lastmile_qr_scan"}, "lat": 38.914628666666665, "is_disabled": 0, "bike_id": "70774e50a237aeb03ffb1a0566e988b9", "name": "70774e50a237aeb03ffb1a0566e988b9", "type": "electric_scooter", "fusion_lon": 0.0, "is_reserved": 0, "fusion_lat": 0.0, "lon": -77.041613}, {"rental_uris": {"ios": "https://dc.lft.to/lastmile_qr_scan", "android": "https://dc.lft.to/lastmile_qr_scan"}, "lat": 38.89551566666667, "is_disabled": 0, "bike_id": "641700ec7e9511d728d72a3b10763c82", "name": "641700ec7e9511d728d72a3b10763c82", "type": "electric_scooter", "fusion_lon": 0.0, "is_reserved": 0, "fusion_lat": 0.0, "lon": -77.01097016666667}, {"rental_uris": {"ios": "https://dc.lft.to/lastmile_qr_scan", "android": "https://dc.lft.to/lastmile_qr_scan"}, "lat": 38.970638, "is_disabled": 0, "bike_id": "df614b425a00c00a100491ce060ead8b", "name": "df614b425a00c00a100491ce060ead8b", "type": "electric_bike", "fusion_lon": 0.0, "is_reserved": 0, "fusion_lat": 0.0, "lon": -76.960037}, {"rental_uris": {"ios": "https://dc.lft.to/lastmile_qr_scan", "android": "https://dc.lft.to/lastmile_qr_scan"}, "lat": 38.928425833333336, "is_disabled": 0, "bike_id": "586f0c63fd55931c1819e456fc8e99c5", "name": "586f0c63fd55931c1819e456fc8e99c5", "type": "electric_scooter", "fusion_lon": 0.0, "is_reserved": 0, "fusion_lat": 0.0, "lon": -76.99365066666667}, {"rental_uris": {"ios": "https://dc.lft.to/lastmile_qr_scan", "android": "https://dc.lft.to/lastmile_qr_scan"}, "lat": 38.86056466666667, "is_disabled": 0, "bike_id": "fab7fabf3ebc9e25891bc2791d3d073c", "name": "fab7fabf3ebc9e25891bc2791d3d073c", "type": "electric_scooter", "fusion_lon": 0.0, "is_reserved": 0, "fusion_lat": 0.0, "lon": -76.99080416666666}, {"rental_uris": {"ios": "https://dc.lft.to/lastmile_qr_scan", "android": "https://dc.lft.to/lastmile_qr_scan"}, "lat": 38.922892166666664, "is_disabled": 0, "bike_id": "ec2793a72d082252351aa9ccede0fb13", "name": "ec2793a72d082252351aa9ccede0fb13", "type": "electric_scooter", "fusion_lon": 0.0, "is_reserved": 0, "fusion_lat": 0.0, "lon": -76.9940385}, {"rental_uris": {"ios": "https://dc.lft.to/lastmile_qr_scan", "android": "https://dc.lft.to/lastmile_qr_scan"}, "lat": 38.905769166666666, "is_disabled": 0, "bike_id": "56baf187469237c0c6efb99b7abc5e92", "name": "56baf187469237c0c6efb99b7abc5e92", "type": "electric_scooter", "fusion_lon": 0.0, "is_reserved": 0, "fusion_lat": 0.0, "lon": -77.00885033333333}, {"rental_uris": {"ios": "https://dc.lft.to/lastmile_qr_scan", "android": "https://dc.lft.to/lastmile_qr_scan"}, "lat": 38.944269, "is_disabled": 0, "bike_id": "67ec77abbf4b7cae768644bcf7243d81", "name": "67ec77abbf4b7cae768644bcf7243d81", "type": "electric_scooter", "fusion_lon": 0.0, "is_reserved": 0, "fusion_lat": 0.0, "lon": -77.031709}, {"rental_uris": {"ios": "https://dc.lft.to/lastmile_qr_scan", "android": "https://dc.lft.to/lastmile_qr_scan"}, "lat": 38.90289883333333, "is_disabled": 0, "bike_id": "8dd4ed737931f8a56ff80dc7516388fd", "name": "8dd4ed737931f8a56ff80dc7516388fd", "type": "electric_scooter", "fusion_lon": 0.0, "is_reserved": 0, "fusion_lat": 0.0, "lon": -77.03647283333333}, {"rental_uris": {"ios": "https://dc.lft.to/lastmile_qr_scan", "android": "https://dc.lft.to/lastmile_qr_scan"}, "lat": 38.91615183333333, "is_disabled": 0, "bike_id": "2da68d0b697adfefaf9d05ad5300b4cf", "name": "2da68d0b697adfefaf9d05ad5300b4cf", "type": "electric_scooter", "fusion_lon": 0.0, "is_reserved": 0, "fusion_lat": 0.0, "lon": -77.02282233333334}, {"rental_uris": {"ios": "https://dc.lft.to/lastmile_qr_scan", "android": "https://dc.lft.to/lastmile_qr_scan"}, "lat": 38.88511116666667, "is_disabled": 0, "bike_id": "aea19c0bf8def91544c3a0bd2515ece4", "name": "aea19c0bf8def91544c3a0bd2515ece4", "type": "electric_scooter", "fusion_lon": 0.0, "is_reserved": 0, "fusion_lat": 0.0, "lon": -77.00567466666666}, {"rental_uris": {"ios": "https://dc.lft.to/lastmile_qr_scan", "android": "https://dc.lft.to/lastmile_qr_scan"}, "lat": 38.898147333333334, "is_disabled": 0, "bike_id": "1c10a9472095bed3e323f82af833247a", "name": "1c10a9472095bed3e323f82af833247a", "type": "electric_scooter", "fusion_lon": 0.0, "is_reserved": 0, "fusion_lat": 0.0, "lon": -77.02632283333334}, {"rental_uris": {"ios": "https://dc.lft.to/lastmile_qr_scan", "android": "https://dc.lft.to/lastmile_qr_scan"}, "lat": 38.91962083333333, "is_disabled": 0, "bike_id": "d54538e83f7e56bbfc53ada6b7a666cf", "name": "d54538e83f7e56bbfc53ada6b7a666cf", "type": "electric_scooter", "fusion_lon": 0.0, "is_reserved": 0, "fusion_lat": 0.0, "lon": -77.01782733333333}, {"rental_uris": {"ios": "https://dc.lft.to/lastmile_qr_scan", "android": "https://dc.lft.to/lastmile_qr_scan"}, "lat": 38.90381683333333, "is_disabled": 0, "bike_id": "68e067c9944512515cef6906edb3df65", "name": "68e067c9944512515cef6906edb3df65", "type": "electric_scooter", "fusion_lon": 0.0, "is_reserved": 0, "fusion_lat": 0.0, "lon": -77.00270933333333}, {"rental_uris": {"ios": "https://dc.lft.to/lastmile_qr_scan", "android": "https://dc.lft.to/lastmile_qr_scan"}, "lat": 38.879276, "is_disabled": 0, "bike_id": "d4635c9d8269c3107c56cabaf944558e", "name": "d4635c9d8269c3107c56cabaf944558e", "type": "electric_scooter", "fusion_lon": 0.0, "is_reserved": 0, "fusion_lat": 0.0, "lon": -77.0040455}, {"rental_uris": {"ios": "https://dc.lft.to/lastmile_qr_scan", "android": "https://dc.lft.to/lastmile_qr_scan"}, "lat": 38.917644833333334, "is_disabled": 0, "bike_id": "1987b30fc4bf0f63e4b0cbd05b27a747", "name": "1987b30fc4bf0f63e4b0cbd05b27a747", "type": "electric_scooter", "fusion_lon": 0.0, "is_reserved": 0, "fusion_lat": 0.0, "lon": -77.02359916666667}, {"rental_uris": {"ios": "https://dc.lft.to/lastmile_qr_scan", "android": "https://dc.lft.to/lastmile_qr_scan"}, "lat": 38.86200633333333, "is_disabled": 0, "bike_id": "2d83431e3192bd335d1e6cdce878f141", "name": "2d83431e3192bd335d1e6cdce878f141", "type": "electric_scooter", "fusion_lon": 0.0, "is_reserved": 0, "fusion_lat": 0.0, "lon": -76.99504466666667}, {"rental_uris": {"ios": "https://dc.lft.to/lastmile_qr_scan", "android": "https://dc.lft.to/lastmile_qr_scan"}, "lat": 38.924041, "is_disabled": 0, "bike_id": "660a3baf277ff06a173ce5362ecd4823", "name": "660a3baf277ff06a173ce5362ecd4823", "type": "electric_scooter", "fusion_lon": 0.0, "is_reserved": 0, "fusion_lat": 0.0, "lon": -77.0296235}, {"rental_uris": {"ios": "https://dc.lft.to/lastmile_qr_scan", "android": "https://dc.lft.to/lastmile_qr_scan"}, "lat": 38.89272116666667, "is_disabled": 0, "bike_id": "952d110336ad138c8268daf951d9a2f1", "name": "952d110336ad138c8268daf951d9a2f1", "type": "electric_scooter", "fusion_lon": 0.0, "is_reserved": 0, "fusion_lat": 0.0, "lon": -77.0202895}, {"rental_uris": {"ios": "https://dc.lft.to/lastmile_qr_scan", "android": "https://dc.lft.to/lastmile_qr_scan"}, "lat": 38.84517916666667, "is_disabled": 0, "bike_id": "e0edcdeef00b7aeefda5e2e618766791", "name": "e0edcdeef00b7aeefda5e2e618766791", "type": "electric_bike", "fusion_lon": 0.0, "is_reserved": 0, "fusion_lat": 0.0, "lon": -77.07795233333333}, {"rental_uris": {"ios": "https://dc.lft.to/lastmile_qr_scan", "android": "https://dc.lft.to/lastmile_qr_scan"}, "lat": 38.9003905, "is_disabled": 0, "bike_id": "a557ebed2289aab89ebae42793d21792", "name": "a557ebed2289aab89ebae42793d21792", "type": "electric_scooter", "fusion_lon": 0.0, "is_reserved": 0, "fusion_lat": 0.0, "lon": -77.00221333333333}, {"rental_uris": {"ios": "https://dc.lft.to/lastmile_qr_scan", "android": "https://dc.lft.to/lastmile_qr_scan"}, "lat": 38.961461666666665, "is_disabled": 0, "bike_id": "b0faa1e738e17274f6a9ee698a5cb24b", "name": "b0faa1e738e17274f6a9ee698a5cb24b", "type": "electric_scooter", "fusion_lon": 0.0, "is_reserved": 0, "fusion_lat": 0.0, "lon": -77.02799733333333}, {"rental_uris": {"ios": "https://dc.lft.to/lastmile_qr_scan", "android": "https://dc.lft.to/lastmile_qr_scan"}, "lat": 38.842988166666665, "is_disabled": 0, "bike_id": "0b52440522f08602a5d73e6459d3d4f2", "name": "0b52440522f08602a5d73e6459d3d4f2", "type": "electric_scooter", "fusion_lon": 0.0, "is_reserved": 0, "fusion_lat": 0.0, "lon": -76.99944333333333}, {"rental_uris": {"ios": "https://dc.lft.to/lastmile_qr_scan", "android": "https://dc.lft.to/lastmile_qr_scan"}, "lat": 38.88741383333333, "is_disabled": 0, "bike_id": "be5825a8ab41f1390a7d8962bf2f07ce", "name": "be5825a8ab41f1390a7d8962bf2f07ce", "type": "electric_scooter", "fusion_lon": 0.0, "is_reserved": 0, "fusion_lat": 0.0, "lon": -77.015365}, {"rental_uris": {"ios": "https://dc.lft.to/lastmile_qr_scan", "android": "https://dc.lft.to/lastmile_qr_scan"}, "lat": 38.900304, "is_disabled": 0, "bike_id": "03954815d53eeabd63c47fd58a589034", "name": "03954815d53eeabd63c47fd58a589034", "type": "electric_scooter", "fusion_lon": 0.0, "is_reserved": 0, "fusion_lat": 0.0, "lon": -76.99556733333333}, {"rental_uris": {"ios": "https://dc.lft.to/lastmile_qr_scan", "android": "https://dc.lft.to/lastmile_qr_scan"}, "lat": 38.85872033333333, "is_disabled": 0, "bike_id": "75e239b0d3e6bbee2061300d65f272e0", "name": "75e239b0d3e6bbee2061300d65f272e0", "type": "electric_scooter", "fusion_lon": 0.0, "is_reserved": 0, "fusion_lat": 0.0, "lon": -76.9903245}, {"rental_uris": {"ios": "https://dc.lft.to/lastmile_qr_scan", "android": "https://dc.lft.to/lastmile_qr_scan"}, "lat": 38.92353216666667, "is_disabled": 0, "bike_id": "3a330c5556c7c6041239b89e857c9e60", "name": "3a330c5556c7c6041239b89e857c9e60", "type": "electric_scooter", "fusion_lon": 0.0, "is_reserved": 0, "fusion_lat": 0.0, "lon": -77.0031165}, {"rental_uris": {"ios": "https://dc.lft.to/lastmile_qr_scan", "android": "https://dc.lft.to/lastmile_qr_scan"}, "lat": 38.905109, "is_disabled": 0, "bike_id": "895284e3f72eba4debd629fddb718b09", "name": "895284e3f72eba4debd629fddb718b09", "type": "electric_scooter", "fusion_lon": 0.0, "is_reserved": 0, "fusion_lat": 0.0, "lon": -77.04338283333334}, {"rental_uris": {"ios": "https://dc.lft.to/lastmile_qr_scan", "android": "https://dc.lft.to/lastmile_qr_scan"}, "lat": 38.88374016666667, "is_disabled": 0, "bike_id": "75192ada5c92095b02b4b6dc92440662", "name": "75192ada5c92095b02b4b6dc92440662", "type": "electric_bike", "fusion_lon": 0.0, "is_reserved": 0, "fusion_lat": 0.0, "lon": -77.00060533333334}, {"rental_uris": {"ios": "https://dc.lft.to/lastmile_qr_scan", "android": "https://dc.lft.to/lastmile_qr_scan"}, "lat": 38.90325633333333, "is_disabled": 0, "bike_id": "4f19b03fc1e9fa934930075b470095d9", "name": "4f19b03fc1e9fa934930075b470095d9", "type": "electric_scooter", "fusion_lon": 0.0, "is_reserved": 0, "fusion_lat": 0.0, "lon": -77.04330083333333}, {"rental_uris": {"ios": "https://dc.lft.to/lastmile_qr_scan", "android": "https://dc.lft.to/lastmile_qr_scan"}, "lat": 38.87652, "is_disabled": 0, "bike_id": "bd8859eca927066aaa9daa102231addc", "name": "bd8859eca927066aaa9daa102231addc", "type": "electric_scooter", "fusion_lon": 0.0, "is_reserved": 0, "fusion_lat": 0.0, "lon": -76.96502666666666}, {"rental_uris": {"ios": "https://dc.lft.to/lastmile_qr_scan", "android": "https://dc.lft.to/lastmile_qr_scan"}, "lat": 38.90812233333333, "is_disabled": 0, "bike_id": "8bfc8cdf62a62995cd0ab25b64a9719d", "name": "8bfc8cdf62a62995cd0ab25b64a9719d", "type": "electric_scooter", "fusion_lon": 0.0, "is_reserved": 0, "fusion_lat": 0.0, "lon": -77.01816066666666}, {"rental_uris": {"ios": "https://dc.lft.to/lastmile_qr_scan", "android": "https://dc.lft.to/lastmile_qr_scan"}, "lat": 38.90382133333333, "is_disabled": 0, "bike_id": "4413ec4b851c3d97a24fdffc62463623", "name": "4413ec4b851c3d97a24fdffc62463623", "type": "electric_scooter", "fusion_lon": 0.0, "is_reserved": 0, "fusion_lat": 0.0, "lon": -77.04332833333333}, {"rental_uris": {"ios": "https://dc.lft.to/lastmile_qr_scan", "android": "https://dc.lft.to/lastmile_qr_scan"}, "lat": 38.92273183333333, "is_disabled": 0, "bike_id": "7e30352ebf917317cc1f2620fc409352", "name": "7e30352ebf917317cc1f2620fc409352", "type": "electric_scooter", "fusion_lon": 0.0, "is_reserved": 0, "fusion_lat": 0.0, "lon": -77.04394716666667}, {"rental_uris": {"ios": "https://dc.lft.to/lastmile_qr_scan", "android": "https://dc.lft.to/lastmile_qr_scan"}, "lat": 39.052072833333334, "is_disabled": 0, "bike_id": "70b96e2532e5497b7ae140a6cf8757ec", "name": "70b96e2532e5497b7ae140a6cf8757ec", "type": "electric_bike", "fusion_lon": 0.0, "is_reserved": 0, "fusion_lat": 0.0, "lon": -77.10908116666667}, {"rental_uris": {"ios": "https://dc.lft.to/lastmile_qr_scan", "android": "https://dc.lft.to/lastmile_qr_scan"}, "lat": 38.8711185, "is_disabled": 0, "bike_id": "11a7ca23b5c84d939f4fd38dd9c4fea8", "name": "11a7ca23b5c84d939f4fd38dd9c4fea8", "type": "electric_scooter", "fusion_lon": 0.0, "is_reserved": 0, "fusion_lat": 0.0, "lon": -77.010731}, {"rental_uris": {"ios": "https://dc.lft.to/lastmile_qr_scan", "android": "https://dc.lft.to/lastmile_qr_scan"}, "lat": 38.88773916666667, "is_disabled": 0, "bike_id": "c699d1c21f2acbe61da789359cd8704f", "name": "c699d1c21f2acbe61da789359cd8704f", "type": "electric_scooter", "fusion_lon": 0.0, "is_reserved": 0, "fusion_lat": 0.0, "lon": -77.00173766666667}, {"rental_uris": {"ios": "https://dc.lft.to/lastmile_qr_scan", "android": "https://dc.lft.to/lastmile_qr_scan"}, "lat": 38.92065633333333, "is_disabled": 0, "bike_id": "d34c88b6488133f561ed0a5c86b28ed1", "name": "d34c88b6488133f561ed0a5c86b28ed1", "type": "electric_scooter", "fusion_lon": 0.0, "is_reserved": 0, "fusion_lat": 0.0, "lon": -77.03376983333334}, {"rental_uris": {"ios": "https://dc.lft.to/lastmile_qr_scan", "android": "https://dc.lft.to/lastmile_qr_scan"}, "lat": 38.89847966666667, "is_disabled": 0, "bike_id": "5eecb94c68b0bab58ae09f9b1bb32710", "name": "5eecb94c68b0bab58ae09f9b1bb32710", "type": "electric_scooter", "fusion_lon": 0.0, "is_reserved": 0, "fusion_lat": 0.0, "lon": -77.03309216666666}, {"rental_uris": {"ios": "https://dc.lft.to/lastmile_qr_scan", "android": "https://dc.lft.to/lastmile_qr_scan"}, "lat": 38.902430333333335, "is_disabled": 0, "bike_id": "efce3ffb32267e6f8cfb826f0ad1e59c", "name": "efce3ffb32267e6f8cfb826f0ad1e59c", "type": "electric_scooter", "fusion_lon": 0.0, "is_reserved": 0, "fusion_lat": 0.0, "lon": -77.02677166666666}, {"rental_uris": {"ios": "https://dc.lft.to/lastmile_qr_scan", "android": "https://dc.lft.to/lastmile_qr_scan"}, "lat": 38.918776666666666, "is_disabled": 0, "bike_id": "988937340fc22edb8bc32bf41af939c2", "name": "988937340fc22edb8bc32bf41af939c2", "type": "electric_scooter", "fusion_lon": 0.0, "is_reserved": 0, "fusion_lat": 0.0, "lon": -77.04724516666667}, {"rental_uris": {"ios": "https://dc.lft.to/lastmile_qr_scan", "android": "https://dc.lft.to/lastmile_qr_scan"}, "lat": 38.92904216666667, "is_disabled": 0, "bike_id": "f0e2a35223587232d9c2cc649afe71b2", "name": "f0e2a35223587232d9c2cc649afe71b2", "type": "electric_scooter", "fusion_lon": 0.0, "is_reserved": 0, "fusion_lat": 0.0, "lon": -77.054546}, {"rental_uris": {"ios": "https://dc.lft.to/lastmile_qr_scan", "android": "https://dc.lft.to/lastmile_qr_scan"}, "lat": 38.884108166666664, "is_disabled": 0, "bike_id": "73f580ca7bb5cea96d20134520a61a86", "name": "73f580ca7bb5cea96d20134520a61a86", "type": "electric_scooter", "fusion_lon": 0.0, "is_reserved": 0, "fusion_lat": 0.0, "lon": -77.03047966666666}, {"rental_uris": {"ios": "https://dc.lft.to/lastmile_qr_scan", "android": "https://dc.lft.to/lastmile_qr_scan"}, "lat": 38.9181525, "is_disabled": 0, "bike_id": "0abd5e687e130fc7876f3f318e7dced6", "name": "0abd5e687e130fc7876f3f318e7dced6", "type": "electric_scooter", "fusion_lon": 0.0, "is_reserved": 0, "fusion_lat": 0.0, "lon": -77.01026683333333}, {"rental_uris": {"ios": "https://dc.lft.to/lastmile_qr_scan", "android": "https://dc.lft.to/lastmile_qr_scan"}, "lat": 38.9052675, "is_disabled": 0, "bike_id": "cf99396c7c5436a7ec15e514449b53d3", "name": "cf99396c7c5436a7ec15e514449b53d3", "type": "electric_scooter", "fusion_lon": 0.0, "is_reserved": 0, "fusion_lat": 0.0, "lon": -77.06139916666666}, {"rental_uris": {"ios": "https://dc.lft.to/lastmile_qr_scan", "android": "https://dc.lft.to/lastmile_qr_scan"}, "lat": 38.892197333333336, "is_disabled": 0, "bike_id": "d89856e58f5d5fc1ad1ac423035c29cb", "name": "d89856e58f5d5fc1ad1ac423035c29cb", "type": "electric_scooter", "fusion_lon": 0.0, "is_reserved": 0, "fusion_lat": 0.0, "lon": -77.027141}, {"rental_uris": {"ios": "https://dc.lft.to/lastmile_qr_scan", "android": "https://dc.lft.to/lastmile_qr_scan"}, "lat": 38.9241105, "is_disabled": 0, "bike_id": "cfa7559af2d3940739b3ece79c92292c", "name": "cfa7559af2d3940739b3ece79c92292c", "type": "electric_scooter", "fusion_lon": 0.0, "is_reserved": 0, "fusion_lat": 0.0, "lon": -77.04037083333333}, {"rental_uris": {"ios": "https://dc.lft.to/lastmile_qr_scan", "android": "https://dc.lft.to/lastmile_qr_scan"}, "lat": 38.93061466666666, "is_disabled": 0, "bike_id": "c740df578bff4e8f1e6e502cfb129f45", "name": "c740df578bff4e8f1e6e502cfb129f45", "type": "electric_scooter", "fusion_lon": 0.0, "is_reserved": 0, "fusion_lat": 0.0, "lon": -77.02808283333333}, {"rental_uris": {"ios": "https://dc.lft.to/lastmile_qr_scan", "android": "https://dc.lft.to/lastmile_qr_scan"}, "lat": 38.90070983333333, "is_disabled": 0, "bike_id": "aff014c6e390251752d632416436250c", "name": "aff014c6e390251752d632416436250c", "type": "electric_scooter", "fusion_lon": 0.0, "is_reserved": 0, "fusion_lat": 0.0, "lon": -77.048269}, {"rental_uris": {"ios": "https://dc.lft.to/lastmile_qr_scan", "android": "https://dc.lft.to/lastmile_qr_scan"}, "lat": 38.890791, "is_disabled": 0, "bike_id": "c8b5572920605e2ad3d866fda00958a3", "name": "c8b5572920605e2ad3d866fda00958a3", "type": "electric_scooter", "fusion_lon": 0.0, "is_reserved": 0, "fusion_lat": 0.0, "lon": -76.91916433333333}, {"rental_uris": {"ios": "https://dc.lft.to/lastmile_qr_scan", "android": "https://dc.lft.to/lastmile_qr_scan"}, "lat": 38.8989875, "is_disabled": 0, "bike_id": "ba811f84641df129a9aae1bc5cb04e56", "name": "ba811f84641df129a9aae1bc5cb04e56", "type": "electric_scooter", "fusion_lon": 0.0, "is_reserved": 0, "fusion_lat": 0.0, "lon": -76.99657283333333}, {"rental_uris": {"ios": "https://dc.lft.to/lastmile_qr_scan", "android": "https://dc.lft.to/lastmile_qr_scan"}, "lat": 38.937002166666666, "is_disabled": 0, "bike_id": "4dc85bf4be3d5bcaebc2996285643d37", "name": "4dc85bf4be3d5bcaebc2996285643d37", "type": "electric_bike", "fusion_lon": 0.0, "is_reserved": 0, "fusion_lat": 0.0, "lon": -76.99059266666667}, {"rental_uris": {"ios": "https://dc.lft.to/lastmile_qr_scan", "android": "https://dc.lft.to/lastmile_qr_scan"}, "lat": 38.9042125, "is_disabled": 0, "bike_id": "2d086400f19d2b656d1e28b323f369d6", "name": "2d086400f19d2b656d1e28b323f369d6", "type": "electric_scooter", "fusion_lon": 0.0, "is_reserved": 0, "fusion_lat": 0.0, "lon": -77.04882133333334}, {"rental_uris": {"ios": "https://dc.lft.to/lastmile_qr_scan", "android": "https://dc.lft.to/lastmile_qr_scan"}, "lat": 38.897945666666665, "is_disabled": 0, "bike_id": "c33306847324d612527c1fa8a8c78cdf", "name": "c33306847324d612527c1fa8a8c78cdf", "type": "electric_bike", "fusion_lon": 0.0, "is_reserved": 0, "fusion_lat": 0.0, "lon": -77.00603333333333}, {"rental_uris": {"ios": "https://dc.lft.to/lastmile_qr_scan", "android": "https://dc.lft.to/lastmile_qr_scan"}, "lat": 38.91929533333333, "is_disabled": 0, "bike_id": "f829f61f6a37bbd7fb4d84a54c9df918", "name": "f829f61f6a37bbd7fb4d84a54c9df918", "type": "electric_scooter", "fusion_lon": 0.0, "is_reserved": 0, "fusion_lat": 0.0, "lon": -77.03125266666666}, {"rental_uris": {"ios": "https://dc.lft.to/lastmile_qr_scan", "android": "https://dc.lft.to/lastmile_qr_scan"}, "lat": 38.8969965, "is_disabled": 0, "bike_id": "878e2579b68b3d22529227ad284d6189", "name": "878e2579b68b3d22529227ad284d6189", "type": "electric_bike", "fusion_lon": 0.0, "is_reserved": 0, "fusion_lat": 0.0, "lon": -77.08860483333333}, {"rental_uris": {"ios": "https://dc.lft.to/lastmile_qr_scan", "android": "https://dc.lft.to/lastmile_qr_scan"}, "lat": 38.92425266666667, "is_disabled": 0, "bike_id": "cca42fd0e11efb0e24f28d8d5f9ea00f", "name": "cca42fd0e11efb0e24f28d8d5f9ea00f", "type": "electric_scooter", "fusion_lon": 0.0, "is_reserved": 0, "fusion_lat": 0.0, "lon": -77.05206333333334}, {"rental_uris": {"ios": "https://dc.lft.to/lastmile_qr_scan", "android": "https://dc.lft.to/lastmile_qr_scan"}, "lat": 38.87721033333333, "is_disabled": 0, "bike_id": "399e22e6b2cd0d384f324c6896623970", "name": "399e22e6b2cd0d384f324c6896623970", "type": "electric_scooter", "fusion_lon": 0.0, "is_reserved": 0, "fusion_lat": 0.0, "lon": -77.01640466666667}, {"rental_uris": {"ios": "https://dc.lft.to/lastmile_qr_scan", "android": "https://dc.lft.to/lastmile_qr_scan"}, "lat": 38.87662916666667, "is_disabled": 0, "bike_id": "7cd8f768678f9fe8850e2cca138ec7d4", "name": "7cd8f768678f9fe8850e2cca138ec7d4", "type": "electric_scooter", "fusion_lon": 0.0, "is_reserved": 0, "fusion_lat": 0.0, "lon": -77.0195285}, {"rental_uris": {"ios": "https://dc.lft.to/lastmile_qr_scan", "android": "https://dc.lft.to/lastmile_qr_scan"}, "lat": 38.9039875, "is_disabled": 0, "bike_id": "0276659cd73ed2e7c145dc3736e75c45", "name": "0276659cd73ed2e7c145dc3736e75c45", "type": "electric_scooter", "fusion_lon": 0.0, "is_reserved": 0, "fusion_lat": 0.0, "lon": -77.03377366666666}, {"rental_uris": {"ios": "https://dc.lft.to/lastmile_qr_scan", "android": "https://dc.lft.to/lastmile_qr_scan"}, "lat": 38.9007305, "is_disabled": 0, "bike_id": "f6dd797adbac6a97aa9be4b1590b2afe", "name": "f6dd797adbac6a97aa9be4b1590b2afe", "type": "electric_scooter", "fusion_lon": 0.0, "is_reserved": 0, "fusion_lat": 0.0, "lon": -77.00203916666666}, {"rental_uris": {"ios": "https://dc.lft.to/lastmile_qr_scan", "android": "https://dc.lft.to/lastmile_qr_scan"}, "lat": 38.95195616666667, "is_disabled": 0, "bike_id": "a630dbaa59b2d69725bba7d6f3a240ca", "name": "a630dbaa59b2d69725bba7d6f3a240ca", "type": "electric_scooter", "fusion_lon": 0.0, "is_reserved": 0, "fusion_lat": 0.0, "lon": -77.02790433333334}, {"rental_uris": {"ios": "https://dc.lft.to/lastmile_qr_scan", "android": "https://dc.lft.to/lastmile_qr_scan"}, "lat": 38.90634416666666, "is_disabled": 0, "bike_id": "bd98128ae1eac89c0639bef757377d21", "name": "bd98128ae1eac89c0639bef757377d21", "type": "electric_scooter", "fusion_lon": 0.0, "is_reserved": 0, "fusion_lat": 0.0, "lon": -77.0345235}, {"rental_uris": {"ios": "https://dc.lft.to/lastmile_qr_scan", "android": "https://dc.lft.to/lastmile_qr_scan"}, "lat": 38.93859833333333, "is_disabled": 0, "bike_id": "4edb29660d73c28dc90299c05bfd453a", "name": "4edb29660d73c28dc90299c05bfd453a", "type": "electric_scooter", "fusion_lon": 0.0, "is_reserved": 0, "fusion_lat": 0.0, "lon": -77.02473266666667}, {"rental_uris": {"ios": "https://dc.lft.to/lastmile_qr_scan", "android": "https://dc.lft.to/lastmile_qr_scan"}, "lat": 38.920684666666666, "is_disabled": 0, "bike_id": "f6335acf830896f335a4d8c0129b8d16", "name": "f6335acf830896f335a4d8c0129b8d16", "type": "electric_scooter", "fusion_lon": 0.0, "is_reserved": 0, "fusion_lat": 0.0, "lon": -77.0381865}, {"rental_uris": {"ios": "https://dc.lft.to/lastmile_qr_scan", "android": "https://dc.lft.to/lastmile_qr_scan"}, "lat": 38.9113895, "is_disabled": 0, "bike_id": "22a13348b35445e3e0c622b0ccb789c5", "name": "22a13348b35445e3e0c622b0ccb789c5", "type": "electric_scooter", "fusion_lon": 0.0, "is_reserved": 0, "fusion_lat": 0.0, "lon": -77.04833783333333}, {"rental_uris": {"ios": "https://dc.lft.to/lastmile_qr_scan", "android": "https://dc.lft.to/lastmile_qr_scan"}, "lat": 38.96631, "is_disabled": 0, "bike_id": "22f06d77264a12276cc6d6e37de5d5be", "name": "22f06d77264a12276cc6d6e37de5d5be", "type": "electric_scooter", "fusion_lon": 0.0, "is_reserved": 0, "fusion_lat": 0.0, "lon": -77.0274165}, {"rental_uris": {"ios": "https://dc.lft.to/lastmile_qr_scan", "android": "https://dc.lft.to/lastmile_qr_scan"}, "lat": 38.917717, "is_disabled": 0, "bike_id": "bd3ec5c178ae82404b5166473a80b3d8", "name": "bd3ec5c178ae82404b5166473a80b3d8", "type": "electric_scooter", "fusion_lon": 0.0, "is_reserved": 0, "fusion_lat": 0.0, "lon": -77.01879333333333}, {"rental_uris": {"ios": "https://dc.lft.to/lastmile_qr_scan", "android": "https://dc.lft.to/lastmile_qr_scan"}, "lat": 38.915716333333336, "is_disabled": 0, "bike_id": "291fbfc63473b8c0f04d83b201a3bf41", "name": "291fbfc63473b8c0f04d83b201a3bf41", "type": "electric_scooter", "fusion_lon": 0.0, "is_reserved": 0, "fusion_lat": 0.0, "lon": -77.006227}, {"rental_uris": {"ios": "https://dc.lft.to/lastmile_qr_scan", "android": "https://dc.lft.to/lastmile_qr_scan"}, "lat": 38.8875125, "is_disabled": 0, "bike_id": "7bb54a3a48d38d2c5697a37cc9e43613", "name": "7bb54a3a48d38d2c5697a37cc9e43613", "type": "electric_scooter", "fusion_lon": 0.0, "is_reserved": 0, "fusion_lat": 0.0, "lon": -77.02574133333333}, {"rental_uris": {"ios": "https://dc.lft.to/lastmile_qr_scan", "android": "https://dc.lft.to/lastmile_qr_scan"}, "lat": 38.880334, "is_disabled": 0, "bike_id": "f358367acff403a7a8bfc5474c3c5b0a", "name": "f358367acff403a7a8bfc5474c3c5b0a", "type": "electric_scooter", "fusion_lon": 0.0, "is_reserved": 0, "fusion_lat": 0.0, "lon": -76.99629}, {"rental_uris": {"ios": "https://dc.lft.to/lastmile_qr_scan", "android": "https://dc.lft.to/lastmile_qr_scan"}, "lat": 38.91262866666667, "is_disabled": 0, "bike_id": "b182953584120995ba77031de31cb159", "name": "b182953584120995ba77031de31cb159", "type": "electric_scooter", "fusion_lon": 0.0, "is_reserved": 0, "fusion_lat": 0.0, "lon": -77.038671}, {"rental_uris": {"ios": "https://dc.lft.to/lastmile_qr_scan", "android": "https://dc.lft.to/lastmile_qr_scan"}, "lat": 38.89994383333333, "is_disabled": 0, "bike_id": "907ffa804387d1c6dc7d076fff0bcba1", "name": "907ffa804387d1c6dc7d076fff0bcba1", "type": "electric_scooter", "fusion_lon": 0.0, "is_reserved": 0, "fusion_lat": 0.0, "lon": -77.02708383333334}, {"rental_uris": {"ios": "https://dc.lft.to/lastmile_qr_scan", "android": "https://dc.lft.to/lastmile_qr_scan"}, "lat": 38.9295425, "is_disabled": 0, "bike_id": "d5fa10b84f1e809e4580354af0f36f62", "name": "d5fa10b84f1e809e4580354af0f36f62", "type": "electric_scooter", "fusion_lon": 0.0, "is_reserved": 0, "fusion_lat": 0.0, "lon": -76.99092083333333}, {"rental_uris": {"ios": "https://dc.lft.to/lastmile_qr_scan", "android": "https://dc.lft.to/lastmile_qr_scan"}, "lat": 38.92697066666667, "is_disabled": 0, "bike_id": "1a87db9b65cbea1ea069defcdb2beae6", "name": "1a87db9b65cbea1ea069defcdb2beae6", "type": "electric_scooter", "fusion_lon": 0.0, "is_reserved": 0, "fusion_lat": 0.0, "lon": -77.022719}, {"rental_uris": {"ios": "https://dc.lft.to/lastmile_qr_scan", "android": "https://dc.lft.to/lastmile_qr_scan"}, "lat": 38.80304566666667, "is_disabled": 0, "bike_id": "c7ddedadc1e5537ca249db62301ee880", "name": "c7ddedadc1e5537ca249db62301ee880", "type": "electric_bike", "fusion_lon": 0.0, "is_reserved": 0, "fusion_lat": 0.0, "lon": -77.03989516666667}, {"rental_uris": {"ios": "https://dc.lft.to/lastmile_qr_scan", "android": "https://dc.lft.to/lastmile_qr_scan"}, "lat": 38.925405, "is_disabled": 0, "bike_id": "8e22026a6a1be8e89c7950473a7c1373", "name": "8e22026a6a1be8e89c7950473a7c1373", "type": "electric_scooter", "fusion_lon": 0.0, "is_reserved": 0, "fusion_lat": 0.0, "lon": -77.0411175}, {"rental_uris": {"ios": "https://dc.lft.to/lastmile_qr_scan", "android": "https://dc.lft.to/lastmile_qr_scan"}, "lat": 38.91443666666667, "is_disabled": 0, "bike_id": "599efa1c0a6c06a41c950b66b17c2f88", "name": "599efa1c0a6c06a41c950b66b17c2f88", "type": "electric_bike", "fusion_lon": 0.0, "is_reserved": 0, "fusion_lat": 0.0, "lon": -77.0692505}, {"rental_uris": {"ios": "https://dc.lft.to/lastmile_qr_scan", "android": "https://dc.lft.to/lastmile_qr_scan"}, "lat": 38.910256, "is_disabled": 0, "bike_id": "a0cc40b9a8c69c32b2a7fc31143ef7ca", "name": "a0cc40b9a8c69c32b2a7fc31143ef7ca", "type": "electric_scooter", "fusion_lon": 0.0, "is_reserved": 0, "fusion_lat": 0.0, "lon": -77.04264383333333}, {"rental_uris": {"ios": "https://dc.lft.to/lastmile_qr_scan", "android": "https://dc.lft.to/lastmile_qr_scan"}, "lat": 38.844764833333336, "is_disabled": 0, "bike_id": "e34c17a82dd9574c8c6b68cbf78c214a", "name": "e34c17a82dd9574c8c6b68cbf78c214a", "type": "electric_scooter", "fusion_lon": 0.0, "is_reserved": 0, "fusion_lat": 0.0, "lon": -76.99517783333333}, {"rental_uris": {"ios": "https://dc.lft.to/lastmile_qr_scan", "android": "https://dc.lft.to/lastmile_qr_scan"}, "lat": 38.949467166666665, "is_disabled": 0, "bike_id": "6398f00be72a430e322cb23cd73978f1", "name": "6398f00be72a430e322cb23cd73978f1", "type": "electric_scooter", "fusion_lon": 0.0, "is_reserved": 0, "fusion_lat": 0.0, "lon": -76.9958085}, {"rental_uris": {"ios": "https://dc.lft.to/lastmile_qr_scan", "android": "https://dc.lft.to/lastmile_qr_scan"}, "lat": 38.91878466666667, "is_disabled": 0, "bike_id": "7ceefcc22d46d66eec08ba3574797a49", "name": "7ceefcc22d46d66eec08ba3574797a49", "type": "electric_scooter", "fusion_lon": 0.0, "is_reserved": 0, "fusion_lat": 0.0, "lon": -77.04182883333333}, {"rental_uris": {"ios": "https://dc.lft.to/lastmile_qr_scan", "android": "https://dc.lft.to/lastmile_qr_scan"}, "lat": 38.92510133333333, "is_disabled": 0, "bike_id": "9639cebf2c511582625247085271536d", "name": "9639cebf2c511582625247085271536d", "type": "electric_scooter", "fusion_lon": 0.0, "is_reserved": 0, "fusion_lat": 0.0, "lon": -77.04090566666666}, {"rental_uris": {"ios": "https://dc.lft.to/lastmile_qr_scan", "android": "https://dc.lft.to/lastmile_qr_scan"}, "lat": 38.936759, "is_disabled": 0, "bike_id": "48acfe90130f914b7d5827b755171ead", "name": "48acfe90130f914b7d5827b755171ead", "type": "electric_bike", "fusion_lon": 0.0, "is_reserved": 0, "fusion_lat": 0.0, "lon": -76.95203983333333}, {"rental_uris": {"ios": "https://dc.lft.to/lastmile_qr_scan", "android": "https://dc.lft.to/lastmile_qr_scan"}, "lat": 38.89880466666666, "is_disabled": 0, "bike_id": "aa90b7dce2d2c979e455b80fb3110915", "name": "aa90b7dce2d2c979e455b80fb3110915", "type": "electric_scooter", "fusion_lon": 0.0, "is_reserved": 0, "fusion_lat": 0.0, "lon": -76.93186333333334}, {"rental_uris": {"ios": "https://dc.lft.to/lastmile_qr_scan", "android": "https://dc.lft.to/lastmile_qr_scan"}, "lat": 38.876861, "is_disabled": 0, "bike_id": "89b5102027f9c64babf53019926c4c7e", "name": "89b5102027f9c64babf53019926c4c7e", "type": "electric_scooter", "fusion_lon": 0.0, "is_reserved": 0, "fusion_lat": 0.0, "lon": -77.01603083333333}, {"rental_uris": {"ios": "https://dc.lft.to/lastmile_qr_scan", "android": "https://dc.lft.to/lastmile_qr_scan"}, "lat": 38.8981605, "is_disabled": 0, "bike_id": "8c8110b910acbf7297ca461a9b86815e", "name": "8c8110b910acbf7297ca461a9b86815e", "type": "electric_bike", "fusion_lon": 0.0, "is_reserved": 0, "fusion_lat": 0.0, "lon": -76.99034233333333}, {"rental_uris": {"ios": "https://dc.lft.to/lastmile_qr_scan", "android": "https://dc.lft.to/lastmile_qr_scan"}, "lat": 38.87552916666667, "is_disabled": 0, "bike_id": "1a275ab9140f5f7becf5f4f168765c85", "name": "1a275ab9140f5f7becf5f4f168765c85", "type": "electric_bike", "fusion_lon": 0.0, "is_reserved": 0, "fusion_lat": 0.0, "lon": -76.96491616666667}, {"rental_uris": {"ios": "https://dc.lft.to/lastmile_qr_scan", "android": "https://dc.lft.to/lastmile_qr_scan"}, "lat": 38.892339, "is_disabled": 0, "bike_id": "4e0f13b7020a554d7807f718b7d85a03", "name": "4e0f13b7020a554d7807f718b7d85a03", "type": "electric_scooter", "fusion_lon": 0.0, "is_reserved": 0, "fusion_lat": 0.0, "lon": -77.02173383333333}, {"rental_uris": {"ios": "https://dc.lft.to/lastmile_qr_scan", "android": "https://dc.lft.to/lastmile_qr_scan"}, "lat": 38.90412166666667, "is_disabled": 0, "bike_id": "303c2d6a23c269e884488bc955260157", "name": "303c2d6a23c269e884488bc955260157", "type": "electric_scooter", "fusion_lon": 0.0, "is_reserved": 0, "fusion_lat": 0.0, "lon": -77.0013695}, {"rental_uris": {"ios": "https://dc.lft.to/lastmile_qr_scan", "android": "https://dc.lft.to/lastmile_qr_scan"}, "lat": 38.92989133333333, "is_disabled": 0, "bike_id": "3d3a23ed9dc28e0a1dd166ee09be6a73", "name": "3d3a23ed9dc28e0a1dd166ee09be6a73", "type": "electric_scooter", "fusion_lon": 0.0, "is_reserved": 0, "fusion_lat": 0.0, "lon": -77.02344716666667}, {"rental_uris": {"ios": "https://dc.lft.to/lastmile_qr_scan", "android": "https://dc.lft.to/lastmile_qr_scan"}, "lat": 38.958792333333335, "is_disabled": 0, "bike_id": "13376f6f5740d549bbf9b8c5fcabe8e1", "name": "13376f6f5740d549bbf9b8c5fcabe8e1", "type": "electric_scooter", "fusion_lon": 0.0, "is_reserved": 0, "fusion_lat": 0.0, "lon": -77.086137}, {"rental_uris": {"ios": "https://dc.lft.to/lastmile_qr_scan", "android": "https://dc.lft.to/lastmile_qr_scan"}, "lat": 38.896208, "is_disabled": 0, "bike_id": "6d9d5a8ada22741317a4de634d17b886", "name": "6d9d5a8ada22741317a4de634d17b886", "type": "electric_scooter", "fusion_lon": 0.0, "is_reserved": 0, "fusion_lat": 0.0, "lon": -76.99936366666667}, {"rental_uris": {"ios": "https://dc.lft.to/lastmile_qr_scan", "android": "https://dc.lft.to/lastmile_qr_scan"}, "lat": 38.92874533333333, "is_disabled": 0, "bike_id": "d07fb3b94e0305513f2a8fd4f9cf8d83", "name": "d07fb3b94e0305513f2a8fd4f9cf8d83", "type": "electric_scooter", "fusion_lon": 0.0, "is_reserved": 0, "fusion_lat": 0.0, "lon": -77.0138485}, {"rental_uris": {"ios": "https://dc.lft.to/lastmile_qr_scan", "android": "https://dc.lft.to/lastmile_qr_scan"}, "lat": 38.95293683333333, "is_disabled": 0, "bike_id": "4ab0700433721f498ba2d26d11301f32", "name": "4ab0700433721f498ba2d26d11301f32", "type": "electric_scooter", "fusion_lon": 0.0, "is_reserved": 0, "fusion_lat": 0.0, "lon": -77.06975966666667}, {"rental_uris": {"ios": "https://dc.lft.to/lastmile_qr_scan", "android": "https://dc.lft.to/lastmile_qr_scan"}, "lat": 38.90074583333333, "is_disabled": 0, "bike_id": "98a4768a5ac37dce31690cb9666bad05", "name": "98a4768a5ac37dce31690cb9666bad05", "type": "electric_scooter", "fusion_lon": 0.0, "is_reserved": 0, "fusion_lat": 0.0, "lon": -77.04896933333333}, {"rental_uris": {"ios": "https://dc.lft.to/lastmile_qr_scan", "android": "https://dc.lft.to/lastmile_qr_scan"}, "lat": 38.905842, "is_disabled": 0, "bike_id": "6db532ef48e08d18e22ab5eb1c925b57", "name": "6db532ef48e08d18e22ab5eb1c925b57", "type": "electric_scooter", "fusion_lon": 0.0, "is_reserved": 0, "fusion_lat": 0.0, "lon": -77.03069416666666}, {"rental_uris": {"ios": "https://dc.lft.to/lastmile_qr_scan", "android": "https://dc.lft.to/lastmile_qr_scan"}, "lat": 38.8923305, "is_disabled": 0, "bike_id": "d9a61f1b21314ace3762a0c3863c5eb1", "name": "d9a61f1b21314ace3762a0c3863c5eb1", "type": "electric_scooter", "fusion_lon": 0.0, "is_reserved": 0, "fusion_lat": 0.0, "lon": -77.049995}, {"rental_uris": {"ios": "https://dc.lft.to/lastmile_qr_scan", "android": "https://dc.lft.to/lastmile_qr_scan"}, "lat": 38.96225616666667, "is_disabled": 0, "bike_id": "ba89ca7646c3d99ba3956a7e91c8994d", "name": "ba89ca7646c3d99ba3956a7e91c8994d", "type": "electric_bike", "fusion_lon": 0.0, "is_reserved": 0, "fusion_lat": 0.0, "lon": -77.02629733333333}, {"rental_uris": {"ios": "https://dc.lft.to/lastmile_qr_scan", "android": "https://dc.lft.to/lastmile_qr_scan"}, "lat": 38.86684533333333, "is_disabled": 0, "bike_id": "99f6a6aee0358af043bbf51b2415255b", "name": "99f6a6aee0358af043bbf51b2415255b", "type": "electric_scooter", "fusion_lon": 0.0, "is_reserved": 0, "fusion_lat": 0.0, "lon": -76.98868283333333}, {"rental_uris": {"ios": "https://dc.lft.to/lastmile_qr_scan", "android": "https://dc.lft.to/lastmile_qr_scan"}, "lat": 38.89265966666667, "is_disabled": 0, "bike_id": "a42e97b417e25abaf0b760a7717294e5", "name": "a42e97b417e25abaf0b760a7717294e5", "type": "electric_scooter", "fusion_lon": 0.0, "is_reserved": 0, "fusion_lat": 0.0, "lon": -77.0203115}, {"rental_uris": {"ios": "https://dc.lft.to/lastmile_qr_scan", "android": "https://dc.lft.to/lastmile_qr_scan"}, "lat": 38.95072416666667, "is_disabled": 0, "bike_id": "e9e156722a658420438142ff5668c290", "name": "e9e156722a658420438142ff5668c290", "type": "electric_scooter", "fusion_lon": 0.0, "is_reserved": 0, "fusion_lat": 0.0, "lon": -77.065371}, {"rental_uris": {"ios": "https://dc.lft.to/lastmile_qr_scan", "android": "https://dc.lft.to/lastmile_qr_scan"}, "lat": 38.9006585, "is_disabled": 0, "bike_id": "47f4fb84e520a4185caf6d1a8388252c", "name": "47f4fb84e520a4185caf6d1a8388252c", "type": "electric_scooter", "fusion_lon": 0.0, "is_reserved": 0, "fusion_lat": 0.0, "lon": -77.02714383333333}, {"rental_uris": {"ios": "https://dc.lft.to/lastmile_qr_scan", "android": "https://dc.lft.to/lastmile_qr_scan"}, "lat": 38.91320233333333, "is_disabled": 0, "bike_id": "aedcf28f2d29c1b17ca1725c58bcb473", "name": "aedcf28f2d29c1b17ca1725c58bcb473", "type": "electric_scooter", "fusion_lon": 0.0, "is_reserved": 0, "fusion_lat": 0.0, "lon": -77.03628366666666}, {"rental_uris": {"ios": "https://dc.lft.to/lastmile_qr_scan", "android": "https://dc.lft.to/lastmile_qr_scan"}, "lat": 38.892230166666664, "is_disabled": 0, "bike_id": "e2b49d1ffbfc1fc36893d02f445993ab", "name": "e2b49d1ffbfc1fc36893d02f445993ab", "type": "electric_scooter", "fusion_lon": 0.0, "is_reserved": 0, "fusion_lat": 0.0, "lon": -77.0242355}, {"rental_uris": {"ios": "https://dc.lft.to/lastmile_qr_scan", "android": "https://dc.lft.to/lastmile_qr_scan"}, "lat": 38.919623333333334, "is_disabled": 0, "bike_id": "3179c795f10c3dc6f88a374f5964ea00", "name": "3179c795f10c3dc6f88a374f5964ea00", "type": "electric_scooter", "fusion_lon": 0.0, "is_reserved": 0, "fusion_lat": 0.0, "lon": -77.02479866666667}, {"rental_uris": {"ios": "https://dc.lft.to/lastmile_qr_scan", "android": "https://dc.lft.to/lastmile_qr_scan"}, "lat": 38.886083166666666, "is_disabled": 0, "bike_id": "3a7db66f2af00f6bae36880432e42fa3", "name": "3a7db66f2af00f6bae36880432e42fa3", "type": "electric_scooter", "fusion_lon": 0.0, "is_reserved": 0, "fusion_lat": 0.0, "lon": -76.994587}, {"rental_uris": {"ios": "https://dc.lft.to/lastmile_qr_scan", "android": "https://dc.lft.to/lastmile_qr_scan"}, "lat": 38.94100566666667, "is_disabled": 0, "bike_id": "e11db28e2a28c6d257aa033cbd977212", "name": "e11db28e2a28c6d257aa033cbd977212", "type": "electric_scooter", "fusion_lon": 0.0, "is_reserved": 0, "fusion_lat": 0.0, "lon": -77.02533933333333}, {"rental_uris": {"ios": "https://dc.lft.to/lastmile_qr_scan", "android": "https://dc.lft.to/lastmile_qr_scan"}, "lat": 38.89890066666667, "is_disabled": 0, "bike_id": "18f3393cf2ab243d123d9aec5179359a", "name": "18f3393cf2ab243d123d9aec5179359a", "type": "electric_scooter", "fusion_lon": 0.0, "is_reserved": 0, "fusion_lat": 0.0, "lon": -77.0432485}, {"rental_uris": {"ios": "https://dc.lft.to/lastmile_qr_scan", "android": "https://dc.lft.to/lastmile_qr_scan"}, "lat": 38.85623, "is_disabled": 0, "bike_id": "897bb75b5068c7275b2e9e009187b882", "name": "897bb75b5068c7275b2e9e009187b882", "type": "electric_bike", "fusion_lon": 0.0, "is_reserved": 0, "fusion_lat": 0.0, "lon": -77.08541383333333}, {"rental_uris": {"ios": "https://dc.lft.to/lastmile_qr_scan", "android": "https://dc.lft.to/lastmile_qr_scan"}, "lat": 38.8808845, "is_disabled": 0, "bike_id": "1d6ee2fd3900d3d1849f0f1b24f408c8", "name": "1d6ee2fd3900d3d1849f0f1b24f408c8", "type": "electric_scooter", "fusion_lon": 0.0, "is_reserved": 0, "fusion_lat": 0.0, "lon": -76.985002}, {"rental_uris": {"ios": "https://dc.lft.to/lastmile_qr_scan", "android": "https://dc.lft.to/lastmile_qr_scan"}, "lat": 38.89299416666667, "is_disabled": 0, "bike_id": "ed2283a283f0437947d85a3308d985b8", "name": "ed2283a283f0437947d85a3308d985b8", "type": "electric_scooter", "fusion_lon": 0.0, "is_reserved": 0, "fusion_lat": 0.0, "lon": -77.03762766666667}, {"rental_uris": {"ios": "https://dc.lft.to/lastmile_qr_scan", "android": "https://dc.lft.to/lastmile_qr_scan"}, "lat": 39.088462, "is_disabled": 0, "bike_id": "0333a1e55ba6c3262394f40c7440d4fa", "name": "0333a1e55ba6c3262394f40c7440d4fa", "type": "electric_bike", "fusion_lon": 0.0, "is_reserved": 0, "fusion_lat": 0.0, "lon": -77.17797216666666}, {"rental_uris": {"ios": "https://dc.lft.to/lastmile_qr_scan", "android": "https://dc.lft.to/lastmile_qr_scan"}, "lat": 38.92989333333333, "is_disabled": 0, "bike_id": "fa59462958de4d4afa120b0c5f8e8a7b", "name": "fa59462958de4d4afa120b0c5f8e8a7b", "type": "electric_scooter", "fusion_lon": 0.0, "is_reserved": 0, "fusion_lat": 0.0, "lon": -77.03212083333334}, {"rental_uris": {"ios": "https://dc.lft.to/lastmile_qr_scan", "android": "https://dc.lft.to/lastmile_qr_scan"}, "lat": 38.9133725, "is_disabled": 0, "bike_id": "1d7d21adfc374d1a510fb6d45feed293", "name": "1d7d21adfc374d1a510fb6d45feed293", "type": "electric_scooter", "fusion_lon": 0.0, "is_reserved": 0, "fusion_lat": 0.0, "lon": -77.04820616666667}, {"rental_uris": {"ios": "https://dc.lft.to/lastmile_qr_scan", "android": "https://dc.lft.to/lastmile_qr_scan"}, "lat": 38.9347215, "is_disabled": 0, "bike_id": "3eb17a1b393588227a7a024124ecb6fc", "name": "3eb17a1b393588227a7a024124ecb6fc", "type": "electric_scooter", "fusion_lon": 0.0, "is_reserved": 0, "fusion_lat": 0.0, "lon": -77.06527283333334}, {"rental_uris": {"ios": "https://dc.lft.to/lastmile_qr_scan", "android": "https://dc.lft.to/lastmile_qr_scan"}, "lat": 38.994597666666664, "is_disabled": 0, "bike_id": "139ade3babb227d8fdc6c740cd534199", "name": "139ade3babb227d8fdc6c740cd534199", "type": "electric_bike", "fusion_lon": 0.0, "is_reserved": 0, "fusion_lat": 0.0, "lon": -76.9081435}, {"rental_uris": {"ios": "https://dc.lft.to/lastmile_qr_scan", "android": "https://dc.lft.to/lastmile_qr_scan"}, "lat": 38.903129, "is_disabled": 0, "bike_id": "74670b13225cdc0e680725bb1242d6ba", "name": "74670b13225cdc0e680725bb1242d6ba", "type": "electric_scooter", "fusion_lon": 0.0, "is_reserved": 0, "fusion_lat": 0.0, "lon": -77.02124516666667}, {"rental_uris": {"ios": "https://dc.lft.to/lastmile_qr_scan", "android": "https://dc.lft.to/lastmile_qr_scan"}, "lat": 38.90142516666667, "is_disabled": 0, "bike_id": "477e1d6d6ffc7be5098a253a193ae266", "name": "477e1d6d6ffc7be5098a253a193ae266", "type": "electric_scooter", "fusion_lon": 0.0, "is_reserved": 0, "fusion_lat": 0.0, "lon": -77.0296085}, {"rental_uris": {"ios": "https://dc.lft.to/lastmile_qr_scan", "android": "https://dc.lft.to/lastmile_qr_scan"}, "lat": 38.86228583333333, "is_disabled": 0, "bike_id": "8b846e2b8633b3208f038a947d4606eb", "name": "8b846e2b8633b3208f038a947d4606eb", "type": "electric_scooter", "fusion_lon": 0.0, "is_reserved": 0, "fusion_lat": 0.0, "lon": -76.99460166666667}, {"rental_uris": {"ios": "https://dc.lft.to/lastmile_qr_scan", "android": "https://dc.lft.to/lastmile_qr_scan"}, "lat": 38.933757, "is_disabled": 0, "bike_id": "aaf95fd3ac52502086ba71cf10dd1646", "name": "aaf95fd3ac52502086ba71cf10dd1646", "type": "electric_scooter", "fusion_lon": 0.0, "is_reserved": 0, "fusion_lat": 0.0, "lon": -77.05727083333333}, {"rental_uris": {"ios": "https://dc.lft.to/lastmile_qr_scan", "android": "https://dc.lft.to/lastmile_qr_scan"}, "lat": 38.8948345, "is_disabled": 0, "bike_id": "37735613f2a5aad99d87c0a4aafb147c", "name": "37735613f2a5aad99d87c0a4aafb147c", "type": "electric_scooter", "fusion_lon": 0.0, "is_reserved": 0, "fusion_lat": 0.0, "lon": -77.00187333333334}, {"rental_uris": {"ios": "https://dc.lft.to/lastmile_qr_scan", "android": "https://dc.lft.to/lastmile_qr_scan"}, "lat": 38.91404283333333, "is_disabled": 0, "bike_id": "83b5d9f582ee7a58416c3d87e2c231fa", "name": "83b5d9f582ee7a58416c3d87e2c231fa", "type": "electric_scooter", "fusion_lon": 0.0, "is_reserved": 0, "fusion_lat": 0.0, "lon": -77.04185016666666}, {"rental_uris": {"ios": "https://dc.lft.to/lastmile_qr_scan", "android": "https://dc.lft.to/lastmile_qr_scan"}, "lat": 38.905262666666665, "is_disabled": 0, "bike_id": "6f899259bbad029cad6bbb854ea02280", "name": "6f899259bbad029cad6bbb854ea02280", "type": "electric_scooter", "fusion_lon": 0.0, "is_reserved": 0, "fusion_lat": 0.0, "lon": -77.0624125}, {"rental_uris": {"ios": "https://dc.lft.to/lastmile_qr_scan", "android": "https://dc.lft.to/lastmile_qr_scan"}, "lat": 38.9200865, "is_disabled": 0, "bike_id": "c30a8544b3e218681db6a57c91f862b7", "name": "c30a8544b3e218681db6a57c91f862b7", "type": "electric_scooter", "fusion_lon": 0.0, "is_reserved": 0, "fusion_lat": 0.0, "lon": -76.98537616666667}, {"rental_uris": {"ios": "https://dc.lft.to/lastmile_qr_scan", "android": "https://dc.lft.to/lastmile_qr_scan"}, "lat": 38.897639833333336, "is_disabled": 0, "bike_id": "ef1a2b043dfa8e00aaf2dfb837d9be77", "name": "ef1a2b043dfa8e00aaf2dfb837d9be77", "type": "electric_scooter", "fusion_lon": 0.0, "is_reserved": 0, "fusion_lat": 0.0, "lon": -77.0035475}, {"rental_uris": {"ios": "https://dc.lft.to/lastmile_qr_scan", "android": "https://dc.lft.to/lastmile_qr_scan"}, "lat": 38.880104333333335, "is_disabled": 0, "bike_id": "eee1011c411f45362f66718d40e3ecea", "name": "eee1011c411f45362f66718d40e3ecea", "type": "electric_bike", "fusion_lon": 0.0, "is_reserved": 0, "fusion_lat": 0.0, "lon": -76.91594416666666}, {"rental_uris": {"ios": "https://dc.lft.to/lastmile_qr_scan", "android": "https://dc.lft.to/lastmile_qr_scan"},