{"data": {"bikes": [{"rental_uris": {"ios": "https://dc.lft.to/lastmile_qr_scan", "android": "https://dc.lft.to/lastmile_qr_scan"}, "fusion_lat": 0.0, "name": "539180ef903f899bba9bf18f45ac174a", "bike_id": "539180ef903f899bba9bf18f45ac174a", "is_disabled": 0, "type": "electric_scooter", "lat": 38.895169, "lon": -76.97728633333334, "is_reserved": 0, "fusion_lon": 0.0}, {"rental_uris": {"ios": "https://dc.lft.to/lastmile_qr_scan", "android": "https://dc.lft.to/lastmile_qr_scan"}, "fusion_lat": 0.0, "name": "140ada26ae6f253a375a23615b385560", "bike_id": "140ada26ae6f253a375a23615b385560", "is_disabled": 0, "type": "electric_scooter", "lat": 38.944503, "lon": -77.06359783333333, "is_reserved": 0, "fusion_lon": 0.0}, {"rental_uris": {"ios": "https://dc.lft.to/lastmile_qr_scan", "android": "https://dc.lft.to/lastmile_qr_scan"}, "fusion_lat": 0.0, "name": "01954c640f6d5d56cbcc6eda2094c9f5", "bike_id": "01954c640f6d5d56cbcc6eda2094c9f5", "is_disabled": 0, "type": "electric_scooter", "lat": 38.89218116666667, "lon": -77.03162133333333, "is_reserved": 0, "fusion_lon": 0.0}, {"rental_uris": {"ios": "https://dc.lft.to/lastmile_qr_scan", "android": "https://dc.lft.to/lastmile_qr_scan"}, "fusion_lat": 0.0, "name": "4f3d78fcace9fea7264037e7e5a7837a", "bike_id": "4f3d78fcace9fea7264037e7e5a7837a", "is_disabled": 0, "type": "electric_scooter", "lat": 38.95424883333333, "lon": -77.02766016666666, "is_reserved": 0, "fusion_lon": 0.0}, {"rental_uris": {"ios": "https://dc.lft.to/lastmile_qr_scan", "android": "https://dc.lft.to/lastmile_qr_scan"}, "fusion_lat": 0.0, "name": "8891deb556ec8ea097820d257680abbb", "bike_id": "8891deb556ec8ea097820d257680abbb", "is_disabled": 0, "type": "electric_scooter", "lat": 38.899797, "lon": -76.939906, "is_reserved": 0, "fusion_lon": 0.0}, {"rental_uris": {"ios": "https://dc.lft.to/lastmile_qr_scan", "android": "https://dc.lft.to/lastmile_qr_scan"}, "fusion_lat": 0.0, "name": "bf16ef17276f2857bad400b591680c7a", "bike_id": "bf16ef17276f2857bad400b591680c7a", "is_disabled": 0, "type": "electric_scooter", "lat": 38.910382166666665, "lon": -77.0426095, "is_reserved": 0, "fusion_lon": 0.0}, {"rental_uris": {"ios": "https://dc.lft.to/lastmile_qr_scan", "android": "https://dc.lft.to/lastmile_qr_scan"}, "fusion_lat": 0.0, "name": "55aeb1f89100d73ab18bec0ba49c0763", "bike_id": "55aeb1f89100d73ab18bec0ba49c0763", "is_disabled": 0, "type": "electric_scooter", "lat": 38.89923433333333, "lon": -77.00354983333334, "is_reserved": 0, "fusion_lon": 0.0}, {"rental_uris": {"ios": "https://dc.lft.to/lastmile_qr_scan", "android": "https://dc.lft.to/lastmile_qr_scan"}, "fusion_lat": 0.0, "name": "2c0aae0e44c4156d868890038df137bf", "bike_id": "2c0aae0e44c4156d868890038df137bf", "is_disabled": 0, "type": "electric_scooter", "lat": 38.864966833333334, "lon": -76.98988216666666, "is_reserved": 0, "fusion_lon": 0.0}, {"rental_uris": {"ios": "https://dc.lft.to/lastmile_qr_scan", "android": "https://dc.lft.to/lastmile_qr_scan"}, "fusion_lat": 0.0, "name": "7147bb43111cdc946feac9a5dcab2f5b", "bike_id": "7147bb43111cdc946feac9a5dcab2f5b", "is_disabled": 0, "type": "electric_scooter", "lat": 38.93016933333333, "lon": -77.044508, "is_reserved": 0, "fusion_lon": 0.0}, {"rental_uris": {"ios": "https://dc.lft.to/lastmile_qr_scan", "android": "https://dc.lft.to/lastmile_qr_scan"}, "fusion_lat": 0.0, "name": "a5a66ca8e0a49f9ae3e844f45d4123d4", "bike_id": "a5a66ca8e0a49f9ae3e844f45d4123d4", "is_disabled": 0, "type": "electric_scooter", "lat": 38.90643816666667, "lon": -77.006108, "is_reserved": 0, "fusion_lon": 0.0}, {"rental_uris": {"ios": "https://dc.lft.to/lastmile_qr_scan", "android": "https://dc.lft.to/lastmile_qr_scan"}, "fusion_lat": 0.0, "name": "cdc94bccdc19504531e61aedb5bfc4d0", "bike_id": "cdc94bccdc19504531e61aedb5bfc4d0", "is_disabled": 0, "type": "electric_scooter", "lat": 38.88511333333334, "lon": -77.00240483333333, "is_reserved": 0, "fusion_lon": 0.0}, {"rental_uris": {"ios": "https://dc.lft.to/lastmile_qr_scan", "android": "https://dc.lft.to/lastmile_qr_scan"}, "fusion_lat": 0.0, "name": "c76e99bc57bc7c64278372ed83b133ee", "bike_id": "c76e99bc57bc7c64278372ed83b133ee", "is_disabled": 0, "type": "electric_scooter", "lat": 38.96162433333333, "lon": -77.02788616666666, "is_reserved": 0, "fusion_lon": 0.0}, {"rental_uris": {"ios": "https://dc.lft.to/lastmile_qr_scan", "android": "https://dc.lft.to/lastmile_qr_scan"}, "fusion_lat": 0.0, "name": "93deafce413427d468228a7a598b4dac", "bike_id": "93deafce413427d468228a7a598b4dac", "is_disabled": 0, "type": "electric_scooter", "lat": 38.9235845, "lon": -77.0205955, "is_reserved": 0, "fusion_lon": 0.0}, {"rental_uris": {"ios": "https://dc.lft.to/lastmile_qr_scan", "android": "https://dc.lft.to/lastmile_qr_scan"}, "fusion_lat": 0.0, "name": "27a4368ffde1ded6daa472c5b86aa0cf", "bike_id": "27a4368ffde1ded6daa472c5b86aa0cf", "is_disabled": 0, "type": "electric_scooter", "lat": 38.90311033333333, "lon": -77.02429466666666, "is_reserved": 0, "fusion_lon": 0.0}, {"rental_uris": {"ios": "https://dc.lft.to/lastmile_qr_scan", "android": "https://dc.lft.to/lastmile_qr_scan"}, "fusion_lat": 0.0, "name": "6a914d72e770bdca94c70389ea9282aa", "bike_id": "6a914d72e770bdca94c70389ea9282aa", "is_disabled": 0, "type": "electric_scooter", "lat": 38.91630716666667, "lon": -77.02554466666666, "is_reserved": 0, "fusion_lon": 0.0}, {"rental_uris": {"ios": "https://dc.lft.to/lastmile_qr_scan", "android": "https://dc.lft.to/lastmile_qr_scan"}, "fusion_lat": 0.0, "name": "15efe9f05cff065cb47e594fb4ffb4fa", "bike_id": "15efe9f05cff065cb47e594fb4ffb4fa", "is_disabled": 0, "type": "electric_bike", "lat": 38.9325295, "lon": -77.02979683333334, "is_reserved": 0, "fusion_lon": 0.0}, {"rental_uris": {"ios": "https://dc.lft.to/lastmile_qr_scan", "android": "https://dc.lft.to/lastmile_qr_scan"}, "fusion_lat": 0.0, "name": "a9811942ac817cd7d48dcad17249a455", "bike_id": "a9811942ac817cd7d48dcad17249a455", "is_disabled": 0, "type": "electric_bike", "lat": 38.8577015, "lon": -76.9876625, "is_reserved": 0, "fusion_lon": 0.0}, {"rental_uris": {"ios": "https://dc.lft.to/lastmile_qr_scan", "android": "https://dc.lft.to/lastmile_qr_scan"}, "fusion_lat": 0.0, "name": "82bace4c8790cccd8fe4c58b801f623a", "bike_id": "82bace4c8790cccd8fe4c58b801f623a", "is_disabled": 0, "type": "electric_scooter", "lat": 38.91563583333333, "lon": -77.0314785, "is_reserved": 0, "fusion_lon": 0.0}, {"rental_uris": {"ios": "https://dc.lft.to/lastmile_qr_scan", "android": "https://dc.lft.to/lastmile_qr_scan"}, "fusion_lat": 0.0, "name": "e61f700276bb55b8c3e40a22b2060e7b", "bike_id": "e61f700276bb55b8c3e40a22b2060e7b", "is_disabled": 0, "type": "electric_scooter", "lat": 38.8922655, "lon": -77.01370716666666, "is_reserved": 0, "fusion_lon": 0.0}, {"rental_uris": {"ios": "https://dc.lft.to/lastmile_qr_scan", "android": "https://dc.lft.to/lastmile_qr_scan"}, "fusion_lat": 0.0, "name": "af7dbeb274698feea0aa814b7aa5c543", "bike_id": "af7dbeb274698feea0aa814b7aa5c543", "is_disabled": 0, "type": "electric_bike", "lat": 39.062913, "lon": -77.04976383333333, "is_reserved": 0, "fusion_lon": 0.0}, {"rental_uris": {"ios": "https://dc.lft.to/lastmile_qr_scan", "android": "https://dc.lft.to/lastmile_qr_scan"}, "fusion_lat": 0.0, "name": "61a477bc0aae4db995119ad7deac4903", "bike_id": "61a477bc0aae4db995119ad7deac4903", "is_disabled": 0, "type": "electric_scooter", "lat": 38.92124716666667, "lon": -77.0351535, "is_reserved": 0, "fusion_lon": 0.0}, {"rental_uris": {"ios": "https://dc.lft.to/lastmile_qr_scan", "android": "https://dc.lft.to/lastmile_qr_scan"}, "fusion_lat": 0.0, "name": "88cd6c0b0186477f70c96dacff67c505", "bike_id": "88cd6c0b0186477f70c96dacff67c505", "is_disabled": 0, "type": "electric_scooter", "lat": 38.896202, "lon": -77.03165483333333, "is_reserved": 0, "fusion_lon": 0.0}, {"rental_uris": {"ios": "https://dc.lft.to/lastmile_qr_scan", "android": "https://dc.lft.to/lastmile_qr_scan"}, "fusion_lat": 0.0, "name": "dfb0b252453cafe0c8049839cc47137a", "bike_id": "dfb0b252453cafe0c8049839cc47137a", "is_disabled": 0, "type": "electric_scooter", "lat": 38.918454833333335, "lon": -77.02194533333333, "is_reserved": 0, "fusion_lon": 0.0}, {"rental_uris": {"ios": "https://dc.lft.to/lastmile_qr_scan", "android": "https://dc.lft.to/lastmile_qr_scan"}, "fusion_lat": 0.0, "name": "e081b40a2c89e18aaa5946ad54e59b33", "bike_id": "e081b40a2c89e18aaa5946ad54e59b33", "is_disabled": 0, "type": "electric_scooter", "lat": 38.854371, "lon": -76.971649, "is_reserved": 0, "fusion_lon": 0.0}, {"rental_uris": {"ios": "https://dc.lft.to/lastmile_qr_scan", "android": "https://dc.lft.to/lastmile_qr_scan"}, "fusion_lat": 0.0, "name": "0279b6c01d9d4ffce2d05471ede752c7", "bike_id": "0279b6c01d9d4ffce2d05471ede752c7", "is_disabled": 0, "type": "electric_scooter", "lat": 38.930157666666666, "lon": -77.05526583333334, "is_reserved": 0, "fusion_lon": 0.0}, {"rental_uris": {"ios": "https://dc.lft.to/lastmile_qr_scan", "android": "https://dc.lft.to/lastmile_qr_scan"}, "fusion_lat": 0.0, "name": "166bfd613361c79db77b79f33dc8fcfd", "bike_id": "166bfd613361c79db77b79f33dc8fcfd", "is_disabled": 0, "type": "electric_scooter", "lat": 38.931459, "lon": -77.01865366666667, "is_reserved": 0, "fusion_lon": 0.0}, {"rental_uris": {"ios": "https://dc.lft.to/lastmile_qr_scan", "android": "https://dc.lft.to/lastmile_qr_scan"}, "fusion_lat": 0.0, "name": "26d75a2b10b9da93acc0340e76647644", "bike_id": "26d75a2b10b9da93acc0340e76647644", "is_disabled": 0, "type": "electric_scooter", "lat": 38.920989666666664, "lon": -77.04201133333333, "is_reserved": 0, "fusion_lon": 0.0}, {"rental_uris": {"ios": "https://dc.lft.to/lastmile_qr_scan", "android": "https://dc.lft.to/lastmile_qr_scan"}, "fusion_lat": 0.0, "name": "c43cbad25f9a3607dd81eb67857d2534", "bike_id": "c43cbad25f9a3607dd81eb67857d2534", "is_disabled": 0, "type": "electric_scooter", "lat": 38.9027165, "lon": -77.02851966666667, "is_reserved": 0, "fusion_lon": 0.0}, {"rental_uris": {"ios": "https://dc.lft.to/lastmile_qr_scan", "android": "https://dc.lft.to/lastmile_qr_scan"}, "fusion_lat": 0.0, "name": "7105bb7c9fba17aa96ea0f88ee8cae73", "bike_id": "7105bb7c9fba17aa96ea0f88ee8cae73", "is_disabled": 0, "type": "electric_scooter", "lat": 38.9397065, "lon": -77.032572, "is_reserved": 0, "fusion_lon": 0.0}, {"rental_uris": {"ios": "https://dc.lft.to/lastmile_qr_scan", "android": "https://dc.lft.to/lastmile_qr_scan"}, "fusion_lat": 0.0, "name": "b871ba96233ce422d24d96fac77ddfcd", "bike_id": "b871ba96233ce422d24d96fac77ddfcd", "is_disabled": 0, "type": "electric_scooter", "lat": 38.892221666666664, "lon": -77.04802366666667, "is_reserved": 0, "fusion_lon": 0.0}, {"rental_uris": {"ios": "https://dc.lft.to/lastmile_qr_scan", "android": "https://dc.lft.to/lastmile_qr_scan"}, "fusion_lat": 0.0, "name": "39306cd53551dff1bebc4bea6a1e64fc", "bike_id": "39306cd53551dff1bebc4bea6a1e64fc", "is_disabled": 0, "type": "electric_scooter", "lat": 38.8813435, "lon": -76.93304183333333, "is_reserved": 0, "fusion_lon": 0.0}, {"rental_uris": {"ios": "https://dc.lft.to/lastmile_qr_scan", "android": "https://dc.lft.to/lastmile_qr_scan"}, "fusion_lat": 0.0, "name": "de8f567aba81d57de0736f0c5c507711", "bike_id": "de8f567aba81d57de0736f0c5c507711", "is_disabled": 0, "type": "electric_bike", "lat": 38.9722525, "lon": -76.99345133333334, "is_reserved": 0, "fusion_lon": 0.0}, {"rental_uris": {"ios": "https://dc.lft.to/lastmile_qr_scan", "android": "https://dc.lft.to/lastmile_qr_scan"}, "fusion_lat": 0.0, "name": "24b673d1e94fe58eef7fdb97350a0f5e", "bike_id": "24b673d1e94fe58eef7fdb97350a0f5e", "is_disabled": 0, "type": "electric_scooter", "lat": 38.88366716666667, "lon": -76.99508366666667, "is_reserved": 0, "fusion_lon": 0.0}, {"rental_uris": {"ios": "https://dc.lft.to/lastmile_qr_scan", "android": "https://dc.lft.to/lastmile_qr_scan"}, "fusion_lat": 0.0, "name": "ae1a404c096f2ffb89d8eddfaa315830", "bike_id": "ae1a404c096f2ffb89d8eddfaa315830", "is_disabled": 0, "type": "electric_scooter", "lat": 38.929122166666666, "lon": -77.01945583333334, "is_reserved": 0, "fusion_lon": 0.0}, {"rental_uris": {"ios": "https://dc.lft.to/lastmile_qr_scan", "android": "https://dc.lft.to/lastmile_qr_scan"}, "fusion_lat": 0.0, "name": "fda84cdf060df1038c294a032576f824", "bike_id": "fda84cdf060df1038c294a032576f824", "is_disabled": 0, "type": "electric_scooter", "lat": 38.917096, "lon": -77.03668466666667, "is_reserved": 0, "fusion_lon": 0.0}, {"rental_uris": {"ios": "https://dc.lft.to/lastmile_qr_scan", "android": "https://dc.lft.to/lastmile_qr_scan"}, "fusion_lat": 0.0, "name": "e38da2a1b10fc06449ecbfaef75d209f", "bike_id": "e38da2a1b10fc06449ecbfaef75d209f", "is_disabled": 0, "type": "electric_scooter", "lat": 38.90836616666667, "lon": -76.996946, "is_reserved": 0, "fusion_lon": 0.0}, {"rental_uris": {"ios": "https://dc.lft.to/lastmile_qr_scan", "android": "https://dc.lft.to/lastmile_qr_scan"}, "fusion_lat": 0.0, "name": "5f90af2998975c971a51fb7df24d89c6", "bike_id": "5f90af2998975c971a51fb7df24d89c6", "is_disabled": 0, "type": "electric_scooter", "lat": 38.9058585, "lon": -77.0058245, "is_reserved": 0, "fusion_lon": 0.0}, {"rental_uris": {"ios": "https://dc.lft.to/lastmile_qr_scan", "android": "https://dc.lft.to/lastmile_qr_scan"}, "fusion_lat": 0.0, "name": "fd52efe8048f524a66866ae1feca1236", "bike_id": "fd52efe8048f524a66866ae1feca1236", "is_disabled": 0, "type": "electric_scooter", "lat": 38.916101833333336, "lon": -77.02302783333333, "is_reserved": 0, "fusion_lon": 0.0}, {"rental_uris": {"ios": "https://dc.lft.to/lastmile_qr_scan", "android": "https://dc.lft.to/lastmile_qr_scan"}, "fusion_lat": 0.0, "name": "8ef3fe32513638c8bf413585493f5882", "bike_id": "8ef3fe32513638c8bf413585493f5882", "is_disabled": 0, "type": "electric_scooter", "lat": 38.91834516666667, "lon": -77.02283733333333, "is_reserved": 0, "fusion_lon": 0.0}, {"rental_uris": {"ios": "https://dc.lft.to/lastmile_qr_scan", "android": "https://dc.lft.to/lastmile_qr_scan"}, "fusion_lat": 0.0, "name": "556d7368a06f2bad08a9b1e25bec8ab1", "bike_id": "556d7368a06f2bad08a9b1e25bec8ab1", "is_disabled": 0, "type": "electric_scooter", "lat": 38.86721266666667, "lon": -76.98689016666667, "is_reserved": 0, "fusion_lon": 0.0}, {"rental_uris": {"ios": "https://dc.lft.to/lastmile_qr_scan", "android": "https://dc.lft.to/lastmile_qr_scan"}, "fusion_lat": 0.0, "name": "ff3b7105202bec112ca3e95ce15c4b54", "bike_id": "ff3b7105202bec112ca3e95ce15c4b54", "is_disabled": 0, "type": "electric_scooter", "lat": 38.90978633333334, "lon": -77.0318635, "is_reserved": 0, "fusion_lon": 0.0}, {"rental_uris": {"ios": "https://dc.lft.to/lastmile_qr_scan", "android": "https://dc.lft.to/lastmile_qr_scan"}, "fusion_lat": 0.0, "name": "f7761bab7730c43e04971a4fbb1df5ce", "bike_id": "f7761bab7730c43e04971a4fbb1df5ce", "is_disabled": 0, "type": "electric_scooter", "lat": 38.91614383333334, "lon": -77.0229995, "is_reserved": 0, "fusion_lon": 0.0}, {"rental_uris": {"ios": "https://dc.lft.to/lastmile_qr_scan", "android": "https://dc.lft.to/lastmile_qr_scan"}, "fusion_lat": 0.0, "name": "ac08f5f2979e0092768a0fa8b13b6478", "bike_id": "ac08f5f2979e0092768a0fa8b13b6478", "is_disabled": 0, "type": "electric_scooter", "lat": 38.89527983333333, "lon": -77.04639433333334, "is_reserved": 0, "fusion_lon": 0.0}, {"rental_uris": {"ios": "https://dc.lft.to/lastmile_qr_scan", "android": "https://dc.lft.to/lastmile_qr_scan"}, "fusion_lat": 0.0, "name": "cead281805b2dcafe6ae6799e730a6a3", "bike_id": "cead281805b2dcafe6ae6799e730a6a3", "is_disabled": 0, "type": "electric_scooter", "lat": 38.930567333333336, "lon": -77.040233, "is_reserved": 0, "fusion_lon": 0.0}, {"rental_uris": {"ios": "https://dc.lft.to/lastmile_qr_scan", "android": "https://dc.lft.to/lastmile_qr_scan"}, "fusion_lat": 0.0, "name": "7b3d618187e972131c257b377a791ff7", "bike_id": "7b3d618187e972131c257b377a791ff7", "is_disabled": 0, "type": "electric_scooter", "lat": 38.9213405, "lon": -77.008469, "is_reserved": 0, "fusion_lon": 0.0}, {"rental_uris": {"ios": "https://dc.lft.to/lastmile_qr_scan", "android": "https://dc.lft.to/lastmile_qr_scan"}, "fusion_lat": 0.0, "name": "ef24c4621192ec16974c0ae655980229", "bike_id": "ef24c4621192ec16974c0ae655980229", "is_disabled": 0, "type": "electric_bike", "lat": 38.83861616666667, "lon": -76.996983, "is_reserved": 0, "fusion_lon": 0.0}, {"rental_uris": {"ios": "https://dc.lft.to/lastmile_qr_scan", "android": "https://dc.lft.to/lastmile_qr_scan"}, "fusion_lat": 0.0, "name": "c472cb069d9771ec8d5ddd12e2e6282f", "bike_id": "c472cb069d9771ec8d5ddd12e2e6282f", "is_disabled": 0, "type": "electric_scooter", "lat": 38.929250833333334, "lon": -77.03753216666667, "is_reserved": 0, "fusion_lon": 0.0}, {"rental_uris": {"ios": "https://dc.lft.to/lastmile_qr_scan", "android": "https://dc.lft.to/lastmile_qr_scan"}, "fusion_lat": 0.0, "name": "ef052c2872e8f98bc04458d21668c615", "bike_id": "ef052c2872e8f98bc04458d21668c615", "is_disabled": 0, "type": "electric_scooter", "lat": 38.856727, "lon": -76.98173783333333, "is_reserved": 0, "fusion_lon": 0.0}, {"rental_uris": {"ios": "https://dc.lft.to/lastmile_qr_scan", "android": "https://dc.lft.to/lastmile_qr_scan"}, "fusion_lat": 0.0, "name": "89caaacaaecd55219fb8c8fbdafc13c3", "bike_id": "89caaacaaecd55219fb8c8fbdafc13c3", "is_disabled": 0, "type": "electric_scooter", "lat": 38.92036816666667, "lon": -77.04209716666666, "is_reserved": 0, "fusion_lon": 0.0}, {"rental_uris": {"ios": "https://dc.lft.to/lastmile_qr_scan", "android": "https://dc.lft.to/lastmile_qr_scan"}, "fusion_lat": 0.0, "name": "6659a904c95d091a81978825d28a039b", "bike_id": "6659a904c95d091a81978825d28a039b", "is_disabled": 0, "type": "electric_scooter", "lat": 38.892196, "lon": -77.0222335, "is_reserved": 0, "fusion_lon": 0.0}, {"rental_uris": {"ios": "https://dc.lft.to/lastmile_qr_scan", "android": "https://dc.lft.to/lastmile_qr_scan"}, "fusion_lat": 0.0, "name": "51c7481a41b7270280e30c0c9eeac006", "bike_id": "51c7481a41b7270280e30c0c9eeac006", "is_disabled": 0, "type": "electric_scooter", "lat": 38.9068435, "lon": -77.02718316666666, "is_reserved": 0, "fusion_lon": 0.0}, {"rental_uris": {"ios": "https://dc.lft.to/lastmile_qr_scan", "android": "https://dc.lft.to/lastmile_qr_scan"}, "fusion_lat": 0.0, "name": "1e9852cdd137ed34a8ab2b6aacb4bd7f", "bike_id": "1e9852cdd137ed34a8ab2b6aacb4bd7f", "is_disabled": 0, "type": "electric_scooter", "lat": 38.91568066666667, "lon": -77.01199066666666, "is_reserved": 0, "fusion_lon": 0.0}, {"rental_uris": {"ios": "https://dc.lft.to/lastmile_qr_scan", "android": "https://dc.lft.to/lastmile_qr_scan"}, "fusion_lat": 0.0, "name": "095946b6fe513f84125d51db42b10626", "bike_id": "095946b6fe513f84125d51db42b10626", "is_disabled": 0, "type": "electric_scooter", "lat": 38.9173525, "lon": -77.0236785, "is_reserved": 0, "fusion_lon": 0.0}, {"rental_uris": {"ios": "https://dc.lft.to/lastmile_qr_scan", "android": "https://dc.lft.to/lastmile_qr_scan"}, "fusion_lat": 0.0, "name": "4194dbcb9c7e0afca5cf956161dce0c1", "bike_id": "4194dbcb9c7e0afca5cf956161dce0c1", "is_disabled": 0, "type": "electric_scooter", "lat": 38.901271, "lon": -77.04303616666667, "is_reserved": 0, "fusion_lon": 0.0}, {"rental_uris": {"ios": "https://dc.lft.to/lastmile_qr_scan", "android": "https://dc.lft.to/lastmile_qr_scan"}, "fusion_lat": 0.0, "name": "b95a1f96e140ccac1f88c03e0780a11b", "bike_id": "b95a1f96e140ccac1f88c03e0780a11b", "is_disabled": 0, "type": "electric_scooter", "lat": 38.919929833333335, "lon": -77.03293316666667, "is_reserved": 0, "fusion_lon": 0.0}, {"rental_uris": {"ios": "https://dc.lft.to/lastmile_qr_scan", "android": "https://dc.lft.to/lastmile_qr_scan"}, "fusion_lat": 0.0, "name": "d9cf459e7f892143b79534ce373f021f", "bike_id": "d9cf459e7f892143b79534ce373f021f", "is_disabled": 0, "type": "electric_scooter", "lat": 38.896241333333336, "lon": -77.05024733333333, "is_reserved": 0, "fusion_lon": 0.0}, {"rental_uris": {"ios": "https://dc.lft.to/lastmile_qr_scan", "android": "https://dc.lft.to/lastmile_qr_scan"}, "fusion_lat": 0.0, "name": "1ea9079f330c73d1bd3df10eeb5b48a7", "bike_id": "1ea9079f330c73d1bd3df10eeb5b48a7", "is_disabled": 0, "type": "electric_scooter", "lat": 38.921342, "lon": -77.01911216666667, "is_reserved": 0, "fusion_lon": 0.0}, {"rental_uris": {"ios": "https://dc.lft.to/lastmile_qr_scan", "android": "https://dc.lft.to/lastmile_qr_scan"}, "fusion_lat": 0.0, "name": "aa20b0d0202b693445368298bafe2288", "bike_id": "aa20b0d0202b693445368298bafe2288", "is_disabled": 0, "type": "electric_scooter", "lat": 38.8950095, "lon": -76.94873966666667, "is_reserved": 0, "fusion_lon": 0.0}, {"rental_uris": {"ios": "https://dc.lft.to/lastmile_qr_scan", "android": "https://dc.lft.to/lastmile_qr_scan"}, "fusion_lat": 0.0, "name": "3da505bcc608a623ed4c4cac90e18000", "bike_id": "3da505bcc608a623ed4c4cac90e18000", "is_disabled": 0, "type": "electric_scooter", "lat": 38.93459433333334, "lon": -77.0727345, "is_reserved": 0, "fusion_lon": 0.0}, {"rental_uris": {"ios": "https://dc.lft.to/lastmile_qr_scan", "android": "https://dc.lft.to/lastmile_qr_scan"}, "fusion_lat": 0.0, "name": "6962d81a897793e2a2db9751cf361acb", "bike_id": "6962d81a897793e2a2db9751cf361acb", "is_disabled": 0, "type": "electric_scooter", "lat": 38.917248, "lon": -77.0366925, "is_reserved": 0, "fusion_lon": 0.0}, {"rental_uris": {"ios": "https://dc.lft.to/lastmile_qr_scan", "android": "https://dc.lft.to/lastmile_qr_scan"}, "fusion_lat": 0.0, "name": "bf7dd548894dec73edf666ddc98d6f46", "bike_id": "bf7dd548894dec73edf666ddc98d6f46", "is_disabled": 0, "type": "electric_scooter", "lat": 38.932506833333335, "lon": -77.03854883333334, "is_reserved": 0, "fusion_lon": 0.0}, {"rental_uris": {"ios": "https://dc.lft.to/lastmile_qr_scan", "android": "https://dc.lft.to/lastmile_qr_scan"}, "fusion_lat": 0.0, "name": "c22cca0b11370e6f275fd7cb5a47e71b", "bike_id": "c22cca0b11370e6f275fd7cb5a47e71b", "is_disabled": 0, "type": "electric_scooter", "lat": 38.881364833333336, "lon": -77.013039, "is_reserved": 0, "fusion_lon": 0.0}, {"rental_uris": {"ios": "https://dc.lft.to/lastmile_qr_scan", "android": "https://dc.lft.to/lastmile_qr_scan"}, "fusion_lat": 0.0, "name": "1664e3d8957dcd73fea82ff66345d066", "bike_id": "1664e3d8957dcd73fea82ff66345d066", "is_disabled": 0, "type": "electric_scooter", "lat": 38.91560833333333, "lon": -77.03862516666666, "is_reserved": 0, "fusion_lon": 0.0}, {"rental_uris": {"ios": "https://dc.lft.to/lastmile_qr_scan", "android": "https://dc.lft.to/lastmile_qr_scan"}, "fusion_lat": 0.0, "name": "38f115dc7248faae5700f390afbdafd1", "bike_id": "38f115dc7248faae5700f390afbdafd1", "is_disabled": 0, "type": "electric_scooter", "lat": 38.8922285, "lon": -77.04370933333334, "is_reserved": 0, "fusion_lon": 0.0}, {"rental_uris": {"ios": "https://dc.lft.to/lastmile_qr_scan", "android": "https://dc.lft.to/lastmile_qr_scan"}, "fusion_lat": 0.0, "name": "a7aa8d00b129ed5f4d580e704422220d", "bike_id": "a7aa8d00b129ed5f4d580e704422220d", "is_disabled": 0, "type": "electric_scooter", "lat": 38.9002615, "lon": -77.0325825, "is_reserved": 0, "fusion_lon": 0.0}, {"rental_uris": {"ios": "https://dc.lft.to/lastmile_qr_scan", "android": "https://dc.lft.to/lastmile_qr_scan"}, "fusion_lat": 0.0, "name": "a2f3f4272fa32d19967096e8312e035f", "bike_id": "a2f3f4272fa32d19967096e8312e035f", "is_disabled": 0, "type": "electric_scooter", "lat": 38.899019, "lon": -77.032747, "is_reserved": 0, "fusion_lon": 0.0}, {"rental_uris": {"ios": "https://dc.lft.to/lastmile_qr_scan", "android": "https://dc.lft.to/lastmile_qr_scan"}, "fusion_lat": 0.0, "name": "bee67ccf6c3db23ffdfca6a58244279e", "bike_id": "bee67ccf6c3db23ffdfca6a58244279e", "is_disabled": 0, "type": "electric_scooter", "lat": 38.898427166666664, "lon": -76.94633216666666, "is_reserved": 0, "fusion_lon": 0.0}, {"rental_uris": {"ios": "https://dc.lft.to/lastmile_qr_scan", "android": "https://dc.lft.to/lastmile_qr_scan"}, "fusion_lat": 0.0, "name": "38c13098c662fbeebae109f39656eaaa", "bike_id": "38c13098c662fbeebae109f39656eaaa", "is_disabled": 0, "type": "electric_scooter", "lat": 38.91688516666667, "lon": -77.02685816666667, "is_reserved": 0, "fusion_lon": 0.0}, {"rental_uris": {"ios": "https://dc.lft.to/lastmile_qr_scan", "android": "https://dc.lft.to/lastmile_qr_scan"}, "fusion_lat": 0.0, "name": "f0101983ef6fd732d7a20fea954204f4", "bike_id": "f0101983ef6fd732d7a20fea954204f4", "is_disabled": 0, "type": "electric_scooter", "lat": 38.91771133333334, "lon": -77.02332933333334, "is_reserved": 0, "fusion_lon": 0.0}, {"rental_uris": {"ios": "https://dc.lft.to/lastmile_qr_scan", "android": "https://dc.lft.to/lastmile_qr_scan"}, "fusion_lat": 0.0, "name": "997789e28f9861bdcd1ef7b258131932", "bike_id": "997789e28f9861bdcd1ef7b258131932", "is_disabled": 0, "type": "electric_scooter", "lat": 38.91927733333333, "lon": -77.031778, "is_reserved": 0, "fusion_lon": 0.0}, {"rental_uris": {"ios": "https://dc.lft.to/lastmile_qr_scan", "android": "https://dc.lft.to/lastmile_qr_scan"}, "fusion_lat": 0.0, "name": "a652158eb41c47bd380946d8d4f5a104", "bike_id": "a652158eb41c47bd380946d8d4f5a104", "is_disabled": 0, "type": "electric_scooter", "lat": 38.90724616666667, "lon": -77.0120735, "is_reserved": 0, "fusion_lon": 0.0}, {"rental_uris": {"ios": "https://dc.lft.to/lastmile_qr_scan", "android": "https://dc.lft.to/lastmile_qr_scan"}, "fusion_lat": 0.0, "name": "03b1e7320e6225d0383686012ea9be78", "bike_id": "03b1e7320e6225d0383686012ea9be78", "is_disabled": 0, "type": "electric_scooter", "lat": 38.90777333333333, "lon": -77.042368, "is_reserved": 0, "fusion_lon": 0.0}, {"rental_uris": {"ios": "https://dc.lft.to/lastmile_qr_scan", "android": "https://dc.lft.to/lastmile_qr_scan"}, "fusion_lat": 0.0, "name": "a4093ed151e9bfb0bb0b15785323b616", "bike_id": "a4093ed151e9bfb0bb0b15785323b616", "is_disabled": 0, "type": "electric_bike", "lat": 38.893526333333334, "lon": -77.1874105, "is_reserved": 0, "fusion_lon": 0.0}, {"rental_uris": {"ios": "https://dc.lft.to/lastmile_qr_scan", "android": "https://dc.lft.to/lastmile_qr_scan"}, "fusion_lat": 0.0, "name": "ae8d211a4517670fff1c40f27887e920", "bike_id": "ae8d211a4517670fff1c40f27887e920", "is_disabled": 0, "type": "electric_bike", "lat": 39.015723666666666, "lon": -77.0441445, "is_reserved": 0, "fusion_lon": 0.0}, {"rental_uris": {"ios": "https://dc.lft.to/lastmile_qr_scan", "android": "https://dc.lft.to/lastmile_qr_scan"}, "fusion_lat": 0.0, "name": "cb3ee5be615ead089fbf9cf0004020ff", "bike_id": "cb3ee5be615ead089fbf9cf0004020ff", "is_disabled": 0, "type": "electric_scooter", "lat": 38.90986316666667, "lon": -77.03276233333334, "is_reserved": 0, "fusion_lon": 0.0}, {"rental_uris": {"ios": "https://dc.lft.to/lastmile_qr_scan", "android": "https://dc.lft.to/lastmile_qr_scan"}, "fusion_lat": 0.0, "name": "28a91f4af7b046298ef6b591003d82fe", "bike_id": "28a91f4af7b046298ef6b591003d82fe", "is_disabled": 0, "type": "electric_scooter", "lat": 38.936051666666664, "lon": -77.0585765, "is_reserved": 0, "fusion_lon": 0.0}, {"rental_uris": {"ios": "https://dc.lft.to/lastmile_qr_scan", "android": "https://dc.lft.to/lastmile_qr_scan"}, "fusion_lat": 0.0, "name": "b4ffe788e4632a411ffbf7c0aa24a0a7", "bike_id": "b4ffe788e4632a411ffbf7c0aa24a0a7", "is_disabled": 0, "type": "electric_scooter", "lat": 38.909604333333334, "lon": -77.04482483333334, "is_reserved": 0, "fusion_lon": 0.0}, {"rental_uris": {"ios": "https://dc.lft.to/lastmile_qr_scan", "android": "https://dc.lft.to/lastmile_qr_scan"}, "fusion_lat": 0.0, "name": "1f16ba055674469dc899fa4de02c7b04", "bike_id": "1f16ba055674469dc899fa4de02c7b04", "is_disabled": 0, "type": "electric_bike", "lat": 38.85510166666667, "lon": -77.12032566666667, "is_reserved": 0, "fusion_lon": 0.0}, {"rental_uris": {"ios": "https://dc.lft.to/lastmile_qr_scan", "android": "https://dc.lft.to/lastmile_qr_scan"}, "fusion_lat": 0.0, "name": "552318d71d1a9e9cee259c0d79ada734", "bike_id": "552318d71d1a9e9cee259c0d79ada734", "is_disabled": 0, "type": "electric_scooter", "lat": 38.91692183333333, "lon": -77.02599566666666, "is_reserved": 0, "fusion_lon": 0.0}, {"rental_uris": {"ios": "https://dc.lft.to/lastmile_qr_scan", "android": "https://dc.lft.to/lastmile_qr_scan"}, "fusion_lat": 0.0, "name": "b93290aad34f21a991717595d76d09f3", "bike_id": "b93290aad34f21a991717595d76d09f3", "is_disabled": 0, "type": "electric_scooter", "lat": 38.922397833333335, "lon": -77.034125, "is_reserved": 0, "fusion_lon": 0.0}, {"rental_uris": {"ios": "https://dc.lft.to/lastmile_qr_scan", "android": "https://dc.lft.to/lastmile_qr_scan"}, "fusion_lat": 0.0, "name": "2a8dc2ab92db31e6018a089e932a2e3b", "bike_id": "2a8dc2ab92db31e6018a089e932a2e3b", "is_disabled": 0, "type": "electric_bike", "lat": 38.9318455, "lon": -77.02351566666667, "is_reserved": 0, "fusion_lon": 0.0}, {"rental_uris": {"ios": "https://dc.lft.to/lastmile_qr_scan", "android": "https://dc.lft.to/lastmile_qr_scan"}, "fusion_lat": 0.0, "name": "7e32983a5fa7db999d15338c1fc975b4", "bike_id": "7e32983a5fa7db999d15338c1fc975b4", "is_disabled": 0, "type": "electric_scooter", "lat": 38.893551, "lon": -77.04184466666666, "is_reserved": 0, "fusion_lon": 0.0}, {"rental_uris": {"ios": "https://dc.lft.to/lastmile_qr_scan", "android": "https://dc.lft.to/lastmile_qr_scan"}, "fusion_lat": 0.0, "name": "f5cd03cfb8eb2e07e79df71af92d40ad", "bike_id": "f5cd03cfb8eb2e07e79df71af92d40ad", "is_disabled": 0, "type": "electric_scooter", "lat": 38.909624, "lon": -77.0258225, "is_reserved": 0, "fusion_lon": 0.0}, {"rental_uris": {"ios": "https://dc.lft.to/lastmile_qr_scan", "android": "https://dc.lft.to/lastmile_qr_scan"}, "fusion_lat": 0.0, "name": "275402ede2adf67bfde32d1807fc11a3", "bike_id": "275402ede2adf67bfde32d1807fc11a3", "is_disabled": 0, "type": "electric_scooter", "lat": 38.92369516666667, "lon": -77.0191015, "is_reserved": 0, "fusion_lon": 0.0}, {"rental_uris": {"ios": "https://dc.lft.to/lastmile_qr_scan", "android": "https://dc.lft.to/lastmile_qr_scan"}, "fusion_lat": 0.0, "name": "b63333269cb7d1769d445d69e52bacbe", "bike_id": "b63333269cb7d1769d445d69e52bacbe", "is_disabled": 0, "type": "electric_scooter", "lat": 38.897518833333336, "lon": -76.94185766666666, "is_reserved": 0, "fusion_lon": 0.0}, {"rental_uris": {"ios": "https://dc.lft.to/lastmile_qr_scan", "android": "https://dc.lft.to/lastmile_qr_scan"}, "fusion_lat": 0.0, "name": "93a255aa18def4d8ebae5ff6dc4b4037", "bike_id": "93a255aa18def4d8ebae5ff6dc4b4037", "is_disabled": 0, "type": "electric_scooter", "lat": 38.918024, "lon": -77.04030716666666, "is_reserved": 0, "fusion_lon": 0.0}, {"rental_uris": {"ios": "https://dc.lft.to/lastmile_qr_scan", "android": "https://dc.lft.to/lastmile_qr_scan"}, "fusion_lat": 0.0, "name": "de91443781d22b3a8447da28fa2f5e31", "bike_id": "de91443781d22b3a8447da28fa2f5e31", "is_disabled": 0, "type": "electric_scooter", "lat": 38.91105683333333, "lon": -77.00211533333334, "is_reserved": 0, "fusion_lon": 0.0}, {"rental_uris": {"ios": "https://dc.lft.to/lastmile_qr_scan", "android": "https://dc.lft.to/lastmile_qr_scan"}, "fusion_lat": 0.0, "name": "46017f2213f299570a833168fdfdecb2", "bike_id": "46017f2213f299570a833168fdfdecb2", "is_disabled": 0, "type": "electric_scooter", "lat": 38.94927633333333, "lon": -77.01944216666666, "is_reserved": 0, "fusion_lon": 0.0}, {"rental_uris": {"ios": "https://dc.lft.to/lastmile_qr_scan", "android": "https://dc.lft.to/lastmile_qr_scan"}, "fusion_lat": 0.0, "name": "26231999a7b49c1ac559604131c6358c", "bike_id": "26231999a7b49c1ac559604131c6358c", "is_disabled": 0, "type": "electric_scooter", "lat": 38.923234, "lon": -77.02128783333333, "is_reserved": 0, "fusion_lon": 0.0}, {"rental_uris": {"ios": "https://dc.lft.to/lastmile_qr_scan", "android": "https://dc.lft.to/lastmile_qr_scan"}, "fusion_lat": 0.0, "name": "b1139552de149091d8bef0399ed73e22", "bike_id": "b1139552de149091d8bef0399ed73e22", "is_disabled": 0, "type": "electric_scooter", "lat": 38.926673, "lon": -77.01474416666667, "is_reserved": 0, "fusion_lon": 0.0}, {"rental_uris": {"ios": "https://dc.lft.to/lastmile_qr_scan", "android": "https://dc.lft.to/lastmile_qr_scan"}, "fusion_lat": 0.0, "name": "d4ea2625242f830876c159401ba4ab18", "bike_id": "d4ea2625242f830876c159401ba4ab18", "is_disabled": 0, "type": "electric_scooter", "lat": 38.907869166666664, "lon": -77.03194816666667, "is_reserved": 0, "fusion_lon": 0.0}, {"rental_uris": {"ios": "https://dc.lft.to/lastmile_qr_scan", "android": "https://dc.lft.to/lastmile_qr_scan"}, "fusion_lat": 0.0, "name": "acfec45c43049af7cc4e9b9e130617ed", "bike_id": "acfec45c43049af7cc4e9b9e130617ed", "is_disabled": 0, "type": "electric_scooter", "lat": 38.909674, "lon": -77.048266, "is_reserved": 0, "fusion_lon": 0.0}, {"rental_uris": {"ios": "https://dc.lft.to/lastmile_qr_scan", "android": "https://dc.lft.to/lastmile_qr_scan"}, "fusion_lat": 0.0, "name": "bf53f21501cd5b496e9cd79d37cf9a1d", "bike_id": "bf53f21501cd5b496e9cd79d37cf9a1d", "is_disabled": 0, "type": "electric_scooter", "lat": 38.92872366666667, "lon": -77.0336355, "is_reserved": 0, "fusion_lon": 0.0}, {"rental_uris": {"ios": "https://dc.lft.to/lastmile_qr_scan", "android": "https://dc.lft.to/lastmile_qr_scan"}, "fusion_lat": 0.0, "name": "486acbff96303e4cfbf7cf55b6f947e4", "bike_id": "486acbff96303e4cfbf7cf55b6f947e4", "is_disabled": 0, "type": "electric_scooter", "lat": 38.850983166666666, "lon": -76.96674116666667, "is_reserved": 0, "fusion_lon": 0.0}, {"rental_uris": {"ios": "https://dc.lft.to/lastmile_qr_scan", "android": "https://dc.lft.to/lastmile_qr_scan"}, "fusion_lat": 0.0, "name": "4dd858183b626dacd2cb3d0b6dbcec53", "bike_id": "4dd858183b626dacd2cb3d0b6dbcec53", "is_disabled": 0, "type": "electric_scooter", "lat": 38.9168745, "lon": -77.03439766666666, "is_reserved": 0, "fusion_lon": 0.0}, {"rental_uris": {"ios": "https://dc.lft.to/lastmile_qr_scan", "android": "https://dc.lft.to/lastmile_qr_scan"}, "fusion_lat": 0.0, "name": "1c72337890661da4573d7e7d749f0ce5", "bike_id": "1c72337890661da4573d7e7d749f0ce5", "is_disabled": 0, "type": "electric_scooter", "lat": 38.913743, "lon": -77.03211183333333, "is_reserved": 0, "fusion_lon": 0.0}, {"rental_uris": {"ios": "https://dc.lft.to/lastmile_qr_scan", "android": "https://dc.lft.to/lastmile_qr_scan"}, "fusion_lat": 0.0, "name": "c9e1bbcb7090c50db969857b90961948", "bike_id": "c9e1bbcb7090c50db969857b90961948", "is_disabled": 0, "type": "electric_bike", "lat": 38.828753, "lon": -77.00844183333334, "is_reserved": 0, "fusion_lon": 0.0}, {"rental_uris": {"ios": "https://dc.lft.to/lastmile_qr_scan", "android": "https://dc.lft.to/lastmile_qr_scan"}, "fusion_lat": 0.0, "name": "abf9f70d4ac36ac9e1849530a569a711", "bike_id": "abf9f70d4ac36ac9e1849530a569a711", "is_disabled": 0, "type": "electric_scooter", "lat": 38.90261683333333, "lon": -77.04361066666667, "is_reserved": 0, "fusion_lon": 0.0}, {"rental_uris": {"ios": "https://dc.lft.to/lastmile_qr_scan", "android": "https://dc.lft.to/lastmile_qr_scan"}, "fusion_lat": 0.0, "name": "ba2ee71dcfd0a0c3da2294e9a168c610", "bike_id": "ba2ee71dcfd0a0c3da2294e9a168c610", "is_disabled": 0, "type": "electric_bike", "lat": 38.865144, "lon": -76.97327016666667, "is_reserved": 0, "fusion_lon": 0.0}, {"rental_uris": {"ios": "https://dc.lft.to/lastmile_qr_scan", "android": "https://dc.lft.to/lastmile_qr_scan"}, "fusion_lat": 0.0, "name": "12b9743ba651bfaef84c3f5c52572f2e", "bike_id": "12b9743ba651bfaef84c3f5c52572f2e", "is_disabled": 0, "type": "electric_bike", "lat": 38.93232666666667, "lon": -76.97424466666666, "is_reserved": 0, "fusion_lon": 0.0}, {"rental_uris": {"ios": "https://dc.lft.to/lastmile_qr_scan", "android": "https://dc.lft.to/lastmile_qr_scan"}, "fusion_lat": 0.0, "name": "0f13f923efe3952828ba5942186d4cdf", "bike_id": "0f13f923efe3952828ba5942186d4cdf", "is_disabled": 0, "type": "electric_scooter", "lat": 38.90787983333333, "lon": -77.03857483333333, "is_reserved": 0, "fusion_lon": 0.0}, {"rental_uris": {"ios": "https://dc.lft.to/lastmile_qr_scan", "android": "https://dc.lft.to/lastmile_qr_scan"}, "fusion_lat": 0.0, "name": "9fea51c9dec9827853501a32ef76b6eb", "bike_id": "9fea51c9dec9827853501a32ef76b6eb", "is_disabled": 0, "type": "electric_scooter", "lat": 38.8624375, "lon": -76.99495233333333, "is_reserved": 0, "fusion_lon": 0.0}, {"rental_uris": {"ios": "https://dc.lft.to/lastmile_qr_scan", "android": "https://dc.lft.to/lastmile_qr_scan"}, "fusion_lat": 0.0, "name": "96d5f25b22b6f7d18c3f8f9cdbe5104a", "bike_id": "96d5f25b22b6f7d18c3f8f9cdbe5104a", "is_disabled": 0, "type": "electric_scooter", "lat": 38.8990815, "lon": -76.93348683333333, "is_reserved": 0, "fusion_lon": 0.0}, {"rental_uris": {"ios": "https://dc.lft.to/lastmile_qr_scan", "android": "https://dc.lft.to/lastmile_qr_scan"}, "fusion_lat": 0.0, "name": "a11663711e3b30fa2085e50bc46d0464", "bike_id": "a11663711e3b30fa2085e50bc46d0464", "is_disabled": 0, "type": "electric_scooter", "lat": 38.90982433333333, "lon": -76.99485816666666, "is_reserved": 0, "fusion_lon": 0.0}, {"rental_uris": {"ios": "https://dc.lft.to/lastmile_qr_scan", "android": "https://dc.lft.to/lastmile_qr_scan"}, "fusion_lat": 0.0, "name": "78d1cf06fe0ed6eb0a519ab46e92870e", "bike_id": "78d1cf06fe0ed6eb0a519ab46e92870e", "is_disabled": 0, "type": "electric_scooter", "lat": 38.88746033333334, "lon": -77.025738, "is_reserved": 0, "fusion_lon": 0.0}, {"rental_uris": {"ios": "https://dc.lft.to/lastmile_qr_scan", "android": "https://dc.lft.to/lastmile_qr_scan"}, "fusion_lat": 0.0, "name": "ec638b6e75e69e000e30ac2a54e799a4", "bike_id": "ec638b6e75e69e000e30ac2a54e799a4", "is_disabled": 0, "type": "electric_scooter", "lat": 38.9197455, "lon": -77.02376366666667, "is_reserved": 0, "fusion_lon": 0.0}, {"rental_uris": {"ios": "https://dc.lft.to/lastmile_qr_scan", "android": "https://dc.lft.to/lastmile_qr_scan"}, "fusion_lat": 0.0, "name": "13c3faeb159bebabddc95804a5bd5e20", "bike_id": "13c3faeb159bebabddc95804a5bd5e20", "is_disabled": 0, "type": "electric_scooter", "lat": 38.938881, "lon": -77.0248325, "is_reserved": 0, "fusion_lon": 0.0}, {"rental_uris": {"ios": "https://dc.lft.to/lastmile_qr_scan", "android": "https://dc.lft.to/lastmile_qr_scan"}, "fusion_lat": 0.0, "name": "0df423a5295ae3e7821d359413e114bb", "bike_id": "0df423a5295ae3e7821d359413e114bb", "is_disabled": 0, "type": "electric_bike", "lat": 38.9864695, "lon": -77.05649266666667, "is_reserved": 0, "fusion_lon": 0.0}, {"rental_uris": {"ios": "https://dc.lft.to/lastmile_qr_scan", "android": "https://dc.lft.to/lastmile_qr_scan"}, "fusion_lat": 0.0, "name": "23bf8335cf408c7746c667bab911979c", "bike_id": "23bf8335cf408c7746c667bab911979c", "is_disabled": 0, "type": "electric_scooter", "lat": 38.905592, "lon": -77.03457316666666, "is_reserved": 0, "fusion_lon": 0.0}, {"rental_uris": {"ios": "https://dc.lft.to/lastmile_qr_scan", "android": "https://dc.lft.to/lastmile_qr_scan"}, "fusion_lat": 0.0, "name": "dbb605a47407a3857a6d634064bfebab", "bike_id": "dbb605a47407a3857a6d634064bfebab", "is_disabled": 0, "type": "electric_scooter", "lat": 38.946203, "lon": -77.02519716666667, "is_reserved": 0, "fusion_lon": 0.0}, {"rental_uris": {"ios": "https://dc.lft.to/lastmile_qr_scan", "android": "https://dc.lft.to/lastmile_qr_scan"}, "fusion_lat": 0.0, "name": "e59e59a03ae300e2cb6a9a42dd91d316", "bike_id": "e59e59a03ae300e2cb6a9a42dd91d316", "is_disabled": 0, "type": "electric_scooter", "lat": 38.9280385, "lon": -77.0539905, "is_reserved": 0, "fusion_lon": 0.0}, {"rental_uris": {"ios": "https://dc.lft.to/lastmile_qr_scan", "android": "https://dc.lft.to/lastmile_qr_scan"}, "fusion_lat": 0.0, "name": "add7a315e6d649f8b09ae8134c46423a", "bike_id": "add7a315e6d649f8b09ae8134c46423a", "is_disabled": 0, "type": "electric_scooter", "lat": 38.909707, "lon": -77.04622816666667, "is_reserved": 0, "fusion_lon": 0.0}, {"rental_uris": {"ios": "https://dc.lft.to/lastmile_qr_scan", "android": "https://dc.lft.to/lastmile_qr_scan"}, "fusion_lat": 0.0, "name": "197b25b3f5852829bc33e09e0dbfc289", "bike_id": "197b25b3f5852829bc33e09e0dbfc289", "is_disabled": 0, "type": "electric_scooter", "lat": 38.924349166666666, "lon": -77.05211933333334, "is_reserved": 0, "fusion_lon": 0.0}, {"rental_uris": {"ios": "https://dc.lft.to/lastmile_qr_scan", "android": "https://dc.lft.to/lastmile_qr_scan"}, "fusion_lat": 0.0, "name": "6b2746610e493626e4c4c8a78c2c56c7", "bike_id": "6b2746610e493626e4c4c8a78c2c56c7", "is_disabled": 0, "type": "electric_scooter", "lat": 38.8669855, "lon": -76.987068, "is_reserved": 0, "fusion_lon": 0.0}, {"rental_uris": {"ios": "https://dc.lft.to/lastmile_qr_scan", "android": "https://dc.lft.to/lastmile_qr_scan"}, "fusion_lat": 0.0, "name": "9579694965265caf56098b11ad46b872", "bike_id": "9579694965265caf56098b11ad46b872", "is_disabled": 0, "type": "electric_scooter", "lat": 38.933549166666666, "lon": -77.08575916666666, "is_reserved": 0, "fusion_lon": 0.0}, {"rental_uris": {"ios": "https://dc.lft.to/lastmile_qr_scan", "android": "https://dc.lft.to/lastmile_qr_scan"}, "fusion_lat": 0.0, "name": "617a04da8fe266acb964a937edf9e915", "bike_id": "617a04da8fe266acb964a937edf9e915", "is_disabled": 0, "type": "electric_scooter", "lat": 38.9083315, "lon": -77.039456, "is_reserved": 0, "fusion_lon": 0.0}, {"rental_uris": {"ios": "https://dc.lft.to/lastmile_qr_scan", "android": "https://dc.lft.to/lastmile_qr_scan"}, "fusion_lat": 0.0, "name": "454ee2cdfb9460c5c339322b0e3f4088", "bike_id": "454ee2cdfb9460c5c339322b0e3f4088", "is_disabled": 0, "type": "electric_scooter", "lat": 38.893537333333335, "lon": -77.041406, "is_reserved": 0, "fusion_lon": 0.0}, {"rental_uris": {"ios": "https://dc.lft.to/lastmile_qr_scan", "android": "https://dc.lft.to/lastmile_qr_scan"}, "fusion_lat": 0.0, "name": "4a5b7d46ee352340b153bcf036a1d855", "bike_id": "4a5b7d46ee352340b153bcf036a1d855", "is_disabled": 0, "type": "electric_scooter", "lat": 38.961616666666664, "lon": -77.02785983333334, "is_reserved": 0, "fusion_lon": 0.0}, {"rental_uris": {"ios": "https://dc.lft.to/lastmile_qr_scan", "android": "https://dc.lft.to/lastmile_qr_scan"}, "fusion_lat": 0.0, "name": "0379d1dbf2c16b3b11440b5d0d8ebc72", "bike_id": "0379d1dbf2c16b3b11440b5d0d8ebc72", "is_disabled": 0, "type": "electric_scooter", "lat": 38.937773166666666, "lon": -77.032614, "is_reserved": 0, "fusion_lon": 0.0}, {"rental_uris": {"ios": "https://dc.lft.to/lastmile_qr_scan", "android": "https://dc.lft.to/lastmile_qr_scan"}, "fusion_lat": 0.0, "name": "fbec26003489fa5ad79a06548227f877", "bike_id": "fbec26003489fa5ad79a06548227f877", "is_disabled": 0, "type": "electric_scooter", "lat": 38.90037233333334, "lon": -76.9937555, "is_reserved": 0, "fusion_lon": 0.0}, {"rental_uris": {"ios": "https://dc.lft.to/lastmile_qr_scan", "android": "https://dc.lft.to/lastmile_qr_scan"}, "fusion_lat": 0.0, "name": "e5005bb61f9e2521a5dfebf912078c6a", "bike_id": "e5005bb61f9e2521a5dfebf912078c6a", "is_disabled": 0, "type": "electric_scooter", "lat": 38.91818383333333, "lon": -77.031809, "is_reserved": 0, "fusion_lon": 0.0}, {"rental_uris": {"ios": "https://dc.lft.to/lastmile_qr_scan", "android": "https://dc.lft.to/lastmile_qr_scan"}, "fusion_lat": 0.0, "name": "b6c0f189cd931caee1c250deb5bf531e", "bike_id": "b6c0f189cd931caee1c250deb5bf531e", "is_disabled": 0, "type": "electric_scooter", "lat": 38.93511066666667, "lon": -77.03266166666667, "is_reserved": 0, "fusion_lon": 0.0}, {"rental_uris": {"ios": "https://dc.lft.to/lastmile_qr_scan", "android": "https://dc.lft.to/lastmile_qr_scan"}, "fusion_lat": 0.0, "name": "06502fe0e9b46d290a003c6cd5dde45b", "bike_id": "06502fe0e9b46d290a003c6cd5dde45b", "is_disabled": 0, "type": "electric_scooter", "lat": 38.84431416666666, "lon": -76.99703766666667, "is_reserved": 0, "fusion_lon": 0.0}, {"rental_uris": {"ios": "https://dc.lft.to/lastmile_qr_scan", "android": "https://dc.lft.to/lastmile_qr_scan"}, "fusion_lat": 0.0, "name": "16fda1563471ae6d67c38194e8b328f4", "bike_id": "16fda1563471ae6d67c38194e8b328f4", "is_disabled": 0, "type": "electric_scooter", "lat": 38.892301833333335, "lon": -77.0280095, "is_reserved": 0, "fusion_lon": 0.0}, {"rental_uris": {"ios": "https://dc.lft.to/lastmile_qr_scan", "android": "https://dc.lft.to/lastmile_qr_scan"}, "fusion_lat": 0.0, "name": "3fd308c653735e5ba2b9404b34b0ad97", "bike_id": "3fd308c653735e5ba2b9404b34b0ad97", "is_disabled": 0, "type": "electric_scooter", "lat": 38.88493233333333, "lon": -77.0072635, "is_reserved": 0, "fusion_lon": 0.0}, {"rental_uris": {"ios": "https://dc.lft.to/lastmile_qr_scan", "android": "https://dc.lft.to/lastmile_qr_scan"}, "fusion_lat": 0.0, "name": "b6e30cc4ec0caa43b766818ac4ecdd34", "bike_id": "b6e30cc4ec0caa43b766818ac4ecdd34", "is_disabled": 0, "type": "electric_scooter", "lat": 38.90739033333333, "lon": -77.03310483333334, "is_reserved": 0, "fusion_lon": 0.0}, {"rental_uris": {"ios": "https://dc.lft.to/lastmile_qr_scan", "android": "https://dc.lft.to/lastmile_qr_scan"}, "fusion_lat": 0.0, "name": "af52b5685841310bdc67b0e90b152468", "bike_id": "af52b5685841310bdc67b0e90b152468", "is_disabled": 0, "type": "electric_scooter", "lat": 38.90051583333333, "lon": -77.00767, "is_reserved": 0, "fusion_lon": 0.0}, {"rental_uris": {"ios": "https://dc.lft.to/lastmile_qr_scan", "android": "https://dc.lft.to/lastmile_qr_scan"}, "fusion_lat": 0.0, "name": "9c398b7645d6b6aefaaf103ce3746190", "bike_id": "9c398b7645d6b6aefaaf103ce3746190", "is_disabled": 0, "type": "electric_scooter", "lat": 38.91037083333333, "lon": -77.04840433333334, "is_reserved": 0, "fusion_lon": 0.0}, {"rental_uris": {"ios": "https://dc.lft.to/lastmile_qr_scan", "android": "https://dc.lft.to/lastmile_qr_scan"}, "fusion_lat": 0.0, "name": "85427981234d88af96b4b82eb790efd8", "bike_id": "85427981234d88af96b4b82eb790efd8", "is_disabled": 0, "type": "electric_scooter", "lat": 38.89218616666667, "lon": -77.043255, "is_reserved": 0, "fusion_lon": 0.0}, {"rental_uris": {"ios": "https://dc.lft.to/lastmile_qr_scan", "android": "https://dc.lft.to/lastmile_qr_scan"}, "fusion_lat": 0.0, "name": "b47994cc43b6817e0308c4e8f656abc0", "bike_id": "b47994cc43b6817e0308c4e8f656abc0", "is_disabled": 0, "type": "electric_scooter", "lat": 38.9236015, "lon": -77.041523, "is_reserved": 0, "fusion_lon": 0.0}, {"rental_uris": {"ios": "https://dc.lft.to/lastmile_qr_scan", "android": "https://dc.lft.to/lastmile_qr_scan"}, "fusion_lat": 0.0, "name": "349cb348f4956c8ac31e7e799564ab78", "bike_id": "349cb348f4956c8ac31e7e799564ab78", "is_disabled": 0, "type": "electric_scooter", "lat": 38.912728333333334, "lon": -77.0222675, "is_reserved": 0, "fusion_lon": 0.0}, {"rental_uris": {"ios": "https://dc.lft.to/lastmile_qr_scan", "android": "https://dc.lft.to/lastmile_qr_scan"}, "fusion_lat": 0.0, "name": "f4bd49715389505d43329f7be89ab525", "bike_id": "f4bd49715389505d43329f7be89ab525", "is_disabled": 0, "type": "electric_scooter", "lat": 38.919002666666664, "lon": -77.024863, "is_reserved": 0, "fusion_lon": 0.0}, {"rental_uris": {"ios": "https://dc.lft.to/lastmile_qr_scan", "android": "https://dc.lft.to/lastmile_qr_scan"}, "fusion_lat": 0.0, "name": "15e8225537fbec118617f61370dc8ae0", "bike_id": "15e8225537fbec118617f61370dc8ae0", "is_disabled": 0, "type": "electric_scooter", "lat": 38.91568016666667, "lon": -77.0200315, "is_reserved": 0, "fusion_lon": 0.0}, {"rental_uris": {"ios": "https://dc.lft.to/lastmile_qr_scan", "android": "https://dc.lft.to/lastmile_qr_scan"}, "fusion_lat": 0.0, "name": "f093ac4d60a4acf0ebce44bf85c8d089", "bike_id": "f093ac4d60a4acf0ebce44bf85c8d089", "is_disabled": 0, "type": "electric_scooter", "lat": 38.89583433333333, "lon": -77.03002433333333, "is_reserved": 0, "fusion_lon": 0.0}, {"rental_uris": {"ios": "https://dc.lft.to/lastmile_qr_scan", "android": "https://dc.lft.to/lastmile_qr_scan"}, "fusion_lat": 0.0, "name": "ab95bdda1f1e852680c2b9f7f45189e3", "bike_id": "ab95bdda1f1e852680c2b9f7f45189e3", "is_disabled": 0, "type": "electric_scooter", "lat": 38.91224916666667, "lon": -77.041147, "is_reserved": 0, "fusion_lon": 0.0}, {"rental_uris": {"ios": "https://dc.lft.to/lastmile_qr_scan", "android": "https://dc.lft.to/lastmile_qr_scan"}, "fusion_lat": 0.0, "name": "281d419f32510d0600c7afe2637acb87", "bike_id": "281d419f32510d0600c7afe2637acb87", "is_disabled": 0, "type": "electric_scooter", "lat": 38.9010765, "lon": -77.033733, "is_reserved": 0, "fusion_lon": 0.0}, {"rental_uris": {"ios": "https://dc.lft.to/lastmile_qr_scan", "android": "https://dc.lft.to/lastmile_qr_scan"}, "fusion_lat": 0.0, "name": "3a0518405174735b522eef9b537bcc4e", "bike_id": "3a0518405174735b522eef9b537bcc4e", "is_disabled": 0, "type": "electric_scooter", "lat": 38.86690516666667, "lon": -76.985464, "is_reserved": 0, "fusion_lon": 0.0}, {"rental_uris": {"ios": "https://dc.lft.to/lastmile_qr_scan", "android": "https://dc.lft.to/lastmile_qr_scan"}, "fusion_lat": 0.0, "name": "92247e3b373bb0c1623006a074deaf88", "bike_id": "92247e3b373bb0c1623006a074deaf88", "is_disabled": 0, "type": "electric_scooter", "lat": 38.840746333333335, "lon": -76.98929666666666, "is_reserved": 0, "fusion_lon": 0.0}, {"rental_uris": {"ios": "https://dc.lft.to/lastmile_qr_scan", "android": "https://dc.lft.to/lastmile_qr_scan"}, "fusion_lat": 0.0, "name": "4a1bd2c34da535b1cadb0b3f62364764", "bike_id": "4a1bd2c34da535b1cadb0b3f62364764", "is_disabled": 0, "type": "electric_scooter", "lat": 38.89227316666667, "lon": -77.02799633333333, "is_reserved": 0, "fusion_lon": 0.0}, {"rental_uris": {"ios": "https://dc.lft.to/lastmile_qr_scan", "android": "https://dc.lft.to/lastmile_qr_scan"}, "fusion_lat": 0.0, "name": "c552b6d19c8c6e85985ccf116c1b015f", "bike_id": "c552b6d19c8c6e85985ccf116c1b015f", "is_disabled": 0, "type": "electric_scooter", "lat": 38.915600166666664, "lon": -77.0386305, "is_reserved": 0, "fusion_lon": 0.0}, {"rental_uris": {"ios": "https://dc.lft.to/lastmile_qr_scan", "android": "https://dc.lft.to/lastmile_qr_scan"}, "fusion_lat": 0.0, "name": "311d0f26f441d5bfc9a56e0115350c2c", "bike_id": "311d0f26f441d5bfc9a56e0115350c2c", "is_disabled": 0, "type": "electric_scooter", "lat": 38.8922405, "lon": -77.04329816666667, "is_reserved": 0, "fusion_lon": 0.0}, {"rental_uris": {"ios": "https://dc.lft.to/lastmile_qr_scan", "android": "https://dc.lft.to/lastmile_qr_scan"}, "fusion_lat": 0.0, "name": "004ce6a6bf5cefe66b2b922557e82e64", "bike_id": "004ce6a6bf5cefe66b2b922557e82e64", "is_disabled": 0, "type": "electric_scooter", "lat": 38.949607666666665, "lon": -77.02723366666666, "is_reserved": 0, "fusion_lon": 0.0}, {"rental_uris": {"ios": "https://dc.lft.to/lastmile_qr_scan", "android": "https://dc.lft.to/lastmile_qr_scan"}, "fusion_lat": 0.0, "name": "a4023452505f85a7903c8a50b50f2960", "bike_id": "a4023452505f85a7903c8a50b50f2960", "is_disabled": 0, "type": "electric_scooter", "lat": 38.907373166666666, "lon": -77.027116, "is_reserved": 0, "fusion_lon": 0.0}, {"rental_uris": {"ios": "https://dc.lft.to/lastmile_qr_scan", "android": "https://dc.lft.to/lastmile_qr_scan"}, "fusion_lat": 0.0, "name": "bb7f1744cca9e18f21f2798b23c221ad", "bike_id": "bb7f1744cca9e18f21f2798b23c221ad", "is_disabled": 0, "type": "electric_scooter", "lat": 38.9516635, "lon": -77.02748133333333, "is_reserved": 0, "fusion_lon": 0.0}, {"rental_uris": {"ios": "https://dc.lft.to/lastmile_qr_scan", "android": "https://dc.lft.to/lastmile_qr_scan"}, "fusion_lat": 0.0, "name": "48b4a707b9fa3e89a108796278aac6e7", "bike_id": "48b4a707b9fa3e89a108796278aac6e7", "is_disabled": 0, "type": "electric_scooter", "lat": 38.892201, "lon": -77.01369883333334, "is_reserved": 0, "fusion_lon": 0.0}, {"rental_uris": {"ios": "https://dc.lft.to/lastmile_qr_scan", "android": "https://dc.lft.to/lastmile_qr_scan"}, "fusion_lat": 0.0, "name": "8a2dbf73159ad257b9e616750fd7a3c1", "bike_id": "8a2dbf73159ad257b9e616750fd7a3c1", "is_disabled": 0, "type": "electric_scooter", "lat": 38.91409816666667, "lon": -77.0407295, "is_reserved": 0, "fusion_lon": 0.0}, {"rental_uris": {"ios": "https://dc.lft.to/lastmile_qr_scan", "android": "https://dc.lft.to/lastmile_qr_scan"}, "fusion_lat": 0.0, "name": "8070c6e9f352797879b0c0dde3947965", "bike_id": "8070c6e9f352797879b0c0dde3947965", "is_disabled": 0, "type": "electric_scooter", "lat": 38.918139833333335, "lon": -77.03911416666666, "is_reserved": 0, "fusion_lon": 0.0}, {"rental_uris": {"ios": "https://dc.lft.to/lastmile_qr_scan", "android": "https://dc.lft.to/lastmile_qr_scan"}, "fusion_lat": 0.0, "name": "2469a1170af16aef112d81a4025ea08d", "bike_id": "2469a1170af16aef112d81a4025ea08d", "is_disabled": 0, "type": "electric_scooter", "lat": 38.8823195, "lon": -76.99092333333333, "is_reserved": 0, "fusion_lon": 0.0}, {"rental_uris": {"ios": "https://dc.lft.to/lastmile_qr_scan", "android": "https://dc.lft.to/lastmile_qr_scan"}, "fusion_lat": 0.0, "name": "ce62a9ada4af9d04eb18d1df86b60391", "bike_id": "ce62a9ada4af9d04eb18d1df86b60391", "is_disabled": 0, "type": "electric_bike", "lat": 38.96138833333333, "lon": -77.00970866666667, "is_reserved": 0, "fusion_lon": 0.0}, {"rental_uris": {"ios": "https://dc.lft.to/lastmile_qr_scan", "android": "https://dc.lft.to/lastmile_qr_scan"}, "fusion_lat": 0.0, "name": "f0b922b57f93b585bd527694e46f83cc", "bike_id": "f0b922b57f93b585bd527694e46f83cc", "is_disabled": 0, "type": "electric_scooter", "lat": 38.90527566666667, "lon": -77.0593675, "is_reserved": 0, "fusion_lon": 0.0}, {"rental_uris": {"ios": "https://dc.lft.to/lastmile_qr_scan", "android": "https://dc.lft.to/lastmile_qr_scan"}, "fusion_lat": 0.0, "name": "a7ab427bc3428431e18edab9c4c860bd", "bike_id": "a7ab427bc3428431e18edab9c4c860bd", "is_disabled": 0, "type": "electric_scooter", "lat": 38.9098485, "lon": -77.03186083333334, "is_reserved": 0, "fusion_lon": 0.0}, {"rental_uris": {"ios": "https://dc.lft.to/lastmile_qr_scan", "android": "https://dc.lft.to/lastmile_qr_scan"}, "fusion_lat": 0.0, "name": "e5c10b98832ffcc97ee22e854cbdda89", "bike_id": "e5c10b98832ffcc97ee22e854cbdda89", "is_disabled": 0, "type": "electric_scooter", "lat": 38.919629666666665, "lon": -77.0178325, "is_reserved": 0, "fusion_lon": 0.0}, {"rental_uris": {"ios": "https://dc.lft.to/lastmile_qr_scan", "android": "https://dc.lft.to/lastmile_qr_scan"}, "fusion_lat": 0.0, "name": "6ac28b6a2ee5c84d35d2bd4d1a8955de", "bike_id": "6ac28b6a2ee5c84d35d2bd4d1a8955de", "is_disabled": 0, "type": "electric_scooter", "lat": 38.89220316666667, "lon": -77.02225966666667, "is_reserved": 0, "fusion_lon": 0.0}, {"rental_uris": {"ios": "https://dc.lft.to/lastmile_qr_scan", "android": "https://dc.lft.to/lastmile_qr_scan"}, "fusion_lat": 0.0, "name": "55ff099805a40ff5c7d4ffc4810191f9", "bike_id": "55ff099805a40ff5c7d4ffc4810191f9", "is_disabled": 0, "type": "electric_scooter", "lat": 38.90316516666667, "lon": -77.02130783333334, "is_reserved": 0, "fusion_lon": 0.0}, {"rental_uris": {"ios": "https://dc.lft.to/lastmile_qr_scan", "android": "https://dc.lft.to/lastmile_qr_scan"}, "fusion_lat": 0.0, "name": "ae966a0d1df44db6e1aacec21d913e80", "bike_id": "ae966a0d1df44db6e1aacec21d913e80", "is_disabled": 0, "type": "electric_scooter", "lat": 38.89225066666667, "lon": -77.031795, "is_reserved": 0, "fusion_lon": 0.0}, {"rental_uris": {"ios": "https://dc.lft.to/lastmile_qr_scan", "android": "https://dc.lft.to/lastmile_qr_scan"}, "fusion_lat": 0.0, "name": "cc5e62542f855dcb52200808db5cb858", "bike_id": "cc5e62542f855dcb52200808db5cb858", "is_disabled": 0, "type": "electric_scooter", "lat": 38.9111005, "lon": -77.00155516666666, "is_reserved": 0, "fusion_lon": 0.0}, {"rental_uris": {"ios": "https://dc.lft.to/lastmile_qr_scan", "android": "https://dc.lft.to/lastmile_qr_scan"}, "fusion_lat": 0.0, "name": "53f32020ab9174418c2611761334e2c0", "bike_id": "53f32020ab9174418c2611761334e2c0", "is_disabled": 0, "type": "electric_scooter", "lat": 38.906484166666665, "lon": -77.04879166666667, "is_reserved": 0, "fusion_lon": 0.0}, {"rental_uris": {"ios": "https://dc.lft.to/lastmile_qr_scan", "android": "https://dc.lft.to/lastmile_qr_scan"}, "fusion_lat": 0.0, "name": "26258a01fc4756d4c673939e15aac15b", "bike_id": "26258a01fc4756d4c673939e15aac15b", "is_disabled": 0, "type": "electric_scooter", "lat": 38.892234333333334, "lon": -77.0321865, "is_reserved": 0, "fusion_lon": 0.0}, {"rental_uris": {"ios": "https://dc.lft.to/lastmile_qr_scan", "android": "https://dc.lft.to/lastmile_qr_scan"}, "fusion_lat": 0.0, "name": "7d5053c57fdd6fdd89a8ccaab3a2e53d", "bike_id": "7d5053c57fdd6fdd89a8ccaab3a2e53d", "is_disabled": 0, "type": "electric_scooter", "lat": 38.906489666666666, "lon": -77.04883816666667, "is_reserved": 0, "fusion_lon": 0.0}, {"rental_uris": {"ios": "https://dc.lft.to/lastmile_qr_scan", "android": "https://dc.lft.to/lastmile_qr_scan"}, "fusion_lat": 0.0, "name": "f240bd57750e65afec5da7e744bf35be", "bike_id": "f240bd57750e65afec5da7e744bf35be", "is_disabled": 0, "type": "electric_scooter", "lat": 38.91364183333334, "lon": -77.04484116666667, "is_reserved": 0, "fusion_lon": 0.0}, {"rental_uris": {"ios": "https://dc.lft.to/lastmile_qr_scan", "android": "https://dc.lft.to/lastmile_qr_scan"}, "fusion_lat": 0.0, "name": "0667da86e79534e81b33712654d11439", "bike_id": "0667da86e79534e81b33712654d11439", "is_disabled": 0, "type": "electric_scooter", "lat": 38.94225183333333, "lon": -77.076798, "is_reserved": 0, "fusion_lon": 0.0}, {"rental_uris": {"ios": "https://dc.lft.to/lastmile_qr_scan", "android": "https://dc.lft.to/lastmile_qr_scan"}, "fusion_lat": 0.0, "name": "989d239564e6887c20cb4cc27ffe8235", "bike_id": "989d239564e6887c20cb4cc27ffe8235", "is_disabled": 0, "type": "electric_bike", "lat": 38.813490333333334, "lon": -77.04926416666666, "is_reserved": 0, "fusion_lon": 0.0}, {"rental_uris": {"ios": "https://dc.lft.to/lastmile_qr_scan", "android": "https://dc.lft.to/lastmile_qr_scan"}, "fusion_lat": 0.0, "name": "e18898a1698a14cc74e11b9763923078", "bike_id": "e18898a1698a14cc74e11b9763923078", "is_disabled": 0, "type": "electric_scooter", "lat": 38.90641466666667, "lon": -77.00876, "is_reserved": 0, "fusion_lon": 0.0}, {"rental_uris": {"ios": "https://dc.lft.to/lastmile_qr_scan", "android": "https://dc.lft.to/lastmile_qr_scan"}, "fusion_lat": 0.0, "name": "51b5b91fdc676194d51b3565a887d605", "bike_id": "51b5b91fdc676194d51b3565a887d605", "is_disabled": 0, "type": "electric_scooter", "lat": 38.91676316666667, "lon": -77.03183633333333, "is_reserved": 0, "fusion_lon": 0.0}, {"rental_uris": {"ios": "https://dc.lft.to/lastmile_qr_scan", "android": "https://dc.lft.to/lastmile_qr_scan"}, "fusion_lat": 0.0, "name": "a767ca1bda4a441f5efdb1256807e4e4", "bike_id": "a767ca1bda4a441f5efdb1256807e4e4", "is_disabled": 0, "type": "electric_scooter", "lat": 38.903791166666664, "lon": -77.03635416666667, "is_reserved": 0, "fusion_lon": 0.0}, {"rental_uris": {"ios": "https://dc.lft.to/lastmile_qr_scan", "android": "https://dc.lft.to/lastmile_qr_scan"}, "fusion_lat": 0.0, "name": "46ab3d68f78bd86772f2ac4c98d35a59", "bike_id": "46ab3d68f78bd86772f2ac4c98d35a59", "is_disabled": 0, "type": "electric_scooter", "lat": 38.87674666666667, "lon": -77.01759466666667, "is_reserved": 0, "fusion_lon": 0.0}, {"rental_uris": {"ios": "https://dc.lft.to/lastmile_qr_scan", "android": "https://dc.lft.to/lastmile_qr_scan"}, "fusion_lat": 0.0, "name": "b4d67e2cf68252809daaa154d2ee3d6e", "bike_id": "b4d67e2cf68252809daaa154d2ee3d6e", "is_disabled": 0, "type": "electric_scooter", "lat": 38.91692366666667, "lon": -77.03493, "is_reserved": 0, "fusion_lon": 0.0}, {"rental_uris": {"ios": "https://dc.lft.to/lastmile_qr_scan", "android": "https://dc.lft.to/lastmile_qr_scan"}, "fusion_lat": 0.0, "name": "30551ceec11563bdf306694a033bb8f2", "bike_id": "30551ceec11563bdf306694a033bb8f2", "is_disabled": 0, "type": "electric_scooter", "lat": 38.90847983333333, "lon": -77.02065766666666, "is_reserved": 0, "fusion_lon": 0.0}, {"rental_uris": {"ios": "https://dc.lft.to/lastmile_qr_scan", "android": "https://dc.lft.to/lastmile_qr_scan"}, "fusion_lat": 0.0, "name": "6022cf9829ea3bf8de1c933c01758874", "bike_id": "6022cf9829ea3bf8de1c933c01758874", "is_disabled": 0, "type": "electric_scooter", "lat": 38.933587833333334, "lon": -77.0572445, "is_reserved": 0, "fusion_lon": 0.0}, {"rental_uris": {"ios": "https://dc.lft.to/lastmile_qr_scan", "android": "https://dc.lft.to/lastmile_qr_scan"}, "fusion_lat": 0.0, "name": "f8ac50c32f3d0a4c29340ac10cf598c2", "bike_id": "f8ac50c32f3d0a4c29340ac10cf598c2", "is_disabled": 0, "type": "electric_scooter", "lat": 38.9202355, "lon": -77.0219135, "is_reserved": 0, "fusion_lon": 0.0}, {"rental_uris": {"ios": "https://dc.lft.to/lastmile_qr_scan", "android": "https://dc.lft.to/lastmile_qr_scan"}, "fusion_lat": 0.0, "name": "83513b699b38d85e1b6df4608a3b4212", "bike_id": "83513b699b38d85e1b6df4608a3b4212", "is_disabled": 0, "type": "electric_scooter", "lat": 38.93422666666667, "lon": -77.0555095, "is_reserved": 0, "fusion_lon": 0.0}, {"rental_uris": {"ios": "https://dc.lft.to/lastmile_qr_scan", "android": "https://dc.lft.to/lastmile_qr_scan"}, "fusion_lat": 0.0, "name": "3767f5c92d2385a5b6d0bb7493a19ff5", "bike_id": "3767f5c92d2385a5b6d0bb7493a19ff5", "is_disabled": 0, "type": "electric_scooter", "lat": 38.9028035, "lon": -77.03648216666667, "is_reserved": 0, "fusion_lon": 0.0}, {"rental_uris": {"ios": "https://dc.lft.to/lastmile_qr_scan", "android": "https://dc.lft.to/lastmile_qr_scan"}, "fusion_lat": 0.0, "name": "70a7ef85611500f8d88f04007fe5f6fb", "bike_id": "70a7ef85611500f8d88f04007fe5f6fb", "is_disabled": 0, "type": "electric_scooter", "lat": 38.91123733333333, "lon": -77.0269125, "is_reserved": 0, "fusion_lon": 0.0}, {"rental_uris": {"ios": "https://dc.lft.to/lastmile_qr_scan", "android": "https://dc.lft.to/lastmile_qr_scan"}, "fusion_lat": 0.0, "name": "ef68f9e6d91cb894d4be08e12970767c", "bike_id": "ef68f9e6d91cb894d4be08e12970767c", "is_disabled": 0, "type": "electric_scooter", "lat": 38.8796005, "lon": -77.00064583333334, "is_reserved": 0, "fusion_lon": 0.0}, {"rental_uris": {"ios": "https://dc.lft.to/lastmile_qr_scan", "android": "https://dc.lft.to/lastmile_qr_scan"}, "fusion_lat": 0.0, "name": "2c7dd17deaf93c76a5033623ae01cbe2", "bike_id": "2c7dd17deaf93c76a5033623ae01cbe2", "is_disabled": 0, "type": "electric_scooter", "lat": 38.904541333333334, "lon": -77.02707816666667, "is_reserved": 0, "fusion_lon": 0.0}, {"rental_uris": {"ios": "https://dc.lft.to/lastmile_qr_scan", "android": "https://dc.lft.to/lastmile_qr_scan"}, "fusion_lat": 0.0, "name": "3546695adf6f9b39c5d318a51ec986a2", "bike_id": "3546695adf6f9b39c5d318a51ec986a2", "is_disabled": 0, "type": "electric_scooter", "lat": 38.90027666666667, "lon": -77.04312733333333, "is_reserved": 0, "fusion_lon": 0.0}, {"rental_uris": {"ios": "https://dc.lft.to/lastmile_qr_scan", "android": "https://dc.lft.to/lastmile_qr_scan"}, "fusion_lat": 0.0, "name": "8984fb92561b8be97aa15ce5d1a1946f", "bike_id": "8984fb92561b8be97aa15ce5d1a1946f", "is_disabled": 0, "type": "electric_scooter", "lat": 38.907789666666666, "lon": -76.98005416666666, "is_reserved": 0, "fusion_lon": 0.0}, {"rental_uris": {"ios": "https://dc.lft.to/lastmile_qr_scan", "android": "https://dc.lft.to/lastmile_qr_scan"}, "fusion_lat": 0.0, "name": "0a637e42d5ff1a3a72b193210d1a4288", "bike_id": "0a637e42d5ff1a3a72b193210d1a4288", "is_disabled": 0, "type": "electric_scooter", "lat": 38.892245833333334, "lon": -77.043264, "is_reserved": 0, "fusion_lon": 0.0}, {"rental_uris": {"ios": "https://dc.lft.to/lastmile_qr_scan", "android": "https://dc.lft.to/lastmile_qr_scan"}, "fusion_lat": 0.0, "name": "ee12f27432035dec1bcf78f622723b6a", "bike_id": "ee12f27432035dec1bcf78f622723b6a", "is_disabled": 0, "type": "electric_scooter", "lat": 38.862431, "lon": -76.99494233333333, "is_reserved": 0, "fusion_lon": 0.0}, {"rental_uris": {"ios": "https://dc.lft.to/lastmile_qr_scan", "android": "https://dc.lft.to/lastmile_qr_scan"}, "fusion_lat": 0.0, "name": "1c9ed913663643d42fefd1fb8ba02312", "bike_id": "1c9ed913663643d42fefd1fb8ba02312", "is_disabled": 0, "type": "electric_scooter", "lat": 38.90139633333333, "lon": -77.00347333333333, "is_reserved": 0, "fusion_lon": 0.0}, {"rental_uris": {"ios": "https://dc.lft.to/lastmile_qr_scan", "android": "https://dc.lft.to/lastmile_qr_scan"}, "fusion_lat": 0.0, "name": "5d3fa5fec7a10cf92a3f8b92edb46c94", "bike_id": "5d3fa5fec7a10cf92a3f8b92edb46c94", "is_disabled": 0, "type": "electric_scooter", "lat": 38.9096985, "lon": -77.032284, "is_reserved": 0, "fusion_lon": 0.0}, {"rental_uris": {"ios": "https://dc.lft.to/lastmile_qr_scan", "android": "https://dc.lft.to/lastmile_qr_scan"}, "fusion_lat": 0.0, "name": "17faa16a60fa6e22ebf06adc1e759f52", "bike_id": "17faa16a60fa6e22ebf06adc1e759f52", "is_disabled": 0, "type": "electric_scooter", "lat": 38.892249666666665, "lon": -77.043269, "is_reserved": 0, "fusion_lon": 0.0}, {"rental_uris": {"ios": "https://dc.lft.to/lastmile_qr_scan", "android": "https://dc.lft.to/lastmile_qr_scan"}, "fusion_lat": 0.0, "name": "fb7791352dc8fa084edb8b4a48948f01", "bike_id": "fb7791352dc8fa084edb8b4a48948f01", "is_disabled": 0, "type": "electric_bike", "lat": 38.91785933333333, "lon": -76.97189016666667, "is_reserved": 0, "fusion_lon": 0.0}, {"rental_uris": {"ios": "https://dc.lft.to/lastmile_qr_scan", "android": "https://dc.lft.to/lastmile_qr_scan"}, "fusion_lat": 0.0, "name": "1a6cd26b5324cbcb42d169f5b341902d", "bike_id": "1a6cd26b5324cbcb42d169f5b341902d", "is_disabled": 0, "type": "electric_scooter", "lat": 38.9055545, "lon": -77.03989733333333, "is_reserved": 0, "fusion_lon": 0.0}, {"rental_uris": {"ios": "https://dc.lft.to/lastmile_qr_scan", "android": "https://dc.lft.to/lastmile_qr_scan"}, "fusion_lat": 0.0, "name": "12d7f247ec33fa115cba15dec6b7e7f8", "bike_id": "12d7f247ec33fa115cba15dec6b7e7f8", "is_disabled": 0, "type": "electric_scooter", "lat": 38.909915, "lon": -77.04008116666667, "is_reserved": 0, "fusion_lon": 0.0}, {"rental_uris": {"ios": "https://dc.lft.to/lastmile_qr_scan", "android": "https://dc.lft.to/lastmile_qr_scan"}, "fusion_lat": 0.0, "name": "ae89f26fb8f1fa4ed8afa3d233befe57", "bike_id": "ae89f26fb8f1fa4ed8afa3d233befe57", "is_disabled": 0, "type": "electric_scooter", "lat": 38.91004266666667, "lon": -77.0442245, "is_reserved": 0, "fusion_lon": 0.0}, {"rental_uris": {"ios": "https://dc.lft.to/lastmile_qr_scan", "android": "https://dc.lft.to/lastmile_qr_scan"}, "fusion_lat": 0.0, "name": "3dedf3b7cb04bf1069572f77f5acd402", "bike_id": "3dedf3b7cb04bf1069572f77f5acd402", "is_disabled": 0, "type": "electric_scooter", "lat": 38.91272416666666, "lon": -77.07820883333333, "is_reserved": 0, "fusion_lon": 0.0}, {"rental_uris": {"ios": "https://dc.lft.to/lastmile_qr_scan", "android": "https://dc.lft.to/lastmile_qr_scan"}, "fusion_lat": 0.0, "name": "fc2fb5d01754585a045e891cc70b8133", "bike_id": "fc2fb5d01754585a045e891cc70b8133", "is_disabled": 0, "type": "electric_scooter", "lat": 38.931491, "lon": -77.033561, "is_reserved": 0, "fusion_lon": 0.0}, {"rental_uris": {"ios": "https://dc.lft.to/lastmile_qr_scan", "android": "https://dc.lft.to/lastmile_qr_scan"}, "fusion_lat": 0.0, "name": "7b30672c0dd386d56b970b7ff95a41b8", "bike_id": "7b30672c0dd386d56b970b7ff95a41b8", "is_disabled": 0, "type": "electric_scooter", "lat": 38.920499166666666, "lon": -77.02579216666666, "is_reserved": 0, "fusion_lon": 0.0}, {"rental_uris": {"ios": "https://dc.lft.to/lastmile_qr_scan", "android": "https://dc.lft.to/lastmile_qr_scan"}, "fusion_lat": 0.0, "name": "04531d448edc9ab7ad915444f16739cf", "bike_id": "04531d448edc9ab7ad915444f16739cf", "is_disabled": 0, "type": "electric_scooter", "lat": 38.92982933333333, "lon": -77.05509766666667, "is_reserved": 0, "fusion_lon": 0.0}, {"rental_uris": {"ios": "https://dc.lft.to/lastmile_qr_scan", "android": "https://dc.lft.to/lastmile_qr_scan"}, "fusion_lat": 0.0, "name": "554f78a15a796def6a6810a5e2cf5f1e", "bike_id": "554f78a15a796def6a6810a5e2cf5f1e", "is_disabled": 0, "type": "electric_scooter", "lat": 38.917465, "lon": -77.03181216666667, "is_reserved": 0, "fusion_lon": 0.0}, {"rental_uris": {"ios": "https://dc.lft.to/lastmile_qr_scan", "android": "https://dc.lft.to/lastmile_qr_scan"}, "fusion_lat": 0.0, "name": "9d29c128652450664b6aab0fda96dbfa", "bike_id": "9d29c128652450664b6aab0fda96dbfa", "is_disabled": 0, "type": "electric_scooter", "lat": 38.903327, "lon": -76.97592616666667, "is_reserved": 0, "fusion_lon": 0.0}, {"rental_uris": {"ios": "https://dc.lft.to/lastmile_qr_scan", "android": "https://dc.lft.to/lastmile_qr_scan"}, "fusion_lat": 0.0, "name": "8bab7c0e21ad92f0f0ded06f27d88130", "bike_id": "8bab7c0e21ad92f0f0ded06f27d88130", "is_disabled": 0, "type": "electric_scooter", "lat": 38.9033555, "lon": -77.025076, "is_reserved": 0, "fusion_lon": 0.0}, {"rental_uris": {"ios": "https://dc.lft.to/lastmile_qr_scan", "android": "https://dc.lft.to/lastmile_qr_scan"}, "fusion_lat": 0.0, "name": "766e587563771ff26b35cabaa03385bc", "bike_id": "766e587563771ff26b35cabaa03385bc", "is_disabled": 0, "type": "electric_scooter", "lat": 38.90862666666666, "lon": -77.04581183333333, "is_reserved": 0, "fusion_lon": 0.0}, {"rental_uris": {"ios": "https://dc.lft.to/lastmile_qr_scan", "android": "https://dc.lft.to/lastmile_qr_scan"}, "fusion_lat": 0.0, "name": "15338d4a2942b6c444439a525b1cc2c6", "bike_id": "15338d4a2942b6c444439a525b1cc2c6", "is_disabled": 0, "type": "electric_bike", "lat": 38.913517166666665, "lon": -77.02953066666667, "is_reserved": 0, "fusion_lon": 0.0}, {"rental_uris": {"ios": "https://dc.lft.to/lastmile_qr_scan", "android": "https://dc.lft.to/lastmile_qr_scan"}, "fusion_lat": 0.0, "name": "fdc5cb4a8d7b3fda6331bc692c24baa7", "bike_id": "fdc5cb4a8d7b3fda6331bc692c24baa7", "is_disabled": 0, "type": "electric_scooter", "lat": 38.902608666666666, "lon": -77.03829683333333, "is_reserved": 0, "fusion_lon": 0.0}, {"rental_uris": {"ios": "https://dc.lft.to/lastmile_qr_scan", "android": "https://dc.lft.to/lastmile_qr_scan"}, "fusion_lat": 0.0, "name": "d43951c7e2291056924b710d6bd3f6fb", "bike_id": "d43951c7e2291056924b710d6bd3f6fb", "is_disabled": 0, "type": "electric_scooter", "lat": 38.91705833333333, "lon": -77.03467816666667, "is_reserved": 0, "fusion_lon": 0.0}, {"rental_uris": {"ios": "https://dc.lft.to/lastmile_qr_scan", "android": "https://dc.lft.to/lastmile_qr_scan"}, "fusion_lat": 0.0, "name": "e59f8c88f92de19c26e73d9fd367e9d9", "bike_id": "e59f8c88f92de19c26e73d9fd367e9d9", "is_disabled": 0, "type": "electric_scooter", "lat": 38.914108666666664, "lon": -77.01310733333334, "is_reserved": 0, "fusion_lon": 0.0}, {"rental_uris": {"ios": "https://dc.lft.to/lastmile_qr_scan", "android": "https://dc.lft.to/lastmile_qr_scan"}, "fusion_lat": 0.0, "name": "9bf46e703a620aa661f861ff4aa45c6a", "bike_id": "9bf46e703a620aa661f861ff4aa45c6a", "is_disabled": 0, "type": "electric_scooter", "lat": 38.93187566666667, "lon": -77.02823916666667, "is_reserved": 0, "fusion_lon": 0.0}, {"rental_uris": {"ios": "https://dc.lft.to/lastmile_qr_scan", "android": "https://dc.lft.to/lastmile_qr_scan"}, "fusion_lat": 0.0, "name": "dcd66f3b45931477ec288baa1dce298b", "bike_id": "dcd66f3b45931477ec288baa1dce298b", "is_disabled": 0, "type": "electric_scooter", "lat": 38.907902, "lon": -77.04334483333334, "is_reserved": 0, "fusion_lon": 0.0}, {"rental_uris": {"ios": "https://dc.lft.to/lastmile_qr_scan", "android": "https://dc.lft.to/lastmile_qr_scan"}, "fusion_lat": 0.0, "name": "eafe2b9c44e1c53229c0f34f3b8155c4", "bike_id": "eafe2b9c44e1c53229c0f34f3b8155c4", "is_disabled": 0, "type": "electric_scooter", "lat": 38.92174833333333, "lon": -77.04007516666667, "is_reserved": 0, "fusion_lon": 0.0}, {"rental_uris": {"ios": "https://dc.lft.to/lastmile_qr_scan", "android": "https://dc.lft.to/lastmile_qr_scan"}, "fusion_lat": 0.0, "name": "718a684e5a4fe94bcf81d7e9fa54b7ee", "bike_id": "718a684e5a4fe94bcf81d7e9fa54b7ee", "is_disabled": 0, "type": "electric_scooter", "lat": 38.903636166666665, "lon": -77.03184383333334, "is_reserved": 0, "fusion_lon": 0.0}, {"rental_uris": {"ios": "https://dc.lft.to/lastmile_qr_scan", "android": "https://dc.lft.to/lastmile_qr_scan"}, "fusion_lat": 0.0, "name": "7dbcea47be60f6c93867fe0376cd5521", "bike_id": "7dbcea47be60f6c93867fe0376cd5521", "is_disabled": 0, "type": "electric_scooter", "lat": 38.92228983333333, "lon": -77.02980383333333, "is_reserved": 0, "fusion_lon": 0.0}, {"rental_uris": {"ios": "https://dc.lft.to/lastmile_qr_scan", "android": "https://dc.lft.to/lastmile_qr_scan"}, "fusion_lat": 0.0, "name": "5808a50a3eb29c3aefebfc5d33598a8c", "bike_id": "5808a50a3eb29c3aefebfc5d33598a8c", "is_disabled": 0, "type": "electric_scooter", "lat": 38.902642666666665, "lon": -77.03840266666667, "is_reserved": 0, "fusion_lon": 0.0}, {"rental_uris": {"ios": "https://dc.lft.to/lastmile_qr_scan", "android": "https://dc.lft.to/lastmile_qr_scan"}, "fusion_lat": 0.0, "name": "d06503b3339a63982cfc40661bff3e1e", "bike_id": "d06503b3339a63982cfc40661bff3e1e", "is_disabled": 0, "type": "electric_scooter", "lat": 38.91337766666667, "lon": -77.03166433333334, "is_reserved": 0, "fusion_lon": 0.0}, {"rental_uris": {"ios": "https://dc.lft.to/lastmile_qr_scan", "android": "https://dc.lft.to/lastmile_qr_scan"}, "fusion_lat": 0.0, "name": "b2ec261d883ce2b65f9daeb63801d601", "bike_id": "b2ec261d883ce2b65f9daeb63801d601", "is_disabled": 0, "type": "electric_bike", "lat": 39.052712666666665, "lon": -77.111977, "is_reserved": 0, "fusion_lon": 0.0}, {"rental_uris": {"ios": "https://dc.lft.to/lastmile_qr_scan", "android": "https://dc.lft.to/lastmile_qr_scan"}, "fusion_lat": 0.0, "name": "992091938dae521ba25e92123ea96253", "bike_id": "992091938dae521ba25e92123ea96253", "is_disabled": 0, "type": "electric_scooter", "lat": 38.9563825, "lon": -77.03291733333333, "is_reserved": 0, "fusion_lon": 0.0}, {"rental_uris": {"ios": "https://dc.lft.to/lastmile_qr_scan", "android": "https://dc.lft.to/lastmile_qr_scan"}, "fusion_lat": 0.0, "name": "8a9d7147b8af368d62c26dd98ebe5fe1", "bike_id": "8a9d7147b8af368d62c26dd98ebe5fe1", "is_disabled": 0, "type": "electric_bike", "lat": 38.94918833333333, "lon": -77.00799966666666, "is_reserved": 0, "fusion_lon": 0.0}, {"rental_uris": {"ios": "https://dc.lft.to/lastmile_qr_scan", "android": "https://dc.lft.to/lastmile_qr_scan"}, "fusion_lat": 0.0, "name": "b036b873bb08d9b36673576535f2f520", "bike_id": "b036b873bb08d9b36673576535f2f520", "is_disabled": 0, "type": "electric_scooter", "lat": 38.9046165, "lon": -77.044734, "is_reserved": 0, "fusion_lon": 0.0}, {"rental_uris": {"ios": "https://dc.lft.to/lastmile_qr_scan", "android": "https://dc.lft.to/lastmile_qr_scan"}, "fusion_lat": 0.0, "name": "3e3ea0f901845eb8cc6cb416425e842c", "bike_id": "3e3ea0f901845eb8cc6cb416425e842c", "is_disabled": 0, "type": "electric_scooter", "lat": 38.924767333333335, "lon": -77.0272165, "is_reserved": 0, "fusion_lon": 0.0}, {"rental_uris": {"ios": "https://dc.lft.to/lastmile_qr_scan", "android": "https://dc.lft.to/lastmile_qr_scan"}, "fusion_lat": 0.0, "name": "b74c35ffd4ed87feda8ec72c2a3e1d9c", "bike_id": "b74c35ffd4ed87feda8ec72c2a3e1d9c", "is_disabled": 0, "type": "electric_scooter", "lat": 38.914928333333336, "lon": -77.03211983333334, "is_reserved": 0, "fusion_lon": 0.0}, {"rental_uris": {"ios": "https://dc.lft.to/lastmile_qr_scan", "android": "https://dc.lft.to/lastmile_qr_scan"}, "fusion_lat": 0.0, "name": "d9a4038864e9489afb7da68c89a10522", "bike_id": "d9a4038864e9489afb7da68c89a10522", "is_disabled": 0, "type": "electric_scooter", "lat": 38.91418933333333, "lon": -77.0318805, "is_reserved": 0, "fusion_lon": 0.0}, {"rental_uris": {"ios": "https://dc.lft.to/lastmile_qr_scan", "android": "https://dc.lft.to/lastmile_qr_scan"}, "fusion_lat": 0.0, "name": "60d69c84811252debfc476b4da76b7e0", "bike_id": "60d69c84811252debfc476b4da76b7e0", "is_disabled": 0, "type": "electric_scooter", "lat": 38.9120515, "lon": -77.0413105, "is_reserved": 0, "fusion_lon": 0.0}, {"rental_uris": {"ios": "https://dc.lft.to/lastmile_qr_scan", "android": "https://dc.lft.to/lastmile_qr_scan"}, "fusion_lat": 0.0, "name": "e0baf5aecb5498dfbf870798e7d17fdf", "bike_id": "e0baf5aecb5498dfbf870798e7d17fdf", "is_disabled": 0, "type": "electric_scooter", "lat": 38.90154583333333, "lon": -77.04857116666666, "is_reserved": 0, "fusion_lon": 0.0}, {"rental_uris": {"ios": "https://dc.lft.to/lastmile_qr_scan", "android": "https://dc.lft.to/lastmile_qr_scan"}, "fusion_lat": 0.0, "name": "5ebc594e31cf3e7f77e2e65557da4552", "bike_id": "5ebc594e31cf3e7f77e2e65557da4552", "is_disabled": 0, "type": "electric_scooter", "lat": 38.91563566666667, "lon": -77.03147, "is_reserved": 0, "fusion_lon": 0.0}, {"rental_uris": {"ios": "https://dc.lft.to/lastmile_qr_scan", "android": "https://dc.lft.to/lastmile_qr_scan"}, "fusion_lat": 0.0, "name": "6cfef2de9bec243127751b3440311312", "bike_id": "6cfef2de9bec243127751b3440311312", "is_disabled": 0, "type": "electric_scooter", "lat": 38.876727833333334, "lon": -77.01799066666666, "is_reserved": 0, "fusion_lon": 0.0}, {"rental_uris": {"ios": "https://dc.lft.to/lastmile_qr_scan", "android": "https://dc.lft.to/lastmile_qr_scan"}, "fusion_lat": 0.0, "name": "9ff45273a1f1cdb12720b2139363fc6f", "bike_id": "9ff45273a1f1cdb12720b2139363fc6f", "is_disabled": 0, "type": "electric_scooter", "lat": 38.918549666666664, "lon": -77.04032183333334, "is_reserved": 0, "fusion_lon": 0.0}, {"rental_uris": {"ios": "https://dc.lft.to/lastmile_qr_scan", "android": "https://dc.lft.to/lastmile_qr_scan"}, "fusion_lat": 0.0, "name": "72dcdd8f8836325b1283ab12bda7b318", "bike_id": "72dcdd8f8836325b1283ab12bda7b318", "is_disabled": 0, "type": "electric_scooter", "lat": 38.9165765, "lon": -77.02186416666666, "is_reserved": 0, "fusion_lon": 0.0}, {"rental_uris": {"ios": "https://dc.lft.to/lastmile_qr_scan", "android": "https://dc.lft.to/lastmile_qr_scan"}, "fusion_lat": 0.0, "name": "416d953a74e5515d21c6d33415d873b3", "bike_id": "416d953a74e5515d21c6d33415d873b3", "is_disabled": 0, "type": "electric_scooter", "lat": 38.900424666666666, "lon": -77.00223133333333, "is_reserved": 0, "fusion_lon": 0.0}, {"rental_uris": {"ios": "https://dc.lft.to/lastmile_qr_scan", "android": "https://dc.lft.to/lastmile_qr_scan"}, "fusion_lat": 0.0, "name": "d5c4f1c28138ac44afaee63259f95375", "bike_id": "d5c4f1c28138ac44afaee63259f95375", "is_disabled": 0, "type": "electric_scooter", "lat": 38.861113333333336, "lon": -76.983727, "is_reserved": 0, "fusion_lon": 0.0}, {"rental_uris": {"ios": "https://dc.lft.to/lastmile_qr_scan", "android": "https://dc.lft.to/lastmile_qr_scan"}, "fusion_lat": 0.0, "name": "06af179ed8a196af5b60a6cbe808b58c", "bike_id": "06af179ed8a196af5b60a6cbe808b58c", "is_disabled": 0, "type": "electric_scooter", "lat": 38.9044375, "lon": -77.06119666666666, "is_reserved": 0, "fusion_lon": 0.0}, {"rental_uris": {"ios": "https://dc.lft.to/lastmile_qr_scan", "android": "https://dc.lft.to/lastmile_qr_scan"}, "fusion_lat": 0.0, "name": "f9e36d7b58ee4e386299b4f3ea90d1fe", "bike_id": "f9e36d7b58ee4e386299b4f3ea90d1fe", "is_disabled": 0, "type": "electric_scooter", "lat": 38.90822983333333, "lon": -77.03461383333334, "is_reserved": 0, "fusion_lon": 0.0}, {"rental_uris": {"ios": "https://dc.lft.to/lastmile_qr_scan", "android": "https://dc.lft.to/lastmile_qr_scan"}, "fusion_lat": 0.0, "name": "be264ba724928cd9e13a2c3c6b217ef3", "bike_id": "be264ba724928cd9e13a2c3c6b217ef3", "is_disabled": 0, "type": "electric_scooter", "lat": 38.90978116666667, "lon": -77.031843, "is_reserved": 0, "fusion_lon": 0.0}, {"rental_uris": {"ios": "https://dc.lft.to/lastmile_qr_scan", "android": "https://dc.lft.to/lastmile_qr_scan"}, "fusion_lat": 0.0, "name": "c4c7c4da3b74786ff46be91410c481ea", "bike_id": "c4c7c4da3b74786ff46be91410c481ea", "is_disabled": 0, "type": "electric_scooter", "lat": 38.91553416666667, "lon": -77.02210133333334, "is_reserved": 0, "fusion_lon": 0.0}, {"rental_uris": {"ios": "https://dc.lft.to/lastmile_qr_scan", "android": "https://dc.lft.to/lastmile_qr_scan"}, "fusion_lat": 0.0, "name": "7baf93996d902d05d365fb370f6e4213", "bike_id": "7baf93996d902d05d365fb370f6e4213", "is_disabled": 0, "type": "electric_scooter", "lat": 38.9397035, "lon": -77.03257116666667, "is_reserved": 0, "fusion_lon": 0.0}, {"rental_uris": {"ios": "https://dc.lft.to/lastmile_qr_scan", "android": "https://dc.lft.to/lastmile_qr_scan"}, "fusion_lat": 0.0, "name": "64ea986b6ca875d4510e980156a22f3c", "bike_id": "64ea986b6ca875d4510e980156a22f3c", "is_disabled": 0, "type": "electric_scooter", "lat": 38.88023416666667, "lon": -77.00243516666667, "is_reserved": 0, "fusion_lon": 0.0}, {"rental_uris": {"ios": "https://dc.lft.to/lastmile_qr_scan", "android": "https://dc.lft.to/lastmile_qr_scan"}, "fusion_lat": 0.0, "name": "596c1ed23894bcce47f92fefb75b2008", "bike_id": "596c1ed23894bcce47f92fefb75b2008", "is_disabled": 0, "type": "electric_scooter", "lat": 38.930461, "lon": -77.01993616666667, "is_reserved": 0, "fusion_lon": 0.0}, {"rental_uris": {"ios": "https://dc.lft.to/lastmile_qr_scan", "android": "https://dc.lft.to/lastmile_qr_scan"}, "fusion_lat": 0.0, "name": "c9d2a5294e549525a91194ab10bb9ec2", "bike_id": "c9d2a5294e549525a91194ab10bb9ec2", "is_disabled": 0, "type": "electric_bike", "lat": 38.850272833333335, "lon": -77.09803566666666, "is_reserved": 0, "fusion_lon": 0.0}, {"rental_uris": {"ios": "https://dc.lft.to/lastmile_qr_scan", "android": "https://dc.lft.to/lastmile_qr_scan"}, "fusion_lat": 0.0, "name": "db5e89664135f1effddd6ff663926c5a", "bike_id": "db5e89664135f1effddd6ff663926c5a", "is_disabled": 0, "type": "electric_bike", "lat": 38.857940666666664, "lon": -77.099607, "is_reserved": 0, "fusion_lon": 0.0}, {"rental_uris": {"ios": "https://dc.lft.to/lastmile_qr_scan", "android": "https://dc.lft.to/lastmile_qr_scan"}, "fusion_lat": 0.0, "name": "60037d5283c29c31cb7bc18b7c6d3e51", "bike_id": "60037d5283c29c31cb7bc18b7c6d3e51", "is_disabled": 0, "type": "electric_bike", "lat": 38.96441316666667, "lon": -77.02067133333334, "is_reserved": 0, "fusion_lon": 0.0}, {"rental_uris": {"ios": "https://dc.lft.to/lastmile_qr_scan", "android": "https://dc.lft.to/lastmile_qr_scan"}, "fusion_lat": 0.0, "name": "8435f69a65b7b7a864dd0c153c39a2e4", "bike_id": "8435f69a65b7b7a864dd0c153c39a2e4", "is_disabled": 0, "type": "electric_scooter", "lat": 38.94519666666667, "lon": -76.9794355, "is_reserved": 0, "fusion_lon": 0.0}, {"rental_uris": {"ios": "https://dc.lft.to/lastmile_qr_scan", "android": "https://dc.lft.to/lastmile_qr_scan"}, "fusion_lat": 0.0, "name": "dd51e4fc28fbf357bab4c49abe967c0a", "bike_id": "dd51e4fc28fbf357bab4c49abe967c0a", "is_disabled": 0, "type": "electric_scooter", "lat": 38.91860966666667, "lon": -77.04035733333333, "is_reserved": 0, "fusion_lon": 0.0}, {"rental_uris": {"ios": "https://dc.lft.to/lastmile_qr_scan", "android": "https://dc.lft.to/lastmile_qr_scan"}, "fusion_lat": 0.0, "name": "23efe9e554b5c91005d8b9100a4f2bab", "bike_id": "23efe9e554b5c91005d8b9100a4f2bab", "is_disabled": 0, "type": "electric_scooter", "lat": 38.9155945, "lon": -77.04015483333333, "is_reserved": 0, "fusion_lon": 0.0}, {"rental_uris": {"ios": "https://dc.lft.to/lastmile_qr_scan", "android": "https://dc.lft.to/lastmile_qr_scan"}, "fusion_lat": 0.0, "name": "7c37270bf8cab7e26e793aa899ed6b5c", "bike_id": "7c37270bf8cab7e26e793aa899ed6b5c", "is_disabled": 0, "type": "electric_scooter", "lat": 38.91643633333333, "lon": -77.0320095, "is_reserved": 0, "fusion_lon": 0.0}, {"rental_uris": {"ios": "https://dc.lft.to/lastmile_qr_scan", "android": "https://dc.lft.to/lastmile_qr_scan"}, "fusion_lat": 0.0, "name": "603f0637b4b2e496aa6fb363862be410", "bike_id": "603f0637b4b2e496aa6fb363862be410", "is_disabled": 0, "type": "electric_scooter", "lat": 38.8922075, "lon": -77.02220366666667, "is_reserved": 0, "fusion_lon": 0.0}, {"rental_uris": {"ios": "https://dc.lft.to/lastmile_qr_scan", "android": "https://dc.lft.to/lastmile_qr_scan"}, "fusion_lat": 0.0, "name": "dd61495e85b0b05f370463223deebed8", "bike_id": "dd61495e85b0b05f370463223deebed8", "is_disabled": 0, "type": "electric_scooter", "lat": 38.88520183333333, "lon": -76.9287905, "is_reserved": 0, "fusion_lon": 0.0}, {"rental_uris": {"ios": "https://dc.lft.to/lastmile_qr_scan", "android": "https://dc.lft.to/lastmile_qr_scan"}, "fusion_lat": 0.0, "name": "a0b561475a329e20089d4d56c996edda", "bike_id": "a0b561475a329e20089d4d56c996edda", "is_disabled": 0, "type": "electric_scooter", "lat": 38.909674, "lon": -77.0247315, "is_reserved": 0, "fusion_lon": 0.0}, {"rental_uris": {"ios": "https://dc.lft.to/lastmile_qr_scan", "android": "https://dc.lft.to/lastmile_qr_scan"}, "fusion_lat": 0.0, "name": "c576fadff06c38cc1c5cc8ea7eafdff1", "bike_id": "c576fadff06c38cc1c5cc8ea7eafdff1", "is_disabled": 0, "type": "electric_scooter", "lat": 38.901524333333334, "lon": -77.0418755, "is_reserved": 0, "fusion_lon": 0.0}, {"rental_uris": {"ios": "https://dc.lft.to/lastmile_qr_scan", "android": "https://dc.lft.to/lastmile_qr_scan"}, "fusion_lat": 0.0, "name": "3cb8693b7869cf04c620ee36cab6470e", "bike_id": "3cb8693b7869cf04c620ee36cab6470e", "is_disabled": 0, "type": "electric_scooter", "lat": 38.91566683333333, "lon": -77.02215083333333, "is_reserved": 0, "fusion_lon": 0.0}, {"rental_uris": {"ios": "https://dc.lft.to/lastmile_qr_scan", "android": "https://dc.lft.to/lastmile_qr_scan"}, "fusion_lat": 0.0, "name": "992cc628616998bb365fa92e4a425ddc", "bike_id": "992cc628616998bb365fa92e4a425ddc", "is_disabled": 0, "type": "electric_scooter", "lat": 38.90639066666667, "lon": -77.00590516666666, "is_reserved": 0, "fusion_lon": 0.0}, {"rental_uris": {"ios": "https://dc.lft.to/lastmile_qr_scan", "android": "https://dc.lft.to/lastmile_qr_scan"}, "fusion_lat": 0.0, "name": "f10da4d2e9f002479f72311228c63f9f", "bike_id": "f10da4d2e9f002479f72311228c63f9f", "is_disabled": 0, "type": "electric_scooter", "lat": 38.854444, "lon": -76.98580966666667, "is_reserved": 0, "fusion_lon": 0.0}, {"rental_uris": {"ios": "https://dc.lft.to/lastmile_qr_scan", "android": "https://dc.lft.to/lastmile_qr_scan"}, "fusion_lat": 0.0, "name": "2d9472d7d261ca74616500b3ded7bd73", "bike_id": "2d9472d7d261ca74616500b3ded7bd73", "is_disabled": 0, "type": "electric_scooter", "lat": 38.92872116666667, "lon": -77.033665, "is_reserved": 0, "fusion_lon": 0.0}, {"rental_uris": {"ios": "https://dc.lft.to/lastmile_qr_scan", "android": "https://dc.lft.to/lastmile_qr_scan"}, "fusion_lat": 0.0, "name": "9a773346657b89a4d79f6e104912ce52", "bike_id": "9a773346657b89a4d79f6e104912ce52", "is_disabled": 0, "type": "electric_scooter", "lat": 38.92418133333334, "lon": -77.02011666666667, "is_reserved": 0, "fusion_lon": 0.0}, {"rental_uris": {"ios": "https://dc.lft.to/lastmile_qr_scan", "android": "https://dc.lft.to/lastmile_qr_scan"}, "fusion_lat": 0.0, "name": "c11c8f3ef6392a214416c4147523def6", "bike_id": "c11c8f3ef6392a214416c4147523def6", "is_disabled": 0, "type": "electric_scooter", "lat": 38.905847333333334, "lon": -77.04008216666666, "is_reserved": 0, "fusion_lon": 0.0}, {"rental_uris": {"ios": "https://dc.lft.to/lastmile_qr_scan", "android": "https://dc.lft.to/lastmile_qr_scan"}, "fusion_lat": 0.0, "name": "be87b4d3532c1e8ecd5402d52efecdd1", "bike_id": "be87b4d3532c1e8ecd5402d52efecdd1", "is_disabled": 0, "type": "electric_scooter", "lat": 38.886594, "lon": -77.01355433333333, "is_reserved": 0, "fusion_lon": 0.0}, {"rental_uris": {"ios": "https://dc.lft.to/lastmile_qr_scan", "android": "https://dc.lft.to/lastmile_qr_scan"}, "fusion_lat": 0.0, "name": "28cdc1cdaee0bccf45bbe46c0bc98383", "bike_id": "28cdc1cdaee0bccf45bbe46c0bc98383", "is_disabled": 0, "type": "electric_scooter", "lat": 38.954203, "lon": -77.02764383333333, "is_reserved": 0, "fusion_lon": 0.0}, {"rental_uris": {"ios": "https://dc.lft.to/lastmile_qr_scan", "android": "https://dc.lft.to/lastmile_qr_scan"}, "fusion_lat": 0.0, "name": "b425581cf00694fc17446ca76ed300ab", "bike_id": "b425581cf00694fc17446ca76ed300ab", "is_disabled": 0, "type": "electric_scooter", "lat": 38.876302833333334, "lon": -76.9652855, "is_reserved": 0, "fusion_lon": 0.0}, {"rental_uris": {"ios": "https://dc.lft.to/lastmile_qr_scan", "android": "https://dc.lft.to/lastmile_qr_scan"}, "fusion_lat": 0.0, "name": "7c5967c0a62971f2c4c21420ae4ce1ef", "bike_id": "7c5967c0a62971f2c4c21420ae4ce1ef", "is_disabled": 0, "type": "electric_scooter", "lat": 38.92381733333333, "lon": -77.057514, "is_reserved": 0, "fusion_lon": 0.0}, {"rental_uris": {"ios": "https://dc.lft.to/lastmile_qr_scan", "android": "https://dc.lft.to/lastmile_qr_scan"}, "fusion_lat": 0.0, "name": "f7d234c84f9455b519bcc649f7d1a43d", "bike_id": "f7d234c84f9455b519bcc649f7d1a43d", "is_disabled": 0, "type": "electric_scooter", "lat": 38.89362716666667, "lon": -77.0478345, "is_reserved": 0, "fusion_lon": 0.0}, {"rental_uris": {"ios": "https://dc.lft.to/lastmile_qr_scan", "android": "https://dc.lft.to/lastmile_qr_scan"}, "fusion_lat": 0.0, "name": "6a88cc866b3229c445bbe3809c093c92", "bike_id": "6a88cc866b3229c445bbe3809c093c92", "is_disabled": 0, "type": "electric_scooter", "lat": 38.908842166666666, "lon": -77.00576233333334, "is_reserved": 0, "fusion_lon": 0.0}, {"rental_uris": {"ios": "https://dc.lft.to/lastmile_qr_scan", "android": "https://dc.lft.to/lastmile_qr_scan"}, "fusion_lat": 0.0, "name": "55f1a46f67f4f2586915d43528b30aa1", "bike_id": "55f1a46f67f4f2586915d43528b30aa1", "is_disabled": 0, "type": "electric_scooter", "lat": 38.918625666666664, "lon": -77.04041416666666, "is_reserved": 0, "fusion_lon": 0.0}, {"rental_uris": {"ios": "https://dc.lft.to/lastmile_qr_scan", "android": "https://dc.lft.to/lastmile_qr_scan"}, "fusion_lat": 0.0, "name": "25068db6cf874df8a64cbd83433717f9", "bike_id": "25068db6cf874df8a64cbd83433717f9", "is_disabled": 0, "type": "electric_bike", "lat": 38.962294666666665, "lon": -77.026298, "is_reserved": 0, "fusion_lon": 0.0}, {"rental_uris": {"ios": "https://dc.lft.to/lastmile_qr_scan", "android": "https://dc.lft.to/lastmile_qr_scan"}, "fusion_lat": 0.0, "name": "bea5a22f0e45d42e35b003d314338d5b", "bike_id": "bea5a22f0e45d42e35b003d314338d5b", "is_disabled": 0, "type": "electric_scooter", "lat": 38.909633, "lon": -77.03377333333333, "is_reserved": 0, "fusion_lon": 0.0}, {"rental_uris": {"ios": "https://dc.lft.to/lastmile_qr_scan", "android": "https://dc.lft.to/lastmile_qr_scan"}, "fusion_lat": 0.0, "name": "accc8fc7df4a89d68543c7944f04f376", "bike_id": "accc8fc7df4a89d68543c7944f04f376", "is_disabled": 0, "type": "electric_scooter", "lat": 38.94292033333333, "lon": -77.0217485, "is_reserved": 0, "fusion_lon": 0.0}, {"rental_uris": {"ios": "https://dc.lft.to/lastmile_qr_scan", "android": "https://dc.lft.to/lastmile_qr_scan"}, "fusion_lat": 0.0, "name": "82214f6ac43973152247ffe042a60920", "bike_id": "82214f6ac43973152247ffe042a60920", "is_disabled": 0, "type": "electric_bike", "lat": 38.969382333333336, "lon": -77.03344683333333, "is_reserved": 0, "fusion_lon": 0.0}, {"rental_uris": {"ios": "https://dc.lft.to/lastmile_qr_scan", "android": "https://dc.lft.to/lastmile_qr_scan"}, "fusion_lat": 0.0, "name": "bd17f5e4a90e03180efdc60d109f0797", "bike_id": "bd17f5e4a90e03180efdc60d109f0797", "is_disabled": 0, "type": "electric_scooter", "lat": 38.902095333333335, "lon": -77.0232045, "is_reserved": 0, "fusion_lon": 0.0}, {"rental_uris": {"ios": "https://dc.lft.to/lastmile_qr_scan", "android": "https://dc.lft.to/lastmile_qr_scan"}, "fusion_lat": 0.0, "name": "e3cdcac35d40228d590684fa4a088322", "bike_id": "e3cdcac35d40228d590684fa4a088322", "is_disabled": 0, "type": "electric_scooter", "lat": 38.893359833333335, "lon": -76.9313135, "is_reserved": 0, "fusion_lon": 0.0}, {"rental_uris": {"ios": "https://dc.lft.to/lastmile_qr_scan", "android": "https://dc.lft.to/lastmile_qr_scan"}, "fusion_lat": 0.0, "name": "7d1b2a74e5acae78a6a324216f961026", "bike_id": "7d1b2a74e5acae78a6a324216f961026", "is_disabled": 0, "type": "electric_bike", "lat": 38.95900116666667, "lon": -76.924924, "is_reserved": 0, "fusion_lon": 0.0}, {"rental_uris": {"ios": "https://dc.lft.to/lastmile_qr_scan", "android": "https://dc.lft.to/lastmile_qr_scan"}, "fusion_lat": 0.0, "name": "7f83152e355e8c97e7db9295f8f29e1b", "bike_id": "7f83152e355e8c97e7db9295f8f29e1b", "is_disabled": 0, "type": "electric_scooter", "lat": 38.90957383333333, "lon": -77.03472733333334, "is_reserved": 0, "fusion_lon": 0.0}, {"rental_uris": {"ios": "https://dc.lft.to/lastmile_qr_scan", "android": "https://dc.lft.to/lastmile_qr_scan"}, "fusion_lat": 0.0, "name": "3d6ddf4150c6ec168a6cd122fcba0040", "bike_id": "3d6ddf4150c6ec168a6cd122fcba0040", "is_disabled": 0, "type": "electric_scooter", "lat": 38.908299166666666, "lon": -77.00925116666667, "is_reserved": 0, "fusion_lon": 0.0}, {"rental_uris": {"ios": "https://dc.lft.to/lastmile_qr_scan", "android": "https://dc.lft.to/lastmile_qr_scan"}, "fusion_lat": 0.0, "name": "0a7372d39e21f3a85f4c2eab90b40f96", "bike_id": "0a7372d39e21f3a85f4c2eab90b40f96", "is_disabled": 0, "type": "electric_scooter", "lat": 38.903275, "lon": -77.04164966666667, "is_reserved": 0, "fusion_lon": 0.0}, {"rental_uris": {"ios": "https://dc.lft.to/lastmile_qr_scan", "android": "https://dc.lft.to/lastmile_qr_scan"}, "fusion_lat": 0.0, "name": "a6fef2934d5d940e3e9affd90d0282e4", "bike_id": "a6fef2934d5d940e3e9affd90d0282e4", "is_disabled": 0, "type": "electric_scooter", "lat": 38.91932766666667, "lon": -77.03184433333334, "is_reserved": 0, "fusion_lon": 0.0}, {"rental_uris": {"ios": "https://dc.lft.to/lastmile_qr_scan", "android": "https://dc.lft.to/lastmile_qr_scan"}, "fusion_lat": 0.0, "name": "edea4a1de7990272c754a69b2bcac376", "bike_id": "edea4a1de7990272c754a69b2bcac376", "is_disabled": 0, "type": "electric_scooter", "lat": 38.910191166666664, "lon": -77.03855183333333, "is_reserved": 0, "fusion_lon": 0.0}, {"rental_uris": {"ios": "https://dc.lft.to/lastmile_qr_scan", "android": "https://dc.lft.to/lastmile_qr_scan"}, "fusion_lat": 0.0, "name": "8109569f31e27876d6eff65f17cdbf60", "bike_id": "8109569f31e27876d6eff65f17cdbf60", "is_disabled": 0, "type": "electric_scooter", "lat": 38.88758033333333, "lon": -77.03362533333333, "is_reserved": 0, "fusion_lon": 0.0}, {"rental_uris": {"ios": "https://dc.lft.to/lastmile_qr_scan", "android": "https://dc.lft.to/lastmile_qr_scan"}, "fusion_lat": 0.0, "name": "916b771bce0bff295357c030c3f0c727", "bike_id": "916b771bce0bff295357c030c3f0c727", "is_disabled": 0, "type": "electric_scooter", "lat": 38.92055533333333, "lon": -76.99539533333333, "is_reserved": 0, "fusion_lon": 0.0}, {"rental_uris": {"ios": "https://dc.lft.to/lastmile_qr_scan", "android": "https://dc.lft.to/lastmile_qr_scan"}, "fusion_lat": 0.0, "name": "5dac071a6bf8c1ac31b45b638c44ed74", "bike_id": "5dac071a6bf8c1ac31b45b638c44ed74", "is_disabled": 0, "type": "electric_scooter", "lat": 38.91649616666667, "lon": -77.02284866666666, "is_reserved": 0, "fusion_lon": 0.0}, {"rental_uris": {"ios": "https://dc.lft.to/lastmile_qr_scan", "android": "https://dc.lft.to/lastmile_qr_scan"}, "fusion_lat": 0.0, "name": "9f376146742449fa3849c347721c9af5", "bike_id": "9f376146742449fa3849c347721c9af5", "is_disabled": 0, "type": "electric_bike", "lat": 38.853526, "lon": -77.13470666666667, "is_reserved": 0, "fusion_lon": 0.0}, {"rental_uris": {"ios": "https://dc.lft.to/lastmile_qr_scan", "android": "https://dc.lft.to/lastmile_qr_scan"}, "fusion_lat": 0.0, "name": "5714b5684ddb6a4fa967397ef407895d", "bike_id": "5714b5684ddb6a4fa967397ef407895d", "is_disabled": 0, "type": "electric_scooter", "lat": 38.931226833333334, "lon": -77.03395983333333, "is_reserved": 0, "fusion_lon": 0.0}, {"rental_uris": {"ios": "https://dc.lft.to/lastmile_qr_scan", "android": "https://dc.lft.to/lastmile_qr_scan"}, "fusion_lat": 0.0, "name": "becf3f3bb03159d6e8d56bd48ea86a16", "bike_id": "becf3f3bb03159d6e8d56bd48ea86a16", "is_disabled": 0, "type": "electric_scooter", "lat": 38.901066, "lon": -77.031678, "is_reserved": 0, "fusion_lon": 0.0}, {"rental_uris": {"ios": "https://dc.lft.to/lastmile_qr_scan", "android": "https://dc.lft.to/lastmile_qr_scan"}, "fusion_lat": 0.0, "name": "5c56bd561ab0da43b1fa719c59eadb14", "bike_id": "5c56bd561ab0da43b1fa719c59eadb14", "is_disabled": 0, "type": "electric_bike", "lat": 38.88570133333333, "lon": -77.08518066666667, "is_reserved": 0, "fusion_lon": 0.0}, {"rental_uris": {"ios": "https://dc.lft.to/lastmile_qr_scan", "android": "https://dc.lft.to/lastmile_qr_scan"}, "fusion_lat": 0.0, "name": "d93c58942e58d6d106b9f55813f73f99", "bike_id": "d93c58942e58d6d106b9f55813f73f99", "is_disabled": 0, "type": "electric_scooter", "lat": 38.91923216666667, "lon": -77.03413616666667, "is_reserved": 0, "fusion_lon": 0.0}, {"rental_uris": {"ios": "https://dc.lft.to/lastmile_qr_scan", "android": "https://dc.lft.to/lastmile_qr_scan"}, "fusion_lat": 0.0, "name": "29f78ed7d5146a93a605e8d3eb4da09f", "bike_id": "29f78ed7d5146a93a605e8d3eb4da09f", "is_disabled": 0, "type": "electric_scooter", "lat": 38.897107166666665, "lon": -77.006734, "is_reserved": 0, "fusion_lon": 0.0}, {"rental_uris": {"ios": "https://dc.lft.to/lastmile_qr_scan", "android": "https://dc.lft.to/lastmile_qr_scan"}, "fusion_lat": 0.0, "name": "36413339c08be0550b32f1419cc1a010", "bike_id": "36413339c08be0550b32f1419cc1a010", "is_disabled": 0, "type": "electric_scooter", "lat": 38.9079375, "lon": -77.04002866666667, "is_reserved": 0, "fusion_lon": 0.0}, {"rental_uris": {"ios": "https://dc.lft.to/lastmile_qr_scan", "android": "https://dc.lft.to/lastmile_qr_scan"}, "fusion_lat": 0.0, "name": "04e3864890dda241b6bf80e7157b4cd5", "bike_id": "04e3864890dda241b6bf80e7157b4cd5", "is_disabled": 0, "type": "electric_bike", "lat": 38.9004115, "lon": -76.97188766666666, "is_reserved": 0, "fusion_lon": 0.0}, {"rental_uris": {"ios": "https://dc.lft.to/lastmile_qr_scan", "android": "https://dc.lft.to/lastmile_qr_scan"}, "fusion_lat": 0.0, "name": "1cb249540b20cc79ac84e3e4e9f3a356", "bike_id": "1cb249540b20cc79ac84e3e4e9f3a356", "is_disabled": 0, "type": "electric_scooter", "lat": 38.91537066666667, "lon": -77.0321065, "is_reserved": 0, "fusion_lon": 0.0}, {"rental_uris": {"ios": "https://dc.lft.to/lastmile_qr_scan", "android": "https://dc.lft.to/lastmile_qr_scan"}, "fusion_lat": 0.0, "name": "311b94ee722fa8e826d3006a51a27fd4", "bike_id": "311b94ee722fa8e826d3006a51a27fd4", "is_disabled": 0, "type": "electric_scooter", "lat": 38.914304, "lon": -77.02819516666666, "is_reserved": 0, "fusion_lon": 0.0}, {"rental_uris": {"ios": "https://dc.lft.to/lastmile_qr_scan", "android": "https://dc.lft.to/lastmile_qr_scan"}, "fusion_lat": 0.0, "name": "6f4babe6e64fca6ea6bb71fb7b3fe48f", "bike_id": "6f4babe6e64fca6ea6bb71fb7b3fe48f", "is_disabled": 0, "type": "electric_scooter", "lat": 38.904087833333335, "lon": -77.03580283333334, "is_reserved": 0, "fusion_lon": 0.0}, {"rental_uris": {"ios": "https://dc.lft.to/lastmile_qr_scan", "android": "https://dc.lft.to/lastmile_qr_scan"}, "fusion_lat": 0.0, "name": "f15151331016c915d83da88c3a039982", "bike_id": "f15151331016c915d83da88c3a039982", "is_disabled": 0, "type": "electric_scooter", "lat": 38.86695116666667, "lon": -76.980883, "is_reserved": 0, "fusion_lon": 0.0}, {"rental_uris": {"ios": "https://dc.lft.to/lastmile_qr_scan", "android": "https://dc.lft.to/lastmile_qr_scan"}, "fusion_lat": 0.0, "name": "e0e6a057b1e7b8c17b3a6b8d672a1cdc", "bike_id": "e0e6a057b1e7b8c17b3a6b8d672a1cdc", "is_disabled": 0, "type": "electric_scooter", "lat": 38.870802, "lon": -76.96861066666666, "is_reserved": 0, "fusion_lon": 0.0}, {"rental_uris": {"ios": "https://dc.lft.to/lastmile_qr_scan", "android": "https://dc.lft.to/lastmile_qr_scan"}, "fusion_lat": 0.0, "name": "b81fd6e5628fe887fffe08663b77ac1b", "bike_id": "b81fd6e5628fe887fffe08663b77ac1b", "is_disabled": 0, "type": "electric_scooter", "lat": 38.925731666666664, "lon": -77.0256545, "is_reserved": 0, "fusion_lon": 0.0}, {"rental_uris": {"ios": "https://dc.lft.to/lastmile_qr_scan", "android": "https://dc.lft.to/lastmile_qr_scan"}, "fusion_lat": 0.0, "name": "df13ce2f6c5e1d77ba1acdba0895353f", "bike_id": "df13ce2f6c5e1d77ba1acdba0895353f", "is_disabled": 0, "type": "electric_scooter", "lat": 38.916849166666665, "lon": -77.02969266666666, "is_reserved": 0, "fusion_lon": 0.0}, {"rental_uris": {"ios": "https://dc.lft.to/lastmile_qr_scan", "android": "https://dc.lft.to/lastmile_qr_scan"}, "fusion_lat": 0.0, "name": "6cd7e182e4f2f03a9769d467a2bbabeb", "bike_id": "6cd7e182e4f2f03a9769d467a2bbabeb", "is_disabled": 0, "type": "electric_scooter", "lat": 38.86361683333333, "lon": -76.99051983333334, "is_reserved": 0, "fusion_lon": 0.0}, {"rental_uris": {"ios": "https://dc.lft.to/lastmile_qr_scan", "android": "https://dc.lft.to/lastmile_qr_scan"},