{"data": {"bikes": [{"type": "electric_scooter", "name": "f06031e0f252e72e3ec716caee45575e", "rental_uris": {"ios": "https://dc.lft.to/lastmile_qr_scan", "android": "https://dc.lft.to/lastmile_qr_scan"}, "fusion_lon": 0.0, "lat": 38.939020666666664, "is_disabled": 0, "bike_id": "f06031e0f252e72e3ec716caee45575e", "fusion_lat": 0.0, "is_reserved": 0, "lon": -77.03320816666667}, {"type": "electric_scooter", "name": "e985b1730f47b6761122ebdc7e87fab9", "rental_uris": {"ios": "https://dc.lft.to/lastmile_qr_scan", "android": "https://dc.lft.to/lastmile_qr_scan"}, "fusion_lon": 0.0, "lat": 38.925230666666664, "is_disabled": 0, "bike_id": "e985b1730f47b6761122ebdc7e87fab9", "fusion_lat": 0.0, "is_reserved": 0, "lon": -77.0513145}, {"type": "electric_scooter", "name": "74c01cc8ba8c0f6466994d53446c974c", "rental_uris": {"ios": "https://dc.lft.to/lastmile_qr_scan", "android": "https://dc.lft.to/lastmile_qr_scan"}, "fusion_lon": 0.0, "lat": 38.900294, "is_disabled": 0, "bike_id": "74c01cc8ba8c0f6466994d53446c974c", "fusion_lat": 0.0, "is_reserved": 0, "lon": -76.9890485}, {"type": "electric_scooter", "name": "d1947971808598fb9a796853568d7779", "rental_uris": {"ios": "https://dc.lft.to/lastmile_qr_scan", "android": "https://dc.lft.to/lastmile_qr_scan"}, "fusion_lon": 0.0, "lat": 38.91310216666667, "is_disabled": 0, "bike_id": "d1947971808598fb9a796853568d7779", "fusion_lat": 0.0, "is_reserved": 0, "lon": -77.03199766666667}, {"type": "electric_scooter", "name": "8acc7391a8318aa55b902c6303f591ae", "rental_uris": {"ios": "https://dc.lft.to/lastmile_qr_scan", "android": "https://dc.lft.to/lastmile_qr_scan"}, "fusion_lon": 0.0, "lat": 38.89652816666667, "is_disabled": 0, "bike_id": "8acc7391a8318aa55b902c6303f591ae", "fusion_lat": 0.0, "is_reserved": 0, "lon": -77.03204983333333}, {"type": "electric_scooter", "name": "2bcfc724732ef1c85c7aebb34d8238ed", "rental_uris": {"ios": "https://dc.lft.to/lastmile_qr_scan", "android": "https://dc.lft.to/lastmile_qr_scan"}, "fusion_lon": 0.0, "lat": 38.89362366666667, "is_disabled": 0, "bike_id": "2bcfc724732ef1c85c7aebb34d8238ed", "fusion_lat": 0.0, "is_reserved": 0, "lon": -77.01971116666667}, {"type": "electric_scooter", "name": "46e08236596ef76ea9a11d7f3f93f2c4", "rental_uris": {"ios": "https://dc.lft.to/lastmile_qr_scan", "android": "https://dc.lft.to/lastmile_qr_scan"}, "fusion_lon": 0.0, "lat": 38.900307833333336, "is_disabled": 0, "bike_id": "46e08236596ef76ea9a11d7f3f93f2c4", "fusion_lat": 0.0, "is_reserved": 0, "lon": -76.98745866666667}, {"type": "electric_scooter", "name": "57749717823bb81d46608784b2677708", "rental_uris": {"ios": "https://dc.lft.to/lastmile_qr_scan", "android": "https://dc.lft.to/lastmile_qr_scan"}, "fusion_lon": 0.0, "lat": 38.884344666666664, "is_disabled": 0, "bike_id": "57749717823bb81d46608784b2677708", "fusion_lat": 0.0, "is_reserved": 0, "lon": -77.01510116666667}, {"type": "electric_scooter", "name": "fbf6065b7b259bbcb9945a2a17621d4e", "rental_uris": {"ios": "https://dc.lft.to/lastmile_qr_scan", "android": "https://dc.lft.to/lastmile_qr_scan"}, "fusion_lon": 0.0, "lat": 38.94131733333333, "is_disabled": 0, "bike_id": "fbf6065b7b259bbcb9945a2a17621d4e", "fusion_lat": 0.0, "is_reserved": 0, "lon": -77.0154045}, {"type": "electric_scooter", "name": "29db7657ba1c7205768d0db8a862fcd7", "rental_uris": {"ios": "https://dc.lft.to/lastmile_qr_scan", "android": "https://dc.lft.to/lastmile_qr_scan"}, "fusion_lon": 0.0, "lat": 38.92880816666667, "is_disabled": 0, "bike_id": "29db7657ba1c7205768d0db8a862fcd7", "fusion_lat": 0.0, "is_reserved": 0, "lon": -77.02706166666667}, {"type": "electric_scooter", "name": "b5e8d41c2a3a62b03e218b4a8e514def", "rental_uris": {"ios": "https://dc.lft.to/lastmile_qr_scan", "android": "https://dc.lft.to/lastmile_qr_scan"}, "fusion_lon": 0.0, "lat": 38.91317866666667, "is_disabled": 0, "bike_id": "b5e8d41c2a3a62b03e218b4a8e514def", "fusion_lat": 0.0, "is_reserved": 0, "lon": -77.015123}, {"type": "electric_scooter", "name": "556eaaa6a54ad0958d55997c36def3df", "rental_uris": {"ios": "https://dc.lft.to/lastmile_qr_scan", "android": "https://dc.lft.to/lastmile_qr_scan"}, "fusion_lon": 0.0, "lat": 38.9026095, "is_disabled": 0, "bike_id": "556eaaa6a54ad0958d55997c36def3df", "fusion_lat": 0.0, "is_reserved": 0, "lon": -76.97460966666667}, {"type": "electric_scooter", "name": "0c020e422fce3fe484325c5b1058de03", "rental_uris": {"ios": "https://dc.lft.to/lastmile_qr_scan", "android": "https://dc.lft.to/lastmile_qr_scan"}, "fusion_lon": 0.0, "lat": 38.898066166666666, "is_disabled": 0, "bike_id": "0c020e422fce3fe484325c5b1058de03", "fusion_lat": 0.0, "is_reserved": 0, "lon": -77.03147016666667}, {"type": "electric_scooter", "name": "d7fe9e3f48ddfa69ca79fc16673d0178", "rental_uris": {"ios": "https://dc.lft.to/lastmile_qr_scan", "android": "https://dc.lft.to/lastmile_qr_scan"}, "fusion_lon": 0.0, "lat": 38.90860216666667, "is_disabled": 0, "bike_id": "d7fe9e3f48ddfa69ca79fc16673d0178", "fusion_lat": 0.0, "is_reserved": 0, "lon": -76.99796283333333}, {"type": "electric_scooter", "name": "12252aba6c3aed708a118bd2b7ed91d5", "rental_uris": {"ios": "https://dc.lft.to/lastmile_qr_scan", "android": "https://dc.lft.to/lastmile_qr_scan"}, "fusion_lon": 0.0, "lat": 38.915067666666666, "is_disabled": 0, "bike_id": "12252aba6c3aed708a118bd2b7ed91d5", "fusion_lat": 0.0, "is_reserved": 0, "lon": -77.0382725}, {"type": "electric_scooter", "name": "044dfc693e1d19542b4bccac6cdab69c", "rental_uris": {"ios": "https://dc.lft.to/lastmile_qr_scan", "android": "https://dc.lft.to/lastmile_qr_scan"}, "fusion_lon": 0.0, "lat": 38.91258366666667, "is_disabled": 0, "bike_id": "044dfc693e1d19542b4bccac6cdab69c", "fusion_lat": 0.0, "is_reserved": 0, "lon": -77.01909}, {"type": "electric_scooter", "name": "de5df18d95641eb50531a8adfc7eb401", "rental_uris": {"ios": "https://dc.lft.to/lastmile_qr_scan", "android": "https://dc.lft.to/lastmile_qr_scan"}, "fusion_lon": 0.0, "lat": 38.90779116666667, "is_disabled": 0, "bike_id": "de5df18d95641eb50531a8adfc7eb401", "fusion_lat": 0.0, "is_reserved": 0, "lon": -77.040064}, {"type": "electric_scooter", "name": "57fb8f12c8378c9687a0ccd58572268e", "rental_uris": {"ios": "https://dc.lft.to/lastmile_qr_scan", "android": "https://dc.lft.to/lastmile_qr_scan"}, "fusion_lon": 0.0, "lat": 38.904099333333335, "is_disabled": 0, "bike_id": "57fb8f12c8378c9687a0ccd58572268e", "fusion_lat": 0.0, "is_reserved": 0, "lon": -76.973336}, {"type": "electric_scooter", "name": "16bc9d1b63e39d8a021d86c1d8a1a9e8", "rental_uris": {"ios": "https://dc.lft.to/lastmile_qr_scan", "android": "https://dc.lft.to/lastmile_qr_scan"}, "fusion_lon": 0.0, "lat": 38.9210625, "is_disabled": 0, "bike_id": "16bc9d1b63e39d8a021d86c1d8a1a9e8", "fusion_lat": 0.0, "is_reserved": 0, "lon": -77.0468035}, {"type": "electric_scooter", "name": "5eb5eeaa711d01b8847dc4c6ebddce71", "rental_uris": {"ios": "https://dc.lft.to/lastmile_qr_scan", "android": "https://dc.lft.to/lastmile_qr_scan"}, "fusion_lon": 0.0, "lat": 38.86763783333333, "is_disabled": 0, "bike_id": "5eb5eeaa711d01b8847dc4c6ebddce71", "fusion_lat": 0.0, "is_reserved": 0, "lon": -76.98275416666667}, {"type": "electric_scooter", "name": "63c3ff62e652848051138b9f0ec87bb3", "rental_uris": {"ios": "https://dc.lft.to/lastmile_qr_scan", "android": "https://dc.lft.to/lastmile_qr_scan"}, "fusion_lon": 0.0, "lat": 38.884908333333335, "is_disabled": 0, "bike_id": "63c3ff62e652848051138b9f0ec87bb3", "fusion_lat": 0.0, "is_reserved": 0, "lon": -77.00709716666667}, {"type": "electric_scooter", "name": "e8fa78c26a72b6fd78fff1e46cb48da2", "rental_uris": {"ios": "https://dc.lft.to/lastmile_qr_scan", "android": "https://dc.lft.to/lastmile_qr_scan"}, "fusion_lon": 0.0, "lat": 38.916742666666664, "is_disabled": 0, "bike_id": "e8fa78c26a72b6fd78fff1e46cb48da2", "fusion_lat": 0.0, "is_reserved": 0, "lon": -77.0035005}, {"type": "electric_scooter", "name": "7141bd84a6042ad8d33c3433f309862d", "rental_uris": {"ios": "https://dc.lft.to/lastmile_qr_scan", "android": "https://dc.lft.to/lastmile_qr_scan"}, "fusion_lon": 0.0, "lat": 38.9168775, "is_disabled": 0, "bike_id": "7141bd84a6042ad8d33c3433f309862d", "fusion_lat": 0.0, "is_reserved": 0, "lon": -77.02810166666667}, {"type": "electric_scooter", "name": "aeed0a431a64561ed5bac1c847735c9f", "rental_uris": {"ios": "https://dc.lft.to/lastmile_qr_scan", "android": "https://dc.lft.to/lastmile_qr_scan"}, "fusion_lon": 0.0, "lat": 38.924798833333334, "is_disabled": 0, "bike_id": "aeed0a431a64561ed5bac1c847735c9f", "fusion_lat": 0.0, "is_reserved": 0, "lon": -77.0264665}, {"type": "electric_scooter", "name": "cf3de40b3c322864e11024849f2d3bdd", "rental_uris": {"ios": "https://dc.lft.to/lastmile_qr_scan", "android": "https://dc.lft.to/lastmile_qr_scan"}, "fusion_lon": 0.0, "lat": 38.9667275, "is_disabled": 0, "bike_id": "cf3de40b3c322864e11024849f2d3bdd", "fusion_lat": 0.0, "is_reserved": 0, "lon": -77.02657066666667}, {"type": "electric_scooter", "name": "0204b4951059ae2f621154df543c86e3", "rental_uris": {"ios": "https://dc.lft.to/lastmile_qr_scan", "android": "https://dc.lft.to/lastmile_qr_scan"}, "fusion_lon": 0.0, "lat": 38.894347833333335, "is_disabled": 0, "bike_id": "0204b4951059ae2f621154df543c86e3", "fusion_lat": 0.0, "is_reserved": 0, "lon": -76.977204}, {"type": "electric_scooter", "name": "76af02a6666c5ce7cf484051e911593e", "rental_uris": {"ios": "https://dc.lft.to/lastmile_qr_scan", "android": "https://dc.lft.to/lastmile_qr_scan"}, "fusion_lon": 0.0, "lat": 38.9034355, "is_disabled": 0, "bike_id": "76af02a6666c5ce7cf484051e911593e", "fusion_lat": 0.0, "is_reserved": 0, "lon": -77.0433595}, {"type": "electric_scooter", "name": "8d4b7c37a5b78d44d651f40cede5cdcd", "rental_uris": {"ios": "https://dc.lft.to/lastmile_qr_scan", "android": "https://dc.lft.to/lastmile_qr_scan"}, "fusion_lon": 0.0, "lat": 38.904649166666665, "is_disabled": 0, "bike_id": "8d4b7c37a5b78d44d651f40cede5cdcd", "fusion_lat": 0.0, "is_reserved": 0, "lon": -77.04338633333333}, {"type": "electric_bike", "name": "7bb70989bc39bbdd3893fba57f39d9e1", "rental_uris": {"ios": "https://dc.lft.to/lastmile_qr_scan", "android": "https://dc.lft.to/lastmile_qr_scan"}, "fusion_lon": 0.0, "lat": 38.79700166666667, "is_disabled": 0, "bike_id": "7bb70989bc39bbdd3893fba57f39d9e1", "fusion_lat": 0.0, "is_reserved": 0, "lon": -77.00371683333333}, {"type": "electric_scooter", "name": "2730cb912160d0396a878cabc5e18fe9", "rental_uris": {"ios": "https://dc.lft.to/lastmile_qr_scan", "android": "https://dc.lft.to/lastmile_qr_scan"}, "fusion_lon": 0.0, "lat": 38.930544166666664, "is_disabled": 0, "bike_id": "2730cb912160d0396a878cabc5e18fe9", "fusion_lat": 0.0, "is_reserved": 0, "lon": -77.018644}, {"type": "electric_scooter", "name": "46ab1bb25266ed37e1be3bcc2492cf0c", "rental_uris": {"ios": "https://dc.lft.to/lastmile_qr_scan", "android": "https://dc.lft.to/lastmile_qr_scan"}, "fusion_lon": 0.0, "lat": 38.8841895, "is_disabled": 0, "bike_id": "46ab1bb25266ed37e1be3bcc2492cf0c", "fusion_lat": 0.0, "is_reserved": 0, "lon": -76.9576515}, {"type": "electric_scooter", "name": "b0b5cdd97d2be4349704795275f20e9a", "rental_uris": {"ios": "https://dc.lft.to/lastmile_qr_scan", "android": "https://dc.lft.to/lastmile_qr_scan"}, "fusion_lon": 0.0, "lat": 38.924488833333335, "is_disabled": 0, "bike_id": "b0b5cdd97d2be4349704795275f20e9a", "fusion_lat": 0.0, "is_reserved": 0, "lon": -77.02147766666667}, {"type": "electric_bike", "name": "6820703b71b6a37d0f7a0b2dc6f2f230", "rental_uris": {"ios": "https://dc.lft.to/lastmile_qr_scan", "android": "https://dc.lft.to/lastmile_qr_scan"}, "fusion_lon": 0.0, "lat": 38.892117, "is_disabled": 0, "bike_id": "6820703b71b6a37d0f7a0b2dc6f2f230", "fusion_lat": 0.0, "is_reserved": 0, "lon": -76.96027766666667}, {"type": "electric_scooter", "name": "01b8a86e028074349e642212b6c74929", "rental_uris": {"ios": "https://dc.lft.to/lastmile_qr_scan", "android": "https://dc.lft.to/lastmile_qr_scan"}, "fusion_lon": 0.0, "lat": 38.92787366666667, "is_disabled": 0, "bike_id": "01b8a86e028074349e642212b6c74929", "fusion_lat": 0.0, "is_reserved": 0, "lon": -77.02099866666667}, {"type": "electric_scooter", "name": "837e5b439993bcc0fc495ab645050391", "rental_uris": {"ios": "https://dc.lft.to/lastmile_qr_scan", "android": "https://dc.lft.to/lastmile_qr_scan"}, "fusion_lon": 0.0, "lat": 38.91637166666667, "is_disabled": 0, "bike_id": "837e5b439993bcc0fc495ab645050391", "fusion_lat": 0.0, "is_reserved": 0, "lon": -77.031812}, {"type": "electric_scooter", "name": "199ac9b60ce042a7bfd8cf6f71737218", "rental_uris": {"ios": "https://dc.lft.to/lastmile_qr_scan", "android": "https://dc.lft.to/lastmile_qr_scan"}, "fusion_lon": 0.0, "lat": 38.88721616666667, "is_disabled": 0, "bike_id": "199ac9b60ce042a7bfd8cf6f71737218", "fusion_lat": 0.0, "is_reserved": 0, "lon": -76.99688}, {"type": "electric_scooter", "name": "dfd92bb44e5e27b29af3034bee0e34f5", "rental_uris": {"ios": "https://dc.lft.to/lastmile_qr_scan", "android": "https://dc.lft.to/lastmile_qr_scan"}, "fusion_lon": 0.0, "lat": 38.8655345, "is_disabled": 0, "bike_id": "dfd92bb44e5e27b29af3034bee0e34f5", "fusion_lat": 0.0, "is_reserved": 0, "lon": -76.978618}, {"type": "electric_scooter", "name": "ae9543727575da41d292ffae814939d7", "rental_uris": {"ios": "https://dc.lft.to/lastmile_qr_scan", "android": "https://dc.lft.to/lastmile_qr_scan"}, "fusion_lon": 0.0, "lat": 38.919619833333336, "is_disabled": 0, "bike_id": "ae9543727575da41d292ffae814939d7", "fusion_lat": 0.0, "is_reserved": 0, "lon": -77.04173616666667}, {"type": "electric_scooter", "name": "7fb5acbff28eb63b935208e771383bbe", "rental_uris": {"ios": "https://dc.lft.to/lastmile_qr_scan", "android": "https://dc.lft.to/lastmile_qr_scan"}, "fusion_lon": 0.0, "lat": 38.91852566666667, "is_disabled": 0, "bike_id": "7fb5acbff28eb63b935208e771383bbe", "fusion_lat": 0.0, "is_reserved": 0, "lon": -77.02601816666666}, {"type": "electric_scooter", "name": "307a36d218d580be5139dac862ef4d8c", "rental_uris": {"ios": "https://dc.lft.to/lastmile_qr_scan", "android": "https://dc.lft.to/lastmile_qr_scan"}, "fusion_lon": 0.0, "lat": 38.90376116666667, "is_disabled": 0, "bike_id": "307a36d218d580be5139dac862ef4d8c", "fusion_lat": 0.0, "is_reserved": 0, "lon": -77.0164435}, {"type": "electric_scooter", "name": "da02853609e8a9f1652051f490a10cfa", "rental_uris": {"ios": "https://dc.lft.to/lastmile_qr_scan", "android": "https://dc.lft.to/lastmile_qr_scan"}, "fusion_lon": 0.0, "lat": 38.8840555, "is_disabled": 0, "bike_id": "da02853609e8a9f1652051f490a10cfa", "fusion_lat": 0.0, "is_reserved": 0, "lon": -76.9861605}, {"type": "electric_scooter", "name": "72d2c0094bdae7d57e120918773cb810", "rental_uris": {"ios": "https://dc.lft.to/lastmile_qr_scan", "android": "https://dc.lft.to/lastmile_qr_scan"}, "fusion_lon": 0.0, "lat": 38.924413333333334, "is_disabled": 0, "bike_id": "72d2c0094bdae7d57e120918773cb810", "fusion_lat": 0.0, "is_reserved": 0, "lon": -77.0340785}, {"type": "electric_scooter", "name": "196ab05a22abd04495b6920cf4a7d4d4", "rental_uris": {"ios": "https://dc.lft.to/lastmile_qr_scan", "android": "https://dc.lft.to/lastmile_qr_scan"}, "fusion_lon": 0.0, "lat": 38.922190666666665, "is_disabled": 0, "bike_id": "196ab05a22abd04495b6920cf4a7d4d4", "fusion_lat": 0.0, "is_reserved": 0, "lon": -77.04235583333333}, {"type": "electric_scooter", "name": "d79e5332d84eec608db7867f6e687caa", "rental_uris": {"ios": "https://dc.lft.to/lastmile_qr_scan", "android": "https://dc.lft.to/lastmile_qr_scan"}, "fusion_lon": 0.0, "lat": 38.899501666666666, "is_disabled": 0, "bike_id": "d79e5332d84eec608db7867f6e687caa", "fusion_lat": 0.0, "is_reserved": 0, "lon": -76.98151633333333}, {"type": "electric_scooter", "name": "7f726e73072196e6cfa233c9e60868b5", "rental_uris": {"ios": "https://dc.lft.to/lastmile_qr_scan", "android": "https://dc.lft.to/lastmile_qr_scan"}, "fusion_lon": 0.0, "lat": 38.92389416666666, "is_disabled": 0, "bike_id": "7f726e73072196e6cfa233c9e60868b5", "fusion_lat": 0.0, "is_reserved": 0, "lon": -77.03091683333334}, {"type": "electric_scooter", "name": "14028555dcfefa0370d9bc6d4b1f1c91", "rental_uris": {"ios": "https://dc.lft.to/lastmile_qr_scan", "android": "https://dc.lft.to/lastmile_qr_scan"}, "fusion_lon": 0.0, "lat": 38.911183333333334, "is_disabled": 0, "bike_id": "14028555dcfefa0370d9bc6d4b1f1c91", "fusion_lat": 0.0, "is_reserved": 0, "lon": -77.02242783333334}, {"type": "electric_scooter", "name": "e8a7e4847e4c14998b2b4d7b79196074", "rental_uris": {"ios": "https://dc.lft.to/lastmile_qr_scan", "android": "https://dc.lft.to/lastmile_qr_scan"}, "fusion_lon": 0.0, "lat": 38.94754316666667, "is_disabled": 0, "bike_id": "e8a7e4847e4c14998b2b4d7b79196074", "fusion_lat": 0.0, "is_reserved": 0, "lon": -77.0072215}, {"type": "electric_scooter", "name": "2941f811a621133394e1523c7f9bbccf", "rental_uris": {"ios": "https://dc.lft.to/lastmile_qr_scan", "android": "https://dc.lft.to/lastmile_qr_scan"}, "fusion_lon": 0.0, "lat": 38.915292, "is_disabled": 0, "bike_id": "2941f811a621133394e1523c7f9bbccf", "fusion_lat": 0.0, "is_reserved": 0, "lon": -77.012197}, {"type": "electric_scooter", "name": "f39f2e3c15ef73d193dae1beb64ba9ac", "rental_uris": {"ios": "https://dc.lft.to/lastmile_qr_scan", "android": "https://dc.lft.to/lastmile_qr_scan"}, "fusion_lon": 0.0, "lat": 38.905014333333334, "is_disabled": 0, "bike_id": "f39f2e3c15ef73d193dae1beb64ba9ac", "fusion_lat": 0.0, "is_reserved": 0, "lon": -77.00097116666667}, {"type": "electric_scooter", "name": "705ff1fdd9407fbc6ccaa4fffcb4b41b", "rental_uris": {"ios": "https://dc.lft.to/lastmile_qr_scan", "android": "https://dc.lft.to/lastmile_qr_scan"}, "fusion_lon": 0.0, "lat": 38.93956216666667, "is_disabled": 0, "bike_id": "705ff1fdd9407fbc6ccaa4fffcb4b41b", "fusion_lat": 0.0, "is_reserved": 0, "lon": -77.08597533333334}, {"type": "electric_scooter", "name": "001e10ec5844a363b02e8f570fb1a6e5", "rental_uris": {"ios": "https://dc.lft.to/lastmile_qr_scan", "android": "https://dc.lft.to/lastmile_qr_scan"}, "fusion_lon": 0.0, "lat": 38.84183083333333, "is_disabled": 0, "bike_id": "001e10ec5844a363b02e8f570fb1a6e5", "fusion_lat": 0.0, "is_reserved": 0, "lon": -76.9978735}, {"type": "electric_scooter", "name": "dd3489ee4775eecfdd4530673c3edcc8", "rental_uris": {"ios": "https://dc.lft.to/lastmile_qr_scan", "android": "https://dc.lft.to/lastmile_qr_scan"}, "fusion_lon": 0.0, "lat": 38.947056, "is_disabled": 0, "bike_id": "dd3489ee4775eecfdd4530673c3edcc8", "fusion_lat": 0.0, "is_reserved": 0, "lon": -77.019381}, {"type": "electric_scooter", "name": "d83ebe2637060d9f16b26a88f44deec5", "rental_uris": {"ios": "https://dc.lft.to/lastmile_qr_scan", "android": "https://dc.lft.to/lastmile_qr_scan"}, "fusion_lon": 0.0, "lat": 38.92345783333333, "is_disabled": 0, "bike_id": "d83ebe2637060d9f16b26a88f44deec5", "fusion_lat": 0.0, "is_reserved": 0, "lon": -77.051198}, {"type": "electric_scooter", "name": "5038e0cbb5d8de11c781e80083d58a95", "rental_uris": {"ios": "https://dc.lft.to/lastmile_qr_scan", "android": "https://dc.lft.to/lastmile_qr_scan"}, "fusion_lon": 0.0, "lat": 38.925555, "is_disabled": 0, "bike_id": "5038e0cbb5d8de11c781e80083d58a95", "fusion_lat": 0.0, "is_reserved": 0, "lon": -77.04058416666666}, {"type": "electric_scooter", "name": "594cdbe38038a8ed7a64ef58f164b08d", "rental_uris": {"ios": "https://dc.lft.to/lastmile_qr_scan", "android": "https://dc.lft.to/lastmile_qr_scan"}, "fusion_lon": 0.0, "lat": 38.91074166666667, "is_disabled": 0, "bike_id": "594cdbe38038a8ed7a64ef58f164b08d", "fusion_lat": 0.0, "is_reserved": 0, "lon": -77.030229}, {"type": "electric_scooter", "name": "5fa0a7f84e3f1aeec2586d1828e0aac7", "rental_uris": {"ios": "https://dc.lft.to/lastmile_qr_scan", "android": "https://dc.lft.to/lastmile_qr_scan"}, "fusion_lon": 0.0, "lat": 38.906908666666666, "is_disabled": 0, "bike_id": "5fa0a7f84e3f1aeec2586d1828e0aac7", "fusion_lat": 0.0, "is_reserved": 0, "lon": -77.03598683333334}, {"type": "electric_scooter", "name": "7d427d7798e5312688ab454b4dfb1311", "rental_uris": {"ios": "https://dc.lft.to/lastmile_qr_scan", "android": "https://dc.lft.to/lastmile_qr_scan"}, "fusion_lon": 0.0, "lat": 38.901255666666664, "is_disabled": 0, "bike_id": "7d427d7798e5312688ab454b4dfb1311", "fusion_lat": 0.0, "is_reserved": 0, "lon": -77.04450416666667}, {"type": "electric_scooter", "name": "c196533bda6a8a92fa0a805f4bfc03ee", "rental_uris": {"ios": "https://dc.lft.to/lastmile_qr_scan", "android": "https://dc.lft.to/lastmile_qr_scan"}, "fusion_lon": 0.0, "lat": 38.887347166666665, "is_disabled": 0, "bike_id": "c196533bda6a8a92fa0a805f4bfc03ee", "fusion_lat": 0.0, "is_reserved": 0, "lon": -77.02831633333334}, {"type": "electric_bike", "name": "663a152243bed8fa9594a9897843c959", "rental_uris": {"ios": "https://dc.lft.to/lastmile_qr_scan", "android": "https://dc.lft.to/lastmile_qr_scan"}, "fusion_lon": 0.0, "lat": 38.798578, "is_disabled": 0, "bike_id": "663a152243bed8fa9594a9897843c959", "fusion_lat": 0.0, "is_reserved": 0, "lon": -77.0630485}, {"type": "electric_scooter", "name": "b3c46b33841c3eedc7a9b4b9da104b93", "rental_uris": {"ios": "https://dc.lft.to/lastmile_qr_scan", "android": "https://dc.lft.to/lastmile_qr_scan"}, "fusion_lon": 0.0, "lat": 38.895361666666666, "is_disabled": 0, "bike_id": "b3c46b33841c3eedc7a9b4b9da104b93", "fusion_lat": 0.0, "is_reserved": 0, "lon": -76.94896833333334}, {"type": "electric_scooter", "name": "7603b4122164e7a95785b6d4d5009ced", "rental_uris": {"ios": "https://dc.lft.to/lastmile_qr_scan", "android": "https://dc.lft.to/lastmile_qr_scan"}, "fusion_lon": 0.0, "lat": 38.9110255, "is_disabled": 0, "bike_id": "7603b4122164e7a95785b6d4d5009ced", "fusion_lat": 0.0, "is_reserved": 0, "lon": -77.02803783333333}, {"type": "electric_bike", "name": "1e4895cd288f673b05c8a37a5bbe6195", "rental_uris": {"ios": "https://dc.lft.to/lastmile_qr_scan", "android": "https://dc.lft.to/lastmile_qr_scan"}, "fusion_lon": 0.0, "lat": 38.944341, "is_disabled": 0, "bike_id": "1e4895cd288f673b05c8a37a5bbe6195", "fusion_lat": 0.0, "is_reserved": 0, "lon": -77.02600566666666}, {"type": "electric_scooter", "name": "80230463e255e1e309e8d8a80b8f4af9", "rental_uris": {"ios": "https://dc.lft.to/lastmile_qr_scan", "android": "https://dc.lft.to/lastmile_qr_scan"}, "fusion_lon": 0.0, "lat": 38.879883666666665, "is_disabled": 0, "bike_id": "80230463e255e1e309e8d8a80b8f4af9", "fusion_lat": 0.0, "is_reserved": 0, "lon": -77.02411516666666}, {"type": "electric_bike", "name": "232e9c88745a9dd1cf9d052f8f6a22b7", "rental_uris": {"ios": "https://dc.lft.to/lastmile_qr_scan", "android": "https://dc.lft.to/lastmile_qr_scan"}, "fusion_lon": 0.0, "lat": 38.85771733333333, "is_disabled": 0, "bike_id": "232e9c88745a9dd1cf9d052f8f6a22b7", "fusion_lat": 0.0, "is_reserved": 0, "lon": -76.98754266666667}, {"type": "electric_scooter", "name": "69e4708eb9e5c9d55b7f0d9f4f703a28", "rental_uris": {"ios": "https://dc.lft.to/lastmile_qr_scan", "android": "https://dc.lft.to/lastmile_qr_scan"}, "fusion_lon": 0.0, "lat": 38.85798466666667, "is_disabled": 0, "bike_id": "69e4708eb9e5c9d55b7f0d9f4f703a28", "fusion_lat": 0.0, "is_reserved": 0, "lon": -76.98911733333334}, {"type": "electric_scooter", "name": "f95b2edc3eba08917f98190211aef2d5", "rental_uris": {"ios": "https://dc.lft.to/lastmile_qr_scan", "android": "https://dc.lft.to/lastmile_qr_scan"}, "fusion_lon": 0.0, "lat": 38.9169995, "is_disabled": 0, "bike_id": "f95b2edc3eba08917f98190211aef2d5", "fusion_lat": 0.0, "is_reserved": 0, "lon": -77.03140533333334}, {"type": "electric_scooter", "name": "c5bd5fb6a35315435f50a79e5f1962ee", "rental_uris": {"ios": "https://dc.lft.to/lastmile_qr_scan", "android": "https://dc.lft.to/lastmile_qr_scan"}, "fusion_lon": 0.0, "lat": 38.9174385, "is_disabled": 0, "bike_id": "c5bd5fb6a35315435f50a79e5f1962ee", "fusion_lat": 0.0, "is_reserved": 0, "lon": -77.03182733333334}, {"type": "electric_scooter", "name": "e815cffe68c20ff43207cb49ac12c7d3", "rental_uris": {"ios": "https://dc.lft.to/lastmile_qr_scan", "android": "https://dc.lft.to/lastmile_qr_scan"}, "fusion_lon": 0.0, "lat": 38.926140333333336, "is_disabled": 0, "bike_id": "e815cffe68c20ff43207cb49ac12c7d3", "fusion_lat": 0.0, "is_reserved": 0, "lon": -77.02210583333333}, {"type": "electric_scooter", "name": "136c3003aaa2b06d2c2398f5b7595000", "rental_uris": {"ios": "https://dc.lft.to/lastmile_qr_scan", "android": "https://dc.lft.to/lastmile_qr_scan"}, "fusion_lon": 0.0, "lat": 38.9122225, "is_disabled": 0, "bike_id": "136c3003aaa2b06d2c2398f5b7595000", "fusion_lat": 0.0, "is_reserved": 0, "lon": -77.04487816666666}, {"type": "electric_scooter", "name": "b2d91181ebfdbb63628b7541fb1a76b5", "rental_uris": {"ios": "https://dc.lft.to/lastmile_qr_scan", "android": "https://dc.lft.to/lastmile_qr_scan"}, "fusion_lon": 0.0, "lat": 38.92120216666667, "is_disabled": 0, "bike_id": "b2d91181ebfdbb63628b7541fb1a76b5", "fusion_lat": 0.0, "is_reserved": 0, "lon": -77.00920233333333}, {"type": "electric_scooter", "name": "210ec23571cffd01ac9badcef8bd5c18", "rental_uris": {"ios": "https://dc.lft.to/lastmile_qr_scan", "android": "https://dc.lft.to/lastmile_qr_scan"}, "fusion_lon": 0.0, "lat": 38.884904, "is_disabled": 0, "bike_id": "210ec23571cffd01ac9badcef8bd5c18", "fusion_lat": 0.0, "is_reserved": 0, "lon": -77.00713616666667}, {"type": "electric_scooter", "name": "6b370fc83d8ad49b803d7a44bc1b795d", "rental_uris": {"ios": "https://dc.lft.to/lastmile_qr_scan", "android": "https://dc.lft.to/lastmile_qr_scan"}, "fusion_lon": 0.0, "lat": 38.8672725, "is_disabled": 0, "bike_id": "6b370fc83d8ad49b803d7a44bc1b795d", "fusion_lat": 0.0, "is_reserved": 0, "lon": -76.98694933333333}, {"type": "electric_scooter", "name": "ae2fd667d65c9500f4799da36e2cbb44", "rental_uris": {"ios": "https://dc.lft.to/lastmile_qr_scan", "android": "https://dc.lft.to/lastmile_qr_scan"}, "fusion_lon": 0.0, "lat": 38.92318383333333, "is_disabled": 0, "bike_id": "ae2fd667d65c9500f4799da36e2cbb44", "fusion_lat": 0.0, "is_reserved": 0, "lon": -77.0402395}, {"type": "electric_scooter", "name": "4abe37210f19a727df612d510743cb4a", "rental_uris": {"ios": "https://dc.lft.to/lastmile_qr_scan", "android": "https://dc.lft.to/lastmile_qr_scan"}, "fusion_lon": 0.0, "lat": 38.9015235, "is_disabled": 0, "bike_id": "4abe37210f19a727df612d510743cb4a", "fusion_lat": 0.0, "is_reserved": 0, "lon": -77.01623233333333}, {"type": "electric_scooter", "name": "8f3b56377023d4bb3d3d4bf772fce6bb", "rental_uris": {"ios": "https://dc.lft.to/lastmile_qr_scan", "android": "https://dc.lft.to/lastmile_qr_scan"}, "fusion_lon": 0.0, "lat": 38.9199945, "is_disabled": 0, "bike_id": "8f3b56377023d4bb3d3d4bf772fce6bb", "fusion_lat": 0.0, "is_reserved": 0, "lon": -77.03218633333333}, {"type": "electric_scooter", "name": "46ab6c65fb6b32d25470e23611da5dd5", "rental_uris": {"ios": "https://dc.lft.to/lastmile_qr_scan", "android": "https://dc.lft.to/lastmile_qr_scan"}, "fusion_lon": 0.0, "lat": 38.86504733333334, "is_disabled": 0, "bike_id": "46ab6c65fb6b32d25470e23611da5dd5", "fusion_lat": 0.0, "is_reserved": 0, "lon": -76.9899955}, {"type": "electric_scooter", "name": "587be6ce4e2f00bb898e10d301d036e8", "rental_uris": {"ios": "https://dc.lft.to/lastmile_qr_scan", "android": "https://dc.lft.to/lastmile_qr_scan"}, "fusion_lon": 0.0, "lat": 38.9360895, "is_disabled": 0, "bike_id": "587be6ce4e2f00bb898e10d301d036e8", "fusion_lat": 0.0, "is_reserved": 0, "lon": -77.0586075}, {"type": "electric_scooter", "name": "bd23517232317b0358fee722da3ae5ab", "rental_uris": {"ios": "https://dc.lft.to/lastmile_qr_scan", "android": "https://dc.lft.to/lastmile_qr_scan"}, "fusion_lon": 0.0, "lat": 38.91557183333333, "is_disabled": 0, "bike_id": "bd23517232317b0358fee722da3ae5ab", "fusion_lat": 0.0, "is_reserved": 0, "lon": -77.023515}, {"type": "electric_scooter", "name": "05ef9f9b72e4c495238d452c09a90918", "rental_uris": {"ios": "https://dc.lft.to/lastmile_qr_scan", "android": "https://dc.lft.to/lastmile_qr_scan"}, "fusion_lon": 0.0, "lat": 38.90169, "is_disabled": 0, "bike_id": "05ef9f9b72e4c495238d452c09a90918", "fusion_lat": 0.0, "is_reserved": 0, "lon": -76.98076266666666}, {"type": "electric_scooter", "name": "d320da560fa3ca7c052713031eff8447", "rental_uris": {"ios": "https://dc.lft.to/lastmile_qr_scan", "android": "https://dc.lft.to/lastmile_qr_scan"}, "fusion_lon": 0.0, "lat": 38.929766, "is_disabled": 0, "bike_id": "d320da560fa3ca7c052713031eff8447", "fusion_lat": 0.0, "is_reserved": 0, "lon": -77.05500116666667}, {"type": "electric_scooter", "name": "bdd572981009eaab892343b04baca22c", "rental_uris": {"ios": "https://dc.lft.to/lastmile_qr_scan", "android": "https://dc.lft.to/lastmile_qr_scan"}, "fusion_lon": 0.0, "lat": 38.90450233333333, "is_disabled": 0, "bike_id": "bdd572981009eaab892343b04baca22c", "fusion_lat": 0.0, "is_reserved": 0, "lon": -77.01894716666666}, {"type": "electric_scooter", "name": "282321bc43754180c046be10ea4a66c5", "rental_uris": {"ios": "https://dc.lft.to/lastmile_qr_scan", "android": "https://dc.lft.to/lastmile_qr_scan"}, "fusion_lon": 0.0, "lat": 38.9024075, "is_disabled": 0, "bike_id": "282321bc43754180c046be10ea4a66c5", "fusion_lat": 0.0, "is_reserved": 0, "lon": -77.0352755}, {"type": "electric_scooter", "name": "b125472af7ddeca464d9ee5091174040", "rental_uris": {"ios": "https://dc.lft.to/lastmile_qr_scan", "android": "https://dc.lft.to/lastmile_qr_scan"}, "fusion_lon": 0.0, "lat": 38.973737666666665, "is_disabled": 0, "bike_id": "b125472af7ddeca464d9ee5091174040", "fusion_lat": 0.0, "is_reserved": 0, "lon": -77.0185245}, {"type": "electric_scooter", "name": "63a3c9e8879e8052f43cd1ea738739a0", "rental_uris": {"ios": "https://dc.lft.to/lastmile_qr_scan", "android": "https://dc.lft.to/lastmile_qr_scan"}, "fusion_lon": 0.0, "lat": 38.901614333333335, "is_disabled": 0, "bike_id": "63a3c9e8879e8052f43cd1ea738739a0", "fusion_lat": 0.0, "is_reserved": 0, "lon": -77.013138}, {"type": "electric_scooter", "name": "73389cbbba25394d3dd9ebccf2d39bca", "rental_uris": {"ios": "https://dc.lft.to/lastmile_qr_scan", "android": "https://dc.lft.to/lastmile_qr_scan"}, "fusion_lon": 0.0, "lat": 38.912332166666666, "is_disabled": 0, "bike_id": "73389cbbba25394d3dd9ebccf2d39bca", "fusion_lat": 0.0, "is_reserved": 0, "lon": -76.98787466666667}, {"type": "electric_scooter", "name": "a0f67ad419a7d1e69edefec9e50a481e", "rental_uris": {"ios": "https://dc.lft.to/lastmile_qr_scan", "android": "https://dc.lft.to/lastmile_qr_scan"}, "fusion_lon": 0.0, "lat": 38.8922235, "is_disabled": 0, "bike_id": "a0f67ad419a7d1e69edefec9e50a481e", "fusion_lat": 0.0, "is_reserved": 0, "lon": -77.03337466666666}, {"type": "electric_scooter", "name": "bd2c6f90c4bf220836b4d9645f87e564", "rental_uris": {"ios": "https://dc.lft.to/lastmile_qr_scan", "android": "https://dc.lft.to/lastmile_qr_scan"}, "fusion_lon": 0.0, "lat": 38.892212, "is_disabled": 0, "bike_id": "bd2c6f90c4bf220836b4d9645f87e564", "fusion_lat": 0.0, "is_reserved": 0, "lon": -77.04367616666667}, {"type": "electric_scooter", "name": "e9ba549caac494ea4300ad5250e5b867", "rental_uris": {"ios": "https://dc.lft.to/lastmile_qr_scan", "android": "https://dc.lft.to/lastmile_qr_scan"}, "fusion_lon": 0.0, "lat": 38.92300616666667, "is_disabled": 0, "bike_id": "e9ba549caac494ea4300ad5250e5b867", "fusion_lat": 0.0, "is_reserved": 0, "lon": -77.041655}, {"type": "electric_scooter", "name": "059d7b45fef9f8c0faa6c63a243dbb3e", "rental_uris": {"ios": "https://dc.lft.to/lastmile_qr_scan", "android": "https://dc.lft.to/lastmile_qr_scan"}, "fusion_lon": 0.0, "lat": 38.8979525, "is_disabled": 0, "bike_id": "059d7b45fef9f8c0faa6c63a243dbb3e", "fusion_lat": 0.0, "is_reserved": 0, "lon": -76.93113416666667}, {"type": "electric_scooter", "name": "d607b90f5730785062c4f84f232542d9", "rental_uris": {"ios": "https://dc.lft.to/lastmile_qr_scan", "android": "https://dc.lft.to/lastmile_qr_scan"}, "fusion_lon": 0.0, "lat": 38.91612333333333, "is_disabled": 0, "bike_id": "d607b90f5730785062c4f84f232542d9", "fusion_lat": 0.0, "is_reserved": 0, "lon": -77.03146416666667}, {"type": "electric_bike", "name": "c1ff45cec8312283e35ce1b9ea043f39", "rental_uris": {"ios": "https://dc.lft.to/lastmile_qr_scan", "android": "https://dc.lft.to/lastmile_qr_scan"}, "fusion_lon": 0.0, "lat": 38.87580483333333, "is_disabled": 0, "bike_id": "c1ff45cec8312283e35ce1b9ea043f39", "fusion_lat": 0.0, "is_reserved": 0, "lon": -77.23409633333333}, {"type": "electric_scooter", "name": "c5fd7fa46d6fe65545a2d28bb017e5ce", "rental_uris": {"ios": "https://dc.lft.to/lastmile_qr_scan", "android": "https://dc.lft.to/lastmile_qr_scan"}, "fusion_lon": 0.0, "lat": 38.90246166666667, "is_disabled": 0, "bike_id": "c5fd7fa46d6fe65545a2d28bb017e5ce", "fusion_lat": 0.0, "is_reserved": 0, "lon": -77.0174935}, {"type": "electric_scooter", "name": "f066e14be82f99860586f0cd5c3c1083", "rental_uris": {"ios": "https://dc.lft.to/lastmile_qr_scan", "android": "https://dc.lft.to/lastmile_qr_scan"}, "fusion_lon": 0.0, "lat": 38.9073955, "is_disabled": 0, "bike_id": "f066e14be82f99860586f0cd5c3c1083", "fusion_lat": 0.0, "is_reserved": 0, "lon": -77.02371633333334}, {"type": "electric_scooter", "name": "bf10d1f4e555a1bf25926c548d120064", "rental_uris": {"ios": "https://dc.lft.to/lastmile_qr_scan", "android": "https://dc.lft.to/lastmile_qr_scan"}, "fusion_lon": 0.0, "lat": 38.91405866666667, "is_disabled": 0, "bike_id": "bf10d1f4e555a1bf25926c548d120064", "fusion_lat": 0.0, "is_reserved": 0, "lon": -77.0333745}, {"type": "electric_scooter", "name": "abceb63675db5881e27841a756242bed", "rental_uris": {"ios": "https://dc.lft.to/lastmile_qr_scan", "android": "https://dc.lft.to/lastmile_qr_scan"}, "fusion_lon": 0.0, "lat": 38.8927995, "is_disabled": 0, "bike_id": "abceb63675db5881e27841a756242bed", "fusion_lat": 0.0, "is_reserved": 0, "lon": -77.05041816666666}, {"type": "electric_scooter", "name": "699542dcfe8879e0c53a22438f89f070", "rental_uris": {"ios": "https://dc.lft.to/lastmile_qr_scan", "android": "https://dc.lft.to/lastmile_qr_scan"}, "fusion_lon": 0.0, "lat": 38.91741066666667, "is_disabled": 0, "bike_id": "699542dcfe8879e0c53a22438f89f070", "fusion_lat": 0.0, "is_reserved": 0, "lon": -77.02821366666667}, {"type": "electric_scooter", "name": "3aa3012474e8509efe16b74d1db8d751", "rental_uris": {"ios": "https://dc.lft.to/lastmile_qr_scan", "android": "https://dc.lft.to/lastmile_qr_scan"}, "fusion_lon": 0.0, "lat": 38.885290166666664, "is_disabled": 0, "bike_id": "3aa3012474e8509efe16b74d1db8d751", "fusion_lat": 0.0, "is_reserved": 0, "lon": -76.9292295}, {"type": "electric_scooter", "name": "138679bff21b7d37bf9c548651cf7a06", "rental_uris": {"ios": "https://dc.lft.to/lastmile_qr_scan", "android": "https://dc.lft.to/lastmile_qr_scan"}, "fusion_lon": 0.0, "lat": 38.895983333333334, "is_disabled": 0, "bike_id": "138679bff21b7d37bf9c548651cf7a06", "fusion_lat": 0.0, "is_reserved": 0, "lon": -77.02596833333334}, {"type": "electric_scooter", "name": "2cd0060647eace606cfcea5c007f2b26", "rental_uris": {"ios": "https://dc.lft.to/lastmile_qr_scan", "android": "https://dc.lft.to/lastmile_qr_scan"}, "fusion_lon": 0.0, "lat": 38.9299625, "is_disabled": 0, "bike_id": "2cd0060647eace606cfcea5c007f2b26", "fusion_lat": 0.0, "is_reserved": 0, "lon": -77.03794183333333}, {"type": "electric_scooter", "name": "75996133bbce84099f54ffb74a64d0cb", "rental_uris": {"ios": "https://dc.lft.to/lastmile_qr_scan", "android": "https://dc.lft.to/lastmile_qr_scan"}, "fusion_lon": 0.0, "lat": 38.9060365, "is_disabled": 0, "bike_id": "75996133bbce84099f54ffb74a64d0cb", "fusion_lat": 0.0, "is_reserved": 0, "lon": -77.0259445}, {"type": "electric_scooter", "name": "e144a50cf0435ac9ffbaddd5436eaea3", "rental_uris": {"ios": "https://dc.lft.to/lastmile_qr_scan", "android": "https://dc.lft.to/lastmile_qr_scan"}, "fusion_lon": 0.0, "lat": 38.9420135, "is_disabled": 0, "bike_id": "e144a50cf0435ac9ffbaddd5436eaea3", "fusion_lat": 0.0, "is_reserved": 0, "lon": -77.02592666666666}, {"type": "electric_scooter", "name": "9c9ea765442921f78a5c23ad352de16b", "rental_uris": {"ios": "https://dc.lft.to/lastmile_qr_scan", "android": "https://dc.lft.to/lastmile_qr_scan"}, "fusion_lon": 0.0, "lat": 38.960369166666666, "is_disabled": 0, "bike_id": "9c9ea765442921f78a5c23ad352de16b", "fusion_lat": 0.0, "is_reserved": 0, "lon": -77.0718805}, {"type": "electric_scooter", "name": "964ef1b9da76a3c16c8fe51428d74a16", "rental_uris": {"ios": "https://dc.lft.to/lastmile_qr_scan", "android": "https://dc.lft.to/lastmile_qr_scan"}, "fusion_lon": 0.0, "lat": 38.89216016666666, "is_disabled": 0, "bike_id": "964ef1b9da76a3c16c8fe51428d74a16", "fusion_lat": 0.0, "is_reserved": 0, "lon": -76.99573016666666}, {"type": "electric_bike", "name": "812eff4a69c0de48cfb901e8a8a72af5", "rental_uris": {"ios": "https://dc.lft.to/lastmile_qr_scan", "android": "https://dc.lft.to/lastmile_qr_scan"}, "fusion_lon": 0.0, "lat": 38.9568975, "is_disabled": 0, "bike_id": "812eff4a69c0de48cfb901e8a8a72af5", "fusion_lat": 0.0, "is_reserved": 0, "lon": -77.02233433333333}, {"type": "electric_scooter", "name": "1af04493045a39f2be8b0d1b36146e32", "rental_uris": {"ios": "https://dc.lft.to/lastmile_qr_scan", "android": "https://dc.lft.to/lastmile_qr_scan"}, "fusion_lon": 0.0, "lat": 38.92302566666667, "is_disabled": 0, "bike_id": "1af04493045a39f2be8b0d1b36146e32", "fusion_lat": 0.0, "is_reserved": 0, "lon": -77.041759}, {"type": "electric_bike", "name": "60946798ea57528ac87e3b60ba8207a5", "rental_uris": {"ios": "https://dc.lft.to/lastmile_qr_scan", "android": "https://dc.lft.to/lastmile_qr_scan"}, "fusion_lon": 0.0, "lat": 38.922217833333335, "is_disabled": 0, "bike_id": "60946798ea57528ac87e3b60ba8207a5", "fusion_lat": 0.0, "is_reserved": 0, "lon": -77.20141383333333}, {"type": "electric_scooter", "name": "63688cba60dd153001ae46cbf2fbfab8", "rental_uris": {"ios": "https://dc.lft.to/lastmile_qr_scan", "android": "https://dc.lft.to/lastmile_qr_scan"}, "fusion_lon": 0.0, "lat": 38.91552166666666, "is_disabled": 0, "bike_id": "63688cba60dd153001ae46cbf2fbfab8", "fusion_lat": 0.0, "is_reserved": 0, "lon": -77.03852033333334}, {"type": "electric_scooter", "name": "99ca7b153674d2c30325e4582817303d", "rental_uris": {"ios": "https://dc.lft.to/lastmile_qr_scan", "android": "https://dc.lft.to/lastmile_qr_scan"}, "fusion_lon": 0.0, "lat": 38.90017116666667, "is_disabled": 0, "bike_id": "99ca7b153674d2c30325e4582817303d", "fusion_lat": 0.0, "is_reserved": 0, "lon": -76.98703366666666}, {"type": "electric_scooter", "name": "eb52295f7d05e095fd9f955340609426", "rental_uris": {"ios": "https://dc.lft.to/lastmile_qr_scan", "android": "https://dc.lft.to/lastmile_qr_scan"}, "fusion_lon": 0.0, "lat": 38.884257833333336, "is_disabled": 0, "bike_id": "eb52295f7d05e095fd9f955340609426", "fusion_lat": 0.0, "is_reserved": 0, "lon": -77.0248615}, {"type": "electric_scooter", "name": "f3ed7a034c0b969d2e1bcad11fa6ba22", "rental_uris": {"ios": "https://dc.lft.to/lastmile_qr_scan", "android": "https://dc.lft.to/lastmile_qr_scan"}, "fusion_lon": 0.0, "lat": 38.921051166666665, "is_disabled": 0, "bike_id": "f3ed7a034c0b969d2e1bcad11fa6ba22", "fusion_lat": 0.0, "is_reserved": 0, "lon": -77.04361333333334}, {"type": "electric_scooter", "name": "cc5b0c7a22a52e0da471272393b88503", "rental_uris": {"ios": "https://dc.lft.to/lastmile_qr_scan", "android": "https://dc.lft.to/lastmile_qr_scan"}, "fusion_lon": 0.0, "lat": 38.9282465, "is_disabled": 0, "bike_id": "cc5b0c7a22a52e0da471272393b88503", "fusion_lat": 0.0, "is_reserved": 0, "lon": -77.01407883333333}, {"type": "electric_scooter", "name": "fe4aa0debefc1e91bb6771ae98c08683", "rental_uris": {"ios": "https://dc.lft.to/lastmile_qr_scan", "android": "https://dc.lft.to/lastmile_qr_scan"}, "fusion_lon": 0.0, "lat": 38.9282895, "is_disabled": 0, "bike_id": "fe4aa0debefc1e91bb6771ae98c08683", "fusion_lat": 0.0, "is_reserved": 0, "lon": -77.05441183333333}, {"type": "electric_scooter", "name": "b2a2ee20dc2f61d684049fae4416f81a", "rental_uris": {"ios": "https://dc.lft.to/lastmile_qr_scan", "android": "https://dc.lft.to/lastmile_qr_scan"}, "fusion_lon": 0.0, "lat": 38.9247415, "is_disabled": 0, "bike_id": "b2a2ee20dc2f61d684049fae4416f81a", "fusion_lat": 0.0, "is_reserved": 0, "lon": -77.022184}, {"type": "electric_scooter", "name": "b3462e9164b7fb1571200cd00dfe96dd", "rental_uris": {"ios": "https://dc.lft.to/lastmile_qr_scan", "android": "https://dc.lft.to/lastmile_qr_scan"}, "fusion_lon": 0.0, "lat": 38.90777883333333, "is_disabled": 0, "bike_id": "b3462e9164b7fb1571200cd00dfe96dd", "fusion_lat": 0.0, "is_reserved": 0, "lon": -77.03542966666667}, {"type": "electric_scooter", "name": "99d8ce48d2d702a76ca3b96e345c6200", "rental_uris": {"ios": "https://dc.lft.to/lastmile_qr_scan", "android": "https://dc.lft.to/lastmile_qr_scan"}, "fusion_lon": 0.0, "lat": 38.89503283333333, "is_disabled": 0, "bike_id": "99d8ce48d2d702a76ca3b96e345c6200", "fusion_lat": 0.0, "is_reserved": 0, "lon": -76.93472866666667}, {"type": "electric_scooter", "name": "c575715cc5e125599925a394db91ea58", "rental_uris": {"ios": "https://dc.lft.to/lastmile_qr_scan", "android": "https://dc.lft.to/lastmile_qr_scan"}, "fusion_lon": 0.0, "lat": 38.8873525, "is_disabled": 0, "bike_id": "c575715cc5e125599925a394db91ea58", "fusion_lat": 0.0, "is_reserved": 0, "lon": -77.02578233333334}, {"type": "electric_scooter", "name": "5bc92680e100d2d3c105b0fb15ec80aa", "rental_uris": {"ios": "https://dc.lft.to/lastmile_qr_scan", "android": "https://dc.lft.to/lastmile_qr_scan"}, "fusion_lon": 0.0, "lat": 38.89869266666667, "is_disabled": 0, "bike_id": "5bc92680e100d2d3c105b0fb15ec80aa", "fusion_lat": 0.0, "is_reserved": 0, "lon": -76.946445}, {"type": "electric_scooter", "name": "a57573bc838030e427f8d386ff50399d", "rental_uris": {"ios": "https://dc.lft.to/lastmile_qr_scan", "android": "https://dc.lft.to/lastmile_qr_scan"}, "fusion_lon": 0.0, "lat": 38.923028, "is_disabled": 0, "bike_id": "a57573bc838030e427f8d386ff50399d", "fusion_lat": 0.0, "is_reserved": 0, "lon": -77.042743}, {"type": "electric_scooter", "name": "0ba67e639ff256006cb4089ba0f8d471", "rental_uris": {"ios": "https://dc.lft.to/lastmile_qr_scan", "android": "https://dc.lft.to/lastmile_qr_scan"}, "fusion_lon": 0.0, "lat": 38.9328435, "is_disabled": 0, "bike_id": "0ba67e639ff256006cb4089ba0f8d471", "fusion_lat": 0.0, "is_reserved": 0, "lon": -77.04079533333334}, {"type": "electric_scooter", "name": "74593546fc9a97b42e6d00c2f4baa674", "rental_uris": {"ios": "https://dc.lft.to/lastmile_qr_scan", "android": "https://dc.lft.to/lastmile_qr_scan"}, "fusion_lon": 0.0, "lat": 38.9352635, "is_disabled": 0, "bike_id": "74593546fc9a97b42e6d00c2f4baa674", "fusion_lat": 0.0, "is_reserved": 0, "lon": -77.07654433333333}, {"type": "electric_scooter", "name": "8880a28d08c63302eb0dfe3e480a2a01", "rental_uris": {"ios": "https://dc.lft.to/lastmile_qr_scan", "android": "https://dc.lft.to/lastmile_qr_scan"}, "fusion_lon": 0.0, "lat": 38.898308666666665, "is_disabled": 0, "bike_id": "8880a28d08c63302eb0dfe3e480a2a01", "fusion_lat": 0.0, "is_reserved": 0, "lon": -76.93181283333334}, {"type": "electric_scooter", "name": "365c300448f58edab9700d839776ba77", "rental_uris": {"ios": "https://dc.lft.to/lastmile_qr_scan", "android": "https://dc.lft.to/lastmile_qr_scan"}, "fusion_lon": 0.0, "lat": 38.90982866666667, "is_disabled": 0, "bike_id": "365c300448f58edab9700d839776ba77", "fusion_lat": 0.0, "is_reserved": 0, "lon": -77.03438533333333}, {"type": "electric_scooter", "name": "ce39efd82ddb2101c3578dd028edb818", "rental_uris": {"ios": "https://dc.lft.to/lastmile_qr_scan", "android": "https://dc.lft.to/lastmile_qr_scan"}, "fusion_lon": 0.0, "lat": 38.923782333333335, "is_disabled": 0, "bike_id": "ce39efd82ddb2101c3578dd028edb818", "fusion_lat": 0.0, "is_reserved": 0, "lon": -77.01955}, {"type": "electric_scooter", "name": "1f84ec02bbfb1278fcde5a3f63940716", "rental_uris": {"ios": "https://dc.lft.to/lastmile_qr_scan", "android": "https://dc.lft.to/lastmile_qr_scan"}, "fusion_lon": 0.0, "lat": 38.8967275, "is_disabled": 0, "bike_id": "1f84ec02bbfb1278fcde5a3f63940716", "fusion_lat": 0.0, "is_reserved": 0, "lon": -76.98835816666667}, {"type": "electric_scooter", "name": "7f504ce96c1add58caea86038052ce96", "rental_uris": {"ios": "https://dc.lft.to/lastmile_qr_scan", "android": "https://dc.lft.to/lastmile_qr_scan"}, "fusion_lon": 0.0, "lat": 38.913067, "is_disabled": 0, "bike_id": "7f504ce96c1add58caea86038052ce96", "fusion_lat": 0.0, "is_reserved": 0, "lon": -77.045424}, {"type": "electric_scooter", "name": "cd2711fea30ca23b2a0c92a4164d87b6", "rental_uris": {"ios": "https://dc.lft.to/lastmile_qr_scan", "android": "https://dc.lft.to/lastmile_qr_scan"}, "fusion_lon": 0.0, "lat": 38.942027833333334, "is_disabled": 0, "bike_id": "cd2711fea30ca23b2a0c92a4164d87b6", "fusion_lat": 0.0, "is_reserved": 0, "lon": -77.02590366666666}, {"type": "electric_scooter", "name": "b5f9bc135bf2d4228f2e13f93ff7aa69", "rental_uris": {"ios": "https://dc.lft.to/lastmile_qr_scan", "android": "https://dc.lft.to/lastmile_qr_scan"}, "fusion_lon": 0.0, "lat": 38.937012, "is_disabled": 0, "bike_id": "b5f9bc135bf2d4228f2e13f93ff7aa69", "fusion_lat": 0.0, "is_reserved": 0, "lon": -77.05601566666667}, {"type": "electric_scooter", "name": "e04c9a1b9f0c879905f371a9bfe6d18d", "rental_uris": {"ios": "https://dc.lft.to/lastmile_qr_scan", "android": "https://dc.lft.to/lastmile_qr_scan"}, "fusion_lon": 0.0, "lat": 38.84054783333333, "is_disabled": 0, "bike_id": "e04c9a1b9f0c879905f371a9bfe6d18d", "fusion_lat": 0.0, "is_reserved": 0, "lon": -76.97666883333333}, {"type": "electric_scooter", "name": "04907e8779cc7793ba85c7578bd4cf5d", "rental_uris": {"ios": "https://dc.lft.to/lastmile_qr_scan", "android": "https://dc.lft.to/lastmile_qr_scan"}, "fusion_lon": 0.0, "lat": 38.914073, "is_disabled": 0, "bike_id": "04907e8779cc7793ba85c7578bd4cf5d", "fusion_lat": 0.0, "is_reserved": 0, "lon": -77.026592}, {"type": "electric_scooter", "name": "30be6b86cfd556cd693cfa3cf0878e9d", "rental_uris": {"ios": "https://dc.lft.to/lastmile_qr_scan", "android": "https://dc.lft.to/lastmile_qr_scan"}, "fusion_lon": 0.0, "lat": 38.89886283333333, "is_disabled": 0, "bike_id": "30be6b86cfd556cd693cfa3cf0878e9d", "fusion_lat": 0.0, "is_reserved": 0, "lon": -77.00360033333334}, {"type": "electric_scooter", "name": "4709fe8f8f470050314f8a07327e36e2", "rental_uris": {"ios": "https://dc.lft.to/lastmile_qr_scan", "android": "https://dc.lft.to/lastmile_qr_scan"}, "fusion_lon": 0.0, "lat": 38.89761083333333, "is_disabled": 0, "bike_id": "4709fe8f8f470050314f8a07327e36e2", "fusion_lat": 0.0, "is_reserved": 0, "lon": -76.9855915}, {"type": "electric_scooter", "name": "7a541e44bfa7e8b55f37d4ecd2237053", "rental_uris": {"ios": "https://dc.lft.to/lastmile_qr_scan", "android": "https://dc.lft.to/lastmile_qr_scan"}, "fusion_lon": 0.0, "lat": 38.887419333333334, "is_disabled": 0, "bike_id": "7a541e44bfa7e8b55f37d4ecd2237053", "fusion_lat": 0.0, "is_reserved": 0, "lon": -77.01729966666667}, {"type": "electric_scooter", "name": "4930311c93488cb9df1f8d4537a782ec", "rental_uris": {"ios": "https://dc.lft.to/lastmile_qr_scan", "android": "https://dc.lft.to/lastmile_qr_scan"}, "fusion_lon": 0.0, "lat": 38.9211145, "is_disabled": 0, "bike_id": "4930311c93488cb9df1f8d4537a782ec", "fusion_lat": 0.0, "is_reserved": 0, "lon": -77.0439475}, {"type": "electric_scooter", "name": "ae631aff0a46676aa6f6616031d473c6", "rental_uris": {"ios": "https://dc.lft.to/lastmile_qr_scan", "android": "https://dc.lft.to/lastmile_qr_scan"}, "fusion_lon": 0.0, "lat": 38.884677, "is_disabled": 0, "bike_id": "ae631aff0a46676aa6f6616031d473c6", "fusion_lat": 0.0, "is_reserved": 0, "lon": -76.94983233333333}, {"type": "electric_scooter", "name": "0727294967aefe613d3035e283fae05d", "rental_uris": {"ios": "https://dc.lft.to/lastmile_qr_scan", "android": "https://dc.lft.to/lastmile_qr_scan"}, "fusion_lon": 0.0, "lat": 38.896624333333335, "is_disabled": 0, "bike_id": "0727294967aefe613d3035e283fae05d", "fusion_lat": 0.0, "is_reserved": 0, "lon": -77.04648883333333}, {"type": "electric_scooter", "name": "4931fb06de852219d1d880eb65676579", "rental_uris": {"ios": "https://dc.lft.to/lastmile_qr_scan", "android": "https://dc.lft.to/lastmile_qr_scan"}, "fusion_lon": 0.0, "lat": 38.883267833333335, "is_disabled": 0, "bike_id": "4931fb06de852219d1d880eb65676579", "fusion_lat": 0.0, "is_reserved": 0, "lon": -77.01766616666667}, {"type": "electric_scooter", "name": "052b4687dcefe48d008135d9999f0c27", "rental_uris": {"ios": "https://dc.lft.to/lastmile_qr_scan", "android": "https://dc.lft.to/lastmile_qr_scan"}, "fusion_lon": 0.0, "lat": 38.936769166666664, "is_disabled": 0, "bike_id": "052b4687dcefe48d008135d9999f0c27", "fusion_lat": 0.0, "is_reserved": 0, "lon": -77.035952}, {"type": "electric_scooter", "name": "a9fcfb99d8e9e1c97aa641acb5f1c01a", "rental_uris": {"ios": "https://dc.lft.to/lastmile_qr_scan", "android": "https://dc.lft.to/lastmile_qr_scan"}, "fusion_lon": 0.0, "lat": 38.92776683333334, "is_disabled": 0, "bike_id": "a9fcfb99d8e9e1c97aa641acb5f1c01a", "fusion_lat": 0.0, "is_reserved": 0, "lon": -77.02300533333333}, {"type": "electric_scooter", "name": "667e418b6607a705e1dcbb7d9efe7aa9", "rental_uris": {"ios": "https://dc.lft.to/lastmile_qr_scan", "android": "https://dc.lft.to/lastmile_qr_scan"}, "fusion_lon": 0.0, "lat": 38.9233755, "is_disabled": 0, "bike_id": "667e418b6607a705e1dcbb7d9efe7aa9", "fusion_lat": 0.0, "is_reserved": 0, "lon": -77.00045416666667}, {"type": "electric_scooter", "name": "95134d895ec46ffd4dbeff3b1d629bb6", "rental_uris": {"ios": "https://dc.lft.to/lastmile_qr_scan", "android": "https://dc.lft.to/lastmile_qr_scan"}, "fusion_lon": 0.0, "lat": 38.90246583333333, "is_disabled": 0, "bike_id": "95134d895ec46ffd4dbeff3b1d629bb6", "fusion_lat": 0.0, "is_reserved": 0, "lon": -77.04592}, {"type": "electric_scooter", "name": "445326ac95ad3835638abf9dd8e091e4", "rental_uris": {"ios": "https://dc.lft.to/lastmile_qr_scan", "android": "https://dc.lft.to/lastmile_qr_scan"}, "fusion_lon": 0.0, "lat": 38.92040466666667, "is_disabled": 0, "bike_id": "445326ac95ad3835638abf9dd8e091e4", "fusion_lat": 0.0, "is_reserved": 0, "lon": -77.016765}, {"type": "electric_scooter", "name": "97b8367f1fa56c5079c6cbe39ecc908b", "rental_uris": {"ios": "https://dc.lft.to/lastmile_qr_scan", "android": "https://dc.lft.to/lastmile_qr_scan"}, "fusion_lon": 0.0, "lat": 38.91640816666666, "is_disabled": 0, "bike_id": "97b8367f1fa56c5079c6cbe39ecc908b", "fusion_lat": 0.0, "is_reserved": 0, "lon": -77.04772316666667}, {"type": "electric_bike", "name": "a6bc1b470bd42801b25881cfc0f924db", "rental_uris": {"ios": "https://dc.lft.to/lastmile_qr_scan", "android": "https://dc.lft.to/lastmile_qr_scan"}, "fusion_lon": 0.0, "lat": 38.9612825, "is_disabled": 0, "bike_id": "a6bc1b470bd42801b25881cfc0f924db", "fusion_lat": 0.0, "is_reserved": 0, "lon": -77.03276533333333}, {"type": "electric_scooter", "name": "ef8b7bf041f5ade86a81f2ef94154332", "rental_uris": {"ios": "https://dc.lft.to/lastmile_qr_scan", "android": "https://dc.lft.to/lastmile_qr_scan"}, "fusion_lon": 0.0, "lat": 38.91267583333333, "is_disabled": 0, "bike_id": "ef8b7bf041f5ade86a81f2ef94154332", "fusion_lat": 0.0, "is_reserved": 0, "lon": -77.01438283333333}, {"type": "electric_scooter", "name": "d47f9050ebfedc12ad4b97c5cc0bf4f8", "rental_uris": {"ios": "https://dc.lft.to/lastmile_qr_scan", "android": "https://dc.lft.to/lastmile_qr_scan"}, "fusion_lon": 0.0, "lat": 38.93682366666667, "is_disabled": 0, "bike_id": "d47f9050ebfedc12ad4b97c5cc0bf4f8", "fusion_lat": 0.0, "is_reserved": 0, "lon": -77.08444716666666}, {"type": "electric_scooter", "name": "2a23b765fb8425a672b1b686ae1328e3", "rental_uris": {"ios": "https://dc.lft.to/lastmile_qr_scan", "android": "https://dc.lft.to/lastmile_qr_scan"}, "fusion_lon": 0.0, "lat": 38.886380333333335, "is_disabled": 0, "bike_id": "2a23b765fb8425a672b1b686ae1328e3", "fusion_lat": 0.0, "is_reserved": 0, "lon": -77.01546016666667}, {"type": "electric_scooter", "name": "17a3999dcef3aa0fa426153d715b3a76", "rental_uris": {"ios": "https://dc.lft.to/lastmile_qr_scan", "android": "https://dc.lft.to/lastmile_qr_scan"}, "fusion_lon": 0.0, "lat": 38.87646316666667, "is_disabled": 0, "bike_id": "17a3999dcef3aa0fa426153d715b3a76", "fusion_lat": 0.0, "is_reserved": 0, "lon": -77.00506483333334}, {"type": "electric_scooter", "name": "bd6df76c68c476c775942722f30c9d25", "rental_uris": {"ios": "https://dc.lft.to/lastmile_qr_scan", "android": "https://dc.lft.to/lastmile_qr_scan"}, "fusion_lon": 0.0, "lat": 38.900439666666664, "is_disabled": 0, "bike_id": "bd6df76c68c476c775942722f30c9d25", "fusion_lat": 0.0, "is_reserved": 0, "lon": -76.98842733333333}, {"type": "electric_scooter", "name": "0d15a1dacb41c4499e844dce0b00d7ef", "rental_uris": {"ios": "https://dc.lft.to/lastmile_qr_scan", "android": "https://dc.lft.to/lastmile_qr_scan"}, "fusion_lon": 0.0, "lat": 38.926059333333335, "is_disabled": 0, "bike_id": "0d15a1dacb41c4499e844dce0b00d7ef", "fusion_lat": 0.0, "is_reserved": 0, "lon": -77.0570965}, {"type": "electric_scooter", "name": "668bd80015115832269f2d274dd466b9", "rental_uris": {"ios": "https://dc.lft.to/lastmile_qr_scan", "android": "https://dc.lft.to/lastmile_qr_scan"}, "fusion_lon": 0.0, "lat": 38.9155295, "is_disabled": 0, "bike_id": "668bd80015115832269f2d274dd466b9", "fusion_lat": 0.0, "is_reserved": 0, "lon": -77.03773866666667}, {"type": "electric_scooter", "name": "144e136a93105a502e64bd287d214beb", "rental_uris": {"ios": "https://dc.lft.to/lastmile_qr_scan", "android": "https://dc.lft.to/lastmile_qr_scan"}, "fusion_lon": 0.0, "lat": 38.923640166666665, "is_disabled": 0, "bike_id": "144e136a93105a502e64bd287d214beb", "fusion_lat": 0.0, "is_reserved": 0, "lon": -77.05033516666667}, {"type": "electric_scooter", "name": "6fbe4bae1d569cc8cd4f475c3eb26558", "rental_uris": {"ios": "https://dc.lft.to/lastmile_qr_scan", "android": "https://dc.lft.to/lastmile_qr_scan"}, "fusion_lon": 0.0, "lat": 38.91258783333333, "is_disabled": 0, "bike_id": "6fbe4bae1d569cc8cd4f475c3eb26558", "fusion_lat": 0.0, "is_reserved": 0, "lon": -76.983566}, {"type": "electric_scooter", "name": "0e22e17988a0b605e1473cbff0270c6b", "rental_uris": {"ios": "https://dc.lft.to/lastmile_qr_scan", "android": "https://dc.lft.to/lastmile_qr_scan"}, "fusion_lon": 0.0, "lat": 38.896326333333334, "is_disabled": 0, "bike_id": "0e22e17988a0b605e1473cbff0270c6b", "fusion_lat": 0.0, "is_reserved": 0, "lon": -77.025815}, {"type": "electric_scooter", "name": "70d2c55a93921badac9a2fa4b552f206", "rental_uris": {"ios": "https://dc.lft.to/lastmile_qr_scan", "android": "https://dc.lft.to/lastmile_qr_scan"}, "fusion_lon": 0.0, "lat": 38.905712, "is_disabled": 0, "bike_id": "70d2c55a93921badac9a2fa4b552f206", "fusion_lat": 0.0, "is_reserved": 0, "lon": -77.040816}, {"type": "electric_scooter", "name": "100bb559140e2fd243f2534b9ccc1a88", "rental_uris": {"ios": "https://dc.lft.to/lastmile_qr_scan", "android": "https://dc.lft.to/lastmile_qr_scan"}, "fusion_lon": 0.0, "lat": 38.905021166666664, "is_disabled": 0, "bike_id": "100bb559140e2fd243f2534b9ccc1a88", "fusion_lat": 0.0, "is_reserved": 0, "lon": -77.06122216666667}, {"type": "electric_scooter", "name": "e6a1819ec16c83024e4501c5c3e3acb2", "rental_uris": {"ios": "https://dc.lft.to/lastmile_qr_scan", "android": "https://dc.lft.to/lastmile_qr_scan"}, "fusion_lon": 0.0, "lat": 38.923986, "is_disabled": 0, "bike_id": "e6a1819ec16c83024e4501c5c3e3acb2", "fusion_lat": 0.0, "is_reserved": 0, "lon": -77.0248865}, {"type": "electric_scooter", "name": "24395bec46c8f965bbda049f8057965c", "rental_uris": {"ios": "https://dc.lft.to/lastmile_qr_scan", "android": "https://dc.lft.to/lastmile_qr_scan"}, "fusion_lon": 0.0, "lat": 38.87689916666667, "is_disabled": 0, "bike_id": "24395bec46c8f965bbda049f8057965c", "fusion_lat": 0.0, "is_reserved": 0, "lon": -77.0044185}, {"type": "electric_scooter", "name": "dea3ba737758e1fa062818bbc5893b01", "rental_uris": {"ios": "https://dc.lft.to/lastmile_qr_scan", "android": "https://dc.lft.to/lastmile_qr_scan"}, "fusion_lon": 0.0, "lat": 38.92270833333333, "is_disabled": 0, "bike_id": "dea3ba737758e1fa062818bbc5893b01", "fusion_lat": 0.0, "is_reserved": 0, "lon": -77.03255633333333}, {"type": "electric_bike", "name": "b5ea8408dfdddd6fb87e5cc969e7f555", "rental_uris": {"ios": "https://dc.lft.to/lastmile_qr_scan", "android": "https://dc.lft.to/lastmile_qr_scan"}, "fusion_lon": 0.0, "lat": 38.93636683333333, "is_disabled": 0, "bike_id": "b5ea8408dfdddd6fb87e5cc969e7f555", "fusion_lat": 0.0, "is_reserved": 0, "lon": -77.0364985}, {"type": "electric_scooter", "name": "3eed5df4f162d3422a9afe99e7623480", "rental_uris": {"ios": "https://dc.lft.to/lastmile_qr_scan", "android": "https://dc.lft.to/lastmile_qr_scan"}, "fusion_lon": 0.0, "lat": 38.901396166666665, "is_disabled": 0, "bike_id": "3eed5df4f162d3422a9afe99e7623480", "fusion_lat": 0.0, "is_reserved": 0, "lon": -77.03245633333333}, {"type": "electric_scooter", "name": "4ef36c688f85814fa113b80409b23f50", "rental_uris": {"ios": "https://dc.lft.to/lastmile_qr_scan", "android": "https://dc.lft.to/lastmile_qr_scan"}, "fusion_lon": 0.0, "lat": 38.904504833333334, "is_disabled": 0, "bike_id": "4ef36c688f85814fa113b80409b23f50", "fusion_lat": 0.0, "is_reserved": 0, "lon": -77.03461483333334}, {"type": "electric_scooter", "name": "45e4dccf3739091efb0385b803e2413c", "rental_uris": {"ios": "https://dc.lft.to/lastmile_qr_scan", "android": "https://dc.lft.to/lastmile_qr_scan"}, "fusion_lon": 0.0, "lat": 38.86510766666667, "is_disabled": 0, "bike_id": "45e4dccf3739091efb0385b803e2413c", "fusion_lat": 0.0, "is_reserved": 0, "lon": -76.99006233333333}, {"type": "electric_scooter", "name": "a334712226db025bbc1a9bff0d22555c", "rental_uris": {"ios": "https://dc.lft.to/lastmile_qr_scan", "android": "https://dc.lft.to/lastmile_qr_scan"}, "fusion_lon": 0.0, "lat": 38.916839333333336, "is_disabled": 0, "bike_id": "a334712226db025bbc1a9bff0d22555c", "fusion_lat": 0.0, "is_reserved": 0, "lon": -77.04142583333334}, {"type": "electric_scooter", "name": "f7d5982209e1329b3f69313981fd8a50", "rental_uris": {"ios": "https://dc.lft.to/lastmile_qr_scan", "android": "https://dc.lft.to/lastmile_qr_scan"}, "fusion_lon": 0.0, "lat": 38.921003166666665, "is_disabled": 0, "bike_id": "f7d5982209e1329b3f69313981fd8a50", "fusion_lat": 0.0, "is_reserved": 0, "lon": -77.07471916666667}, {"type": "electric_scooter", "name": "bb83ad2dfa063f4137217c721f5cf0b0", "rental_uris": {"ios": "https://dc.lft.to/lastmile_qr_scan", "android": "https://dc.lft.to/lastmile_qr_scan"}, "fusion_lon": 0.0, "lat": 38.90919233333334, "is_disabled": 0, "bike_id": "bb83ad2dfa063f4137217c721f5cf0b0", "fusion_lat": 0.0, "is_reserved": 0, "lon": -76.9991375}, {"type": "electric_scooter", "name": "beb42524292be2764e2290761525fb75", "rental_uris": {"ios": "https://dc.lft.to/lastmile_qr_scan", "android": "https://dc.lft.to/lastmile_qr_scan"}, "fusion_lon": 0.0, "lat": 38.90708333333333, "is_disabled": 0, "bike_id": "beb42524292be2764e2290761525fb75", "fusion_lat": 0.0, "is_reserved": 0, "lon": -77.02944533333333}, {"type": "electric_scooter", "name": "cf81317618ee60225684eb1ae01c3e2c", "rental_uris": {"ios": "https://dc.lft.to/lastmile_qr_scan", "android": "https://dc.lft.to/lastmile_qr_scan"}, "fusion_lon": 0.0, "lat": 38.887693, "is_disabled": 0, "bike_id": "cf81317618ee60225684eb1ae01c3e2c", "fusion_lat": 0.0, "is_reserved": 0, "lon": -76.977438}, {"type": "electric_scooter", "name": "87c80535aa478fc36c2407c22b964f23", "rental_uris": {"ios": "https://dc.lft.to/lastmile_qr_scan", "android": "https://dc.lft.to/lastmile_qr_scan"}, "fusion_lon": 0.0, "lat": 38.932773, "is_disabled": 0, "bike_id": "87c80535aa478fc36c2407c22b964f23", "fusion_lat": 0.0, "is_reserved": 0, "lon": -77.04532583333334}, {"type": "electric_bike", "name": "34f2725925eedc276702a046b78bd9e7", "rental_uris": {"ios": "https://dc.lft.to/lastmile_qr_scan", "android": "https://dc.lft.to/lastmile_qr_scan"}, "fusion_lon": 0.0, "lat": 38.9415225, "is_disabled": 0, "bike_id": "34f2725925eedc276702a046b78bd9e7", "fusion_lat": 0.0, "is_reserved": 0, "lon": -77.00196616666666}, {"type": "electric_scooter", "name": "230c2b11f886b5e399ffe683648d4c34", "rental_uris": {"ios": "https://dc.lft.to/lastmile_qr_scan", "android": "https://dc.lft.to/lastmile_qr_scan"}, "fusion_lon": 0.0, "lat": 38.9445685, "is_disabled": 0, "bike_id": "230c2b11f886b5e399ffe683648d4c34", "fusion_lat": 0.0, "is_reserved": 0, "lon": -77.02337683333333}, {"type": "electric_scooter", "name": "73cef692ad99efab7da2d876b2f608dc", "rental_uris": {"ios": "https://dc.lft.to/lastmile_qr_scan", "android": "https://dc.lft.to/lastmile_qr_scan"}, "fusion_lon": 0.0, "lat": 38.926343, "is_disabled": 0, "bike_id": "73cef692ad99efab7da2d876b2f608dc", "fusion_lat": 0.0, "is_reserved": 0, "lon": -77.03501033333333}, {"type": "electric_scooter", "name": "9d02840b11e2c0b443a7aca96a0eae18", "rental_uris": {"ios": "https://dc.lft.to/lastmile_qr_scan", "android": "https://dc.lft.to/lastmile_qr_scan"}, "fusion_lon": 0.0, "lat": 38.9219705, "is_disabled": 0, "bike_id": "9d02840b11e2c0b443a7aca96a0eae18", "fusion_lat": 0.0, "is_reserved": 0, "lon": -77.04127}, {"type": "electric_scooter", "name": "c49f7174fa059e3ea7763aee8e77b472", "rental_uris": {"ios": "https://dc.lft.to/lastmile_qr_scan", "android": "https://dc.lft.to/lastmile_qr_scan"}, "fusion_lon": 0.0, "lat": 38.90125616666667, "is_disabled": 0, "bike_id": "c49f7174fa059e3ea7763aee8e77b472", "fusion_lat": 0.0, "is_reserved": 0, "lon": -77.03712733333333}, {"type": "electric_bike", "name": "e911d7a2943a505e5e9b38d6e867d254", "rental_uris": {"ios": "https://dc.lft.to/lastmile_qr_scan", "android": "https://dc.lft.to/lastmile_qr_scan"}, "fusion_lon": 0.0, "lat": 38.96532933333334, "is_disabled": 0, "bike_id": "e911d7a2943a505e5e9b38d6e867d254", "fusion_lat": 0.0, "is_reserved": 0, "lon": -77.02817733333333}, {"type": "electric_scooter", "name": "086f09e3846965f23ca6782eae1b8700", "rental_uris": {"ios": "https://dc.lft.to/lastmile_qr_scan", "android": "https://dc.lft.to/lastmile_qr_scan"}, "fusion_lon": 0.0, "lat": 38.89719616666667, "is_disabled": 0, "bike_id": "086f09e3846965f23ca6782eae1b8700", "fusion_lat": 0.0, "is_reserved": 0, "lon": -77.007964}, {"type": "electric_scooter", "name": "41deec0ed9815e9c5da611ac4d05bfe8", "rental_uris": {"ios": "https://dc.lft.to/lastmile_qr_scan", "android": "https://dc.lft.to/lastmile_qr_scan"}, "fusion_lon": 0.0, "lat": 38.920441833333335, "is_disabled": 0, "bike_id": "41deec0ed9815e9c5da611ac4d05bfe8", "fusion_lat": 0.0, "is_reserved": 0, "lon": -77.01673266666667}, {"type": "electric_scooter", "name": "0c5789198cab6cdc7d56be23ebea7e5e", "rental_uris": {"ios": "https://dc.lft.to/lastmile_qr_scan", "android": "https://dc.lft.to/lastmile_qr_scan"}, "fusion_lon": 0.0, "lat": 38.93754883333333, "is_disabled": 0, "bike_id": "0c5789198cab6cdc7d56be23ebea7e5e", "fusion_lat": 0.0, "is_reserved": 0, "lon": -77.02956683333333}, {"type": "electric_bike", "name": "d7afc823273841bafeb95295667fbec9", "rental_uris": {"ios": "https://dc.lft.to/lastmile_qr_scan", "android": "https://dc.lft.to/lastmile_qr_scan"}, "fusion_lon": 0.0, "lat": 38.9519055, "is_disabled": 0, "bike_id": "d7afc823273841bafeb95295667fbec9", "fusion_lat": 0.0, "is_reserved": 0, "lon": -77.02602116666667}, {"type": "electric_scooter", "name": "0c43c55ca447941cb4610148f07ee35e", "rental_uris": {"ios": "https://dc.lft.to/lastmile_qr_scan", "android": "https://dc.lft.to/lastmile_qr_scan"}, "fusion_lon": 0.0, "lat": 38.89240183333333, "is_disabled": 0, "bike_id": "0c43c55ca447941cb4610148f07ee35e", "fusion_lat": 0.0, "is_reserved": 0, "lon": -77.02179966666667}, {"type": "electric_scooter", "name": "e90f192fbdd286a7ebd727b499a20a2d", "rental_uris": {"ios": "https://dc.lft.to/lastmile_qr_scan", "android": "https://dc.lft.to/lastmile_qr_scan"}, "fusion_lon": 0.0, "lat": 38.883975166666666, "is_disabled": 0, "bike_id": "e90f192fbdd286a7ebd727b499a20a2d", "fusion_lat": 0.0, "is_reserved": 0, "lon": -76.93047616666666}, {"type": "electric_scooter", "name": "3c97093c1e6a68b07c4045ff75faff9b", "rental_uris": {"ios": "https://dc.lft.to/lastmile_qr_scan", "android": "https://dc.lft.to/lastmile_qr_scan"}, "fusion_lon": 0.0, "lat": 38.90476266666667, "is_disabled": 0, "bike_id": "3c97093c1e6a68b07c4045ff75faff9b", "fusion_lat": 0.0, "is_reserved": 0, "lon": -76.98235266666667}, {"type": "electric_scooter", "name": "5ce3256310ada24cc43b272ff973645a", "rental_uris": {"ios": "https://dc.lft.to/lastmile_qr_scan", "android": "https://dc.lft.to/lastmile_qr_scan"}, "fusion_lon": 0.0, "lat": 38.902057, "is_disabled": 0, "bike_id": "5ce3256310ada24cc43b272ff973645a", "fusion_lat": 0.0, "is_reserved": 0, "lon": -77.021249}, {"type": "electric_scooter", "name": "a82ecffcb51dfed1fdfe5a7adbfa5c32", "rental_uris": {"ios": "https://dc.lft.to/lastmile_qr_scan", "android": "https://dc.lft.to/lastmile_qr_scan"}, "fusion_lon": 0.0, "lat": 38.93531433333333, "is_disabled": 0, "bike_id": "a82ecffcb51dfed1fdfe5a7adbfa5c32", "fusion_lat": 0.0, "is_reserved": 0, "lon": -77.02347883333333}, {"type": "electric_scooter", "name": "7a89ec195dccc15b8cc5bf3e4456ca5e", "rental_uris": {"ios": "https://dc.lft.to/lastmile_qr_scan", "android": "https://dc.lft.to/lastmile_qr_scan"}, "fusion_lon": 0.0, "lat": 38.90788966666667, "is_disabled": 0, "bike_id": "7a89ec195dccc15b8cc5bf3e4456ca5e", "fusion_lat": 0.0, "is_reserved": 0, "lon": -77.011138}, {"type": "electric_scooter", "name": "5dc96281524f4b961775d6820f57794a", "rental_uris": {"ios": "https://dc.lft.to/lastmile_qr_scan", "android": "https://dc.lft.to/lastmile_qr_scan"}, "fusion_lon": 0.0, "lat": 38.90050866666667, "is_disabled": 0, "bike_id": "5dc96281524f4b961775d6820f57794a", "fusion_lat": 0.0, "is_reserved": 0, "lon": -77.0130855}, {"type": "electric_scooter", "name": "e853e8715ad5dfe4c4291d272494cec3", "rental_uris": {"ios": "https://dc.lft.to/lastmile_qr_scan", "android": "https://dc.lft.to/lastmile_qr_scan"}, "fusion_lon": 0.0, "lat": 38.923115333333335, "is_disabled": 0, "bike_id": "e853e8715ad5dfe4c4291d272494cec3", "fusion_lat": 0.0, "is_reserved": 0, "lon": -77.04111116666667}, {"type": "electric_scooter", "name": "ff97b7982f07690703d47f639baebfc5", "rental_uris": {"ios": "https://dc.lft.to/lastmile_qr_scan", "android": "https://dc.lft.to/lastmile_qr_scan"}, "fusion_lon": 0.0, "lat": 38.9126765, "is_disabled": 0, "bike_id": "ff97b7982f07690703d47f639baebfc5", "fusion_lat": 0.0, "is_reserved": 0, "lon": -77.04840766666666}, {"type": "electric_scooter", "name": "1b50571f23b9a47fa821a8ea53053be9", "rental_uris": {"ios": "https://dc.lft.to/lastmile_qr_scan", "android": "https://dc.lft.to/lastmile_qr_scan"}, "fusion_lon": 0.0, "lat": 38.909558833333335, "is_disabled": 0, "bike_id": "1b50571f23b9a47fa821a8ea53053be9", "fusion_lat": 0.0, "is_reserved": 0, "lon": -76.98542733333333}, {"type": "electric_scooter", "name": "da6795cb23bfa09a9100904398d26f41", "rental_uris": {"ios": "https://dc.lft.to/lastmile_qr_scan", "android": "https://dc.lft.to/lastmile_qr_scan"}, "fusion_lon": 0.0, "lat": 38.8960505, "is_disabled": 0, "bike_id": "da6795cb23bfa09a9100904398d26f41", "fusion_lat": 0.0, "is_reserved": 0, "lon": -77.02558366666666}, {"type": "electric_bike", "name": "dce82495dad9cad40dc80368c7715865", "rental_uris": {"ios": "https://dc.lft.to/lastmile_qr_scan", "android": "https://dc.lft.to/lastmile_qr_scan"}, "fusion_lon": 0.0, "lat": 38.865170166666665, "is_disabled": 0, "bike_id": "dce82495dad9cad40dc80368c7715865", "fusion_lat": 0.0, "is_reserved": 0, "lon": -77.129423}, {"type": "electric_scooter", "name": "2c2640ec0f2684ce94e7f2b89a8c844b", "rental_uris": {"ios": "https://dc.lft.to/lastmile_qr_scan", "android": "https://dc.lft.to/lastmile_qr_scan"}, "fusion_lon": 0.0, "lat": 38.949169, "is_disabled": 0, "bike_id": "2c2640ec0f2684ce94e7f2b89a8c844b", "fusion_lat": 0.0, "is_reserved": 0, "lon": -77.06619133333334}, {"type": "electric_scooter", "name": "725bc051fd66e420f5498b5e193e13df", "rental_uris": {"ios": "https://dc.lft.to/lastmile_qr_scan", "android": "https://dc.lft.to/lastmile_qr_scan"}, "fusion_lon": 0.0, "lat": 38.92363266666667, "is_disabled": 0, "bike_id": "725bc051fd66e420f5498b5e193e13df", "fusion_lat": 0.0, "is_reserved": 0, "lon": -77.05055416666667}, {"type": "electric_scooter", "name": "7e225c9e46c898a14403416a857c6a7f", "rental_uris": {"ios": "https://dc.lft.to/lastmile_qr_scan", "android": "https://dc.lft.to/lastmile_qr_scan"}, "fusion_lon": 0.0, "lat": 38.89359233333333, "is_disabled": 0, "bike_id": "7e225c9e46c898a14403416a857c6a7f", "fusion_lat": 0.0, "is_reserved": 0, "lon": -76.92594266666667}, {"type": "electric_bike", "name": "50ea65d0a5d399cc7a90aac70109b4bf", "rental_uris": {"ios": "https://dc.lft.to/lastmile_qr_scan", "android": "https://dc.lft.to/lastmile_qr_scan"}, "fusion_lon": 0.0, "lat": 38.96323916666667, "is_disabled": 0, "bike_id": "50ea65d0a5d399cc7a90aac70109b4bf", "fusion_lat": 0.0, "is_reserved": 0, "lon": -77.07496533333334}, {"type": "electric_scooter", "name": "c70c344b9341d897dde777a9340a0dbf", "rental_uris": {"ios": "https://dc.lft.to/lastmile_qr_scan", "android": "https://dc.lft.to/lastmile_qr_scan"}, "fusion_lon": 0.0, "lat": 38.9000165, "is_disabled": 0, "bike_id": "c70c344b9341d897dde777a9340a0dbf", "fusion_lat": 0.0, "is_reserved": 0, "lon": -77.00679683333334}, {"type": "electric_scooter", "name": "27e14e9445e81c69ea256ec7e2177ec1", "rental_uris": {"ios": "https://dc.lft.to/lastmile_qr_scan", "android": "https://dc.lft.to/lastmile_qr_scan"}, "fusion_lon": 0.0, "lat": 38.917107333333334, "is_disabled": 0, "bike_id": "27e14e9445e81c69ea256ec7e2177ec1", "fusion_lat": 0.0, "is_reserved": 0, "lon": -77.03447316666667}, {"type": "electric_scooter", "name": "4f309fe53abcc4a23666f4b6dcd3dc41", "rental_uris": {"ios": "https://dc.lft.to/lastmile_qr_scan", "android": "https://dc.lft.to/lastmile_qr_scan"}, "fusion_lon": 0.0, "lat": 38.864540166666664, "is_disabled": 0, "bike_id": "4f309fe53abcc4a23666f4b6dcd3dc41", "fusion_lat": 0.0, "is_reserved": 0, "lon": -77.012658}, {"type": "electric_scooter", "name": "b22dcd2d77a018a332dd11e568377a1c", "rental_uris": {"ios": "https://dc.lft.to/lastmile_qr_scan", "android": "https://dc.lft.to/lastmile_qr_scan"}, "fusion_lon": 0.0, "lat": 38.900337666666665, "is_disabled": 0, "bike_id": "b22dcd2d77a018a332dd11e568377a1c", "fusion_lat": 0.0, "is_reserved": 0, "lon": -77.001843}, {"type": "electric_bike", "name": "ecc6da2bc6aa5c379b1b69a68a4493c3", "rental_uris": {"ios": "https://dc.lft.to/lastmile_qr_scan", "android": "https://dc.lft.to/lastmile_qr_scan"}, "fusion_lon": 0.0, "lat": 38.824602, "is_disabled": 0, "bike_id": "ecc6da2bc6aa5c379b1b69a68a4493c3", "fusion_lat": 0.0, "is_reserved": 0, "lon": -77.00790966666666}, {"type": "electric_scooter", "name": "c2df674855f2347a6345f7fec444236f", "rental_uris": {"ios": "https://dc.lft.to/lastmile_qr_scan", "android": "https://dc.lft.to/lastmile_qr_scan"}, "fusion_lon": 0.0, "lat": 38.916999833333335, "is_disabled": 0, "bike_id": "c2df674855f2347a6345f7fec444236f", "fusion_lat": 0.0, "is_reserved": 0, "lon": -77.04217}, {"type": "electric_scooter", "name": "ccfbb63037e59502c3e42287a9744385", "rental_uris": {"ios": "https://dc.lft.to/lastmile_qr_scan", "android": "https://dc.lft.to/lastmile_qr_scan"}, "fusion_lon": 0.0, "lat": 38.905103, "is_disabled": 0, "bike_id": "ccfbb63037e59502c3e42287a9744385", "fusion_lat": 0.0, "is_reserved": 0, "lon": -77.02986716666666}, {"type": "electric_scooter", "name": "b1052410883113611dce5e9228554a87", "rental_uris": {"ios": "https://dc.lft.to/lastmile_qr_scan", "android": "https://dc.lft.to/lastmile_qr_scan"}, "fusion_lon": 0.0, "lat": 38.88767266666667, "is_disabled": 0, "bike_id": "b1052410883113611dce5e9228554a87", "fusion_lat": 0.0, "is_reserved": 0, "lon": -76.97753933333334}, {"type": "electric_scooter", "name": "d632afab788f7e0ee8c88f05026cc9e2", "rental_uris": {"ios": "https://dc.lft.to/lastmile_qr_scan", "android": "https://dc.lft.to/lastmile_qr_scan"}, "fusion_lon": 0.0, "lat": 38.920768, "is_disabled": 0, "bike_id": "d632afab788f7e0ee8c88f05026cc9e2", "fusion_lat": 0.0, "is_reserved": 0, "lon": -77.03496133333333}, {"type": "electric_scooter", "name": "e3935593841a8b2ae334ba593b654889", "rental_uris": {"ios": "https://dc.lft.to/lastmile_qr_scan", "android": "https://dc.lft.to/lastmile_qr_scan"}, "fusion_lon": 0.0, "lat": 38.91486316666666, "is_disabled": 0, "bike_id": "e3935593841a8b2ae334ba593b654889", "fusion_lat": 0.0, "is_reserved": 0, "lon": -77.04842466666666}, {"type": "electric_scooter", "name": "f2a9b007a8ee7e8bf536e3dea879c04b", "rental_uris": {"ios": "https://dc.lft.to/lastmile_qr_scan", "android": "https://dc.lft.to/lastmile_qr_scan"}, "fusion_lon": 0.0, "lat": 38.93706516666666, "is_disabled": 0, "bike_id": "f2a9b007a8ee7e8bf536e3dea879c04b", "fusion_lat": 0.0, "is_reserved": 0, "lon": -77.03234866666666}, {"type": "electric_scooter", "name": "a5ff7ade4fbaf5137e05cca9aaa6a5a9", "rental_uris": {"ios": "https://dc.lft.to/lastmile_qr_scan", "android": "https://dc.lft.to/lastmile_qr_scan"}, "fusion_lon": 0.0, "lat": 38.9367615, "is_disabled": 0, "bike_id": "a5ff7ade4fbaf5137e05cca9aaa6a5a9", "fusion_lat": 0.0, "is_reserved": 0, "lon": -77.03594916666667}, {"type": "electric_scooter", "name": "28ce747cdb8af829979780250fbbdf89", "rental_uris": {"ios": "https://dc.lft.to/lastmile_qr_scan", "android": "https://dc.lft.to/lastmile_qr_scan"}, "fusion_lon": 0.0, "lat": 38.89734516666667, "is_disabled": 0, "bike_id": "28ce747cdb8af829979780250fbbdf89", "fusion_lat": 0.0, "is_reserved": 0, "lon": -77.019745}, {"type": "electric_scooter", "name": "57e6fcc310cbdafcd86bad8a6c92be45", "rental_uris": {"ios": "https://dc.lft.to/lastmile_qr_scan", "android": "https://dc.lft.to/lastmile_qr_scan"}, "fusion_lon": 0.0, "lat": 38.90031533333333, "is_disabled": 0, "bike_id": "57e6fcc310cbdafcd86bad8a6c92be45", "fusion_lat": 0.0, "is_reserved": 0, "lon": -76.98813633333333}, {"type": "electric_scooter", "name": "d6e93df5c4e322d1efed9d3adaa163d2", "rental_uris": {"ios": "https://dc.lft.to/lastmile_qr_scan", "android": "https://dc.lft.to/lastmile_qr_scan"}, "fusion_lon": 0.0, "lat": 38.896542, "is_disabled": 0, "bike_id": "d6e93df5c4e322d1efed9d3adaa163d2", "fusion_lat": 0.0, "is_reserved": 0, "lon": -77.05066433333333}, {"type": "electric_bike", "name": "3e0a6dd82f86cb8a90ad7b3e1448ab27", "rental_uris": {"ios": "https://dc.lft.to/lastmile_qr_scan", "android": "https://dc.lft.to/lastmile_qr_scan"}, "fusion_lon": 0.0, "lat": 38.94667166666667, "is_disabled": 0, "bike_id": "3e0a6dd82f86cb8a90ad7b3e1448ab27", "fusion_lat": 0.0, "is_reserved": 0, "lon": -77.00699116666667}, {"type": "electric_scooter", "name": "539523559b9fb9438ed0acef0caf0093", "rental_uris": {"ios": "https://dc.lft.to/lastmile_qr_scan", "android": "https://dc.lft.to/lastmile_qr_scan"}, "fusion_lon": 0.0, "lat": 38.907354, "is_disabled": 0, "bike_id": "539523559b9fb9438ed0acef0caf0093", "fusion_lat": 0.0, "is_reserved": 0, "lon": -76.98616}, {"type": "electric_bike", "name": "e346c56191734716c85caff24edb33cb", "rental_uris": {"ios": "https://dc.lft.to/lastmile_qr_scan", "android": "https://dc.lft.to/lastmile_qr_scan"}, "fusion_lon": 0.0, "lat": 38.95265916666666, "is_disabled": 0, "bike_id": "e346c56191734716c85caff24edb33cb", "fusion_lat": 0.0, "is_reserved": 0, "lon": -77.06875783333334}, {"type": "electric_scooter", "name": "b23f0f3738dc8569179bffb94c857acb", "rental_uris": {"ios": "https://dc.lft.to/lastmile_qr_scan", "android": "https://dc.lft.to/lastmile_qr_scan"}, "fusion_lon": 0.0, "lat": 38.908147, "is_disabled": 0, "bike_id": "b23f0f3738dc8569179bffb94c857acb", "fusion_lat": 0.0, "is_reserved": 0, "lon": -77.05474716666667}, {"type": "electric_bike", "name": "cc34de860bfe4ad15612609b0a29d6a5", "rental_uris": {"ios": "https://dc.lft.to/lastmile_qr_scan", "android": "https://dc.lft.to/lastmile_qr_scan"}, "fusion_lon": 0.0, "lat": 38.84280833333333, "is_disabled": 0, "bike_id": "cc34de860bfe4ad15612609b0a29d6a5", "fusion_lat": 0.0, "is_reserved": 0, "lon": -76.98843266666667}, {"type": "electric_bike", "name": "a1342c003e4c396e0989df8574c2ce65", "rental_uris": {"ios": "https://dc.lft.to/lastmile_qr_scan", "android": "https://dc.lft.to/lastmile_qr_scan"}, "fusion_lon": 0.0, "lat": 38.9049805, "is_disabled": 0, "bike_id": "a1342c003e4c396e0989df8574c2ce65", "fusion_lat": 0.0, "is_reserved": 0, "lon": -76.97429466666667}, {"type": "electric_bike", "name": "81908772992659c7c89221d12c6b81fa", "rental_uris": {"ios": "https://dc.lft.to/lastmile_qr_scan", "android": "https://dc.lft.to/lastmile_qr_scan"}, "fusion_lon": 0.0, "lat": 38.86268066666667, "is_disabled": 0, "bike_id": "81908772992659c7c89221d12c6b81fa", "fusion_lat": 0.0, "is_reserved": 0, "lon": -76.983534}, {"type": "electric_scooter", "name": "54483ed318a1e435d2423acd7a455011", "rental_uris": {"ios": "https://dc.lft.to/lastmile_qr_scan", "android": "https://dc.lft.to/lastmile_qr_scan"}, "fusion_lon": 0.0, "lat": 38.86506166666667, "is_disabled": 0, "bike_id": "54483ed318a1e435d2423acd7a455011", "fusion_lat": 0.0, "is_reserved": 0, "lon": -76.99003016666667}, {"type": "electric_scooter", "name": "567b26bda9f4ad15a87a60bfa8fbd405", "rental_uris": {"ios": "https://dc.lft.to/lastmile_qr_scan", "android": "https://dc.lft.to/lastmile_qr_scan"}, "fusion_lon": 0.0, "lat": 38.89875116666666, "is_disabled": 0, "bike_id": "567b26bda9f4ad15a87a60bfa8fbd405", "fusion_lat": 0.0, "is_reserved": 0, "lon": -76.9318825}, {"type": "electric_scooter", "name": "425aa8e937a0ce66e7110ca08bf44d17", "rental_uris": {"ios": "https://dc.lft.to/lastmile_qr_scan", "android": "https://dc.lft.to/lastmile_qr_scan"}, "fusion_lon": 0.0, "lat": 38.92487716666667, "is_disabled": 0, "bike_id": "425aa8e937a0ce66e7110ca08bf44d17", "fusion_lat": 0.0, "is_reserved": 0, "lon": -77.02661616666667}, {"type": "electric_scooter", "name": "f9eb4b47e0a4245953ade5283e40bbc3", "rental_uris": {"ios": "https://dc.lft.to/lastmile_qr_scan", "android": "https://dc.lft.to/lastmile_qr_scan"}, "fusion_lon": 0.0, "lat": 38.92563083333334, "is_disabled": 0, "bike_id": "f9eb4b47e0a4245953ade5283e40bbc3", "fusion_lat": 0.0, "is_reserved": 0, "lon": -77.0270975}, {"type": "electric_scooter", "name": "f9745841f745f0519653fa3a976475ef", "rental_uris": {"ios": "https://dc.lft.to/lastmile_qr_scan", "android": "https://dc.lft.to/lastmile_qr_scan"}, "fusion_lon": 0.0, "lat": 38.885048, "is_disabled": 0, "bike_id": "f9745841f745f0519653fa3a976475ef", "fusion_lat": 0.0, "is_reserved": 0, "lon": -77.00701216666667}, {"type": "electric_scooter", "name": "1c93ba25d81f2a9dc338734890e82d8d", "rental_uris": {"ios": "https://dc.lft.to/lastmile_qr_scan", "android": "https://dc.lft.to/lastmile_qr_scan"}, "fusion_lon": 0.0, "lat": 38.8655805, "is_disabled": 0, "bike_id": "1c93ba25d81f2a9dc338734890e82d8d", "fusion_lat": 0.0, "is_reserved": 0, "lon": -76.98350133333334}, {"type": "electric_scooter", "name": "37aa670ff496bf2240b3810c2e11164a", "rental_uris": {"ios": "https://dc.lft.to/lastmile_qr_scan", "android": "https://dc.lft.to/lastmile_qr_scan"}, "fusion_lon": 0.0, "lat": 38.922731666666664, "is_disabled": 0, "bike_id": "37aa670ff496bf2240b3810c2e11164a", "fusion_lat": 0.0, "is_reserved": 0, "lon": -77.0296585}, {"type": "electric_scooter", "name": "6a7e8838824090a235fcee18c1fb4cd6", "rental_uris": {"ios": "https://dc.lft.to/lastmile_qr_scan", "android": "https://dc.lft.to/lastmile_qr_scan"}, "fusion_lon": 0.0, "lat": 38.905734333333335, "is_disabled": 0, "bike_id": "6a7e8838824090a235fcee18c1fb4cd6", "fusion_lat": 0.0, "is_reserved": 0, "lon": -77.02412866666667}, {"type": "electric_scooter", "name": "3063ff12417c8254c1ab37e8ab48d84e", "rental_uris": {"ios": "https://dc.lft.to/lastmile_qr_scan", "android": "https://dc.lft.to/lastmile_qr_scan"}, "fusion_lon": 0.0, "lat": 38.89780016666667, "is_disabled": 0, "bike_id": "3063ff12417c8254c1ab37e8ab48d84e", "fusion_lat": 0.0, "is_reserved": 0, "lon": -77.021989}, {"type": "electric_scooter", "name": "30c6e3888f4765e9765ebe4324582efe", "rental_uris": {"ios": "https://dc.lft.to/lastmile_qr_scan", "android": "https://dc.lft.to/lastmile_qr_scan"}, "fusion_lon": 0.0, "lat": 38.920584, "is_disabled": 0, "bike_id": "30c6e3888f4765e9765ebe4324582efe", "fusion_lat": 0.0, "is_reserved": 0, "lon": -77.0329215}, {"type": "electric_scooter", "name": "9c420d4a80ca122d2f87bf28767d2c0e", "rental_uris": {"ios": "https://dc.lft.to/lastmile_qr_scan", "android": "https://dc.lft.to/lastmile_qr_scan"}, "fusion_lon": 0.0, "lat": 38.917724666666665, "is_disabled": 0, "bike_id": "9c420d4a80ca122d2f87bf28767d2c0e", "fusion_lat": 0.0, "is_reserved": 0, "lon": -77.01913683333333}, {"type": "electric_scooter", "name": "53c6bf559bab122577fb66de2b3dba6f", "rental_uris": {"ios": "https://dc.lft.to/lastmile_qr_scan", "android": "https://dc.lft.to/lastmile_qr_scan"}, "fusion_lon": 0.0, "lat": 38.86558266666667, "is_disabled": 0, "bike_id": "53c6bf559bab122577fb66de2b3dba6f", "fusion_lat": 0.0, "is_reserved": 0, "lon": -76.98350683333334}, {"type": "electric_scooter", "name": "635e752e48a3de6c1aa819be121944f9", "rental_uris": {"ios": "https://dc.lft.to/lastmile_qr_scan", "android": "https://dc.lft.to/lastmile_qr_scan"}, "fusion_lon": 0.0, "lat": 38.892231833333334, "is_disabled": 0, "bike_id": "635e752e48a3de6c1aa819be121944f9", "fusion_lat": 0.0, "is_reserved": 0, "lon": -77.04772733333333}, {"type": "electric_scooter", "name": "a6add169f284b6d57644902584151c39", "rental_uris": {"ios": "https://dc.lft.to/lastmile_qr_scan", "android": "https://dc.lft.to/lastmile_qr_scan"}, "fusion_lon": 0.0, "lat": 38.89225, "is_disabled": 0, "bike_id": "a6add169f284b6d57644902584151c39", "fusion_lat": 0.0, "is_reserved": 0, "lon": -77.04519483333333}, {"type": "electric_scooter", "name": "c86287e096174a52cd90ac2e8f2a81b8", "rental_uris": {"ios": "https://dc.lft.to/lastmile_qr_scan", "android": "https://dc.lft.to/lastmile_qr_scan"}, "fusion_lon": 0.0, "lat": 38.899364166666665, "is_disabled": 0, "bike_id": "c86287e096174a52cd90ac2e8f2a81b8", "fusion_lat": 0.0, "is_reserved": 0, "lon": -77.04187483333334}, {"type": "electric_scooter", "name": "44ce79424acc31131ecdc1a9b113dd9c", "rental_uris": {"ios": "https://dc.lft.to/lastmile_qr_scan", "android": "https://dc.lft.to/lastmile_qr_scan"}, "fusion_lon": 0.0, "lat": 38.8825895, "is_disabled": 0, "bike_id": "44ce79424acc31131ecdc1a9b113dd9c", "fusion_lat": 0.0, "is_reserved": 0, "lon": -76.99489183333333}, {"type": "electric_scooter", "name": "987aa5bf472447ab63635efdfa3a06e4", "rental_uris": {"ios": "https://dc.lft.to/lastmile_qr_scan", "android": "https://dc.lft.to/lastmile_qr_scan"}, "fusion_lon": 0.0, "lat": 38.89969116666666, "is_disabled": 0, "bike_id": "987aa5bf472447ab63635efdfa3a06e4", "fusion_lat": 0.0, "is_reserved": 0, "lon": -77.0067485}, {"type": "electric_scooter", "name": "0b2c547ccdc1ad08856026d21e76b528", "rental_uris": {"ios": "https://dc.lft.to/lastmile_qr_scan", "android": "https://dc.lft.to/lastmile_qr_scan"}, "fusion_lon": 0.0, "lat": 38.9124775, "is_disabled": 0, "bike_id": "0b2c547ccdc1ad08856026d21e76b528", "fusion_lat": 0.0, "is_reserved": 0, "lon": -77.0449695}, {"type": "electric_scooter", "name": "2dcf0d7c0fd5c877593a20e080f8317b", "rental_uris": {"ios": "https://dc.lft.to/lastmile_qr_scan", "android": "https://dc.lft.to/lastmile_qr_scan"}, "fusion_lon": 0.0, "lat": 38.9231415, "is_disabled": 0, "bike_id": "2dcf0d7c0fd5c877593a20e080f8317b", "fusion_lat": 0.0, "is_reserved": 0, "lon": -77.04188}, {"type": "electric_scooter", "name": "962d71c33921be434202f581fd7691a9", "rental_uris": {"ios": "https://dc.lft.to/lastmile_qr_scan", "android": "https://dc.lft.to/lastmile_qr_scan"}, "fusion_lon": 0.0, "lat": 38.877578, "is_disabled": 0, "bike_id": "962d71c33921be434202f581fd7691a9", "fusion_lat": 0.0, "is_reserved": 0, "lon": -77.00713366666666}, {"type": "electric_bike", "name": "2a000a2525b9dc2695052de1528231f9", "rental_uris": {"ios": "https://dc.lft.to/lastmile_qr_scan", "android": "https://dc.lft.to/lastmile_qr_scan"}, "fusion_lon": 0.0, "lat": 38.920549, "is_disabled": 0, "bike_id": "2a000a2525b9dc2695052de1528231f9", "fusion_lat": 0.0, "is_reserved": 0, "lon": -77.03316866666667}, {"type": "electric_scooter", "name": "3510b87ee9cdc6476a78be6c777c15fd", "rental_uris": {"ios": "https://dc.lft.to/lastmile_qr_scan", "android": "https://dc.lft.to/lastmile_qr_scan"}, "fusion_lon": 0.0, "lat": 38.90591416666667, "is_disabled": 0, "bike_id": "3510b87ee9cdc6476a78be6c777c15fd", "fusion_lat": 0.0, "is_reserved": 0, "lon": -77.00350483333334}, {"type": "electric_scooter", "name": "f111200961b4d3b599440736648093c9", "rental_uris": {"ios": "https://dc.lft.to/lastmile_qr_scan", "android": "https://dc.lft.to/lastmile_qr_scan"}, "fusion_lon": 0.0, "lat": 38.9387955, "is_disabled": 0, "bike_id": "f111200961b4d3b599440736648093c9", "fusion_lat": 0.0, "is_reserved": 0, "lon": -77.02457516666666}, {"type": "electric_scooter", "name": "41aa0d1d42eb536fc0a0dfb6d6a0782d", "rental_uris": {"ios": "https://dc.lft.to/lastmile_qr_scan", "android": "https://dc.lft.to/lastmile_qr_scan"}, "fusion_lon": 0.0, "lat": 38.881473, "is_disabled": 0, "bike_id": "41aa0d1d42eb536fc0a0dfb6d6a0782d", "fusion_lat": 0.0, "is_reserved": 0, "lon": -77.0274115}, {"type": "electric_scooter", "name": "28c89963bfffb0cbd2373dc9b6c1190c", "rental_uris": {"ios": "https://dc.lft.to/lastmile_qr_scan", "android": "https://dc.lft.to/lastmile_qr_scan"}, "fusion_lon": 0.0, "lat": 38.90226916666667, "is_disabled": 0, "bike_id": "28c89963bfffb0cbd2373dc9b6c1190c", "fusion_lat": 0.0, "is_reserved": 0, "lon": -77.03440333333333}, {"type": "electric_scooter", "name": "0bcb804710aae76d3a06b600c3a7ee3e", "rental_uris": {"ios": "https://dc.lft.to/lastmile_qr_scan", "android": "https://dc.lft.to/lastmile_qr_scan"}, "fusion_lon": 0.0, "lat": 38.907206, "is_disabled": 0, "bike_id": "0bcb804710aae76d3a06b600c3a7ee3e", "fusion_lat": 0.0, "is_reserved": 0, "lon": -77.00765733333333}, {"type": "electric_bike", "name": "11a515a92777d6e40d29dc328b18df29", "rental_uris": {"ios": "https://dc.lft.to/lastmile_qr_scan", "android": "https://dc.lft.to/lastmile_qr_scan"}, "fusion_lon": 0.0, "lat": 38.880816833333334, "is_disabled": 0, "bike_id": "11a515a92777d6e40d29dc328b18df29", "fusion_lat": 0.0, "is_reserved": 0, "lon": -76.98535166666667}, {"type": "electric_bike", "name": "13be793e9837657dfa27279c6645a019", "rental_uris": {"ios": "https://dc.lft.to/lastmile_qr_scan", "android": "https://dc.lft.to/lastmile_qr_scan"}, "fusion_lon": 0.0, "lat": 38.884936, "is_disabled": 0, "bike_id": "13be793e9837657dfa27279c6645a019", "fusion_lat": 0.0, "is_reserved": 0, "lon": -76.95665466666667}, {"type": "electric_scooter", "name": "1ebb4d62fea41ac98e6b9691307e0bc5", "rental_uris": {"ios": "https://dc.lft.to/lastmile_qr_scan", "android": "https://dc.lft.to/lastmile_qr_scan"}, "fusion_lon": 0.0, "lat": 38.88614333333334, "is_disabled": 0, "bike_id": "1ebb4d62fea41ac98e6b9691307e0bc5", "fusion_lat": 0.0, "is_reserved": 0, "lon": -77.01251416666666}, {"type": "electric_scooter", "name": "f222a6ccb1d4d6ca63c827ff8913598c", "rental_uris": {"ios": "https://dc.lft.to/lastmile_qr_scan", "android": "https://dc.lft.to/lastmile_qr_scan"}, "fusion_lon": 0.0, "lat": 38.9231925, "is_disabled": 0, "bike_id": "f222a6ccb1d4d6ca63c827ff8913598c", "fusion_lat": 0.0, "is_reserved": 0, "lon": -77.02906666666667}, {"type": "electric_scooter", "name": "7a6ec2363876844eb664d8108e00a787", "rental_uris": {"ios": "https://dc.lft.to/lastmile_qr_scan", "android": "https://dc.lft.to/lastmile_qr_scan"}, "fusion_lon": 0.0, "lat": 38.88302266666667, "is_disabled": 0, "bike_id": "7a6ec2363876844eb664d8108e00a787", "fusion_lat": 0.0, "is_reserved": 0, "lon": -77.0176225}, {"type": "electric_scooter", "name": "b34fed6edd17414233e57f3511769a81", "rental_uris": {"ios": "https://dc.lft.to/lastmile_qr_scan", "android": "https://dc.lft.to/lastmile_qr_scan"}, "fusion_lon": 0.0, "lat": 38.894708666666666, "is_disabled": 0, "bike_id": "b34fed6edd17414233e57f3511769a81", "fusion_lat": 0.0, "is_reserved": 0, "lon": -77.01665633333333}, {"type": "electric_scooter", "name": "4e80234a3d27ee427aeb3c654a9d8ccf", "rental_uris": {"ios": "https://dc.lft.to/lastmile_qr_scan", "android": "https://dc.lft.to/lastmile_qr_scan"}, "fusion_lon": 0.0, "lat": 38.88718016666667, "is_disabled": 0, "bike_id": "4e80234a3d27ee427aeb3c654a9d8ccf", "fusion_lat": 0.0, "is_reserved": 0, "lon": -76.98353733333333}, {"type": "electric_scooter", "name": "69d20f302c348e2e613724ef24754a52", "rental_uris": {"ios": "https://dc.lft.to/lastmile_qr_scan", "android": "https://dc.lft.to/lastmile_qr_scan"}, "fusion_lon": 0.0, "lat": 38.9118105, "is_disabled": 0, "bike_id": "69d20f302c348e2e613724ef24754a52", "fusion_lat": 0.0, "is_reserved": 0, "lon": -77.00256266666666}, {"type": "electric_scooter", "name": "3013fa182768181b407294119329dc3f", "rental_uris": {"ios": "https://dc.lft.to/lastmile_qr_scan", "android": "https://dc.lft.to/lastmile_qr_scan"}, "fusion_lon": 0.0, "lat": 38.905628666666665, "is_disabled": 0, "bike_id": "3013fa182768181b407294119329dc3f", "fusion_lat": 0.0, "is_reserved": 0, "lon": -77.02658933333333}, {"type": "electric_scooter", "name": "9104b6b47e6ee7f32364535cf34f51a4", "rental_uris": {"ios": "https://dc.lft.to/lastmile_qr_scan", "android": "https://dc.lft.to/lastmile_qr_scan"}, "fusion_lon": 0.0, "lat": 38.901051, "is_disabled": 0, "bike_id": "9104b6b47e6ee7f32364535cf34f51a4", "fusion_lat": 0.0, "is_reserved": 0, "lon": -77.02607233333333}, {"type": "electric_scooter", "name": "820caba41393a9f76f1b8c70d7b223d6", "rental_uris": {"ios": "https://dc.lft.to/lastmile_qr_scan", "android": "https://dc.lft.to/lastmile_qr_scan"}, "fusion_lon": 0.0, "lat": 38.910392, "is_disabled": 0, "bike_id": "820caba41393a9f76f1b8c70d7b223d6", "fusion_lat": 0.0, "is_reserved": 0, "lon": -77.07575283333334}, {"type": "electric_scooter", "name": "69d843108786121aa70e8dd195e22f2f", "rental_uris": {"ios": "https://dc.lft.to/lastmile_qr_scan", "android": "https://dc.lft.to/lastmile_qr_scan"}, "fusion_lon": 0.0, "lat": 38.91533733333333, "is_disabled": 0, "bike_id": "69d843108786121aa70e8dd195e22f2f", "fusion_lat": 0.0, "is_reserved": 0, "lon": -77.01224533333334}, {"type": "electric_scooter", "name": "4a1f01029d2ce3d7f86d6d3218533029", "rental_uris": {"ios": "https://dc.lft.to/lastmile_qr_scan", "android": "https://dc.lft.to/lastmile_qr_scan"}, "fusion_lon": 0.0, "lat": 38.9006745, "is_disabled": 0, "bike_id": "4a1f01029d2ce3d7f86d6d3218533029", "fusion_lat": 0.0, "is_reserved": 0, "lon": -77.0543055}, {"type": "electric_scooter", "name": "2e0938100e1ca3148a7e6246f05b92db", "rental_uris": {"ios": "https://dc.lft.to/lastmile_qr_scan", "android": "https://dc.lft.to/lastmile_qr_scan"}, "fusion_lon": 0.0, "lat": 38.92081966666667, "is_disabled": 0, "bike_id": "2e0938100e1ca3148a7e6246f05b92db", "fusion_lat": 0.0, "is_reserved": 0, "lon": -77.02510116666667}, {"type": "electric_scooter", "name": "dafe2773d9a21d23bc3cafafc8ef2772", "rental_uris": {"ios": "https://dc.lft.to/lastmile_qr_scan", "android": "https://dc.lft.to/lastmile_qr_scan"}, "fusion_lon": 0.0, "lat": 38.918096166666665, "is_disabled": 0, "bike_id": "dafe2773d9a21d23bc3cafafc8ef2772", "fusion_lat": 0.0, "is_reserved": 0, "lon": -77.03714616666667}, {"type": "electric_scooter", "name": "25a899e3a9fb6bd863f4741ca6b979d0", "rental_uris": {"ios": "https://dc.lft.to/lastmile_qr_scan", "android": "https://dc.lft.to/lastmile_qr_scan"}, "fusion_lon": 0.0, "lat": 38.935363, "is_disabled": 0, "bike_id": "25a899e3a9fb6bd863f4741ca6b979d0", "fusion_lat": 0.0, "is_reserved": 0, "lon": -77.02349066666666}, {"type": "electric_scooter", "name": "ecd45810b203f75034d1909bc551827a", "rental_uris": {"ios": "https://dc.lft.to/lastmile_qr_scan", "android": "https://dc.lft.to/lastmile_qr_scan"}, "fusion_lon": 0.0, "lat": 38.929643666666664, "is_disabled": 0, "bike_id": "ecd45810b203f75034d1909bc551827a", "fusion_lat": 0.0, "is_reserved": 0, "lon": -77.03094766666666}, {"type": "electric_bike", "name": "a1db1f0bd8ecccd62d4e494ea531c0bf", "rental_uris": {"ios": "https://dc.lft.to/lastmile_qr_scan", "android": "https://dc.lft.to/lastmile_qr_scan"}, "fusion_lon": 0.0, "lat": 38.935610833333335, "is_disabled": 0, "bike_id": "a1db1f0bd8ecccd62d4e494ea531c0bf", "fusion_lat": 0.0, "is_reserved": 0, "lon": -77.03697766666667}, {"type": "electric_scooter", "name": "ae3a31e2edb735e25c05a99b2a56a7d7", "rental_uris": {"ios": "https://dc.lft.to/lastmile_qr_scan", "android": "https://dc.lft.to/lastmile_qr_scan"}, "fusion_lon": 0.0, "lat": 38.9024805, "is_disabled": 0, "bike_id": "ae3a31e2edb735e25c05a99b2a56a7d7", "fusion_lat": 0.0, "is_reserved": 0, "lon": -77.01753166666667}, {"type": "electric_scooter", "name": "93f4211cf02db346e0051a3cfd45a642", "rental_uris": {"ios": "https://dc.lft.to/lastmile_qr_scan", "android": "https://dc.lft.to/lastmile_qr_scan"}, "fusion_lon": 0.0, "lat": 38.90268783333333, "is_disabled": 0, "bike_id": "93f4211cf02db346e0051a3cfd45a642", "fusion_lat": 0.0, "is_reserved": 0, "lon": -77.0175885}, {"type": "electric_scooter", "name": "e13a1cd27dcb8a2f85ed72554d9e9f4e", "rental_uris": {"ios": "https://dc.lft.to/lastmile_qr_scan", "android": "https://dc.lft.to/lastmile_qr_scan"}, "fusion_lon": 0.0, "lat": 38.93731483333333, "is_disabled": 0, "bike_id": "e13a1cd27dcb8a2f85ed72554d9e9f4e", "fusion_lat": 0.0, "is_reserved": 0, "lon": -77.03282616666667}, {"type": "electric_scooter", "name": "b3529e827935b392957b13b63e67c868", "rental_uris": {"ios": "https://dc.lft.to/lastmile_qr_scan", "android": "https://dc.lft.to/lastmile_qr_scan"}, "fusion_lon": 0.0, "lat": 38.97235033333333, "is_disabled": 0, "bike_id": "b3529e827935b392957b13b63e67c868", "fusion_lat": 0.0, "is_reserved": 0, "lon": -77.0271335}, {"type": "electric_scooter", "name": "cbd799118c7cee51b90f32fe2707aa12", "rental_uris": {"ios": "https://dc.lft.to/lastmile_qr_scan", "android": "https://dc.lft.to/lastmile_qr_scan"}, "fusion_lon": 0.0, "lat": 38.924366666666664, "is_disabled": 0, "bike_id": "cbd799118c7cee51b90f32fe2707aa12", "fusion_lat": 0.0, "is_reserved": 0, "lon": -77.05203866666666}, {"type": "electric_scooter", "name": "1a00bc3837d85b6fd36e60717632a022", "rental_uris": {"ios": "https://dc.lft.to/lastmile_qr_scan", "android": "https://dc.lft.to/lastmile_qr_scan"}, "fusion_lon": 0.0, "lat": 38.87899866666667, "is_disabled": 0, "bike_id": "1a00bc3837d85b6fd36e60717632a022", "fusion_lat": 0.0, "is_reserved": 0, "lon": -77.01362833333333}, {"type": "electric_scooter", "name": "a12ff406fd6227f06ba55c2894549721", "rental_uris": {"ios": "https://dc.lft.to/lastmile_qr_scan", "android": "https://dc.lft.to/lastmile_qr_scan"}, "fusion_lon": 0.0, "lat": 38.897318, "is_disabled": 0, "bike_id": "a12ff406fd6227f06ba55c2894549721", "fusion_lat": 0.0, "is_reserved": 0, "lon": -77.0462125}, {"type": "electric_scooter", "name": "0edc42c47d9ada8fded8e5f1cc7010d2", "rental_uris": {"ios": "https://dc.lft.to/lastmile_qr_scan", "android": "https://dc.lft.to/lastmile_qr_scan"}, "fusion_lon": 0.0, "lat": 38.90272816666667, "is_disabled": 0, "bike_id": "0edc42c47d9ada8fded8e5f1cc7010d2", "fusion_lat": 0.0, "is_reserved": 0, "lon": -77.038373}, {"type": "electric_scooter", "name": "371adcd1fce76e4f8fd3324921f65a0d", "rental_uris": {"ios": "https://dc.lft.to/lastmile_qr_scan", "android": "https://dc.lft.to/lastmile_qr_scan"}, "fusion_lon": 0.0, "lat": 38.920719, "is_disabled": 0, "bike_id": "371adcd1fce76e4f8fd3324921f65a0d", "fusion_lat": 0.0, "is_reserved": 0, "lon": -77.040879}, {"type": "electric_scooter", "name": "5e3861d2703a4e8baf2380946446ba28", "rental_uris": {"ios": "https://dc.lft.to/lastmile_qr_scan", "android": "https://dc.lft.to/lastmile_qr_scan"}, "fusion_lon": 0.0, "lat": 38.861777000000004, "is_disabled": 0, "bike_id": "5e3861d2703a4e8baf2380946446ba28", "fusion_lat": 0.0, "is_reserved": 0, "lon": -76.983679}, {"type": "electric_scooter", "name": "521c64331d44a0b4e730c35412431b31", "rental_uris": {"ios": "https://dc.lft.to/lastmile_qr_scan", "android": "https://dc.lft.to/lastmile_qr_scan"}, "fusion_lon": 0.0, "lat": 38.94326733333333, "is_disabled": 0, "bike_id": "521c64331d44a0b4e730c35412431b31", "fusion_lat": 0.0, "is_reserved": 0, "lon": -77.013134}, {"type": "electric_scooter", "name": "fa65dbf93d797f9f01429b2d0c341067", "rental_uris": {"ios": "https://dc.lft.to/lastmile_qr_scan", "android": "https://dc.lft.to/lastmile_qr_scan"}, "fusion_lon": 0.0, "lat": 38.941257666666665, "is_disabled": 0, "bike_id": "fa65dbf93d797f9f01429b2d0c341067", "fusion_lat": 0.0, "is_reserved": 0, "lon": -77.0154255}, {"type": "electric_scooter", "name": "79c0c423538be6b482c623a9d9b1b11b", "rental_uris": {"ios": "https://dc.lft.to/lastmile_qr_scan", "android": "https://dc.lft.to/lastmile_qr_scan"}, "fusion_lon": 0.0, "lat": 38.901699666666666, "is_disabled": 0, "bike_id": "79c0c423538be6b482c623a9d9b1b11b", "fusion_lat": 0.0, "is_reserved": 0, "lon": -77.01324683333333}, {"type": "electric_scooter", "name": "aa83d6d384c8820107846f6665e3763b", "rental_uris": {"ios": "https://dc.lft.to/lastmile_qr_scan", "android": "https://dc.lft.to/lastmile_qr_scan"}, "fusion_lon": 0.0, "lat": 38.935622333333335, "is_disabled": 0, "bike_id": "aa83d6d384c8820107846f6665e3763b", "fusion_lat": 0.0, "is_reserved": 0, "lon": -77.08187416666667}, {"type": "electric_scooter", "name": "c34d330a999d7e1b9b1755642aef9aee", "rental_uris": {"ios": "https://dc.lft.to/lastmile_qr_scan", "android": "https://dc.lft.to/lastmile_qr_scan"}, "fusion_lon": 0.0, "lat": 38.892976833333336, "is_disabled": 0, "bike_id": "c34d330a999d7e1b9b1755642aef9aee", "fusion_lat": 0.0, "is_reserved": 0, "lon": -76.97524983333334}, {"type": "electric_scooter", "name": "15d62b75c7c91014324b199502f2d266", "rental_uris": {"ios": "https://dc.lft.to/lastmile_qr_scan", "android": "https://dc.lft.to/lastmile_qr_scan"}, "fusion_lon": 0.0, "lat": 38.9019775, "is_disabled": 0, "bike_id": "15d62b75c7c91014324b199502f2d266", "fusion_lat": 0.0, "is_reserved": 0, "lon": -76.98218683333333}, {"type": "electric_scooter", "name": "4f8f560cda3971086f84d13b2098a739", "rental_uris": {"ios": "https://dc.lft.to/lastmile_qr_scan", "android": "https://dc.lft.to/lastmile_qr_scan"}, "fusion_lon": 0.0, "lat": 38.91298883333333, "is_disabled": 0, "bike_id": "4f8f560cda3971086f84d13b2098a739", "fusion_lat": 0.0, "is_reserved": 0, "lon": -77.04864416666666}, {"type": "electric_scooter", "name": "be0feaf51956b9c2f452c888ee250a58", "rental_uris": {"ios": "https://dc.lft.to/lastmile_qr_scan", "android": "https://dc.lft.to/lastmile_qr_scan"}, "fusion_lon": 0.0, "lat": 38.90724133333333, "is_disabled": 0, "bike_id": "be0feaf51956b9c2f452c888ee250a58", "fusion_lat": 0.0, "is_reserved": 0, "lon": -77.02561433333334}, {"type": "electric_scooter", "name": "6cf0f726edde4e73243d2408d3adfbbb", "rental_uris": {"ios": "https://dc.lft.to/lastmile_qr_scan", "android": "https://dc.lft.to/lastmile_qr_scan"}, "fusion_lon": 0.0, "lat": 38.91912, "is_disabled": 0, "bike_id": "6cf0f726edde4e73243d2408d3adfbbb", "fusion_lat": 0.0, "is_reserved": 0, "lon": -77.0344815}, {"type": "electric_scooter", "name": "96ec4b870f077c924e86ff0efe9aee85", "rental_uris": {"ios": "https://dc.lft.to/lastmile_qr_scan", "android": "https://dc.lft.to/lastmile_qr_scan"}, "fusion_lon": 0.0, "lat": 38.8845245, "is_disabled": 0, "bike_id": "96ec4b870f077c924e86ff0efe9aee85", "fusion_lat": 0.0, "is_reserved": 0, "lon": -76.95098283333333}, {"type": "electric_scooter", "name": "d3e06c12c03f41bdbfae18064237b0f9", "rental_uris": {"ios": "https://dc.lft.to/lastmile_qr_scan", "android": "https://dc.lft.to/lastmile_qr_scan"}, "fusion_lon": 0.0, "lat": 38.89284683333333, "is_disabled": 0, "bike_id": "d3e06c12c03f41bdbfae18064237b0f9", "fusion_lat": 0.0, "is_reserved": 0, "lon": -76.98311966666667}, {"type": "electric_scooter", "name": "221dfcc9fd0f2172fd4834068de2f52a", "rental_uris": {"ios": "https://dc.lft.to/lastmile_qr_scan", "android": "https://dc.lft.to/lastmile_qr_scan"}, "fusion_lon": 0.0, "lat": 38.917183666666666, "is_disabled": 0, "bike_id": "221dfcc9fd0f2172fd4834068de2f52a", "fusion_lat": 0.0, "is_reserved": 0, "lon": -77.04156616666667}, {"type": "electric_scooter", "name": "81250c0952e78a37538274453728fe33", "rental_uris": {"ios": "https://dc.lft.to/lastmile_qr_scan", "android": "https://dc.lft.to/lastmile_qr_scan"},