{"data": {"bikes": [{"lon": -77.03358516666667, "fusion_lon": 0.0, "bike_id": "05c228720b9525a37a5e4e5b5a455046", "type": "electric_scooter", "name": "05c228720b9525a37a5e4e5b5a455046", "rental_uris": {"android": "https://dc.lft.to/lastmile_qr_scan", "ios": "https://dc.lft.to/lastmile_qr_scan"}, "is_disabled": 0, "fusion_lat": 0.0, "lat": 38.92757183333333, "is_reserved": 0}, {"lon": -77.0317185, "fusion_lon": 0.0, "bike_id": "75b1f52f93a7d668b67c7a9def9835b0", "type": "electric_scooter", "name": "75b1f52f93a7d668b67c7a9def9835b0", "rental_uris": {"android": "https://dc.lft.to/lastmile_qr_scan", "ios": "https://dc.lft.to/lastmile_qr_scan"}, "is_disabled": 0, "fusion_lat": 0.0, "lat": 38.914174, "is_reserved": 0}, {"lon": -77.0468795, "fusion_lon": 0.0, "bike_id": "a229ecfe0cbc0496bf25010beb0c4dce", "type": "electric_scooter", "name": "a229ecfe0cbc0496bf25010beb0c4dce", "rental_uris": {"android": "https://dc.lft.to/lastmile_qr_scan", "ios": "https://dc.lft.to/lastmile_qr_scan"}, "is_disabled": 0, "fusion_lat": 0.0, "lat": 38.89222816666667, "is_reserved": 0}, {"lon": -76.9472565, "fusion_lon": 0.0, "bike_id": "79c908c85454c1a8b146840c68f4127d", "type": "electric_scooter", "name": "79c908c85454c1a8b146840c68f4127d", "rental_uris": {"android": "https://dc.lft.to/lastmile_qr_scan", "ios": "https://dc.lft.to/lastmile_qr_scan"}, "is_disabled": 0, "fusion_lat": 0.0, "lat": 38.89741816666667, "is_reserved": 0}, {"lon": -77.0217405, "fusion_lon": 0.0, "bike_id": "0ddacee91625c503b0a1d7e3450e5cd3", "type": "electric_scooter", "name": "0ddacee91625c503b0a1d7e3450e5cd3", "rental_uris": {"android": "https://dc.lft.to/lastmile_qr_scan", "ios": "https://dc.lft.to/lastmile_qr_scan"}, "is_disabled": 0, "fusion_lat": 0.0, "lat": 38.90204083333333, "is_reserved": 0}, {"lon": -77.014746, "fusion_lon": 0.0, "bike_id": "6e7f9b4cb81714ce2081ce90ed46b384", "type": "electric_scooter", "name": "6e7f9b4cb81714ce2081ce90ed46b384", "rental_uris": {"android": "https://dc.lft.to/lastmile_qr_scan", "ios": "https://dc.lft.to/lastmile_qr_scan"}, "is_disabled": 0, "fusion_lat": 0.0, "lat": 38.918764833333334, "is_reserved": 0}, {"lon": -77.03867433333333, "fusion_lon": 0.0, "bike_id": "354e64ae77c3d42ab152b49d4cc87386", "type": "electric_scooter", "name": "354e64ae77c3d42ab152b49d4cc87386", "rental_uris": {"android": "https://dc.lft.to/lastmile_qr_scan", "ios": "https://dc.lft.to/lastmile_qr_scan"}, "is_disabled": 0, "fusion_lat": 0.0, "lat": 38.921516, "is_reserved": 0}, {"lon": -77.03652866666667, "fusion_lon": 0.0, "bike_id": "6c7154dd76c3e31744d071ba124fbfaa", "type": "electric_scooter", "name": "6c7154dd76c3e31744d071ba124fbfaa", "rental_uris": {"android": "https://dc.lft.to/lastmile_qr_scan", "ios": "https://dc.lft.to/lastmile_qr_scan"}, "is_disabled": 0, "fusion_lat": 0.0, "lat": 38.918724166666664, "is_reserved": 0}, {"lon": -77.0559065, "fusion_lon": 0.0, "bike_id": "448801a64b84f5d59edfbfe4fc425dbb", "type": "electric_scooter", "name": "448801a64b84f5d59edfbfe4fc425dbb", "rental_uris": {"android": "https://dc.lft.to/lastmile_qr_scan", "ios": "https://dc.lft.to/lastmile_qr_scan"}, "is_disabled": 0, "fusion_lat": 0.0, "lat": 38.93696083333333, "is_reserved": 0}, {"lon": -77.029615, "fusion_lon": 0.0, "bike_id": "7c44c4d55fb029962f54f6b076100841", "type": "electric_scooter", "name": "7c44c4d55fb029962f54f6b076100841", "rental_uris": {"android": "https://dc.lft.to/lastmile_qr_scan", "ios": "https://dc.lft.to/lastmile_qr_scan"}, "is_disabled": 0, "fusion_lat": 0.0, "lat": 38.922735333333335, "is_reserved": 0}, {"lon": -77.01967433333333, "fusion_lon": 0.0, "bike_id": "b4950f10b0231c1884c0365c92ceb165", "type": "electric_scooter", "name": "b4950f10b0231c1884c0365c92ceb165", "rental_uris": {"android": "https://dc.lft.to/lastmile_qr_scan", "ios": "https://dc.lft.to/lastmile_qr_scan"}, "is_disabled": 0, "fusion_lat": 0.0, "lat": 38.89354216666667, "is_reserved": 0}, {"lon": -76.98702083333333, "fusion_lon": 0.0, "bike_id": "cc5a832eae55c6b6318964fdf35c9e97", "type": "electric_scooter", "name": "cc5a832eae55c6b6318964fdf35c9e97", "rental_uris": {"android": "https://dc.lft.to/lastmile_qr_scan", "ios": "https://dc.lft.to/lastmile_qr_scan"}, "is_disabled": 0, "fusion_lat": 0.0, "lat": 38.867239833333336, "is_reserved": 0}, {"lon": -77.03848966666666, "fusion_lon": 0.0, "bike_id": "591191f5449bba58174fbbd7185b544c", "type": "electric_scooter", "name": "591191f5449bba58174fbbd7185b544c", "rental_uris": {"android": "https://dc.lft.to/lastmile_qr_scan", "ios": "https://dc.lft.to/lastmile_qr_scan"}, "is_disabled": 0, "fusion_lat": 0.0, "lat": 38.90672883333333, "is_reserved": 0}, {"lon": -77.02897616666667, "fusion_lon": 0.0, "bike_id": "435714982747a500b87a439bde67b66b", "type": "electric_scooter", "name": "435714982747a500b87a439bde67b66b", "rental_uris": {"android": "https://dc.lft.to/lastmile_qr_scan", "ios": "https://dc.lft.to/lastmile_qr_scan"}, "is_disabled": 0, "fusion_lat": 0.0, "lat": 38.90453266666667, "is_reserved": 0}, {"lon": -77.02709933333334, "fusion_lon": 0.0, "bike_id": "06fda8847e21ffa5ca12f5500f10b445", "type": "electric_scooter", "name": "06fda8847e21ffa5ca12f5500f10b445", "rental_uris": {"android": "https://dc.lft.to/lastmile_qr_scan", "ios": "https://dc.lft.to/lastmile_qr_scan"}, "is_disabled": 0, "fusion_lat": 0.0, "lat": 38.881377, "is_reserved": 0}, {"lon": -77.01738616666667, "fusion_lon": 0.0, "bike_id": "84511fa0d7025ef4646f5c52b10f24ef", "type": "electric_scooter", "name": "84511fa0d7025ef4646f5c52b10f24ef", "rental_uris": {"android": "https://dc.lft.to/lastmile_qr_scan", "ios": "https://dc.lft.to/lastmile_qr_scan"}, "is_disabled": 0, "fusion_lat": 0.0, "lat": 38.9026835, "is_reserved": 0}, {"lon": -77.00282633333333, "fusion_lon": 0.0, "bike_id": "e591c11cb8cca92d86f98ce775ad8698", "type": "electric_scooter", "name": "e591c11cb8cca92d86f98ce775ad8698", "rental_uris": {"android": "https://dc.lft.to/lastmile_qr_scan", "ios": "https://dc.lft.to/lastmile_qr_scan"}, "is_disabled": 0, "fusion_lat": 0.0, "lat": 38.8772295, "is_reserved": 0}, {"lon": -77.02483333333333, "fusion_lon": 0.0, "bike_id": "2edc7aac2b678ae95f899e580b098bb7", "type": "electric_scooter", "name": "2edc7aac2b678ae95f899e580b098bb7", "rental_uris": {"android": "https://dc.lft.to/lastmile_qr_scan", "ios": "https://dc.lft.to/lastmile_qr_scan"}, "is_disabled": 0, "fusion_lat": 0.0, "lat": 38.930952833333336, "is_reserved": 0}, {"lon": -77.0032575, "fusion_lon": 0.0, "bike_id": "2b6302c8b042c7d113b49d17b8cb5374", "type": "electric_scooter", "name": "2b6302c8b042c7d113b49d17b8cb5374", "rental_uris": {"android": "https://dc.lft.to/lastmile_qr_scan", "ios": "https://dc.lft.to/lastmile_qr_scan"}, "is_disabled": 0, "fusion_lat": 0.0, "lat": 38.88502166666667, "is_reserved": 0}, {"lon": -77.04977033333333, "fusion_lon": 0.0, "bike_id": "52c16658e0a5e7f4f43aabf72ade8a49", "type": "electric_scooter", "name": "52c16658e0a5e7f4f43aabf72ade8a49", "rental_uris": {"android": "https://dc.lft.to/lastmile_qr_scan", "ios": "https://dc.lft.to/lastmile_qr_scan"}, "is_disabled": 0, "fusion_lat": 0.0, "lat": 38.91794933333333, "is_reserved": 0}, {"lon": -77.03415916666667, "fusion_lon": 0.0, "bike_id": "99cbd2de1bd33f3591c3d06c65aa8efa", "type": "electric_scooter", "name": "99cbd2de1bd33f3591c3d06c65aa8efa", "rental_uris": {"android": "https://dc.lft.to/lastmile_qr_scan", "ios": "https://dc.lft.to/lastmile_qr_scan"}, "is_disabled": 0, "fusion_lat": 0.0, "lat": 38.903774, "is_reserved": 0}, {"lon": -77.053904, "fusion_lon": 0.0, "bike_id": "eb29cf986b2e2889eb563c25921bc8a8", "type": "electric_scooter", "name": "eb29cf986b2e2889eb563c25921bc8a8", "rental_uris": {"android": "https://dc.lft.to/lastmile_qr_scan", "ios": "https://dc.lft.to/lastmile_qr_scan"}, "is_disabled": 0, "fusion_lat": 0.0, "lat": 38.901378333333334, "is_reserved": 0}, {"lon": -77.0013615, "fusion_lon": 0.0, "bike_id": "5fa4f169adce63a3382830f18d649ad6", "type": "electric_scooter", "name": "5fa4f169adce63a3382830f18d649ad6", "rental_uris": {"android": "https://dc.lft.to/lastmile_qr_scan", "ios": "https://dc.lft.to/lastmile_qr_scan"}, "is_disabled": 0, "fusion_lat": 0.0, "lat": 38.878829, "is_reserved": 0}, {"lon": -77.0376835, "fusion_lon": 0.0, "bike_id": "5c7ccded9a2fc2f8c060d05b1dd49e6c", "type": "electric_scooter", "name": "5c7ccded9a2fc2f8c060d05b1dd49e6c", "rental_uris": {"android": "https://dc.lft.to/lastmile_qr_scan", "ios": "https://dc.lft.to/lastmile_qr_scan"}, "is_disabled": 0, "fusion_lat": 0.0, "lat": 38.930694333333335, "is_reserved": 0}, {"lon": -77.037245, "fusion_lon": 0.0, "bike_id": "a5ab6dc7d78cbe6b6eb17ee08814878a", "type": "electric_scooter", "name": "a5ab6dc7d78cbe6b6eb17ee08814878a", "rental_uris": {"android": "https://dc.lft.to/lastmile_qr_scan", "ios": "https://dc.lft.to/lastmile_qr_scan"}, "is_disabled": 0, "fusion_lat": 0.0, "lat": 38.91110716666667, "is_reserved": 0}, {"lon": -76.93341266666667, "fusion_lon": 0.0, "bike_id": "ea6192d84b582e71dd8a7e9bce9f046d", "type": "electric_scooter", "name": "ea6192d84b582e71dd8a7e9bce9f046d", "rental_uris": {"android": "https://dc.lft.to/lastmile_qr_scan", "ios": "https://dc.lft.to/lastmile_qr_scan"}, "is_disabled": 0, "fusion_lat": 0.0, "lat": 38.908683, "is_reserved": 0}, {"lon": -77.02175883333334, "fusion_lon": 0.0, "bike_id": "f20ab545b2876bf0489a8bdab1131899", "type": "electric_scooter", "name": "f20ab545b2876bf0489a8bdab1131899", "rental_uris": {"android": "https://dc.lft.to/lastmile_qr_scan", "ios": "https://dc.lft.to/lastmile_qr_scan"}, "is_disabled": 0, "fusion_lat": 0.0, "lat": 38.9056955, "is_reserved": 0}, {"lon": -77.01950783333334, "fusion_lon": 0.0, "bike_id": "0fab76ce0ceca3e54e1fb4d04342197a", "type": "electric_scooter", "name": "0fab76ce0ceca3e54e1fb4d04342197a", "rental_uris": {"android": "https://dc.lft.to/lastmile_qr_scan", "ios": "https://dc.lft.to/lastmile_qr_scan"}, "is_disabled": 0, "fusion_lat": 0.0, "lat": 38.92327233333334, "is_reserved": 0}, {"lon": -77.0176925, "fusion_lon": 0.0, "bike_id": "a756bd7640d4ca2c472dcd365c82eb5b", "type": "electric_scooter", "name": "a756bd7640d4ca2c472dcd365c82eb5b", "rental_uris": {"android": "https://dc.lft.to/lastmile_qr_scan", "ios": "https://dc.lft.to/lastmile_qr_scan"}, "is_disabled": 0, "fusion_lat": 0.0, "lat": 38.877538666666666, "is_reserved": 0}, {"lon": -77.02722866666667, "fusion_lon": 0.0, "bike_id": "33c0ba0cf855e9272770f726c37d7c3b", "type": "electric_scooter", "name": "33c0ba0cf855e9272770f726c37d7c3b", "rental_uris": {"android": "https://dc.lft.to/lastmile_qr_scan", "ios": "https://dc.lft.to/lastmile_qr_scan"}, "is_disabled": 0, "fusion_lat": 0.0, "lat": 38.927909, "is_reserved": 0}, {"lon": -76.98607766666666, "fusion_lon": 0.0, "bike_id": "c8d4d61d5925c9b5b456d7ca8d159dc6", "type": "electric_scooter", "name": "c8d4d61d5925c9b5b456d7ca8d159dc6", "rental_uris": {"android": "https://dc.lft.to/lastmile_qr_scan", "ios": "https://dc.lft.to/lastmile_qr_scan"}, "is_disabled": 0, "fusion_lat": 0.0, "lat": 38.86009466666667, "is_reserved": 0}, {"lon": -77.03111133333333, "fusion_lon": 0.0, "bike_id": "a6c56f6bb9dcbbb13e9fddc340616b64", "type": "electric_scooter", "name": "a6c56f6bb9dcbbb13e9fddc340616b64", "rental_uris": {"android": "https://dc.lft.to/lastmile_qr_scan", "ios": "https://dc.lft.to/lastmile_qr_scan"}, "is_disabled": 0, "fusion_lat": 0.0, "lat": 38.91919766666667, "is_reserved": 0}, {"lon": -77.03306083333334, "fusion_lon": 0.0, "bike_id": "196db283bd00a55f1e8eb4db7c5fafe1", "type": "electric_scooter", "name": "196db283bd00a55f1e8eb4db7c5fafe1", "rental_uris": {"android": "https://dc.lft.to/lastmile_qr_scan", "ios": "https://dc.lft.to/lastmile_qr_scan"}, "is_disabled": 0, "fusion_lat": 0.0, "lat": 38.91040483333333, "is_reserved": 0}, {"lon": -77.02533233333334, "fusion_lon": 0.0, "bike_id": "7a617a86c1b3a0bd53a3815d76d6501f", "type": "electric_scooter", "name": "7a617a86c1b3a0bd53a3815d76d6501f", "rental_uris": {"android": "https://dc.lft.to/lastmile_qr_scan", "ios": "https://dc.lft.to/lastmile_qr_scan"}, "is_disabled": 0, "fusion_lat": 0.0, "lat": 38.91924183333333, "is_reserved": 0}, {"lon": -77.02429366666667, "fusion_lon": 0.0, "bike_id": "16fd9a0c7f274a3165f141cce51c4c93", "type": "electric_scooter", "name": "16fd9a0c7f274a3165f141cce51c4c93", "rental_uris": {"android": "https://dc.lft.to/lastmile_qr_scan", "ios": "https://dc.lft.to/lastmile_qr_scan"}, "is_disabled": 0, "fusion_lat": 0.0, "lat": 38.92649566666667, "is_reserved": 0}, {"lon": -77.052364, "fusion_lon": 0.0, "bike_id": "657edf045084c77bccf2f07f801de46d", "type": "electric_scooter", "name": "657edf045084c77bccf2f07f801de46d", "rental_uris": {"android": "https://dc.lft.to/lastmile_qr_scan", "ios": "https://dc.lft.to/lastmile_qr_scan"}, "is_disabled": 0, "fusion_lat": 0.0, "lat": 38.92509416666667, "is_reserved": 0}, {"lon": -76.95968616666667, "fusion_lon": 0.0, "bike_id": "eec5dd8fcba7d8eca945808b3c809928", "type": "electric_bike", "name": "eec5dd8fcba7d8eca945808b3c809928", "rental_uris": {"android": "https://dc.lft.to/lastmile_qr_scan", "ios": "https://dc.lft.to/lastmile_qr_scan"}, "is_disabled": 0, "fusion_lat": 0.0, "lat": 38.94804883333333, "is_reserved": 0}, {"lon": -77.0362205, "fusion_lon": 0.0, "bike_id": "8d1449dcf8d32d37b98235fb2527783a", "type": "electric_scooter", "name": "8d1449dcf8d32d37b98235fb2527783a", "rental_uris": {"android": "https://dc.lft.to/lastmile_qr_scan", "ios": "https://dc.lft.to/lastmile_qr_scan"}, "is_disabled": 0, "fusion_lat": 0.0, "lat": 38.937363500000004, "is_reserved": 0}, {"lon": -76.97604766666667, "fusion_lon": 0.0, "bike_id": "548e808871bbd03f8f0eabc9c86b9a24", "type": "electric_scooter", "name": "548e808871bbd03f8f0eabc9c86b9a24", "rental_uris": {"android": "https://dc.lft.to/lastmile_qr_scan", "ios": "https://dc.lft.to/lastmile_qr_scan"}, "is_disabled": 0, "fusion_lat": 0.0, "lat": 38.94021333333333, "is_reserved": 0}, {"lon": -77.0052595, "fusion_lon": 0.0, "bike_id": "b64159ecd693a2c985bd9026081e3b8d", "type": "electric_scooter", "name": "b64159ecd693a2c985bd9026081e3b8d", "rental_uris": {"android": "https://dc.lft.to/lastmile_qr_scan", "ios": "https://dc.lft.to/lastmile_qr_scan"}, "is_disabled": 0, "fusion_lat": 0.0, "lat": 38.8771035, "is_reserved": 0}, {"lon": -77.0774905, "fusion_lon": 0.0, "bike_id": "ee002d5c874ce39e4ee9283e9ed08044", "type": "electric_scooter", "name": "ee002d5c874ce39e4ee9283e9ed08044", "rental_uris": {"android": "https://dc.lft.to/lastmile_qr_scan", "ios": "https://dc.lft.to/lastmile_qr_scan"}, "is_disabled": 0, "fusion_lat": 0.0, "lat": 38.911654, "is_reserved": 0}, {"lon": -77.0217825, "fusion_lon": 0.0, "bike_id": "5bf638dc4875c8ab695a5a4c357edc71", "type": "electric_scooter", "name": "5bf638dc4875c8ab695a5a4c357edc71", "rental_uris": {"android": "https://dc.lft.to/lastmile_qr_scan", "ios": "https://dc.lft.to/lastmile_qr_scan"}, "is_disabled": 0, "fusion_lat": 0.0, "lat": 38.909806333333336, "is_reserved": 0}, {"lon": -76.9486005, "fusion_lon": 0.0, "bike_id": "f53fa024cb07315f3bb4cd2d000f5bfb", "type": "electric_scooter", "name": "f53fa024cb07315f3bb4cd2d000f5bfb", "rental_uris": {"android": "https://dc.lft.to/lastmile_qr_scan", "ios": "https://dc.lft.to/lastmile_qr_scan"}, "is_disabled": 0, "fusion_lat": 0.0, "lat": 38.89479583333333, "is_reserved": 0}, {"lon": -77.03081916666666, "fusion_lon": 0.0, "bike_id": "eb3a90eaa2eae01737c1bb38ecab3f35", "type": "electric_scooter", "name": "eb3a90eaa2eae01737c1bb38ecab3f35", "rental_uris": {"android": "https://dc.lft.to/lastmile_qr_scan", "ios": "https://dc.lft.to/lastmile_qr_scan"}, "is_disabled": 0, "fusion_lat": 0.0, "lat": 38.91061233333333, "is_reserved": 0}, {"lon": -77.03614716666667, "fusion_lon": 0.0, "bike_id": "c5ba5a3d55cbb361f17bfacd3778c480", "type": "electric_scooter", "name": "c5ba5a3d55cbb361f17bfacd3778c480", "rental_uris": {"android": "https://dc.lft.to/lastmile_qr_scan", "ios": "https://dc.lft.to/lastmile_qr_scan"}, "is_disabled": 0, "fusion_lat": 0.0, "lat": 38.917087, "is_reserved": 0}, {"lon": -77.034511, "fusion_lon": 0.0, "bike_id": "5e666283d5bc86952b84902f86495f74", "type": "electric_scooter", "name": "5e666283d5bc86952b84902f86495f74", "rental_uris": {"android": "https://dc.lft.to/lastmile_qr_scan", "ios": "https://dc.lft.to/lastmile_qr_scan"}, "is_disabled": 0, "fusion_lat": 0.0, "lat": 38.90735933333333, "is_reserved": 0}, {"lon": -76.94633333333333, "fusion_lon": 0.0, "bike_id": "135975584f19c146593bd587a5423306", "type": "electric_scooter", "name": "135975584f19c146593bd587a5423306", "rental_uris": {"android": "https://dc.lft.to/lastmile_qr_scan", "ios": "https://dc.lft.to/lastmile_qr_scan"}, "is_disabled": 0, "fusion_lat": 0.0, "lat": 38.89865983333333, "is_reserved": 0}, {"lon": -76.98551916666666, "fusion_lon": 0.0, "bike_id": "bfc320aeb17ba0ccb1505db9d50dafc2", "type": "electric_scooter", "name": "bfc320aeb17ba0ccb1505db9d50dafc2", "rental_uris": {"android": "https://dc.lft.to/lastmile_qr_scan", "ios": "https://dc.lft.to/lastmile_qr_scan"}, "is_disabled": 0, "fusion_lat": 0.0, "lat": 38.88375033333333, "is_reserved": 0}, {"lon": -77.02806533333333, "fusion_lon": 0.0, "bike_id": "d84d0390a4cb71b867ec0b4ab96eb7d3", "type": "electric_scooter", "name": "d84d0390a4cb71b867ec0b4ab96eb7d3", "rental_uris": {"android": "https://dc.lft.to/lastmile_qr_scan", "ios": "https://dc.lft.to/lastmile_qr_scan"}, "is_disabled": 0, "fusion_lat": 0.0, "lat": 38.90088, "is_reserved": 0}, {"lon": -77.01594133333333, "fusion_lon": 0.0, "bike_id": "838ea7acc3de373889b6be344fafd915", "type": "electric_scooter", "name": "838ea7acc3de373889b6be344fafd915", "rental_uris": {"android": "https://dc.lft.to/lastmile_qr_scan", "ios": "https://dc.lft.to/lastmile_qr_scan"}, "is_disabled": 0, "fusion_lat": 0.0, "lat": 38.89924533333333, "is_reserved": 0}, {"lon": -77.0245805, "fusion_lon": 0.0, "bike_id": "e89a90246aabefb240bda0dcd20f1590", "type": "electric_scooter", "name": "e89a90246aabefb240bda0dcd20f1590", "rental_uris": {"android": "https://dc.lft.to/lastmile_qr_scan", "ios": "https://dc.lft.to/lastmile_qr_scan"}, "is_disabled": 0, "fusion_lat": 0.0, "lat": 38.884407833333334, "is_reserved": 0}, {"lon": -77.04546133333334, "fusion_lon": 0.0, "bike_id": "3da5dee696440e731cb335b8a017e8de", "type": "electric_scooter", "name": "3da5dee696440e731cb335b8a017e8de", "rental_uris": {"android": "https://dc.lft.to/lastmile_qr_scan", "ios": "https://dc.lft.to/lastmile_qr_scan"}, "is_disabled": 0, "fusion_lat": 0.0, "lat": 38.91936783333333, "is_reserved": 0}, {"lon": -77.00058016666667, "fusion_lon": 0.0, "bike_id": "53fd048c13777441ecf5a91d522b9f6c", "type": "electric_scooter", "name": "53fd048c13777441ecf5a91d522b9f6c", "rental_uris": {"android": "https://dc.lft.to/lastmile_qr_scan", "ios": "https://dc.lft.to/lastmile_qr_scan"}, "is_disabled": 0, "fusion_lat": 0.0, "lat": 38.87359716666667, "is_reserved": 0}, {"lon": -77.023828, "fusion_lon": 0.0, "bike_id": "57ebd5d5e5d8296392eeadd53519e8a3", "type": "electric_scooter", "name": "57ebd5d5e5d8296392eeadd53519e8a3", "rental_uris": {"android": "https://dc.lft.to/lastmile_qr_scan", "ios": "https://dc.lft.to/lastmile_qr_scan"}, "is_disabled": 0, "fusion_lat": 0.0, "lat": 38.91273116666667, "is_reserved": 0}, {"lon": -77.01716116666667, "fusion_lon": 0.0, "bike_id": "a9279b13ae490ec28853d58cc1a2da51", "type": "electric_scooter", "name": "a9279b13ae490ec28853d58cc1a2da51", "rental_uris": {"android": "https://dc.lft.to/lastmile_qr_scan", "ios": "https://dc.lft.to/lastmile_qr_scan"}, "is_disabled": 0, "fusion_lat": 0.0, "lat": 38.91740566666667, "is_reserved": 0}, {"lon": -76.98707466666667, "fusion_lon": 0.0, "bike_id": "312be44e2465bb52b4b73687c791d87c", "type": "electric_scooter", "name": "312be44e2465bb52b4b73687c791d87c", "rental_uris": {"android": "https://dc.lft.to/lastmile_qr_scan", "ios": "https://dc.lft.to/lastmile_qr_scan"}, "is_disabled": 0, "fusion_lat": 0.0, "lat": 38.8632975, "is_reserved": 0}, {"lon": -77.027125, "fusion_lon": 0.0, "bike_id": "d99ebd67ce1d1fb44524d15182737cea", "type": "electric_scooter", "name": "d99ebd67ce1d1fb44524d15182737cea", "rental_uris": {"android": "https://dc.lft.to/lastmile_qr_scan", "ios": "https://dc.lft.to/lastmile_qr_scan"}, "is_disabled": 0, "fusion_lat": 0.0, "lat": 38.924595, "is_reserved": 0}, {"lon": -77.05510116666666, "fusion_lon": 0.0, "bike_id": "32f41a7216840596e0ebfa27318e17e3", "type": "electric_scooter", "name": "32f41a7216840596e0ebfa27318e17e3", "rental_uris": {"android": "https://dc.lft.to/lastmile_qr_scan", "ios": "https://dc.lft.to/lastmile_qr_scan"}, "is_disabled": 0, "fusion_lat": 0.0, "lat": 38.928291, "is_reserved": 0}, {"lon": -77.06472333333333, "fusion_lon": 0.0, "bike_id": "441ec3401872019df99a35784c64b9e6", "type": "electric_bike", "name": "441ec3401872019df99a35784c64b9e6", "rental_uris": {"android": "https://dc.lft.to/lastmile_qr_scan", "ios": "https://dc.lft.to/lastmile_qr_scan"}, "is_disabled": 0, "fusion_lat": 0.0, "lat": 38.973840833333334, "is_reserved": 0}, {"lon": -77.03861833333333, "fusion_lon": 0.0, "bike_id": "4f375712d31a045ae9b69071536df2ca", "type": "electric_scooter", "name": "4f375712d31a045ae9b69071536df2ca", "rental_uris": {"android": "https://dc.lft.to/lastmile_qr_scan", "ios": "https://dc.lft.to/lastmile_qr_scan"}, "is_disabled": 0, "fusion_lat": 0.0, "lat": 38.915522333333335, "is_reserved": 0}, {"lon": -77.0341495, "fusion_lon": 0.0, "bike_id": "97c205fe4e7d321019c66b4196db0884", "type": "electric_scooter", "name": "97c205fe4e7d321019c66b4196db0884", "rental_uris": {"android": "https://dc.lft.to/lastmile_qr_scan", "ios": "https://dc.lft.to/lastmile_qr_scan"}, "is_disabled": 0, "fusion_lat": 0.0, "lat": 38.922691666666665, "is_reserved": 0}, {"lon": -77.0154995, "fusion_lon": 0.0, "bike_id": "d325eb719d571e0607054f0c0f7ed4a4", "type": "electric_scooter", "name": "d325eb719d571e0607054f0c0f7ed4a4", "rental_uris": {"android": "https://dc.lft.to/lastmile_qr_scan", "ios": "https://dc.lft.to/lastmile_qr_scan"}, "is_disabled": 0, "fusion_lat": 0.0, "lat": 38.94125716666667, "is_reserved": 0}, {"lon": -77.036706, "fusion_lon": 0.0, "bike_id": "86e692115d76439607afe3d702d11c22", "type": "electric_scooter", "name": "86e692115d76439607afe3d702d11c22", "rental_uris": {"android": "https://dc.lft.to/lastmile_qr_scan", "ios": "https://dc.lft.to/lastmile_qr_scan"}, "is_disabled": 0, "fusion_lat": 0.0, "lat": 38.921592, "is_reserved": 0}, {"lon": -77.04031566666667, "fusion_lon": 0.0, "bike_id": "3449047ca9b6cd79ff4a6bcf9d69b0bd", "type": "electric_scooter", "name": "3449047ca9b6cd79ff4a6bcf9d69b0bd", "rental_uris": {"android": "https://dc.lft.to/lastmile_qr_scan", "ios": "https://dc.lft.to/lastmile_qr_scan"}, "is_disabled": 0, "fusion_lat": 0.0, "lat": 38.92413416666667, "is_reserved": 0}, {"lon": -77.03610716666667, "fusion_lon": 0.0, "bike_id": "dcdc0de8cfa739bf1a46584e5fcdb9cf", "type": "electric_scooter", "name": "dcdc0de8cfa739bf1a46584e5fcdb9cf", "rental_uris": {"android": "https://dc.lft.to/lastmile_qr_scan", "ios": "https://dc.lft.to/lastmile_qr_scan"}, "is_disabled": 0, "fusion_lat": 0.0, "lat": 38.9070935, "is_reserved": 0}, {"lon": -77.0051795, "fusion_lon": 0.0, "bike_id": "e0221cc5249f8010a7a5579fd47a4e9b", "type": "electric_scooter", "name": "e0221cc5249f8010a7a5579fd47a4e9b", "rental_uris": {"android": "https://dc.lft.to/lastmile_qr_scan", "ios": "https://dc.lft.to/lastmile_qr_scan"}, "is_disabled": 0, "fusion_lat": 0.0, "lat": 38.87471566666667, "is_reserved": 0}, {"lon": -76.93972716666667, "fusion_lon": 0.0, "bike_id": "add80255de6092b3ed3df7349025151f", "type": "electric_scooter", "name": "add80255de6092b3ed3df7349025151f", "rental_uris": {"android": "https://dc.lft.to/lastmile_qr_scan", "ios": "https://dc.lft.to/lastmile_qr_scan"}, "is_disabled": 0, "fusion_lat": 0.0, "lat": 38.893429833333336, "is_reserved": 0}, {"lon": -77.04634783333333, "fusion_lon": 0.0, "bike_id": "8bc873709a84a20309b44d5283764839", "type": "electric_scooter", "name": "8bc873709a84a20309b44d5283764839", "rental_uris": {"android": "https://dc.lft.to/lastmile_qr_scan", "ios": "https://dc.lft.to/lastmile_qr_scan"}, "is_disabled": 0, "fusion_lat": 0.0, "lat": 38.90343816666667, "is_reserved": 0}, {"lon": -77.02547266666667, "fusion_lon": 0.0, "bike_id": "98a62ccb642e516d98ec93443c4cfe6c", "type": "electric_scooter", "name": "98a62ccb642e516d98ec93443c4cfe6c", "rental_uris": {"android": "https://dc.lft.to/lastmile_qr_scan", "ios": "https://dc.lft.to/lastmile_qr_scan"}, "is_disabled": 0, "fusion_lat": 0.0, "lat": 38.919189333333335, "is_reserved": 0}, {"lon": -77.00680666666666, "fusion_lon": 0.0, "bike_id": "8512e07813c96371a2f6261caca1b01e", "type": "electric_scooter", "name": "8512e07813c96371a2f6261caca1b01e", "rental_uris": {"android": "https://dc.lft.to/lastmile_qr_scan", "ios": "https://dc.lft.to/lastmile_qr_scan"}, "is_disabled": 0, "fusion_lat": 0.0, "lat": 38.8717095, "is_reserved": 0}, {"lon": -77.03437566666666, "fusion_lon": 0.0, "bike_id": "5ac3ee389597b842effbbec9ffea0c6a", "type": "electric_scooter", "name": "5ac3ee389597b842effbbec9ffea0c6a", "rental_uris": {"android": "https://dc.lft.to/lastmile_qr_scan", "ios": "https://dc.lft.to/lastmile_qr_scan"}, "is_disabled": 0, "fusion_lat": 0.0, "lat": 38.909724, "is_reserved": 0}, {"lon": -76.9853305, "fusion_lon": 0.0, "bike_id": "8d98a29553788d89cb40b6cfc1bdb1fa", "type": "electric_bike", "name": "8d98a29553788d89cb40b6cfc1bdb1fa", "rental_uris": {"android": "https://dc.lft.to/lastmile_qr_scan", "ios": "https://dc.lft.to/lastmile_qr_scan"}, "is_disabled": 0, "fusion_lat": 0.0, "lat": 38.8808205, "is_reserved": 0}, {"lon": -77.064067, "fusion_lon": 0.0, "bike_id": "60287f498cb897d3c8636ddcc46947f4", "type": "electric_scooter", "name": "60287f498cb897d3c8636ddcc46947f4", "rental_uris": {"android": "https://dc.lft.to/lastmile_qr_scan", "ios": "https://dc.lft.to/lastmile_qr_scan"}, "is_disabled": 0, "fusion_lat": 0.0, "lat": 38.944385, "is_reserved": 0}, {"lon": -76.98374516666667, "fusion_lon": 0.0, "bike_id": "7df3a14a8487ea0957d2edf4e0d8fbf8", "type": "electric_scooter", "name": "7df3a14a8487ea0957d2edf4e0d8fbf8", "rental_uris": {"android": "https://dc.lft.to/lastmile_qr_scan", "ios": "https://dc.lft.to/lastmile_qr_scan"}, "is_disabled": 0, "fusion_lat": 0.0, "lat": 38.91498033333333, "is_reserved": 0}, {"lon": -77.01512066666666, "fusion_lon": 0.0, "bike_id": "76a0a2b9a494c7219e9f86eff9b241d9", "type": "electric_scooter", "name": "76a0a2b9a494c7219e9f86eff9b241d9", "rental_uris": {"android": "https://dc.lft.to/lastmile_qr_scan", "ios": "https://dc.lft.to/lastmile_qr_scan"}, "is_disabled": 0, "fusion_lat": 0.0, "lat": 38.913203333333335, "is_reserved": 0}, {"lon": -77.05579566666667, "fusion_lon": 0.0, "bike_id": "17dc4bd5117d247d5acec64ad35193a7", "type": "electric_scooter", "name": "17dc4bd5117d247d5acec64ad35193a7", "rental_uris": {"android": "https://dc.lft.to/lastmile_qr_scan", "ios": "https://dc.lft.to/lastmile_qr_scan"}, "is_disabled": 0, "fusion_lat": 0.0, "lat": 38.89994683333333, "is_reserved": 0}, {"lon": -77.01752866666666, "fusion_lon": 0.0, "bike_id": "6df1a8ad0773abe670c11a9ef8a70b0b", "type": "electric_scooter", "name": "6df1a8ad0773abe670c11a9ef8a70b0b", "rental_uris": {"android": "https://dc.lft.to/lastmile_qr_scan", "ios": "https://dc.lft.to/lastmile_qr_scan"}, "is_disabled": 0, "fusion_lat": 0.0, "lat": 38.9026655, "is_reserved": 0}, {"lon": -76.99992233333333, "fusion_lon": 0.0, "bike_id": "43cfc20f2093c5a916bc957358b1b22d", "type": "electric_bike", "name": "43cfc20f2093c5a916bc957358b1b22d", "rental_uris": {"android": "https://dc.lft.to/lastmile_qr_scan", "ios": "https://dc.lft.to/lastmile_qr_scan"}, "is_disabled": 0, "fusion_lat": 0.0, "lat": 38.96408433333333, "is_reserved": 0}, {"lon": -76.96898333333333, "fusion_lon": 0.0, "bike_id": "0b0e973afb1e1c643eb4c21eabc75185", "type": "electric_bike", "name": "0b0e973afb1e1c643eb4c21eabc75185", "rental_uris": {"android": "https://dc.lft.to/lastmile_qr_scan", "ios": "https://dc.lft.to/lastmile_qr_scan"}, "is_disabled": 0, "fusion_lat": 0.0, "lat": 38.9599815, "is_reserved": 0}, {"lon": -77.04702583333334, "fusion_lon": 0.0, "bike_id": "f51e08bdc6e2692310ef4b0ffbe99a61", "type": "electric_scooter", "name": "f51e08bdc6e2692310ef4b0ffbe99a61", "rental_uris": {"android": "https://dc.lft.to/lastmile_qr_scan", "ios": "https://dc.lft.to/lastmile_qr_scan"}, "is_disabled": 0, "fusion_lat": 0.0, "lat": 38.92174116666666, "is_reserved": 0}, {"lon": -77.03309516666667, "fusion_lon": 0.0, "bike_id": "840eab9d18ac519cd1f4940a61678ada", "type": "electric_scooter", "name": "840eab9d18ac519cd1f4940a61678ada", "rental_uris": {"android": "https://dc.lft.to/lastmile_qr_scan", "ios": "https://dc.lft.to/lastmile_qr_scan"}, "is_disabled": 0, "fusion_lat": 0.0, "lat": 38.9072555, "is_reserved": 0}, {"lon": -77.04484816666667, "fusion_lon": 0.0, "bike_id": "df4684f0db9c2bb49d899e6d965941c1", "type": "electric_scooter", "name": "df4684f0db9c2bb49d899e6d965941c1", "rental_uris": {"android": "https://dc.lft.to/lastmile_qr_scan", "ios": "https://dc.lft.to/lastmile_qr_scan"}, "is_disabled": 0, "fusion_lat": 0.0, "lat": 38.9094615, "is_reserved": 0}, {"lon": -77.0206315, "fusion_lon": 0.0, "bike_id": "cfa73640722e2a1742a01964c56ef46e", "type": "electric_scooter", "name": "cfa73640722e2a1742a01964c56ef46e", "rental_uris": {"android": "https://dc.lft.to/lastmile_qr_scan", "ios": "https://dc.lft.to/lastmile_qr_scan"}, "is_disabled": 0, "fusion_lat": 0.0, "lat": 38.92722583333333, "is_reserved": 0}, {"lon": -77.03838283333333, "fusion_lon": 0.0, "bike_id": "9014ad97d34eade79983484d69658f42", "type": "electric_scooter", "name": "9014ad97d34eade79983484d69658f42", "rental_uris": {"android": "https://dc.lft.to/lastmile_qr_scan", "ios": "https://dc.lft.to/lastmile_qr_scan"}, "is_disabled": 0, "fusion_lat": 0.0, "lat": 38.911522, "is_reserved": 0}, {"lon": -77.00653583333333, "fusion_lon": 0.0, "bike_id": "62f4c3622ad1a4feb7b6ae3fbc95afab", "type": "electric_scooter", "name": "62f4c3622ad1a4feb7b6ae3fbc95afab", "rental_uris": {"android": "https://dc.lft.to/lastmile_qr_scan", "ios": "https://dc.lft.to/lastmile_qr_scan"}, "is_disabled": 0, "fusion_lat": 0.0, "lat": 38.9118775, "is_reserved": 0}, {"lon": -77.04084933333333, "fusion_lon": 0.0, "bike_id": "e81e1f2df87d21c59bf3234c5bb774f9", "type": "electric_scooter", "name": "e81e1f2df87d21c59bf3234c5bb774f9", "rental_uris": {"android": "https://dc.lft.to/lastmile_qr_scan", "ios": "https://dc.lft.to/lastmile_qr_scan"}, "is_disabled": 0, "fusion_lat": 0.0, "lat": 38.90363266666667, "is_reserved": 0}, {"lon": -77.03977383333333, "fusion_lon": 0.0, "bike_id": "009fcde502ef698a1b6bd05dabc89f17", "type": "electric_scooter", "name": "009fcde502ef698a1b6bd05dabc89f17", "rental_uris": {"android": "https://dc.lft.to/lastmile_qr_scan", "ios": "https://dc.lft.to/lastmile_qr_scan"}, "is_disabled": 0, "fusion_lat": 0.0, "lat": 38.92321166666667, "is_reserved": 0}, {"lon": -77.046812, "fusion_lon": 0.0, "bike_id": "b8df6a60d3ee00ecec330f70d56af4e9", "type": "electric_scooter", "name": "b8df6a60d3ee00ecec330f70d56af4e9", "rental_uris": {"android": "https://dc.lft.to/lastmile_qr_scan", "ios": "https://dc.lft.to/lastmile_qr_scan"}, "is_disabled": 0, "fusion_lat": 0.0, "lat": 38.89555083333333, "is_reserved": 0}, {"lon": -77.03829733333333, "fusion_lon": 0.0, "bike_id": "8dd5e21714f2b415c88e8bd93f2c4737", "type": "electric_scooter", "name": "8dd5e21714f2b415c88e8bd93f2c4737", "rental_uris": {"android": "https://dc.lft.to/lastmile_qr_scan", "ios": "https://dc.lft.to/lastmile_qr_scan"}, "is_disabled": 0, "fusion_lat": 0.0, "lat": 38.91120566666667, "is_reserved": 0}, {"lon": -76.9889435, "fusion_lon": 0.0, "bike_id": "a41d1cfb545762a85608d90ae5ce325e", "type": "electric_scooter", "name": "a41d1cfb545762a85608d90ae5ce325e", "rental_uris": {"android": "https://dc.lft.to/lastmile_qr_scan", "ios": "https://dc.lft.to/lastmile_qr_scan"}, "is_disabled": 0, "fusion_lat": 0.0, "lat": 38.86662966666667, "is_reserved": 0}, {"lon": -77.07835666666666, "fusion_lon": 0.0, "bike_id": "0a681f4dc0171a261d6e73217bad7f34", "type": "electric_scooter", "name": "0a681f4dc0171a261d6e73217bad7f34", "rental_uris": {"android": "https://dc.lft.to/lastmile_qr_scan", "ios": "https://dc.lft.to/lastmile_qr_scan"}, "is_disabled": 0, "fusion_lat": 0.0, "lat": 38.93154216666667, "is_reserved": 0}, {"lon": -77.03833116666667, "fusion_lon": 0.0, "bike_id": "e1c0e3de4837ea84cc58fc93699c5c7b", "type": "electric_scooter", "name": "e1c0e3de4837ea84cc58fc93699c5c7b", "rental_uris": {"android": "https://dc.lft.to/lastmile_qr_scan", "ios": "https://dc.lft.to/lastmile_qr_scan"}, "is_disabled": 0, "fusion_lat": 0.0, "lat": 38.914055833333336, "is_reserved": 0}, {"lon": -76.99478683333334, "fusion_lon": 0.0, "bike_id": "38fa592c00ea521a829c81e8c900aacd", "type": "electric_scooter", "name": "38fa592c00ea521a829c81e8c900aacd", "rental_uris": {"android": "https://dc.lft.to/lastmile_qr_scan", "ios": "https://dc.lft.to/lastmile_qr_scan"}, "is_disabled": 0, "fusion_lat": 0.0, "lat": 38.862162, "is_reserved": 0}, {"lon": -77.00980416666667, "fusion_lon": 0.0, "bike_id": "850cf4e8b670791d41b943310fef4032", "type": "electric_scooter", "name": "850cf4e8b670791d41b943310fef4032", "rental_uris": {"android": "https://dc.lft.to/lastmile_qr_scan", "ios": "https://dc.lft.to/lastmile_qr_scan"}, "is_disabled": 0, "fusion_lat": 0.0, "lat": 38.91925283333333, "is_reserved": 0}, {"lon": -77.01785316666667, "fusion_lon": 0.0, "bike_id": "38781855f475b8f8543f93ee9688652f", "type": "electric_scooter", "name": "38781855f475b8f8543f93ee9688652f", "rental_uris": {"android": "https://dc.lft.to/lastmile_qr_scan", "ios": "https://dc.lft.to/lastmile_qr_scan"}, "is_disabled": 0, "fusion_lat": 0.0, "lat": 38.87748083333334, "is_reserved": 0}, {"lon": -77.0144225, "fusion_lon": 0.0, "bike_id": "f53bd61214cd42fbe2ea52f055de2ed8", "type": "electric_scooter", "name": "f53bd61214cd42fbe2ea52f055de2ed8", "rental_uris": {"android": "https://dc.lft.to/lastmile_qr_scan", "ios": "https://dc.lft.to/lastmile_qr_scan"}, "is_disabled": 0, "fusion_lat": 0.0, "lat": 38.942245666666665, "is_reserved": 0}, {"lon": -76.96537616666667, "fusion_lon": 0.0, "bike_id": "09a892ca704f9f44cb4f21ff01509f44", "type": "electric_bike", "name": "09a892ca704f9f44cb4f21ff01509f44", "rental_uris": {"android": "https://dc.lft.to/lastmile_qr_scan", "ios": "https://dc.lft.to/lastmile_qr_scan"}, "is_disabled": 0, "fusion_lat": 0.0, "lat": 38.87475416666667, "is_reserved": 0}, {"lon": -77.02274166666666, "fusion_lon": 0.0, "bike_id": "9eeb5785daf8f0fef3ab3a1230f555fd", "type": "electric_scooter", "name": "9eeb5785daf8f0fef3ab3a1230f555fd", "rental_uris": {"android": "https://dc.lft.to/lastmile_qr_scan", "ios": "https://dc.lft.to/lastmile_qr_scan"}, "is_disabled": 0, "fusion_lat": 0.0, "lat": 38.895272166666665, "is_reserved": 0}, {"lon": -76.99778366666666, "fusion_lon": 0.0, "bike_id": "36723b294025364d8425757a6c45dd58", "type": "electric_scooter", "name": "36723b294025364d8425757a6c45dd58", "rental_uris": {"android": "https://dc.lft.to/lastmile_qr_scan", "ios": "https://dc.lft.to/lastmile_qr_scan"}, "is_disabled": 0, "fusion_lat": 0.0, "lat": 38.844378666666664, "is_reserved": 0}, {"lon": -77.00355616666667, "fusion_lon": 0.0, "bike_id": "2527ccf92d99dd84a694629afc3b5284", "type": "electric_scooter", "name": "2527ccf92d99dd84a694629afc3b5284", "rental_uris": {"android": "https://dc.lft.to/lastmile_qr_scan", "ios": "https://dc.lft.to/lastmile_qr_scan"}, "is_disabled": 0, "fusion_lat": 0.0, "lat": 38.89906966666667, "is_reserved": 0}, {"lon": -77.0630505, "fusion_lon": 0.0, "bike_id": "9e9358d15e6daf3e42f1282e343437e1", "type": "electric_bike", "name": "9e9358d15e6daf3e42f1282e343437e1", "rental_uris": {"android": "https://dc.lft.to/lastmile_qr_scan", "ios": "https://dc.lft.to/lastmile_qr_scan"}, "is_disabled": 0, "fusion_lat": 0.0, "lat": 38.7985575, "is_reserved": 0}, {"lon": -77.04180433333333, "fusion_lon": 0.0, "bike_id": "f7ce9d15912d6f3b2069d3a2f7b9169b", "type": "electric_scooter", "name": "f7ce9d15912d6f3b2069d3a2f7b9169b", "rental_uris": {"android": "https://dc.lft.to/lastmile_qr_scan", "ios": "https://dc.lft.to/lastmile_qr_scan"}, "is_disabled": 0, "fusion_lat": 0.0, "lat": 38.92036483333333, "is_reserved": 0}, {"lon": -77.04199116666666, "fusion_lon": 0.0, "bike_id": "a663182589dabc11fe4aa12d9938678d", "type": "electric_scooter", "name": "a663182589dabc11fe4aa12d9938678d", "rental_uris": {"android": "https://dc.lft.to/lastmile_qr_scan", "ios": "https://dc.lft.to/lastmile_qr_scan"}, "is_disabled": 0, "fusion_lat": 0.0, "lat": 38.920307666666666, "is_reserved": 0}, {"lon": -77.03859, "fusion_lon": 0.0, "bike_id": "171b000c209d37bf67387d9ff343ac53", "type": "electric_scooter", "name": "171b000c209d37bf67387d9ff343ac53", "rental_uris": {"android": "https://dc.lft.to/lastmile_qr_scan", "ios": "https://dc.lft.to/lastmile_qr_scan"}, "is_disabled": 0, "fusion_lat": 0.0, "lat": 38.906800833333335, "is_reserved": 0}, {"lon": -76.94894516666666, "fusion_lon": 0.0, "bike_id": "79e517dec084b2df6f69be5af3cb2c9a", "type": "electric_scooter", "name": "79e517dec084b2df6f69be5af3cb2c9a", "rental_uris": {"android": "https://dc.lft.to/lastmile_qr_scan", "ios": "https://dc.lft.to/lastmile_qr_scan"}, "is_disabled": 0, "fusion_lat": 0.0, "lat": 38.89530116666667, "is_reserved": 0}, {"lon": -76.91594033333334, "fusion_lon": 0.0, "bike_id": "5fa4afa9de76bd2193a2ad6f515cfecb", "type": "electric_bike", "name": "5fa4afa9de76bd2193a2ad6f515cfecb", "rental_uris": {"android": "https://dc.lft.to/lastmile_qr_scan", "ios": "https://dc.lft.to/lastmile_qr_scan"}, "is_disabled": 0, "fusion_lat": 0.0, "lat": 38.879865333333335, "is_reserved": 0}, {"lon": -77.05256366666667, "fusion_lon": 0.0, "bike_id": "4ba15f67d5c508877437294b7d61180c", "type": "electric_scooter", "name": "4ba15f67d5c508877437294b7d61180c", "rental_uris": {"android": "https://dc.lft.to/lastmile_qr_scan", "ios": "https://dc.lft.to/lastmile_qr_scan"}, "is_disabled": 0, "fusion_lat": 0.0, "lat": 38.9277875, "is_reserved": 0}, {"lon": -76.9489125, "fusion_lon": 0.0, "bike_id": "373f5962146069dcfb0610c6728dee85", "type": "electric_scooter", "name": "373f5962146069dcfb0610c6728dee85", "rental_uris": {"android": "https://dc.lft.to/lastmile_qr_scan", "ios": "https://dc.lft.to/lastmile_qr_scan"}, "is_disabled": 0, "fusion_lat": 0.0, "lat": 38.89532416666667, "is_reserved": 0}, {"lon": -77.02794233333333, "fusion_lon": 0.0, "bike_id": "6171bac55051fb2d027619e820b8e311", "type": "electric_scooter", "name": "6171bac55051fb2d027619e820b8e311", "rental_uris": {"android": "https://dc.lft.to/lastmile_qr_scan", "ios": "https://dc.lft.to/lastmile_qr_scan"}, "is_disabled": 0, "fusion_lat": 0.0, "lat": 38.917057, "is_reserved": 0}, {"lon": -77.03195916666667, "fusion_lon": 0.0, "bike_id": "154be8be676ff1b2457731636b0805bf", "type": "electric_scooter", "name": "154be8be676ff1b2457731636b0805bf", "rental_uris": {"android": "https://dc.lft.to/lastmile_qr_scan", "ios": "https://dc.lft.to/lastmile_qr_scan"}, "is_disabled": 0, "fusion_lat": 0.0, "lat": 38.892418666666664, "is_reserved": 0}, {"lon": -76.94854883333333, "fusion_lon": 0.0, "bike_id": "80ccaab49e2d42fe97cb33a17b87c7c8", "type": "electric_scooter", "name": "80ccaab49e2d42fe97cb33a17b87c7c8", "rental_uris": {"android": "https://dc.lft.to/lastmile_qr_scan", "ios": "https://dc.lft.to/lastmile_qr_scan"}, "is_disabled": 0, "fusion_lat": 0.0, "lat": 38.88301533333333, "is_reserved": 0}, {"lon": -77.04228533333334, "fusion_lon": 0.0, "bike_id": "dff9291e1108ebb16117561141168683", "type": "electric_scooter", "name": "dff9291e1108ebb16117561141168683", "rental_uris": {"android": "https://dc.lft.to/lastmile_qr_scan", "ios": "https://dc.lft.to/lastmile_qr_scan"}, "is_disabled": 0, "fusion_lat": 0.0, "lat": 38.911086833333336, "is_reserved": 0}, {"lon": -77.03431133333333, "fusion_lon": 0.0, "bike_id": "af5b9040523f835f237e979f5b410eee", "type": "electric_scooter", "name": "af5b9040523f835f237e979f5b410eee", "rental_uris": {"android": "https://dc.lft.to/lastmile_qr_scan", "ios": "https://dc.lft.to/lastmile_qr_scan"}, "is_disabled": 0, "fusion_lat": 0.0, "lat": 38.909574, "is_reserved": 0}, {"lon": -77.0416135, "fusion_lon": 0.0, "bike_id": "42b120371ba5955a53021af7d160070e", "type": "electric_scooter", "name": "42b120371ba5955a53021af7d160070e", "rental_uris": {"android": "https://dc.lft.to/lastmile_qr_scan", "ios": "https://dc.lft.to/lastmile_qr_scan"}, "is_disabled": 0, "fusion_lat": 0.0, "lat": 38.89234833333333, "is_reserved": 0}, {"lon": -77.06418433333333, "fusion_lon": 0.0, "bike_id": "053c6ea690fc7064c5875928edef98e7", "type": "electric_scooter", "name": "053c6ea690fc7064c5875928edef98e7", "rental_uris": {"android": "https://dc.lft.to/lastmile_qr_scan", "ios": "https://dc.lft.to/lastmile_qr_scan"}, "is_disabled": 0, "fusion_lat": 0.0, "lat": 38.913483666666664, "is_reserved": 0}, {"lon": -77.0343855, "fusion_lon": 0.0, "bike_id": "a03d9c8092cffeb5ac95e8a8f8553c2a", "type": "electric_scooter", "name": "a03d9c8092cffeb5ac95e8a8f8553c2a", "rental_uris": {"android": "https://dc.lft.to/lastmile_qr_scan", "ios": "https://dc.lft.to/lastmile_qr_scan"}, "is_disabled": 0, "fusion_lat": 0.0, "lat": 38.90847516666667, "is_reserved": 0}, {"lon": -77.22951216666667, "fusion_lon": 0.0, "bike_id": "d595de4d744971f7ab29de5a55fa42da", "type": "electric_bike", "name": "d595de4d744971f7ab29de5a55fa42da", "rental_uris": {"android": "https://dc.lft.to/lastmile_qr_scan", "ios": "https://dc.lft.to/lastmile_qr_scan"}, "is_disabled": 0, "fusion_lat": 0.0, "lat": 38.8723405, "is_reserved": 0}, {"lon": -77.01975483333334, "fusion_lon": 0.0, "bike_id": "0bf88e7aa4e241f326887888cf023213", "type": "electric_scooter", "name": "0bf88e7aa4e241f326887888cf023213", "rental_uris": {"android": "https://dc.lft.to/lastmile_qr_scan", "ios": "https://dc.lft.to/lastmile_qr_scan"}, "is_disabled": 0, "fusion_lat": 0.0, "lat": 38.935777333333334, "is_reserved": 0}, {"lon": -77.0317635, "fusion_lon": 0.0, "bike_id": "af1ad3b6349da48a35bed8dc342fa04b", "type": "electric_scooter", "name": "af1ad3b6349da48a35bed8dc342fa04b", "rental_uris": {"android": "https://dc.lft.to/lastmile_qr_scan", "ios": "https://dc.lft.to/lastmile_qr_scan"}, "is_disabled": 0, "fusion_lat": 0.0, "lat": 38.915569, "is_reserved": 0}, {"lon": -77.04134583333334, "fusion_lon": 0.0, "bike_id": "c79805e7d63a32ec51a1bb1f50faa728", "type": "electric_scooter", "name": "c79805e7d63a32ec51a1bb1f50faa728", "rental_uris": {"android": "https://dc.lft.to/lastmile_qr_scan", "ios": "https://dc.lft.to/lastmile_qr_scan"}, "is_disabled": 0, "fusion_lat": 0.0, "lat": 38.913777333333336, "is_reserved": 0}, {"lon": -77.03433566666666, "fusion_lon": 0.0, "bike_id": "fe80c9648b3f80d79835aa3f34e79d45", "type": "electric_scooter", "name": "fe80c9648b3f80d79835aa3f34e79d45", "rental_uris": {"android": "https://dc.lft.to/lastmile_qr_scan", "ios": "https://dc.lft.to/lastmile_qr_scan"}, "is_disabled": 0, "fusion_lat": 0.0, "lat": 38.917420166666666, "is_reserved": 0}, {"lon": -77.04419966666667, "fusion_lon": 0.0, "bike_id": "ba98ec57420186804a36b53bb2553647", "type": "electric_scooter", "name": "ba98ec57420186804a36b53bb2553647", "rental_uris": {"android": "https://dc.lft.to/lastmile_qr_scan", "ios": "https://dc.lft.to/lastmile_qr_scan"}, "is_disabled": 0, "fusion_lat": 0.0, "lat": 38.892228833333334, "is_reserved": 0}, {"lon": -76.97429016666666, "fusion_lon": 0.0, "bike_id": "d445e2ec882b864598c39741d004f264", "type": "electric_bike", "name": "d445e2ec882b864598c39741d004f264", "rental_uris": {"android": "https://dc.lft.to/lastmile_qr_scan", "ios": "https://dc.lft.to/lastmile_qr_scan"}, "is_disabled": 0, "fusion_lat": 0.0, "lat": 38.932321, "is_reserved": 0}, {"lon": -77.0635385, "fusion_lon": 0.0, "bike_id": "b8a30f246c1dd4b5fe817135969badd1", "type": "electric_scooter", "name": "b8a30f246c1dd4b5fe817135969badd1", "rental_uris": {"android": "https://dc.lft.to/lastmile_qr_scan", "ios": "https://dc.lft.to/lastmile_qr_scan"}, "is_disabled": 0, "fusion_lat": 0.0, "lat": 38.9444265, "is_reserved": 0}, {"lon": -77.03269683333333, "fusion_lon": 0.0, "bike_id": "599fa3fbeea0ec34a9d344f93540b996", "type": "electric_scooter", "name": "599fa3fbeea0ec34a9d344f93540b996", "rental_uris": {"android": "https://dc.lft.to/lastmile_qr_scan", "ios": "https://dc.lft.to/lastmile_qr_scan"}, "is_disabled": 0, "fusion_lat": 0.0, "lat": 38.90134283333333, "is_reserved": 0}, {"lon": -77.0258725, "fusion_lon": 0.0, "bike_id": "cc08b3aa52930589cdc965dee4bb2c52", "type": "electric_scooter", "name": "cc08b3aa52930589cdc965dee4bb2c52", "rental_uris": {"android": "https://dc.lft.to/lastmile_qr_scan", "ios": "https://dc.lft.to/lastmile_qr_scan"}, "is_disabled": 0, "fusion_lat": 0.0, "lat": 38.914146833333334, "is_reserved": 0}, {"lon": -77.023073, "fusion_lon": 0.0, "bike_id": "d7fce870f8678adca1b45ba848e8d609", "type": "electric_scooter", "name": "d7fce870f8678adca1b45ba848e8d609", "rental_uris": {"android": "https://dc.lft.to/lastmile_qr_scan", "ios": "https://dc.lft.to/lastmile_qr_scan"}, "is_disabled": 0, "fusion_lat": 0.0, "lat": 38.908868, "is_reserved": 0}, {"lon": -76.90733583333333, "fusion_lon": 0.0, "bike_id": "3b0a809a4691eb42baa0f9852f6fc16e", "type": "electric_bike", "name": "3b0a809a4691eb42baa0f9852f6fc16e", "rental_uris": {"android": "https://dc.lft.to/lastmile_qr_scan", "ios": "https://dc.lft.to/lastmile_qr_scan"}, "is_disabled": 0, "fusion_lat": 0.0, "lat": 38.89612016666667, "is_reserved": 0}, {"lon": -77.00578016666667, "fusion_lon": 0.0, "bike_id": "55c06b962b9909a71fde00d5d840ce9a", "type": "electric_scooter", "name": "55c06b962b9909a71fde00d5d840ce9a", "rental_uris": {"android": "https://dc.lft.to/lastmile_qr_scan", "ios": "https://dc.lft.to/lastmile_qr_scan"}, "is_disabled": 0, "fusion_lat": 0.0, "lat": 38.879338833333335, "is_reserved": 0}, {"lon": -77.05133433333333, "fusion_lon": 0.0, "bike_id": "e08129718a6b4aa59bc15d4c8dff75db", "type": "electric_scooter", "name": "e08129718a6b4aa59bc15d4c8dff75db", "rental_uris": {"android": "https://dc.lft.to/lastmile_qr_scan", "ios": "https://dc.lft.to/lastmile_qr_scan"}, "is_disabled": 0, "fusion_lat": 0.0, "lat": 38.9252115, "is_reserved": 0}, {"lon": -77.05373483333334, "fusion_lon": 0.0, "bike_id": "5b30bb2c69586df99e021460ed2db1f3", "type": "electric_scooter", "name": "5b30bb2c69586df99e021460ed2db1f3", "rental_uris": {"android": "https://dc.lft.to/lastmile_qr_scan", "ios": "https://dc.lft.to/lastmile_qr_scan"}, "is_disabled": 0, "fusion_lat": 0.0, "lat": 38.927172166666665, "is_reserved": 0}, {"lon": -77.06689833333333, "fusion_lon": 0.0, "bike_id": "22f45eb24c95cdcd08e6f3a16fc990e9", "type": "electric_scooter", "name": "22f45eb24c95cdcd08e6f3a16fc990e9", "rental_uris": {"android": "https://dc.lft.to/lastmile_qr_scan", "ios": "https://dc.lft.to/lastmile_qr_scan"}, "is_disabled": 0, "fusion_lat": 0.0, "lat": 38.950239333333336, "is_reserved": 0}, {"lon": -77.04800283333333, "fusion_lon": 0.0, "bike_id": "551159a70cf8cb8a03fece6821676949", "type": "electric_scooter", "name": "551159a70cf8cb8a03fece6821676949", "rental_uris": {"android": "https://dc.lft.to/lastmile_qr_scan", "ios": "https://dc.lft.to/lastmile_qr_scan"}, "is_disabled": 0, "fusion_lat": 0.0, "lat": 38.920340333333336, "is_reserved": 0}, {"lon": -77.05455383333333, "fusion_lon": 0.0, "bike_id": "894d0db4f6618c2608340beb3ef788ce", "type": "electric_scooter", "name": "894d0db4f6618c2608340beb3ef788ce", "rental_uris": {"android": "https://dc.lft.to/lastmile_qr_scan", "ios": "https://dc.lft.to/lastmile_qr_scan"}, "is_disabled": 0, "fusion_lat": 0.0, "lat": 38.902363666666666, "is_reserved": 0}, {"lon": -77.03441383333333, "fusion_lon": 0.0, "bike_id": "71f78f6308633cb49b057ee7699ca01c", "type": "electric_scooter", "name": "71f78f6308633cb49b057ee7699ca01c", "rental_uris": {"android": "https://dc.lft.to/lastmile_qr_scan", "ios": "https://dc.lft.to/lastmile_qr_scan"}, "is_disabled": 0, "fusion_lat": 0.0, "lat": 38.905852833333334, "is_reserved": 0}, {"lon": -77.07305416666667, "fusion_lon": 0.0, "bike_id": "814b0c7dbd73361d1a5673ff1572237c", "type": "electric_scooter", "name": "814b0c7dbd73361d1a5673ff1572237c", "rental_uris": {"android": "https://dc.lft.to/lastmile_qr_scan", "ios": "https://dc.lft.to/lastmile_qr_scan"}, "is_disabled": 0, "fusion_lat": 0.0, "lat": 38.926717833333335, "is_reserved": 0}, {"lon": -77.02282833333334, "fusion_lon": 0.0, "bike_id": "62be81e14d366312c9289bed53aecdcc", "type": "electric_scooter", "name": "62be81e14d366312c9289bed53aecdcc", "rental_uris": {"android": "https://dc.lft.to/lastmile_qr_scan", "ios": "https://dc.lft.to/lastmile_qr_scan"}, "is_disabled": 0, "fusion_lat": 0.0, "lat": 38.9141615, "is_reserved": 0}, {"lon": -77.026286, "fusion_lon": 0.0, "bike_id": "fdbf0f50eb7dc9adf3bff47f270d4076", "type": "electric_scooter", "name": "fdbf0f50eb7dc9adf3bff47f270d4076", "rental_uris": {"android": "https://dc.lft.to/lastmile_qr_scan", "ios": "https://dc.lft.to/lastmile_qr_scan"}, "is_disabled": 0, "fusion_lat": 0.0, "lat": 38.88769816666667, "is_reserved": 0}, {"lon": -77.015074, "fusion_lon": 0.0, "bike_id": "5e8a247e3feda56d1d50b30c230d0c35", "type": "electric_scooter", "name": "5e8a247e3feda56d1d50b30c230d0c35", "rental_uris": {"android": "https://dc.lft.to/lastmile_qr_scan", "ios": "https://dc.lft.to/lastmile_qr_scan"}, "is_disabled": 0, "fusion_lat": 0.0, "lat": 38.902389, "is_reserved": 0}, {"lon": -77.0034405, "fusion_lon": 0.0, "bike_id": "96f1183986cd48ce5e82707705d26898", "type": "electric_scooter", "name": "96f1183986cd48ce5e82707705d26898", "rental_uris": {"android": "https://dc.lft.to/lastmile_qr_scan", "ios": "https://dc.lft.to/lastmile_qr_scan"}, "is_disabled": 0, "fusion_lat": 0.0, "lat": 38.8946415, "is_reserved": 0}, {"lon": -76.98322966666667, "fusion_lon": 0.0, "bike_id": "539638b0af733ded20656cc9d7406fc4", "type": "electric_scooter", "name": "539638b0af733ded20656cc9d7406fc4", "rental_uris": {"android": "https://dc.lft.to/lastmile_qr_scan", "ios": "https://dc.lft.to/lastmile_qr_scan"}, "is_disabled": 0, "fusion_lat": 0.0, "lat": 38.904386333333335, "is_reserved": 0}, {"lon": -77.00576383333333, "fusion_lon": 0.0, "bike_id": "bb9b9f1c8079af8c0216214f66ad3878", "type": "electric_scooter", "name": "bb9b9f1c8079af8c0216214f66ad3878", "rental_uris": {"android": "https://dc.lft.to/lastmile_qr_scan", "ios": "https://dc.lft.to/lastmile_qr_scan"}, "is_disabled": 0, "fusion_lat": 0.0, "lat": 38.905828, "is_reserved": 0}, {"lon": -76.99018366666667, "fusion_lon": 0.0, "bike_id": "03428dca6eed22b298ebb46ea173d41c", "type": "electric_scooter", "name": "03428dca6eed22b298ebb46ea173d41c", "rental_uris": {"android": "https://dc.lft.to/lastmile_qr_scan", "ios": "https://dc.lft.to/lastmile_qr_scan"}, "is_disabled": 0, "fusion_lat": 0.0, "lat": 38.865156, "is_reserved": 0}, {"lon": -76.98342533333333, "fusion_lon": 0.0, "bike_id": "fb61a855b0bf5f6533c9779a6f619df1", "type": "electric_scooter", "name": "fb61a855b0bf5f6533c9779a6f619df1", "rental_uris": {"android": "https://dc.lft.to/lastmile_qr_scan", "ios": "https://dc.lft.to/lastmile_qr_scan"}, "is_disabled": 0, "fusion_lat": 0.0, "lat": 38.900887833333336, "is_reserved": 0}, {"lon": -77.02370433333333, "fusion_lon": 0.0, "bike_id": "72d58860382a3c0dd0fc8b9e22666931", "type": "electric_scooter", "name": "72d58860382a3c0dd0fc8b9e22666931", "rental_uris": {"android": "https://dc.lft.to/lastmile_qr_scan", "ios": "https://dc.lft.to/lastmile_qr_scan"}, "is_disabled": 0, "fusion_lat": 0.0, "lat": 38.901979833333336, "is_reserved": 0}, {"lon": -77.03829183333333, "fusion_lon": 0.0, "bike_id": "00f1e296261f43c8944161530e60461f", "type": "electric_scooter", "name": "00f1e296261f43c8944161530e60461f", "rental_uris": {"android": "https://dc.lft.to/lastmile_qr_scan", "ios": "https://dc.lft.to/lastmile_qr_scan"}, "is_disabled": 0, "fusion_lat": 0.0, "lat": 38.9111205, "is_reserved": 0}, {"lon": -77.013331, "fusion_lon": 0.0, "bike_id": "defc976b831bb25e91841cb625bd9265", "type": "electric_scooter", "name": "defc976b831bb25e91841cb625bd9265", "rental_uris": {"android": "https://dc.lft.to/lastmile_qr_scan", "ios": "https://dc.lft.to/lastmile_qr_scan"}, "is_disabled": 0, "fusion_lat": 0.0, "lat": 38.871587166666664, "is_reserved": 0}, {"lon": -77.0141135, "fusion_lon": 0.0, "bike_id": "7ade2e71e858dd080151109fc1163dbf", "type": "electric_scooter", "name": "7ade2e71e858dd080151109fc1163dbf", "rental_uris": {"android": "https://dc.lft.to/lastmile_qr_scan", "ios": "https://dc.lft.to/lastmile_qr_scan"}, "is_disabled": 0, "fusion_lat": 0.0, "lat": 38.881231666666665, "is_reserved": 0}, {"lon": -77.02766883333334, "fusion_lon": 0.0, "bike_id": "44f984fdc211a4204a0d7736778d6382", "type": "electric_scooter", "name": "44f984fdc211a4204a0d7736778d6382", "rental_uris": {"android": "https://dc.lft.to/lastmile_qr_scan", "ios": "https://dc.lft.to/lastmile_qr_scan"}, "is_disabled": 0, "fusion_lat": 0.0, "lat": 38.896248, "is_reserved": 0}, {"lon": -76.95328983333333, "fusion_lon": 0.0, "bike_id": "a9c8f3ab47b13a3d79bebce8692bea2f", "type": "electric_scooter", "name": "a9c8f3ab47b13a3d79bebce8692bea2f", "rental_uris": {"android": "https://dc.lft.to/lastmile_qr_scan", "ios": "https://dc.lft.to/lastmile_qr_scan"}, "is_disabled": 0, "fusion_lat": 0.0, "lat": 38.8923805, "is_reserved": 0}, {"lon": -77.03149683333334, "fusion_lon": 0.0, "bike_id": "f3d088399ea9a76a51b450f54e274da1", "type": "electric_scooter", "name": "f3d088399ea9a76a51b450f54e274da1", "rental_uris": {"android": "https://dc.lft.to/lastmile_qr_scan", "ios": "https://dc.lft.to/lastmile_qr_scan"}, "is_disabled": 0, "fusion_lat": 0.0, "lat": 38.927869, "is_reserved": 0}, {"lon": -77.022003, "fusion_lon": 0.0, "bike_id": "9c2d4a4b9da26c01199cdd233eccd3ee", "type": "electric_scooter", "name": "9c2d4a4b9da26c01199cdd233eccd3ee", "rental_uris": {"android": "https://dc.lft.to/lastmile_qr_scan", "ios": "https://dc.lft.to/lastmile_qr_scan"}, "is_disabled": 0, "fusion_lat": 0.0, "lat": 38.89625366666667, "is_reserved": 0}, {"lon": -77.05042333333333, "fusion_lon": 0.0, "bike_id": "ddf12b4705c1c01ddfa3e3e58f69983d", "type": "electric_scooter", "name": "ddf12b4705c1c01ddfa3e3e58f69983d", "rental_uris": {"android": "https://dc.lft.to/lastmile_qr_scan", "ios": "https://dc.lft.to/lastmile_qr_scan"}, "is_disabled": 0, "fusion_lat": 0.0, "lat": 38.898088, "is_reserved": 0}, {"lon": -77.05515766666667, "fusion_lon": 0.0, "bike_id": "14bafe9947631e12a0a3c22663a9166f", "type": "electric_scooter", "name": "14bafe9947631e12a0a3c22663a9166f", "rental_uris": {"android": "https://dc.lft.to/lastmile_qr_scan", "ios": "https://dc.lft.to/lastmile_qr_scan"}, "is_disabled": 0, "fusion_lat": 0.0, "lat": 38.91525683333333, "is_reserved": 0}, {"lon": -77.02612466666666, "fusion_lon": 0.0, "bike_id": "e4732414bd536a105eb9c7c21b3ae223", "type": "electric_scooter", "name": "e4732414bd536a105eb9c7c21b3ae223", "rental_uris": {"android": "https://dc.lft.to/lastmile_qr_scan", "ios": "https://dc.lft.to/lastmile_qr_scan"}, "is_disabled": 0, "fusion_lat": 0.0, "lat": 38.91716566666667, "is_reserved": 0}, {"lon": -76.98698016666667, "fusion_lon": 0.0, "bike_id": "a290c6aa73c97b0978661a34fc67323d", "type": "electric_scooter", "name": "a290c6aa73c97b0978661a34fc67323d", "rental_uris": {"android": "https://dc.lft.to/lastmile_qr_scan", "ios": "https://dc.lft.to/lastmile_qr_scan"}, "is_disabled": 0, "fusion_lat": 0.0, "lat": 38.86723083333333, "is_reserved": 0}, {"lon": -77.04489516666666, "fusion_lon": 0.0, "bike_id": "a3bea37aa7443da45d2d74aac6d9cc31", "type": "electric_scooter", "name": "a3bea37aa7443da45d2d74aac6d9cc31", "rental_uris": {"android": "https://dc.lft.to/lastmile_qr_scan", "ios": "https://dc.lft.to/lastmile_qr_scan"}, "is_disabled": 0, "fusion_lat": 0.0, "lat": 38.89716683333333, "is_reserved": 0}, {"lon": -77.02289383333333, "fusion_lon": 0.0, "bike_id": "6f4ad1436bfb00bdf310440fd7c4973f", "type": "electric_scooter", "name": "6f4ad1436bfb00bdf310440fd7c4973f", "rental_uris": {"android": "https://dc.lft.to/lastmile_qr_scan", "ios": "https://dc.lft.to/lastmile_qr_scan"}, "is_disabled": 0, "fusion_lat": 0.0, "lat": 38.91568983333333, "is_reserved": 0}, {"lon": -77.140572, "fusion_lon": 0.0, "bike_id": "d473e5e5761760de3a9d9ef3ca811630", "type": "electric_bike", "name": "d473e5e5761760de3a9d9ef3ca811630", "rental_uris": {"android": "https://dc.lft.to/lastmile_qr_scan", "ios": "https://dc.lft.to/lastmile_qr_scan"}, "is_disabled": 0, "fusion_lat": 0.0, "lat": 38.98767183333333, "is_reserved": 0}, {"lon": -77.042368, "fusion_lon": 0.0, "bike_id": "4c7e10f792d75258d6d965aa57c49bc7", "type": "electric_scooter", "name": "4c7e10f792d75258d6d965aa57c49bc7", "rental_uris": {"android": "https://dc.lft.to/lastmile_qr_scan", "ios": "https://dc.lft.to/lastmile_qr_scan"}, "is_disabled": 0, "fusion_lat": 0.0, "lat": 38.928717666666664, "is_reserved": 0}, {"lon": -77.00307116666667, "fusion_lon": 0.0, "bike_id": "876558d88b67a640bb34a2d0cd884d22", "type": "electric_scooter", "name": "876558d88b67a640bb34a2d0cd884d22", "rental_uris": {"android": "https://dc.lft.to/lastmile_qr_scan", "ios": "https://dc.lft.to/lastmile_qr_scan"}, "is_disabled": 0, "fusion_lat": 0.0, "lat": 38.92032366666667, "is_reserved": 0}, {"lon": -77.0080015, "fusion_lon": 0.0, "bike_id": "c75cdf4cc0b59bff4e6bc8d3f90ef920", "type": "electric_scooter", "name": "c75cdf4cc0b59bff4e6bc8d3f90ef920", "rental_uris": {"android": "https://dc.lft.to/lastmile_qr_scan", "ios": "https://dc.lft.to/lastmile_qr_scan"}, "is_disabled": 0, "fusion_lat": 0.0, "lat": 38.91701166666667, "is_reserved": 0}, {"lon": -77.031825, "fusion_lon": 0.0, "bike_id": "3088a1a5c8f2833099047de78e30d400", "type": "electric_scooter", "name": "3088a1a5c8f2833099047de78e30d400", "rental_uris": {"android": "https://dc.lft.to/lastmile_qr_scan", "ios": "https://dc.lft.to/lastmile_qr_scan"}, "is_disabled": 0, "fusion_lat": 0.0, "lat": 38.92486983333333, "is_reserved": 0}, {"lon": -77.0070885, "fusion_lon": 0.0, "bike_id": "541db7d7192418da0ede13f03de21173", "type": "electric_scooter", "name": "541db7d7192418da0ede13f03de21173", "rental_uris": {"android": "https://dc.lft.to/lastmile_qr_scan", "ios": "https://dc.lft.to/lastmile_qr_scan"}, "is_disabled": 0, "fusion_lat": 0.0, "lat": 38.884877333333336, "is_reserved": 0}, {"lon": -77.04467333333334, "fusion_lon": 0.0, "bike_id": "5aa355d4b4349c40acf1268234d78a04", "type": "electric_scooter", "name": "5aa355d4b4349c40acf1268234d78a04", "rental_uris": {"android": "https://dc.lft.to/lastmile_qr_scan", "ios": "https://dc.lft.to/lastmile_qr_scan"}, "is_disabled": 0, "fusion_lat": 0.0, "lat": 38.90916516666667, "is_reserved": 0}, {"lon": -77.02241733333334, "fusion_lon": 0.0, "bike_id": "783be0c2c80004adc4c08690e36be622", "type": "electric_scooter", "name": "783be0c2c80004adc4c08690e36be622", "rental_uris": {"android": "https://dc.lft.to/lastmile_qr_scan", "ios": "https://dc.lft.to/lastmile_qr_scan"}, "is_disabled": 0, "fusion_lat": 0.0, "lat": 38.891926833333336, "is_reserved": 0}, {"lon": -76.98505566666667, "fusion_lon": 0.0, "bike_id": "0bda8edcb8b313b7f0e9cd9dd2ef0415", "type": "electric_scooter", "name": "0bda8edcb8b313b7f0e9cd9dd2ef0415", "rental_uris": {"android": "https://dc.lft.to/lastmile_qr_scan", "ios": "https://dc.lft.to/lastmile_qr_scan"}, "is_disabled": 0, "fusion_lat": 0.0, "lat": 38.91326683333333, "is_reserved": 0}, {"lon": -77.008004, "fusion_lon": 0.0, "bike_id": "e7c42c382c1cd0362e97341bab0b3a19", "type": "electric_scooter", "name": "e7c42c382c1cd0362e97341bab0b3a19", "rental_uris": {"android": "https://dc.lft.to/lastmile_qr_scan", "ios": "https://dc.lft.to/lastmile_qr_scan"}, "is_disabled": 0, "fusion_lat": 0.0, "lat": 38.91564066666667, "is_reserved": 0}, {"lon": -77.02659116666666, "fusion_lon": 0.0, "bike_id": "bbca21bab45894a72c6713c616c409c9", "type": "electric_scooter", "name": "bbca21bab45894a72c6713c616c409c9", "rental_uris": {"android": "https://dc.lft.to/lastmile_qr_scan", "ios": "https://dc.lft.to/lastmile_qr_scan"}, "is_disabled": 0, "fusion_lat": 0.0, "lat": 38.881114333333336, "is_reserved": 0}, {"lon": -77.02486666666667, "fusion_lon": 0.0, "bike_id": "24d996dde64c7c322b15e29c4f32bf1d", "type": "electric_scooter", "name": "24d996dde64c7c322b15e29c4f32bf1d", "rental_uris": {"android": "https://dc.lft.to/lastmile_qr_scan", "ios": "https://dc.lft.to/lastmile_qr_scan"}, "is_disabled": 0, "fusion_lat": 0.0, "lat": 38.938772, "is_reserved": 0}, {"lon": -77.035047, "fusion_lon": 0.0, "bike_id": "067e975c2da41f744d118d0751d6d3ce", "type": "electric_scooter", "name": "067e975c2da41f744d118d0751d6d3ce", "rental_uris": {"android": "https://dc.lft.to/lastmile_qr_scan", "ios": "https://dc.lft.to/lastmile_qr_scan"}, "is_disabled": 0, "fusion_lat": 0.0, "lat": 38.93154466666667, "is_reserved": 0}, {"lon": -76.995552, "fusion_lon": 0.0, "bike_id": "23b4911331d356d12a525e77c6f8f907", "type": "electric_scooter", "name": "23b4911331d356d12a525e77c6f8f907", "rental_uris": {"android": "https://dc.lft.to/lastmile_qr_scan", "ios": "https://dc.lft.to/lastmile_qr_scan"}, "is_disabled": 0, "fusion_lat": 0.0, "lat": 38.88421966666667, "is_reserved": 0}, {"lon": -77.02486566666667, "fusion_lon": 0.0, "bike_id": "331c7766586d0945b53f9d8bc4d968ef", "type": "electric_scooter", "name": "331c7766586d0945b53f9d8bc4d968ef", "rental_uris": {"android": "https://dc.lft.to/lastmile_qr_scan", "ios": "https://dc.lft.to/lastmile_qr_scan"}, "is_disabled": 0, "fusion_lat": 0.0, "lat": 38.919253166666664, "is_reserved": 0}, {"lon": -77.00196483333333, "fusion_lon": 0.0, "bike_id": "f3b6fe0fc5a1dc1bd8400ba62cce245b", "type": "electric_scooter", "name": "f3b6fe0fc5a1dc1bd8400ba62cce245b", "rental_uris": {"android": "https://dc.lft.to/lastmile_qr_scan", "ios": "https://dc.lft.to/lastmile_qr_scan"}, "is_disabled": 0, "fusion_lat": 0.0, "lat": 38.90866283333333, "is_reserved": 0}, {"lon": -77.02608333333333, "fusion_lon": 0.0, "bike_id": "704805e3b461d6c92ddb9a9e78625c6c", "type": "electric_scooter", "name": "704805e3b461d6c92ddb9a9e78625c6c", "rental_uris": {"android": "https://dc.lft.to/lastmile_qr_scan", "ios": "https://dc.lft.to/lastmile_qr_scan"}, "is_disabled": 0, "fusion_lat": 0.0, "lat": 38.917186666666666, "is_reserved": 0}, {"lon": -77.02301816666666, "fusion_lon": 0.0, "bike_id": "21408f33a32ee3e8bb3c199301d0491f", "type": "electric_scooter", "name": "21408f33a32ee3e8bb3c199301d0491f", "rental_uris": {"android": "https://dc.lft.to/lastmile_qr_scan", "ios": "https://dc.lft.to/lastmile_qr_scan"}, "is_disabled": 0, "fusion_lat": 0.0, "lat": 38.90156966666667, "is_reserved": 0}, {"lon": -77.01347716666666, "fusion_lon": 0.0, "bike_id": "36307c19cf0d8e6ff8d8347d7a853e9a", "type": "electric_scooter", "name": "36307c19cf0d8e6ff8d8347d7a853e9a", "rental_uris": {"android": "https://dc.lft.to/lastmile_qr_scan", "ios": "https://dc.lft.to/lastmile_qr_scan"}, "is_disabled": 0, "fusion_lat": 0.0, "lat": 38.91914116666667, "is_reserved": 0}, {"lon": -77.012249, "fusion_lon": 0.0, "bike_id": "eebffe6de04c076d4387cf57c071f4c3", "type": "electric_scooter", "name": "eebffe6de04c076d4387cf57c071f4c3", "rental_uris": {"android": "https://dc.lft.to/lastmile_qr_scan", "ios": "https://dc.lft.to/lastmile_qr_scan"}, "is_disabled": 0, "fusion_lat": 0.0, "lat": 38.9140885, "is_reserved": 0}, {"lon": -77.0467095, "fusion_lon": 0.0, "bike_id": "af474b5af33ad6dcc982e0bc15ec01d9", "type": "electric_scooter", "name": "af474b5af33ad6dcc982e0bc15ec01d9", "rental_uris": {"android": "https://dc.lft.to/lastmile_qr_scan", "ios": "https://dc.lft.to/lastmile_qr_scan"}, "is_disabled": 0, "fusion_lat": 0.0, "lat": 38.9141635, "is_reserved": 0}, {"lon": -77.02711816666667, "fusion_lon": 0.0, "bike_id": "d6f8f5e8c18fd13bd45891c09cf1d419", "type": "electric_scooter", "name": "d6f8f5e8c18fd13bd45891c09cf1d419", "rental_uris": {"android": "https://dc.lft.to/lastmile_qr_scan", "ios": "https://dc.lft.to/lastmile_qr_scan"}, "is_disabled": 0, "fusion_lat": 0.0, "lat": 38.928828833333334, "is_reserved": 0}, {"lon": -77.10855833333333, "fusion_lon": 0.0, "bike_id": "c7f67b80eecc83e84e1e1bd2a5b95345", "type": "electric_bike", "name": "c7f67b80eecc83e84e1e1bd2a5b95345", "rental_uris": {"android": "https://dc.lft.to/lastmile_qr_scan", "ios": "https://dc.lft.to/lastmile_qr_scan"}, "is_disabled": 0, "fusion_lat": 0.0, "lat": 38.8723545, "is_reserved": 0}, {"lon": -77.01636416666666, "fusion_lon": 0.0, "bike_id": "806e67fead836a8599588ec0bb4e2f62", "type": "electric_scooter", "name": "806e67fead836a8599588ec0bb4e2f62", "rental_uris": {"android": "https://dc.lft.to/lastmile_qr_scan", "ios": "https://dc.lft.to/lastmile_qr_scan"}, "is_disabled": 0, "fusion_lat": 0.0, "lat": 38.903711, "is_reserved": 0}, {"lon": -77.036557, "fusion_lon": 0.0, "bike_id": "51c0cc6a61ffae11cb5d34b00823fb7b", "type": "electric_scooter", "name": "51c0cc6a61ffae11cb5d34b00823fb7b", "rental_uris": {"android": "https://dc.lft.to/lastmile_qr_scan", "ios": "https://dc.lft.to/lastmile_qr_scan"}, "is_disabled": 0, "fusion_lat": 0.0, "lat": 38.921238333333335, "is_reserved": 0}, {"lon": -77.061095, "fusion_lon": 0.0, "bike_id": "013bac420f38c15f821377020b4324d6", "type": "electric_scooter", "name": "013bac420f38c15f821377020b4324d6", "rental_uris": {"android": "https://dc.lft.to/lastmile_qr_scan", "ios": "https://dc.lft.to/lastmile_qr_scan"}, "is_disabled": 0, "fusion_lat": 0.0, "lat": 38.937053666666664, "is_reserved": 0}, {"lon": -77.0089375, "fusion_lon": 0.0, "bike_id": "d34654c138084b96317f9837ff8b2dd6", "type": "electric_scooter", "name": "d34654c138084b96317f9837ff8b2dd6", "rental_uris": {"android": "https://dc.lft.to/lastmile_qr_scan", "ios": "https://dc.lft.to/lastmile_qr_scan"}, "is_disabled": 0, "fusion_lat": 0.0, "lat": 38.96829783333333, "is_reserved": 0}, {"lon": -77.02801833333334, "fusion_lon": 0.0, "bike_id": "6ddae2cc9afc825714d785377518e320", "type": "electric_scooter", "name": "6ddae2cc9afc825714d785377518e320", "rental_uris": {"android": "https://dc.lft.to/lastmile_qr_scan", "ios": "https://dc.lft.to/lastmile_qr_scan"}, "is_disabled": 0, "fusion_lat": 0.0, "lat": 38.9604585, "is_reserved": 0}, {"lon": -77.03561866666666, "fusion_lon": 0.0, "bike_id": "c61600f94c42b7982f942fa345c45852", "type": "electric_scooter", "name": "c61600f94c42b7982f942fa345c45852", "rental_uris": {"android": "https://dc.lft.to/lastmile_qr_scan", "ios": "https://dc.lft.to/lastmile_qr_scan"}, "is_disabled": 0, "fusion_lat": 0.0, "lat": 38.90383833333333, "is_reserved": 0}, {"lon": -77.0340665, "fusion_lon": 0.0, "bike_id": "2c383140ef2d6fe12a4969cb3a6c0890", "type": "electric_scooter", "name": "2c383140ef2d6fe12a4969cb3a6c0890", "rental_uris": {"android": "https://dc.lft.to/lastmile_qr_scan", "ios": "https://dc.lft.to/lastmile_qr_scan"}, "is_disabled": 0, "fusion_lat": 0.0, "lat": 38.9243905, "is_reserved": 0}, {"lon": -77.032708, "fusion_lon": 0.0, "bike_id": "b5bd6d980fb0e55b260870da1ff8d1ab", "type": "electric_scooter", "name": "b5bd6d980fb0e55b260870da1ff8d1ab", "rental_uris": {"android": "https://dc.lft.to/lastmile_qr_scan", "ios": "https://dc.lft.to/lastmile_qr_scan"}, "is_disabled": 0, "fusion_lat": 0.0, "lat": 38.93772716666667, "is_reserved": 0}, {"lon": -77.031378, "fusion_lon": 0.0, "bike_id": "2c768e079fe16d68893bea6cc34275c6", "type": "electric_scooter", "name": "2c768e079fe16d68893bea6cc34275c6", "rental_uris": {"android": "https://dc.lft.to/lastmile_qr_scan", "ios": "https://dc.lft.to/lastmile_qr_scan"}, "is_disabled": 0, "fusion_lat": 0.0, "lat": 38.897258666666666, "is_reserved": 0}, {"lon": -77.02687916666666, "fusion_lon": 0.0, "bike_id": "01fa5b0e7969498ba4ffe18b324390d1", "type": "electric_scooter", "name": "01fa5b0e7969498ba4ffe18b324390d1", "rental_uris": {"android": "https://dc.lft.to/lastmile_qr_scan", "ios": "https://dc.lft.to/lastmile_qr_scan"}, "is_disabled": 0, "fusion_lat": 0.0, "lat": 38.907089, "is_reserved": 0}, {"lon": -77.0336885, "fusion_lon": 0.0, "bike_id": "61d0918afc7518ab2403c4cf6dc613ea", "type": "electric_scooter", "name": "61d0918afc7518ab2403c4cf6dc613ea", "rental_uris": {"android": "https://dc.lft.to/lastmile_qr_scan", "ios": "https://dc.lft.to/lastmile_qr_scan"}, "is_disabled": 0, "fusion_lat": 0.0, "lat": 38.923558666666665, "is_reserved": 0}, {"lon": -77.03353066666666, "fusion_lon": 0.0, "bike_id": "8d1ef0b5c6eb7647b53932b924a28a3c", "type": "electric_scooter", "name": "8d1ef0b5c6eb7647b53932b924a28a3c", "rental_uris": {"android": "https://dc.lft.to/lastmile_qr_scan", "ios": "https://dc.lft.to/lastmile_qr_scan"}, "is_disabled": 0, "fusion_lat": 0.0, "lat": 38.886959166666664, "is_reserved": 0}, {"lon": -77.0318165, "fusion_lon": 0.0, "bike_id": "d741f2c74254c1c43673d12a5d3862a0", "type": "electric_scooter", "name": "d741f2c74254c1c43673d12a5d3862a0", "rental_uris": {"android": "https://dc.lft.to/lastmile_qr_scan", "ios": "https://dc.lft.to/lastmile_qr_scan"}, "is_disabled": 0, "fusion_lat": 0.0, "lat": 38.9237095, "is_reserved": 0}, {"lon": -77.03322516666667, "fusion_lon": 0.0, "bike_id": "3573c6bd510516c5962a93138df7b8c8", "type": "electric_scooter", "name": "3573c6bd510516c5962a93138df7b8c8", "rental_uris": {"android": "https://dc.lft.to/lastmile_qr_scan", "ios": "https://dc.lft.to/lastmile_qr_scan"}, "is_disabled": 0, "fusion_lat": 0.0, "lat": 38.92159, "is_reserved": 0}, {"lon": -77.0197385, "fusion_lon": 0.0, "bike_id": "699cdaea9f4ca270b6d276125ff21a06", "type": "electric_scooter", "name": "699cdaea9f4ca270b6d276125ff21a06", "rental_uris": {"android": "https://dc.lft.to/lastmile_qr_scan", "ios": "https://dc.lft.to/lastmile_qr_scan"}, "is_disabled": 0, "fusion_lat": 0.0, "lat": 38.902356, "is_reserved": 0}, {"lon": -77.01790616666666, "fusion_lon": 0.0, "bike_id": "9b9a9f67e9b91810142d50bd2006884b", "type": "electric_scooter", "name": "9b9a9f67e9b91810142d50bd2006884b", "rental_uris": {"android": "https://dc.lft.to/lastmile_qr_scan", "ios": "https://dc.lft.to/lastmile_qr_scan"}, "is_disabled": 0, "fusion_lat": 0.0, "lat": 38.920356166666664, "is_reserved": 0}, {"lon": -76.96114083333333, "fusion_lon": 0.0, "bike_id": "a8f3e7fbd990c4340bb4ceb1940e1a4e", "type": "electric_scooter", "name": "a8f3e7fbd990c4340bb4ceb1940e1a4e", "rental_uris": {"android": "https://dc.lft.to/lastmile_qr_scan", "ios": "https://dc.lft.to/lastmile_qr_scan"}, "is_disabled": 0, "fusion_lat": 0.0, "lat": 38.88428116666667, "is_reserved": 0}, {"lon": -77.04871883333334, "fusion_lon": 0.0, "bike_id": "7e4807be9e047201e45b7f3f03a5ea50", "type": "electric_scooter", "name": "7e4807be9e047201e45b7f3f03a5ea50", "rental_uris": {"android": "https://dc.lft.to/lastmile_qr_scan", "ios": "https://dc.lft.to/lastmile_qr_scan"}, "is_disabled": 0, "fusion_lat": 0.0, "lat": 38.9097435, "is_reserved": 0}, {"lon": -77.035859, "fusion_lon": 0.0, "bike_id": "60a80b4b2f7c24d205d52062f584d73d", "type": "electric_scooter", "name": "60a80b4b2f7c24d205d52062f584d73d", "rental_uris": {"android": "https://dc.lft.to/lastmile_qr_scan", "ios": "https://dc.lft.to/lastmile_qr_scan"}, "is_disabled": 0, "fusion_lat": 0.0, "lat": 38.931501833333336, "is_reserved": 0}, {"lon": -77.03085733333333, "fusion_lon": 0.0, "bike_id": "2cd5b3a894c39a5e0499276593a17a7d", "type": "electric_scooter", "name": "2cd5b3a894c39a5e0499276593a17a7d", "rental_uris": {"android": "https://dc.lft.to/lastmile_qr_scan", "ios": "https://dc.lft.to/lastmile_qr_scan"}, "is_disabled": 0, "fusion_lat": 0.0, "lat": 38.928720166666665, "is_reserved": 0}, {"lon": -77.0419425, "fusion_lon": 0.0, "bike_id": "5f21a947675687abeb466825ed60d458", "type": "electric_scooter", "name": "5f21a947675687abeb466825ed60d458", "rental_uris": {"android": "https://dc.lft.to/lastmile_qr_scan", "ios": "https://dc.lft.to/lastmile_qr_scan"}, "is_disabled": 0, "fusion_lat": 0.0, "lat": 38.926310666666666, "is_reserved": 0}, {"lon": -77.03035833333334, "fusion_lon": 0.0, "bike_id": "d562fd5fe1828bc545df392162af5ee5", "type": "electric_scooter", "name": "d562fd5fe1828bc545df392162af5ee5", "rental_uris": {"android": "https://dc.lft.to/lastmile_qr_scan", "ios": "https://dc.lft.to/lastmile_qr_scan"}, "is_disabled": 0, "fusion_lat": 0.0, "lat": 38.91672166666667, "is_reserved": 0}, {"lon": -77.00920316666667, "fusion_lon": 0.0, "bike_id": "b84b1eb08f1acd0e0c0fbbe080cd0217", "type": "electric_scooter", "name": "b84b1eb08f1acd0e0c0fbbe080cd0217", "rental_uris": {"android": "https://dc.lft.to/lastmile_qr_scan", "ios": "https://dc.lft.to/lastmile_qr_scan"}, "is_disabled": 0, "fusion_lat": 0.0, "lat": 38.89616616666667, "is_reserved": 0}, {"lon": -77.014824, "fusion_lon": 0.0, "bike_id": "b7660d2f48c22cce66590aa58e5981e3", "type": "electric_scooter", "name": "b7660d2f48c22cce66590aa58e5981e3", "rental_uris": {"android": "https://dc.lft.to/lastmile_qr_scan", "ios": "https://dc.lft.to/lastmile_qr_scan"}, "is_disabled": 0, "fusion_lat": 0.0, "lat": 38.917628, "is_reserved": 0}, {"lon": -76.93735016666666, "fusion_lon": 0.0, "bike_id": "8ff2b88e562981f546f607981b86d518", "type": "electric_scooter", "name": "8ff2b88e562981f546f607981b86d518", "rental_uris": {"android": "https://dc.lft.to/lastmile_qr_scan", "ios": "https://dc.lft.to/lastmile_qr_scan"}, "is_disabled": 0, "fusion_lat": 0.0, "lat": 38.8901605, "is_reserved": 0}, {"lon": -77.02792033333333, "fusion_lon": 0.0, "bike_id": "71b59d728ac5b675401b1c7db36a62f7", "type": "electric_scooter", "name": "71b59d728ac5b675401b1c7db36a62f7", "rental_uris": {"android": "https://dc.lft.to/lastmile_qr_scan", "ios": "https://dc.lft.to/lastmile_qr_scan"}, "is_disabled": 0, "fusion_lat": 0.0, "lat": 38.899082166666666, "is_reserved": 0}, {"lon": -76.9949735, "fusion_lon": 0.0, "bike_id": "3e22b52fd949f027e5d88a41260919ad", "type": "electric_scooter", "name": "3e22b52fd949f027e5d88a41260919ad", "rental_uris": {"android": "https://dc.lft.to/lastmile_qr_scan", "ios": "https://dc.lft.to/lastmile_qr_scan"}, "is_disabled": 0, "fusion_lat": 0.0, "lat": 38.86247216666667, "is_reserved": 0}, {"lon": -77.025435, "fusion_lon": 0.0, "bike_id": "7c1f5ac02b941db3039fa12a5ac305a8", "type": "electric_scooter", "name": "7c1f5ac02b941db3039fa12a5ac305a8", "rental_uris": {"android": "https://dc.lft.to/lastmile_qr_scan", "ios": "https://dc.lft.to/lastmile_qr_scan"}, "is_disabled": 0, "fusion_lat": 0.0, "lat": 38.91853183333333, "is_reserved": 0}, {"lon": -77.0345005, "fusion_lon": 0.0, "bike_id": "58c8a9d388b8965179cba63326dfb0af", "type": "electric_scooter", "name": "58c8a9d388b8965179cba63326dfb0af", "rental_uris": {"android": "https://dc.lft.to/lastmile_qr_scan", "ios": "https://dc.lft.to/lastmile_qr_scan"}, "is_disabled": 0, "fusion_lat": 0.0, "lat": 38.907379166666665, "is_reserved": 0}, {"lon": -77.04322533333334, "fusion_lon": 0.0, "bike_id": "c142239c5db6c26c78316a6579898920", "type": "electric_scooter", "name": "c142239c5db6c26c78316a6579898920", "rental_uris": {"android": "https://dc.lft.to/lastmile_qr_scan", "ios": "https://dc.lft.to/lastmile_qr_scan"}, "is_disabled": 0, "fusion_lat": 0.0, "lat": 38.90592933333333, "is_reserved": 0}, {"lon": -77.05343333333333, "fusion_lon": 0.0, "bike_id": "c55614788e41cdd3847f6f3a48845df5", "type": "electric_scooter", "name": "c55614788e41cdd3847f6f3a48845df5", "rental_uris": {"android": "https://dc.lft.to/lastmile_qr_scan", "ios": "https://dc.lft.to/lastmile_qr_scan"}, "is_disabled": 0, "fusion_lat": 0.0, "lat": 38.90228716666667, "is_reserved": 0}, {"lon": -77.027134, "fusion_lon": 0.0, "bike_id": "e7e8e1eaf3660b5bec38c9e770c47bcc", "type": "electric_scooter", "name": "e7e8e1eaf3660b5bec38c9e770c47bcc", "rental_uris": {"android": "https://dc.lft.to/lastmile_qr_scan", "ios": "https://dc.lft.to/lastmile_qr_scan"}, "is_disabled": 0, "fusion_lat": 0.0, "lat": 38.906742666666666, "is_reserved": 0}, {"lon": -76.98572316666667, "fusion_lon": 0.0, "bike_id": "26c97f13d02c2b6b81a798feefb9679a", "type": "electric_scooter", "name": "26c97f13d02c2b6b81a798feefb9679a", "rental_uris": {"android": "https://dc.lft.to/lastmile_qr_scan", "ios": "https://dc.lft.to/lastmile_qr_scan"}, "is_disabled": 0, "fusion_lat": 0.0, "lat": 38.86682783333333, "is_reserved": 0}, {"lon": -77.00746933333333, "fusion_lon": 0.0, "bike_id": "80003fc88c53334ce3e3f241df544fb2", "type": "electric_scooter", "name": "80003fc88c53334ce3e3f241df544fb2", "rental_uris": {"android": "https://dc.lft.to/lastmile_qr_scan", "ios": "https://dc.lft.to/lastmile_qr_scan"}, "is_disabled": 0, "fusion_lat": 0.0, "lat": 38.90474866666667, "is_reserved": 0}, {"lon": -76.97982116666667, "fusion_lon": 0.0, "bike_id": "4d5a0f265be09342326bdb15acb8481a", "type": "electric_scooter", "name": "4d5a0f265be09342326bdb15acb8481a", "rental_uris": {"android": "https://dc.lft.to/lastmile_qr_scan", "ios": "https://dc.lft.to/lastmile_qr_scan"}, "is_disabled": 0, "fusion_lat": 0.0, "lat": 38.897422166666665, "is_reserved": 0}, {"lon": -77.0345715, "fusion_lon": 0.0, "bike_id": "701651dd66600b91c760fb325be395ba", "type": "electric_scooter", "name": "701651dd66600b91c760fb325be395ba", "rental_uris": {"android": "https://dc.lft.to/lastmile_qr_scan", "ios": "https://dc.lft.to/lastmile_qr_scan"}, "is_disabled": 0, "fusion_lat": 0.0, "lat": 38.9085355, "is_reserved": 0}, {"lon": -77.02709433333334, "fusion_lon": 0.0, "bike_id": "bd4c46e7d25725a87c52daa70590a868", "type": "electric_scooter", "name": "bd4c46e7d25725a87c52daa70590a868", "rental_uris": {"android": "https://dc.lft.to/lastmile_qr_scan", "ios": "https://dc.lft.to/lastmile_qr_scan"}, "is_disabled": 0, "fusion_lat": 0.0, "lat": 38.91720883333333, "is_reserved": 0}, {"lon": -77.08193383333334, "fusion_lon": 0.0, "bike_id": "72f8a368e01d9e15c56de3829abebccf", "type": "electric_scooter", "name": "72f8a368e01d9e15c56de3829abebccf", "rental_uris": {"android": "https://dc.lft.to/lastmile_qr_scan", "ios": "https://dc.lft.to/lastmile_qr_scan"}, "is_disabled": 0, "fusion_lat": 0.0, "lat": 38.93555416666667, "is_reserved": 0}, {"lon": -77.01310616666666, "fusion_lon": 0.0, "bike_id": "273752c34134d4e612568d148b6070df", "type": "electric_scooter", "name": "273752c34134d4e612568d148b6070df", "rental_uris": {"android": "https://dc.lft.to/lastmile_qr_scan", "ios": "https://dc.lft.to/lastmile_qr_scan"}, "is_disabled": 0, "fusion_lat": 0.0, "lat": 38.901389, "is_reserved": 0}, {"lon": -77.04165033333334, "fusion_lon": 0.0, "bike_id": "66636f6e2d236c5c1443ec7e3c87cd86", "type": "electric_scooter", "name": "66636f6e2d236c5c1443ec7e3c87cd86", "rental_uris": {"android": "https://dc.lft.to/lastmile_qr_scan", "ios": "https://dc.lft.to/lastmile_qr_scan"}, "is_disabled": 0, "fusion_lat": 0.0, "lat": 38.918615333333335, "is_reserved": 0}, {"lon": -77.02202916666667, "fusion_lon": 0.0, "bike_id": "23553e2fc1bc3400506688c56f730a03", "type": "electric_scooter", "name": "23553e2fc1bc3400506688c56f730a03", "rental_uris": {"android": "https://dc.lft.to/lastmile_qr_scan", "ios": "https://dc.lft.to/lastmile_qr_scan"}, "is_disabled": 0, "fusion_lat": 0.0, "lat": 38.896223, "is_reserved": 0}, {"lon": -77.04670716666666, "fusion_lon": 0.0, "bike_id": "fb6fd3eb184a8ba12194a73061c7d7b9", "type": "electric_scooter", "name": "fb6fd3eb184a8ba12194a73061c7d7b9", "rental_uris": {"android": "https://dc.lft.to/lastmile_qr_scan", "ios": "https://dc.lft.to/lastmile_qr_scan"}, "is_disabled": 0, "fusion_lat": 0.0, "lat": 38.901459333333335, "is_reserved": 0}, {"lon": -77.0506725, "fusion_lon": 0.0, "bike_id": "1237f4e475f379cc1d821469d1a28b19", "type": "electric_scooter", "name": "1237f4e475f379cc1d821469d1a28b19", "rental_uris": {"android": "https://dc.lft.to/lastmile_qr_scan", "ios": "https://dc.lft.to/lastmile_qr_scan"}, "is_disabled": 0, "fusion_lat": 0.0, "lat": 38.92533433333333, "is_reserved": 0}, {"lon": -76.9575255, "fusion_lon": 0.0, "bike_id": "414b45371ecaa19d33532b8c59f1dc9a", "type": "electric_scooter", "name": "414b45371ecaa19d33532b8c59f1dc9a", "rental_uris": {"android": "https://dc.lft.to/lastmile_qr_scan", "ios": "https://dc.lft.to/lastmile_qr_scan"}, "is_disabled": 0, "fusion_lat": 0.0, "lat": 38.8842375, "is_reserved": 0}, {"lon": -77.02586516666666, "fusion_lon": 0.0, "bike_id": "56b4d7f3cea35248d106cb442305decb", "type": "electric_scooter", "name": "56b4d7f3cea35248d106cb442305decb", "rental_uris": {"android": "https://dc.lft.to/lastmile_qr_scan", "ios": "https://dc.lft.to/lastmile_qr_scan"}, "is_disabled": 0, "fusion_lat": 0.0, "lat": 38.924051666666664, "is_reserved": 0}, {"lon": -77.003425, "fusion_lon": 0.0, "bike_id": "c6e8fb05236a2e290e9eb0e1327e62cc", "type": "electric_scooter", "name": "c6e8fb05236a2e290e9eb0e1327e62cc", "rental_uris": {"android": "https://dc.lft.to/lastmile_qr_scan", "ios": "https://dc.lft.to/lastmile_qr_scan"}, "is_disabled": 0, "fusion_lat": 0.0, "lat": 38.89509666666667, "is_reserved": 0}, {"lon": -77.005779, "fusion_lon": 0.0, "bike_id": "a582be7036e38d10b0599faea49094db", "type": "electric_scooter", "name": "a582be7036e38d10b0599faea49094db", "rental_uris": {"android": "https://dc.lft.to/lastmile_qr_scan", "ios": "https://dc.lft.to/lastmile_qr_scan"}, "is_disabled": 0, "fusion_lat": 0.0, "lat": 38.92941916666667, "is_reserved": 0}, {"lon": -77.03589016666666, "fusion_lon": 0.0, "bike_id": "a4ea2c774bf98cf7c3f45bdf775b8c27", "type": "electric_scooter", "name": "a4ea2c774bf98cf7c3f45bdf775b8c27", "rental_uris": {"android": "https://dc.lft.to/lastmile_qr_scan", "ios": "https://dc.lft.to/lastmile_qr_scan"}, "is_disabled": 0, "fusion_lat": 0.0, "lat": 38.93671966666667, "is_reserved": 0}, {"lon": -77.0227025, "fusion_lon": 0.0, "bike_id": "7e4d2ca8b99b09db5f5d8ee146df8784", "type": "electric_scooter", "name": "7e4d2ca8b99b09db5f5d8ee146df8784", "rental_uris": {"android": "https://dc.lft.to/lastmile_qr_scan", "ios": "https://dc.lft.to/lastmile_qr_scan"}, "is_disabled": 0, "fusion_lat": 0.0, "lat": 38.927011666666665, "is_reserved": 0}, {"lon": -77.08654566666667, "fusion_lon": 0.0, "bike_id": "8e45d2aa58e7ffab7d4f43f43d54d98a", "type": "electric_bike", "name": "8e45d2aa58e7ffab7d4f43f43d54d98a", "rental_uris": {"android": "https://dc.lft.to/lastmile_qr_scan", "ios": "https://dc.lft.to/lastmile_qr_scan"}, "is_disabled": 0, "fusion_lat": 0.0, "lat": 38.86244666666666, "is_reserved": 0}, {"lon": -76.94651633333334, "fusion_lon": 0.0, "bike_id": "5d1f1c9bb9e08551a9e78de0339e20c6", "type": "electric_scooter", "name": "5d1f1c9bb9e08551a9e78de0339e20c6", "rental_uris": {"android": "https://dc.lft.to/lastmile_qr_scan", "ios": "https://dc.lft.to/lastmile_qr_scan"}, "is_disabled": 0, "fusion_lat": 0.0, "lat": 38.898256833333335, "is_reserved": 0}, {"lon": -77.02956266666666, "fusion_lon": 0.0, "bike_id": "7445d3f1f4e2f8c1f8c27fade82ff8cd", "type": "electric_scooter", "name": "7445d3f1f4e2f8c1f8c27fade82ff8cd", "rental_uris": {"android": "https://dc.lft.to/lastmile_qr_scan", "ios": "https://dc.lft.to/lastmile_qr_scan"}, "is_disabled": 0, "fusion_lat": 0.0, "lat": 38.922784, "is_reserved": 0}, {"lon": -76.990757, "fusion_lon": 0.0, "bike_id": "c0086ebef875ad0e6093b45fe2401188", "type": "electric_bike", "name": "c0086ebef875ad0e6093b45fe2401188", "rental_uris": {"android": "https://dc.lft.to/lastmile_qr_scan", "ios": "https://dc.lft.to/lastmile_qr_scan"}, "is_disabled": 0, "fusion_lat": 0.0, "lat": 38.89812583333333, "is_reserved": 0}, {"lon": -77.02420866666667, "fusion_lon": 0.0, "bike_id": "c566f1fe2448d60792a24ab62f4aebba", "type": "electric_scooter", "name": "c566f1fe2448d60792a24ab62f4aebba", "rental_uris": {"android": "https://dc.lft.to/lastmile_qr_scan", "ios": "https://dc.lft.to/lastmile_qr_scan"}, "is_disabled": 0, "fusion_lat": 0.0, "lat": 38.896923666666666, "is_reserved": 0}, {"lon": -77.03503133333334, "fusion_lon": 0.0, "bike_id": "14b47567b7284f369bb2ca48297e92e5", "type": "electric_scooter", "name": "14b47567b7284f369bb2ca48297e92e5", "rental_uris": {"android": "https://dc.lft.to/lastmile_qr_scan", "ios": "https://dc.lft.to/lastmile_qr_scan"}, "is_disabled": 0, "fusion_lat": 0.0, "lat": 38.92332783333333, "is_reserved": 0}, {"lon": -76.99795566666667, "fusion_lon": 0.0, "bike_id": "2343dd80d1fdebb452bfdf1e48a49dc1", "type": "electric_bike", "name": "2343dd80d1fdebb452bfdf1e48a49dc1", "rental_uris": {"android": "https://dc.lft.to/lastmile_qr_scan", "ios": "https://dc.lft.to/lastmile_qr_scan"}, "is_disabled": 0, "fusion_lat": 0.0, "lat": 38.950903, "is_reserved": 0}, {"lon": -77.02638183333333, "fusion_lon": 0.0, "bike_id": "1b6e436abdec76354f64d335f71283ab", "type": "electric_scooter", "name": "1b6e436abdec76354f64d335f71283ab", "rental_uris": {"android": "https://dc.lft.to/lastmile_qr_scan", "ios": "https://dc.lft.to/lastmile_qr_scan"}, "is_disabled": 0, "fusion_lat": 0.0, "lat": 38.936563, "is_reserved": 0}, {"lon": -77.03614016666667, "fusion_lon": 0.0, "bike_id": "79965e241bdb18f0b3030a8ac96e1938", "type": "electric_scooter", "name": "79965e241bdb18f0b3030a8ac96e1938", "rental_uris": {"android": "https://dc.lft.to/lastmile_qr_scan", "ios": "https://dc.lft.to/lastmile_qr_scan"}, "is_disabled": 0, "fusion_lat": 0.0, "lat": 38.917292333333336, "is_reserved": 0}, {"lon": -77.0417305, "fusion_lon": 0.0, "bike_id": "cfbb2da66b70ffe3746371e99bc62e40", "type": "electric_scooter", "name": "cfbb2da66b70ffe3746371e99bc62e40", "rental_uris": {"android": "https://dc.lft.to/lastmile_qr_scan", "ios": "https://dc.lft.to/lastmile_qr_scan"}, "is_disabled": 0, "fusion_lat": 0.0, "lat": 38.918392833333336, "is_reserved": 0}, {"lon": -77.04367683333334, "fusion_lon": 0.0, "bike_id": "58852abed51c3816fec810dfdd628ab4", "type": "electric_scooter", "name": "58852abed51c3816fec810dfdd628ab4", "rental_uris": {"android": "https://dc.lft.to/lastmile_qr_scan", "ios": "https://dc.lft.to/lastmile_qr_scan"}, "is_disabled": 0, "fusion_lat": 0.0, "lat": 38.892209, "is_reserved": 0}, {"lon": -77.0176225, "fusion_lon": 0.0, "bike_id": "09883f196058585c57c1924f25a466b4", "type": "electric_scooter", "name": "09883f196058585c57c1924f25a466b4", "rental_uris": {"android": "https://dc.lft.to/lastmile_qr_scan", "ios": "https://dc.lft.to/lastmile_qr_scan"}, "is_disabled": 0, "fusion_lat": 0.0, "lat": 38.9027605, "is_reserved": 0}, {"lon": -77.01988433333334, "fusion_lon": 0.0, "bike_id": "4142650388db19f1db18e7f5cb193474", "type": "electric_scooter", "name": "4142650388db19f1db18e7f5cb193474", "rental_uris": {"android": "https://dc.lft.to/lastmile_qr_scan", "ios": "https://dc.lft.to/lastmile_qr_scan"}, "is_disabled": 0, "fusion_lat": 0.0, "lat": 38.895445, "is_reserved": 0}, {"lon": -76.95583116666667, "fusion_lon": 0.0, "bike_id": "06f5c538ed358934829827caf4fa018d", "type": "electric_scooter", "name": "06f5c538ed358934829827caf4fa018d", "rental_uris": {"android": "https://dc.lft.to/lastmile_qr_scan", "ios": "https://dc.lft.to/lastmile_qr_scan"}, "is_disabled": 0, "fusion_lat": 0.0, "lat": 38.8861215, "is_reserved": 0}, {"lon": -77.03640916666667, "fusion_lon": 0.0, "bike_id": "1f1ec17c607310ba0b8d0bdf51ad7ed8", "type": "electric_scooter", "name": "1f1ec17c607310ba0b8d0bdf51ad7ed8", "rental_uris": {"android": "https://dc.lft.to/lastmile_qr_scan", "ios": "https://dc.lft.to/lastmile_qr_scan"}, "is_disabled": 0, "fusion_lat": 0.0, "lat": 38.926973833333335, "is_reserved": 0}, {"lon": -76.99482383333333, "fusion_lon": 0.0, "bike_id": "e5b5061f7f28c39e1de77c2980f85fc7", "type": "electric_scooter", "name": "e5b5061f7f28c39e1de77c2980f85fc7", "rental_uris": {"android": "https://dc.lft.to/lastmile_qr_scan", "ios": "https://dc.lft.to/lastmile_qr_scan"}, "is_disabled": 0, "fusion_lat": 0.0, "lat": 38.862184, "is_reserved": 0}, {"lon": -77.03903133333333, "fusion_lon": 0.0, "bike_id": "16660eaecb2410e4b77120e331cb1d1d", "type": "electric_scooter", "name": "16660eaecb2410e4b77120e331cb1d1d", "rental_uris": {"android": "https://dc.lft.to/lastmile_qr_scan", "ios": "https://dc.lft.to/lastmile_qr_scan"}, "is_disabled": 0, "fusion_lat": 0.0, "lat": 38.9226325, "is_reserved": 0}, {"lon": -77.0434935, "fusion_lon": 0.0, "bike_id": "45cd214e2c8e225e6ed4e184b072a5a4", "type": "electric_scooter", "name": "45cd214e2c8e225e6ed4e184b072a5a4", "rental_uris": {"android": "https://dc.lft.to/lastmile_qr_scan", "ios": "https://dc.lft.to/lastmile_qr_scan"}, "is_disabled": 0, "fusion_lat": 0.0, "lat": 38.90426433333333, "is_reserved": 0}, {"lon": -77.02200766666667, "fusion_lon": 0.0, "bike_id": "5876eb8528ba03e577984b33ed440cec", "type": "electric_scooter", "name": "5876eb8528ba03e577984b33ed440cec", "rental_uris": {"android": "https://dc.lft.to/lastmile_qr_scan", "ios": "https://dc.lft.to/lastmile_qr_scan"}, "is_disabled": 0, "fusion_lat": 0.0, "lat": 38.947989, "is_reserved": 0}, {"lon": -76.95752866666666, "fusion_lon": 0.0, "bike_id": "6265030845f548c98a3afee7022c6776", "type": "electric_scooter", "name": "6265030845f548c98a3afee7022c6776", "rental_uris": {"android": "https://dc.lft.to/lastmile_qr_scan", "ios": "https://dc.lft.to/lastmile_qr_scan"}, "is_disabled": 0, "fusion_lat": 0.0, "lat": 38.884277833333336, "is_reserved": 0}, {"lon": -76.99803883333334, "fusion_lon": 0.0, "bike_id": "97425b52d7c06ef601c0dcc61a064bcd", "type": "electric_scooter", "name": "97425b52d7c06ef601c0dcc61a064bcd", "rental_uris": {"android": "https://dc.lft.to/lastmile_qr_scan", "ios": "https://dc.lft.to/lastmile_qr_scan"}, "is_disabled": 0, "fusion_lat": 0.0, "lat": 38.9013535, "is_reserved": 0}, {"lon": -77.00515333333334, "fusion_lon": 0.0, "bike_id": "fb6931717d2bb83e78bea22478798aa9", "type": "electric_scooter", "name": "fb6931717d2bb83e78bea22478798aa9", "rental_uris": {"android": "https://dc.lft.to/lastmile_qr_scan", "ios": "https://dc.lft.to/lastmile_qr_scan"}, "is_disabled": 0, "fusion_lat": 0.0, "lat": 38.8959865, "is_reserved": 0}, {"lon": -76.98675433333334, "fusion_lon": 0.0, "bike_id": "abbf46abef779abeea04e0a9ec83a19b", "type": "electric_scooter", "name": "abbf46abef779abeea04e0a9ec83a19b", "rental_uris": {"android": "https://dc.lft.to/lastmile_qr_scan", "ios": "https://dc.lft.to/lastmile_qr_scan"}, "is_disabled": 0, "fusion_lat": 0.0, "lat": 38.90678716666667, "is_reserved": 0}, {"lon": -77.03163133333334, "fusion_lon": 0.0, "bike_id": "090271a2f55bd291451f4fb063289f27", "type": "electric_scooter", "name": "090271a2f55bd291451f4fb063289f27", "rental_uris": {"android": "https://dc.lft.to/lastmile_qr_scan", "ios": "https://dc.lft.to/lastmile_qr_scan"}, "is_disabled": 0, "fusion_lat": 0.0, "lat": 38.91758333333333, "is_reserved": 0}, {"lon": -76.99540166666667, "fusion_lon": 0.0, "bike_id": "e40b86f343d036118c39de6db451af3b", "type": "electric_scooter", "name": "e40b86f343d036118c39de6db451af3b", "rental_uris": {"android": "https://dc.lft.to/lastmile_qr_scan", "ios": "https://dc.lft.to/lastmile_qr_scan"}, "is_disabled": 0, "fusion_lat": 0.0, "lat": 38.9266535, "is_reserved": 0}, {"lon": -77.04484533333333, "fusion_lon": 0.0, "bike_id": "205e8d8e2b06f087f174af038a12175d", "type": "electric_scooter", "name": "205e8d8e2b06f087f174af038a12175d", "rental_uris": {"android": "https://dc.lft.to/lastmile_qr_scan", "ios": "https://dc.lft.to/lastmile_qr_scan"}, "is_disabled": 0, "fusion_lat": 0.0, "lat": 38.895270333333336, "is_reserved": 0}, {"lon": -77.0497165, "fusion_lon": 0.0, "bike_id": "92c3e9c6a58619d2017e17ae67c86b17", "type": "electric_scooter", "name": "92c3e9c6a58619d2017e17ae67c86b17", "rental_uris": {"android": "https://dc.lft.to/lastmile_qr_scan", "ios": "https://dc.lft.to/lastmile_qr_scan"}, "is_disabled": 0, "fusion_lat": 0.0, "lat": 38.911182833333335, "is_reserved": 0}, {"lon": -77.05360383333333, "fusion_lon": 0.0, "bike_id": "75fb9e1f8501d76c7374e4b5632d37d4", "type": "electric_scooter", "name": "75fb9e1f8501d76c7374e4b5632d37d4", "rental_uris": {"android": "https://dc.lft.to/lastmile_qr_scan", "ios": "https://dc.lft.to/lastmile_qr_scan"}, "is_disabled": 0, "fusion_lat": 0.0, "lat": 38.927027, "is_reserved": 0}, {"lon": -77.034453, "fusion_lon": 0.0, "bike_id": "0ebefc9c23525dabef0f664a55aaeea5", "type": "electric_scooter", "name": "0ebefc9c23525dabef0f664a55aaeea5", "rental_uris": {"android": "https://dc.lft.to/lastmile_qr_scan", "ios": "https://dc.lft.to/lastmile_qr_scan"}, "is_disabled": 0, "fusion_lat": 0.0, "lat": 38.91740183333334, "is_reserved": 0}, {"lon": -77.03973766666667, "fusion_lon": 0.0, "bike_id": "f8c11dc8f476c364cfd50616fe455609", "type": "electric_scooter", "name": "f8c11dc8f476c364cfd50616fe455609", "rental_uris": {"android": "https://dc.lft.to/lastmile_qr_scan", "ios": "https://dc.lft.to/lastmile_qr_scan"}, "is_disabled": 0, "fusion_lat": 0.0, "lat": 38.8942755, "is_reserved": 0}, {"lon": -77.0383285, "fusion_lon": 0.0, "bike_id": "46cf9553094d4c9428392ed8c1244633", "type": "electric_scooter", "name": "46cf9553094d4c9428392ed8c1244633", "rental_uris": {"android": "https://dc.lft.to/lastmile_qr_scan", "ios": "https://dc.lft.to/lastmile_qr_scan"}, "is_disabled": 0, "fusion_lat": 0.0, "lat": 38.91255733333333, "is_reserved": 0}, {"lon": -77.03264733333333, "fusion_lon": 0.0, "bike_id": "6e084efeb1cdf0c0044cc8f573a13f1b", "type": "electric_scooter", "name": "6e084efeb1cdf0c0044cc8f573a13f1b", "rental_uris": {"android": "https://dc.lft.to/lastmile_qr_scan", "ios": "https://dc.lft.to/lastmile_qr_scan"}, "is_disabled": 0, "fusion_lat": 0.0, "lat": 38.93400616666667, "is_reserved": 0}, {"lon": -77.01858833333333, "fusion_lon": 0.0, "bike_id": "a5d25f39c2fe139b50f2ed3791d02473", "type": "electric_scooter", "name": "a5d25f39c2fe139b50f2ed3791d02473", "rental_uris": {"android": "https://dc.lft.to/lastmile_qr_scan", "ios": "https://dc.lft.to/lastmile_qr_scan"}, "is_disabled": 0, "fusion_lat": 0.0, "lat": 38.949204, "is_reserved": 0}, {"lon": -77.0679955, "fusion_lon": 0.0, "bike_id": "d0fe68345e477f8c6d8c4bf52197d66a", "type": "electric_scooter", "name": "d0fe68345e477f8c6d8c4bf52197d66a", "rental_uris": {"android": "https://dc.lft.to/lastmile_qr_scan", "ios": "https://dc.lft.to/lastmile_qr_scan"}, "is_disabled": 0, "fusion_lat": 0.0, "lat": 38.91279683333333, "is_reserved": 0}, {"lon": -77.0258505, "fusion_lon": 0.0, "bike_id": "7e350d909ba1faa890e7775b05ca3317", "type": "electric_scooter", "name": "7e350d909ba1faa890e7775b05ca3317", "rental_uris": {"android": "https://dc.lft.to/lastmile_qr_scan", "ios": "https://dc.lft.to/lastmile_qr_scan"}, "is_disabled": 0, "fusion_lat": 0.0, "lat": 38.9042975, "is_reserved": 0}, {"lon": -77.0280895, "fusion_lon": 0.0, "bike_id": "c1c0bab7b138382f5bdc36029caf8e4c", "type": "electric_bike", "name": "c1c0bab7b138382f5bdc36029caf8e4c", "rental_uris": {"android": "https://dc.lft.to/lastmile_qr_scan", "ios": "https://dc.lft.to/lastmile_qr_scan"}, "is_disabled": 0, "fusion_lat": 0.0, "lat": 38.96566683333333, "is_reserved": 0}, {"lon": -77.01638966666667, "fusion_lon": 0.0, "bike_id": "b468f8b7c71e0deab0a83a8801f85909", "type": "electric_scooter", "name": "b468f8b7c71e0deab0a83a8801f85909", "rental_uris": {"android": "https://dc.lft.to/lastmile_qr_scan", "ios": "https://dc.lft.to/lastmile_qr_scan"}, "is_disabled": 0, "fusion_lat": 0.0, "lat": 38.903420833333335, "is_reserved": 0}, {"lon": -76.93338916666667, "fusion_lon": 0.0, "bike_id": "0c5dcad3fb4b5acb44112b45fe471f23", "type": "electric_scooter", "name": "0c5dcad3fb4b5acb44112b45fe471f23", "rental_uris": {"android": "https://dc.lft.to/lastmile_qr_scan", "ios": "https://dc.lft.to/lastmile_qr_scan"}, "is_disabled": 0, "fusion_lat": 0.0, "lat": 38.90867766666667, "is_reserved": 0}, {"lon": -77.04861666666666, "fusion_lon": 0.0, "bike_id": "93d17eb3d9ed25d55a29534f711a5f0f", "type": "electric_scooter", "name": "93d17eb3d9ed25d55a29534f711a5f0f", "rental_uris": {"android": "https://dc.lft.to/lastmile_qr_scan", "ios": "https://dc.lft.to/lastmile_qr_scan"}, "is_disabled": 0, "fusion_lat": 0.0, "lat": 38.904752333333334, "is_reserved": 0}, {"lon": -77.02811483333333, "fusion_lon": 0.0, "bike_id": "270a649168703e8510fa5f87743e282a", "type": "electric_scooter", "name": "270a649168703e8510fa5f87743e282a", "rental_uris": {"android": "https://dc.lft.to/lastmile_qr_scan", "ios": "https://dc.lft.to/lastmile_qr_scan"}, "is_disabled": 0, "fusion_lat": 0.0, "lat": 38.93079916666667, "is_reserved": 0}, {"lon": -77.028952, "fusion_lon": 0.0, "bike_id": "1e66029183cfd7bd856b457b4f3bb1b6", "type": "electric_scooter", "name": "1e66029183cfd7bd856b457b4f3bb1b6", "rental_uris": {"android": "https://dc.lft.to/lastmile_qr_scan", "ios": "https://dc.lft.to/lastmile_qr_scan"}, "is_disabled": 0, "fusion_lat": 0.0, "lat": 38.92764116666667, "is_reserved": 0}, {"lon": -77.0499825, "fusion_lon": 0.0, "bike_id": "64fe0f7fcaed85db285bc6e3335cfaf7", "type": "electric_scooter", "name": "64fe0f7fcaed85db285bc6e3335cfaf7", "rental_uris": {"android": "https://dc.lft.to/lastmile_qr_scan", "ios": "https://dc.lft.to/lastmile_qr_scan"}, "is_disabled": 0, "fusion_lat": 0.0, "lat": 38.892314, "is_reserved": 0}, {"lon": -77.04131683333334, "fusion_lon": 0.0, "bike_id": "549e4e5553fbf75a092b0ceb1d4db0ac", "type": "electric_scooter", "name": "549e4e5553fbf75a092b0ceb1d4db0ac", "rental_uris": {"android": "https://dc.lft.to/lastmile_qr_scan", "ios": "https://dc.lft.to/lastmile_qr_scan"}, "is_disabled": 0, "fusion_lat": 0.0, "lat": 38.9249365, "is_reserved": 0}, {"lon": -76.99783216666667, "fusion_lon": 0.0, "bike_id": "8464dd44982f6e580f7526a9bb04f3f4", "type": "electric_scooter", "name": "8464dd44982f6e580f7526a9bb04f3f4", "rental_uris": {"android": "https://dc.lft.to/lastmile_qr_scan", "ios": "https://dc.lft.to/lastmile_qr_scan"}, "is_disabled": 0, "fusion_lat": 0.0, "lat": 38.8443895, "is_reserved": 0}, {"lon": -77.04880266666666, "fusion_lon": 0.0, "bike_id": "68522fbbd89e72457356ecb3e408f146", "type": "electric_scooter", "name": "68522fbbd89e72457356ecb3e408f146", "rental_uris": {"android": "https://dc.lft.to/lastmile_qr_scan", "ios": "https://dc.lft.to/lastmile_qr_scan"}, "is_disabled": 0, "fusion_lat": 0.0, "lat": 38.89860066666667, "is_reserved": 0}, {"lon": -77.0438225, "fusion_lon": 0.0, "bike_id": "89f78e1eaeab5fc00250007c8fb267d5", "type": "electric_scooter", "name": "89f78e1eaeab5fc00250007c8fb267d5", "rental_uris": {"android": "https://dc.lft.to/lastmile_qr_scan", "ios": "https://dc.lft.to/lastmile_qr_scan"}, "is_disabled": 0, "fusion_lat": 0.0, "lat": 38.90015966666667, "is_reserved": 0}, {"lon": -76.99295616666667, "fusion_lon": 0.0, "bike_id": "850bfab6fb6e58ff7b14f3502f9ea12f", "type": "electric_scooter", "name": "850bfab6fb6e58ff7b14f3502f9ea12f", "rental_uris": {"android": "https://dc.lft.to/lastmile_qr_scan", "ios": "https://dc.lft.to/lastmile_qr_scan"}, "is_disabled": 0, "fusion_lat": 0.0, "lat": 38.857549666666664, "is_reserved": 0}, {"lon": -76.951817, "fusion_lon": 0.0, "bike_id": "25b660958f4afeef68fde73f61d9b53c", "type": "electric_bike", "name": "25b660958f4afeef68fde73f61d9b53c", "rental_uris": {"android": "https://dc.lft.to/lastmile_qr_scan", "ios": "https://dc.lft.to/lastmile_qr_scan"}, "is_disabled": 0, "fusion_lat": 0.0, "lat": 39.0845125, "is_reserved": 0}, {"lon": -77.04350183333334, "fusion_lon": 0.0, "bike_id": "1f6ead9419d8b67401e23cb36564b16c", "type": "electric_scooter", "name": "1f6ead9419d8b67401e23cb36564b16c", "rental_uris": {"android": "https://dc.lft.to/lastmile_qr_scan", "ios": "https://dc.lft.to/lastmile_qr_scan"}, "is_disabled": 0, "fusion_lat": 0.0, "lat": 38.921226833333336, "is_reserved": 0}, {"lon": -77.066476, "fusion_lon": 0.0, "bike_id": "e1cc340591f07f0274adc2a6eb0d7d9a", "type": "electric_scooter", "name": "e1cc340591f07f0274adc2a6eb0d7d9a", "rental_uris": {"android": "https://dc.lft.to/lastmile_qr_scan", "ios": "https://dc.lft.to/lastmile_qr_scan"}, "is_disabled": 0, "fusion_lat": 0.0, "lat": 38.94954416666667, "is_reserved": 0}, {"lon": -77.02392783333333, "fusion_lon": 0.0, "bike_id": "c293f9c55cdb5c7944add974b1fed5a2", "type": "electric_scooter", "name": "c293f9c55cdb5c7944add974b1fed5a2", "rental_uris": {"android": "https://dc.lft.to/lastmile_qr_scan", "ios": "https://dc.lft.to/lastmile_qr_scan"}, "is_disabled": 0, "fusion_lat": 0.0, "lat": 38.91678066666667, "is_reserved": 0}, {"lon": -77.05148116666666, "fusion_lon": 0.0, "bike_id": "8e7f8666d07ca7817eb68e8bd21f5d97", "type": "electric_scooter", "name": "8e7f8666d07ca7817eb68e8bd21f5d97", "rental_uris": {"android": "https://dc.lft.to/lastmile_qr_scan", "ios": "https://dc.lft.to/lastmile_qr_scan"}, "is_disabled": 0, "fusion_lat": 0.0, "lat": 38.92376483333334, "is_reserved": 0},