{"data": {"bikes": [{"is_disabled": 0, "fusion_lon": 0.0, "fusion_lat": 0.0, "lat": 38.9054345, "type": "electric_scooter", "lon": -77.04710283333333, "bike_id": "c7494e12104c807a93560f8c804ee89d", "rental_uris": {"android": "https://dc.lft.to/lastmile_qr_scan", "ios": "https://dc.lft.to/lastmile_qr_scan"}, "name": "c7494e12104c807a93560f8c804ee89d", "is_reserved": 0}, {"is_disabled": 0, "fusion_lon": 0.0, "fusion_lat": 0.0, "lat": 38.8451825, "type": "electric_bike", "lon": -77.07796266666666, "bike_id": "be2530ed53393a361ed0cc91d865e558", "rental_uris": {"android": "https://dc.lft.to/lastmile_qr_scan", "ios": "https://dc.lft.to/lastmile_qr_scan"}, "name": "be2530ed53393a361ed0cc91d865e558", "is_reserved": 0}, {"is_disabled": 0, "fusion_lon": 0.0, "fusion_lat": 0.0, "lat": 38.90684016666667, "type": "electric_scooter", "lon": -77.0269385, "bike_id": "ac8ed1a8114b190c1431f73ee00a317c", "rental_uris": {"android": "https://dc.lft.to/lastmile_qr_scan", "ios": "https://dc.lft.to/lastmile_qr_scan"}, "name": "ac8ed1a8114b190c1431f73ee00a317c", "is_reserved": 0}, {"is_disabled": 0, "fusion_lon": 0.0, "fusion_lat": 0.0, "lat": 38.922636833333335, "type": "electric_bike", "lon": -77.0771615, "bike_id": "ab5f638b9b841a7d0591ba34cddd2f25", "rental_uris": {"android": "https://dc.lft.to/lastmile_qr_scan", "ios": "https://dc.lft.to/lastmile_qr_scan"}, "name": "ab5f638b9b841a7d0591ba34cddd2f25", "is_reserved": 0}, {"is_disabled": 0, "fusion_lon": 0.0, "fusion_lat": 0.0, "lat": 38.912702833333334, "type": "electric_scooter", "lon": -77.0082875, "bike_id": "9b17b7308b62949ee2c7610e1bcef953", "rental_uris": {"android": "https://dc.lft.to/lastmile_qr_scan", "ios": "https://dc.lft.to/lastmile_qr_scan"}, "name": "9b17b7308b62949ee2c7610e1bcef953", "is_reserved": 0}, {"is_disabled": 0, "fusion_lon": 0.0, "fusion_lat": 0.0, "lat": 38.908348, "type": "electric_scooter", "lon": -76.9969655, "bike_id": "51d575661237250039bc26dc6090251b", "rental_uris": {"android": "https://dc.lft.to/lastmile_qr_scan", "ios": "https://dc.lft.to/lastmile_qr_scan"}, "name": "51d575661237250039bc26dc6090251b", "is_reserved": 0}, {"is_disabled": 0, "fusion_lon": 0.0, "fusion_lat": 0.0, "lat": 38.9167645, "type": "electric_scooter", "lon": -77.02717833333334, "bike_id": "0f1e0db2690b6ef70209e3f1aae2d305", "rental_uris": {"android": "https://dc.lft.to/lastmile_qr_scan", "ios": "https://dc.lft.to/lastmile_qr_scan"}, "name": "0f1e0db2690b6ef70209e3f1aae2d305", "is_reserved": 0}, {"is_disabled": 0, "fusion_lon": 0.0, "fusion_lat": 0.0, "lat": 38.901964166666666, "type": "electric_scooter", "lon": -77.03943, "bike_id": "d4d65aef3722c042f7dd4267615ff313", "rental_uris": {"android": "https://dc.lft.to/lastmile_qr_scan", "ios": "https://dc.lft.to/lastmile_qr_scan"}, "name": "d4d65aef3722c042f7dd4267615ff313", "is_reserved": 0}, {"is_disabled": 0, "fusion_lon": 0.0, "fusion_lat": 0.0, "lat": 38.90176566666667, "type": "electric_scooter", "lon": -77.0249385, "bike_id": "f6efda4d75b4f8f8c35193664a5b1736", "rental_uris": {"android": "https://dc.lft.to/lastmile_qr_scan", "ios": "https://dc.lft.to/lastmile_qr_scan"}, "name": "f6efda4d75b4f8f8c35193664a5b1736", "is_reserved": 0}, {"is_disabled": 0, "fusion_lon": 0.0, "fusion_lat": 0.0, "lat": 38.87630733333334, "type": "electric_scooter", "lon": -77.00945166666666, "bike_id": "000d06feacaddf33d366e94f01f919db", "rental_uris": {"android": "https://dc.lft.to/lastmile_qr_scan", "ios": "https://dc.lft.to/lastmile_qr_scan"}, "name": "000d06feacaddf33d366e94f01f919db", "is_reserved": 0}, {"is_disabled": 0, "fusion_lon": 0.0, "fusion_lat": 0.0, "lat": 38.882665833333334, "type": "electric_scooter", "lon": -76.98544583333333, "bike_id": "42ef6ba493bb55e096c31e6f19c25367", "rental_uris": {"android": "https://dc.lft.to/lastmile_qr_scan", "ios": "https://dc.lft.to/lastmile_qr_scan"}, "name": "42ef6ba493bb55e096c31e6f19c25367", "is_reserved": 0}, {"is_disabled": 0, "fusion_lon": 0.0, "fusion_lat": 0.0, "lat": 38.8724355, "type": "electric_scooter", "lon": -76.97727983333333, "bike_id": "9f0be7c4f4f2dedc8d917da056fbc8ea", "rental_uris": {"android": "https://dc.lft.to/lastmile_qr_scan", "ios": "https://dc.lft.to/lastmile_qr_scan"}, "name": "9f0be7c4f4f2dedc8d917da056fbc8ea", "is_reserved": 0}, {"is_disabled": 0, "fusion_lon": 0.0, "fusion_lat": 0.0, "lat": 38.831933166666666, "type": "electric_bike", "lon": -77.0768165, "bike_id": "47985e90a1cf47e124d6af7ddec22b4c", "rental_uris": {"android": "https://dc.lft.to/lastmile_qr_scan", "ios": "https://dc.lft.to/lastmile_qr_scan"}, "name": "47985e90a1cf47e124d6af7ddec22b4c", "is_reserved": 0}, {"is_disabled": 0, "fusion_lon": 0.0, "fusion_lat": 0.0, "lat": 38.9154225, "type": "electric_scooter", "lon": -77.0379065, "bike_id": "ee8e262d8c4a476b7ca46e4ece8a8548", "rental_uris": {"android": "https://dc.lft.to/lastmile_qr_scan", "ios": "https://dc.lft.to/lastmile_qr_scan"}, "name": "ee8e262d8c4a476b7ca46e4ece8a8548", "is_reserved": 0}, {"is_disabled": 0, "fusion_lon": 0.0, "fusion_lat": 0.0, "lat": 38.887697833333334, "type": "electric_bike", "lon": -77.12257466666667, "bike_id": "be3bdf5d1aca27b18b6e223aa00c0870", "rental_uris": {"android": "https://dc.lft.to/lastmile_qr_scan", "ios": "https://dc.lft.to/lastmile_qr_scan"}, "name": "be3bdf5d1aca27b18b6e223aa00c0870", "is_reserved": 0}, {"is_disabled": 0, "fusion_lon": 0.0, "fusion_lat": 0.0, "lat": 38.9133445, "type": "electric_scooter", "lon": -77.04855033333334, "bike_id": "0c5b09467032a4fa8bfd60c6902f3f19", "rental_uris": {"android": "https://dc.lft.to/lastmile_qr_scan", "ios": "https://dc.lft.to/lastmile_qr_scan"}, "name": "0c5b09467032a4fa8bfd60c6902f3f19", "is_reserved": 0}, {"is_disabled": 0, "fusion_lon": 0.0, "fusion_lat": 0.0, "lat": 38.925725666666665, "type": "electric_scooter", "lon": -77.0287295, "bike_id": "233fcfe373d40d0e3777f8d3bdf9d5dc", "rental_uris": {"android": "https://dc.lft.to/lastmile_qr_scan", "ios": "https://dc.lft.to/lastmile_qr_scan"}, "name": "233fcfe373d40d0e3777f8d3bdf9d5dc", "is_reserved": 0}, {"is_disabled": 0, "fusion_lon": 0.0, "fusion_lat": 0.0, "lat": 38.82876516666666, "type": "electric_bike", "lon": -77.11228166666666, "bike_id": "416d3f206e26f4f5ea2a2257b7e48411", "rental_uris": {"android": "https://dc.lft.to/lastmile_qr_scan", "ios": "https://dc.lft.to/lastmile_qr_scan"}, "name": "416d3f206e26f4f5ea2a2257b7e48411", "is_reserved": 0}, {"is_disabled": 0, "fusion_lon": 0.0, "fusion_lat": 0.0, "lat": 38.95176816666667, "type": "electric_scooter", "lon": -77.05653966666667, "bike_id": "4213a6891cd5822ee0eecaee79f7cd5e", "rental_uris": {"android": "https://dc.lft.to/lastmile_qr_scan", "ios": "https://dc.lft.to/lastmile_qr_scan"}, "name": "4213a6891cd5822ee0eecaee79f7cd5e", "is_reserved": 0}, {"is_disabled": 0, "fusion_lon": 0.0, "fusion_lat": 0.0, "lat": 38.96572366666667, "type": "electric_scooter", "lon": -77.01566016666666, "bike_id": "5cf7c647b7ea678703f3fb04be4faf8c", "rental_uris": {"android": "https://dc.lft.to/lastmile_qr_scan", "ios": "https://dc.lft.to/lastmile_qr_scan"}, "name": "5cf7c647b7ea678703f3fb04be4faf8c", "is_reserved": 0}, {"is_disabled": 0, "fusion_lon": 0.0, "fusion_lat": 0.0, "lat": 38.95551733333333, "type": "electric_bike", "lon": -76.9353395, "bike_id": "95c1fb2ecdf660463db4f1b9e7ed9483", "rental_uris": {"android": "https://dc.lft.to/lastmile_qr_scan", "ios": "https://dc.lft.to/lastmile_qr_scan"}, "name": "95c1fb2ecdf660463db4f1b9e7ed9483", "is_reserved": 0}, {"is_disabled": 0, "fusion_lon": 0.0, "fusion_lat": 0.0, "lat": 38.918167333333336, "type": "electric_scooter", "lon": -77.02474816666667, "bike_id": "4bb7a8dcf1104814cdeab3a150f0129e", "rental_uris": {"android": "https://dc.lft.to/lastmile_qr_scan", "ios": "https://dc.lft.to/lastmile_qr_scan"}, "name": "4bb7a8dcf1104814cdeab3a150f0129e", "is_reserved": 0}, {"is_disabled": 0, "fusion_lon": 0.0, "fusion_lat": 0.0, "lat": 38.93055583333334, "type": "electric_scooter", "lon": -77.02805283333333, "bike_id": "2b6699cd1f503d2f30b14df7fb3b8b3f", "rental_uris": {"android": "https://dc.lft.to/lastmile_qr_scan", "ios": "https://dc.lft.to/lastmile_qr_scan"}, "name": "2b6699cd1f503d2f30b14df7fb3b8b3f", "is_reserved": 0}, {"is_disabled": 0, "fusion_lon": 0.0, "fusion_lat": 0.0, "lat": 38.9178725, "type": "electric_scooter", "lon": -77.0429825, "bike_id": "147e4226ac2e8888ab1252ee45e83d94", "rental_uris": {"android": "https://dc.lft.to/lastmile_qr_scan", "ios": "https://dc.lft.to/lastmile_qr_scan"}, "name": "147e4226ac2e8888ab1252ee45e83d94", "is_reserved": 0}, {"is_disabled": 0, "fusion_lon": 0.0, "fusion_lat": 0.0, "lat": 38.8858125, "type": "electric_scooter", "lon": -76.91908783333334, "bike_id": "685eebe24357d40ff44a3172fb9b9a11", "rental_uris": {"android": "https://dc.lft.to/lastmile_qr_scan", "ios": "https://dc.lft.to/lastmile_qr_scan"}, "name": "685eebe24357d40ff44a3172fb9b9a11", "is_reserved": 0}, {"is_disabled": 0, "fusion_lon": 0.0, "fusion_lat": 0.0, "lat": 38.916625833333335, "type": "electric_scooter", "lon": -77.03848183333334, "bike_id": "4c31a75c328c8d1603adad519b4eb0e2", "rental_uris": {"android": "https://dc.lft.to/lastmile_qr_scan", "ios": "https://dc.lft.to/lastmile_qr_scan"}, "name": "4c31a75c328c8d1603adad519b4eb0e2", "is_reserved": 0}, {"is_disabled": 0, "fusion_lon": 0.0, "fusion_lat": 0.0, "lat": 38.9084325, "type": "electric_scooter", "lon": -77.0269655, "bike_id": "967bab305f691d77026ab7bf8d4e9655", "rental_uris": {"android": "https://dc.lft.to/lastmile_qr_scan", "ios": "https://dc.lft.to/lastmile_qr_scan"}, "name": "967bab305f691d77026ab7bf8d4e9655", "is_reserved": 0}, {"is_disabled": 0, "fusion_lon": 0.0, "fusion_lat": 0.0, "lat": 38.944950666666664, "type": "electric_bike", "lon": -76.98664533333333, "bike_id": "927fbf0456e0b7d973963340e41fe78c", "rental_uris": {"android": "https://dc.lft.to/lastmile_qr_scan", "ios": "https://dc.lft.to/lastmile_qr_scan"}, "name": "927fbf0456e0b7d973963340e41fe78c", "is_reserved": 0}, {"is_disabled": 0, "fusion_lon": 0.0, "fusion_lat": 0.0, "lat": 38.914015166666665, "type": "electric_scooter", "lon": -77.00328016666667, "bike_id": "846135aebcbad721b6577a0c616ee549", "rental_uris": {"android": "https://dc.lft.to/lastmile_qr_scan", "ios": "https://dc.lft.to/lastmile_qr_scan"}, "name": "846135aebcbad721b6577a0c616ee549", "is_reserved": 0}, {"is_disabled": 0, "fusion_lon": 0.0, "fusion_lat": 0.0, "lat": 38.9076275, "type": "electric_scooter", "lon": -77.06308833333334, "bike_id": "55451bf1a24dad03d10865b86069ab64", "rental_uris": {"android": "https://dc.lft.to/lastmile_qr_scan", "ios": "https://dc.lft.to/lastmile_qr_scan"}, "name": "55451bf1a24dad03d10865b86069ab64", "is_reserved": 0}, {"is_disabled": 0, "fusion_lon": 0.0, "fusion_lat": 0.0, "lat": 38.8520915, "type": "electric_bike", "lon": -77.10128816666666, "bike_id": "756a42a7444e3a6b8e15726b2c484b4c", "rental_uris": {"android": "https://dc.lft.to/lastmile_qr_scan", "ios": "https://dc.lft.to/lastmile_qr_scan"}, "name": "756a42a7444e3a6b8e15726b2c484b4c", "is_reserved": 0}, {"is_disabled": 0, "fusion_lon": 0.0, "fusion_lat": 0.0, "lat": 38.905121666666666, "type": "electric_bike", "lon": -76.98129433333334, "bike_id": "d36ff23e2cb86e9d1514be086099afe9", "rental_uris": {"android": "https://dc.lft.to/lastmile_qr_scan", "ios": "https://dc.lft.to/lastmile_qr_scan"}, "name": "d36ff23e2cb86e9d1514be086099afe9", "is_reserved": 0}, {"is_disabled": 0, "fusion_lon": 0.0, "fusion_lat": 0.0, "lat": 38.932796833333335, "type": "electric_scooter", "lon": -76.97425516666667, "bike_id": "116c7a0e966547683ec3f90d5bda9ae7", "rental_uris": {"android": "https://dc.lft.to/lastmile_qr_scan", "ios": "https://dc.lft.to/lastmile_qr_scan"}, "name": "116c7a0e966547683ec3f90d5bda9ae7", "is_reserved": 0}, {"is_disabled": 0, "fusion_lon": 0.0, "fusion_lat": 0.0, "lat": 38.927525833333334, "type": "electric_scooter", "lon": -77.00595933333334, "bike_id": "e5e757b22e0272e15a870b6ab70e9315", "rental_uris": {"android": "https://dc.lft.to/lastmile_qr_scan", "ios": "https://dc.lft.to/lastmile_qr_scan"}, "name": "e5e757b22e0272e15a870b6ab70e9315", "is_reserved": 0}, {"is_disabled": 0, "fusion_lon": 0.0, "fusion_lat": 0.0, "lat": 38.8603705, "type": "electric_scooter", "lon": -76.99686333333334, "bike_id": "fe1c34bb6395d4bc5dbe06ade4a65ff4", "rental_uris": {"android": "https://dc.lft.to/lastmile_qr_scan", "ios": "https://dc.lft.to/lastmile_qr_scan"}, "name": "fe1c34bb6395d4bc5dbe06ade4a65ff4", "is_reserved": 0}, {"is_disabled": 0, "fusion_lon": 0.0, "fusion_lat": 0.0, "lat": 38.999332, "type": "electric_bike", "lon": -77.00124583333333, "bike_id": "06e8bab410a514d8c7b577b26d085a67", "rental_uris": {"android": "https://dc.lft.to/lastmile_qr_scan", "ios": "https://dc.lft.to/lastmile_qr_scan"}, "name": "06e8bab410a514d8c7b577b26d085a67", "is_reserved": 0}, {"is_disabled": 0, "fusion_lon": 0.0, "fusion_lat": 0.0, "lat": 39.09593266666667, "type": "electric_bike", "lon": -77.14777016666666, "bike_id": "3f54df84378f0f242262e1103b0fc92b", "rental_uris": {"android": "https://dc.lft.to/lastmile_qr_scan", "ios": "https://dc.lft.to/lastmile_qr_scan"}, "name": "3f54df84378f0f242262e1103b0fc92b", "is_reserved": 0}, {"is_disabled": 0, "fusion_lon": 0.0, "fusion_lat": 0.0, "lat": 38.855431833333334, "type": "electric_bike", "lon": -77.10727033333333, "bike_id": "c4c1d81a3224fbe3ca6c62a633b8850f", "rental_uris": {"android": "https://dc.lft.to/lastmile_qr_scan", "ios": "https://dc.lft.to/lastmile_qr_scan"}, "name": "c4c1d81a3224fbe3ca6c62a633b8850f", "is_reserved": 0}, {"is_disabled": 0, "fusion_lon": 0.0, "fusion_lat": 0.0, "lat": 38.91940916666667, "type": "electric_scooter", "lon": -77.08133916666667, "bike_id": "b49c4b93ce3ffbb53c77dbee2313ceed", "rental_uris": {"android": "https://dc.lft.to/lastmile_qr_scan", "ios": "https://dc.lft.to/lastmile_qr_scan"}, "name": "b49c4b93ce3ffbb53c77dbee2313ceed", "is_reserved": 0}, {"is_disabled": 0, "fusion_lon": 0.0, "fusion_lat": 0.0, "lat": 38.916169, "type": "electric_scooter", "lon": -77.04866283333334, "bike_id": "cd77261f190903cb993b0212fef9cd1a", "rental_uris": {"android": "https://dc.lft.to/lastmile_qr_scan", "ios": "https://dc.lft.to/lastmile_qr_scan"}, "name": "cd77261f190903cb993b0212fef9cd1a", "is_reserved": 0}, {"is_disabled": 0, "fusion_lon": 0.0, "fusion_lat": 0.0, "lat": 38.90637316666667, "type": "electric_scooter", "lon": -77.02505616666667, "bike_id": "b9aedd123f1d320f08d50bf02487f01f", "rental_uris": {"android": "https://dc.lft.to/lastmile_qr_scan", "ios": "https://dc.lft.to/lastmile_qr_scan"}, "name": "b9aedd123f1d320f08d50bf02487f01f", "is_reserved": 0}, {"is_disabled": 0, "fusion_lon": 0.0, "fusion_lat": 0.0, "lat": 38.89848416666667, "type": "electric_scooter", "lon": -76.94560916666667, "bike_id": "97edb6b1d00996d21d692a0058e52016", "rental_uris": {"android": "https://dc.lft.to/lastmile_qr_scan", "ios": "https://dc.lft.to/lastmile_qr_scan"}, "name": "97edb6b1d00996d21d692a0058e52016", "is_reserved": 0}, {"is_disabled": 0, "fusion_lon": 0.0, "fusion_lat": 0.0, "lat": 38.895023, "type": "electric_scooter", "lon": -76.94877033333333, "bike_id": "414251659bfd64125cf1e4c780641299", "rental_uris": {"android": "https://dc.lft.to/lastmile_qr_scan", "ios": "https://dc.lft.to/lastmile_qr_scan"}, "name": "414251659bfd64125cf1e4c780641299", "is_reserved": 0}, {"is_disabled": 0, "fusion_lon": 0.0, "fusion_lat": 0.0, "lat": 38.90061583333333, "type": "electric_scooter", "lon": -76.98685766666667, "bike_id": "32691c5e837137bb7b3e8f1b96bb09c2", "rental_uris": {"android": "https://dc.lft.to/lastmile_qr_scan", "ios": "https://dc.lft.to/lastmile_qr_scan"}, "name": "32691c5e837137bb7b3e8f1b96bb09c2", "is_reserved": 0}, {"is_disabled": 0, "fusion_lon": 0.0, "fusion_lat": 0.0, "lat": 38.91383066666667, "type": "electric_scooter", "lon": -77.02967866666667, "bike_id": "d5102c18c46bd3048ee79d6dafa240f8", "rental_uris": {"android": "https://dc.lft.to/lastmile_qr_scan", "ios": "https://dc.lft.to/lastmile_qr_scan"}, "name": "d5102c18c46bd3048ee79d6dafa240f8", "is_reserved": 0}, {"is_disabled": 0, "fusion_lon": 0.0, "fusion_lat": 0.0, "lat": 38.88699783333333, "type": "electric_scooter", "lon": -76.95361166666666, "bike_id": "243bfe077e971d5fade21b1c5e7bfd12", "rental_uris": {"android": "https://dc.lft.to/lastmile_qr_scan", "ios": "https://dc.lft.to/lastmile_qr_scan"}, "name": "243bfe077e971d5fade21b1c5e7bfd12", "is_reserved": 0}, {"is_disabled": 0, "fusion_lon": 0.0, "fusion_lat": 0.0, "lat": 38.842914, "type": "electric_scooter", "lon": -76.99943616666667, "bike_id": "12aae9ac3c4afbbe2c96a65562ab9e1a", "rental_uris": {"android": "https://dc.lft.to/lastmile_qr_scan", "ios": "https://dc.lft.to/lastmile_qr_scan"}, "name": "12aae9ac3c4afbbe2c96a65562ab9e1a", "is_reserved": 0}, {"is_disabled": 0, "fusion_lon": 0.0, "fusion_lat": 0.0, "lat": 38.91121616666667, "type": "electric_scooter", "lon": -77.0416795, "bike_id": "8109134a8fa5429fdaa973cb09926e30", "rental_uris": {"android": "https://dc.lft.to/lastmile_qr_scan", "ios": "https://dc.lft.to/lastmile_qr_scan"}, "name": "8109134a8fa5429fdaa973cb09926e30", "is_reserved": 0}, {"is_disabled": 0, "fusion_lon": 0.0, "fusion_lat": 0.0, "lat": 38.9198055, "type": "electric_scooter", "lon": -77.00021666666666, "bike_id": "0bfb779fce859de86ffaad5a408b3e4d", "rental_uris": {"android": "https://dc.lft.to/lastmile_qr_scan", "ios": "https://dc.lft.to/lastmile_qr_scan"}, "name": "0bfb779fce859de86ffaad5a408b3e4d", "is_reserved": 0}, {"is_disabled": 0, "fusion_lon": 0.0, "fusion_lat": 0.0, "lat": 38.915973666666666, "type": "electric_scooter", "lon": -77.03238516666667, "bike_id": "0b64bb769f0d74d97e14376d06f1a7df", "rental_uris": {"android": "https://dc.lft.to/lastmile_qr_scan", "ios": "https://dc.lft.to/lastmile_qr_scan"}, "name": "0b64bb769f0d74d97e14376d06f1a7df", "is_reserved": 0}, {"is_disabled": 0, "fusion_lon": 0.0, "fusion_lat": 0.0, "lat": 38.900243333333336, "type": "electric_scooter", "lon": -76.99697633333334, "bike_id": "7167f613a12565d0c329287c72f9e392", "rental_uris": {"android": "https://dc.lft.to/lastmile_qr_scan", "ios": "https://dc.lft.to/lastmile_qr_scan"}, "name": "7167f613a12565d0c329287c72f9e392", "is_reserved": 0}, {"is_disabled": 0, "fusion_lon": 0.0, "fusion_lat": 0.0, "lat": 38.865218, "type": "electric_scooter", "lon": -76.98962466666667, "bike_id": "271cb95b2f83fac7817215696ed65c50", "rental_uris": {"android": "https://dc.lft.to/lastmile_qr_scan", "ios": "https://dc.lft.to/lastmile_qr_scan"}, "name": "271cb95b2f83fac7817215696ed65c50", "is_reserved": 0}, {"is_disabled": 0, "fusion_lon": 0.0, "fusion_lat": 0.0, "lat": 38.89910883333334, "type": "electric_scooter", "lon": -77.039717, "bike_id": "7251c5b9237e5ec8b401da1a4457a022", "rental_uris": {"android": "https://dc.lft.to/lastmile_qr_scan", "ios": "https://dc.lft.to/lastmile_qr_scan"}, "name": "7251c5b9237e5ec8b401da1a4457a022", "is_reserved": 0}, {"is_disabled": 0, "fusion_lon": 0.0, "fusion_lat": 0.0, "lat": 38.846244666666664, "type": "electric_scooter", "lon": -76.99633966666667, "bike_id": "e7571ab35b88cae4aa71442c26b9eb90", "rental_uris": {"android": "https://dc.lft.to/lastmile_qr_scan", "ios": "https://dc.lft.to/lastmile_qr_scan"}, "name": "e7571ab35b88cae4aa71442c26b9eb90", "is_reserved": 0}, {"is_disabled": 0, "fusion_lon": 0.0, "fusion_lat": 0.0, "lat": 38.90331666666667, "type": "electric_scooter", "lon": -76.98015716666667, "bike_id": "5a4036371b5ba46fe9d2964a40706392", "rental_uris": {"android": "https://dc.lft.to/lastmile_qr_scan", "ios": "https://dc.lft.to/lastmile_qr_scan"}, "name": "5a4036371b5ba46fe9d2964a40706392", "is_reserved": 0}, {"is_disabled": 0, "fusion_lon": 0.0, "fusion_lat": 0.0, "lat": 38.9244005, "type": "electric_scooter", "lon": -77.02604033333333, "bike_id": "8b9445404843a2c522ee6dce3c50bd3c", "rental_uris": {"android": "https://dc.lft.to/lastmile_qr_scan", "ios": "https://dc.lft.to/lastmile_qr_scan"}, "name": "8b9445404843a2c522ee6dce3c50bd3c", "is_reserved": 0}, {"is_disabled": 0, "fusion_lon": 0.0, "fusion_lat": 0.0, "lat": 38.918112666666666, "type": "electric_scooter", "lon": -77.0313175, "bike_id": "74827b274d87bcd1501353e271aabf63", "rental_uris": {"android": "https://dc.lft.to/lastmile_qr_scan", "ios": "https://dc.lft.to/lastmile_qr_scan"}, "name": "74827b274d87bcd1501353e271aabf63", "is_reserved": 0}, {"is_disabled": 0, "fusion_lon": 0.0, "fusion_lat": 0.0, "lat": 38.96020433333333, "type": "electric_scooter", "lon": -77.03315083333334, "bike_id": "9c79270663ae901de55840943d42c443", "rental_uris": {"android": "https://dc.lft.to/lastmile_qr_scan", "ios": "https://dc.lft.to/lastmile_qr_scan"}, "name": "9c79270663ae901de55840943d42c443", "is_reserved": 0}, {"is_disabled": 0, "fusion_lon": 0.0, "fusion_lat": 0.0, "lat": 38.9276395, "type": "electric_scooter", "lon": -77.0278625, "bike_id": "84502f99b068567459e299eb4f6faa3d", "rental_uris": {"android": "https://dc.lft.to/lastmile_qr_scan", "ios": "https://dc.lft.to/lastmile_qr_scan"}, "name": "84502f99b068567459e299eb4f6faa3d", "is_reserved": 0}, {"is_disabled": 0, "fusion_lon": 0.0, "fusion_lat": 0.0, "lat": 38.905181, "type": "electric_scooter", "lon": -77.02973233333333, "bike_id": "c8c83f539b2c45a7e3dab1b3013bffd8", "rental_uris": {"android": "https://dc.lft.to/lastmile_qr_scan", "ios": "https://dc.lft.to/lastmile_qr_scan"}, "name": "c8c83f539b2c45a7e3dab1b3013bffd8", "is_reserved": 0}, {"is_disabled": 0, "fusion_lon": 0.0, "fusion_lat": 0.0, "lat": 38.88472466666666, "type": "electric_scooter", "lon": -76.95224183333333, "bike_id": "7a2127d0f498b0405db9d68139278260", "rental_uris": {"android": "https://dc.lft.to/lastmile_qr_scan", "ios": "https://dc.lft.to/lastmile_qr_scan"}, "name": "7a2127d0f498b0405db9d68139278260", "is_reserved": 0}, {"is_disabled": 0, "fusion_lon": 0.0, "fusion_lat": 0.0, "lat": 38.92673166666667, "type": "electric_scooter", "lon": -77.1030765, "bike_id": "c74ecb3df4f7d6b7700e5de8c9fb4901", "rental_uris": {"android": "https://dc.lft.to/lastmile_qr_scan", "ios": "https://dc.lft.to/lastmile_qr_scan"}, "name": "c74ecb3df4f7d6b7700e5de8c9fb4901", "is_reserved": 0}, {"is_disabled": 0, "fusion_lon": 0.0, "fusion_lat": 0.0, "lat": 38.9122655, "type": "electric_scooter", "lon": -76.98454966666667, "bike_id": "a6f612c570f1b49be1103ebe2256c545", "rental_uris": {"android": "https://dc.lft.to/lastmile_qr_scan", "ios": "https://dc.lft.to/lastmile_qr_scan"}, "name": "a6f612c570f1b49be1103ebe2256c545", "is_reserved": 0}, {"is_disabled": 0, "fusion_lon": 0.0, "fusion_lat": 0.0, "lat": 38.947038666666664, "type": "electric_scooter", "lon": -77.01945183333333, "bike_id": "d1a735bf95a4e9171908392ac24d2249", "rental_uris": {"android": "https://dc.lft.to/lastmile_qr_scan", "ios": "https://dc.lft.to/lastmile_qr_scan"}, "name": "d1a735bf95a4e9171908392ac24d2249", "is_reserved": 0}, {"is_disabled": 0, "fusion_lon": 0.0, "fusion_lat": 0.0, "lat": 38.90608816666666, "type": "electric_scooter", "lon": -77.05722466666667, "bike_id": "42806b33a5b5ed7a7ba7216dbb466c8e", "rental_uris": {"android": "https://dc.lft.to/lastmile_qr_scan", "ios": "https://dc.lft.to/lastmile_qr_scan"}, "name": "42806b33a5b5ed7a7ba7216dbb466c8e", "is_reserved": 0}, {"is_disabled": 0, "fusion_lon": 0.0, "fusion_lat": 0.0, "lat": 38.919616500000004, "type": "electric_scooter", "lon": -77.02713533333333, "bike_id": "15a02548b59425026595c89311359c59", "rental_uris": {"android": "https://dc.lft.to/lastmile_qr_scan", "ios": "https://dc.lft.to/lastmile_qr_scan"}, "name": "15a02548b59425026595c89311359c59", "is_reserved": 0}, {"is_disabled": 0, "fusion_lon": 0.0, "fusion_lat": 0.0, "lat": 38.92173966666667, "type": "electric_scooter", "lon": -77.05529916666667, "bike_id": "8237b1fe8791df1a5d1903878a507173", "rental_uris": {"android": "https://dc.lft.to/lastmile_qr_scan", "ios": "https://dc.lft.to/lastmile_qr_scan"}, "name": "8237b1fe8791df1a5d1903878a507173", "is_reserved": 0}, {"is_disabled": 0, "fusion_lon": 0.0, "fusion_lat": 0.0, "lat": 38.9239245, "type": "electric_scooter", "lon": -77.02962116666667, "bike_id": "e1645a4aa7f4db89222b5e1071dd7a5a", "rental_uris": {"android": "https://dc.lft.to/lastmile_qr_scan", "ios": "https://dc.lft.to/lastmile_qr_scan"}, "name": "e1645a4aa7f4db89222b5e1071dd7a5a", "is_reserved": 0}, {"is_disabled": 0, "fusion_lon": 0.0, "fusion_lat": 0.0, "lat": 38.92232333333333, "type": "electric_scooter", "lon": -76.9753425, "bike_id": "56091fe85f6a2d2cac79028b854ed685", "rental_uris": {"android": "https://dc.lft.to/lastmile_qr_scan", "ios": "https://dc.lft.to/lastmile_qr_scan"}, "name": "56091fe85f6a2d2cac79028b854ed685", "is_reserved": 0}, {"is_disabled": 0, "fusion_lon": 0.0, "fusion_lat": 0.0, "lat": 38.910854, "type": "electric_scooter", "lon": -77.0150285, "bike_id": "332e3495a42901720f19710c8ccdbce8", "rental_uris": {"android": "https://dc.lft.to/lastmile_qr_scan", "ios": "https://dc.lft.to/lastmile_qr_scan"}, "name": "332e3495a42901720f19710c8ccdbce8", "is_reserved": 0}, {"is_disabled": 0, "fusion_lon": 0.0, "fusion_lat": 0.0, "lat": 38.92461133333333, "type": "electric_scooter", "lon": -77.02156333333333, "bike_id": "445f07d688e7b7949f82c075bdd232d5", "rental_uris": {"android": "https://dc.lft.to/lastmile_qr_scan", "ios": "https://dc.lft.to/lastmile_qr_scan"}, "name": "445f07d688e7b7949f82c075bdd232d5", "is_reserved": 0}, {"is_disabled": 0, "fusion_lon": 0.0, "fusion_lat": 0.0, "lat": 38.929675333333336, "type": "electric_scooter", "lon": -77.0420455, "bike_id": "8314048f3a7528afe37a184398cf7535", "rental_uris": {"android": "https://dc.lft.to/lastmile_qr_scan", "ios": "https://dc.lft.to/lastmile_qr_scan"}, "name": "8314048f3a7528afe37a184398cf7535", "is_reserved": 0}, {"is_disabled": 0, "fusion_lon": 0.0, "fusion_lat": 0.0, "lat": 38.915449, "type": "electric_scooter", "lon": -77.03798316666666, "bike_id": "c1f09cf8c48bbfd8a72a1757a0244ae3", "rental_uris": {"android": "https://dc.lft.to/lastmile_qr_scan", "ios": "https://dc.lft.to/lastmile_qr_scan"}, "name": "c1f09cf8c48bbfd8a72a1757a0244ae3", "is_reserved": 0}, {"is_disabled": 0, "fusion_lon": 0.0, "fusion_lat": 0.0, "lat": 38.94619566666667, "type": "electric_scooter", "lon": -77.03624166666667, "bike_id": "a41c0a7bef52cf25e0b5184000d66930", "rental_uris": {"android": "https://dc.lft.to/lastmile_qr_scan", "ios": "https://dc.lft.to/lastmile_qr_scan"}, "name": "a41c0a7bef52cf25e0b5184000d66930", "is_reserved": 0}, {"is_disabled": 0, "fusion_lon": 0.0, "fusion_lat": 0.0, "lat": 38.96623, "type": "electric_scooter", "lon": -77.0353015, "bike_id": "0e3f9fd5f63fc8a02dbf8f2412b39d0c", "rental_uris": {"android": "https://dc.lft.to/lastmile_qr_scan", "ios": "https://dc.lft.to/lastmile_qr_scan"}, "name": "0e3f9fd5f63fc8a02dbf8f2412b39d0c", "is_reserved": 0}, {"is_disabled": 0, "fusion_lon": 0.0, "fusion_lat": 0.0, "lat": 38.93434766666667, "type": "electric_scooter", "lon": -77.02587666666666, "bike_id": "b5d989d210118f91c2d537891ddab273", "rental_uris": {"android": "https://dc.lft.to/lastmile_qr_scan", "ios": "https://dc.lft.to/lastmile_qr_scan"}, "name": "b5d989d210118f91c2d537891ddab273", "is_reserved": 0}, {"is_disabled": 0, "fusion_lon": 0.0, "fusion_lat": 0.0, "lat": 38.913087166666664, "type": "electric_scooter", "lon": -77.00850716666666, "bike_id": "013729e4f13a05504a5d70d590f3cefc", "rental_uris": {"android": "https://dc.lft.to/lastmile_qr_scan", "ios": "https://dc.lft.to/lastmile_qr_scan"}, "name": "013729e4f13a05504a5d70d590f3cefc", "is_reserved": 0}, {"is_disabled": 0, "fusion_lon": 0.0, "fusion_lat": 0.0, "lat": 38.912696, "type": "electric_scooter", "lon": -77.0336585, "bike_id": "7cc553246a46860d91f9fa5523c292ca", "rental_uris": {"android": "https://dc.lft.to/lastmile_qr_scan", "ios": "https://dc.lft.to/lastmile_qr_scan"}, "name": "7cc553246a46860d91f9fa5523c292ca", "is_reserved": 0}, {"is_disabled": 0, "fusion_lon": 0.0, "fusion_lat": 0.0, "lat": 38.95175116666667, "type": "electric_scooter", "lon": -77.03333333333333, "bike_id": "475009e66abf9baeecee103b277c5d22", "rental_uris": {"android": "https://dc.lft.to/lastmile_qr_scan", "ios": "https://dc.lft.to/lastmile_qr_scan"}, "name": "475009e66abf9baeecee103b277c5d22", "is_reserved": 0}, {"is_disabled": 0, "fusion_lon": 0.0, "fusion_lat": 0.0, "lat": 39.052048166666665, "type": "electric_bike", "lon": -77.04410666666666, "bike_id": "4bdc64cfa4ef61d68b779c4500cb50c3", "rental_uris": {"android": "https://dc.lft.to/lastmile_qr_scan", "ios": "https://dc.lft.to/lastmile_qr_scan"}, "name": "4bdc64cfa4ef61d68b779c4500cb50c3", "is_reserved": 0}, {"is_disabled": 0, "fusion_lon": 0.0, "fusion_lat": 0.0, "lat": 38.90310216666666, "type": "electric_scooter", "lon": -76.97996316666666, "bike_id": "7235f509140add16036d53e647cdf48e", "rental_uris": {"android": "https://dc.lft.to/lastmile_qr_scan", "ios": "https://dc.lft.to/lastmile_qr_scan"}, "name": "7235f509140add16036d53e647cdf48e", "is_reserved": 0}, {"is_disabled": 0, "fusion_lon": 0.0, "fusion_lat": 0.0, "lat": 38.90437766666667, "type": "electric_scooter", "lon": -77.0317645, "bike_id": "3faf9c6dd83534b203affb4f05b50dd5", "rental_uris": {"android": "https://dc.lft.to/lastmile_qr_scan", "ios": "https://dc.lft.to/lastmile_qr_scan"}, "name": "3faf9c6dd83534b203affb4f05b50dd5", "is_reserved": 0}, {"is_disabled": 0, "fusion_lon": 0.0, "fusion_lat": 0.0, "lat": 38.968213166666665, "type": "electric_scooter", "lon": -77.008919, "bike_id": "7c7be3f4a0f4952cf6614d02eceb48e1", "rental_uris": {"android": "https://dc.lft.to/lastmile_qr_scan", "ios": "https://dc.lft.to/lastmile_qr_scan"}, "name": "7c7be3f4a0f4952cf6614d02eceb48e1", "is_reserved": 0}, {"is_disabled": 0, "fusion_lon": 0.0, "fusion_lat": 0.0, "lat": 38.91657683333333, "type": "electric_scooter", "lon": -77.046537, "bike_id": "d487237103a5d92c08c2f6eb592fdeaa", "rental_uris": {"android": "https://dc.lft.to/lastmile_qr_scan", "ios": "https://dc.lft.to/lastmile_qr_scan"}, "name": "d487237103a5d92c08c2f6eb592fdeaa", "is_reserved": 0}, {"is_disabled": 0, "fusion_lon": 0.0, "fusion_lat": 0.0, "lat": 38.901786, "type": "electric_scooter", "lon": -77.04987183333333, "bike_id": "48cc6fd451ad6187351477df94ab91a2", "rental_uris": {"android": "https://dc.lft.to/lastmile_qr_scan", "ios": "https://dc.lft.to/lastmile_qr_scan"}, "name": "48cc6fd451ad6187351477df94ab91a2", "is_reserved": 0}, {"is_disabled": 0, "fusion_lon": 0.0, "fusion_lat": 0.0, "lat": 38.91508133333333, "type": "electric_scooter", "lon": -77.00923233333333, "bike_id": "a9e4fa0a897062198dfac7ca302757b7", "rental_uris": {"android": "https://dc.lft.to/lastmile_qr_scan", "ios": "https://dc.lft.to/lastmile_qr_scan"}, "name": "a9e4fa0a897062198dfac7ca302757b7", "is_reserved": 0}, {"is_disabled": 0, "fusion_lon": 0.0, "fusion_lat": 0.0, "lat": 38.939118, "type": "electric_scooter", "lon": -77.07795266666666, "bike_id": "3c567cfe8e20940f5584194c958b829c", "rental_uris": {"android": "https://dc.lft.to/lastmile_qr_scan", "ios": "https://dc.lft.to/lastmile_qr_scan"}, "name": "3c567cfe8e20940f5584194c958b829c", "is_reserved": 0}, {"is_disabled": 0, "fusion_lon": 0.0, "fusion_lat": 0.0, "lat": 38.886891166666665, "type": "electric_scooter", "lon": -77.01378383333333, "bike_id": "d4c1e42f6b021d18f8051b129e91b8df", "rental_uris": {"android": "https://dc.lft.to/lastmile_qr_scan", "ios": "https://dc.lft.to/lastmile_qr_scan"}, "name": "d4c1e42f6b021d18f8051b129e91b8df", "is_reserved": 0}, {"is_disabled": 0, "fusion_lon": 0.0, "fusion_lat": 0.0, "lat": 38.88669483333334, "type": "electric_scooter", "lon": -77.0036405, "bike_id": "35ed87e9ee15458bc630f60be7a16cc5", "rental_uris": {"android": "https://dc.lft.to/lastmile_qr_scan", "ios": "https://dc.lft.to/lastmile_qr_scan"}, "name": "35ed87e9ee15458bc630f60be7a16cc5", "is_reserved": 0}, {"is_disabled": 0, "fusion_lon": 0.0, "fusion_lat": 0.0, "lat": 38.927369, "type": "electric_scooter", "lon": -77.02708766666667, "bike_id": "27617c23973e20ea8305d6e6a3463b79", "rental_uris": {"android": "https://dc.lft.to/lastmile_qr_scan", "ios": "https://dc.lft.to/lastmile_qr_scan"}, "name": "27617c23973e20ea8305d6e6a3463b79", "is_reserved": 0}, {"is_disabled": 0, "fusion_lon": 0.0, "fusion_lat": 0.0, "lat": 38.89732566666667, "type": "electric_bike", "lon": -76.90539766666667, "bike_id": "7845dff14125eaf7803f97f3f5184570", "rental_uris": {"android": "https://dc.lft.to/lastmile_qr_scan", "ios": "https://dc.lft.to/lastmile_qr_scan"}, "name": "7845dff14125eaf7803f97f3f5184570", "is_reserved": 0}, {"is_disabled": 0, "fusion_lon": 0.0, "fusion_lat": 0.0, "lat": 38.860611166666665, "type": "electric_scooter", "lon": -76.9851315, "bike_id": "e87ba5bec7773dfe2d3fc5e9ebc4f613", "rental_uris": {"android": "https://dc.lft.to/lastmile_qr_scan", "ios": "https://dc.lft.to/lastmile_qr_scan"}, "name": "e87ba5bec7773dfe2d3fc5e9ebc4f613", "is_reserved": 0}, {"is_disabled": 0, "fusion_lon": 0.0, "fusion_lat": 0.0, "lat": 38.900681666666664, "type": "electric_scooter", "lon": -77.01309983333333, "bike_id": "bfc0a89bd00521f04dd43932cb0838c8", "rental_uris": {"android": "https://dc.lft.to/lastmile_qr_scan", "ios": "https://dc.lft.to/lastmile_qr_scan"}, "name": "bfc0a89bd00521f04dd43932cb0838c8", "is_reserved": 0}, {"is_disabled": 0, "fusion_lon": 0.0, "fusion_lat": 0.0, "lat": 38.8947615, "type": "electric_scooter", "lon": -76.933044, "bike_id": "94ed6ea2ba8c9ab08278d691d3697531", "rental_uris": {"android": "https://dc.lft.to/lastmile_qr_scan", "ios": "https://dc.lft.to/lastmile_qr_scan"}, "name": "94ed6ea2ba8c9ab08278d691d3697531", "is_reserved": 0}, {"is_disabled": 0, "fusion_lon": 0.0, "fusion_lat": 0.0, "lat": 38.931267, "type": "electric_scooter", "lon": -77.01989316666666, "bike_id": "aeed1567a963587349294fcac6cbbdb0", "rental_uris": {"android": "https://dc.lft.to/lastmile_qr_scan", "ios": "https://dc.lft.to/lastmile_qr_scan"}, "name": "aeed1567a963587349294fcac6cbbdb0", "is_reserved": 0}, {"is_disabled": 0, "fusion_lon": 0.0, "fusion_lat": 0.0, "lat": 38.908199833333335, "type": "electric_scooter", "lon": -77.0414775, "bike_id": "9077e8879d40b77c91e478cf942ca1fc", "rental_uris": {"android": "https://dc.lft.to/lastmile_qr_scan", "ios": "https://dc.lft.to/lastmile_qr_scan"}, "name": "9077e8879d40b77c91e478cf942ca1fc", "is_reserved": 0}, {"is_disabled": 0, "fusion_lon": 0.0, "fusion_lat": 0.0, "lat": 38.89614433333333, "type": "electric_scooter", "lon": -77.02904483333333, "bike_id": "2f09c72f68b76bf5e1b78a0216c72691", "rental_uris": {"android": "https://dc.lft.to/lastmile_qr_scan", "ios": "https://dc.lft.to/lastmile_qr_scan"}, "name": "2f09c72f68b76bf5e1b78a0216c72691", "is_reserved": 0}, {"is_disabled": 0, "fusion_lon": 0.0, "fusion_lat": 0.0, "lat": 38.951194, "type": "electric_scooter", "lon": -77.02788733333334, "bike_id": "e6cac9f39d642b274d7e3b017c5b5cc6", "rental_uris": {"android": "https://dc.lft.to/lastmile_qr_scan", "ios": "https://dc.lft.to/lastmile_qr_scan"}, "name": "e6cac9f39d642b274d7e3b017c5b5cc6", "is_reserved": 0}, {"is_disabled": 0, "fusion_lon": 0.0, "fusion_lat": 0.0, "lat": 38.90491383333333, "type": "electric_scooter", "lon": -77.02961866666666, "bike_id": "32e3b4a6b0d9e683dbe5052bf4e6bd23", "rental_uris": {"android": "https://dc.lft.to/lastmile_qr_scan", "ios": "https://dc.lft.to/lastmile_qr_scan"}, "name": "32e3b4a6b0d9e683dbe5052bf4e6bd23", "is_reserved": 0}, {"is_disabled": 0, "fusion_lon": 0.0, "fusion_lat": 0.0, "lat": 38.921032833333335, "type": "electric_scooter", "lon": -77.03057116666666, "bike_id": "b97bc9b087533fa82da82a5569b7eb43", "rental_uris": {"android": "https://dc.lft.to/lastmile_qr_scan", "ios": "https://dc.lft.to/lastmile_qr_scan"}, "name": "b97bc9b087533fa82da82a5569b7eb43", "is_reserved": 0}, {"is_disabled": 0, "fusion_lon": 0.0, "fusion_lat": 0.0, "lat": 38.92875466666667, "type": "electric_scooter", "lon": -77.04132866666667, "bike_id": "38f0dd293eebef64fea9686745a44ddf", "rental_uris": {"android": "https://dc.lft.to/lastmile_qr_scan", "ios": "https://dc.lft.to/lastmile_qr_scan"}, "name": "38f0dd293eebef64fea9686745a44ddf", "is_reserved": 0}, {"is_disabled": 0, "fusion_lon": 0.0, "fusion_lat": 0.0, "lat": 38.89730566666667, "type": "electric_scooter", "lon": -77.00929483333333, "bike_id": "c836611e13802a4b457391f8457317ac", "rental_uris": {"android": "https://dc.lft.to/lastmile_qr_scan", "ios": "https://dc.lft.to/lastmile_qr_scan"}, "name": "c836611e13802a4b457391f8457317ac", "is_reserved": 0}, {"is_disabled": 0, "fusion_lon": 0.0, "fusion_lat": 0.0, "lat": 38.89005566666667, "type": "electric_scooter", "lon": -77.04894216666666, "bike_id": "c7edbbbd8c240d4d2afc78109b8b4349", "rental_uris": {"android": "https://dc.lft.to/lastmile_qr_scan", "ios": "https://dc.lft.to/lastmile_qr_scan"}, "name": "c7edbbbd8c240d4d2afc78109b8b4349", "is_reserved": 0}, {"is_disabled": 0, "fusion_lon": 0.0, "fusion_lat": 0.0, "lat": 38.94128333333333, "type": "electric_scooter", "lon": -77.0182165, "bike_id": "6d3e1228e5602914f0263fa8c5ff3762", "rental_uris": {"android": "https://dc.lft.to/lastmile_qr_scan", "ios": "https://dc.lft.to/lastmile_qr_scan"}, "name": "6d3e1228e5602914f0263fa8c5ff3762", "is_reserved": 0}, {"is_disabled": 0, "fusion_lon": 0.0, "fusion_lat": 0.0, "lat": 38.863575, "type": "electric_scooter", "lon": -76.99066383333333, "bike_id": "215e486636734e2b84fa27ab3798c98b", "rental_uris": {"android": "https://dc.lft.to/lastmile_qr_scan", "ios": "https://dc.lft.to/lastmile_qr_scan"}, "name": "215e486636734e2b84fa27ab3798c98b", "is_reserved": 0}, {"is_disabled": 0, "fusion_lon": 0.0, "fusion_lat": 0.0, "lat": 38.937095, "type": "electric_scooter", "lon": -77.06105583333333, "bike_id": "edc20f48c5ab1bf7ba723b32aa6b3ab8", "rental_uris": {"android": "https://dc.lft.to/lastmile_qr_scan", "ios": "https://dc.lft.to/lastmile_qr_scan"}, "name": "edc20f48c5ab1bf7ba723b32aa6b3ab8", "is_reserved": 0}, {"is_disabled": 0, "fusion_lon": 0.0, "fusion_lat": 0.0, "lat": 38.901808833333334, "type": "electric_scooter", "lon": -77.05033283333333, "bike_id": "a02d1d05b8ac911783e0724064e1544a", "rental_uris": {"android": "https://dc.lft.to/lastmile_qr_scan", "ios": "https://dc.lft.to/lastmile_qr_scan"}, "name": "a02d1d05b8ac911783e0724064e1544a", "is_reserved": 0}, {"is_disabled": 0, "fusion_lon": 0.0, "fusion_lat": 0.0, "lat": 38.898393, "type": "electric_scooter", "lon": -77.043365, "bike_id": "46d425bb8fb568afe299f460876b4c08", "rental_uris": {"android": "https://dc.lft.to/lastmile_qr_scan", "ios": "https://dc.lft.to/lastmile_qr_scan"}, "name": "46d425bb8fb568afe299f460876b4c08", "is_reserved": 0}, {"is_disabled": 0, "fusion_lon": 0.0, "fusion_lat": 0.0, "lat": 38.91990883333333, "type": "electric_scooter", "lon": -77.032624, "bike_id": "f296baedddec5feebad6a7e355aaaa6e", "rental_uris": {"android": "https://dc.lft.to/lastmile_qr_scan", "ios": "https://dc.lft.to/lastmile_qr_scan"}, "name": "f296baedddec5feebad6a7e355aaaa6e", "is_reserved": 0}, {"is_disabled": 0, "fusion_lon": 0.0, "fusion_lat": 0.0, "lat": 38.895382166666664, "type": "electric_bike", "lon": -77.04056216666666, "bike_id": "ee8a9c012d0aae68ba3fcf488eb7ceda", "rental_uris": {"android": "https://dc.lft.to/lastmile_qr_scan", "ios": "https://dc.lft.to/lastmile_qr_scan"}, "name": "ee8a9c012d0aae68ba3fcf488eb7ceda", "is_reserved": 0}, {"is_disabled": 0, "fusion_lon": 0.0, "fusion_lat": 0.0, "lat": 38.932500833333336, "type": "electric_scooter", "lon": -77.032748, "bike_id": "349ae2320a5ab7facd67573807fd6413", "rental_uris": {"android": "https://dc.lft.to/lastmile_qr_scan", "ios": "https://dc.lft.to/lastmile_qr_scan"}, "name": "349ae2320a5ab7facd67573807fd6413", "is_reserved": 0}, {"is_disabled": 0, "fusion_lon": 0.0, "fusion_lat": 0.0, "lat": 38.923518, "type": "electric_bike", "lon": -76.99250116666667, "bike_id": "3c7bd2e7e82473fc99a2a9adefbd6abc", "rental_uris": {"android": "https://dc.lft.to/lastmile_qr_scan", "ios": "https://dc.lft.to/lastmile_qr_scan"}, "name": "3c7bd2e7e82473fc99a2a9adefbd6abc", "is_reserved": 0}, {"is_disabled": 0, "fusion_lon": 0.0, "fusion_lat": 0.0, "lat": 38.90141783333333, "type": "electric_scooter", "lon": -77.03966633333333, "bike_id": "f425b09bbb072627032b73eb1b4ceb7a", "rental_uris": {"android": "https://dc.lft.to/lastmile_qr_scan", "ios": "https://dc.lft.to/lastmile_qr_scan"}, "name": "f425b09bbb072627032b73eb1b4ceb7a", "is_reserved": 0}, {"is_disabled": 0, "fusion_lon": 0.0, "fusion_lat": 0.0, "lat": 38.881376333333336, "type": "electric_scooter", "lon": -77.02079883333333, "bike_id": "c4a606d28c08297ae152d0ecab1b9b81", "rental_uris": {"android": "https://dc.lft.to/lastmile_qr_scan", "ios": "https://dc.lft.to/lastmile_qr_scan"}, "name": "c4a606d28c08297ae152d0ecab1b9b81", "is_reserved": 0}, {"is_disabled": 0, "fusion_lon": 0.0, "fusion_lat": 0.0, "lat": 38.99073883333333, "type": "electric_bike", "lon": -77.02379583333334, "bike_id": "6e0a180cc5c017492d39e5f3957ca3fa", "rental_uris": {"android": "https://dc.lft.to/lastmile_qr_scan", "ios": "https://dc.lft.to/lastmile_qr_scan"}, "name": "6e0a180cc5c017492d39e5f3957ca3fa", "is_reserved": 0}, {"is_disabled": 0, "fusion_lon": 0.0, "fusion_lat": 0.0, "lat": 38.917857833333336, "type": "electric_scooter", "lon": -77.04355966666667, "bike_id": "afd5419e7edbcfa26229be79b044082b", "rental_uris": {"android": "https://dc.lft.to/lastmile_qr_scan", "ios": "https://dc.lft.to/lastmile_qr_scan"}, "name": "afd5419e7edbcfa26229be79b044082b", "is_reserved": 0}, {"is_disabled": 0, "fusion_lon": 0.0, "fusion_lat": 0.0, "lat": 38.91113516666667, "type": "electric_scooter", "lon": -77.04504116666666, "bike_id": "89401b5e05e323674fd3c40d10e5fceb", "rental_uris": {"android": "https://dc.lft.to/lastmile_qr_scan", "ios": "https://dc.lft.to/lastmile_qr_scan"}, "name": "89401b5e05e323674fd3c40d10e5fceb", "is_reserved": 0}, {"is_disabled": 0, "fusion_lon": 0.0, "fusion_lat": 0.0, "lat": 38.907314, "type": "electric_scooter", "lon": -77.02243916666667, "bike_id": "11fb3df83df623a721697d7a06240f3d", "rental_uris": {"android": "https://dc.lft.to/lastmile_qr_scan", "ios": "https://dc.lft.to/lastmile_qr_scan"}, "name": "11fb3df83df623a721697d7a06240f3d", "is_reserved": 0}, {"is_disabled": 0, "fusion_lon": 0.0, "fusion_lat": 0.0, "lat": 38.90853116666667, "type": "electric_scooter", "lon": -77.063453, "bike_id": "bfe1e37f0340903823c61d0dd06a6d38", "rental_uris": {"android": "https://dc.lft.to/lastmile_qr_scan", "ios": "https://dc.lft.to/lastmile_qr_scan"}, "name": "bfe1e37f0340903823c61d0dd06a6d38", "is_reserved": 0}, {"is_disabled": 0, "fusion_lon": 0.0, "fusion_lat": 0.0, "lat": 38.90948383333333, "type": "electric_scooter", "lon": -77.03446066666666, "bike_id": "f5421762004ca692988ed0fb23faf12a", "rental_uris": {"android": "https://dc.lft.to/lastmile_qr_scan", "ios": "https://dc.lft.to/lastmile_qr_scan"}, "name": "f5421762004ca692988ed0fb23faf12a", "is_reserved": 0}, {"is_disabled": 0, "fusion_lon": 0.0, "fusion_lat": 0.0, "lat": 38.89682166666667, "type": "electric_scooter", "lon": -77.01202633333334, "bike_id": "f6e4723a5295ec4172d3ef65b36f9655", "rental_uris": {"android": "https://dc.lft.to/lastmile_qr_scan", "ios": "https://dc.lft.to/lastmile_qr_scan"}, "name": "f6e4723a5295ec4172d3ef65b36f9655", "is_reserved": 0}, {"is_disabled": 0, "fusion_lon": 0.0, "fusion_lat": 0.0, "lat": 38.8939315, "type": "electric_scooter", "lon": -76.94996433333333, "bike_id": "a61714c480c67caa82ceb482ba3ad152", "rental_uris": {"android": "https://dc.lft.to/lastmile_qr_scan", "ios": "https://dc.lft.to/lastmile_qr_scan"}, "name": "a61714c480c67caa82ceb482ba3ad152", "is_reserved": 0}, {"is_disabled": 0, "fusion_lon": 0.0, "fusion_lat": 0.0, "lat": 38.911959833333334, "type": "electric_scooter", "lon": -77.03706116666666, "bike_id": "43a83434bec18a4070972299df2e8172", "rental_uris": {"android": "https://dc.lft.to/lastmile_qr_scan", "ios": "https://dc.lft.to/lastmile_qr_scan"}, "name": "43a83434bec18a4070972299df2e8172", "is_reserved": 0}, {"is_disabled": 0, "fusion_lon": 0.0, "fusion_lat": 0.0, "lat": 38.903317666666666, "type": "electric_scooter", "lon": -76.975933, "bike_id": "88650ab309e46a166ab5032e00976cb7", "rental_uris": {"android": "https://dc.lft.to/lastmile_qr_scan", "ios": "https://dc.lft.to/lastmile_qr_scan"}, "name": "88650ab309e46a166ab5032e00976cb7", "is_reserved": 0}, {"is_disabled": 0, "fusion_lon": 0.0, "fusion_lat": 0.0, "lat": 38.90528883333333, "type": "electric_scooter", "lon": -77.0678675, "bike_id": "e3d4c0fbb1d14f28c70fc0eea527f6b6", "rental_uris": {"android": "https://dc.lft.to/lastmile_qr_scan", "ios": "https://dc.lft.to/lastmile_qr_scan"}, "name": "e3d4c0fbb1d14f28c70fc0eea527f6b6", "is_reserved": 0}, {"is_disabled": 0, "fusion_lon": 0.0, "fusion_lat": 0.0, "lat": 38.905729666666666, "type": "electric_scooter", "lon": -77.04358916666666, "bike_id": "20b10e1a4b1be0dbd9f3ffcbc625caac", "rental_uris": {"android": "https://dc.lft.to/lastmile_qr_scan", "ios": "https://dc.lft.to/lastmile_qr_scan"}, "name": "20b10e1a4b1be0dbd9f3ffcbc625caac", "is_reserved": 0}, {"is_disabled": 0, "fusion_lon": 0.0, "fusion_lat": 0.0, "lat": 38.918243, "type": "electric_scooter", "lon": -77.03178933333334, "bike_id": "5b40123fd6cac0215636224f8e15a286", "rental_uris": {"android": "https://dc.lft.to/lastmile_qr_scan", "ios": "https://dc.lft.to/lastmile_qr_scan"}, "name": "5b40123fd6cac0215636224f8e15a286", "is_reserved": 0}, {"is_disabled": 0, "fusion_lon": 0.0, "fusion_lat": 0.0, "lat": 38.9141495, "type": "electric_scooter", "lon": -77.02565466666667, "bike_id": "d0092a1d2802e1bf1583c7ba8395dd05", "rental_uris": {"android": "https://dc.lft.to/lastmile_qr_scan", "ios": "https://dc.lft.to/lastmile_qr_scan"}, "name": "d0092a1d2802e1bf1583c7ba8395dd05", "is_reserved": 0}, {"is_disabled": 0, "fusion_lon": 0.0, "fusion_lat": 0.0, "lat": 38.892089666666664, "type": "electric_scooter", "lon": -76.9880285, "bike_id": "32d7c789cead945add63f3f73bcdd7f4", "rental_uris": {"android": "https://dc.lft.to/lastmile_qr_scan", "ios": "https://dc.lft.to/lastmile_qr_scan"}, "name": "32d7c789cead945add63f3f73bcdd7f4", "is_reserved": 0}, {"is_disabled": 0, "fusion_lon": 0.0, "fusion_lat": 0.0, "lat": 38.8841255, "type": "electric_scooter", "lon": -76.95411983333334, "bike_id": "5ec0cb0002fa514c4718b6ca3b8d1703", "rental_uris": {"android": "https://dc.lft.to/lastmile_qr_scan", "ios": "https://dc.lft.to/lastmile_qr_scan"}, "name": "5ec0cb0002fa514c4718b6ca3b8d1703", "is_reserved": 0}, {"is_disabled": 0, "fusion_lon": 0.0, "fusion_lat": 0.0, "lat": 39.088453666666666, "type": "electric_bike", "lon": -77.177988, "bike_id": "74b1d2002ba10a55a92b64694bec9288", "rental_uris": {"android": "https://dc.lft.to/lastmile_qr_scan", "ios": "https://dc.lft.to/lastmile_qr_scan"}, "name": "74b1d2002ba10a55a92b64694bec9288", "is_reserved": 0}, {"is_disabled": 0, "fusion_lon": 0.0, "fusion_lat": 0.0, "lat": 38.91482533333333, "type": "electric_scooter", "lon": -77.03467333333333, "bike_id": "fe8580dc95a3efd2632186d671929f6a", "rental_uris": {"android": "https://dc.lft.to/lastmile_qr_scan", "ios": "https://dc.lft.to/lastmile_qr_scan"}, "name": "fe8580dc95a3efd2632186d671929f6a", "is_reserved": 0}, {"is_disabled": 0, "fusion_lon": 0.0, "fusion_lat": 0.0, "lat": 38.91107566666667, "type": "electric_scooter", "lon": -77.066094, "bike_id": "94172c4dc909c6091d94b884292cd67c", "rental_uris": {"android": "https://dc.lft.to/lastmile_qr_scan", "ios": "https://dc.lft.to/lastmile_qr_scan"}, "name": "94172c4dc909c6091d94b884292cd67c", "is_reserved": 0}, {"is_disabled": 0, "fusion_lon": 0.0, "fusion_lat": 0.0, "lat": 38.92368316666666, "type": "electric_scooter", "lon": -77.02806366666667, "bike_id": "77dc31e1513e2458f02049a82cdab1e0", "rental_uris": {"android": "https://dc.lft.to/lastmile_qr_scan", "ios": "https://dc.lft.to/lastmile_qr_scan"}, "name": "77dc31e1513e2458f02049a82cdab1e0", "is_reserved": 0}, {"is_disabled": 0, "fusion_lon": 0.0, "fusion_lat": 0.0, "lat": 38.92383783333333, "type": "electric_scooter", "lon": -77.031276, "bike_id": "d2ef99ba1c90b5499172c097943e4b2c", "rental_uris": {"android": "https://dc.lft.to/lastmile_qr_scan", "ios": "https://dc.lft.to/lastmile_qr_scan"}, "name": "d2ef99ba1c90b5499172c097943e4b2c", "is_reserved": 0}, {"is_disabled": 0, "fusion_lon": 0.0, "fusion_lat": 0.0, "lat": 38.916993166666664, "type": "electric_scooter", "lon": -77.03113466666667, "bike_id": "d35fb789f664c830a163bb538235507d", "rental_uris": {"android": "https://dc.lft.to/lastmile_qr_scan", "ios": "https://dc.lft.to/lastmile_qr_scan"}, "name": "d35fb789f664c830a163bb538235507d", "is_reserved": 0}, {"is_disabled": 0, "fusion_lon": 0.0, "fusion_lat": 0.0, "lat": 38.9178105, "type": "electric_scooter", "lon": -77.0415195, "bike_id": "a7a415c5d307c60f799b1b1346e72833", "rental_uris": {"android": "https://dc.lft.to/lastmile_qr_scan", "ios": "https://dc.lft.to/lastmile_qr_scan"}, "name": "a7a415c5d307c60f799b1b1346e72833", "is_reserved": 0}, {"is_disabled": 0, "fusion_lon": 0.0, "fusion_lat": 0.0, "lat": 39.00379133333333, "type": "electric_bike", "lon": -77.01299883333333, "bike_id": "d58dd19bfa040b4d4df5e8bc3c4e9352", "rental_uris": {"android": "https://dc.lft.to/lastmile_qr_scan", "ios": "https://dc.lft.to/lastmile_qr_scan"}, "name": "d58dd19bfa040b4d4df5e8bc3c4e9352", "is_reserved": 0}, {"is_disabled": 0, "fusion_lon": 0.0, "fusion_lat": 0.0, "lat": 38.934914, "type": "electric_scooter", "lon": -77.032853, "bike_id": "2f145d316e2785ac0537f4e51a3c1dfc", "rental_uris": {"android": "https://dc.lft.to/lastmile_qr_scan", "ios": "https://dc.lft.to/lastmile_qr_scan"}, "name": "2f145d316e2785ac0537f4e51a3c1dfc", "is_reserved": 0}, {"is_disabled": 0, "fusion_lon": 0.0, "fusion_lat": 0.0, "lat": 38.918052333333335, "type": "electric_scooter", "lon": -77.02437783333333, "bike_id": "f8cd1409fa396903e61714318dfb8635", "rental_uris": {"android": "https://dc.lft.to/lastmile_qr_scan", "ios": "https://dc.lft.to/lastmile_qr_scan"}, "name": "f8cd1409fa396903e61714318dfb8635", "is_reserved": 0}, {"is_disabled": 0, "fusion_lon": 0.0, "fusion_lat": 0.0, "lat": 38.9009255, "type": "electric_scooter", "lon": -77.01806066666667, "bike_id": "1518cc9b03152a935f4ab866d492d697", "rental_uris": {"android": "https://dc.lft.to/lastmile_qr_scan", "ios": "https://dc.lft.to/lastmile_qr_scan"}, "name": "1518cc9b03152a935f4ab866d492d697", "is_reserved": 0}, {"is_disabled": 0, "fusion_lon": 0.0, "fusion_lat": 0.0, "lat": 38.923089833333336, "type": "electric_scooter", "lon": -77.03108, "bike_id": "54b6ef639acd73ce8b885063e7c5a945", "rental_uris": {"android": "https://dc.lft.to/lastmile_qr_scan", "ios": "https://dc.lft.to/lastmile_qr_scan"}, "name": "54b6ef639acd73ce8b885063e7c5a945", "is_reserved": 0}, {"is_disabled": 0, "fusion_lon": 0.0, "fusion_lat": 0.0, "lat": 38.907183833333335, "type": "electric_scooter", "lon": -77.0270815, "bike_id": "9bd9684bc3bd33e25673143d50d03888", "rental_uris": {"android": "https://dc.lft.to/lastmile_qr_scan", "ios": "https://dc.lft.to/lastmile_qr_scan"}, "name": "9bd9684bc3bd33e25673143d50d03888", "is_reserved": 0}, {"is_disabled": 0, "fusion_lon": 0.0, "fusion_lat": 0.0, "lat": 38.93459283333333, "type": "electric_scooter", "lon": -77.027531, "bike_id": "598386cb4d9cba0c773f3518c553ff90", "rental_uris": {"android": "https://dc.lft.to/lastmile_qr_scan", "ios": "https://dc.lft.to/lastmile_qr_scan"}, "name": "598386cb4d9cba0c773f3518c553ff90", "is_reserved": 0}, {"is_disabled": 0, "fusion_lon": 0.0, "fusion_lat": 0.0, "lat": 38.903458, "type": "electric_scooter", "lon": -77.02903066666667, "bike_id": "ba8d3b1473f21d0624f89d9bedc8a6d7", "rental_uris": {"android": "https://dc.lft.to/lastmile_qr_scan", "ios": "https://dc.lft.to/lastmile_qr_scan"}, "name": "ba8d3b1473f21d0624f89d9bedc8a6d7", "is_reserved": 0}, {"is_disabled": 0, "fusion_lon": 0.0, "fusion_lat": 0.0, "lat": 38.965580833333334, "type": "electric_bike", "lon": -77.02296916666667, "bike_id": "d8018f186c3d3b6f6166553ccbf3a88d", "rental_uris": {"android": "https://dc.lft.to/lastmile_qr_scan", "ios": "https://dc.lft.to/lastmile_qr_scan"}, "name": "d8018f186c3d3b6f6166553ccbf3a88d", "is_reserved": 0}, {"is_disabled": 0, "fusion_lon": 0.0, "fusion_lat": 0.0, "lat": 38.9170495, "type": "electric_scooter", "lon": -77.00109933333333, "bike_id": "4fcd6d0edfe5353d712898a4c15d2c4e", "rental_uris": {"android": "https://dc.lft.to/lastmile_qr_scan", "ios": "https://dc.lft.to/lastmile_qr_scan"}, "name": "4fcd6d0edfe5353d712898a4c15d2c4e", "is_reserved": 0}, {"is_disabled": 0, "fusion_lon": 0.0, "fusion_lat": 0.0, "lat": 38.90903083333333, "type": "electric_scooter", "lon": -77.02292383333334, "bike_id": "467087f113ac669680d138c8566230b7", "rental_uris": {"android": "https://dc.lft.to/lastmile_qr_scan", "ios": "https://dc.lft.to/lastmile_qr_scan"}, "name": "467087f113ac669680d138c8566230b7", "is_reserved": 0}, {"is_disabled": 0, "fusion_lon": 0.0, "fusion_lat": 0.0, "lat": 38.904839, "type": "electric_scooter", "lon": -76.97333083333334, "bike_id": "dd3f40dfe15ce5fe03bbff88d2669fbd", "rental_uris": {"android": "https://dc.lft.to/lastmile_qr_scan", "ios": "https://dc.lft.to/lastmile_qr_scan"}, "name": "dd3f40dfe15ce5fe03bbff88d2669fbd", "is_reserved": 0}, {"is_disabled": 0, "fusion_lon": 0.0, "fusion_lat": 0.0, "lat": 38.90512566666666, "type": "electric_scooter", "lon": -77.02502183333333, "bike_id": "6214511e32d98ad5c3847c072778d489", "rental_uris": {"android": "https://dc.lft.to/lastmile_qr_scan", "ios": "https://dc.lft.to/lastmile_qr_scan"}, "name": "6214511e32d98ad5c3847c072778d489", "is_reserved": 0}, {"is_disabled": 0, "fusion_lon": 0.0, "fusion_lat": 0.0, "lat": 38.9156495, "type": "electric_scooter", "lon": -77.01022916666666, "bike_id": "9f071b5823e767e1d6acaf20f1850b4f", "rental_uris": {"android": "https://dc.lft.to/lastmile_qr_scan", "ios": "https://dc.lft.to/lastmile_qr_scan"}, "name": "9f071b5823e767e1d6acaf20f1850b4f", "is_reserved": 0}, {"is_disabled": 0, "fusion_lon": 0.0, "fusion_lat": 0.0, "lat": 38.918108333333336, "type": "electric_scooter", "lon": -77.03222133333334, "bike_id": "600cbda798a5386130345a0297ff4fe0", "rental_uris": {"android": "https://dc.lft.to/lastmile_qr_scan", "ios": "https://dc.lft.to/lastmile_qr_scan"}, "name": "600cbda798a5386130345a0297ff4fe0", "is_reserved": 0}, {"is_disabled": 0, "fusion_lon": 0.0, "fusion_lat": 0.0, "lat": 38.98503016666667, "type": "electric_bike", "lon": -76.9821005, "bike_id": "74e309294458abbaf907553b13501bb6", "rental_uris": {"android": "https://dc.lft.to/lastmile_qr_scan", "ios": "https://dc.lft.to/lastmile_qr_scan"}, "name": "74e309294458abbaf907553b13501bb6", "is_reserved": 0}, {"is_disabled": 0, "fusion_lon": 0.0, "fusion_lat": 0.0, "lat": 38.876849, "type": "electric_scooter", "lon": -77.0087815, "bike_id": "3e6d69f0d513701f93379b91cb602bbd", "rental_uris": {"android": "https://dc.lft.to/lastmile_qr_scan", "ios": "https://dc.lft.to/lastmile_qr_scan"}, "name": "3e6d69f0d513701f93379b91cb602bbd", "is_reserved": 0}, {"is_disabled": 0, "fusion_lon": 0.0, "fusion_lat": 0.0, "lat": 38.91800633333333, "type": "electric_scooter", "lon": -77.02394833333334, "bike_id": "f18b272d5786cc840b97bda44d078508", "rental_uris": {"android": "https://dc.lft.to/lastmile_qr_scan", "ios": "https://dc.lft.to/lastmile_qr_scan"}, "name": "f18b272d5786cc840b97bda44d078508", "is_reserved": 0}, {"is_disabled": 0, "fusion_lon": 0.0, "fusion_lat": 0.0, "lat": 38.92913083333333, "type": "electric_scooter", "lon": -77.023481, "bike_id": "9c3da279cf372bbfc2223343eb74f4f6", "rental_uris": {"android": "https://dc.lft.to/lastmile_qr_scan", "ios": "https://dc.lft.to/lastmile_qr_scan"}, "name": "9c3da279cf372bbfc2223343eb74f4f6", "is_reserved": 0}, {"is_disabled": 0, "fusion_lon": 0.0, "fusion_lat": 0.0, "lat": 38.929019333333336, "type": "electric_scooter", "lon": -76.98456683333333, "bike_id": "633df8ac4c3a98823b21aaa3a354f7bb", "rental_uris": {"android": "https://dc.lft.to/lastmile_qr_scan", "ios": "https://dc.lft.to/lastmile_qr_scan"}, "name": "633df8ac4c3a98823b21aaa3a354f7bb", "is_reserved": 0}, {"is_disabled": 0, "fusion_lon": 0.0, "fusion_lat": 0.0, "lat": 38.902875333333334, "type": "electric_scooter", "lon": -77.0424415, "bike_id": "869b0b71b2a0880cc9cb36449e659b68", "rental_uris": {"android": "https://dc.lft.to/lastmile_qr_scan", "ios": "https://dc.lft.to/lastmile_qr_scan"}, "name": "869b0b71b2a0880cc9cb36449e659b68", "is_reserved": 0}, {"is_disabled": 0, "fusion_lon": 0.0, "fusion_lat": 0.0, "lat": 38.93633633333334, "type": "electric_scooter", "lon": -77.03654516666667, "bike_id": "05ff87e802ef05ebbf3dd211d7697268", "rental_uris": {"android": "https://dc.lft.to/lastmile_qr_scan", "ios": "https://dc.lft.to/lastmile_qr_scan"}, "name": "05ff87e802ef05ebbf3dd211d7697268", "is_reserved": 0}, {"is_disabled": 0, "fusion_lon": 0.0, "fusion_lat": 0.0, "lat": 38.92450316666667, "type": "electric_bike", "lon": -76.96835133333333, "bike_id": "f87db36baa144a735fe3b93c69236179", "rental_uris": {"android": "https://dc.lft.to/lastmile_qr_scan", "ios": "https://dc.lft.to/lastmile_qr_scan"}, "name": "f87db36baa144a735fe3b93c69236179", "is_reserved": 0}, {"is_disabled": 0, "fusion_lon": 0.0, "fusion_lat": 0.0, "lat": 39.105655166666665, "type": "electric_bike", "lon": -77.15267633333333, "bike_id": "768b0d7944362ca98b9367716bc60d08", "rental_uris": {"android": "https://dc.lft.to/lastmile_qr_scan", "ios": "https://dc.lft.to/lastmile_qr_scan"}, "name": "768b0d7944362ca98b9367716bc60d08", "is_reserved": 0}, {"is_disabled": 0, "fusion_lon": 0.0, "fusion_lat": 0.0, "lat": 38.92322633333333, "type": "electric_bike", "lon": -76.9941565, "bike_id": "ed9f87cf7aefc9037ac7c281b35e286b", "rental_uris": {"android": "https://dc.lft.to/lastmile_qr_scan", "ios": "https://dc.lft.to/lastmile_qr_scan"}, "name": "ed9f87cf7aefc9037ac7c281b35e286b", "is_reserved": 0}, {"is_disabled": 0, "fusion_lon": 0.0, "fusion_lat": 0.0, "lat": 38.9286015, "type": "electric_bike", "lon": -77.02077033333333, "bike_id": "fd24290cfb9765105bf694bbd6588fb4", "rental_uris": {"android": "https://dc.lft.to/lastmile_qr_scan", "ios": "https://dc.lft.to/lastmile_qr_scan"}, "name": "fd24290cfb9765105bf694bbd6588fb4", "is_reserved": 0}, {"is_disabled": 0, "fusion_lon": 0.0, "fusion_lat": 0.0, "lat": 38.92494466666667, "type": "electric_scooter", "lon": -76.99668983333333, "bike_id": "8f4b29d5dc884ecd0c5931a52d15986d", "rental_uris": {"android": "https://dc.lft.to/lastmile_qr_scan", "ios": "https://dc.lft.to/lastmile_qr_scan"}, "name": "8f4b29d5dc884ecd0c5931a52d15986d", "is_reserved": 0}, {"is_disabled": 0, "fusion_lon": 0.0, "fusion_lat": 0.0, "lat": 38.893721666666664, "type": "electric_scooter", "lon": -76.94995666666667, "bike_id": "5767efe3b63ee20bad1973c80838ec60", "rental_uris": {"android": "https://dc.lft.to/lastmile_qr_scan", "ios": "https://dc.lft.to/lastmile_qr_scan"}, "name": "5767efe3b63ee20bad1973c80838ec60", "is_reserved": 0}, {"is_disabled": 0, "fusion_lon": 0.0, "fusion_lat": 0.0, "lat": 38.896357333333334, "type": "electric_scooter", "lon": -77.04329266666667, "bike_id": "2f6c7d545170a8607aa81ebd23c20bd0", "rental_uris": {"android": "https://dc.lft.to/lastmile_qr_scan", "ios": "https://dc.lft.to/lastmile_qr_scan"}, "name": "2f6c7d545170a8607aa81ebd23c20bd0", "is_reserved": 0}, {"is_disabled": 0, "fusion_lon": 0.0, "fusion_lat": 0.0, "lat": 38.91200083333333, "type": "electric_scooter", "lon": -77.01208466666667, "bike_id": "06c6aa1f25b7735ceede58ce1cafcfd0", "rental_uris": {"android": "https://dc.lft.to/lastmile_qr_scan", "ios": "https://dc.lft.to/lastmile_qr_scan"}, "name": "06c6aa1f25b7735ceede58ce1cafcfd0", "is_reserved": 0}, {"is_disabled": 0, "fusion_lon": 0.0, "fusion_lat": 0.0, "lat": 38.92083316666667, "type": "electric_bike", "lon": -77.003382, "bike_id": "97553d0c6a80e5c7ccfd2e350e19aa08", "rental_uris": {"android": "https://dc.lft.to/lastmile_qr_scan", "ios": "https://dc.lft.to/lastmile_qr_scan"}, "name": "97553d0c6a80e5c7ccfd2e350e19aa08", "is_reserved": 0}, {"is_disabled": 0, "fusion_lon": 0.0, "fusion_lat": 0.0, "lat": 38.82731116666667, "type": "electric_bike", "lon": -77.00866, "bike_id": "806619c5479ecf31305a380c23a2b40f", "rental_uris": {"android": "https://dc.lft.to/lastmile_qr_scan", "ios": "https://dc.lft.to/lastmile_qr_scan"}, "name": "806619c5479ecf31305a380c23a2b40f", "is_reserved": 0}, {"is_disabled": 0, "fusion_lon": 0.0, "fusion_lat": 0.0, "lat": 38.9062005, "type": "electric_scooter", "lon": -77.0280465, "bike_id": "7f5e9e9a3319eb90ac9569e002b5289e", "rental_uris": {"android": "https://dc.lft.to/lastmile_qr_scan", "ios": "https://dc.lft.to/lastmile_qr_scan"}, "name": "7f5e9e9a3319eb90ac9569e002b5289e", "is_reserved": 0}, {"is_disabled": 0, "fusion_lon": 0.0, "fusion_lat": 0.0, "lat": 38.9352555, "type": "electric_scooter", "lon": -77.02374266666666, "bike_id": "1137b2e50b2b4c2837effd8ec8cbde0f", "rental_uris": {"android": "https://dc.lft.to/lastmile_qr_scan", "ios": "https://dc.lft.to/lastmile_qr_scan"}, "name": "1137b2e50b2b4c2837effd8ec8cbde0f", "is_reserved": 0}, {"is_disabled": 0, "fusion_lon": 0.0, "fusion_lat": 0.0, "lat": 38.8936705, "type": "electric_scooter", "lon": -77.02265, "bike_id": "e27c5e02080e147bfd75a4cea525f430", "rental_uris": {"android": "https://dc.lft.to/lastmile_qr_scan", "ios": "https://dc.lft.to/lastmile_qr_scan"}, "name": "e27c5e02080e147bfd75a4cea525f430", "is_reserved": 0}, {"is_disabled": 0, "fusion_lon": 0.0, "fusion_lat": 0.0, "lat": 38.907242833333335, "type": "electric_scooter", "lon": -77.030657, "bike_id": "7583662403a3db4b3e5c571d4827c3e1", "rental_uris": {"android": "https://dc.lft.to/lastmile_qr_scan", "ios": "https://dc.lft.to/lastmile_qr_scan"}, "name": "7583662403a3db4b3e5c571d4827c3e1", "is_reserved": 0}, {"is_disabled": 0, "fusion_lon": 0.0, "fusion_lat": 0.0, "lat": 38.9056175, "type": "electric_scooter", "lon": -77.03016266666667, "bike_id": "0a629132566e5ffafcec572311d78977", "rental_uris": {"android": "https://dc.lft.to/lastmile_qr_scan", "ios": "https://dc.lft.to/lastmile_qr_scan"}, "name": "0a629132566e5ffafcec572311d78977", "is_reserved": 0}, {"is_disabled": 0, "fusion_lon": 0.0, "fusion_lat": 0.0, "lat": 38.888611833333336, "type": "electric_scooter", "lon": -76.97734733333333, "bike_id": "83961baceef5a813e902836649333df3", "rental_uris": {"android": "https://dc.lft.to/lastmile_qr_scan", "ios": "https://dc.lft.to/lastmile_qr_scan"}, "name": "83961baceef5a813e902836649333df3", "is_reserved": 0}, {"is_disabled": 0, "fusion_lon": 0.0, "fusion_lat": 0.0, "lat": 38.931279833333335, "type": "electric_scooter", "lon": -77.05712833333334, "bike_id": "33b1aa5bf0cc9ffc2068a1e625f17d48", "rental_uris": {"android": "https://dc.lft.to/lastmile_qr_scan", "ios": "https://dc.lft.to/lastmile_qr_scan"}, "name": "33b1aa5bf0cc9ffc2068a1e625f17d48", "is_reserved": 0}, {"is_disabled": 0, "fusion_lon": 0.0, "fusion_lat": 0.0, "lat": 38.906772, "type": "electric_scooter", "lon": -77.02714683333333, "bike_id": "fe558da531c7c2cfda48ebe152983c1e", "rental_uris": {"android": "https://dc.lft.to/lastmile_qr_scan", "ios": "https://dc.lft.to/lastmile_qr_scan"}, "name": "fe558da531c7c2cfda48ebe152983c1e", "is_reserved": 0}, {"is_disabled": 0, "fusion_lon": 0.0, "fusion_lat": 0.0, "lat": 38.91106766666667, "type": "electric_scooter", "lon": -77.02275666666667, "bike_id": "e31947706726a612e951459acbb27538", "rental_uris": {"android": "https://dc.lft.to/lastmile_qr_scan", "ios": "https://dc.lft.to/lastmile_qr_scan"}, "name": "e31947706726a612e951459acbb27538", "is_reserved": 0}, {"is_disabled": 0, "fusion_lon": 0.0, "fusion_lat": 0.0, "lat": 38.950783333333334, "type": "electric_scooter", "lon": -77.02875166666666, "bike_id": "7caee14549f236fc7999b19f67f04a2e", "rental_uris": {"android": "https://dc.lft.to/lastmile_qr_scan", "ios": "https://dc.lft.to/lastmile_qr_scan"}, "name": "7caee14549f236fc7999b19f67f04a2e", "is_reserved": 0}, {"is_disabled": 0, "fusion_lon": 0.0, "fusion_lat": 0.0, "lat": 38.917531333333336, "type": "electric_scooter", "lon": -77.03589716666667, "bike_id": "f93f787defebe826ad5916187ff74814", "rental_uris": {"android": "https://dc.lft.to/lastmile_qr_scan", "ios": "https://dc.lft.to/lastmile_qr_scan"}, "name": "f93f787defebe826ad5916187ff74814", "is_reserved": 0}, {"is_disabled": 0, "fusion_lon": 0.0, "fusion_lat": 0.0, "lat": 38.91882716666667, "type": "electric_scooter", "lon": -77.01595733333333, "bike_id": "379c3a2c5767a609888e20b83e668baf", "rental_uris": {"android": "https://dc.lft.to/lastmile_qr_scan", "ios": "https://dc.lft.to/lastmile_qr_scan"}, "name": "379c3a2c5767a609888e20b83e668baf", "is_reserved": 0}, {"is_disabled": 0, "fusion_lon": 0.0, "fusion_lat": 0.0, "lat": 38.920557, "type": "electric_scooter", "lon": -76.99874483333333, "bike_id": "789539d1ea0fd7212c6b0196032f237d", "rental_uris": {"android": "https://dc.lft.to/lastmile_qr_scan", "ios": "https://dc.lft.to/lastmile_qr_scan"}, "name": "789539d1ea0fd7212c6b0196032f237d", "is_reserved": 0}, {"is_disabled": 0, "fusion_lon": 0.0, "fusion_lat": 0.0, "lat": 38.88375766666667, "type": "electric_scooter", "lon": -76.92646933333333, "bike_id": "91e79243426611a7345fe60d3dcbf65b", "rental_uris": {"android": "https://dc.lft.to/lastmile_qr_scan", "ios": "https://dc.lft.to/lastmile_qr_scan"}, "name": "91e79243426611a7345fe60d3dcbf65b", "is_reserved": 0}, {"is_disabled": 0, "fusion_lon": 0.0, "fusion_lat": 0.0, "lat": 38.992557, "type": "electric_bike", "lon": -77.04999416666666, "bike_id": "76bdfbee6f9540821556cabd2fe75745", "rental_uris": {"android": "https://dc.lft.to/lastmile_qr_scan", "ios": "https://dc.lft.to/lastmile_qr_scan"}, "name": "76bdfbee6f9540821556cabd2fe75745", "is_reserved": 0}, {"is_disabled": 0, "fusion_lon": 0.0, "fusion_lat": 0.0, "lat": 38.89730016666667, "type": "electric_scooter", "lon": -77.02703366666667, "bike_id": "9f136cfedfc0f0d503acbcaa8d770dd5", "rental_uris": {"android": "https://dc.lft.to/lastmile_qr_scan", "ios": "https://dc.lft.to/lastmile_qr_scan"}, "name": "9f136cfedfc0f0d503acbcaa8d770dd5", "is_reserved": 0}, {"is_disabled": 0, "fusion_lon": 0.0, "fusion_lat": 0.0, "lat": 38.91473333333333, "type": "electric_bike", "lon": -77.00922183333333, "bike_id": "bebb2f0aeb0ae046fc870f4d5bcf2027", "rental_uris": {"android": "https://dc.lft.to/lastmile_qr_scan", "ios": "https://dc.lft.to/lastmile_qr_scan"}, "name": "bebb2f0aeb0ae046fc870f4d5bcf2027", "is_reserved": 0}, {"is_disabled": 0, "fusion_lon": 0.0, "fusion_lat": 0.0, "lat": 38.89624166666667, "type": "electric_scooter", "lon": -76.9564, "bike_id": "2da6fe4e5f540cd157773e4eb179cad2", "rental_uris": {"android": "https://dc.lft.to/lastmile_qr_scan", "ios": "https://dc.lft.to/lastmile_qr_scan"}, "name": "2da6fe4e5f540cd157773e4eb179cad2", "is_reserved": 0}, {"is_disabled": 0, "fusion_lon": 0.0, "fusion_lat": 0.0, "lat": 38.91332233333333, "type": "electric_scooter", "lon": -77.04021333333333, "bike_id": "da1f2c2d26090554e02857e915de9832", "rental_uris": {"android": "https://dc.lft.to/lastmile_qr_scan", "ios": "https://dc.lft.to/lastmile_qr_scan"}, "name": "da1f2c2d26090554e02857e915de9832", "is_reserved": 0}, {"is_disabled": 0, "fusion_lon": 0.0, "fusion_lat": 0.0, "lat": 38.93189, "type": "electric_bike", "lon": -77.229364, "bike_id": "d0580840a7642f7cf8c7b8060727add3", "rental_uris": {"android": "https://dc.lft.to/lastmile_qr_scan", "ios": "https://dc.lft.to/lastmile_qr_scan"}, "name": "d0580840a7642f7cf8c7b8060727add3", "is_reserved": 0}, {"is_disabled": 0, "fusion_lon": 0.0, "fusion_lat": 0.0, "lat": 38.906082, "type": "electric_scooter", "lon": -77.041523, "bike_id": "116dd1e5194b66af857b68190fa7d53e", "rental_uris": {"android": "https://dc.lft.to/lastmile_qr_scan", "ios": "https://dc.lft.to/lastmile_qr_scan"}, "name": "116dd1e5194b66af857b68190fa7d53e", "is_reserved": 0}, {"is_disabled": 0, "fusion_lon": 0.0, "fusion_lat": 0.0, "lat": 38.929680833333336, "type": "electric_scooter", "lon": -77.0365915, "bike_id": "69db1226b676599d82462e9b4d0d98e1", "rental_uris": {"android": "https://dc.lft.to/lastmile_qr_scan", "ios": "https://dc.lft.to/lastmile_qr_scan"}, "name": "69db1226b676599d82462e9b4d0d98e1", "is_reserved": 0}, {"is_disabled": 0, "fusion_lon": 0.0, "fusion_lat": 0.0, "lat": 38.888217833333336, "type": "electric_bike", "lon": -77.12731866666667, "bike_id": "2d337c4e196736ae993ba0516c31df33", "rental_uris": {"android": "https://dc.lft.to/lastmile_qr_scan", "ios": "https://dc.lft.to/lastmile_qr_scan"}, "name": "2d337c4e196736ae993ba0516c31df33", "is_reserved": 0}, {"is_disabled": 0, "fusion_lon": 0.0, "fusion_lat": 0.0, "lat": 38.93434966666667, "type": "electric_scooter", "lon": -77.032682, "bike_id": "6f645ebae4f9f63d07acd0ff2ef58e3a", "rental_uris": {"android": "https://dc.lft.to/lastmile_qr_scan", "ios": "https://dc.lft.to/lastmile_qr_scan"}, "name": "6f645ebae4f9f63d07acd0ff2ef58e3a", "is_reserved": 0}, {"is_disabled": 0, "fusion_lon": 0.0, "fusion_lat": 0.0, "lat": 38.9757745, "type": "electric_bike", "lon": -76.96410466666667, "bike_id": "db881cf10a86319e336523445a21ef82", "rental_uris": {"android": "https://dc.lft.to/lastmile_qr_scan", "ios": "https://dc.lft.to/lastmile_qr_scan"}, "name": "db881cf10a86319e336523445a21ef82", "is_reserved": 0}, {"is_disabled": 0, "fusion_lon": 0.0, "fusion_lat": 0.0, "lat": 38.990931, "type": "electric_bike", "lon": -76.874949, "bike_id": "6526d8ca4b90b3c78d64432a754d6f5c", "rental_uris": {"android": "https://dc.lft.to/lastmile_qr_scan", "ios": "https://dc.lft.to/lastmile_qr_scan"}, "name": "6526d8ca4b90b3c78d64432a754d6f5c", "is_reserved": 0}, {"is_disabled": 0, "fusion_lon": 0.0, "fusion_lat": 0.0, "lat": 38.88969683333333, "type": "electric_bike", "lon": -76.9486485, "bike_id": "e44aa194cd807f34695999e5d5a7b26b", "rental_uris": {"android": "https://dc.lft.to/lastmile_qr_scan", "ios": "https://dc.lft.to/lastmile_qr_scan"}, "name": "e44aa194cd807f34695999e5d5a7b26b", "is_reserved": 0}, {"is_disabled": 0, "fusion_lon": 0.0, "fusion_lat": 0.0, "lat": 38.907806, "type": "electric_scooter", "lon": -77.03269916666666, "bike_id": "ddd67d7fa5c810ce5d8a368c890035f1", "rental_uris": {"android": "https://dc.lft.to/lastmile_qr_scan", "ios": "https://dc.lft.to/lastmile_qr_scan"}, "name": "ddd67d7fa5c810ce5d8a368c890035f1", "is_reserved": 0}, {"is_disabled": 0, "fusion_lon": 0.0, "fusion_lat": 0.0, "lat": 38.88400883333333, "type": "electric_scooter", "lon": -77.01727483333333, "bike_id": "f35755e2794ac0817401e7bbff399e08", "rental_uris": {"android": "https://dc.lft.to/lastmile_qr_scan", "ios": "https://dc.lft.to/lastmile_qr_scan"}, "name": "f35755e2794ac0817401e7bbff399e08", "is_reserved": 0}, {"is_disabled": 0, "fusion_lon": 0.0, "fusion_lat": 0.0, "lat": 38.928091333333334, "type": "electric_scooter", "lon": -77.01414383333334, "bike_id": "eba015160467ebd3c6b3773134633b2b", "rental_uris": {"android": "https://dc.lft.to/lastmile_qr_scan", "ios": "https://dc.lft.to/lastmile_qr_scan"}, "name": "eba015160467ebd3c6b3773134633b2b", "is_reserved": 0}, {"is_disabled": 0, "fusion_lon": 0.0, "fusion_lat": 0.0, "lat": 38.93495583333333, "type": "electric_scooter", "lon": -77.02604666666667, "bike_id": "595a82a967cf79b982dd3665dbfe48aa", "rental_uris": {"android": "https://dc.lft.to/lastmile_qr_scan", "ios": "https://dc.lft.to/lastmile_qr_scan"}, "name": "595a82a967cf79b982dd3665dbfe48aa", "is_reserved": 0}, {"is_disabled": 0, "fusion_lon": 0.0, "fusion_lat": 0.0, "lat": 38.910411833333335, "type": "electric_scooter", "lon": -77.03836616666666, "bike_id": "e2bfc63a735c73972dd993434330527f", "rental_uris": {"android": "https://dc.lft.to/lastmile_qr_scan", "ios": "https://dc.lft.to/lastmile_qr_scan"}, "name": "e2bfc63a735c73972dd993434330527f", "is_reserved": 0}, {"is_disabled": 0, "fusion_lon": 0.0, "fusion_lat": 0.0, "lat": 38.92323366666667, "type": "electric_scooter", "lon": -77.04523, "bike_id": "1cd216fc6bfa3fab86e2ea9845ab8a35", "rental_uris": {"android": "https://dc.lft.to/lastmile_qr_scan", "ios": "https://dc.lft.to/lastmile_qr_scan"}, "name": "1cd216fc6bfa3fab86e2ea9845ab8a35", "is_reserved": 0}, {"is_disabled": 0, "fusion_lon": 0.0, "fusion_lat": 0.0, "lat": 38.859168333333336, "type": "electric_scooter", "lon": -76.98779733333333, "bike_id": "be09c634071cdf58ebf43289e444849d", "rental_uris": {"android": "https://dc.lft.to/lastmile_qr_scan", "ios": "https://dc.lft.to/lastmile_qr_scan"}, "name": "be09c634071cdf58ebf43289e444849d", "is_reserved": 0}, {"is_disabled": 0, "fusion_lon": 0.0, "fusion_lat": 0.0, "lat": 38.9260715, "type": "electric_scooter", "lon": -77.02155983333333, "bike_id": "afb33efd8c0e3feb3f31aa8e53d4f016", "rental_uris": {"android": "https://dc.lft.to/lastmile_qr_scan", "ios": "https://dc.lft.to/lastmile_qr_scan"}, "name": "afb33efd8c0e3feb3f31aa8e53d4f016", "is_reserved": 0}, {"is_disabled": 0, "fusion_lon": 0.0, "fusion_lat": 0.0, "lat": 38.90266233333333, "type": "electric_scooter", "lon": -77.0166985, "bike_id": "dc4f981838bf3aa931b07561f0e4b7b1", "rental_uris": {"android": "https://dc.lft.to/lastmile_qr_scan", "ios": "https://dc.lft.to/lastmile_qr_scan"}, "name": "dc4f981838bf3aa931b07561f0e4b7b1", "is_reserved": 0}, {"is_disabled": 0, "fusion_lon": 0.0, "fusion_lat": 0.0, "lat": 38.92451833333333, "type": "electric_scooter", "lon": -77.05073133333333, "bike_id": "3cd39415e2ea1d0d2e5b1290647a059e", "rental_uris": {"android": "https://dc.lft.to/lastmile_qr_scan", "ios": "https://dc.lft.to/lastmile_qr_scan"}, "name": "3cd39415e2ea1d0d2e5b1290647a059e", "is_reserved": 0}, {"is_disabled": 0, "fusion_lon": 0.0, "fusion_lat": 0.0, "lat": 38.925370666666666, "type": "electric_scooter", "lon": -77.0765375, "bike_id": "d948a783735a345e759cb8ef5d135de2", "rental_uris": {"android": "https://dc.lft.to/lastmile_qr_scan", "ios": "https://dc.lft.to/lastmile_qr_scan"}, "name": "d948a783735a345e759cb8ef5d135de2", "is_reserved": 0}, {"is_disabled": 0, "fusion_lon": 0.0, "fusion_lat": 0.0, "lat": 38.883597333333334, "type": "electric_scooter", "lon": -76.9854405, "bike_id": "32865ba78db9e601526c2d1cb69314df", "rental_uris": {"android": "https://dc.lft.to/lastmile_qr_scan", "ios": "https://dc.lft.to/lastmile_qr_scan"}, "name": "32865ba78db9e601526c2d1cb69314df", "is_reserved": 0}, {"is_disabled": 0, "fusion_lon": 0.0, "fusion_lat": 0.0, "lat": 38.8444025, "type": "electric_scooter", "lon": -76.99778416666666, "bike_id": "69de56ce3b6196c64f2ee599dcbf3145", "rental_uris": {"android": "https://dc.lft.to/lastmile_qr_scan", "ios": "https://dc.lft.to/lastmile_qr_scan"}, "name": "69de56ce3b6196c64f2ee599dcbf3145", "is_reserved": 0}, {"is_disabled": 0, "fusion_lon": 0.0, "fusion_lat": 0.0, "lat": 38.90865, "type": "electric_scooter", "lon": -77.04619533333333, "bike_id": "52304fd9160280bf31c243e1382b5270", "rental_uris": {"android": "https://dc.lft.to/lastmile_qr_scan", "ios": "https://dc.lft.to/lastmile_qr_scan"}, "name": "52304fd9160280bf31c243e1382b5270", "is_reserved": 0}, {"is_disabled": 0, "fusion_lon": 0.0, "fusion_lat": 0.0, "lat": 38.90604583333333, "type": "electric_scooter", "lon": -77.05711466666666, "bike_id": "d31d86fad60304054d16b493df6e648e", "rental_uris": {"android": "https://dc.lft.to/lastmile_qr_scan", "ios": "https://dc.lft.to/lastmile_qr_scan"}, "name": "d31d86fad60304054d16b493df6e648e", "is_reserved": 0}, {"is_disabled": 0, "fusion_lon": 0.0, "fusion_lat": 0.0, "lat": 38.918042166666666, "type": "electric_scooter", "lon": -77.03444583333334, "bike_id": "77a42e68072dca8293b897f3614cd6a3", "rental_uris": {"android": "https://dc.lft.to/lastmile_qr_scan", "ios": "https://dc.lft.to/lastmile_qr_scan"}, "name": "77a42e68072dca8293b897f3614cd6a3", "is_reserved": 0}, {"is_disabled": 0, "fusion_lon": 0.0, "fusion_lat": 0.0, "lat": 38.913435666666665, "type": "electric_scooter", "lon": -77.04236333333333, "bike_id": "2c8784ff15bb19edaad7ecaf539572c8", "rental_uris": {"android": "https://dc.lft.to/lastmile_qr_scan", "ios": "https://dc.lft.to/lastmile_qr_scan"}, "name": "2c8784ff15bb19edaad7ecaf539572c8", "is_reserved": 0}, {"is_disabled": 0, "fusion_lon": 0.0, "fusion_lat": 0.0, "lat": 38.888648833333335, "type": "electric_scooter", "lon": -77.0400155, "bike_id": "cd6382d1cea1ac9e8707b878ccc40e94", "rental_uris": {"android": "https://dc.lft.to/lastmile_qr_scan", "ios": "https://dc.lft.to/lastmile_qr_scan"}, "name": "cd6382d1cea1ac9e8707b878ccc40e94", "is_reserved": 0}, {"is_disabled": 0, "fusion_lon": 0.0, "fusion_lat": 0.0, "lat": 38.918389166666664, "type": "electric_scooter", "lon": -77.07214733333333, "bike_id": "0a4c3e4503516fe4f2f452424b4f591e", "rental_uris": {"android": "https://dc.lft.to/lastmile_qr_scan", "ios": "https://dc.lft.to/lastmile_qr_scan"}, "name": "0a4c3e4503516fe4f2f452424b4f591e", "is_reserved": 0}, {"is_disabled": 0, "fusion_lon": 0.0, "fusion_lat": 0.0, "lat": 38.9285495, "type": "electric_scooter", "lon": -77.01408733333334, "bike_id": "a4c2352bbe3069401b5f31f84848a17a", "rental_uris": {"android": "https://dc.lft.to/lastmile_qr_scan", "ios": "https://dc.lft.to/lastmile_qr_scan"}, "name": "a4c2352bbe3069401b5f31f84848a17a", "is_reserved": 0}, {"is_disabled": 0, "fusion_lon": 0.0, "fusion_lat": 0.0, "lat": 38.93398083333334, "type": "electric_scooter", "lon": -77.027308, "bike_id": "5d4f62ab25809d63663e0a595cc4523a", "rental_uris": {"android": "https://dc.lft.to/lastmile_qr_scan", "ios": "https://dc.lft.to/lastmile_qr_scan"}, "name": "5d4f62ab25809d63663e0a595cc4523a", "is_reserved": 0}, {"is_disabled": 0, "fusion_lon": 0.0, "fusion_lat": 0.0, "lat": 38.8762215, "type": "electric_scooter", "lon": -76.96537266666667, "bike_id": "c47eba5a9eac9a744caa366ee5638ccf", "rental_uris": {"android": "https://dc.lft.to/lastmile_qr_scan", "ios": "https://dc.lft.to/lastmile_qr_scan"}, "name": "c47eba5a9eac9a744caa366ee5638ccf", "is_reserved": 0}, {"is_disabled": 0, "fusion_lon": 0.0, "fusion_lat": 0.0, "lat": 38.8849155, "type": "electric_scooter", "lon": -77.02211083333333, "bike_id": "033f6b653a92a76d93db99d82eeb7e6f", "rental_uris": {"android": "https://dc.lft.to/lastmile_qr_scan", "ios": "https://dc.lft.to/lastmile_qr_scan"}, "name": "033f6b653a92a76d93db99d82eeb7e6f", "is_reserved": 0}, {"is_disabled": 0, "fusion_lon": 0.0, "fusion_lat": 0.0, "lat": 38.900445500000004, "type": "electric_scooter", "lon": -77.0343965, "bike_id": "5f3953f81c1d6001af956abc27ac8dfb", "rental_uris": {"android": "https://dc.lft.to/lastmile_qr_scan", "ios": "https://dc.lft.to/lastmile_qr_scan"}, "name": "5f3953f81c1d6001af956abc27ac8dfb", "is_reserved": 0}, {"is_disabled": 0, "fusion_lon": 0.0, "fusion_lat": 0.0, "lat": 38.902427333333335, "type": "electric_bike", "lon": -76.970154, "bike_id": "a913faa9a5bd4c356b1f112ae0fc448d", "rental_uris": {"android": "https://dc.lft.to/lastmile_qr_scan", "ios": "https://dc.lft.to/lastmile_qr_scan"}, "name": "a913faa9a5bd4c356b1f112ae0fc448d", "is_reserved": 0}, {"is_disabled": 0, "fusion_lon": 0.0, "fusion_lat": 0.0, "lat": 38.97053483333333, "type": "electric_bike", "lon": -77.03084116666666, "bike_id": "ad3bd3ea7052e85ce713e66c94b3745b", "rental_uris": {"android": "https://dc.lft.to/lastmile_qr_scan", "ios": "https://dc.lft.to/lastmile_qr_scan"}, "name": "ad3bd3ea7052e85ce713e66c94b3745b", "is_reserved": 0}, {"is_disabled": 0, "fusion_lon": 0.0, "fusion_lat": 0.0, "lat": 38.8950835, "type": "electric_scooter", "lon": -77.0282575, "bike_id": "c41d90e77d8cd237ac661683ae0198e7", "rental_uris": {"android": "https://dc.lft.to/lastmile_qr_scan", "ios": "https://dc.lft.to/lastmile_qr_scan"}, "name": "c41d90e77d8cd237ac661683ae0198e7", "is_reserved": 0}, {"is_disabled": 0, "fusion_lon": 0.0, "fusion_lat": 0.0, "lat": 38.918075, "type": "electric_scooter", "lon": -77.026896, "bike_id": "1e0ade0010cfb8eaeab08f715d325c68", "rental_uris": {"android": "https://dc.lft.to/lastmile_qr_scan", "ios": "https://dc.lft.to/lastmile_qr_scan"}, "name": "1e0ade0010cfb8eaeab08f715d325c68", "is_reserved": 0}, {"is_disabled": 0, "fusion_lon": 0.0, "fusion_lat": 0.0, "lat": 38.928671333333334, "type": "electric_scooter", "lon": -77.03440933333333, "bike_id": "5d87f67bbc15a3bdad65f50aecc1715c", "rental_uris": {"android": "https://dc.lft.to/lastmile_qr_scan", "ios": "https://dc.lft.to/lastmile_qr_scan"}, "name": "5d87f67bbc15a3bdad65f50aecc1715c", "is_reserved": 0}, {"is_disabled": 0, "fusion_lon": 0.0, "fusion_lat": 0.0, "lat": 38.84846966666667, "type": "electric_bike", "lon": -77.08039033333333, "bike_id": "d45026a63cd1cf0dd184859b9574c61c", "rental_uris": {"android": "https://dc.lft.to/lastmile_qr_scan", "ios": "https://dc.lft.to/lastmile_qr_scan"}, "name": "d45026a63cd1cf0dd184859b9574c61c", "is_reserved": 0}, {"is_disabled": 0, "fusion_lon": 0.0, "fusion_lat": 0.0, "lat": 38.905647, "type": "electric_scooter", "lon": -77.027125, "bike_id": "e5127299f55307b80e9253d2b84f1447", "rental_uris": {"android": "https://dc.lft.to/lastmile_qr_scan", "ios": "https://dc.lft.to/lastmile_qr_scan"}, "name": "e5127299f55307b80e9253d2b84f1447", "is_reserved": 0}, {"is_disabled": 0, "fusion_lon": 0.0, "fusion_lat": 0.0, "lat": 38.930593333333334, "type": "electric_scooter", "lon": -77.02658633333333, "bike_id": "6ead7a927e0d1b566128031e2530cb64", "rental_uris": {"android": "https://dc.lft.to/lastmile_qr_scan", "ios": "https://dc.lft.to/lastmile_qr_scan"}, "name": "6ead7a927e0d1b566128031e2530cb64", "is_reserved": 0}, {"is_disabled": 0, "fusion_lon": 0.0, "fusion_lat": 0.0, "lat": 38.92995166666667, "type": "electric_scooter", "lon": -77.021833, "bike_id": "2e37a412900beb4a0b604c43c5eaec38", "rental_uris": {"android": "https://dc.lft.to/lastmile_qr_scan", "ios": "https://dc.lft.to/lastmile_qr_scan"}, "name": "2e37a412900beb4a0b604c43c5eaec38", "is_reserved": 0}, {"is_disabled": 0, "fusion_lon": 0.0, "fusion_lat": 0.0, "lat": 38.907037, "type": "electric_scooter", "lon": -77.0269015, "bike_id": "c849927ef6a207f6d8d2128dc4a07000", "rental_uris": {"android": "https://dc.lft.to/lastmile_qr_scan", "ios": "https://dc.lft.to/lastmile_qr_scan"}, "name": "c849927ef6a207f6d8d2128dc4a07000", "is_reserved": 0}, {"is_disabled": 0, "fusion_lon": 0.0, "fusion_lat": 0.0, "lat": 38.9176785, "type": "electric_scooter", "lon": -77.02339533333334, "bike_id": "20d374f81d60484f2eeb0122cf492d84", "rental_uris": {"android": "https://dc.lft.to/lastmile_qr_scan", "ios": "https://dc.lft.to/lastmile_qr_scan"}, "name": "20d374f81d60484f2eeb0122cf492d84", "is_reserved": 0}, {"is_disabled": 0, "fusion_lon": 0.0, "fusion_lat": 0.0, "lat": 38.930983166666664, "type": "electric_scooter", "lon": -77.03814683333333, "bike_id": "55d9ab6d2be278f9268cba433f233f47", "rental_uris": {"android": "https://dc.lft.to/lastmile_qr_scan", "ios": "https://dc.lft.to/lastmile_qr_scan"}, "name": "55d9ab6d2be278f9268cba433f233f47", "is_reserved": 0}, {"is_disabled": 0, "fusion_lon": 0.0, "fusion_lat": 0.0, "lat": 38.8587135, "type": "electric_scooter", "lon": -76.99026683333334, "bike_id": "74591f4cbdf5ef450b97e936a1434a07", "rental_uris": {"android": "https://dc.lft.to/lastmile_qr_scan", "ios": "https://dc.lft.to/lastmile_qr_scan"}, "name": "74591f4cbdf5ef450b97e936a1434a07", "is_reserved": 0}, {"is_disabled": 0, "fusion_lon": 0.0, "fusion_lat": 0.0, "lat": 38.90703366666666, "type": "electric_scooter", "lon": -77.063018, "bike_id": "d55f7151b7b47c297fe792b3c4692e0a", "rental_uris": {"android": "https://dc.lft.to/lastmile_qr_scan", "ios": "https://dc.lft.to/lastmile_qr_scan"}, "name": "d55f7151b7b47c297fe792b3c4692e0a", "is_reserved": 0}, {"is_disabled": 0, "fusion_lon": 0.0, "fusion_lat": 0.0, "lat": 38.958738, "type": "electric_bike", "lon": -76.92494883333333, "bike_id": "6f13c2732204de9aa3a65cadfdd65a85", "rental_uris": {"android": "https://dc.lft.to/lastmile_qr_scan", "ios": "https://dc.lft.to/lastmile_qr_scan"}, "name": "6f13c2732204de9aa3a65cadfdd65a85", "is_reserved": 0}, {"is_disabled": 0, "fusion_lon": 0.0, "fusion_lat": 0.0, "lat": 38.897518, "type": "electric_scooter", "lon": -77.02865766666666, "bike_id": "132b8fb026295fbb6bf441580a575ef5", "rental_uris": {"android": "https://dc.lft.to/lastmile_qr_scan", "ios": "https://dc.lft.to/lastmile_qr_scan"}, "name": "132b8fb026295fbb6bf441580a575ef5", "is_reserved": 0}, {"is_disabled": 0, "fusion_lon": 0.0, "fusion_lat": 0.0, "lat": 38.89736, "type": "electric_scooter", "lon": -77.02492733333334, "bike_id": "9ac58280af0bd3154558d9c9004ca5ef", "rental_uris": {"android": "https://dc.lft.to/lastmile_qr_scan", "ios": "https://dc.lft.to/lastmile_qr_scan"}, "name": "9ac58280af0bd3154558d9c9004ca5ef", "is_reserved": 0}, {"is_disabled": 0, "fusion_lon": 0.0, "fusion_lat": 0.0, "lat": 38.893667, "type": "electric_scooter", "lon": -76.97813533333333, "bike_id": "d70e0a57bd53b9db6983b2ac30136122", "rental_uris": {"android": "https://dc.lft.to/lastmile_qr_scan", "ios": "https://dc.lft.to/lastmile_qr_scan"}, "name": "d70e0a57bd53b9db6983b2ac30136122", "is_reserved": 0}, {"is_disabled": 0, "fusion_lon": 0.0, "fusion_lat": 0.0, "lat": 38.89312016666667, "type": "electric_scooter", "lon": -77.02206816666667, "bike_id": "018e46038a1af4150d3a372f5315142f", "rental_uris": {"android": "https://dc.lft.to/lastmile_qr_scan", "ios": "https://dc.lft.to/lastmile_qr_scan"}, "name": "018e46038a1af4150d3a372f5315142f", "is_reserved": 0}, {"is_disabled": 0, "fusion_lon": 0.0, "fusion_lat": 0.0, "lat": 38.916578666666666, "type": "electric_scooter", "lon": -77.04655116666666, "bike_id": "3330e01e843822b41e3c55b59b7a0de5", "rental_uris": {"android": "https://dc.lft.to/lastmile_qr_scan", "ios": "https://dc.lft.to/lastmile_qr_scan"}, "name": "3330e01e843822b41e3c55b59b7a0de5", "is_reserved": 0}, {"is_disabled": 0, "fusion_lon": 0.0, "fusion_lat": 0.0, "lat": 38.885402, "type": "electric_scooter", "lon": -76.99801366666667, "bike_id": "37d99727327d13fcf2514a768b872181", "rental_uris": {"android": "https://dc.lft.to/lastmile_qr_scan", "ios": "https://dc.lft.to/lastmile_qr_scan"}, "name": "37d99727327d13fcf2514a768b872181", "is_reserved": 0}, {"is_disabled": 0, "fusion_lon": 0.0, "fusion_lat": 0.0, "lat": 38.9603525, "type": "electric_bike", "lon": -76.92707216666666, "bike_id": "6858cecb47be5138ed93ec7c36b68e92", "rental_uris": {"android": "https://dc.lft.to/lastmile_qr_scan", "ios": "https://dc.lft.to/lastmile_qr_scan"}, "name": "6858cecb47be5138ed93ec7c36b68e92", "is_reserved": 0}, {"is_disabled": 0, "fusion_lon": 0.0, "fusion_lat": 0.0, "lat": 38.9201395, "type": "electric_scooter", "lon": -77.04425983333333, "bike_id": "94cb716bf8ab2e8e0d02e623fb1eaa03", "rental_uris": {"android": "https://dc.lft.to/lastmile_qr_scan", "ios": "https://dc.lft.to/lastmile_qr_scan"}, "name": "94cb716bf8ab2e8e0d02e623fb1eaa03", "is_reserved": 0}, {"is_disabled": 0, "fusion_lon": 0.0, "fusion_lat": 0.0, "lat": 38.90775133333333, "type": "electric_scooter", "lon": -77.0318645, "bike_id": "f436b524d5f01315628d82ebe0664a24", "rental_uris": {"android": "https://dc.lft.to/lastmile_qr_scan", "ios": "https://dc.lft.to/lastmile_qr_scan"}, "name": "f436b524d5f01315628d82ebe0664a24", "is_reserved": 0}, {"is_disabled": 0, "fusion_lon": 0.0, "fusion_lat": 0.0, "lat": 38.9037235, "type": "electric_scooter", "lon": -77.0291065, "bike_id": "0f720d0ef3097775efe86987899f00ee", "rental_uris": {"android": "https://dc.lft.to/lastmile_qr_scan", "ios": "https://dc.lft.to/lastmile_qr_scan"}, "name": "0f720d0ef3097775efe86987899f00ee", "is_reserved": 0}, {"is_disabled": 0, "fusion_lon": 0.0, "fusion_lat": 0.0, "lat": 38.933045, "type": "electric_scooter", "lon": -77.02136066666667, "bike_id": "416faeceb11c4e58eee97512b03abd46", "rental_uris": {"android": "https://dc.lft.to/lastmile_qr_scan", "ios": "https://dc.lft.to/lastmile_qr_scan"}, "name": "416faeceb11c4e58eee97512b03abd46", "is_reserved": 0}, {"is_disabled": 0, "fusion_lon": 0.0, "fusion_lat": 0.0, "lat": 38.863606, "type": "electric_scooter", "lon": -76.990764, "bike_id": "f4868642e264902cd8d3af7bba1b2cef", "rental_uris": {"android": "https://dc.lft.to/lastmile_qr_scan", "ios": "https://dc.lft.to/lastmile_qr_scan"}, "name": "f4868642e264902cd8d3af7bba1b2cef", "is_reserved": 0}, {"is_disabled": 0, "fusion_lon": 0.0, "fusion_lat": 0.0, "lat": 38.905237666666665, "type": "electric_scooter", "lon": -77.05014983333334, "bike_id": "1c16d2ee940116f79eb17635f77381a4", "rental_uris": {"android": "https://dc.lft.to/lastmile_qr_scan", "ios": "https://dc.lft.to/lastmile_qr_scan"}, "name": "1c16d2ee940116f79eb17635f77381a4", "is_reserved": 0}, {"is_disabled": 0, "fusion_lon": 0.0, "fusion_lat": 0.0, "lat": 38.990635833333336, "type": "electric_bike", "lon": -77.10030683333333, "bike_id": "2d3e9b2e5362e97f92036dacf129c48c", "rental_uris": {"android": "https://dc.lft.to/lastmile_qr_scan", "ios": "https://dc.lft.to/lastmile_qr_scan"}, "name": "2d3e9b2e5362e97f92036dacf129c48c", "is_reserved": 0}, {"is_disabled": 0, "fusion_lon": 0.0, "fusion_lat": 0.0, "lat": 38.927919333333335, "type": "electric_scooter", "lon": -77.0145895, "bike_id": "01d4374ad64f0ff2dbf95e2222c87c8b", "rental_uris": {"android": "https://dc.lft.to/lastmile_qr_scan", "ios": "https://dc.lft.to/lastmile_qr_scan"}, "name": "01d4374ad64f0ff2dbf95e2222c87c8b", "is_reserved": 0}, {"is_disabled": 0, "fusion_lon": 0.0, "fusion_lat": 0.0, "lat": 38.990917, "type": "electric_bike", "lon": -76.8749515, "bike_id": "5f39b3316a18070157ff3f7cacfd9572", "rental_uris": {"android": "https://dc.lft.to/lastmile_qr_scan", "ios": "https://dc.lft.to/lastmile_qr_scan"}, "name": "5f39b3316a18070157ff3f7cacfd9572", "is_reserved": 0}, {"is_disabled": 0, "fusion_lon": 0.0, "fusion_lat": 0.0, "lat": 38.88585366666667, "type": "electric_scooter", "lon": -77.02002933333333, "bike_id": "e109addd738f04cf76de2af69401b420", "rental_uris": {"android": "https://dc.lft.to/lastmile_qr_scan", "ios": "https://dc.lft.to/lastmile_qr_scan"}, "name": "e109addd738f04cf76de2af69401b420", "is_reserved": 0}, {"is_disabled": 0, "fusion_lon": 0.0, "fusion_lat": 0.0, "lat": 38.926904666666665, "type": "electric_scooter", "lon": -77.03742083333333, "bike_id": "570a163dbae26dec38ec43a4b9cd3843", "rental_uris": {"android": "https://dc.lft.to/lastmile_qr_scan", "ios": "https://dc.lft.to/lastmile_qr_scan"}, "name": "570a163dbae26dec38ec43a4b9cd3843", "is_reserved": 0}, {"is_disabled": 0, "fusion_lon": 0.0, "fusion_lat": 0.0, "lat": 38.904235166666666, "type": "electric_scooter", "lon": -77.048203, "bike_id": "fafdff04a51a7cf20f477d9fd85de198", "rental_uris": {"android": "https://dc.lft.to/lastmile_qr_scan", "ios": "https://dc.lft.to/lastmile_qr_scan"}, "name": "fafdff04a51a7cf20f477d9fd85de198", "is_reserved": 0}, {"is_disabled": 0, "fusion_lon": 0.0, "fusion_lat": 0.0, "lat": 38.91805083333333, "type": "electric_scooter", "lon": -77.02682483333334, "bike_id": "2142788d93d57c568537281b301ea777", "rental_uris": {"android": "https://dc.lft.to/lastmile_qr_scan", "ios": "https://dc.lft.to/lastmile_qr_scan"}, "name": "2142788d93d57c568537281b301ea777", "is_reserved": 0}, {"is_disabled": 0, "fusion_lon": 0.0, "fusion_lat": 0.0, "lat": 38.86893233333333, "type": "electric_scooter", "lon": -76.9831165, "bike_id": "3b4cfe3b13d9e5baff76d46bc37dd288", "rental_uris": {"android": "https://dc.lft.to/lastmile_qr_scan", "ios": "https://dc.lft.to/lastmile_qr_scan"}, "name": "3b4cfe3b13d9e5baff76d46bc37dd288", "is_reserved": 0}, {"is_disabled": 0, "fusion_lon": 0.0, "fusion_lat": 0.0, "lat": 38.925637, "type": "electric_scooter", "lon": -77.022801, "bike_id": "1ffb0ef4a8851e0997102059bbc44746", "rental_uris": {"android": "https://dc.lft.to/lastmile_qr_scan", "ios": "https://dc.lft.to/lastmile_qr_scan"}, "name": "1ffb0ef4a8851e0997102059bbc44746", "is_reserved": 0}, {"is_disabled": 0, "fusion_lon": 0.0, "fusion_lat": 0.0, "lat": 38.859854, "type": "electric_bike", "lon": -76.97049716666666, "bike_id": "00d660326d83d3d0c46490a44e27edd6", "rental_uris": {"android": "https://dc.lft.to/lastmile_qr_scan", "ios": "https://dc.lft.to/lastmile_qr_scan"}, "name": "00d660326d83d3d0c46490a44e27edd6", "is_reserved": 0}, {"is_disabled": 0, "fusion_lon": 0.0, "fusion_lat": 0.0, "lat": 38.88384833333333, "type": "electric_scooter", "lon": -76.98580749999999, "bike_id": "97010215761605d67570f70c374051a7", "rental_uris": {"android": "https://dc.lft.to/lastmile_qr_scan", "ios": "https://dc.lft.to/lastmile_qr_scan"}, "name": "97010215761605d67570f70c374051a7", "is_reserved": 0}, {"is_disabled": 0, "fusion_lon": 0.0, "fusion_lat": 0.0, "lat": 38.9945685, "type": "electric_bike", "lon": -76.908172, "bike_id": "8a9f05dbac03c178c7523ef6dd2d1452", "rental_uris": {"android": "https://dc.lft.to/lastmile_qr_scan", "ios": "https://dc.lft.to/lastmile_qr_scan"}, "name": "8a9f05dbac03c178c7523ef6dd2d1452", "is_reserved": 0}, {"is_disabled": 0, "fusion_lon": 0.0, "fusion_lat": 0.0, "lat": 38.91859083333333, "type": "electric_scooter", "lon": -77.03507366666666, "bike_id": "22b6957acd3a7eb89b3c4a94ff173c87", "rental_uris": {"android": "https://dc.lft.to/lastmile_qr_scan", "ios": "https://dc.lft.to/lastmile_qr_scan"}, "name": "22b6957acd3a7eb89b3c4a94ff173c87", "is_reserved": 0}, {"is_disabled": 0, "fusion_lon": 0.0, "fusion_lat": 0.0, "lat": 39.058158666666664, "type": "electric_bike", "lon": -77.12628266666667, "bike_id": "0a2bd8d30a23eea435d7c060e4b622d7", "rental_uris": {"android": "https://dc.lft.to/lastmile_qr_scan", "ios": "https://dc.lft.to/lastmile_qr_scan"}, "name": "0a2bd8d30a23eea435d7c060e4b622d7", "is_reserved": 0}, {"is_disabled": 0, "fusion_lon": 0.0, "fusion_lat": 0.0, "lat": 38.876811333333336, "type": "electric_bike", "lon": -77.01450283333334, "bike_id": "968dbae16502795d714be2e4666e85c5", "rental_uris": {"android": "https://dc.lft.to/lastmile_qr_scan", "ios": "https://dc.lft.to/lastmile_qr_scan"}, "name": "968dbae16502795d714be2e4666e85c5", "is_reserved": 0}, {"is_disabled": 0, "fusion_lon": 0.0, "fusion_lat": 0.0, "lat": 38.941543333333335, "type": "electric_bike", "lon": -77.00193933333334, "bike_id": "893d63665c32fc82598ff86b428e6284", "rental_uris": {"android": "https://dc.lft.to/lastmile_qr_scan", "ios": "https://dc.lft.to/lastmile_qr_scan"}, "name": "893d63665c32fc82598ff86b428e6284", "is_reserved": 0}, {"is_disabled": 0, "fusion_lon": 0.0, "fusion_lat": 0.0, "lat": 38.926571333333335, "type": "electric_scooter", "lon": -77.02434966666667, "bike_id": "bcc62c7ab1dc31965385d4baf83f65a6", "rental_uris": {"android": "https://dc.lft.to/lastmile_qr_scan", "ios": "https://dc.lft.to/lastmile_qr_scan"}, "name": "bcc62c7ab1dc31965385d4baf83f65a6", "is_reserved": 0}, {"is_disabled": 0, "fusion_lon": 0.0, "fusion_lat": 0.0, "lat": 38.92294116666667, "type": "electric_scooter", "lon": -77.04032316666667, "bike_id": "f7be6d0ed8b9eeb9d4f5a6d3f329f919", "rental_uris": {"android": "https://dc.lft.to/lastmile_qr_scan", "ios": "https://dc.lft.to/lastmile_qr_scan"}, "name": "f7be6d0ed8b9eeb9d4f5a6d3f329f919", "is_reserved": 0}, {"is_disabled": 0, "fusion_lon": 0.0, "fusion_lat": 0.0, "lat": 38.903734, "type": "electric_scooter", "lon": -77.025455, "bike_id": "9f73e5e46426040c5957a934141135b3", "rental_uris": {"android": "https://dc.lft.to/lastmile_qr_scan", "ios": "https://dc.lft.to/lastmile_qr_scan"}, "name": "9f73e5e46426040c5957a934141135b3", "is_reserved": 0}, {"is_disabled": 0, "fusion_lon": 0.0, "fusion_lat": 0.0, "lat": 38.90509383333333, "type": "electric_scooter", "lon": -77.02615816666666, "bike_id": "fd14eb734f41ecf6a1c0eebe28d997e6", "rental_uris": {"android": "https://dc.lft.to/lastmile_qr_scan", "ios": "https://dc.lft.to/lastmile_qr_scan"}, "name": "fd14eb734f41ecf6a1c0eebe28d997e6", "is_reserved": 0}, {"is_disabled": 0, "fusion_lon": 0.0, "fusion_lat": 0.0, "lat": 38.887611666666665, "type": "electric_scooter", "lon": -77.03382666666667, "bike_id": "4a86800a491deba9ead348b12097fd47", "rental_uris": {"android": "https://dc.lft.to/lastmile_qr_scan", "ios": "https://dc.lft.to/lastmile_qr_scan"}, "name": "4a86800a491deba9ead348b12097fd47", "is_reserved": 0}, {"is_disabled": 0, "fusion_lon": 0.0, "fusion_lat": 0.0, "lat": 38.84532566666667, "type": "electric_scooter", "lon": -76.9814895, "bike_id": "014b54132e7125cacf0cc9eb6c64c3f4", "rental_uris": {"android": "https://dc.lft.to/lastmile_qr_scan", "ios": "https://dc.lft.to/lastmile_qr_scan"}, "name": "014b54132e7125cacf0cc9eb6c64c3f4", "is_reserved": 0}, {"is_disabled": 0, "fusion_lon": 0.0, "fusion_lat": 0.0, "lat": 38.913425, "type": "electric_scooter", "lon": -77.04222633333333, "bike_id": "3706bd71a8add9a07f9ba428ef000043", "rental_uris": {"android": "https://dc.lft.to/lastmile_qr_scan", "ios": "https://dc.lft.to/lastmile_qr_scan"}, "name": "3706bd71a8add9a07f9ba428ef000043", "is_reserved": 0}, {"is_disabled": 0, "fusion_lon": 0.0, "fusion_lat": 0.0, "lat": 38.88724766666667, "type": "electric_scooter", "lon": -77.0220655, "bike_id": "4c984edde50c01032d173bd4f1d8dac7", "rental_uris": {"android": "https://dc.lft.to/lastmile_qr_scan", "ios": "https://dc.lft.to/lastmile_qr_scan"}, "name": "4c984edde50c01032d173bd4f1d8dac7", "is_reserved": 0}, {"is_disabled": 0, "fusion_lon": 0.0, "fusion_lat": 0.0, "lat": 38.902605, "type": "electric_scooter", "lon": -77.000197, "bike_id": "ce32a69a6f994665dcbfd84b7f3dc8a0", "rental_uris": {"android": "https://dc.lft.to/lastmile_qr_scan", "ios": "https://dc.lft.to/lastmile_qr_scan"}, "name": "ce32a69a6f994665dcbfd84b7f3dc8a0", "is_reserved": 0}, {"is_disabled": 0, "fusion_lon": 0.0, "fusion_lat": 0.0, "lat": 38.87498883333333, "type": "electric_scooter", "lon": -76.99795066666667, "bike_id": "14c875c6d91c0e7d198968aa289bd121", "rental_uris": {"android": "https://dc.lft.to/lastmile_qr_scan", "ios": "https://dc.lft.to/lastmile_qr_scan"}, "name": "14c875c6d91c0e7d198968aa289bd121", "is_reserved": 0}, {"is_disabled": 0, "fusion_lon": 0.0, "fusion_lat": 0.0, "lat": 38.864684833333335, "type": "electric_scooter", "lon": -76.9961025, "bike_id": "8a071cc92f2d715f4e2195d6761fd292", "rental_uris": {"android": "https://dc.lft.to/lastmile_qr_scan", "ios": "https://dc.lft.to/lastmile_qr_scan"}, "name": "8a071cc92f2d715f4e2195d6761fd292", "is_reserved": 0}, {"is_disabled": 0, "fusion_lon": 0.0, "fusion_lat": 0.0, "lat": 38.9214145, "type": "electric_scooter", "lon": -77.00915566666667, "bike_id": "45a6d6cf95ec7162b74e7b51a3036482", "rental_uris": {"android": "https://dc.lft.to/lastmile_qr_scan", "ios": "https://dc.lft.to/lastmile_qr_scan"}, "name": "45a6d6cf95ec7162b74e7b51a3036482", "is_reserved": 0}, {"is_disabled": 0, "fusion_lon": 0.0, "fusion_lat": 0.0, "lat": 38.9073385, "type": "electric_scooter", "lon": -77.02414883333333, "bike_id": "4f53580afe44d8a49da62133e0eef75d", "rental_uris": {"android": "https://dc.lft.to/lastmile_qr_scan", "ios": "https://dc.lft.to/lastmile_qr_scan"}, "name": "4f53580afe44d8a49da62133e0eef75d", "is_reserved": 0}, {"is_disabled": 0, "fusion_lon": 0.0, "fusion_lat": 0.0, "lat": 38.93099566666667, "type": "electric_scooter", "lon": -77.0245305, "bike_id": "7cfa1b2d2769f90631748b7f3480c5d3", "rental_uris": {"android": "https://dc.lft.to/lastmile_qr_scan", "ios": "https://dc.lft.to/lastmile_qr_scan"}, "name": "7cfa1b2d2769f90631748b7f3480c5d3", "is_reserved": 0}, {"is_disabled": 0, "fusion_lon": 0.0, "fusion_lat": 0.0, "lat": 38.91915133333333, "type": "electric_scooter", "lon": -77.04462366666667, "bike_id": "4db0851b3c3872ec50cb756a07b41d7d", "rental_uris": {"android": "https://dc.lft.to/lastmile_qr_scan", "ios": "https://dc.lft.to/lastmile_qr_scan"}, "name": "4db0851b3c3872ec50cb756a07b41d7d", "is_reserved": 0}, {"is_disabled": 0, "fusion_lon": 0.0, "fusion_lat": 0.0, "lat": 38.8597295, "type": "electric_scooter", "lon": -76.98417066666667, "bike_id": "674a418df1822a855ccb8771bcb41ca0", "rental_uris": {"android": "https://dc.lft.to/lastmile_qr_scan", "ios": "https://dc.lft.to/lastmile_qr_scan"}, "name": "674a418df1822a855ccb8771bcb41ca0", "is_reserved": 0}, {"is_disabled": 0, "fusion_lon": 0.0, "fusion_lat": 0.0, "lat": 38.85068783333333, "type": "electric_bike", "lon": -76.97333116666667, "bike_id": "e36a965d01ecf6a8d9ebdee0f2c13938", "rental_uris": {"android": "https://dc.lft.to/lastmile_qr_scan", "ios": "https://dc.lft.to/lastmile_qr_scan"}, "name": "e36a965d01ecf6a8d9ebdee0f2c13938", "is_reserved": 0}, {"is_disabled": 0, "fusion_lon": 0.0, "fusion_lat": 0.0, "lat": 38.919050666666664, "type": "electric_scooter", "lon": -77.02753, "bike_id": "f07783f587063c9b1e38cf8f5a133d9b", "rental_uris": {"android": "https://dc.lft.to/lastmile_qr_scan", "ios": "https://dc.lft.to/lastmile_qr_scan"}, "name": "f07783f587063c9b1e38cf8f5a133d9b", "is_reserved": 0},