{"data": {"bikes": [{"name": "bed553c9d5eb8cef6bb4cf540d369664", "fusion_lat": 0.0, "type": "electric_scooter", "lat": 38.9360655, "is_reserved": 0, "is_disabled": 0, "fusion_lon": 0.0, "bike_id": "bed553c9d5eb8cef6bb4cf540d369664", "lon": -77.05858883333333, "rental_uris": {"ios": "https://dc.lft.to/lastmile_qr_scan", "android": "https://dc.lft.to/lastmile_qr_scan"}}, {"name": "901e5dae0e4180d5be8fa7d987cd1778", "fusion_lat": 0.0, "type": "electric_scooter", "lat": 38.8968705, "is_reserved": 0, "is_disabled": 0, "fusion_lon": 0.0, "bike_id": "901e5dae0e4180d5be8fa7d987cd1778", "lon": -77.00489033333334, "rental_uris": {"ios": "https://dc.lft.to/lastmile_qr_scan", "android": "https://dc.lft.to/lastmile_qr_scan"}}, {"name": "3a55c728fcc33f6000473c3d92882cb1", "fusion_lat": 0.0, "type": "electric_bike", "lat": 39.033453333333334, "is_reserved": 0, "is_disabled": 0, "fusion_lon": 0.0, "bike_id": "3a55c728fcc33f6000473c3d92882cb1", "lon": -77.04907033333333, "rental_uris": {"ios": "https://dc.lft.to/lastmile_qr_scan", "android": "https://dc.lft.to/lastmile_qr_scan"}}, {"name": "d3ac8f420f2844369f1e9389ece6aa20", "fusion_lat": 0.0, "type": "electric_scooter", "lat": 38.923691, "is_reserved": 0, "is_disabled": 0, "fusion_lon": 0.0, "bike_id": "d3ac8f420f2844369f1e9389ece6aa20", "lon": -77.01916616666666, "rental_uris": {"ios": "https://dc.lft.to/lastmile_qr_scan", "android": "https://dc.lft.to/lastmile_qr_scan"}}, {"name": "2335f60f675903b72c80b1716044f5c0", "fusion_lat": 0.0, "type": "electric_scooter", "lat": 38.91003416666667, "is_reserved": 0, "is_disabled": 0, "fusion_lon": 0.0, "bike_id": "2335f60f675903b72c80b1716044f5c0", "lon": -77.04422533333333, "rental_uris": {"ios": "https://dc.lft.to/lastmile_qr_scan", "android": "https://dc.lft.to/lastmile_qr_scan"}}, {"name": "ddda12b3cfc4a5bd43c3a9c0da6b8798", "fusion_lat": 0.0, "type": "electric_scooter", "lat": 38.9062335, "is_reserved": 0, "is_disabled": 0, "fusion_lon": 0.0, "bike_id": "ddda12b3cfc4a5bd43c3a9c0da6b8798", "lon": -77.05139933333334, "rental_uris": {"ios": "https://dc.lft.to/lastmile_qr_scan", "android": "https://dc.lft.to/lastmile_qr_scan"}}, {"name": "c739e97dcf518ef67df49b8b51b1a122", "fusion_lat": 0.0, "type": "electric_scooter", "lat": 38.93305383333333, "is_reserved": 0, "is_disabled": 0, "fusion_lon": 0.0, "bike_id": "c739e97dcf518ef67df49b8b51b1a122", "lon": -77.0376765, "rental_uris": {"ios": "https://dc.lft.to/lastmile_qr_scan", "android": "https://dc.lft.to/lastmile_qr_scan"}}, {"name": "0729cadf58137122559ad7c1eac1deba", "fusion_lat": 0.0, "type": "electric_scooter", "lat": 38.93952133333333, "is_reserved": 0, "is_disabled": 0, "fusion_lon": 0.0, "bike_id": "0729cadf58137122559ad7c1eac1deba", "lon": -77.07239566666667, "rental_uris": {"ios": "https://dc.lft.to/lastmile_qr_scan", "android": "https://dc.lft.to/lastmile_qr_scan"}}, {"name": "0e6ab3223c33f264264e4ac48089a5cd", "fusion_lat": 0.0, "type": "electric_scooter", "lat": 38.97393366666667, "is_reserved": 0, "is_disabled": 0, "fusion_lon": 0.0, "bike_id": "0e6ab3223c33f264264e4ac48089a5cd", "lon": -77.01812816666667, "rental_uris": {"ios": "https://dc.lft.to/lastmile_qr_scan", "android": "https://dc.lft.to/lastmile_qr_scan"}}, {"name": "1024dd33fdc96ca527c6a86a52a09541", "fusion_lat": 0.0, "type": "electric_scooter", "lat": 38.90517966666667, "is_reserved": 0, "is_disabled": 0, "fusion_lon": 0.0, "bike_id": "1024dd33fdc96ca527c6a86a52a09541", "lon": -77.04162966666667, "rental_uris": {"ios": "https://dc.lft.to/lastmile_qr_scan", "android": "https://dc.lft.to/lastmile_qr_scan"}}, {"name": "907befb90ab093dba406726147eff81e", "fusion_lat": 0.0, "type": "electric_scooter", "lat": 38.896456, "is_reserved": 0, "is_disabled": 0, "fusion_lon": 0.0, "bike_id": "907befb90ab093dba406726147eff81e", "lon": -77.04661066666667, "rental_uris": {"ios": "https://dc.lft.to/lastmile_qr_scan", "android": "https://dc.lft.to/lastmile_qr_scan"}}, {"name": "ba3a2bd02c5f05f712526fdc9faef9df", "fusion_lat": 0.0, "type": "electric_scooter", "lat": 38.9096335, "is_reserved": 0, "is_disabled": 0, "fusion_lon": 0.0, "bike_id": "ba3a2bd02c5f05f712526fdc9faef9df", "lon": -77.03672433333334, "rental_uris": {"ios": "https://dc.lft.to/lastmile_qr_scan", "android": "https://dc.lft.to/lastmile_qr_scan"}}, {"name": "9bf4c7529fb85669b5e65f3cf30ecc98", "fusion_lat": 0.0, "type": "electric_scooter", "lat": 38.92366283333333, "is_reserved": 0, "is_disabled": 0, "fusion_lon": 0.0, "bike_id": "9bf4c7529fb85669b5e65f3cf30ecc98", "lon": -77.05028616666667, "rental_uris": {"ios": "https://dc.lft.to/lastmile_qr_scan", "android": "https://dc.lft.to/lastmile_qr_scan"}}, {"name": "b3a920f6db2be6ffa7fd3b845abc42cd", "fusion_lat": 0.0, "type": "electric_scooter", "lat": 38.8955785, "is_reserved": 0, "is_disabled": 0, "fusion_lon": 0.0, "bike_id": "b3a920f6db2be6ffa7fd3b845abc42cd", "lon": -77.04659316666667, "rental_uris": {"ios": "https://dc.lft.to/lastmile_qr_scan", "android": "https://dc.lft.to/lastmile_qr_scan"}}, {"name": "674920c56350a44542e0c1b5683be9c2", "fusion_lat": 0.0, "type": "electric_bike", "lat": 38.886809, "is_reserved": 0, "is_disabled": 0, "fusion_lon": 0.0, "bike_id": "674920c56350a44542e0c1b5683be9c2", "lon": -77.16261316666667, "rental_uris": {"ios": "https://dc.lft.to/lastmile_qr_scan", "android": "https://dc.lft.to/lastmile_qr_scan"}}, {"name": "43fe4092dc9e95b5f2154007eb0cce76", "fusion_lat": 0.0, "type": "electric_scooter", "lat": 38.91184366666667, "is_reserved": 0, "is_disabled": 0, "fusion_lon": 0.0, "bike_id": "43fe4092dc9e95b5f2154007eb0cce76", "lon": -77.04490066666666, "rental_uris": {"ios": "https://dc.lft.to/lastmile_qr_scan", "android": "https://dc.lft.to/lastmile_qr_scan"}}, {"name": "8d96e8b321345b45882d4a9d9c00200b", "fusion_lat": 0.0, "type": "electric_scooter", "lat": 38.9023915, "is_reserved": 0, "is_disabled": 0, "fusion_lon": 0.0, "bike_id": "8d96e8b321345b45882d4a9d9c00200b", "lon": -77.02692416666666, "rental_uris": {"ios": "https://dc.lft.to/lastmile_qr_scan", "android": "https://dc.lft.to/lastmile_qr_scan"}}, {"name": "de8c580279e3ef64f950e81f053a88c3", "fusion_lat": 0.0, "type": "electric_bike", "lat": 38.95541433333333, "is_reserved": 0, "is_disabled": 0, "fusion_lon": 0.0, "bike_id": "de8c580279e3ef64f950e81f053a88c3", "lon": -77.01615133333334, "rental_uris": {"ios": "https://dc.lft.to/lastmile_qr_scan", "android": "https://dc.lft.to/lastmile_qr_scan"}}, {"name": "103870d342ffdaaf2877856395d3763b", "fusion_lat": 0.0, "type": "electric_scooter", "lat": 38.900946833333336, "is_reserved": 0, "is_disabled": 0, "fusion_lon": 0.0, "bike_id": "103870d342ffdaaf2877856395d3763b", "lon": -77.03212916666666, "rental_uris": {"ios": "https://dc.lft.to/lastmile_qr_scan", "android": "https://dc.lft.to/lastmile_qr_scan"}}, {"name": "f84a8bcf626c5523fe660d15517ac783", "fusion_lat": 0.0, "type": "electric_scooter", "lat": 38.902659, "is_reserved": 0, "is_disabled": 0, "fusion_lon": 0.0, "bike_id": "f84a8bcf626c5523fe660d15517ac783", "lon": -77.05314516666667, "rental_uris": {"ios": "https://dc.lft.to/lastmile_qr_scan", "android": "https://dc.lft.to/lastmile_qr_scan"}}, {"name": "0f9da10c55081ec1676e2510ff08495a", "fusion_lat": 0.0, "type": "electric_scooter", "lat": 38.9449885, "is_reserved": 0, "is_disabled": 0, "fusion_lon": 0.0, "bike_id": "0f9da10c55081ec1676e2510ff08495a", "lon": -77.03146416666667, "rental_uris": {"ios": "https://dc.lft.to/lastmile_qr_scan", "android": "https://dc.lft.to/lastmile_qr_scan"}}, {"name": "b1a3f73eb39eecf9746654655cfb5766", "fusion_lat": 0.0, "type": "electric_bike", "lat": 39.1056515, "is_reserved": 0, "is_disabled": 0, "fusion_lon": 0.0, "bike_id": "b1a3f73eb39eecf9746654655cfb5766", "lon": -77.15267333333334, "rental_uris": {"ios": "https://dc.lft.to/lastmile_qr_scan", "android": "https://dc.lft.to/lastmile_qr_scan"}}, {"name": "a729424e85106fc1e7674537c5401491", "fusion_lat": 0.0, "type": "electric_scooter", "lat": 38.876498, "is_reserved": 0, "is_disabled": 0, "fusion_lon": 0.0, "bike_id": "a729424e85106fc1e7674537c5401491", "lon": -76.96505083333334, "rental_uris": {"ios": "https://dc.lft.to/lastmile_qr_scan", "android": "https://dc.lft.to/lastmile_qr_scan"}}, {"name": "080dc0701b5cd93e609f29b793cd337a", "fusion_lat": 0.0, "type": "electric_scooter", "lat": 38.905643, "is_reserved": 0, "is_disabled": 0, "fusion_lon": 0.0, "bike_id": "080dc0701b5cd93e609f29b793cd337a", "lon": -77.02763233333333, "rental_uris": {"ios": "https://dc.lft.to/lastmile_qr_scan", "android": "https://dc.lft.to/lastmile_qr_scan"}}, {"name": "2b816de57e445d01b5ad5074b0acdb9f", "fusion_lat": 0.0, "type": "electric_scooter", "lat": 38.8878125, "is_reserved": 0, "is_disabled": 0, "fusion_lon": 0.0, "bike_id": "2b816de57e445d01b5ad5074b0acdb9f", "lon": -76.95530083333334, "rental_uris": {"ios": "https://dc.lft.to/lastmile_qr_scan", "android": "https://dc.lft.to/lastmile_qr_scan"}}, {"name": "4c36a13d3db3566bebf1772acd175786", "fusion_lat": 0.0, "type": "electric_scooter", "lat": 38.934589333333335, "is_reserved": 0, "is_disabled": 0, "fusion_lon": 0.0, "bike_id": "4c36a13d3db3566bebf1772acd175786", "lon": -77.086317, "rental_uris": {"ios": "https://dc.lft.to/lastmile_qr_scan", "android": "https://dc.lft.to/lastmile_qr_scan"}}, {"name": "a27a8992c3885b20a0c67faa8cab77b3", "fusion_lat": 0.0, "type": "electric_scooter", "lat": 38.90553466666667, "is_reserved": 0, "is_disabled": 0, "fusion_lon": 0.0, "bike_id": "a27a8992c3885b20a0c67faa8cab77b3", "lon": -77.02228983333333, "rental_uris": {"ios": "https://dc.lft.to/lastmile_qr_scan", "android": "https://dc.lft.to/lastmile_qr_scan"}}, {"name": "37323773004c9317cbc31cb873db0996", "fusion_lat": 0.0, "type": "electric_scooter", "lat": 38.90317116666667, "is_reserved": 0, "is_disabled": 0, "fusion_lon": 0.0, "bike_id": "37323773004c9317cbc31cb873db0996", "lon": -77.052361, "rental_uris": {"ios": "https://dc.lft.to/lastmile_qr_scan", "android": "https://dc.lft.to/lastmile_qr_scan"}}, {"name": "2b4fe95b648e1b34b99cef4f71c343a1", "fusion_lat": 0.0, "type": "electric_scooter", "lat": 38.912703, "is_reserved": 0, "is_disabled": 0, "fusion_lon": 0.0, "bike_id": "2b4fe95b648e1b34b99cef4f71c343a1", "lon": -77.045058, "rental_uris": {"ios": "https://dc.lft.to/lastmile_qr_scan", "android": "https://dc.lft.to/lastmile_qr_scan"}}, {"name": "4705a4e4e3dbbd5e3654c7ffe9ac4e3d", "fusion_lat": 0.0, "type": "electric_scooter", "lat": 38.899521666666665, "is_reserved": 0, "is_disabled": 0, "fusion_lon": 0.0, "bike_id": "4705a4e4e3dbbd5e3654c7ffe9ac4e3d", "lon": -77.052665, "rental_uris": {"ios": "https://dc.lft.to/lastmile_qr_scan", "android": "https://dc.lft.to/lastmile_qr_scan"}}, {"name": "0fb1ac5c51bc400e19e18577d5644590", "fusion_lat": 0.0, "type": "electric_scooter", "lat": 38.8996015, "is_reserved": 0, "is_disabled": 0, "fusion_lon": 0.0, "bike_id": "0fb1ac5c51bc400e19e18577d5644590", "lon": -77.00903666666666, "rental_uris": {"ios": "https://dc.lft.to/lastmile_qr_scan", "android": "https://dc.lft.to/lastmile_qr_scan"}}, {"name": "c79f2252cecbe72154b7c8e34ecaa94b", "fusion_lat": 0.0, "type": "electric_scooter", "lat": 38.86827233333333, "is_reserved": 0, "is_disabled": 0, "fusion_lon": 0.0, "bike_id": "c79f2252cecbe72154b7c8e34ecaa94b", "lon": -76.9861145, "rental_uris": {"ios": "https://dc.lft.to/lastmile_qr_scan", "android": "https://dc.lft.to/lastmile_qr_scan"}}, {"name": "69c9afce679e620a9b08a5432cf7cbfc", "fusion_lat": 0.0, "type": "electric_scooter", "lat": 38.9247825, "is_reserved": 0, "is_disabled": 0, "fusion_lon": 0.0, "bike_id": "69c9afce679e620a9b08a5432cf7cbfc", "lon": -77.02998416666667, "rental_uris": {"ios": "https://dc.lft.to/lastmile_qr_scan", "android": "https://dc.lft.to/lastmile_qr_scan"}}, {"name": "48b7e796650e6c391558a216422d8199", "fusion_lat": 0.0, "type": "electric_scooter", "lat": 38.927576333333334, "is_reserved": 0, "is_disabled": 0, "fusion_lon": 0.0, "bike_id": "48b7e796650e6c391558a216422d8199", "lon": -77.02307083333334, "rental_uris": {"ios": "https://dc.lft.to/lastmile_qr_scan", "android": "https://dc.lft.to/lastmile_qr_scan"}}, {"name": "4ef0b3bf5794568a39f488b1a7746c6c", "fusion_lat": 0.0, "type": "electric_scooter", "lat": 38.907787666666664, "is_reserved": 0, "is_disabled": 0, "fusion_lon": 0.0, "bike_id": "4ef0b3bf5794568a39f488b1a7746c6c", "lon": -77.07165783333333, "rental_uris": {"ios": "https://dc.lft.to/lastmile_qr_scan", "android": "https://dc.lft.to/lastmile_qr_scan"}}, {"name": "269cd5a974cc53c6e655ed4d4b6a9264", "fusion_lat": 0.0, "type": "electric_scooter", "lat": 38.88585233333333, "is_reserved": 0, "is_disabled": 0, "fusion_lon": 0.0, "bike_id": "269cd5a974cc53c6e655ed4d4b6a9264", "lon": -76.9949815, "rental_uris": {"ios": "https://dc.lft.to/lastmile_qr_scan", "android": "https://dc.lft.to/lastmile_qr_scan"}}, {"name": "9e574bfd1c692e8ed8fb73acfeb33c66", "fusion_lat": 0.0, "type": "electric_scooter", "lat": 38.920843833333336, "is_reserved": 0, "is_disabled": 0, "fusion_lon": 0.0, "bike_id": "9e574bfd1c692e8ed8fb73acfeb33c66", "lon": -77.01370983333334, "rental_uris": {"ios": "https://dc.lft.to/lastmile_qr_scan", "android": "https://dc.lft.to/lastmile_qr_scan"}}, {"name": "2fea07bf7e3b97c730dc098931810cf4", "fusion_lat": 0.0, "type": "electric_scooter", "lat": 38.915822, "is_reserved": 0, "is_disabled": 0, "fusion_lon": 0.0, "bike_id": "2fea07bf7e3b97c730dc098931810cf4", "lon": -77.04251983333333, "rental_uris": {"ios": "https://dc.lft.to/lastmile_qr_scan", "android": "https://dc.lft.to/lastmile_qr_scan"}}, {"name": "153483e14da79e3825823319b6e86261", "fusion_lat": 0.0, "type": "electric_scooter", "lat": 38.9282835, "is_reserved": 0, "is_disabled": 0, "fusion_lon": 0.0, "bike_id": "153483e14da79e3825823319b6e86261", "lon": -77.01413666666667, "rental_uris": {"ios": "https://dc.lft.to/lastmile_qr_scan", "android": "https://dc.lft.to/lastmile_qr_scan"}}, {"name": "c15e71ce2eb6a26ff67a1a7521dfe904", "fusion_lat": 0.0, "type": "electric_scooter", "lat": 38.863736333333335, "is_reserved": 0, "is_disabled": 0, "fusion_lon": 0.0, "bike_id": "c15e71ce2eb6a26ff67a1a7521dfe904", "lon": -76.99059583333333, "rental_uris": {"ios": "https://dc.lft.to/lastmile_qr_scan", "android": "https://dc.lft.to/lastmile_qr_scan"}}, {"name": "2d0cc6392d047859538eff555c59d541", "fusion_lat": 0.0, "type": "electric_scooter", "lat": 38.940523666666664, "is_reserved": 0, "is_disabled": 0, "fusion_lon": 0.0, "bike_id": "2d0cc6392d047859538eff555c59d541", "lon": -77.03280666666667, "rental_uris": {"ios": "https://dc.lft.to/lastmile_qr_scan", "android": "https://dc.lft.to/lastmile_qr_scan"}}, {"name": "4f022bb3f79f1954349d033e67e726f5", "fusion_lat": 0.0, "type": "electric_scooter", "lat": 38.93729233333333, "is_reserved": 0, "is_disabled": 0, "fusion_lon": 0.0, "bike_id": "4f022bb3f79f1954349d033e67e726f5", "lon": -77.0326305, "rental_uris": {"ios": "https://dc.lft.to/lastmile_qr_scan", "android": "https://dc.lft.to/lastmile_qr_scan"}}, {"name": "fa2d8601b200bc0e330cd1c8f916659d", "fusion_lat": 0.0, "type": "electric_bike", "lat": 38.854125333333336, "is_reserved": 0, "is_disabled": 0, "fusion_lon": 0.0, "bike_id": "fa2d8601b200bc0e330cd1c8f916659d", "lon": -77.1182975, "rental_uris": {"ios": "https://dc.lft.to/lastmile_qr_scan", "android": "https://dc.lft.to/lastmile_qr_scan"}}, {"name": "d4c4b2e079ce45704fadb3cfb1963ab1", "fusion_lat": 0.0, "type": "electric_scooter", "lat": 38.91664, "is_reserved": 0, "is_disabled": 0, "fusion_lon": 0.0, "bike_id": "d4c4b2e079ce45704fadb3cfb1963ab1", "lon": -77.02293666666667, "rental_uris": {"ios": "https://dc.lft.to/lastmile_qr_scan", "android": "https://dc.lft.to/lastmile_qr_scan"}}, {"name": "c597e3f88c46edfeeceb1a687b142e10", "fusion_lat": 0.0, "type": "electric_scooter", "lat": 38.905206, "is_reserved": 0, "is_disabled": 0, "fusion_lon": 0.0, "bike_id": "c597e3f88c46edfeeceb1a687b142e10", "lon": -77.0501795, "rental_uris": {"ios": "https://dc.lft.to/lastmile_qr_scan", "android": "https://dc.lft.to/lastmile_qr_scan"}}, {"name": "41e1e3b378e2320de9b31a646688a6a6", "fusion_lat": 0.0, "type": "electric_scooter", "lat": 38.90377683333333, "is_reserved": 0, "is_disabled": 0, "fusion_lon": 0.0, "bike_id": "41e1e3b378e2320de9b31a646688a6a6", "lon": -77.05039516666666, "rental_uris": {"ios": "https://dc.lft.to/lastmile_qr_scan", "android": "https://dc.lft.to/lastmile_qr_scan"}}, {"name": "cb72990d3e281a0878619d0e16b98e02", "fusion_lat": 0.0, "type": "electric_scooter", "lat": 38.89764233333333, "is_reserved": 0, "is_disabled": 0, "fusion_lon": 0.0, "bike_id": "cb72990d3e281a0878619d0e16b98e02", "lon": -76.97720916666667, "rental_uris": {"ios": "https://dc.lft.to/lastmile_qr_scan", "android": "https://dc.lft.to/lastmile_qr_scan"}}, {"name": "a457b064c2db878d981c051641d7d57f", "fusion_lat": 0.0, "type": "electric_scooter", "lat": 38.901300666666664, "is_reserved": 0, "is_disabled": 0, "fusion_lon": 0.0, "bike_id": "a457b064c2db878d981c051641d7d57f", "lon": -77.0395395, "rental_uris": {"ios": "https://dc.lft.to/lastmile_qr_scan", "android": "https://dc.lft.to/lastmile_qr_scan"}}, {"name": "8738f44f69d04221deb83ebd48f75198", "fusion_lat": 0.0, "type": "electric_bike", "lat": 38.949026, "is_reserved": 0, "is_disabled": 0, "fusion_lon": 0.0, "bike_id": "8738f44f69d04221deb83ebd48f75198", "lon": -76.96373283333334, "rental_uris": {"ios": "https://dc.lft.to/lastmile_qr_scan", "android": "https://dc.lft.to/lastmile_qr_scan"}}, {"name": "de0c9f83a38f38f9fecb592840de4396", "fusion_lat": 0.0, "type": "electric_scooter", "lat": 38.903837333333335, "is_reserved": 0, "is_disabled": 0, "fusion_lon": 0.0, "bike_id": "de0c9f83a38f38f9fecb592840de4396", "lon": -77.01103916666666, "rental_uris": {"ios": "https://dc.lft.to/lastmile_qr_scan", "android": "https://dc.lft.to/lastmile_qr_scan"}}, {"name": "67aeb8df154ab040a2926806ddb37956", "fusion_lat": 0.0, "type": "electric_scooter", "lat": 38.9289745, "is_reserved": 0, "is_disabled": 0, "fusion_lon": 0.0, "bike_id": "67aeb8df154ab040a2926806ddb37956", "lon": -77.054593, "rental_uris": {"ios": "https://dc.lft.to/lastmile_qr_scan", "android": "https://dc.lft.to/lastmile_qr_scan"}}, {"name": "a2893ba82e227e61b6307d1b148a603e", "fusion_lat": 0.0, "type": "electric_bike", "lat": 38.943712833333336, "is_reserved": 0, "is_disabled": 0, "fusion_lon": 0.0, "bike_id": "a2893ba82e227e61b6307d1b148a603e", "lon": -77.07747316666666, "rental_uris": {"ios": "https://dc.lft.to/lastmile_qr_scan", "android": "https://dc.lft.to/lastmile_qr_scan"}}, {"name": "3b77890d20fa1eb405275425f81dd7fd", "fusion_lat": 0.0, "type": "electric_scooter", "lat": 38.92252716666667, "is_reserved": 0, "is_disabled": 0, "fusion_lon": 0.0, "bike_id": "3b77890d20fa1eb405275425f81dd7fd", "lon": -77.01951733333334, "rental_uris": {"ios": "https://dc.lft.to/lastmile_qr_scan", "android": "https://dc.lft.to/lastmile_qr_scan"}}, {"name": "8843c4426123a038f219bc1db3fb9c2a", "fusion_lat": 0.0, "type": "electric_bike", "lat": 38.998315, "is_reserved": 0, "is_disabled": 0, "fusion_lon": 0.0, "bike_id": "8843c4426123a038f219bc1db3fb9c2a", "lon": -76.883638, "rental_uris": {"ios": "https://dc.lft.to/lastmile_qr_scan", "android": "https://dc.lft.to/lastmile_qr_scan"}}, {"name": "dcc47b50a57c6a4a807d37bf8aa32a9c", "fusion_lat": 0.0, "type": "electric_scooter", "lat": 38.90266916666667, "is_reserved": 0, "is_disabled": 0, "fusion_lon": 0.0, "bike_id": "dcc47b50a57c6a4a807d37bf8aa32a9c", "lon": -77.03452983333334, "rental_uris": {"ios": "https://dc.lft.to/lastmile_qr_scan", "android": "https://dc.lft.to/lastmile_qr_scan"}}, {"name": "06d20a1abf17aca39be54d5f7347f045", "fusion_lat": 0.0, "type": "electric_scooter", "lat": 38.9417325, "is_reserved": 0, "is_disabled": 0, "fusion_lon": 0.0, "bike_id": "06d20a1abf17aca39be54d5f7347f045", "lon": -77.0413335, "rental_uris": {"ios": "https://dc.lft.to/lastmile_qr_scan", "android": "https://dc.lft.to/lastmile_qr_scan"}}, {"name": "7d38fa75b54faf90e0c62f749de809c1", "fusion_lat": 0.0, "type": "electric_scooter", "lat": 38.89876566666667, "is_reserved": 0, "is_disabled": 0, "fusion_lon": 0.0, "bike_id": "7d38fa75b54faf90e0c62f749de809c1", "lon": -76.93160766666666, "rental_uris": {"ios": "https://dc.lft.to/lastmile_qr_scan", "android": "https://dc.lft.to/lastmile_qr_scan"}}, {"name": "4a07ae66c42b6591e0ccc3ccb3d740b7", "fusion_lat": 0.0, "type": "electric_scooter", "lat": 38.90035683333333, "is_reserved": 0, "is_disabled": 0, "fusion_lon": 0.0, "bike_id": "4a07ae66c42b6591e0ccc3ccb3d740b7", "lon": -77.01188816666667, "rental_uris": {"ios": "https://dc.lft.to/lastmile_qr_scan", "android": "https://dc.lft.to/lastmile_qr_scan"}}, {"name": "e2a9ca22a685f482ceb3e4149500217d", "fusion_lat": 0.0, "type": "electric_bike", "lat": 38.86390033333333, "is_reserved": 0, "is_disabled": 0, "fusion_lon": 0.0, "bike_id": "e2a9ca22a685f482ceb3e4149500217d", "lon": -76.98992233333334, "rental_uris": {"ios": "https://dc.lft.to/lastmile_qr_scan", "android": "https://dc.lft.to/lastmile_qr_scan"}}, {"name": "7f1ceb5baf81568cfd8f155c9362a104", "fusion_lat": 0.0, "type": "electric_scooter", "lat": 38.918418833333334, "is_reserved": 0, "is_disabled": 0, "fusion_lon": 0.0, "bike_id": "7f1ceb5baf81568cfd8f155c9362a104", "lon": -77.025936, "rental_uris": {"ios": "https://dc.lft.to/lastmile_qr_scan", "android": "https://dc.lft.to/lastmile_qr_scan"}}, {"name": "e6e83efce1d68d587437ee037d2e5593", "fusion_lat": 0.0, "type": "electric_scooter", "lat": 38.83597566666667, "is_reserved": 0, "is_disabled": 0, "fusion_lon": 0.0, "bike_id": "e6e83efce1d68d587437ee037d2e5593", "lon": -76.99361766666667, "rental_uris": {"ios": "https://dc.lft.to/lastmile_qr_scan", "android": "https://dc.lft.to/lastmile_qr_scan"}}, {"name": "b07a47f5c27ba22edd27822258d37046", "fusion_lat": 0.0, "type": "electric_scooter", "lat": 38.9012285, "is_reserved": 0, "is_disabled": 0, "fusion_lon": 0.0, "bike_id": "b07a47f5c27ba22edd27822258d37046", "lon": -77.04990116666667, "rental_uris": {"ios": "https://dc.lft.to/lastmile_qr_scan", "android": "https://dc.lft.to/lastmile_qr_scan"}}, {"name": "f61d9a6e9c8365f827f666c2a5dc35af", "fusion_lat": 0.0, "type": "electric_scooter", "lat": 38.903369166666664, "is_reserved": 0, "is_disabled": 0, "fusion_lon": 0.0, "bike_id": "f61d9a6e9c8365f827f666c2a5dc35af", "lon": -77.06646383333333, "rental_uris": {"ios": "https://dc.lft.to/lastmile_qr_scan", "android": "https://dc.lft.to/lastmile_qr_scan"}}, {"name": "85cc28e8c73a000d29a71b2b8eee8ec1", "fusion_lat": 0.0, "type": "electric_scooter", "lat": 38.94744166666667, "is_reserved": 0, "is_disabled": 0, "fusion_lon": 0.0, "bike_id": "85cc28e8c73a000d29a71b2b8eee8ec1", "lon": -77.00003233333334, "rental_uris": {"ios": "https://dc.lft.to/lastmile_qr_scan", "android": "https://dc.lft.to/lastmile_qr_scan"}}, {"name": "3915d48efebe0c7305eddba01a8cf850", "fusion_lat": 0.0, "type": "electric_scooter", "lat": 38.8822205, "is_reserved": 0, "is_disabled": 0, "fusion_lon": 0.0, "bike_id": "3915d48efebe0c7305eddba01a8cf850", "lon": -76.94171383333334, "rental_uris": {"ios": "https://dc.lft.to/lastmile_qr_scan", "android": "https://dc.lft.to/lastmile_qr_scan"}}, {"name": "2078e93262ca54638d38907a6eacd2a1", "fusion_lat": 0.0, "type": "electric_scooter", "lat": 38.898819833333334, "is_reserved": 0, "is_disabled": 0, "fusion_lon": 0.0, "bike_id": "2078e93262ca54638d38907a6eacd2a1", "lon": -77.00922133333333, "rental_uris": {"ios": "https://dc.lft.to/lastmile_qr_scan", "android": "https://dc.lft.to/lastmile_qr_scan"}}, {"name": "64838f629b04351a57ccba832bdce47a", "fusion_lat": 0.0, "type": "electric_scooter", "lat": 38.89525166666667, "is_reserved": 0, "is_disabled": 0, "fusion_lon": 0.0, "bike_id": "64838f629b04351a57ccba832bdce47a", "lon": -77.029352, "rental_uris": {"ios": "https://dc.lft.to/lastmile_qr_scan", "android": "https://dc.lft.to/lastmile_qr_scan"}}, {"name": "745cffc232c93a442b4cc80a55d12489", "fusion_lat": 0.0, "type": "electric_scooter", "lat": 38.907172333333335, "is_reserved": 0, "is_disabled": 0, "fusion_lon": 0.0, "bike_id": "745cffc232c93a442b4cc80a55d12489", "lon": -77.0114395, "rental_uris": {"ios": "https://dc.lft.to/lastmile_qr_scan", "android": "https://dc.lft.to/lastmile_qr_scan"}}, {"name": "6cf03a31190a6a12a465940dc0a31c75", "fusion_lat": 0.0, "type": "electric_scooter", "lat": 38.905299, "is_reserved": 0, "is_disabled": 0, "fusion_lon": 0.0, "bike_id": "6cf03a31190a6a12a465940dc0a31c75", "lon": -77.05011983333333, "rental_uris": {"ios": "https://dc.lft.to/lastmile_qr_scan", "android": "https://dc.lft.to/lastmile_qr_scan"}}, {"name": "43fcdce1131e16834af71c09e86537f4", "fusion_lat": 0.0, "type": "electric_scooter", "lat": 38.91125433333333, "is_reserved": 0, "is_disabled": 0, "fusion_lon": 0.0, "bike_id": "43fcdce1131e16834af71c09e86537f4", "lon": -77.03184283333333, "rental_uris": {"ios": "https://dc.lft.to/lastmile_qr_scan", "android": "https://dc.lft.to/lastmile_qr_scan"}}, {"name": "f0f443f7f0a4a9ca2b37995c69554494", "fusion_lat": 0.0, "type": "electric_scooter", "lat": 38.903359333333334, "is_reserved": 0, "is_disabled": 0, "fusion_lon": 0.0, "bike_id": "f0f443f7f0a4a9ca2b37995c69554494", "lon": -76.98966216666666, "rental_uris": {"ios": "https://dc.lft.to/lastmile_qr_scan", "android": "https://dc.lft.to/lastmile_qr_scan"}}, {"name": "d3c12d5576456c3337c1b4d9dd1bfa84", "fusion_lat": 0.0, "type": "electric_scooter", "lat": 38.903719833333334, "is_reserved": 0, "is_disabled": 0, "fusion_lon": 0.0, "bike_id": "d3c12d5576456c3337c1b4d9dd1bfa84", "lon": -77.04486883333334, "rental_uris": {"ios": "https://dc.lft.to/lastmile_qr_scan", "android": "https://dc.lft.to/lastmile_qr_scan"}}, {"name": "45ada08d692e9030122cb2fcb2e40630", "fusion_lat": 0.0, "type": "electric_scooter", "lat": 38.9141645, "is_reserved": 0, "is_disabled": 0, "fusion_lon": 0.0, "bike_id": "45ada08d692e9030122cb2fcb2e40630", "lon": -77.028005, "rental_uris": {"ios": "https://dc.lft.to/lastmile_qr_scan", "android": "https://dc.lft.to/lastmile_qr_scan"}}, {"name": "384277950c983a7d4d443e6a5f7878d4", "fusion_lat": 0.0, "type": "electric_scooter", "lat": 38.92605533333333, "is_reserved": 0, "is_disabled": 0, "fusion_lon": 0.0, "bike_id": "384277950c983a7d4d443e6a5f7878d4", "lon": -77.02153533333333, "rental_uris": {"ios": "https://dc.lft.to/lastmile_qr_scan", "android": "https://dc.lft.to/lastmile_qr_scan"}}, {"name": "9693f1d48fdba39fec9b9d0bc0b8369a", "fusion_lat": 0.0, "type": "electric_scooter", "lat": 38.929323, "is_reserved": 0, "is_disabled": 0, "fusion_lon": 0.0, "bike_id": "9693f1d48fdba39fec9b9d0bc0b8369a", "lon": -77.023387, "rental_uris": {"ios": "https://dc.lft.to/lastmile_qr_scan", "android": "https://dc.lft.to/lastmile_qr_scan"}}, {"name": "8dcf8790cd666f76b0c52d9da5523a8d", "fusion_lat": 0.0, "type": "electric_scooter", "lat": 38.92462833333333, "is_reserved": 0, "is_disabled": 0, "fusion_lon": 0.0, "bike_id": "8dcf8790cd666f76b0c52d9da5523a8d", "lon": -77.03051983333333, "rental_uris": {"ios": "https://dc.lft.to/lastmile_qr_scan", "android": "https://dc.lft.to/lastmile_qr_scan"}}, {"name": "029c744954ce8ec8fdcea6d69be4ea6a", "fusion_lat": 0.0, "type": "electric_scooter", "lat": 38.916230666666664, "is_reserved": 0, "is_disabled": 0, "fusion_lon": 0.0, "bike_id": "029c744954ce8ec8fdcea6d69be4ea6a", "lon": -77.035889, "rental_uris": {"ios": "https://dc.lft.to/lastmile_qr_scan", "android": "https://dc.lft.to/lastmile_qr_scan"}}, {"name": "2b035025451a4b5c65da46539d3fa853", "fusion_lat": 0.0, "type": "electric_scooter", "lat": 38.923589166666666, "is_reserved": 0, "is_disabled": 0, "fusion_lon": 0.0, "bike_id": "2b035025451a4b5c65da46539d3fa853", "lon": -77.05241533333333, "rental_uris": {"ios": "https://dc.lft.to/lastmile_qr_scan", "android": "https://dc.lft.to/lastmile_qr_scan"}}, {"name": "45aec6625475fbd6dd2db9218a79c85a", "fusion_lat": 0.0, "type": "electric_scooter", "lat": 38.8948015, "is_reserved": 0, "is_disabled": 0, "fusion_lon": 0.0, "bike_id": "45aec6625475fbd6dd2db9218a79c85a", "lon": -77.02307333333333, "rental_uris": {"ios": "https://dc.lft.to/lastmile_qr_scan", "android": "https://dc.lft.to/lastmile_qr_scan"}}, {"name": "1841d2e59db3421dea874e5675956340", "fusion_lat": 0.0, "type": "electric_bike", "lat": 38.961223, "is_reserved": 0, "is_disabled": 0, "fusion_lon": 0.0, "bike_id": "1841d2e59db3421dea874e5675956340", "lon": -77.03274366666666, "rental_uris": {"ios": "https://dc.lft.to/lastmile_qr_scan", "android": "https://dc.lft.to/lastmile_qr_scan"}}, {"name": "52db38f9ae978830349d4943152be59f", "fusion_lat": 0.0, "type": "electric_scooter", "lat": 38.918153833333335, "is_reserved": 0, "is_disabled": 0, "fusion_lon": 0.0, "bike_id": "52db38f9ae978830349d4943152be59f", "lon": -77.04002316666667, "rental_uris": {"ios": "https://dc.lft.to/lastmile_qr_scan", "android": "https://dc.lft.to/lastmile_qr_scan"}}, {"name": "29ae29dac3d479ab2258f784ee4eb90c", "fusion_lat": 0.0, "type": "electric_scooter", "lat": 38.91913733333333, "is_reserved": 0, "is_disabled": 0, "fusion_lon": 0.0, "bike_id": "29ae29dac3d479ab2258f784ee4eb90c", "lon": -77.02169433333333, "rental_uris": {"ios": "https://dc.lft.to/lastmile_qr_scan", "android": "https://dc.lft.to/lastmile_qr_scan"}}, {"name": "fe4a070f8fc9175e97cab9e374eb21f3", "fusion_lat": 0.0, "type": "electric_scooter", "lat": 38.917328833333336, "is_reserved": 0, "is_disabled": 0, "fusion_lon": 0.0, "bike_id": "fe4a070f8fc9175e97cab9e374eb21f3", "lon": -77.01026, "rental_uris": {"ios": "https://dc.lft.to/lastmile_qr_scan", "android": "https://dc.lft.to/lastmile_qr_scan"}}, {"name": "bd55daa29f1852fb75c0579ef289cb97", "fusion_lat": 0.0, "type": "electric_scooter", "lat": 38.929777333333334, "is_reserved": 0, "is_disabled": 0, "fusion_lon": 0.0, "bike_id": "bd55daa29f1852fb75c0579ef289cb97", "lon": -77.03272866666667, "rental_uris": {"ios": "https://dc.lft.to/lastmile_qr_scan", "android": "https://dc.lft.to/lastmile_qr_scan"}}, {"name": "1e78468b4c63c16e9d07eaa9d3d6f5bc", "fusion_lat": 0.0, "type": "electric_scooter", "lat": 38.927989, "is_reserved": 0, "is_disabled": 0, "fusion_lon": 0.0, "bike_id": "1e78468b4c63c16e9d07eaa9d3d6f5bc", "lon": -77.039728, "rental_uris": {"ios": "https://dc.lft.to/lastmile_qr_scan", "android": "https://dc.lft.to/lastmile_qr_scan"}}, {"name": "010213113db20a83f02cf050c3929a7f", "fusion_lat": 0.0, "type": "electric_scooter", "lat": 38.91932516666667, "is_reserved": 0, "is_disabled": 0, "fusion_lon": 0.0, "bike_id": "010213113db20a83f02cf050c3929a7f", "lon": -77.0450095, "rental_uris": {"ios": "https://dc.lft.to/lastmile_qr_scan", "android": "https://dc.lft.to/lastmile_qr_scan"}}, {"name": "ec1fdc968cb8a967b97c80a9441df9a2", "fusion_lat": 0.0, "type": "electric_scooter", "lat": 38.90889933333333, "is_reserved": 0, "is_disabled": 0, "fusion_lon": 0.0, "bike_id": "ec1fdc968cb8a967b97c80a9441df9a2", "lon": -77.005752, "rental_uris": {"ios": "https://dc.lft.to/lastmile_qr_scan", "android": "https://dc.lft.to/lastmile_qr_scan"}}, {"name": "3aae119bdb21d82b75b83060d8f6467b", "fusion_lat": 0.0, "type": "electric_scooter", "lat": 38.8987675, "is_reserved": 0, "is_disabled": 0, "fusion_lon": 0.0, "bike_id": "3aae119bdb21d82b75b83060d8f6467b", "lon": -76.93158533333333, "rental_uris": {"ios": "https://dc.lft.to/lastmile_qr_scan", "android": "https://dc.lft.to/lastmile_qr_scan"}}, {"name": "f564f56b45943b9656a30f855fd3ec09", "fusion_lat": 0.0, "type": "electric_scooter", "lat": 38.917607, "is_reserved": 0, "is_disabled": 0, "fusion_lon": 0.0, "bike_id": "f564f56b45943b9656a30f855fd3ec09", "lon": -77.01872633333333, "rental_uris": {"ios": "https://dc.lft.to/lastmile_qr_scan", "android": "https://dc.lft.to/lastmile_qr_scan"}}, {"name": "5a86f5e2e17cf90211cd9cdebe078299", "fusion_lat": 0.0, "type": "electric_scooter", "lat": 38.90858383333333, "is_reserved": 0, "is_disabled": 0, "fusion_lon": 0.0, "bike_id": "5a86f5e2e17cf90211cd9cdebe078299", "lon": -77.013227, "rental_uris": {"ios": "https://dc.lft.to/lastmile_qr_scan", "android": "https://dc.lft.to/lastmile_qr_scan"}}, {"name": "2981ad9759c76bf1b891e644f346ee7f", "fusion_lat": 0.0, "type": "electric_scooter", "lat": 38.903779166666666, "is_reserved": 0, "is_disabled": 0, "fusion_lon": 0.0, "bike_id": "2981ad9759c76bf1b891e644f346ee7f", "lon": -77.01873, "rental_uris": {"ios": "https://dc.lft.to/lastmile_qr_scan", "android": "https://dc.lft.to/lastmile_qr_scan"}}, {"name": "b3ac7d5420e16e90cede75ac3bad7467", "fusion_lat": 0.0, "type": "electric_scooter", "lat": 38.941831, "is_reserved": 0, "is_disabled": 0, "fusion_lon": 0.0, "bike_id": "b3ac7d5420e16e90cede75ac3bad7467", "lon": -77.02488566666666, "rental_uris": {"ios": "https://dc.lft.to/lastmile_qr_scan", "android": "https://dc.lft.to/lastmile_qr_scan"}}, {"name": "77365fd8d931c282c60d27152fff5a03", "fusion_lat": 0.0, "type": "electric_scooter", "lat": 38.924464, "is_reserved": 0, "is_disabled": 0, "fusion_lon": 0.0, "bike_id": "77365fd8d931c282c60d27152fff5a03", "lon": -76.993313, "rental_uris": {"ios": "https://dc.lft.to/lastmile_qr_scan", "android": "https://dc.lft.to/lastmile_qr_scan"}}, {"name": "c6580c5295f8f9de9b448afeb75212e7", "fusion_lat": 0.0, "type": "electric_scooter", "lat": 38.898877, "is_reserved": 0, "is_disabled": 0, "fusion_lon": 0.0, "bike_id": "c6580c5295f8f9de9b448afeb75212e7", "lon": -77.03319983333333, "rental_uris": {"ios": "https://dc.lft.to/lastmile_qr_scan", "android": "https://dc.lft.to/lastmile_qr_scan"}}, {"name": "47918e77b6f0f55a3da2d7942860eab5", "fusion_lat": 0.0, "type": "electric_scooter", "lat": 38.900072333333334, "is_reserved": 0, "is_disabled": 0, "fusion_lon": 0.0, "bike_id": "47918e77b6f0f55a3da2d7942860eab5", "lon": -77.0401815, "rental_uris": {"ios": "https://dc.lft.to/lastmile_qr_scan", "android": "https://dc.lft.to/lastmile_qr_scan"}}, {"name": "d11f93bf8cde463440dd1882d7ce015f", "fusion_lat": 0.0, "type": "electric_scooter", "lat": 38.903643833333334, "is_reserved": 0, "is_disabled": 0, "fusion_lon": 0.0, "bike_id": "d11f93bf8cde463440dd1882d7ce015f", "lon": -77.03869183333333, "rental_uris": {"ios": "https://dc.lft.to/lastmile_qr_scan", "android": "https://dc.lft.to/lastmile_qr_scan"}}, {"name": "84b85c034375c875b93ef10378e508a2", "fusion_lat": 0.0, "type": "electric_scooter", "lat": 38.90429566666667, "is_reserved": 0, "is_disabled": 0, "fusion_lon": 0.0, "bike_id": "84b85c034375c875b93ef10378e508a2", "lon": -77.03458483333333, "rental_uris": {"ios": "https://dc.lft.to/lastmile_qr_scan", "android": "https://dc.lft.to/lastmile_qr_scan"}}, {"name": "55e61ca810c8c70299f946e87f91fb1f", "fusion_lat": 0.0, "type": "electric_scooter", "lat": 38.92397233333333, "is_reserved": 0, "is_disabled": 0, "fusion_lon": 0.0, "bike_id": "55e61ca810c8c70299f946e87f91fb1f", "lon": -77.03532016666666, "rental_uris": {"ios": "https://dc.lft.to/lastmile_qr_scan", "android": "https://dc.lft.to/lastmile_qr_scan"}}, {"name": "77737243741bfa006ec9bfa9b39afa79", "fusion_lat": 0.0, "type": "electric_scooter", "lat": 38.878659999999996, "is_reserved": 0, "is_disabled": 0, "fusion_lon": 0.0, "bike_id": "77737243741bfa006ec9bfa9b39afa79", "lon": -76.96525533333333, "rental_uris": {"ios": "https://dc.lft.to/lastmile_qr_scan", "android": "https://dc.lft.to/lastmile_qr_scan"}}, {"name": "b2f186656b472c9f93ccadf3d9b59f27", "fusion_lat": 0.0, "type": "electric_scooter", "lat": 38.9124865, "is_reserved": 0, "is_disabled": 0, "fusion_lon": 0.0, "bike_id": "b2f186656b472c9f93ccadf3d9b59f27", "lon": -77.03642516666666, "rental_uris": {"ios": "https://dc.lft.to/lastmile_qr_scan", "android": "https://dc.lft.to/lastmile_qr_scan"}}, {"name": "be1f8bf3da2b6dcb5d06b6acb0eee3ab", "fusion_lat": 0.0, "type": "electric_scooter", "lat": 38.922526500000004, "is_reserved": 0, "is_disabled": 0, "fusion_lon": 0.0, "bike_id": "be1f8bf3da2b6dcb5d06b6acb0eee3ab", "lon": -77.03518766666667, "rental_uris": {"ios": "https://dc.lft.to/lastmile_qr_scan", "android": "https://dc.lft.to/lastmile_qr_scan"}}, {"name": "e778ebaa555165e41d4ec0458af772cc", "fusion_lat": 0.0, "type": "electric_scooter", "lat": 38.90678166666667, "is_reserved": 0, "is_disabled": 0, "fusion_lon": 0.0, "bike_id": "e778ebaa555165e41d4ec0458af772cc", "lon": -77.061784, "rental_uris": {"ios": "https://dc.lft.to/lastmile_qr_scan", "android": "https://dc.lft.to/lastmile_qr_scan"}}, {"name": "3ef7e9f70321e489620a4c8db86fa053", "fusion_lat": 0.0, "type": "electric_scooter", "lat": 38.9120845, "is_reserved": 0, "is_disabled": 0, "fusion_lon": 0.0, "bike_id": "3ef7e9f70321e489620a4c8db86fa053", "lon": -77.036352, "rental_uris": {"ios": "https://dc.lft.to/lastmile_qr_scan", "android": "https://dc.lft.to/lastmile_qr_scan"}}, {"name": "4ab87bcc06ac7265ee3581f5328cca0a", "fusion_lat": 0.0, "type": "electric_scooter", "lat": 38.90236616666667, "is_reserved": 0, "is_disabled": 0, "fusion_lon": 0.0, "bike_id": "4ab87bcc06ac7265ee3581f5328cca0a", "lon": -77.02687716666667, "rental_uris": {"ios": "https://dc.lft.to/lastmile_qr_scan", "android": "https://dc.lft.to/lastmile_qr_scan"}}, {"name": "cd072c9108ed2c476d1cc730452f1f2d", "fusion_lat": 0.0, "type": "electric_scooter", "lat": 38.90885, "is_reserved": 0, "is_disabled": 0, "fusion_lon": 0.0, "bike_id": "cd072c9108ed2c476d1cc730452f1f2d", "lon": -77.04335216666666, "rental_uris": {"ios": "https://dc.lft.to/lastmile_qr_scan", "android": "https://dc.lft.to/lastmile_qr_scan"}}, {"name": "6af55e11b1e63df069d4111bd2875ea7", "fusion_lat": 0.0, "type": "electric_scooter", "lat": 38.9083545, "is_reserved": 0, "is_disabled": 0, "fusion_lon": 0.0, "bike_id": "6af55e11b1e63df069d4111bd2875ea7", "lon": -77.021889, "rental_uris": {"ios": "https://dc.lft.to/lastmile_qr_scan", "android": "https://dc.lft.to/lastmile_qr_scan"}}, {"name": "6937311301d8e145aef7049701ccbeac", "fusion_lat": 0.0, "type": "electric_scooter", "lat": 38.895180333333336, "is_reserved": 0, "is_disabled": 0, "fusion_lon": 0.0, "bike_id": "6937311301d8e145aef7049701ccbeac", "lon": -76.99209733333333, "rental_uris": {"ios": "https://dc.lft.to/lastmile_qr_scan", "android": "https://dc.lft.to/lastmile_qr_scan"}}, {"name": "144c3c13afb62565419c6c0d65cc2db9", "fusion_lat": 0.0, "type": "electric_scooter", "lat": 38.903429833333334, "is_reserved": 0, "is_disabled": 0, "fusion_lon": 0.0, "bike_id": "144c3c13afb62565419c6c0d65cc2db9", "lon": -77.0531115, "rental_uris": {"ios": "https://dc.lft.to/lastmile_qr_scan", "android": "https://dc.lft.to/lastmile_qr_scan"}}, {"name": "abcf76da1037abbc291b898b0c93c146", "fusion_lat": 0.0, "type": "electric_scooter", "lat": 38.935597666666666, "is_reserved": 0, "is_disabled": 0, "fusion_lon": 0.0, "bike_id": "abcf76da1037abbc291b898b0c93c146", "lon": -77.02362966666666, "rental_uris": {"ios": "https://dc.lft.to/lastmile_qr_scan", "android": "https://dc.lft.to/lastmile_qr_scan"}}, {"name": "900bdd56d91da4d196fb66ea6c70ff00", "fusion_lat": 0.0, "type": "electric_scooter", "lat": 38.92449033333333, "is_reserved": 0, "is_disabled": 0, "fusion_lon": 0.0, "bike_id": "900bdd56d91da4d196fb66ea6c70ff00", "lon": -77.03276966666667, "rental_uris": {"ios": "https://dc.lft.to/lastmile_qr_scan", "android": "https://dc.lft.to/lastmile_qr_scan"}}, {"name": "a60525d8f0f6796c2ac605941aa9afc7", "fusion_lat": 0.0, "type": "electric_scooter", "lat": 38.8935565, "is_reserved": 0, "is_disabled": 0, "fusion_lon": 0.0, "bike_id": "a60525d8f0f6796c2ac605941aa9afc7", "lon": -77.00333966666666, "rental_uris": {"ios": "https://dc.lft.to/lastmile_qr_scan", "android": "https://dc.lft.to/lastmile_qr_scan"}}, {"name": "4eb1ee0fd94d50bb8528f0b7952b57a7", "fusion_lat": 0.0, "type": "electric_scooter", "lat": 38.908693166666666, "is_reserved": 0, "is_disabled": 0, "fusion_lon": 0.0, "bike_id": "4eb1ee0fd94d50bb8528f0b7952b57a7", "lon": -77.08591866666667, "rental_uris": {"ios": "https://dc.lft.to/lastmile_qr_scan", "android": "https://dc.lft.to/lastmile_qr_scan"}}, {"name": "55425491ff9c5d9b6e9d047aee219e64", "fusion_lat": 0.0, "type": "electric_bike", "lat": 38.9458675, "is_reserved": 0, "is_disabled": 0, "fusion_lon": 0.0, "bike_id": "55425491ff9c5d9b6e9d047aee219e64", "lon": -77.0026735, "rental_uris": {"ios": "https://dc.lft.to/lastmile_qr_scan", "android": "https://dc.lft.to/lastmile_qr_scan"}}, {"name": "809cc5d520be0132fa03e80dde352e4a", "fusion_lat": 0.0, "type": "electric_scooter", "lat": 38.938871, "is_reserved": 0, "is_disabled": 0, "fusion_lon": 0.0, "bike_id": "809cc5d520be0132fa03e80dde352e4a", "lon": -77.024636, "rental_uris": {"ios": "https://dc.lft.to/lastmile_qr_scan", "android": "https://dc.lft.to/lastmile_qr_scan"}}, {"name": "4d07adfe82c8792e7bd80fc693364822", "fusion_lat": 0.0, "type": "electric_scooter", "lat": 38.936034666666664, "is_reserved": 0, "is_disabled": 0, "fusion_lon": 0.0, "bike_id": "4d07adfe82c8792e7bd80fc693364822", "lon": -77.05591, "rental_uris": {"ios": "https://dc.lft.to/lastmile_qr_scan", "android": "https://dc.lft.to/lastmile_qr_scan"}}, {"name": "85692371618c1cdb8da37c0db9574739", "fusion_lat": 0.0, "type": "electric_scooter", "lat": 38.900193, "is_reserved": 0, "is_disabled": 0, "fusion_lon": 0.0, "bike_id": "85692371618c1cdb8da37c0db9574739", "lon": -76.99862883333333, "rental_uris": {"ios": "https://dc.lft.to/lastmile_qr_scan", "android": "https://dc.lft.to/lastmile_qr_scan"}}, {"name": "051afe88d7f5e614d47209a65370c0c7", "fusion_lat": 0.0, "type": "electric_scooter", "lat": 38.92340516666667, "is_reserved": 0, "is_disabled": 0, "fusion_lon": 0.0, "bike_id": "051afe88d7f5e614d47209a65370c0c7", "lon": -77.0509215, "rental_uris": {"ios": "https://dc.lft.to/lastmile_qr_scan", "android": "https://dc.lft.to/lastmile_qr_scan"}}, {"name": "89abae22de23313ec868e0c41ea93d20", "fusion_lat": 0.0, "type": "electric_scooter", "lat": 38.934889166666665, "is_reserved": 0, "is_disabled": 0, "fusion_lon": 0.0, "bike_id": "89abae22de23313ec868e0c41ea93d20", "lon": -77.03282483333334, "rental_uris": {"ios": "https://dc.lft.to/lastmile_qr_scan", "android": "https://dc.lft.to/lastmile_qr_scan"}}, {"name": "02cbee8e5b9108e2c244382b90a5c7b0", "fusion_lat": 0.0, "type": "electric_bike", "lat": 38.86161633333333, "is_reserved": 0, "is_disabled": 0, "fusion_lon": 0.0, "bike_id": "02cbee8e5b9108e2c244382b90a5c7b0", "lon": -77.1309085, "rental_uris": {"ios": "https://dc.lft.to/lastmile_qr_scan", "android": "https://dc.lft.to/lastmile_qr_scan"}}, {"name": "5c1ca76657a0b859b370c889e83ae445", "fusion_lat": 0.0, "type": "electric_bike", "lat": 38.96761433333333, "is_reserved": 0, "is_disabled": 0, "fusion_lon": 0.0, "bike_id": "5c1ca76657a0b859b370c889e83ae445", "lon": -77.091606, "rental_uris": {"ios": "https://dc.lft.to/lastmile_qr_scan", "android": "https://dc.lft.to/lastmile_qr_scan"}}, {"name": "2995c345877791831f3db23b21952cac", "fusion_lat": 0.0, "type": "electric_scooter", "lat": 38.9163525, "is_reserved": 0, "is_disabled": 0, "fusion_lon": 0.0, "bike_id": "2995c345877791831f3db23b21952cac", "lon": -77.0270305, "rental_uris": {"ios": "https://dc.lft.to/lastmile_qr_scan", "android": "https://dc.lft.to/lastmile_qr_scan"}}, {"name": "77af960bf2079d73448843350b3bcf40", "fusion_lat": 0.0, "type": "electric_scooter", "lat": 38.892453, "is_reserved": 0, "is_disabled": 0, "fusion_lon": 0.0, "bike_id": "77af960bf2079d73448843350b3bcf40", "lon": -77.0178735, "rental_uris": {"ios": "https://dc.lft.to/lastmile_qr_scan", "android": "https://dc.lft.to/lastmile_qr_scan"}}, {"name": "c4458fc7df24c5ccaa96484b6fb1a9ea", "fusion_lat": 0.0, "type": "electric_scooter", "lat": 38.934652666666665, "is_reserved": 0, "is_disabled": 0, "fusion_lon": 0.0, "bike_id": "c4458fc7df24c5ccaa96484b6fb1a9ea", "lon": -77.03392516666666, "rental_uris": {"ios": "https://dc.lft.to/lastmile_qr_scan", "android": "https://dc.lft.to/lastmile_qr_scan"}}, {"name": "395f39238b1dd2973f3135af5c735d05", "fusion_lat": 0.0, "type": "electric_scooter", "lat": 38.90238316666667, "is_reserved": 0, "is_disabled": 0, "fusion_lon": 0.0, "bike_id": "395f39238b1dd2973f3135af5c735d05", "lon": -76.97416633333333, "rental_uris": {"ios": "https://dc.lft.to/lastmile_qr_scan", "android": "https://dc.lft.to/lastmile_qr_scan"}}, {"name": "622b2bbffcea15b2304051b102023daf", "fusion_lat": 0.0, "type": "electric_scooter", "lat": 38.921799666666665, "is_reserved": 0, "is_disabled": 0, "fusion_lon": 0.0, "bike_id": "622b2bbffcea15b2304051b102023daf", "lon": -77.0265735, "rental_uris": {"ios": "https://dc.lft.to/lastmile_qr_scan", "android": "https://dc.lft.to/lastmile_qr_scan"}}, {"name": "4702bfbf9dbb0d6188a228482634ba09", "fusion_lat": 0.0, "type": "electric_scooter", "lat": 38.89934133333333, "is_reserved": 0, "is_disabled": 0, "fusion_lon": 0.0, "bike_id": "4702bfbf9dbb0d6188a228482634ba09", "lon": -77.04015116666666, "rental_uris": {"ios": "https://dc.lft.to/lastmile_qr_scan", "android": "https://dc.lft.to/lastmile_qr_scan"}}, {"name": "67d98582a3b6bc805a92fc3c1074e12a", "fusion_lat": 0.0, "type": "electric_scooter", "lat": 38.9271165, "is_reserved": 0, "is_disabled": 0, "fusion_lon": 0.0, "bike_id": "67d98582a3b6bc805a92fc3c1074e12a", "lon": -77.02088133333334, "rental_uris": {"ios": "https://dc.lft.to/lastmile_qr_scan", "android": "https://dc.lft.to/lastmile_qr_scan"}}, {"name": "6baedd48481792ff9527f62e3df7e048", "fusion_lat": 0.0, "type": "electric_scooter", "lat": 38.914031333333334, "is_reserved": 0, "is_disabled": 0, "fusion_lon": 0.0, "bike_id": "6baedd48481792ff9527f62e3df7e048", "lon": -77.0080815, "rental_uris": {"ios": "https://dc.lft.to/lastmile_qr_scan", "android": "https://dc.lft.to/lastmile_qr_scan"}}, {"name": "23d67f70a4062cd57f9ed3785f977f1f", "fusion_lat": 0.0, "type": "electric_scooter", "lat": 38.9071905, "is_reserved": 0, "is_disabled": 0, "fusion_lon": 0.0, "bike_id": "23d67f70a4062cd57f9ed3785f977f1f", "lon": -77.03350633333334, "rental_uris": {"ios": "https://dc.lft.to/lastmile_qr_scan", "android": "https://dc.lft.to/lastmile_qr_scan"}}, {"name": "220b4aac6f930219109c4bf621682758", "fusion_lat": 0.0, "type": "electric_scooter", "lat": 38.93013216666667, "is_reserved": 0, "is_disabled": 0, "fusion_lon": 0.0, "bike_id": "220b4aac6f930219109c4bf621682758", "lon": -77.02328566666667, "rental_uris": {"ios": "https://dc.lft.to/lastmile_qr_scan", "android": "https://dc.lft.to/lastmile_qr_scan"}}, {"name": "cbb58079fb548ab7e4a65fc65fd8b037", "fusion_lat": 0.0, "type": "electric_scooter", "lat": 38.928975666666666, "is_reserved": 0, "is_disabled": 0, "fusion_lon": 0.0, "bike_id": "cbb58079fb548ab7e4a65fc65fd8b037", "lon": -77.05464783333333, "rental_uris": {"ios": "https://dc.lft.to/lastmile_qr_scan", "android": "https://dc.lft.to/lastmile_qr_scan"}}, {"name": "4ee62fccbeb8473ae8ffce39ff0e83c1", "fusion_lat": 0.0, "type": "electric_scooter", "lat": 38.909508, "is_reserved": 0, "is_disabled": 0, "fusion_lon": 0.0, "bike_id": "4ee62fccbeb8473ae8ffce39ff0e83c1", "lon": -77.04722983333333, "rental_uris": {"ios": "https://dc.lft.to/lastmile_qr_scan", "android": "https://dc.lft.to/lastmile_qr_scan"}}, {"name": "e0638071f68f663bb07b07b7ba3a589d", "fusion_lat": 0.0, "type": "electric_scooter", "lat": 38.90662566666666, "is_reserved": 0, "is_disabled": 0, "fusion_lon": 0.0, "bike_id": "e0638071f68f663bb07b07b7ba3a589d", "lon": -77.05136766666666, "rental_uris": {"ios": "https://dc.lft.to/lastmile_qr_scan", "android": "https://dc.lft.to/lastmile_qr_scan"}}, {"name": "96297993f85268bc206ccd5d66f3cfe2", "fusion_lat": 0.0, "type": "electric_scooter", "lat": 38.924839666666664, "is_reserved": 0, "is_disabled": 0, "fusion_lon": 0.0, "bike_id": "96297993f85268bc206ccd5d66f3cfe2", "lon": -77.02709983333334, "rental_uris": {"ios": "https://dc.lft.to/lastmile_qr_scan", "android": "https://dc.lft.to/lastmile_qr_scan"}}, {"name": "6ce4d7b47929a217b1feef02bbb1c68f", "fusion_lat": 0.0, "type": "electric_scooter", "lat": 38.89241283333333, "is_reserved": 0, "is_disabled": 0, "fusion_lon": 0.0, "bike_id": "6ce4d7b47929a217b1feef02bbb1c68f", "lon": -77.03179216666666, "rental_uris": {"ios": "https://dc.lft.to/lastmile_qr_scan", "android": "https://dc.lft.to/lastmile_qr_scan"}}, {"name": "d11e435b540a00255cd934dda960b117", "fusion_lat": 0.0, "type": "electric_scooter", "lat": 38.89722183333333, "is_reserved": 0, "is_disabled": 0, "fusion_lon": 0.0, "bike_id": "d11e435b540a00255cd934dda960b117", "lon": -77.04332333333333, "rental_uris": {"ios": "https://dc.lft.to/lastmile_qr_scan", "android": "https://dc.lft.to/lastmile_qr_scan"}}, {"name": "67da367c078a5664152202b45f458653", "fusion_lat": 0.0, "type": "electric_scooter", "lat": 38.91421866666666, "is_reserved": 0, "is_disabled": 0, "fusion_lon": 0.0, "bike_id": "67da367c078a5664152202b45f458653", "lon": -77.04156716666667, "rental_uris": {"ios": "https://dc.lft.to/lastmile_qr_scan", "android": "https://dc.lft.to/lastmile_qr_scan"}}, {"name": "cf39c796345ebc3ac251e53ec55c6766", "fusion_lat": 0.0, "type": "electric_bike", "lat": 38.89837133333333, "is_reserved": 0, "is_disabled": 0, "fusion_lon": 0.0, "bike_id": "cf39c796345ebc3ac251e53ec55c6766", "lon": -77.11798066666667, "rental_uris": {"ios": "https://dc.lft.to/lastmile_qr_scan", "android": "https://dc.lft.to/lastmile_qr_scan"}}, {"name": "cdb69fa394a5f59749747ff4993c3eb6", "fusion_lat": 0.0, "type": "electric_scooter", "lat": 38.92380933333333, "is_reserved": 0, "is_disabled": 0, "fusion_lon": 0.0, "bike_id": "cdb69fa394a5f59749747ff4993c3eb6", "lon": -77.02951733333333, "rental_uris": {"ios": "https://dc.lft.to/lastmile_qr_scan", "android": "https://dc.lft.to/lastmile_qr_scan"}}, {"name": "ac25a8d6eb04f270c698d7d6f3df904d", "fusion_lat": 0.0, "type": "electric_bike", "lat": 38.8968275, "is_reserved": 0, "is_disabled": 0, "fusion_lon": 0.0, "bike_id": "ac25a8d6eb04f270c698d7d6f3df904d", "lon": -76.940626, "rental_uris": {"ios": "https://dc.lft.to/lastmile_qr_scan", "android": "https://dc.lft.to/lastmile_qr_scan"}}, {"name": "d26428fdb5cb67f252784117a008c41a", "fusion_lat": 0.0, "type": "electric_scooter", "lat": 38.933698666666665, "is_reserved": 0, "is_disabled": 0, "fusion_lon": 0.0, "bike_id": "d26428fdb5cb67f252784117a008c41a", "lon": -77.05723033333334, "rental_uris": {"ios": "https://dc.lft.to/lastmile_qr_scan", "android": "https://dc.lft.to/lastmile_qr_scan"}}, {"name": "674ca696ba946ea04427ce086e38bf65", "fusion_lat": 0.0, "type": "electric_scooter", "lat": 38.866982666666665, "is_reserved": 0, "is_disabled": 0, "fusion_lon": 0.0, "bike_id": "674ca696ba946ea04427ce086e38bf65", "lon": -76.9871435, "rental_uris": {"ios": "https://dc.lft.to/lastmile_qr_scan", "android": "https://dc.lft.to/lastmile_qr_scan"}}, {"name": "3b2d0243cd5b057945745d2646a41be8", "fusion_lat": 0.0, "type": "electric_scooter", "lat": 38.90023, "is_reserved": 0, "is_disabled": 0, "fusion_lon": 0.0, "bike_id": "3b2d0243cd5b057945745d2646a41be8", "lon": -76.99867816666666, "rental_uris": {"ios": "https://dc.lft.to/lastmile_qr_scan", "android": "https://dc.lft.to/lastmile_qr_scan"}}, {"name": "5653b19f870699da27623433d96d4aac", "fusion_lat": 0.0, "type": "electric_scooter", "lat": 38.92126283333333, "is_reserved": 0, "is_disabled": 0, "fusion_lon": 0.0, "bike_id": "5653b19f870699da27623433d96d4aac", "lon": -77.045725, "rental_uris": {"ios": "https://dc.lft.to/lastmile_qr_scan", "android": "https://dc.lft.to/lastmile_qr_scan"}}, {"name": "c1e1a52954c5f54b0a8bbb436b6b2871", "fusion_lat": 0.0, "type": "electric_scooter", "lat": 38.90961333333333, "is_reserved": 0, "is_disabled": 0, "fusion_lon": 0.0, "bike_id": "c1e1a52954c5f54b0a8bbb436b6b2871", "lon": -77.03862533333333, "rental_uris": {"ios": "https://dc.lft.to/lastmile_qr_scan", "android": "https://dc.lft.to/lastmile_qr_scan"}}, {"name": "45df9c03701a03925f3997243693e1c1", "fusion_lat": 0.0, "type": "electric_scooter", "lat": 38.90369116666667, "is_reserved": 0, "is_disabled": 0, "fusion_lon": 0.0, "bike_id": "45df9c03701a03925f3997243693e1c1", "lon": -77.04501716666667, "rental_uris": {"ios": "https://dc.lft.to/lastmile_qr_scan", "android": "https://dc.lft.to/lastmile_qr_scan"}}, {"name": "9ce80dc4b3ed90400e4003b7a5ddd6f4", "fusion_lat": 0.0, "type": "electric_bike", "lat": 38.886418166666665, "is_reserved": 0, "is_disabled": 0, "fusion_lon": 0.0, "bike_id": "9ce80dc4b3ed90400e4003b7a5ddd6f4", "lon": -76.954686, "rental_uris": {"ios": "https://dc.lft.to/lastmile_qr_scan", "android": "https://dc.lft.to/lastmile_qr_scan"}}, {"name": "3f09c396848e155d13d7e101d19cc346", "fusion_lat": 0.0, "type": "electric_scooter", "lat": 38.86211016666667, "is_reserved": 0, "is_disabled": 0, "fusion_lon": 0.0, "bike_id": "3f09c396848e155d13d7e101d19cc346", "lon": -76.99467983333334, "rental_uris": {"ios": "https://dc.lft.to/lastmile_qr_scan", "android": "https://dc.lft.to/lastmile_qr_scan"}}, {"name": "29417ccd8ef3e95792752f2807267549", "fusion_lat": 0.0, "type": "electric_scooter", "lat": 38.87753216666667, "is_reserved": 0, "is_disabled": 0, "fusion_lon": 0.0, "bike_id": "29417ccd8ef3e95792752f2807267549", "lon": -76.9724155, "rental_uris": {"ios": "https://dc.lft.to/lastmile_qr_scan", "android": "https://dc.lft.to/lastmile_qr_scan"}}, {"name": "1d62d974340ce0da830ab7053687a775", "fusion_lat": 0.0, "type": "electric_scooter", "lat": 38.92897333333333, "is_reserved": 0, "is_disabled": 0, "fusion_lon": 0.0, "bike_id": "1d62d974340ce0da830ab7053687a775", "lon": -77.0249975, "rental_uris": {"ios": "https://dc.lft.to/lastmile_qr_scan", "android": "https://dc.lft.to/lastmile_qr_scan"}}, {"name": "4b46c67f6f77ea2c71d5eeb8063204c8", "fusion_lat": 0.0, "type": "electric_scooter", "lat": 38.89600866666667, "is_reserved": 0, "is_disabled": 0, "fusion_lon": 0.0, "bike_id": "4b46c67f6f77ea2c71d5eeb8063204c8", "lon": -77.01814733333333, "rental_uris": {"ios": "https://dc.lft.to/lastmile_qr_scan", "android": "https://dc.lft.to/lastmile_qr_scan"}}, {"name": "0500c56a67c29522311cd35d34ed810a", "fusion_lat": 0.0, "type": "electric_scooter", "lat": 38.94179316666666, "is_reserved": 0, "is_disabled": 0, "fusion_lon": 0.0, "bike_id": "0500c56a67c29522311cd35d34ed810a", "lon": -77.024828, "rental_uris": {"ios": "https://dc.lft.to/lastmile_qr_scan", "android": "https://dc.lft.to/lastmile_qr_scan"}}, {"name": "599392e82051f9e2ff3f3239b1adff8c", "fusion_lat": 0.0, "type": "electric_scooter", "lat": 38.948381166666664, "is_reserved": 0, "is_disabled": 0, "fusion_lon": 0.0, "bike_id": "599392e82051f9e2ff3f3239b1adff8c", "lon": -77.025527, "rental_uris": {"ios": "https://dc.lft.to/lastmile_qr_scan", "android": "https://dc.lft.to/lastmile_qr_scan"}}, {"name": "806353f5dc674a457c5aa3e8d219bb55", "fusion_lat": 0.0, "type": "electric_scooter", "lat": 38.912502333333336, "is_reserved": 0, "is_disabled": 0, "fusion_lon": 0.0, "bike_id": "806353f5dc674a457c5aa3e8d219bb55", "lon": -77.03651883333333, "rental_uris": {"ios": "https://dc.lft.to/lastmile_qr_scan", "android": "https://dc.lft.to/lastmile_qr_scan"}}, {"name": "ad9e1ad6f24db11c0eba8ab68162a617", "fusion_lat": 0.0, "type": "electric_scooter", "lat": 38.901429, "is_reserved": 0, "is_disabled": 0, "fusion_lon": 0.0, "bike_id": "ad9e1ad6f24db11c0eba8ab68162a617", "lon": -77.04769316666666, "rental_uris": {"ios": "https://dc.lft.to/lastmile_qr_scan", "android": "https://dc.lft.to/lastmile_qr_scan"}}, {"name": "049ef40ccf26d322a9baa8c31db5a2aa", "fusion_lat": 0.0, "type": "electric_scooter", "lat": 38.923765333333336, "is_reserved": 0, "is_disabled": 0, "fusion_lon": 0.0, "bike_id": "049ef40ccf26d322a9baa8c31db5a2aa", "lon": -77.019125, "rental_uris": {"ios": "https://dc.lft.to/lastmile_qr_scan", "android": "https://dc.lft.to/lastmile_qr_scan"}}, {"name": "0a5d4103fbcc57bf793594f859ceb0a7", "fusion_lat": 0.0, "type": "electric_scooter", "lat": 38.91118133333333, "is_reserved": 0, "is_disabled": 0, "fusion_lon": 0.0, "bike_id": "0a5d4103fbcc57bf793594f859ceb0a7", "lon": -77.03826416666666, "rental_uris": {"ios": "https://dc.lft.to/lastmile_qr_scan", "android": "https://dc.lft.to/lastmile_qr_scan"}}, {"name": "48f854168342bf077e00114e3cffba84", "fusion_lat": 0.0, "type": "electric_scooter", "lat": 38.914538666666665, "is_reserved": 0, "is_disabled": 0, "fusion_lon": 0.0, "bike_id": "48f854168342bf077e00114e3cffba84", "lon": -77.012087, "rental_uris": {"ios": "https://dc.lft.to/lastmile_qr_scan", "android": "https://dc.lft.to/lastmile_qr_scan"}}, {"name": "77dcb965ef8a2cf7421d8f158b008345", "fusion_lat": 0.0, "type": "electric_scooter", "lat": 38.90267633333333, "is_reserved": 0, "is_disabled": 0, "fusion_lon": 0.0, "bike_id": "77dcb965ef8a2cf7421d8f158b008345", "lon": -77.04250366666666, "rental_uris": {"ios": "https://dc.lft.to/lastmile_qr_scan", "android": "https://dc.lft.to/lastmile_qr_scan"}}, {"name": "b304e720b6d4bbedf94f2a62d1ad0d49", "fusion_lat": 0.0, "type": "electric_scooter", "lat": 38.894722, "is_reserved": 0, "is_disabled": 0, "fusion_lon": 0.0, "bike_id": "b304e720b6d4bbedf94f2a62d1ad0d49", "lon": -77.00330983333333, "rental_uris": {"ios": "https://dc.lft.to/lastmile_qr_scan", "android": "https://dc.lft.to/lastmile_qr_scan"}}, {"name": "233a85fbabd9351565159cf4df5f7f74", "fusion_lat": 0.0, "type": "electric_scooter", "lat": 38.901297666666665, "is_reserved": 0, "is_disabled": 0, "fusion_lon": 0.0, "bike_id": "233a85fbabd9351565159cf4df5f7f74", "lon": -77.04709033333333, "rental_uris": {"ios": "https://dc.lft.to/lastmile_qr_scan", "android": "https://dc.lft.to/lastmile_qr_scan"}}, {"name": "180a17275234d57724979eccd354da92", "fusion_lat": 0.0, "type": "electric_bike", "lat": 38.86754283333333, "is_reserved": 0, "is_disabled": 0, "fusion_lon": 0.0, "bike_id": "180a17275234d57724979eccd354da92", "lon": -76.9453405, "rental_uris": {"ios": "https://dc.lft.to/lastmile_qr_scan", "android": "https://dc.lft.to/lastmile_qr_scan"}}, {"name": "8b41efe385c76ab703e505bfed8315d6", "fusion_lat": 0.0, "type": "electric_scooter", "lat": 38.90869633333333, "is_reserved": 0, "is_disabled": 0, "fusion_lon": 0.0, "bike_id": "8b41efe385c76ab703e505bfed8315d6", "lon": -77.04087833333334, "rental_uris": {"ios": "https://dc.lft.to/lastmile_qr_scan", "android": "https://dc.lft.to/lastmile_qr_scan"}}, {"name": "8dcfe21d53f872d971467af908cb8cfb", "fusion_lat": 0.0, "type": "electric_scooter", "lat": 38.91398433333333, "is_reserved": 0, "is_disabled": 0, "fusion_lon": 0.0, "bike_id": "8dcfe21d53f872d971467af908cb8cfb", "lon": -77.0083445, "rental_uris": {"ios": "https://dc.lft.to/lastmile_qr_scan", "android": "https://dc.lft.to/lastmile_qr_scan"}}, {"name": "62f224986a5995474eee41ba881a99b8", "fusion_lat": 0.0, "type": "electric_scooter", "lat": 38.898058166666665, "is_reserved": 0, "is_disabled": 0, "fusion_lon": 0.0, "bike_id": "62f224986a5995474eee41ba881a99b8", "lon": -77.03115333333334, "rental_uris": {"ios": "https://dc.lft.to/lastmile_qr_scan", "android": "https://dc.lft.to/lastmile_qr_scan"}}, {"name": "6467fbfdad2147bfa56770a451ba6749", "fusion_lat": 0.0, "type": "electric_scooter", "lat": 38.915560666666664, "is_reserved": 0, "is_disabled": 0, "fusion_lon": 0.0, "bike_id": "6467fbfdad2147bfa56770a451ba6749", "lon": -77.05205583333333, "rental_uris": {"ios": "https://dc.lft.to/lastmile_qr_scan", "android": "https://dc.lft.to/lastmile_qr_scan"}}, {"name": "21eae69565433cb5a5e9497013ade94d", "fusion_lat": 0.0, "type": "electric_scooter", "lat": 38.898802333333336, "is_reserved": 0, "is_disabled": 0, "fusion_lon": 0.0, "bike_id": "21eae69565433cb5a5e9497013ade94d", "lon": -77.03334616666666, "rental_uris": {"ios": "https://dc.lft.to/lastmile_qr_scan", "android": "https://dc.lft.to/lastmile_qr_scan"}}, {"name": "acdf819ea392b6996ff51b57eb9ac049", "fusion_lat": 0.0, "type": "electric_scooter", "lat": 38.93608483333333, "is_reserved": 0, "is_disabled": 0, "fusion_lon": 0.0, "bike_id": "acdf819ea392b6996ff51b57eb9ac049", "lon": -77.03282183333333, "rental_uris": {"ios": "https://dc.lft.to/lastmile_qr_scan", "android": "https://dc.lft.to/lastmile_qr_scan"}}, {"name": "5fd3430d6134791cfd05d3b35714f1f1", "fusion_lat": 0.0, "type": "electric_scooter", "lat": 38.89617483333333, "is_reserved": 0, "is_disabled": 0, "fusion_lon": 0.0, "bike_id": "5fd3430d6134791cfd05d3b35714f1f1", "lon": -77.02846883333333, "rental_uris": {"ios": "https://dc.lft.to/lastmile_qr_scan", "android": "https://dc.lft.to/lastmile_qr_scan"}}, {"name": "e1980a056eb64daee55d7a5370f693dd", "fusion_lat": 0.0, "type": "electric_bike", "lat": 38.890966666666664, "is_reserved": 0, "is_disabled": 0, "fusion_lon": 0.0, "bike_id": "e1980a056eb64daee55d7a5370f693dd", "lon": -77.00313316666667, "rental_uris": {"ios": "https://dc.lft.to/lastmile_qr_scan", "android": "https://dc.lft.to/lastmile_qr_scan"}}, {"name": "60270a00f43d0110cd047393a1a1fd09", "fusion_lat": 0.0, "type": "electric_scooter", "lat": 38.930838666666666, "is_reserved": 0, "is_disabled": 0, "fusion_lon": 0.0, "bike_id": "60270a00f43d0110cd047393a1a1fd09", "lon": -77.02811233333334, "rental_uris": {"ios": "https://dc.lft.to/lastmile_qr_scan", "android": "https://dc.lft.to/lastmile_qr_scan"}}, {"name": "79f84a8242be89bd6bde880fbb539367", "fusion_lat": 0.0, "type": "electric_scooter", "lat": 38.923591, "is_reserved": 0, "is_disabled": 0, "fusion_lon": 0.0, "bike_id": "79f84a8242be89bd6bde880fbb539367", "lon": -77.050848, "rental_uris": {"ios": "https://dc.lft.to/lastmile_qr_scan", "android": "https://dc.lft.to/lastmile_qr_scan"}}, {"name": "a1569119244b6354e06d3cac9c1650b9", "fusion_lat": 0.0, "type": "electric_scooter", "lat": 38.91225166666667, "is_reserved": 0, "is_disabled": 0, "fusion_lon": 0.0, "bike_id": "a1569119244b6354e06d3cac9c1650b9", "lon": -77.038382, "rental_uris": {"ios": "https://dc.lft.to/lastmile_qr_scan", "android": "https://dc.lft.to/lastmile_qr_scan"}}, {"name": "12be26a91bd00570ae0457b29fb1d06d", "fusion_lat": 0.0, "type": "electric_scooter", "lat": 38.9067135, "is_reserved": 0, "is_disabled": 0, "fusion_lon": 0.0, "bike_id": "12be26a91bd00570ae0457b29fb1d06d", "lon": -77.03764433333333, "rental_uris": {"ios": "https://dc.lft.to/lastmile_qr_scan", "android": "https://dc.lft.to/lastmile_qr_scan"}}, {"name": "a39e25f66dd3b956fca0ab29af0fd99a", "fusion_lat": 0.0, "type": "electric_scooter", "lat": 38.934098, "is_reserved": 0, "is_disabled": 0, "fusion_lon": 0.0, "bike_id": "a39e25f66dd3b956fca0ab29af0fd99a", "lon": -77.02606083333333, "rental_uris": {"ios": "https://dc.lft.to/lastmile_qr_scan", "android": "https://dc.lft.to/lastmile_qr_scan"}}, {"name": "b24e9a7af067c79f3ada84f066e5329a", "fusion_lat": 0.0, "type": "electric_scooter", "lat": 38.942844, "is_reserved": 0, "is_disabled": 0, "fusion_lon": 0.0, "bike_id": "b24e9a7af067c79f3ada84f066e5329a", "lon": -77.027877, "rental_uris": {"ios": "https://dc.lft.to/lastmile_qr_scan", "android": "https://dc.lft.to/lastmile_qr_scan"}}, {"name": "0e47ce7fb6a146ee189c8cba17354ad6", "fusion_lat": 0.0, "type": "electric_scooter", "lat": 38.90324533333333, "is_reserved": 0, "is_disabled": 0, "fusion_lon": 0.0, "bike_id": "0e47ce7fb6a146ee189c8cba17354ad6", "lon": -77.038349, "rental_uris": {"ios": "https://dc.lft.to/lastmile_qr_scan", "android": "https://dc.lft.to/lastmile_qr_scan"}}, {"name": "f3b793851bb64688a66b19cfd4be6ebb", "fusion_lat": 0.0, "type": "electric_scooter", "lat": 38.92794083333333, "is_reserved": 0, "is_disabled": 0, "fusion_lon": 0.0, "bike_id": "f3b793851bb64688a66b19cfd4be6ebb", "lon": -77.04358083333334, "rental_uris": {"ios": "https://dc.lft.to/lastmile_qr_scan", "android": "https://dc.lft.to/lastmile_qr_scan"}}, {"name": "67f07dbacf4fd18f24c542baa3d9caf5", "fusion_lat": 0.0, "type": "electric_scooter", "lat": 38.8874495, "is_reserved": 0, "is_disabled": 0, "fusion_lon": 0.0, "bike_id": "67f07dbacf4fd18f24c542baa3d9caf5", "lon": -77.00246966666667, "rental_uris": {"ios": "https://dc.lft.to/lastmile_qr_scan", "android": "https://dc.lft.to/lastmile_qr_scan"}}, {"name": "22a8c41f987c1a9d234846ae308f2964", "fusion_lat": 0.0, "type": "electric_scooter", "lat": 38.90552733333333, "is_reserved": 0, "is_disabled": 0, "fusion_lon": 0.0, "bike_id": "22a8c41f987c1a9d234846ae308f2964", "lon": -77.044944, "rental_uris": {"ios": "https://dc.lft.to/lastmile_qr_scan", "android": "https://dc.lft.to/lastmile_qr_scan"}}, {"name": "3e424432c99b617f5684d6dbf90922e7", "fusion_lat": 0.0, "type": "electric_scooter", "lat": 38.870816166666664, "is_reserved": 0, "is_disabled": 0, "fusion_lon": 0.0, "bike_id": "3e424432c99b617f5684d6dbf90922e7", "lon": -76.968537, "rental_uris": {"ios": "https://dc.lft.to/lastmile_qr_scan", "android": "https://dc.lft.to/lastmile_qr_scan"}}, {"name": "c782a2ed20201897e1122c17186d490a", "fusion_lat": 0.0, "type": "electric_scooter", "lat": 38.9002725, "is_reserved": 0, "is_disabled": 0, "fusion_lon": 0.0, "bike_id": "c782a2ed20201897e1122c17186d490a", "lon": -76.99824816666667, "rental_uris": {"ios": "https://dc.lft.to/lastmile_qr_scan", "android": "https://dc.lft.to/lastmile_qr_scan"}}, {"name": "293b427f96b4bcd8f90f63e0ec0ebd41", "fusion_lat": 0.0, "type": "electric_scooter", "lat": 38.87678116666667, "is_reserved": 0, "is_disabled": 0, "fusion_lon": 0.0, "bike_id": "293b427f96b4bcd8f90f63e0ec0ebd41", "lon": -77.00072216666666, "rental_uris": {"ios": "https://dc.lft.to/lastmile_qr_scan", "android": "https://dc.lft.to/lastmile_qr_scan"}}, {"name": "dab48244b012244d5d7ab270518e466e", "fusion_lat": 0.0, "type": "electric_scooter", "lat": 38.917479166666666, "is_reserved": 0, "is_disabled": 0, "fusion_lon": 0.0, "bike_id": "dab48244b012244d5d7ab270518e466e", "lon": -77.03645983333334, "rental_uris": {"ios": "https://dc.lft.to/lastmile_qr_scan", "android": "https://dc.lft.to/lastmile_qr_scan"}}, {"name": "bad4857188bdaa785b917faa8b8da5b9", "fusion_lat": 0.0, "type": "electric_scooter", "lat": 38.9201445, "is_reserved": 0, "is_disabled": 0, "fusion_lon": 0.0, "bike_id": "bad4857188bdaa785b917faa8b8da5b9", "lon": -77.03984333333334, "rental_uris": {"ios": "https://dc.lft.to/lastmile_qr_scan", "android": "https://dc.lft.to/lastmile_qr_scan"}}, {"name": "fbc846fdffa894e20c9e8cc8d93e6a4b", "fusion_lat": 0.0, "type": "electric_bike", "lat": 39.030472333333336, "is_reserved": 0, "is_disabled": 0, "fusion_lon": 0.0, "bike_id": "fbc846fdffa894e20c9e8cc8d93e6a4b", "lon": -77.09482083333333, "rental_uris": {"ios": "https://dc.lft.to/lastmile_qr_scan", "android": "https://dc.lft.to/lastmile_qr_scan"}}, {"name": "1b7873f4b6d0e93f2f4651f21349da4c", "fusion_lat": 0.0, "type": "electric_scooter", "lat": 38.8959405, "is_reserved": 0, "is_disabled": 0, "fusion_lon": 0.0, "bike_id": "1b7873f4b6d0e93f2f4651f21349da4c", "lon": -77.04138716666667, "rental_uris": {"ios": "https://dc.lft.to/lastmile_qr_scan", "android": "https://dc.lft.to/lastmile_qr_scan"}}, {"name": "079fc48bf8dcb12291cf9cb1c87cc0d4", "fusion_lat": 0.0, "type": "electric_scooter", "lat": 38.87234133333333, "is_reserved": 0, "is_disabled": 0, "fusion_lon": 0.0, "bike_id": "079fc48bf8dcb12291cf9cb1c87cc0d4", "lon": -77.011642, "rental_uris": {"ios": "https://dc.lft.to/lastmile_qr_scan", "android": "https://dc.lft.to/lastmile_qr_scan"}}, {"name": "f1639533d26db8eb6150979de356f738", "fusion_lat": 0.0, "type": "electric_scooter", "lat": 38.922422, "is_reserved": 0, "is_disabled": 0, "fusion_lon": 0.0, "bike_id": "f1639533d26db8eb6150979de356f738", "lon": -77.0448875, "rental_uris": {"ios": "https://dc.lft.to/lastmile_qr_scan", "android": "https://dc.lft.to/lastmile_qr_scan"}}, {"name": "977860322b9bb00fc6f1028c08e6c2dc", "fusion_lat": 0.0, "type": "electric_scooter", "lat": 38.9036095, "is_reserved": 0, "is_disabled": 0, "fusion_lon": 0.0, "bike_id": "977860322b9bb00fc6f1028c08e6c2dc", "lon": -77.03884366666666, "rental_uris": {"ios": "https://dc.lft.to/lastmile_qr_scan", "android": "https://dc.lft.to/lastmile_qr_scan"}}, {"name": "837f45f77954f5b14a2f47d1a3f87127", "fusion_lat": 0.0, "type": "electric_scooter", "lat": 38.884309333333334, "is_reserved": 0, "is_disabled": 0, "fusion_lon": 0.0, "bike_id": "837f45f77954f5b14a2f47d1a3f87127", "lon": -76.99591033333333, "rental_uris": {"ios": "https://dc.lft.to/lastmile_qr_scan", "android": "https://dc.lft.to/lastmile_qr_scan"}}, {"name": "9c1c82ece9c6305747174a0cd4844ccf", "fusion_lat": 0.0, "type": "electric_scooter", "lat": 38.92980466666667, "is_reserved": 0, "is_disabled": 0, "fusion_lon": 0.0, "bike_id": "9c1c82ece9c6305747174a0cd4844ccf", "lon": -77.014492, "rental_uris": {"ios": "https://dc.lft.to/lastmile_qr_scan", "android": "https://dc.lft.to/lastmile_qr_scan"}}, {"name": "734e3b8da3347614966f8800cfb350c6", "fusion_lat": 0.0, "type": "electric_scooter", "lat": 38.915614166666664, "is_reserved": 0, "is_disabled": 0, "fusion_lon": 0.0, "bike_id": "734e3b8da3347614966f8800cfb350c6", "lon": -77.03834583333334, "rental_uris": {"ios": "https://dc.lft.to/lastmile_qr_scan", "android": "https://dc.lft.to/lastmile_qr_scan"}}, {"name": "832347a4d9636fda7e5406fd5cde9b10", "fusion_lat": 0.0, "type": "electric_scooter", "lat": 38.8665605, "is_reserved": 0, "is_disabled": 0, "fusion_lon": 0.0, "bike_id": "832347a4d9636fda7e5406fd5cde9b10", "lon": -76.990149, "rental_uris": {"ios": "https://dc.lft.to/lastmile_qr_scan", "android": "https://dc.lft.to/lastmile_qr_scan"}}, {"name": "ca71b61984994df744867e6993b2f25d", "fusion_lat": 0.0, "type": "electric_scooter", "lat": 38.930608, "is_reserved": 0, "is_disabled": 0, "fusion_lon": 0.0, "bike_id": "ca71b61984994df744867e6993b2f25d", "lon": -77.02946983333334, "rental_uris": {"ios": "https://dc.lft.to/lastmile_qr_scan", "android": "https://dc.lft.to/lastmile_qr_scan"}}, {"name": "dbf0818194a6386c8c58cfd345381909", "fusion_lat": 0.0, "type": "electric_scooter", "lat": 38.89221166666667, "is_reserved": 0, "is_disabled": 0, "fusion_lon": 0.0, "bike_id": "dbf0818194a6386c8c58cfd345381909", "lon": -77.0310815, "rental_uris": {"ios": "https://dc.lft.to/lastmile_qr_scan", "android": "https://dc.lft.to/lastmile_qr_scan"}}, {"name": "ee7d3fecb8492cb655a51e903a04015f", "fusion_lat": 0.0, "type": "electric_scooter", "lat": 38.88715633333333, "is_reserved": 0, "is_disabled": 0, "fusion_lon": 0.0, "bike_id": "ee7d3fecb8492cb655a51e903a04015f", "lon": -76.99611233333333, "rental_uris": {"ios": "https://dc.lft.to/lastmile_qr_scan", "android": "https://dc.lft.to/lastmile_qr_scan"}}, {"name": "2081e2bbaec67402fd881dd514dca52a", "fusion_lat": 0.0, "type": "electric_scooter", "lat": 38.892209666666666, "is_reserved": 0, "is_disabled": 0, "fusion_lon": 0.0, "bike_id": "2081e2bbaec67402fd881dd514dca52a", "lon": -77.022275, "rental_uris": {"ios": "https://dc.lft.to/lastmile_qr_scan", "android": "https://dc.lft.to/lastmile_qr_scan"}}, {"name": "f17bd056f9bbb91712851ff63bfcbd49", "fusion_lat": 0.0, "type": "electric_scooter", "lat": 38.9377505, "is_reserved": 0, "is_disabled": 0, "fusion_lon": 0.0, "bike_id": "f17bd056f9bbb91712851ff63bfcbd49", "lon": -77.02441833333333, "rental_uris": {"ios": "https://dc.lft.to/lastmile_qr_scan", "android": "https://dc.lft.to/lastmile_qr_scan"}}, {"name": "3a4a4d3588f23c0d3e1112652fdaee3a", "fusion_lat": 0.0, "type": "electric_bike", "lat": 38.839862833333335, "is_reserved": 0, "is_disabled": 0, "fusion_lon": 0.0, "bike_id": "3a4a4d3588f23c0d3e1112652fdaee3a", "lon": -77.00568066666666, "rental_uris": {"ios": "https://dc.lft.to/lastmile_qr_scan", "android": "https://dc.lft.to/lastmile_qr_scan"}}, {"name": "7b771e74d3261015b8f3223bf8f02c55", "fusion_lat": 0.0, "type": "electric_scooter", "lat": 38.912474, "is_reserved": 0, "is_disabled": 0, "fusion_lon": 0.0, "bike_id": "7b771e74d3261015b8f3223bf8f02c55", "lon": -77.03841316666667, "rental_uris": {"ios": "https://dc.lft.to/lastmile_qr_scan", "android": "https://dc.lft.to/lastmile_qr_scan"}}, {"name": "31f5328d95f20a66538d26bbd08e504b", "fusion_lat": 0.0, "type": "electric_scooter", "lat": 38.89609633333333, "is_reserved": 0, "is_disabled": 0, "fusion_lon": 0.0, "bike_id": "31f5328d95f20a66538d26bbd08e504b", "lon": -77.02373683333333, "rental_uris": {"ios": "https://dc.lft.to/lastmile_qr_scan", "android": "https://dc.lft.to/lastmile_qr_scan"}}, {"name": "035bac73bcc7bcdfbfa4c3d403df8437", "fusion_lat": 0.0, "type": "electric_scooter", "lat": 38.90052266666667, "is_reserved": 0, "is_disabled": 0, "fusion_lon": 0.0, "bike_id": "035bac73bcc7bcdfbfa4c3d403df8437", "lon": -77.05067683333333, "rental_uris": {"ios": "https://dc.lft.to/lastmile_qr_scan", "android": "https://dc.lft.to/lastmile_qr_scan"}}, {"name": "13aa0b7ddce4ce6aa95fbb4a7a7d1497", "fusion_lat": 0.0, "type": "electric_bike", "lat": 38.86267983333333, "is_reserved": 0, "is_disabled": 0, "fusion_lon": 0.0, "bike_id": "13aa0b7ddce4ce6aa95fbb4a7a7d1497", "lon": -77.05962083333333, "rental_uris": {"ios": "https://dc.lft.to/lastmile_qr_scan", "android": "https://dc.lft.to/lastmile_qr_scan"}}, {"name": "f9c43019ad2b213e15d0fc4c78e8ae08", "fusion_lat": 0.0, "type": "electric_scooter", "lat": 38.91947033333334, "is_reserved": 0, "is_disabled": 0, "fusion_lon": 0.0, "bike_id": "f9c43019ad2b213e15d0fc4c78e8ae08", "lon": -77.01378783333334, "rental_uris": {"ios": "https://dc.lft.to/lastmile_qr_scan", "android": "https://dc.lft.to/lastmile_qr_scan"}}, {"name": "0d5c5c2feb5fcc43ddf74b6353ba4d4b", "fusion_lat": 0.0, "type": "electric_scooter", "lat": 38.9394735, "is_reserved": 0, "is_disabled": 0, "fusion_lon": 0.0, "bike_id": "0d5c5c2feb5fcc43ddf74b6353ba4d4b", "lon": -77.032673, "rental_uris": {"ios": "https://dc.lft.to/lastmile_qr_scan", "android": "https://dc.lft.to/lastmile_qr_scan"}}, {"name": "5641866770d37443b476bbfda228f743", "fusion_lat": 0.0, "type": "electric_bike", "lat": 38.98455583333333, "is_reserved": 0, "is_disabled": 0, "fusion_lon": 0.0, "bike_id": "5641866770d37443b476bbfda228f743", "lon": -76.955262, "rental_uris": {"ios": "https://dc.lft.to/lastmile_qr_scan", "android": "https://dc.lft.to/lastmile_qr_scan"}}, {"name": "881b2934ef46a8f9e8e7c21dcd667b5f", "fusion_lat": 0.0, "type": "electric_bike", "lat": 38.8659705, "is_reserved": 0, "is_disabled": 0, "fusion_lon": 0.0, "bike_id": "881b2934ef46a8f9e8e7c21dcd667b5f", "lon": -76.93228783333333, "rental_uris": {"ios": "https://dc.lft.to/lastmile_qr_scan", "android": "https://dc.lft.to/lastmile_qr_scan"}}, {"name": "b0dd6abf769385fd26f078ca23127220", "fusion_lat": 0.0, "type": "electric_scooter", "lat": 38.88054666666667, "is_reserved": 0, "is_disabled": 0, "fusion_lon": 0.0, "bike_id": "b0dd6abf769385fd26f078ca23127220", "lon": -76.9599425, "rental_uris": {"ios": "https://dc.lft.to/lastmile_qr_scan", "android": "https://dc.lft.to/lastmile_qr_scan"}}, {"name": "30d2f60ec2a846926db4bd153440c30a", "fusion_lat": 0.0, "type": "electric_scooter", "lat": 38.902774, "is_reserved": 0, "is_disabled": 0, "fusion_lon": 0.0, "bike_id": "30d2f60ec2a846926db4bd153440c30a", "lon": -77.04048883333333, "rental_uris": {"ios": "https://dc.lft.to/lastmile_qr_scan", "android": "https://dc.lft.to/lastmile_qr_scan"}}, {"name": "5469c87e697e341383c9213a044f3920", "fusion_lat": 0.0, "type": "electric_scooter", "lat": 38.91584666666667, "is_reserved": 0, "is_disabled": 0, "fusion_lon": 0.0, "bike_id": "5469c87e697e341383c9213a044f3920", "lon": -77.031945, "rental_uris": {"ios": "https://dc.lft.to/lastmile_qr_scan", "android": "https://dc.lft.to/lastmile_qr_scan"}}, {"name": "313958e93501e2e27bce41c3bed7f09f", "fusion_lat": 0.0, "type": "electric_bike", "lat": 38.8788175, "is_reserved": 0, "is_disabled": 0, "fusion_lon": 0.0, "bike_id": "313958e93501e2e27bce41c3bed7f09f", "lon": -77.02315683333333, "rental_uris": {"ios": "https://dc.lft.to/lastmile_qr_scan", "android": "https://dc.lft.to/lastmile_qr_scan"}}, {"name": "5d5600da6b45e2a95a2bea2a6383df1d", "fusion_lat": 0.0, "type": "electric_scooter", "lat": 38.87783966666667, "is_reserved": 0, "is_disabled": 0, "fusion_lon": 0.0, "bike_id": "5d5600da6b45e2a95a2bea2a6383df1d", "lon": -76.99411, "rental_uris": {"ios": "https://dc.lft.to/lastmile_qr_scan", "android": "https://dc.lft.to/lastmile_qr_scan"}}, {"name": "8c391bb3887d4ed0f654bd6dacbc839a", "fusion_lat": 0.0, "type": "electric_bike", "lat": 38.83234733333333, "is_reserved": 0, "is_disabled": 0, "fusion_lon": 0.0, "bike_id": "8c391bb3887d4ed0f654bd6dacbc839a", "lon": -77.00723016666667, "rental_uris": {"ios": "https://dc.lft.to/lastmile_qr_scan", "android": "https://dc.lft.to/lastmile_qr_scan"}}, {"name": "d089291a985ab33f5632b5ca89520aec", "fusion_lat": 0.0, "type": "electric_scooter", "lat": 38.91731433333333, "is_reserved": 0, "is_disabled": 0, "fusion_lon": 0.0, "bike_id": "d089291a985ab33f5632b5ca89520aec", "lon": -77.03840766666667, "rental_uris": {"ios": "https://dc.lft.to/lastmile_qr_scan", "android": "https://dc.lft.to/lastmile_qr_scan"}}, {"name": "b94b205e4fec3418b8b2c90efe895006", "fusion_lat": 0.0, "type": "electric_scooter", "lat": 38.928966333333335, "is_reserved": 0, "is_disabled": 0, "fusion_lon": 0.0, "bike_id": "b94b205e4fec3418b8b2c90efe895006", "lon": -77.05455266666667, "rental_uris": {"ios": "https://dc.lft.to/lastmile_qr_scan", "android": "https://dc.lft.to/lastmile_qr_scan"}}, {"name": "4bea1937d062de498551ff9577362595", "fusion_lat": 0.0, "type": "electric_bike", "lat": 38.85220133333333, "is_reserved": 0, "is_disabled": 0, "fusion_lon": 0.0, "bike_id": "4bea1937d062de498551ff9577362595", "lon": -77.12959516666666, "rental_uris": {"ios": "https://dc.lft.to/lastmile_qr_scan", "android": "https://dc.lft.to/lastmile_qr_scan"}}, {"name": "936d7b1d305c027fc6fdea60f9ef84ab", "fusion_lat": 0.0, "type": "electric_scooter", "lat": 38.91617166666666, "is_reserved": 0, "is_disabled": 0, "fusion_lon": 0.0, "bike_id": "936d7b1d305c027fc6fdea60f9ef84ab", "lon": -77.03167, "rental_uris": {"ios": "https://dc.lft.to/lastmile_qr_scan", "android": "https://dc.lft.to/lastmile_qr_scan"}}, {"name": "8720698d5ec05c221cddf8771f6db0d8", "fusion_lat": 0.0, "type": "electric_scooter", "lat": 38.91110166666667, "is_reserved": 0, "is_disabled": 0, "fusion_lon": 0.0, "bike_id": "8720698d5ec05c221cddf8771f6db0d8", "lon": -77.04231816666666, "rental_uris": {"ios": "https://dc.lft.to/lastmile_qr_scan", "android": "https://dc.lft.to/lastmile_qr_scan"}}, {"name": "ea9c82f56a4396a83fd7c4624696b107", "fusion_lat": 0.0, "type": "electric_scooter", "lat": 38.9395155, "is_reserved": 0, "is_disabled": 0, "fusion_lon": 0.0, "bike_id": "ea9c82f56a4396a83fd7c4624696b107", "lon": -77.03265016666667, "rental_uris": {"ios": "https://dc.lft.to/lastmile_qr_scan", "android": "https://dc.lft.to/lastmile_qr_scan"}}, {"name": "a24c94c9c9d8fb8f8a643a8b4ae30d61", "fusion_lat": 0.0, "type": "electric_scooter", "lat": 38.904782166666664, "is_reserved": 0, "is_disabled": 0, "fusion_lon": 0.0, "bike_id": "a24c94c9c9d8fb8f8a643a8b4ae30d61", "lon": -77.03551816666666, "rental_uris": {"ios": "https://dc.lft.to/lastmile_qr_scan", "android": "https://dc.lft.to/lastmile_qr_scan"}}, {"name": "b73b0bb603d5273fb719365d24019434", "fusion_lat": 0.0, "type": "electric_scooter", "lat": 38.916887833333334, "is_reserved": 0, "is_disabled": 0, "fusion_lon": 0.0, "bike_id": "b73b0bb603d5273fb719365d24019434", "lon": -77.02458683333333, "rental_uris": {"ios": "https://dc.lft.to/lastmile_qr_scan", "android": "https://dc.lft.to/lastmile_qr_scan"}}, {"name": "92defa1afae33d3925887f27fcc624bf", "fusion_lat": 0.0, "type": "electric_scooter", "lat": 38.90291783333333, "is_reserved": 0, "is_disabled": 0, "fusion_lon": 0.0, "bike_id": "92defa1afae33d3925887f27fcc624bf", "lon": -77.03652283333334, "rental_uris": {"ios": "https://dc.lft.to/lastmile_qr_scan", "android": "https://dc.lft.to/lastmile_qr_scan"}}, {"name": "2652ec5342f5f1bc9ad836d9e9cc2031", "fusion_lat": 0.0, "type": "electric_scooter", "lat": 38.90553966666667, "is_reserved": 0, "is_disabled": 0, "fusion_lon": 0.0, "bike_id": "2652ec5342f5f1bc9ad836d9e9cc2031", "lon": -77.04440983333333, "rental_uris": {"ios": "https://dc.lft.to/lastmile_qr_scan", "android": "https://dc.lft.to/lastmile_qr_scan"}}, {"name": "155dc5ed18fd7231b0978b03b1d46080", "fusion_lat": 0.0, "type": "electric_scooter", "lat": 38.926929666666666, "is_reserved": 0, "is_disabled": 0, "fusion_lon": 0.0, "bike_id": "155dc5ed18fd7231b0978b03b1d46080", "lon": -77.03771233333333, "rental_uris": {"ios": "https://dc.lft.to/lastmile_qr_scan", "android": "https://dc.lft.to/lastmile_qr_scan"}}, {"name": "52332d1665dbb49e6cc113a2d1485ba3", "fusion_lat": 0.0, "type": "electric_scooter", "lat": 38.862189, "is_reserved": 0, "is_disabled": 0, "fusion_lon": 0.0, "bike_id": "52332d1665dbb49e6cc113a2d1485ba3", "lon": -76.99491933333333, "rental_uris": {"ios": "https://dc.lft.to/lastmile_qr_scan", "android": "https://dc.lft.to/lastmile_qr_scan"}}, {"name": "9c109fe26e6ed696e0adedb0675207db", "fusion_lat": 0.0, "type": "electric_scooter", "lat": 38.90507366666667, "is_reserved": 0, "is_disabled": 0, "fusion_lon": 0.0, "bike_id": "9c109fe26e6ed696e0adedb0675207db", "lon": -77.04478183333333, "rental_uris": {"ios": "https://dc.lft.to/lastmile_qr_scan", "android": "https://dc.lft.to/lastmile_qr_scan"}}, {"name": "732199258004af24e504c2804de26d15", "fusion_lat": 0.0, "type": "electric_scooter", "lat": 38.896231, "is_reserved": 0, "is_disabled": 0, "fusion_lon": 0.0, "bike_id": "732199258004af24e504c2804de26d15", "lon": -76.99844266666666, "rental_uris": {"ios": "https://dc.lft.to/lastmile_qr_scan", "android": "https://dc.lft.to/lastmile_qr_scan"}}, {"name": "6fe41b0bd6ac40c219f2e07ac1322421", "fusion_lat": 0.0, "type": "electric_scooter", "lat": 38.9325305, "is_reserved": 0, "is_disabled": 0, "fusion_lon": 0.0, "bike_id": "6fe41b0bd6ac40c219f2e07ac1322421", "lon": -77.03999833333333, "rental_uris": {"ios": "https://dc.lft.to/lastmile_qr_scan", "android": "https://dc.lft.to/lastmile_qr_scan"}}, {"name": "a0ff1fccfdfa56ca234e473cb88ed271", "fusion_lat": 0.0, "type": "electric_scooter", "lat": 38.890891833333335, "is_reserved": 0, "is_disabled": 0, "fusion_lon": 0.0, "bike_id": "a0ff1fccfdfa56ca234e473cb88ed271", "lon": -76.98731716666667, "rental_uris": {"ios": "https://dc.lft.to/lastmile_qr_scan", "android": "https://dc.lft.to/lastmile_qr_scan"}}, {"name": "c503d03c65c29560fc20973908ea3eca", "fusion_lat": 0.0, "type": "electric_scooter", "lat": 38.93364716666667, "is_reserved": 0, "is_disabled": 0, "fusion_lon": 0.0, "bike_id": "c503d03c65c29560fc20973908ea3eca", "lon": -77.05725283333334, "rental_uris": {"ios": "https://dc.lft.to/lastmile_qr_scan", "android": "https://dc.lft.to/lastmile_qr_scan"}}, {"name": "9c45d72dff9c04590d104ad36a9fb3fb", "fusion_lat": 0.0, "type": "electric_bike", "lat": 38.954792, "is_reserved": 0, "is_disabled": 0, "fusion_lon": 0.0, "bike_id": "9c45d72dff9c04590d104ad36a9fb3fb", "lon": -77.08238216666666, "rental_uris": {"ios": "https://dc.lft.to/lastmile_qr_scan", "android": "https://dc.lft.to/lastmile_qr_scan"}}, {"name": "e2aa9ea0c078f14ddad4fcc002d4cbc5", "fusion_lat": 0.0, "type": "electric_scooter", "lat": 38.932952, "is_reserved": 0, "is_disabled": 0, "fusion_lon": 0.0, "bike_id": "e2aa9ea0c078f14ddad4fcc002d4cbc5", "lon": -77.0246145, "rental_uris": {"ios": "https://dc.lft.to/lastmile_qr_scan", "android": "https://dc.lft.to/lastmile_qr_scan"}}, {"name": "41fdd5b93ace29a138fdf210d8067e1b", "fusion_lat": 0.0, "type": "electric_scooter", "lat": 38.89555933333333, "is_reserved": 0, "is_disabled": 0, "fusion_lon": 0.0, "bike_id": "41fdd5b93ace29a138fdf210d8067e1b", "lon": -77.04687316666667, "rental_uris": {"ios": "https://dc.lft.to/lastmile_qr_scan", "android": "https://dc.lft.to/lastmile_qr_scan"}}, {"name": "ad1c3a55734629c529c47a7d91761f47", "fusion_lat": 0.0, "type": "electric_scooter", "lat": 38.896654166666664, "is_reserved": 0, "is_disabled": 0, "fusion_lon": 0.0, "bike_id": "ad1c3a55734629c529c47a7d91761f47", "lon": -77.04906316666667, "rental_uris": {"ios": "https://dc.lft.to/lastmile_qr_scan", "android": "https://dc.lft.to/lastmile_qr_scan"}}, {"name": "9e50ed41b01deb58e6d92372d25fc239", "fusion_lat": 0.0, "type": "electric_scooter", "lat": 38.924241333333335, "is_reserved": 0, "is_disabled": 0, "fusion_lon": 0.0, "bike_id": "9e50ed41b01deb58e6d92372d25fc239", "lon": -77.0195235, "rental_uris": {"ios": "https://dc.lft.to/lastmile_qr_scan", "android": "https://dc.lft.to/lastmile_qr_scan"}}, {"name": "1a9f7e105035f3babbab81aa527b2661", "fusion_lat": 0.0, "type": "electric_scooter", "lat": 38.91116, "is_reserved": 0, "is_disabled": 0, "fusion_lon": 0.0, "bike_id": "1a9f7e105035f3babbab81aa527b2661", "lon": -77.03476933333333, "rental_uris": {"ios": "https://dc.lft.to/lastmile_qr_scan", "android": "https://dc.lft.to/lastmile_qr_scan"}}, {"name": "888d5dbe117dbf50d0b7e96a75b1ba8f", "fusion_lat": 0.0, "type": "electric_scooter", "lat": 38.90474283333333, "is_reserved": 0, "is_disabled": 0, "fusion_lon": 0.0, "bike_id": "888d5dbe117dbf50d0b7e96a75b1ba8f", "lon": -77.04165433333333, "rental_uris": {"ios": "https://dc.lft.to/lastmile_qr_scan", "android": "https://dc.lft.to/lastmile_qr_scan"}}, {"name": "9c3306374ef165a7f1f4fa79faeb3725", "fusion_lat": 0.0, "type": "electric_scooter", "lat": 38.92873783333334, "is_reserved": 0, "is_disabled": 0, "fusion_lon": 0.0, "bike_id": "9c3306374ef165a7f1f4fa79faeb3725", "lon": -77.04126366666667, "rental_uris": {"ios": "https://dc.lft.to/lastmile_qr_scan", "android": "https://dc.lft.to/lastmile_qr_scan"}}, {"name": "ebd20ed8b3fc5e8434b778db2d61da9f", "fusion_lat": 0.0, "type": "electric_scooter", "lat": 38.91472483333333, "is_reserved": 0, "is_disabled": 0, "fusion_lon": 0.0, "bike_id": "ebd20ed8b3fc5e8434b778db2d61da9f", "lon": -77.00980083333333, "rental_uris": {"ios": "https://dc.lft.to/lastmile_qr_scan", "android": "https://dc.lft.to/lastmile_qr_scan"}}, {"name": "7435805adf96a225d8138064b196efee", "fusion_lat": 0.0, "type": "electric_scooter", "lat": 38.892994, "is_reserved": 0, "is_disabled": 0, "fusion_lon": 0.0, "bike_id": "7435805adf96a225d8138064b196efee", "lon": -77.02019366666667, "rental_uris": {"ios": "https://dc.lft.to/lastmile_qr_scan", "android": "https://dc.lft.to/lastmile_qr_scan"}}, {"name": "b1c12c8e7e01e9b38427ce86257d2047", "fusion_lat": 0.0, "type": "electric_scooter", "lat": 38.93701333333333, "is_reserved": 0, "is_disabled": 0, "fusion_lon": 0.0, "bike_id": "b1c12c8e7e01e9b38427ce86257d2047", "lon": -77.06100633333334, "rental_uris": {"ios": "https://dc.lft.to/lastmile_qr_scan", "android": "https://dc.lft.to/lastmile_qr_scan"}}, {"name": "5961ffb9f7b23f795199ae47e0bb746b", "fusion_lat": 0.0, "type": "electric_bike", "lat": 38.999121333333335, "is_reserved": 0, "is_disabled": 0, "fusion_lon": 0.0, "bike_id": "5961ffb9f7b23f795199ae47e0bb746b", "lon": -77.04622266666667, "rental_uris": {"ios": "https://dc.lft.to/lastmile_qr_scan", "android": "https://dc.lft.to/lastmile_qr_scan"}}, {"name": "23b5146ebb3e71b9d6fd122a511001d3", "fusion_lat": 0.0, "type": "electric_scooter", "lat": 38.9243215, "is_reserved": 0, "is_disabled": 0, "fusion_lon": 0.0, "bike_id": "23b5146ebb3e71b9d6fd122a511001d3", "lon": -77.05201933333333, "rental_uris": {"ios": "https://dc.lft.to/lastmile_qr_scan", "android": "https://dc.lft.to/lastmile_qr_scan"}}, {"name": "a236e8ad2b104ea80a2f39559e870d6c", "fusion_lat": 0.0, "type": "electric_scooter", "lat": 38.91687733333333, "is_reserved": 0, "is_disabled": 0, "fusion_lon": 0.0, "bike_id": "a236e8ad2b104ea80a2f39559e870d6c", "lon": -77.031993, "rental_uris": {"ios": "https://dc.lft.to/lastmile_qr_scan", "android": "https://dc.lft.to/lastmile_qr_scan"}}, {"name": "fde001ee13d12d05066bdea5336750a9", "fusion_lat": 0.0, "type": "electric_scooter", "lat": 38.9611515, "is_reserved": 0, "is_disabled": 0, "fusion_lon": 0.0, "bike_id": "fde001ee13d12d05066bdea5336750a9", "lon": -77.028131, "rental_uris": {"ios": "https://dc.lft.to/lastmile_qr_scan", "android": "https://dc.lft.to/lastmile_qr_scan"}}, {"name": "8fc6081ecc358b3adc59e289b5da7b83", "fusion_lat": 0.0, "type": "electric_scooter", "lat": 38.89854033333334, "is_reserved": 0, "is_disabled": 0, "fusion_lon": 0.0, "bike_id": "8fc6081ecc358b3adc59e289b5da7b83", "lon": -76.9903405, "rental_uris": {"ios": "https://dc.lft.to/lastmile_qr_scan", "android": "https://dc.lft.to/lastmile_qr_scan"}}, {"name": "ced605d0b745b7a1aa9e60b86527b03b", "fusion_lat": 0.0, "type": "electric_scooter", "lat": 38.91109083333333, "is_reserved": 0, "is_disabled": 0, "fusion_lon": 0.0, "bike_id": "ced605d0b745b7a1aa9e60b86527b03b", "lon": -77.0422845, "rental_uris": {"ios": "https://dc.lft.to/lastmile_qr_scan", "android": "https://dc.lft.to/lastmile_qr_scan"}}, {"name": "c6168a025292246bc13b536e31e98937", "fusion_lat": 0.0, "type": "electric_scooter", "lat": 38.930157, "is_reserved": 0, "is_disabled": 0, "fusion_lon": 0.0, "bike_id": "c6168a025292246bc13b536e31e98937", "lon": -77.02334166666667, "rental_uris": {"ios": "https://dc.lft.to/lastmile_qr_scan", "android": "https://dc.lft.to/lastmile_qr_scan"}}, {"name": "3ce24a0313fa90112df4a78163ec3b32", "fusion_lat": 0.0, "type": "electric_bike", "lat": 38.84573483333333, "is_reserved": 0, "is_disabled": 0, "fusion_lon": 0.0, "bike_id": "3ce24a0313fa90112df4a78163ec3b32", "lon": -77.0962415, "rental_uris": {"ios": "https://dc.lft.to/lastmile_qr_scan", "android": "https://dc.lft.to/lastmile_qr_scan"}}, {"name": "d8aa64defe7618cfdd927fb0c70469c1", "fusion_lat": 0.0, "type": "electric_scooter", "lat": 38.89841116666667, "is_reserved": 0, "is_disabled": 0, "fusion_lon": 0.0, "bike_id": "d8aa64defe7618cfdd927fb0c70469c1", "lon": -76.9926935, "rental_uris": {"ios": "https://dc.lft.to/lastmile_qr_scan", "android": "https://dc.lft.to/lastmile_qr_scan"}}, {"name": "a997035cdc8b7e96312edd1cf86f4be3", "fusion_lat": 0.0, "type": "electric_scooter", "lat": 38.9063925, "is_reserved": 0, "is_disabled": 0, "fusion_lon": 0.0, "bike_id": "a997035cdc8b7e96312edd1cf86f4be3", "lon": -77.03864366666667, "rental_uris": {"ios": "https://dc.lft.to/lastmile_qr_scan", "android": "https://dc.lft.to/lastmile_qr_scan"}}, {"name": "f236fd8cb8b48478278909fcc4741286", "fusion_lat": 0.0, "type": "electric_scooter", "lat": 38.9104445, "is_reserved": 0, "is_disabled": 0, "fusion_lon": 0.0, "bike_id": "f236fd8cb8b48478278909fcc4741286", "lon": -77.04373283333334, "rental_uris": {"ios": "https://dc.lft.to/lastmile_qr_scan", "android": "https://dc.lft.to/lastmile_qr_scan"}}, {"name": "4cef48c99f8c1f24c7db0cb111bb6dcd", "fusion_lat": 0.0, "type": "electric_scooter", "lat": 38.90203666666667, "is_reserved": 0, "is_disabled": 0, "fusion_lon": 0.0, "bike_id": "4cef48c99f8c1f24c7db0cb111bb6dcd", "lon": -76.982067, "rental_uris": {"ios": "https://dc.lft.to/lastmile_qr_scan", "android": "https://dc.lft.to/lastmile_qr_scan"}}, {"name": "4a5273920c045e7ce94dbf2dfd01dc35", "fusion_lat": 0.0, "type": "electric_scooter", "lat": 38.8968745, "is_reserved": 0, "is_disabled": 0, "fusion_lon": 0.0, "bike_id": "4a5273920c045e7ce94dbf2dfd01dc35", "lon": -77.01890233333333, "rental_uris": {"ios": "https://dc.lft.to/lastmile_qr_scan", "android": "https://dc.lft.to/lastmile_qr_scan"}}, {"name": "c9be2e92f93ee5c141979b3443929486", "fusion_lat": 0.0, "type": "electric_scooter", "lat": 38.87686383333333, "is_reserved": 0, "is_disabled": 0, "fusion_lon": 0.0, "bike_id": "c9be2e92f93ee5c141979b3443929486", "lon": -77.00067633333333, "rental_uris": {"ios": "https://dc.lft.to/lastmile_qr_scan", "android": "https://dc.lft.to/lastmile_qr_scan"}}, {"name": "fdc845b76b04d6b1cebc3d6d215c6fe9", "fusion_lat": 0.0, "type": "electric_scooter", "lat": 38.905101, "is_reserved": 0, "is_disabled": 0, "fusion_lon": 0.0, "bike_id": "fdc845b76b04d6b1cebc3d6d215c6fe9", "lon": -77.07016283333333, "rental_uris": {"ios": "https://dc.lft.to/lastmile_qr_scan", "android": "https://dc.lft.to/lastmile_qr_scan"}}, {"name": "ea882bbeb0fd5f64ad6d7a4c5560b9b0", "fusion_lat": 0.0, "type": "electric_scooter", "lat": 38.8859555, "is_reserved": 0, "is_disabled": 0, "fusion_lon": 0.0, "bike_id": "ea882bbeb0fd5f64ad6d7a4c5560b9b0", "lon": -77.022008, "rental_uris": {"ios": "https://dc.lft.to/lastmile_qr_scan", "android": "https://dc.lft.to/lastmile_qr_scan"}}, {"name": "11b706973adbd9bdaf4c85b8717b9cd8", "fusion_lat": 0.0, "type": "electric_scooter", "lat": 38.898497166666665, "is_reserved": 0, "is_disabled": 0, "fusion_lon": 0.0, "bike_id": "11b706973adbd9bdaf4c85b8717b9cd8", "lon": -77.0161165, "rental_uris": {"ios": "https://dc.lft.to/lastmile_qr_scan", "android": "https://dc.lft.to/lastmile_qr_scan"}}, {"name": "7a2612bb43c57186925e6d879d1a3ad6", "fusion_lat": 0.0, "type": "electric_bike", "lat": 38.8834505, "is_reserved": 0, "is_disabled": 0, "fusion_lon": 0.0, "bike_id": "7a2612bb43c57186925e6d879d1a3ad6", "lon": -77.182922, "rental_uris": {"ios": "https://dc.lft.to/lastmile_qr_scan", "android": "https://dc.lft.to/lastmile_qr_scan"}}, {"name": "2cbbd134b8eb3affe7f72907ea8e459c", "fusion_lat": 0.0, "type": "electric_scooter", "lat": 38.93485833333333, "is_reserved": 0, "is_disabled": 0, "fusion_lon": 0.0, "bike_id": "2cbbd134b8eb3affe7f72907ea8e459c", "lon": -77.03288316666666, "rental_uris": {"ios": "https://dc.lft.to/lastmile_qr_scan", "android": "https://dc.lft.to/lastmile_qr_scan"}}, {"name": "18ca034bd1d957663b772ecafd4d2249", "fusion_lat": 0.0, "type": "electric_scooter", "lat": 38.942804833333334, "is_reserved": 0, "is_disabled": 0, "fusion_lon": 0.0, "bike_id": "18ca034bd1d957663b772ecafd4d2249", "lon": -77.02502316666667, "rental_uris": {"ios": "https://dc.lft.to/lastmile_qr_scan", "android": "https://dc.lft.to/lastmile_qr_scan"}}, {"name": "c80da77445080962b15599e63719f922", "fusion_lat": 0.0, "type": "electric_scooter", "lat": 38.8996555, "is_reserved": 0, "is_disabled": 0, "fusion_lon": 0.0, "bike_id": "c80da77445080962b15599e63719f922", "lon": -76.93774266666667, "rental_uris": {"ios": "https://dc.lft.to/lastmile_qr_scan", "android": "https://dc.lft.to/lastmile_qr_scan"}}, {"name": "a4c4af91be24b18ecb71c70a191d170e", "fusion_lat": 0.0, "type": "electric_bike", "lat": 38.899075, "is_reserved": 0, "is_disabled": 0, "fusion_lon": 0.0, "bike_id": "a4c4af91be24b18ecb71c70a191d170e", "lon": -77.03966083333333, "rental_uris": {"ios": "https://dc.lft.to/lastmile_qr_scan", "android": "https://dc.lft.to/lastmile_qr_scan"}}, {"name": "51d646a2f7bc14342f5927f702b0e6b0", "fusion_lat": 0.0, "type": "electric_scooter", "lat": 38.88749116666666, "is_reserved": 0, "is_disabled": 0, "fusion_lon": 0.0, "bike_id": "51d646a2f7bc14342f5927f702b0e6b0", "lon": -76.9798175, "rental_uris": {"ios": "https://dc.lft.to/lastmile_qr_scan", "android": "https://dc.lft.to/lastmile_qr_scan"}}, {"name": "0b487cac4a52b4d8a53112bfdd14d74e", "fusion_lat": 0.0, "type": "electric_scooter", "lat": 38.907771833333335, "is_reserved": 0, "is_disabled": 0, "fusion_lon": 0.0, "bike_id": "0b487cac4a52b4d8a53112bfdd14d74e", "lon": -77.03833116666667, "rental_uris": {"ios": "https://dc.lft.to/lastmile_qr_scan", "android": "https://dc.lft.to/lastmile_qr_scan"}}, {"name": "436cd41431e97f87bdccfc93a570a89b", "fusion_lat": 0.0, "type": "electric_bike", "lat": 38.8861665, "is_reserved": 0, "is_disabled": 0, "fusion_lon": 0.0, "bike_id": "436cd41431e97f87bdccfc93a570a89b", "lon": -77.107538, "rental_uris": {"ios": "https://dc.lft.to/lastmile_qr_scan", "android": "https://dc.lft.to/lastmile_qr_scan"}}, {"name": "756830131f7efc49f4b41bfe78e39c8c", "fusion_lat": 0.0, "type": "electric_scooter", "lat": 38.91309116666667, "is_reserved": 0, "is_disabled": 0, "fusion_lon": 0.0, "bike_id": "756830131f7efc49f4b41bfe78e39c8c", "lon": -77.03179866666666, "rental_uris": {"ios": "https://dc.lft.to/lastmile_qr_scan", "android": "https://dc.lft.to/lastmile_qr_scan"}}, {"name": "4a6b9cf52eedf4cc9840057d79e0e9de", "fusion_lat": 0.0, "type": "electric_bike", "lat": 38.922124, "is_reserved": 0, "is_disabled": 0, "fusion_lon": 0.0, "bike_id": "4a6b9cf52eedf4cc9840057d79e0e9de", "lon": -76.98798883333333, "rental_uris": {"ios": "https://dc.lft.to/lastmile_qr_scan", "android": "https://dc.lft.to/lastmile_qr_scan"}}, {"name": "c14587eb92906643ce839bd1a11c0069", "fusion_lat": 0.0, "type": "electric_scooter", "lat": 38.917755166666666, "is_reserved": 0, "is_disabled": 0, "fusion_lon": 0.0, "bike_id": "c14587eb92906643ce839bd1a11c0069", "lon": -77.03203016666667, "rental_uris": {"ios": "https://dc.lft.to/lastmile_qr_scan", "android": "https://dc.lft.to/lastmile_qr_scan"}}, {"name": "a4f4c9fc94a283532cee57032cf366ea", "fusion_lat": 0.0, "type": "electric_scooter", "lat": 38.884025333333334, "is_reserved": 0, "is_disabled": 0, "fusion_lon": 0.0, "bike_id": "a4f4c9fc94a283532cee57032cf366ea", "lon": -76.930424, "rental_uris": {"ios": "https://dc.lft.to/lastmile_qr_scan", "android": "https://dc.lft.to/lastmile_qr_scan"}}, {"name": "8e2d650706a296c16765759c8630102a", "fusion_lat": 0.0, "type": "electric_scooter", "lat": 38.902795833333336, "is_reserved": 0, "is_disabled": 0, "fusion_lon": 0.0, "bike_id": "8e2d650706a296c16765759c8630102a", "lon": -77.03847733333333, "rental_uris": {"ios": "https://dc.lft.to/lastmile_qr_scan", "android": "https://dc.lft.to/lastmile_qr_scan"}}, {"name": "1e8a91b5bd204e42b79e799ea1e31394", "fusion_lat": 0.0, "type": "electric_scooter", "lat": 38.902679666666664, "is_reserved": 0, "is_disabled": 0, "fusion_lon": 0.0, "bike_id": "1e8a91b5bd204e42b79e799ea1e31394", "lon": -77.03847266666666, "rental_uris": {"ios": "https://dc.lft.to/lastmile_qr_scan", "android": "https://dc.lft.to/lastmile_qr_scan"}}, {"name": "b0892a9c874606098383eb2e68ee7122", "fusion_lat": 0.0, "type": "electric_scooter", "lat": 38.89486216666667, "is_reserved": 0, "is_disabled": 0, "fusion_lon": 0.0, "bike_id": "b0892a9c874606098383eb2e68ee7122", "lon": -77.01015183333334, "rental_uris": {"ios": "https://dc.lft.to/lastmile_qr_scan", "android": "https://dc.lft.to/lastmile_qr_scan"}}, {"name": "90966e6e41a77ac85f91ffdbf0712d90", "fusion_lat": 0.0, "type": "electric_scooter", "lat": 38.9388815, "is_reserved": 0, "is_disabled": 0, "fusion_lon": 0.0, "bike_id": "90966e6e41a77ac85f91ffdbf0712d90", "lon": -77.02466466666667, "rental_uris": {"ios": "https://dc.lft.to/lastmile_qr_scan", "android": "https://dc.lft.to/lastmile_qr_scan"}}, {"name": "be1321909f100e51b040a94303dd9daf", "fusion_lat": 0.0, "type": "electric_scooter", "lat": 38.862623666666664, "is_reserved": 0, "is_disabled": 0, "fusion_lon": 0.0, "bike_id": "be1321909f100e51b040a94303dd9daf", "lon": -76.98718266666667, "rental_uris": {"ios": "https://dc.lft.to/lastmile_qr_scan", "android": "https://dc.lft.to/lastmile_qr_scan"}}, {"name": "fa3df1af831f7bad97371b4a7c7bd847", "fusion_lat": 0.0, "type": "electric_scooter", "lat": 38.8997635, "is_reserved": 0, "is_disabled": 0, "fusion_lon": 0.0, "bike_id": "fa3df1af831f7bad97371b4a7c7bd847", "lon": -77.05558733333334, "rental_uris": {"ios": "https://dc.lft.to/lastmile_qr_scan", "android": "https://dc.lft.to/lastmile_qr_scan"}}, {"name": "24123f116945ae5ecb0d11d68f69c508", "fusion_lat": 0.0, "type": "electric_scooter", "lat": 38.9353445, "is_reserved": 0, "is_disabled": 0, "fusion_lon": 0.0, "bike_id": "24123f116945ae5ecb0d11d68f69c508", "lon": -77.034152, "rental_uris": {"ios": "https://dc.lft.to/lastmile_qr_scan", "android": "https://dc.lft.to/lastmile_qr_scan"}}, {"name": "c531f14413d53d3fd6ce9e7ebe63af0f", "fusion_lat": 0.0, "type": "electric_scooter", "lat": 38.905539833333336, "is_reserved": 0, "is_disabled": 0, "fusion_lon": 0.0, "bike_id": "c531f14413d53d3fd6ce9e7ebe63af0f", "lon": -77.0057515, "rental_uris": {"ios": "https://dc.lft.to/lastmile_qr_scan", "android": "https://dc.lft.to/lastmile_qr_scan"}}, {"name": "3f74f35faac1e90957d2e4a38ff1b9e8", "fusion_lat": 0.0, "type": "electric_scooter", "lat": 38.926303833333336, "is_reserved": 0, "is_disabled": 0, "fusion_lon": 0.0, "bike_id": "3f74f35faac1e90957d2e4a38ff1b9e8", "lon": -77.03789883333333, "rental_uris": {"ios": "https://dc.lft.to/lastmile_qr_scan", "android": "https://dc.lft.to/lastmile_qr_scan"}}, {"name": "91f18cc8d5a11d6ae3970e43d6fc72f6", "fusion_lat": 0.0, "type": "electric_scooter", "lat": 38.90512233333333, "is_reserved": 0, "is_disabled": 0, "fusion_lon": 0.0, "bike_id": "91f18cc8d5a11d6ae3970e43d6fc72f6", "lon": -77.03454116666667, "rental_uris": {"ios": "https://dc.lft.to/lastmile_qr_scan", "android": "https://dc.lft.to/lastmile_qr_scan"}}, {"name": "a148273be90a049933bec4983841e2cc", "fusion_lat": 0.0, "type": "electric_bike", "lat": 38.97090083333333, "is_reserved": 0, "is_disabled": 0, "fusion_lon": 0.0, "bike_id": "a148273be90a049933bec4983841e2cc", "lon": -77.06964283333333, "rental_uris": {"ios": "https://dc.lft.to/lastmile_qr_scan", "android": "https://dc.lft.to/lastmile_qr_scan"}},