{"data": {"bikes": [{"is_disabled": 0, "is_reserved": 0, "type": "electric_scooter", "lon": -77.03208666666667, "fusion_lon": 0.0, "lat": 38.91742716666667, "rental_uris": {"android": "https://dc.lft.to/lastmile_qr_scan", "ios": "https://dc.lft.to/lastmile_qr_scan"}, "fusion_lat": 0.0, "name": "7c104cc47cd5a720aa9c7b8a3e102c51", "bike_id": "7c104cc47cd5a720aa9c7b8a3e102c51"}, {"is_disabled": 0, "is_reserved": 0, "type": "electric_scooter", "lon": -77.00563916666667, "fusion_lon": 0.0, "lat": 38.885057333333336, "rental_uris": {"android": "https://dc.lft.to/lastmile_qr_scan", "ios": "https://dc.lft.to/lastmile_qr_scan"}, "fusion_lat": 0.0, "name": "008ff29a772b67ae14b766a7dbd60956", "bike_id": "008ff29a772b67ae14b766a7dbd60956"}, {"is_disabled": 0, "is_reserved": 0, "type": "electric_scooter", "lon": -77.0614085, "fusion_lon": 0.0, "lat": 38.9052595, "rental_uris": {"android": "https://dc.lft.to/lastmile_qr_scan", "ios": "https://dc.lft.to/lastmile_qr_scan"}, "fusion_lat": 0.0, "name": "a9785ea0821b17f2b6970f61feb03d9e", "bike_id": "a9785ea0821b17f2b6970f61feb03d9e"}, {"is_disabled": 0, "is_reserved": 0, "type": "electric_scooter", "lon": -77.03486816666667, "fusion_lon": 0.0, "lat": 38.92474583333333, "rental_uris": {"android": "https://dc.lft.to/lastmile_qr_scan", "ios": "https://dc.lft.to/lastmile_qr_scan"}, "fusion_lat": 0.0, "name": "12cbd7fcf97db17046e33a8ab15f7a1f", "bike_id": "12cbd7fcf97db17046e33a8ab15f7a1f"}, {"is_disabled": 0, "is_reserved": 0, "type": "electric_bike", "lon": -76.97705133333334, "fusion_lon": 0.0, "lat": 38.888542, "rental_uris": {"android": "https://dc.lft.to/lastmile_qr_scan", "ios": "https://dc.lft.to/lastmile_qr_scan"}, "fusion_lat": 0.0, "name": "e2a2edc2d191fbef6445dd73346f270b", "bike_id": "e2a2edc2d191fbef6445dd73346f270b"}, {"is_disabled": 0, "is_reserved": 0, "type": "electric_scooter", "lon": -77.026903, "fusion_lon": 0.0, "lat": 38.896529, "rental_uris": {"android": "https://dc.lft.to/lastmile_qr_scan", "ios": "https://dc.lft.to/lastmile_qr_scan"}, "fusion_lat": 0.0, "name": "0bddb989ddcaceb4475b94e3f5772fad", "bike_id": "0bddb989ddcaceb4475b94e3f5772fad"}, {"is_disabled": 0, "is_reserved": 0, "type": "electric_scooter", "lon": -76.98886016666667, "fusion_lon": 0.0, "lat": 38.86661183333333, "rental_uris": {"android": "https://dc.lft.to/lastmile_qr_scan", "ios": "https://dc.lft.to/lastmile_qr_scan"}, "fusion_lat": 0.0, "name": "e8e887c273f75942641a82b3ec6fe41e", "bike_id": "e8e887c273f75942641a82b3ec6fe41e"}, {"is_disabled": 0, "is_reserved": 0, "type": "electric_scooter", "lon": -77.03232283333334, "fusion_lon": 0.0, "lat": 38.90140016666667, "rental_uris": {"android": "https://dc.lft.to/lastmile_qr_scan", "ios": "https://dc.lft.to/lastmile_qr_scan"}, "fusion_lat": 0.0, "name": "b218996b9b6714aa0addb65b531922c3", "bike_id": "b218996b9b6714aa0addb65b531922c3"}, {"is_disabled": 0, "is_reserved": 0, "type": "electric_scooter", "lon": -77.04880733333333, "fusion_lon": 0.0, "lat": 38.907429, "rental_uris": {"android": "https://dc.lft.to/lastmile_qr_scan", "ios": "https://dc.lft.to/lastmile_qr_scan"}, "fusion_lat": 0.0, "name": "89586bc624f56c252b31b2c6db11854c", "bike_id": "89586bc624f56c252b31b2c6db11854c"}, {"is_disabled": 0, "is_reserved": 0, "type": "electric_bike", "lon": -76.96062133333334, "fusion_lon": 0.0, "lat": 38.88404966666667, "rental_uris": {"android": "https://dc.lft.to/lastmile_qr_scan", "ios": "https://dc.lft.to/lastmile_qr_scan"}, "fusion_lat": 0.0, "name": "9c979387d98e5c557563b9829ee79d7f", "bike_id": "9c979387d98e5c557563b9829ee79d7f"}, {"is_disabled": 0, "is_reserved": 0, "type": "electric_scooter", "lon": -77.04408283333333, "fusion_lon": 0.0, "lat": 38.893959333333335, "rental_uris": {"android": "https://dc.lft.to/lastmile_qr_scan", "ios": "https://dc.lft.to/lastmile_qr_scan"}, "fusion_lat": 0.0, "name": "d3ef64253f6bb119090fcbce7ae4bc5b", "bike_id": "d3ef64253f6bb119090fcbce7ae4bc5b"}, {"is_disabled": 0, "is_reserved": 0, "type": "electric_scooter", "lon": -77.042793, "fusion_lon": 0.0, "lat": 38.9341515, "rental_uris": {"android": "https://dc.lft.to/lastmile_qr_scan", "ios": "https://dc.lft.to/lastmile_qr_scan"}, "fusion_lat": 0.0, "name": "a63ed5e272103a11974c06670fbe5321", "bike_id": "a63ed5e272103a11974c06670fbe5321"}, {"is_disabled": 0, "is_reserved": 0, "type": "electric_scooter", "lon": -77.02086166666666, "fusion_lon": 0.0, "lat": 38.881231, "rental_uris": {"android": "https://dc.lft.to/lastmile_qr_scan", "ios": "https://dc.lft.to/lastmile_qr_scan"}, "fusion_lat": 0.0, "name": "6fc8a8db0d372c6d5f5a2f44c184d473", "bike_id": "6fc8a8db0d372c6d5f5a2f44c184d473"}, {"is_disabled": 0, "is_reserved": 0, "type": "electric_bike", "lon": -76.99952783333333, "fusion_lon": 0.0, "lat": 38.89803883333333, "rental_uris": {"android": "https://dc.lft.to/lastmile_qr_scan", "ios": "https://dc.lft.to/lastmile_qr_scan"}, "fusion_lat": 0.0, "name": "a6f1b19a7573825acf8a026a53ebf1c4", "bike_id": "a6f1b19a7573825acf8a026a53ebf1c4"}, {"is_disabled": 0, "is_reserved": 0, "type": "electric_scooter", "lon": -77.02585683333334, "fusion_lon": 0.0, "lat": 38.904977, "rental_uris": {"android": "https://dc.lft.to/lastmile_qr_scan", "ios": "https://dc.lft.to/lastmile_qr_scan"}, "fusion_lat": 0.0, "name": "19b0a56904c05f07b2f1a2a30b507396", "bike_id": "19b0a56904c05f07b2f1a2a30b507396"}, {"is_disabled": 0, "is_reserved": 0, "type": "electric_scooter", "lon": -77.000472, "fusion_lon": 0.0, "lat": 38.919066, "rental_uris": {"android": "https://dc.lft.to/lastmile_qr_scan", "ios": "https://dc.lft.to/lastmile_qr_scan"}, "fusion_lat": 0.0, "name": "7e5fea50a9e9d66139ffe23758dbd40e", "bike_id": "7e5fea50a9e9d66139ffe23758dbd40e"}, {"is_disabled": 0, "is_reserved": 0, "type": "electric_scooter", "lon": -77.031756, "fusion_lon": 0.0, "lat": 38.899023666666665, "rental_uris": {"android": "https://dc.lft.to/lastmile_qr_scan", "ios": "https://dc.lft.to/lastmile_qr_scan"}, "fusion_lat": 0.0, "name": "7c9de90f4543d283d5e3ecb7a9d6c159", "bike_id": "7c9de90f4543d283d5e3ecb7a9d6c159"}, {"is_disabled": 0, "is_reserved": 0, "type": "electric_scooter", "lon": -77.03492716666666, "fusion_lon": 0.0, "lat": 38.923528166666664, "rental_uris": {"android": "https://dc.lft.to/lastmile_qr_scan", "ios": "https://dc.lft.to/lastmile_qr_scan"}, "fusion_lat": 0.0, "name": "076e8db9e4ca2bb5ecd714fa03349f2a", "bike_id": "076e8db9e4ca2bb5ecd714fa03349f2a"}, {"is_disabled": 0, "is_reserved": 0, "type": "electric_scooter", "lon": -77.04202566666666, "fusion_lon": 0.0, "lat": 38.92317383333334, "rental_uris": {"android": "https://dc.lft.to/lastmile_qr_scan", "ios": "https://dc.lft.to/lastmile_qr_scan"}, "fusion_lat": 0.0, "name": "1515fb8075c4808819d759f62a72a91f", "bike_id": "1515fb8075c4808819d759f62a72a91f"}, {"is_disabled": 0, "is_reserved": 0, "type": "electric_scooter", "lon": -77.04599183333333, "fusion_lon": 0.0, "lat": 38.902561166666665, "rental_uris": {"android": "https://dc.lft.to/lastmile_qr_scan", "ios": "https://dc.lft.to/lastmile_qr_scan"}, "fusion_lat": 0.0, "name": "489d9d7d83a623abb32f57e3cb594961", "bike_id": "489d9d7d83a623abb32f57e3cb594961"}, {"is_disabled": 0, "is_reserved": 0, "type": "electric_scooter", "lon": -77.00729416666667, "fusion_lon": 0.0, "lat": 38.884927, "rental_uris": {"android": "https://dc.lft.to/lastmile_qr_scan", "ios": "https://dc.lft.to/lastmile_qr_scan"}, "fusion_lat": 0.0, "name": "8b95fdc85de60d2087a44e2ae2869757", "bike_id": "8b95fdc85de60d2087a44e2ae2869757"}, {"is_disabled": 0, "is_reserved": 0, "type": "electric_scooter", "lon": -77.05702066666667, "fusion_lon": 0.0, "lat": 38.91057466666667, "rental_uris": {"android": "https://dc.lft.to/lastmile_qr_scan", "ios": "https://dc.lft.to/lastmile_qr_scan"}, "fusion_lat": 0.0, "name": "3b69a3fb699e91f213b11f321294ecf0", "bike_id": "3b69a3fb699e91f213b11f321294ecf0"}, {"is_disabled": 0, "is_reserved": 0, "type": "electric_scooter", "lon": -77.038567, "fusion_lon": 0.0, "lat": 38.91835733333333, "rental_uris": {"android": "https://dc.lft.to/lastmile_qr_scan", "ios": "https://dc.lft.to/lastmile_qr_scan"}, "fusion_lat": 0.0, "name": "94000916a414e72525f854aa30aa9b5b", "bike_id": "94000916a414e72525f854aa30aa9b5b"}, {"is_disabled": 0, "is_reserved": 0, "type": "electric_scooter", "lon": -77.048614, "fusion_lon": 0.0, "lat": 38.90069783333333, "rental_uris": {"android": "https://dc.lft.to/lastmile_qr_scan", "ios": "https://dc.lft.to/lastmile_qr_scan"}, "fusion_lat": 0.0, "name": "da78f8f2e224e8571f6d3e5059c528be", "bike_id": "da78f8f2e224e8571f6d3e5059c528be"}, {"is_disabled": 0, "is_reserved": 0, "type": "electric_scooter", "lon": -77.03348366666667, "fusion_lon": 0.0, "lat": 38.895722666666664, "rental_uris": {"android": "https://dc.lft.to/lastmile_qr_scan", "ios": "https://dc.lft.to/lastmile_qr_scan"}, "fusion_lat": 0.0, "name": "b11e36ac773d0d6d0937e3e0ef2dee1f", "bike_id": "b11e36ac773d0d6d0937e3e0ef2dee1f"}, {"is_disabled": 0, "is_reserved": 0, "type": "electric_scooter", "lon": -76.99517333333333, "fusion_lon": 0.0, "lat": 38.89482866666667, "rental_uris": {"android": "https://dc.lft.to/lastmile_qr_scan", "ios": "https://dc.lft.to/lastmile_qr_scan"}, "fusion_lat": 0.0, "name": "9de995890aa370f5a9ecf5495b086759", "bike_id": "9de995890aa370f5a9ecf5495b086759"}, {"is_disabled": 0, "is_reserved": 0, "type": "electric_scooter", "lon": -77.05003316666667, "fusion_lon": 0.0, "lat": 38.905125166666664, "rental_uris": {"android": "https://dc.lft.to/lastmile_qr_scan", "ios": "https://dc.lft.to/lastmile_qr_scan"}, "fusion_lat": 0.0, "name": "f961c02bd04f92c6d3f56877cafd07b3", "bike_id": "f961c02bd04f92c6d3f56877cafd07b3"}, {"is_disabled": 0, "is_reserved": 0, "type": "electric_scooter", "lon": -77.02290033333334, "fusion_lon": 0.0, "lat": 38.89059566666667, "rental_uris": {"android": "https://dc.lft.to/lastmile_qr_scan", "ios": "https://dc.lft.to/lastmile_qr_scan"}, "fusion_lat": 0.0, "name": "fdc9526a408529c92887d9cfd8f09288", "bike_id": "fdc9526a408529c92887d9cfd8f09288"}, {"is_disabled": 0, "is_reserved": 0, "type": "electric_scooter", "lon": -77.04256366666667, "fusion_lon": 0.0, "lat": 38.914167166666665, "rental_uris": {"android": "https://dc.lft.to/lastmile_qr_scan", "ios": "https://dc.lft.to/lastmile_qr_scan"}, "fusion_lat": 0.0, "name": "e6e05595aa92ad630d0e77369276d9d0", "bike_id": "e6e05595aa92ad630d0e77369276d9d0"}, {"is_disabled": 0, "is_reserved": 0, "type": "electric_scooter", "lon": -77.04168566666667, "fusion_lon": 0.0, "lat": 38.900529666666664, "rental_uris": {"android": "https://dc.lft.to/lastmile_qr_scan", "ios": "https://dc.lft.to/lastmile_qr_scan"}, "fusion_lat": 0.0, "name": "863cbdc85ddd2e49071467606c9a39c2", "bike_id": "863cbdc85ddd2e49071467606c9a39c2"}, {"is_disabled": 0, "is_reserved": 0, "type": "electric_scooter", "lon": -77.01355033333333, "fusion_lon": 0.0, "lat": 38.928703666666664, "rental_uris": {"android": "https://dc.lft.to/lastmile_qr_scan", "ios": "https://dc.lft.to/lastmile_qr_scan"}, "fusion_lat": 0.0, "name": "210f10358b518a0702904588ad4b4e7e", "bike_id": "210f10358b518a0702904588ad4b4e7e"}, {"is_disabled": 0, "is_reserved": 0, "type": "electric_scooter", "lon": -77.04429866666666, "fusion_lon": 0.0, "lat": 38.912591166666665, "rental_uris": {"android": "https://dc.lft.to/lastmile_qr_scan", "ios": "https://dc.lft.to/lastmile_qr_scan"}, "fusion_lat": 0.0, "name": "91dc8e9d4f3dd0fdbdf0a966a24a9329", "bike_id": "91dc8e9d4f3dd0fdbdf0a966a24a9329"}, {"is_disabled": 0, "is_reserved": 0, "type": "electric_scooter", "lon": -77.03438983333334, "fusion_lon": 0.0, "lat": 38.909741333333336, "rental_uris": {"android": "https://dc.lft.to/lastmile_qr_scan", "ios": "https://dc.lft.to/lastmile_qr_scan"}, "fusion_lat": 0.0, "name": "3fa80fba4c4424518e64a78bc358e305", "bike_id": "3fa80fba4c4424518e64a78bc358e305"}, {"is_disabled": 0, "is_reserved": 0, "type": "electric_scooter", "lon": -77.05408366666667, "fusion_lon": 0.0, "lat": 38.90254433333333, "rental_uris": {"android": "https://dc.lft.to/lastmile_qr_scan", "ios": "https://dc.lft.to/lastmile_qr_scan"}, "fusion_lat": 0.0, "name": "61435ae114069ce0a471221ba0da5fa2", "bike_id": "61435ae114069ce0a471221ba0da5fa2"}, {"is_disabled": 0, "is_reserved": 0, "type": "electric_bike", "lon": -76.90539933333334, "fusion_lon": 0.0, "lat": 38.8973495, "rental_uris": {"android": "https://dc.lft.to/lastmile_qr_scan", "ios": "https://dc.lft.to/lastmile_qr_scan"}, "fusion_lat": 0.0, "name": "f9056bfc7a318261c1152de21165545b", "bike_id": "f9056bfc7a318261c1152de21165545b"}, {"is_disabled": 0, "is_reserved": 0, "type": "electric_scooter", "lon": -77.0153515, "fusion_lon": 0.0, "lat": 38.8874185, "rental_uris": {"android": "https://dc.lft.to/lastmile_qr_scan", "ios": "https://dc.lft.to/lastmile_qr_scan"}, "fusion_lat": 0.0, "name": "79a0b943b79819ce97e11f1fab519f29", "bike_id": "79a0b943b79819ce97e11f1fab519f29"}, {"is_disabled": 0, "is_reserved": 0, "type": "electric_scooter", "lon": -77.04113833333334, "fusion_lon": 0.0, "lat": 38.916985833333335, "rental_uris": {"android": "https://dc.lft.to/lastmile_qr_scan", "ios": "https://dc.lft.to/lastmile_qr_scan"}, "fusion_lat": 0.0, "name": "6aa828f65ec1f801cc49fa61040f1e00", "bike_id": "6aa828f65ec1f801cc49fa61040f1e00"}, {"is_disabled": 0, "is_reserved": 0, "type": "electric_scooter", "lon": -77.0634975, "fusion_lon": 0.0, "lat": 38.944393833333336, "rental_uris": {"android": "https://dc.lft.to/lastmile_qr_scan", "ios": "https://dc.lft.to/lastmile_qr_scan"}, "fusion_lat": 0.0, "name": "362aa344d10b12fa1c30eff1097f57d6", "bike_id": "362aa344d10b12fa1c30eff1097f57d6"}, {"is_disabled": 0, "is_reserved": 0, "type": "electric_scooter", "lon": -77.03849966666667, "fusion_lon": 0.0, "lat": 38.9163125, "rental_uris": {"android": "https://dc.lft.to/lastmile_qr_scan", "ios": "https://dc.lft.to/lastmile_qr_scan"}, "fusion_lat": 0.0, "name": "379987c59cfd3540543e85d909a83679", "bike_id": "379987c59cfd3540543e85d909a83679"}, {"is_disabled": 0, "is_reserved": 0, "type": "electric_scooter", "lon": -77.07273616666667, "fusion_lon": 0.0, "lat": 38.934726166666664, "rental_uris": {"android": "https://dc.lft.to/lastmile_qr_scan", "ios": "https://dc.lft.to/lastmile_qr_scan"}, "fusion_lat": 0.0, "name": "50aa3d034c31ededca07caebf667392f", "bike_id": "50aa3d034c31ededca07caebf667392f"}, {"is_disabled": 0, "is_reserved": 0, "type": "electric_scooter", "lon": -77.013739, "fusion_lon": 0.0, "lat": 38.886421, "rental_uris": {"android": "https://dc.lft.to/lastmile_qr_scan", "ios": "https://dc.lft.to/lastmile_qr_scan"}, "fusion_lat": 0.0, "name": "0988bc6bcc8addd526f6d9007f81fd46", "bike_id": "0988bc6bcc8addd526f6d9007f81fd46"}, {"is_disabled": 0, "is_reserved": 0, "type": "electric_scooter", "lon": -76.9922875, "fusion_lon": 0.0, "lat": 38.89887783333333, "rental_uris": {"android": "https://dc.lft.to/lastmile_qr_scan", "ios": "https://dc.lft.to/lastmile_qr_scan"}, "fusion_lat": 0.0, "name": "feaccfbdc420d949c6ede106c7d547ed", "bike_id": "feaccfbdc420d949c6ede106c7d547ed"}, {"is_disabled": 0, "is_reserved": 0, "type": "electric_bike", "lon": -77.14778016666666, "fusion_lon": 0.0, "lat": 39.09597466666666, "rental_uris": {"android": "https://dc.lft.to/lastmile_qr_scan", "ios": "https://dc.lft.to/lastmile_qr_scan"}, "fusion_lat": 0.0, "name": "b1677114e1901a4187261a8c410b3d17", "bike_id": "b1677114e1901a4187261a8c410b3d17"}, {"is_disabled": 0, "is_reserved": 0, "type": "electric_scooter", "lon": -77.0257185, "fusion_lon": 0.0, "lat": 38.899628, "rental_uris": {"android": "https://dc.lft.to/lastmile_qr_scan", "ios": "https://dc.lft.to/lastmile_qr_scan"}, "fusion_lat": 0.0, "name": "c7c48d0bc5e37f8c33c0efd76622b907", "bike_id": "c7c48d0bc5e37f8c33c0efd76622b907"}, {"is_disabled": 0, "is_reserved": 0, "type": "electric_scooter", "lon": -77.04128183333333, "fusion_lon": 0.0, "lat": 38.9170735, "rental_uris": {"android": "https://dc.lft.to/lastmile_qr_scan", "ios": "https://dc.lft.to/lastmile_qr_scan"}, "fusion_lat": 0.0, "name": "d5f99f914217898933281bae4b109848", "bike_id": "d5f99f914217898933281bae4b109848"}, {"is_disabled": 0, "is_reserved": 0, "type": "electric_scooter", "lon": -76.996926, "fusion_lon": 0.0, "lat": 38.86031416666667, "rental_uris": {"android": "https://dc.lft.to/lastmile_qr_scan", "ios": "https://dc.lft.to/lastmile_qr_scan"}, "fusion_lat": 0.0, "name": "da64d24642004305c29d26f3ac665e15", "bike_id": "da64d24642004305c29d26f3ac665e15"}, {"is_disabled": 0, "is_reserved": 0, "type": "electric_bike", "lon": -77.09585233333334, "fusion_lon": 0.0, "lat": 38.837843666666664, "rental_uris": {"android": "https://dc.lft.to/lastmile_qr_scan", "ios": "https://dc.lft.to/lastmile_qr_scan"}, "fusion_lat": 0.0, "name": "ec3058e5c89ed67550f2607c21670b68", "bike_id": "ec3058e5c89ed67550f2607c21670b68"}, {"is_disabled": 0, "is_reserved": 0, "type": "electric_bike", "lon": -77.04303983333334, "fusion_lon": 0.0, "lat": 38.902280833333336, "rental_uris": {"android": "https://dc.lft.to/lastmile_qr_scan", "ios": "https://dc.lft.to/lastmile_qr_scan"}, "fusion_lat": 0.0, "name": "c38340d97d58d57b696a0bd3303d7e26", "bike_id": "c38340d97d58d57b696a0bd3303d7e26"}, {"is_disabled": 0, "is_reserved": 0, "type": "electric_scooter", "lon": -77.0500565, "fusion_lon": 0.0, "lat": 38.892293333333335, "rental_uris": {"android": "https://dc.lft.to/lastmile_qr_scan", "ios": "https://dc.lft.to/lastmile_qr_scan"}, "fusion_lat": 0.0, "name": "4d5633193e00427afeed9368a36c6af1", "bike_id": "4d5633193e00427afeed9368a36c6af1"}, {"is_disabled": 0, "is_reserved": 0, "type": "electric_scooter", "lon": -77.0461195, "fusion_lon": 0.0, "lat": 38.9171055, "rental_uris": {"android": "https://dc.lft.to/lastmile_qr_scan", "ios": "https://dc.lft.to/lastmile_qr_scan"}, "fusion_lat": 0.0, "name": "e5a014c5bb7f74b199e70782b1093b15", "bike_id": "e5a014c5bb7f74b199e70782b1093b15"}, {"is_disabled": 0, "is_reserved": 0, "type": "electric_scooter", "lon": -76.94887683333333, "fusion_lon": 0.0, "lat": 38.895117666666664, "rental_uris": {"android": "https://dc.lft.to/lastmile_qr_scan", "ios": "https://dc.lft.to/lastmile_qr_scan"}, "fusion_lat": 0.0, "name": "2153aef6b4ddd38f2e374e2de292a9dd", "bike_id": "2153aef6b4ddd38f2e374e2de292a9dd"}, {"is_disabled": 0, "is_reserved": 0, "type": "electric_scooter", "lon": -77.05422283333333, "fusion_lon": 0.0, "lat": 38.899207833333335, "rental_uris": {"android": "https://dc.lft.to/lastmile_qr_scan", "ios": "https://dc.lft.to/lastmile_qr_scan"}, "fusion_lat": 0.0, "name": "1766f4552df3739672e41b2847d27017", "bike_id": "1766f4552df3739672e41b2847d27017"}, {"is_disabled": 0, "is_reserved": 0, "type": "electric_scooter", "lon": -77.038394, "fusion_lon": 0.0, "lat": 38.9033285, "rental_uris": {"android": "https://dc.lft.to/lastmile_qr_scan", "ios": "https://dc.lft.to/lastmile_qr_scan"}, "fusion_lat": 0.0, "name": "8eb6cfdc923b5e10a4a7324587b50d84", "bike_id": "8eb6cfdc923b5e10a4a7324587b50d84"}, {"is_disabled": 0, "is_reserved": 0, "type": "electric_scooter", "lon": -77.00830616666667, "fusion_lon": 0.0, "lat": 38.912599666666665, "rental_uris": {"android": "https://dc.lft.to/lastmile_qr_scan", "ios": "https://dc.lft.to/lastmile_qr_scan"}, "fusion_lat": 0.0, "name": "454eab7b001e265faeda727b8705130e", "bike_id": "454eab7b001e265faeda727b8705130e"}, {"is_disabled": 0, "is_reserved": 0, "type": "electric_bike", "lon": -76.88908833333333, "fusion_lon": 0.0, "lat": 38.9259285, "rental_uris": {"android": "https://dc.lft.to/lastmile_qr_scan", "ios": "https://dc.lft.to/lastmile_qr_scan"}, "fusion_lat": 0.0, "name": "b4498e2ecb50f3ad33376f3901779df5", "bike_id": "b4498e2ecb50f3ad33376f3901779df5"}, {"is_disabled": 0, "is_reserved": 0, "type": "electric_scooter", "lon": -77.02087216666666, "fusion_lon": 0.0, "lat": 38.93010666666667, "rental_uris": {"android": "https://dc.lft.to/lastmile_qr_scan", "ios": "https://dc.lft.to/lastmile_qr_scan"}, "fusion_lat": 0.0, "name": "6398adf9e68b0b25c00cab0651e9af8a", "bike_id": "6398adf9e68b0b25c00cab0651e9af8a"}, {"is_disabled": 0, "is_reserved": 0, "type": "electric_scooter", "lon": -77.0515, "fusion_lon": 0.0, "lat": 38.9057545, "rental_uris": {"android": "https://dc.lft.to/lastmile_qr_scan", "ios": "https://dc.lft.to/lastmile_qr_scan"}, "fusion_lat": 0.0, "name": "e8d4205b9edb1f45ce65d4221e9ea947", "bike_id": "e8d4205b9edb1f45ce65d4221e9ea947"}, {"is_disabled": 0, "is_reserved": 0, "type": "electric_bike", "lon": -76.95222116666666, "fusion_lon": 0.0, "lat": 38.892368166666664, "rental_uris": {"android": "https://dc.lft.to/lastmile_qr_scan", "ios": "https://dc.lft.to/lastmile_qr_scan"}, "fusion_lat": 0.0, "name": "b328d552bf8d9804c6b8798ec6db20c7", "bike_id": "b328d552bf8d9804c6b8798ec6db20c7"}, {"is_disabled": 0, "is_reserved": 0, "type": "electric_scooter", "lon": -77.01411766666666, "fusion_lon": 0.0, "lat": 38.92823766666667, "rental_uris": {"android": "https://dc.lft.to/lastmile_qr_scan", "ios": "https://dc.lft.to/lastmile_qr_scan"}, "fusion_lat": 0.0, "name": "ce835625a4b35cd7a62570810a95586f", "bike_id": "ce835625a4b35cd7a62570810a95586f"}, {"is_disabled": 0, "is_reserved": 0, "type": "electric_scooter", "lon": -77.00332533333334, "fusion_lon": 0.0, "lat": 38.8935815, "rental_uris": {"android": "https://dc.lft.to/lastmile_qr_scan", "ios": "https://dc.lft.to/lastmile_qr_scan"}, "fusion_lat": 0.0, "name": "0007f9b71515b6319ac2c93392342ae5", "bike_id": "0007f9b71515b6319ac2c93392342ae5"}, {"is_disabled": 0, "is_reserved": 0, "type": "electric_scooter", "lon": -77.03300516666667, "fusion_lon": 0.0, "lat": 38.90960883333333, "rental_uris": {"android": "https://dc.lft.to/lastmile_qr_scan", "ios": "https://dc.lft.to/lastmile_qr_scan"}, "fusion_lat": 0.0, "name": "fe3cc6eca388803c1597d60c77ae1034", "bike_id": "fe3cc6eca388803c1597d60c77ae1034"}, {"is_disabled": 0, "is_reserved": 0, "type": "electric_scooter", "lon": -77.03049683333333, "fusion_lon": 0.0, "lat": 38.899739333333336, "rental_uris": {"android": "https://dc.lft.to/lastmile_qr_scan", "ios": "https://dc.lft.to/lastmile_qr_scan"}, "fusion_lat": 0.0, "name": "e494be77fffe8e9c1c556779d6198e12", "bike_id": "e494be77fffe8e9c1c556779d6198e12"}, {"is_disabled": 0, "is_reserved": 0, "type": "electric_bike", "lon": -77.04363566666666, "fusion_lon": 0.0, "lat": 38.83183316666667, "rental_uris": {"android": "https://dc.lft.to/lastmile_qr_scan", "ios": "https://dc.lft.to/lastmile_qr_scan"}, "fusion_lat": 0.0, "name": "2dcd422abf340d8c4716bcbfffa47ee2", "bike_id": "2dcd422abf340d8c4716bcbfffa47ee2"}, {"is_disabled": 0, "is_reserved": 0, "type": "electric_scooter", "lon": -76.99001866666667, "fusion_lon": 0.0, "lat": 38.865085666666666, "rental_uris": {"android": "https://dc.lft.to/lastmile_qr_scan", "ios": "https://dc.lft.to/lastmile_qr_scan"}, "fusion_lat": 0.0, "name": "47bf4452cb1c3a05bd7b36eca54b3f26", "bike_id": "47bf4452cb1c3a05bd7b36eca54b3f26"}, {"is_disabled": 0, "is_reserved": 0, "type": "electric_scooter", "lon": -77.02496466666666, "fusion_lon": 0.0, "lat": 38.91806, "rental_uris": {"android": "https://dc.lft.to/lastmile_qr_scan", "ios": "https://dc.lft.to/lastmile_qr_scan"}, "fusion_lat": 0.0, "name": "493b13ddcc45d62014c0665352fd07c1", "bike_id": "493b13ddcc45d62014c0665352fd07c1"}, {"is_disabled": 0, "is_reserved": 0, "type": "electric_scooter", "lon": -77.0161315, "fusion_lon": 0.0, "lat": 38.88745083333333, "rental_uris": {"android": "https://dc.lft.to/lastmile_qr_scan", "ios": "https://dc.lft.to/lastmile_qr_scan"}, "fusion_lat": 0.0, "name": "a6336caf6f6f1ac6046a1b7e32b7746a", "bike_id": "a6336caf6f6f1ac6046a1b7e32b7746a"}, {"is_disabled": 0, "is_reserved": 0, "type": "electric_bike", "lon": -76.98332983333333, "fusion_lon": 0.0, "lat": 38.966053333333335, "rental_uris": {"android": "https://dc.lft.to/lastmile_qr_scan", "ios": "https://dc.lft.to/lastmile_qr_scan"}, "fusion_lat": 0.0, "name": "984905785b681c5bca9e439c2c13b57c", "bike_id": "984905785b681c5bca9e439c2c13b57c"}, {"is_disabled": 0, "is_reserved": 0, "type": "electric_scooter", "lon": -76.93375466666667, "fusion_lon": 0.0, "lat": 38.8992285, "rental_uris": {"android": "https://dc.lft.to/lastmile_qr_scan", "ios": "https://dc.lft.to/lastmile_qr_scan"}, "fusion_lat": 0.0, "name": "6f7eabb0a216991739e7ede87a665068", "bike_id": "6f7eabb0a216991739e7ede87a665068"}, {"is_disabled": 0, "is_reserved": 0, "type": "electric_scooter", "lon": -77.02848033333333, "fusion_lon": 0.0, "lat": 38.922375333333335, "rental_uris": {"android": "https://dc.lft.to/lastmile_qr_scan", "ios": "https://dc.lft.to/lastmile_qr_scan"}, "fusion_lat": 0.0, "name": "88a9f97fc7a144d570fbffd2635fd6e0", "bike_id": "88a9f97fc7a144d570fbffd2635fd6e0"}, {"is_disabled": 0, "is_reserved": 0, "type": "electric_scooter", "lon": -77.03634466666666, "fusion_lon": 0.0, "lat": 38.906842166666664, "rental_uris": {"android": "https://dc.lft.to/lastmile_qr_scan", "ios": "https://dc.lft.to/lastmile_qr_scan"}, "fusion_lat": 0.0, "name": "ac12f681fcd2ad516a44e31452a1b291", "bike_id": "ac12f681fcd2ad516a44e31452a1b291"}, {"is_disabled": 0, "is_reserved": 0, "type": "electric_scooter", "lon": -77.0091345, "fusion_lon": 0.0, "lat": 38.895600333333334, "rental_uris": {"android": "https://dc.lft.to/lastmile_qr_scan", "ios": "https://dc.lft.to/lastmile_qr_scan"}, "fusion_lat": 0.0, "name": "ed9a7ae4a482ee5eda72d06eb3fc4bd5", "bike_id": "ed9a7ae4a482ee5eda72d06eb3fc4bd5"}, {"is_disabled": 0, "is_reserved": 0, "type": "electric_scooter", "lon": -77.02482633333334, "fusion_lon": 0.0, "lat": 38.93880733333334, "rental_uris": {"android": "https://dc.lft.to/lastmile_qr_scan", "ios": "https://dc.lft.to/lastmile_qr_scan"}, "fusion_lat": 0.0, "name": "6386c9e0ac9cadf518695151aec0a9ad", "bike_id": "6386c9e0ac9cadf518695151aec0a9ad"}, {"is_disabled": 0, "is_reserved": 0, "type": "electric_scooter", "lon": -77.046896, "fusion_lon": 0.0, "lat": 38.91589616666667, "rental_uris": {"android": "https://dc.lft.to/lastmile_qr_scan", "ios": "https://dc.lft.to/lastmile_qr_scan"}, "fusion_lat": 0.0, "name": "8f929c3c14841cf829eeacbcc7b93f1a", "bike_id": "8f929c3c14841cf829eeacbcc7b93f1a"}, {"is_disabled": 0, "is_reserved": 0, "type": "electric_scooter", "lon": -77.05103433333333, "fusion_lon": 0.0, "lat": 38.923610833333335, "rental_uris": {"android": "https://dc.lft.to/lastmile_qr_scan", "ios": "https://dc.lft.to/lastmile_qr_scan"}, "fusion_lat": 0.0, "name": "5a14259f63267237418990ee15e86dee", "bike_id": "5a14259f63267237418990ee15e86dee"}, {"is_disabled": 0, "is_reserved": 0, "type": "electric_scooter", "lon": -77.0325415, "fusion_lon": 0.0, "lat": 38.9148755, "rental_uris": {"android": "https://dc.lft.to/lastmile_qr_scan", "ios": "https://dc.lft.to/lastmile_qr_scan"}, "fusion_lat": 0.0, "name": "137e53c4183a87b9c7858c64980ee5c2", "bike_id": "137e53c4183a87b9c7858c64980ee5c2"}, {"is_disabled": 0, "is_reserved": 0, "type": "electric_scooter", "lon": -77.0315845, "fusion_lon": 0.0, "lat": 38.920055166666664, "rental_uris": {"android": "https://dc.lft.to/lastmile_qr_scan", "ios": "https://dc.lft.to/lastmile_qr_scan"}, "fusion_lat": 0.0, "name": "4be6c36f82ea83a26a7bc12f744a9fb3", "bike_id": "4be6c36f82ea83a26a7bc12f744a9fb3"}, {"is_disabled": 0, "is_reserved": 0, "type": "electric_scooter", "lon": -77.03993883333334, "fusion_lon": 0.0, "lat": 38.90360783333333, "rental_uris": {"android": "https://dc.lft.to/lastmile_qr_scan", "ios": "https://dc.lft.to/lastmile_qr_scan"}, "fusion_lat": 0.0, "name": "a541bacdbb79b07b6fab37e2840319da", "bike_id": "a541bacdbb79b07b6fab37e2840319da"}, {"is_disabled": 0, "is_reserved": 0, "type": "electric_scooter", "lon": -77.04128266666666, "fusion_lon": 0.0, "lat": 38.89925566666667, "rental_uris": {"android": "https://dc.lft.to/lastmile_qr_scan", "ios": "https://dc.lft.to/lastmile_qr_scan"}, "fusion_lat": 0.0, "name": "1b9ea719f41507800b093d3b58c52e89", "bike_id": "1b9ea719f41507800b093d3b58c52e89"}, {"is_disabled": 0, "is_reserved": 0, "type": "electric_scooter", "lon": -77.035794, "fusion_lon": 0.0, "lat": 38.90762133333333, "rental_uris": {"android": "https://dc.lft.to/lastmile_qr_scan", "ios": "https://dc.lft.to/lastmile_qr_scan"}, "fusion_lat": 0.0, "name": "d9dbd0a00bf80e11e2557ccefd58e709", "bike_id": "d9dbd0a00bf80e11e2557ccefd58e709"}, {"is_disabled": 0, "is_reserved": 0, "type": "electric_scooter", "lon": -77.022223, "fusion_lon": 0.0, "lat": 38.935517833333336, "rental_uris": {"android": "https://dc.lft.to/lastmile_qr_scan", "ios": "https://dc.lft.to/lastmile_qr_scan"}, "fusion_lat": 0.0, "name": "c1941efce17df3f0d6f932e26600e1df", "bike_id": "c1941efce17df3f0d6f932e26600e1df"}, {"is_disabled": 0, "is_reserved": 0, "type": "electric_scooter", "lon": -77.02213533333334, "fusion_lon": 0.0, "lat": 38.887403166666665, "rental_uris": {"android": "https://dc.lft.to/lastmile_qr_scan", "ios": "https://dc.lft.to/lastmile_qr_scan"}, "fusion_lat": 0.0, "name": "b6e860a3d5d5883cad7f5c83fb7243dc", "bike_id": "b6e860a3d5d5883cad7f5c83fb7243dc"}, {"is_disabled": 0, "is_reserved": 0, "type": "electric_bike", "lon": -76.90761433333333, "fusion_lon": 0.0, "lat": 38.9243785, "rental_uris": {"android": "https://dc.lft.to/lastmile_qr_scan", "ios": "https://dc.lft.to/lastmile_qr_scan"}, "fusion_lat": 0.0, "name": "d503e4e9eace4cf155584e3058940515", "bike_id": "d503e4e9eace4cf155584e3058940515"}, {"is_disabled": 0, "is_reserved": 0, "type": "electric_scooter", "lon": -77.05039416666666, "fusion_lon": 0.0, "lat": 38.92359733333333, "rental_uris": {"android": "https://dc.lft.to/lastmile_qr_scan", "ios": "https://dc.lft.to/lastmile_qr_scan"}, "fusion_lat": 0.0, "name": "0692b57458e0eba944fac53faa09d378", "bike_id": "0692b57458e0eba944fac53faa09d378"}, {"is_disabled": 0, "is_reserved": 0, "type": "electric_scooter", "lon": -77.03350116666667, "fusion_lon": 0.0, "lat": 38.8962465, "rental_uris": {"android": "https://dc.lft.to/lastmile_qr_scan", "ios": "https://dc.lft.to/lastmile_qr_scan"}, "fusion_lat": 0.0, "name": "ae17f99e1f73032cf7af811b2846b374", "bike_id": "ae17f99e1f73032cf7af811b2846b374"}, {"is_disabled": 0, "is_reserved": 0, "type": "electric_scooter", "lon": -77.03860766666666, "fusion_lon": 0.0, "lat": 38.9180685, "rental_uris": {"android": "https://dc.lft.to/lastmile_qr_scan", "ios": "https://dc.lft.to/lastmile_qr_scan"}, "fusion_lat": 0.0, "name": "96596880fefb734212d961f938fc6c6c", "bike_id": "96596880fefb734212d961f938fc6c6c"}, {"is_disabled": 0, "is_reserved": 0, "type": "electric_scooter", "lon": -77.032124, "fusion_lon": 0.0, "lat": 38.887087333333334, "rental_uris": {"android": "https://dc.lft.to/lastmile_qr_scan", "ios": "https://dc.lft.to/lastmile_qr_scan"}, "fusion_lat": 0.0, "name": "00840fa17e11a90b8d0a70885ad09329", "bike_id": "00840fa17e11a90b8d0a70885ad09329"}, {"is_disabled": 0, "is_reserved": 0, "type": "electric_scooter", "lon": -77.04368183333334, "fusion_lon": 0.0, "lat": 38.90263933333333, "rental_uris": {"android": "https://dc.lft.to/lastmile_qr_scan", "ios": "https://dc.lft.to/lastmile_qr_scan"}, "fusion_lat": 0.0, "name": "f34d06bfc884e071b3ac8d02c2607a1d", "bike_id": "f34d06bfc884e071b3ac8d02c2607a1d"}, {"is_disabled": 0, "is_reserved": 0, "type": "electric_scooter", "lon": -77.0227855, "fusion_lon": 0.0, "lat": 38.897343, "rental_uris": {"android": "https://dc.lft.to/lastmile_qr_scan", "ios": "https://dc.lft.to/lastmile_qr_scan"}, "fusion_lat": 0.0, "name": "56d602fe58c4e2f8ff2327f451075c08", "bike_id": "56d602fe58c4e2f8ff2327f451075c08"}, {"is_disabled": 0, "is_reserved": 0, "type": "electric_bike", "lon": -76.98205866666666, "fusion_lon": 0.0, "lat": 38.985014166666666, "rental_uris": {"android": "https://dc.lft.to/lastmile_qr_scan", "ios": "https://dc.lft.to/lastmile_qr_scan"}, "fusion_lat": 0.0, "name": "968d4b1e2be918e69bbb2876ca5fd029", "bike_id": "968d4b1e2be918e69bbb2876ca5fd029"}, {"is_disabled": 0, "is_reserved": 0, "type": "electric_scooter", "lon": -77.03179366666667, "fusion_lon": 0.0, "lat": 38.9191515, "rental_uris": {"android": "https://dc.lft.to/lastmile_qr_scan", "ios": "https://dc.lft.to/lastmile_qr_scan"}, "fusion_lat": 0.0, "name": "8672f96b8ac69cd59cee5b03029abfdf", "bike_id": "8672f96b8ac69cd59cee5b03029abfdf"}, {"is_disabled": 0, "is_reserved": 0, "type": "electric_scooter", "lon": -77.04843666666666, "fusion_lon": 0.0, "lat": 38.888351, "rental_uris": {"android": "https://dc.lft.to/lastmile_qr_scan", "ios": "https://dc.lft.to/lastmile_qr_scan"}, "fusion_lat": 0.0, "name": "78328b0736fb910a08d002f3cd12ad21", "bike_id": "78328b0736fb910a08d002f3cd12ad21"}, {"is_disabled": 0, "is_reserved": 0, "type": "electric_scooter", "lon": -77.03152783333333, "fusion_lon": 0.0, "lat": 38.927202, "rental_uris": {"android": "https://dc.lft.to/lastmile_qr_scan", "ios": "https://dc.lft.to/lastmile_qr_scan"}, "fusion_lat": 0.0, "name": "2c85eab611b162694853cb36aad1cb8f", "bike_id": "2c85eab611b162694853cb36aad1cb8f"}, {"is_disabled": 0, "is_reserved": 0, "type": "electric_scooter", "lon": -77.0375965, "fusion_lon": 0.0, "lat": 38.929060166666666, "rental_uris": {"android": "https://dc.lft.to/lastmile_qr_scan", "ios": "https://dc.lft.to/lastmile_qr_scan"}, "fusion_lat": 0.0, "name": "6384a844502d20800141cadc95f184fd", "bike_id": "6384a844502d20800141cadc95f184fd"}, {"is_disabled": 0, "is_reserved": 0, "type": "electric_scooter", "lon": -77.025864, "fusion_lon": 0.0, "lat": 38.942133166666665, "rental_uris": {"android": "https://dc.lft.to/lastmile_qr_scan", "ios": "https://dc.lft.to/lastmile_qr_scan"}, "fusion_lat": 0.0, "name": "270649d08d897ca2633abfa7a19d4fa9", "bike_id": "270649d08d897ca2633abfa7a19d4fa9"}, {"is_disabled": 0, "is_reserved": 0, "type": "electric_scooter", "lon": -77.02163683333333, "fusion_lon": 0.0, "lat": 38.9261145, "rental_uris": {"android": "https://dc.lft.to/lastmile_qr_scan", "ios": "https://dc.lft.to/lastmile_qr_scan"}, "fusion_lat": 0.0, "name": "b021e3698b61582c3424debbe4d49be0", "bike_id": "b021e3698b61582c3424debbe4d49be0"}, {"is_disabled": 0, "is_reserved": 0, "type": "electric_scooter", "lon": -77.0058205, "fusion_lon": 0.0, "lat": 38.875269, "rental_uris": {"android": "https://dc.lft.to/lastmile_qr_scan", "ios": "https://dc.lft.to/lastmile_qr_scan"}, "fusion_lat": 0.0, "name": "510971779600c6b01817fae86b1758f0", "bike_id": "510971779600c6b01817fae86b1758f0"}, {"is_disabled": 0, "is_reserved": 0, "type": "electric_scooter", "lon": -77.041578, "fusion_lon": 0.0, "lat": 38.9141995, "rental_uris": {"android": "https://dc.lft.to/lastmile_qr_scan", "ios": "https://dc.lft.to/lastmile_qr_scan"}, "fusion_lat": 0.0, "name": "ff1b534c32561ca7ef94d1d065114b22", "bike_id": "ff1b534c32561ca7ef94d1d065114b22"}, {"is_disabled": 0, "is_reserved": 0, "type": "electric_scooter", "lon": -76.93052033333333, "fusion_lon": 0.0, "lat": 38.897917166666666, "rental_uris": {"android": "https://dc.lft.to/lastmile_qr_scan", "ios": "https://dc.lft.to/lastmile_qr_scan"}, "fusion_lat": 0.0, "name": "b359cf6b093cc3dc6390ffb40bbd7187", "bike_id": "b359cf6b093cc3dc6390ffb40bbd7187"}, {"is_disabled": 0, "is_reserved": 0, "type": "electric_bike", "lon": -77.1240405, "fusion_lon": 0.0, "lat": 38.89336383333333, "rental_uris": {"android": "https://dc.lft.to/lastmile_qr_scan", "ios": "https://dc.lft.to/lastmile_qr_scan"}, "fusion_lat": 0.0, "name": "ab5c53008d17459076d84c837f7afa1e", "bike_id": "ab5c53008d17459076d84c837f7afa1e"}, {"is_disabled": 0, "is_reserved": 0, "type": "electric_scooter", "lon": -76.99635233333333, "fusion_lon": 0.0, "lat": 38.846232, "rental_uris": {"android": "https://dc.lft.to/lastmile_qr_scan", "ios": "https://dc.lft.to/lastmile_qr_scan"}, "fusion_lat": 0.0, "name": "408c51c225d5aeb610bb969840e88398", "bike_id": "408c51c225d5aeb610bb969840e88398"}, {"is_disabled": 0, "is_reserved": 0, "type": "electric_scooter", "lon": -77.03852666666667, "fusion_lon": 0.0, "lat": 38.9217005, "rental_uris": {"android": "https://dc.lft.to/lastmile_qr_scan", "ios": "https://dc.lft.to/lastmile_qr_scan"}, "fusion_lat": 0.0, "name": "108c034fb63c355c85900bbab9fa1980", "bike_id": "108c034fb63c355c85900bbab9fa1980"}, {"is_disabled": 0, "is_reserved": 0, "type": "electric_scooter", "lon": -77.03644566666667, "fusion_lon": 0.0, "lat": 38.903165333333334, "rental_uris": {"android": "https://dc.lft.to/lastmile_qr_scan", "ios": "https://dc.lft.to/lastmile_qr_scan"}, "fusion_lat": 0.0, "name": "1c424247e0b4d1a6942fba3d966b2d0a", "bike_id": "1c424247e0b4d1a6942fba3d966b2d0a"}, {"is_disabled": 0, "is_reserved": 0, "type": "electric_scooter", "lon": -77.0338015, "fusion_lon": 0.0, "lat": 38.898428833333334, "rental_uris": {"android": "https://dc.lft.to/lastmile_qr_scan", "ios": "https://dc.lft.to/lastmile_qr_scan"}, "fusion_lat": 0.0, "name": "c1e0909ffc812d4b1fcd2ee2eb9e77dd", "bike_id": "c1e0909ffc812d4b1fcd2ee2eb9e77dd"}, {"is_disabled": 0, "is_reserved": 0, "type": "electric_scooter", "lon": -77.03919433333333, "fusion_lon": 0.0, "lat": 38.9191265, "rental_uris": {"android": "https://dc.lft.to/lastmile_qr_scan", "ios": "https://dc.lft.to/lastmile_qr_scan"}, "fusion_lat": 0.0, "name": "ab63d62d35e590f690803fff66b7296c", "bike_id": "ab63d62d35e590f690803fff66b7296c"}, {"is_disabled": 0, "is_reserved": 0, "type": "electric_bike", "lon": -77.03343833333334, "fusion_lon": 0.0, "lat": 38.898306166666664, "rental_uris": {"android": "https://dc.lft.to/lastmile_qr_scan", "ios": "https://dc.lft.to/lastmile_qr_scan"}, "fusion_lat": 0.0, "name": "dd6641fd70413cead110d571c6ef45fd", "bike_id": "dd6641fd70413cead110d571c6ef45fd"}, {"is_disabled": 0, "is_reserved": 0, "type": "electric_scooter", "lon": -77.0317765, "fusion_lon": 0.0, "lat": 38.914167666666664, "rental_uris": {"android": "https://dc.lft.to/lastmile_qr_scan", "ios": "https://dc.lft.to/lastmile_qr_scan"}, "fusion_lat": 0.0, "name": "22da3d243345f87d427d97117a89f052", "bike_id": "22da3d243345f87d427d97117a89f052"}, {"is_disabled": 0, "is_reserved": 0, "type": "electric_scooter", "lon": -77.03430016666667, "fusion_lon": 0.0, "lat": 38.92731416666667, "rental_uris": {"android": "https://dc.lft.to/lastmile_qr_scan", "ios": "https://dc.lft.to/lastmile_qr_scan"}, "fusion_lat": 0.0, "name": "e2bfc34d0a81d05ee3118182b2ea0e79", "bike_id": "e2bfc34d0a81d05ee3118182b2ea0e79"}, {"is_disabled": 0, "is_reserved": 0, "type": "electric_scooter", "lon": -77.02960316666666, "fusion_lon": 0.0, "lat": 38.8962835, "rental_uris": {"android": "https://dc.lft.to/lastmile_qr_scan", "ios": "https://dc.lft.to/lastmile_qr_scan"}, "fusion_lat": 0.0, "name": "24328d34eba33a18e023b11a4b809793", "bike_id": "24328d34eba33a18e023b11a4b809793"}, {"is_disabled": 0, "is_reserved": 0, "type": "electric_scooter", "lon": -77.03340033333333, "fusion_lon": 0.0, "lat": 38.91812083333333, "rental_uris": {"android": "https://dc.lft.to/lastmile_qr_scan", "ios": "https://dc.lft.to/lastmile_qr_scan"}, "fusion_lat": 0.0, "name": "e84403093b9dd41cc86bec35252b6092", "bike_id": "e84403093b9dd41cc86bec35252b6092"}, {"is_disabled": 0, "is_reserved": 0, "type": "electric_scooter", "lon": -77.02225933333334, "fusion_lon": 0.0, "lat": 38.93552716666667, "rental_uris": {"android": "https://dc.lft.to/lastmile_qr_scan", "ios": "https://dc.lft.to/lastmile_qr_scan"}, "fusion_lat": 0.0, "name": "ad60d66e0db237fda8bd096b7351dacc", "bike_id": "ad60d66e0db237fda8bd096b7351dacc"}, {"is_disabled": 0, "is_reserved": 0, "type": "electric_scooter", "lon": -76.99089916666667, "fusion_lon": 0.0, "lat": 38.86243016666667, "rental_uris": {"android": "https://dc.lft.to/lastmile_qr_scan", "ios": "https://dc.lft.to/lastmile_qr_scan"}, "fusion_lat": 0.0, "name": "4815e6e6141fdcf9f2e74b8061fce278", "bike_id": "4815e6e6141fdcf9f2e74b8061fce278"}, {"is_disabled": 0, "is_reserved": 0, "type": "electric_scooter", "lon": -77.02933883333333, "fusion_lon": 0.0, "lat": 38.8983, "rental_uris": {"android": "https://dc.lft.to/lastmile_qr_scan", "ios": "https://dc.lft.to/lastmile_qr_scan"}, "fusion_lat": 0.0, "name": "04189cfc552acdb74037a644813af18d", "bike_id": "04189cfc552acdb74037a644813af18d"}, {"is_disabled": 0, "is_reserved": 0, "type": "electric_scooter", "lon": -77.0244945, "fusion_lon": 0.0, "lat": 38.934183, "rental_uris": {"android": "https://dc.lft.to/lastmile_qr_scan", "ios": "https://dc.lft.to/lastmile_qr_scan"}, "fusion_lat": 0.0, "name": "4ddd8cd385509353e23eb3e698d1076f", "bike_id": "4ddd8cd385509353e23eb3e698d1076f"}, {"is_disabled": 0, "is_reserved": 0, "type": "electric_scooter", "lon": -77.01102816666666, "fusion_lon": 0.0, "lat": 38.907877, "rental_uris": {"android": "https://dc.lft.to/lastmile_qr_scan", "ios": "https://dc.lft.to/lastmile_qr_scan"}, "fusion_lat": 0.0, "name": "57dc1afa2ad915016051d25ee3f93804", "bike_id": "57dc1afa2ad915016051d25ee3f93804"}, {"is_disabled": 0, "is_reserved": 0, "type": "electric_scooter", "lon": -77.028752, "fusion_lon": 0.0, "lat": 38.9223815, "rental_uris": {"android": "https://dc.lft.to/lastmile_qr_scan", "ios": "https://dc.lft.to/lastmile_qr_scan"}, "fusion_lat": 0.0, "name": "33caed6e3edfb83147e4f1acced25840", "bike_id": "33caed6e3edfb83147e4f1acced25840"}, {"is_disabled": 0, "is_reserved": 0, "type": "electric_scooter", "lon": -77.06025116666666, "fusion_lon": 0.0, "lat": 38.90530483333333, "rental_uris": {"android": "https://dc.lft.to/lastmile_qr_scan", "ios": "https://dc.lft.to/lastmile_qr_scan"}, "fusion_lat": 0.0, "name": "1ccc28c1d60e42c4a68e3e48d60f5dc6", "bike_id": "1ccc28c1d60e42c4a68e3e48d60f5dc6"}, {"is_disabled": 0, "is_reserved": 0, "type": "electric_scooter", "lon": -77.04059933333333, "fusion_lon": 0.0, "lat": 38.92543366666666, "rental_uris": {"android": "https://dc.lft.to/lastmile_qr_scan", "ios": "https://dc.lft.to/lastmile_qr_scan"}, "fusion_lat": 0.0, "name": "70c914b2a6c1d04e167dcdc4d644ed3f", "bike_id": "70c914b2a6c1d04e167dcdc4d644ed3f"}, {"is_disabled": 0, "is_reserved": 0, "type": "electric_scooter", "lon": -76.9315255, "fusion_lon": 0.0, "lat": 38.898514666666664, "rental_uris": {"android": "https://dc.lft.to/lastmile_qr_scan", "ios": "https://dc.lft.to/lastmile_qr_scan"}, "fusion_lat": 0.0, "name": "1b6abdf0c486ef6d9244de3f4db3af99", "bike_id": "1b6abdf0c486ef6d9244de3f4db3af99"}, {"is_disabled": 0, "is_reserved": 0, "type": "electric_scooter", "lon": -77.0221385, "fusion_lon": 0.0, "lat": 38.887396833333334, "rental_uris": {"android": "https://dc.lft.to/lastmile_qr_scan", "ios": "https://dc.lft.to/lastmile_qr_scan"}, "fusion_lat": 0.0, "name": "1462a92bf2a6ae4d61378f1f479e0ce9", "bike_id": "1462a92bf2a6ae4d61378f1f479e0ce9"}, {"is_disabled": 0, "is_reserved": 0, "type": "electric_scooter", "lon": -76.9808395, "fusion_lon": 0.0, "lat": 38.870085833333334, "rental_uris": {"android": "https://dc.lft.to/lastmile_qr_scan", "ios": "https://dc.lft.to/lastmile_qr_scan"}, "fusion_lat": 0.0, "name": "98c8d6995b7167733dece7f15a382308", "bike_id": "98c8d6995b7167733dece7f15a382308"}, {"is_disabled": 0, "is_reserved": 0, "type": "electric_scooter", "lon": -76.987275, "fusion_lon": 0.0, "lat": 38.867133833333334, "rental_uris": {"android": "https://dc.lft.to/lastmile_qr_scan", "ios": "https://dc.lft.to/lastmile_qr_scan"}, "fusion_lat": 0.0, "name": "ba422f77f3b1d08f22bfca3607dc0a65", "bike_id": "ba422f77f3b1d08f22bfca3607dc0a65"}, {"is_disabled": 0, "is_reserved": 0, "type": "electric_scooter", "lon": -77.03472666666667, "fusion_lon": 0.0, "lat": 38.90317566666667, "rental_uris": {"android": "https://dc.lft.to/lastmile_qr_scan", "ios": "https://dc.lft.to/lastmile_qr_scan"}, "fusion_lat": 0.0, "name": "c78fbcdc07793aa62933d0a8958c2465", "bike_id": "c78fbcdc07793aa62933d0a8958c2465"}, {"is_disabled": 0, "is_reserved": 0, "type": "electric_scooter", "lon": -77.03624433333333, "fusion_lon": 0.0, "lat": 38.918591166666666, "rental_uris": {"android": "https://dc.lft.to/lastmile_qr_scan", "ios": "https://dc.lft.to/lastmile_qr_scan"}, "fusion_lat": 0.0, "name": "5a000fb83af34aa3b86fd8bc031e5f14", "bike_id": "5a000fb83af34aa3b86fd8bc031e5f14"}, {"is_disabled": 0, "is_reserved": 0, "type": "electric_scooter", "lon": -77.06655016666667, "fusion_lon": 0.0, "lat": 38.9497275, "rental_uris": {"android": "https://dc.lft.to/lastmile_qr_scan", "ios": "https://dc.lft.to/lastmile_qr_scan"}, "fusion_lat": 0.0, "name": "580ffb03e7730a066bc427007c0100db", "bike_id": "580ffb03e7730a066bc427007c0100db"}, {"is_disabled": 0, "is_reserved": 0, "type": "electric_scooter", "lon": -77.0199885, "fusion_lon": 0.0, "lat": 38.9663955, "rental_uris": {"android": "https://dc.lft.to/lastmile_qr_scan", "ios": "https://dc.lft.to/lastmile_qr_scan"}, "fusion_lat": 0.0, "name": "adf086cf72c5b0bc6b3d8d43ae1a413e", "bike_id": "adf086cf72c5b0bc6b3d8d43ae1a413e"}, {"is_disabled": 0, "is_reserved": 0, "type": "electric_scooter", "lon": -77.03159566666666, "fusion_lon": 0.0, "lat": 38.91815966666667, "rental_uris": {"android": "https://dc.lft.to/lastmile_qr_scan", "ios": "https://dc.lft.to/lastmile_qr_scan"}, "fusion_lat": 0.0, "name": "c200926d693bf2cecce6d010db36618b", "bike_id": "c200926d693bf2cecce6d010db36618b"}, {"is_disabled": 0, "is_reserved": 0, "type": "electric_scooter", "lon": -77.04182033333333, "fusion_lon": 0.0, "lat": 38.9080655, "rental_uris": {"android": "https://dc.lft.to/lastmile_qr_scan", "ios": "https://dc.lft.to/lastmile_qr_scan"}, "fusion_lat": 0.0, "name": "aab63cf64e0c039022ffd646bb554286", "bike_id": "aab63cf64e0c039022ffd646bb554286"}, {"is_disabled": 0, "is_reserved": 0, "type": "electric_scooter", "lon": -77.0318705, "fusion_lon": 0.0, "lat": 38.933154333333334, "rental_uris": {"android": "https://dc.lft.to/lastmile_qr_scan", "ios": "https://dc.lft.to/lastmile_qr_scan"}, "fusion_lat": 0.0, "name": "c2aa382388866194f2eb59896f84a038", "bike_id": "c2aa382388866194f2eb59896f84a038"}, {"is_disabled": 0, "is_reserved": 0, "type": "electric_scooter", "lon": -77.02576533333334, "fusion_lon": 0.0, "lat": 38.892208, "rental_uris": {"android": "https://dc.lft.to/lastmile_qr_scan", "ios": "https://dc.lft.to/lastmile_qr_scan"}, "fusion_lat": 0.0, "name": "5ded64140e2ed3cc55e9962f2056d366", "bike_id": "5ded64140e2ed3cc55e9962f2056d366"}, {"is_disabled": 0, "is_reserved": 0, "type": "electric_scooter", "lon": -77.05024466666667, "fusion_lon": 0.0, "lat": 38.905351833333334, "rental_uris": {"android": "https://dc.lft.to/lastmile_qr_scan", "ios": "https://dc.lft.to/lastmile_qr_scan"}, "fusion_lat": 0.0, "name": "4fd534112a466258e9a9370a94eb6f5e", "bike_id": "4fd534112a466258e9a9370a94eb6f5e"}, {"is_disabled": 0, "is_reserved": 0, "type": "electric_scooter", "lon": -76.99081833333334, "fusion_lon": 0.0, "lat": 38.86052216666667, "rental_uris": {"android": "https://dc.lft.to/lastmile_qr_scan", "ios": "https://dc.lft.to/lastmile_qr_scan"}, "fusion_lat": 0.0, "name": "b37231868ff6210730267d534f882249", "bike_id": "b37231868ff6210730267d534f882249"}, {"is_disabled": 0, "is_reserved": 0, "type": "electric_scooter", "lon": -77.05403533333333, "fusion_lon": 0.0, "lat": 38.905114, "rental_uris": {"android": "https://dc.lft.to/lastmile_qr_scan", "ios": "https://dc.lft.to/lastmile_qr_scan"}, "fusion_lat": 0.0, "name": "03ba8e2f70ebacebd54ce4f4e8e54a65", "bike_id": "03ba8e2f70ebacebd54ce4f4e8e54a65"}, {"is_disabled": 0, "is_reserved": 0, "type": "electric_scooter", "lon": -77.03238666666667, "fusion_lon": 0.0, "lat": 38.9016245, "rental_uris": {"android": "https://dc.lft.to/lastmile_qr_scan", "ios": "https://dc.lft.to/lastmile_qr_scan"}, "fusion_lat": 0.0, "name": "9de61e3be46fea55dbed1001eadafec9", "bike_id": "9de61e3be46fea55dbed1001eadafec9"}, {"is_disabled": 0, "is_reserved": 0, "type": "electric_scooter", "lon": -77.0467555, "fusion_lon": 0.0, "lat": 38.892221666666664, "rental_uris": {"android": "https://dc.lft.to/lastmile_qr_scan", "ios": "https://dc.lft.to/lastmile_qr_scan"}, "fusion_lat": 0.0, "name": "f87e621c7657df0fde11a72f4bcd4eaa", "bike_id": "f87e621c7657df0fde11a72f4bcd4eaa"}, {"is_disabled": 0, "is_reserved": 0, "type": "electric_scooter", "lon": -76.988144, "fusion_lon": 0.0, "lat": 38.90012866666667, "rental_uris": {"android": "https://dc.lft.to/lastmile_qr_scan", "ios": "https://dc.lft.to/lastmile_qr_scan"}, "fusion_lat": 0.0, "name": "b60bb1c9165efa46a273fbaa7e4a9efb", "bike_id": "b60bb1c9165efa46a273fbaa7e4a9efb"}, {"is_disabled": 0, "is_reserved": 0, "type": "electric_bike", "lon": -77.036535, "fusion_lon": 0.0, "lat": 38.90739266666667, "rental_uris": {"android": "https://dc.lft.to/lastmile_qr_scan", "ios": "https://dc.lft.to/lastmile_qr_scan"}, "fusion_lat": 0.0, "name": "c36cb2b3ee6f89935361e7b9b76293df", "bike_id": "c36cb2b3ee6f89935361e7b9b76293df"}, {"is_disabled": 0, "is_reserved": 0, "type": "electric_scooter", "lon": -76.94917033333333, "fusion_lon": 0.0, "lat": 38.89489916666667, "rental_uris": {"android": "https://dc.lft.to/lastmile_qr_scan", "ios": "https://dc.lft.to/lastmile_qr_scan"}, "fusion_lat": 0.0, "name": "c9b2f2df8b7417a929056bf51e80b266", "bike_id": "c9b2f2df8b7417a929056bf51e80b266"}, {"is_disabled": 0, "is_reserved": 0, "type": "electric_scooter", "lon": -76.99006266666666, "fusion_lon": 0.0, "lat": 38.86506216666667, "rental_uris": {"android": "https://dc.lft.to/lastmile_qr_scan", "ios": "https://dc.lft.to/lastmile_qr_scan"}, "fusion_lat": 0.0, "name": "b0252572743d9916ffca89d7b20074fd", "bike_id": "b0252572743d9916ffca89d7b20074fd"}, {"is_disabled": 0, "is_reserved": 0, "type": "electric_scooter", "lon": -76.98677116666667, "fusion_lon": 0.0, "lat": 38.9014375, "rental_uris": {"android": "https://dc.lft.to/lastmile_qr_scan", "ios": "https://dc.lft.to/lastmile_qr_scan"}, "fusion_lat": 0.0, "name": "340d77e5c9ddfde0d33be0cdf649c8a8", "bike_id": "340d77e5c9ddfde0d33be0cdf649c8a8"}, {"is_disabled": 0, "is_reserved": 0, "type": "electric_bike", "lon": -77.04307133333333, "fusion_lon": 0.0, "lat": 39.054484333333335, "rental_uris": {"android": "https://dc.lft.to/lastmile_qr_scan", "ios": "https://dc.lft.to/lastmile_qr_scan"}, "fusion_lat": 0.0, "name": "51926e1da25583f933a9d2dbb478cab3", "bike_id": "51926e1da25583f933a9d2dbb478cab3"}, {"is_disabled": 0, "is_reserved": 0, "type": "electric_scooter", "lon": -77.01828733333333, "fusion_lon": 0.0, "lat": 38.9220405, "rental_uris": {"android": "https://dc.lft.to/lastmile_qr_scan", "ios": "https://dc.lft.to/lastmile_qr_scan"}, "fusion_lat": 0.0, "name": "b6267846379e49d0002307b32ad190e7", "bike_id": "b6267846379e49d0002307b32ad190e7"}, {"is_disabled": 0, "is_reserved": 0, "type": "electric_scooter", "lon": -77.04478466666667, "fusion_lon": 0.0, "lat": 38.9083595, "rental_uris": {"android": "https://dc.lft.to/lastmile_qr_scan", "ios": "https://dc.lft.to/lastmile_qr_scan"}, "fusion_lat": 0.0, "name": "834bd5d53618f9e67b3a154892f76c6c", "bike_id": "834bd5d53618f9e67b3a154892f76c6c"}, {"is_disabled": 0, "is_reserved": 0, "type": "electric_scooter", "lon": -77.03281366666667, "fusion_lon": 0.0, "lat": 38.934421, "rental_uris": {"android": "https://dc.lft.to/lastmile_qr_scan", "ios": "https://dc.lft.to/lastmile_qr_scan"}, "fusion_lat": 0.0, "name": "1595593781ec32ce33f714cf945f15d6", "bike_id": "1595593781ec32ce33f714cf945f15d6"}, {"is_disabled": 0, "is_reserved": 0, "type": "electric_scooter", "lon": -77.0341755, "fusion_lon": 0.0, "lat": 38.909587333333334, "rental_uris": {"android": "https://dc.lft.to/lastmile_qr_scan", "ios": "https://dc.lft.to/lastmile_qr_scan"}, "fusion_lat": 0.0, "name": "fe0c2192d69bc589f376030078317502", "bike_id": "fe0c2192d69bc589f376030078317502"}, {"is_disabled": 0, "is_reserved": 0, "type": "electric_scooter", "lon": -76.9318535, "fusion_lon": 0.0, "lat": 38.8987615, "rental_uris": {"android": "https://dc.lft.to/lastmile_qr_scan", "ios": "https://dc.lft.to/lastmile_qr_scan"}, "fusion_lat": 0.0, "name": "92b3525d4712c53f78643ad83c0aba41", "bike_id": "92b3525d4712c53f78643ad83c0aba41"}, {"is_disabled": 0, "is_reserved": 0, "type": "electric_bike", "lon": -77.00680833333334, "fusion_lon": 0.0, "lat": 38.94514483333333, "rental_uris": {"android": "https://dc.lft.to/lastmile_qr_scan", "ios": "https://dc.lft.to/lastmile_qr_scan"}, "fusion_lat": 0.0, "name": "813d3692bad71953dc863fbc4ecdbdba", "bike_id": "813d3692bad71953dc863fbc4ecdbdba"}, {"is_disabled": 0, "is_reserved": 0, "type": "electric_scooter", "lon": -77.02904483333333, "fusion_lon": 0.0, "lat": 38.90161033333333, "rental_uris": {"android": "https://dc.lft.to/lastmile_qr_scan", "ios": "https://dc.lft.to/lastmile_qr_scan"}, "fusion_lat": 0.0, "name": "ec4392fef766ca05ed3d0e844c5fa00a", "bike_id": "ec4392fef766ca05ed3d0e844c5fa00a"}, {"is_disabled": 0, "is_reserved": 0, "type": "electric_scooter", "lon": -77.033855, "fusion_lon": 0.0, "lat": 38.921626833333335, "rental_uris": {"android": "https://dc.lft.to/lastmile_qr_scan", "ios": "https://dc.lft.to/lastmile_qr_scan"}, "fusion_lat": 0.0, "name": "664149f2322e4e086244d4013ec050b9", "bike_id": "664149f2322e4e086244d4013ec050b9"}, {"is_disabled": 0, "is_reserved": 0, "type": "electric_scooter", "lon": -77.00140166666667, "fusion_lon": 0.0, "lat": 38.8738735, "rental_uris": {"android": "https://dc.lft.to/lastmile_qr_scan", "ios": "https://dc.lft.to/lastmile_qr_scan"}, "fusion_lat": 0.0, "name": "092d92456436b7b2a2b159af31eaecc4", "bike_id": "092d92456436b7b2a2b159af31eaecc4"}, {"is_disabled": 0, "is_reserved": 0, "type": "electric_scooter", "lon": -77.02700366666667, "fusion_lon": 0.0, "lat": 38.94982316666667, "rental_uris": {"android": "https://dc.lft.to/lastmile_qr_scan", "ios": "https://dc.lft.to/lastmile_qr_scan"}, "fusion_lat": 0.0, "name": "8c7fcd4f196123c2e26c5fea4e514f91", "bike_id": "8c7fcd4f196123c2e26c5fea4e514f91"}, {"is_disabled": 0, "is_reserved": 0, "type": "electric_scooter", "lon": -77.02804633333334, "fusion_lon": 0.0, "lat": 38.96215466666666, "rental_uris": {"android": "https://dc.lft.to/lastmile_qr_scan", "ios": "https://dc.lft.to/lastmile_qr_scan"}, "fusion_lat": 0.0, "name": "461ce8537f423ce22c761697df1b3ff1", "bike_id": "461ce8537f423ce22c761697df1b3ff1"}, {"is_disabled": 0, "is_reserved": 0, "type": "electric_scooter", "lon": -77.04244933333334, "fusion_lon": 0.0, "lat": 38.92221033333333, "rental_uris": {"android": "https://dc.lft.to/lastmile_qr_scan", "ios": "https://dc.lft.to/lastmile_qr_scan"}, "fusion_lat": 0.0, "name": "66714e2b7fd5f63a6829bc1884e168c7", "bike_id": "66714e2b7fd5f63a6829bc1884e168c7"}, {"is_disabled": 0, "is_reserved": 0, "type": "electric_scooter", "lon": -77.03635066666666, "fusion_lon": 0.0, "lat": 38.930471, "rental_uris": {"android": "https://dc.lft.to/lastmile_qr_scan", "ios": "https://dc.lft.to/lastmile_qr_scan"}, "fusion_lat": 0.0, "name": "a628a97abb0e61beeb0132fa59ec956e", "bike_id": "a628a97abb0e61beeb0132fa59ec956e"}, {"is_disabled": 0, "is_reserved": 0, "type": "electric_scooter", "lon": -77.00337533333334, "fusion_lon": 0.0, "lat": 38.895238166666665, "rental_uris": {"android": "https://dc.lft.to/lastmile_qr_scan", "ios": "https://dc.lft.to/lastmile_qr_scan"}, "fusion_lat": 0.0, "name": "929fc4f28058df61dc2d3c3e98f27167", "bike_id": "929fc4f28058df61dc2d3c3e98f27167"}, {"is_disabled": 0, "is_reserved": 0, "type": "electric_scooter", "lon": -77.07250083333334, "fusion_lon": 0.0, "lat": 38.90780933333333, "rental_uris": {"android": "https://dc.lft.to/lastmile_qr_scan", "ios": "https://dc.lft.to/lastmile_qr_scan"}, "fusion_lat": 0.0, "name": "82ef7841c2f2ce40f484076643b5a490", "bike_id": "82ef7841c2f2ce40f484076643b5a490"}, {"is_disabled": 0, "is_reserved": 0, "type": "electric_scooter", "lon": -77.04936416666666, "fusion_lon": 0.0, "lat": 38.907393666666664, "rental_uris": {"android": "https://dc.lft.to/lastmile_qr_scan", "ios": "https://dc.lft.to/lastmile_qr_scan"}, "fusion_lat": 0.0, "name": "cb8abc6ad5dec104b31a010469779685", "bike_id": "cb8abc6ad5dec104b31a010469779685"}, {"is_disabled": 0, "is_reserved": 0, "type": "electric_scooter", "lon": -76.94289366666666, "fusion_lon": 0.0, "lat": 38.882999833333336, "rental_uris": {"android": "https://dc.lft.to/lastmile_qr_scan", "ios": "https://dc.lft.to/lastmile_qr_scan"}, "fusion_lat": 0.0, "name": "a665de59fa13da734d4e7c79780ef119", "bike_id": "a665de59fa13da734d4e7c79780ef119"}, {"is_disabled": 0, "is_reserved": 0, "type": "electric_scooter", "lon": -77.01212833333334, "fusion_lon": 0.0, "lat": 38.91823216666667, "rental_uris": {"android": "https://dc.lft.to/lastmile_qr_scan", "ios": "https://dc.lft.to/lastmile_qr_scan"}, "fusion_lat": 0.0, "name": "8e006b4fbd011421f93a131623039741", "bike_id": "8e006b4fbd011421f93a131623039741"}, {"is_disabled": 0, "is_reserved": 0, "type": "electric_bike", "lon": -77.05138266666667, "fusion_lon": 0.0, "lat": 38.92529366666667, "rental_uris": {"android": "https://dc.lft.to/lastmile_qr_scan", "ios": "https://dc.lft.to/lastmile_qr_scan"}, "fusion_lat": 0.0, "name": "1e862e81eb5d7f65c32b319831d537de", "bike_id": "1e862e81eb5d7f65c32b319831d537de"}, {"is_disabled": 0, "is_reserved": 0, "type": "electric_scooter", "lon": -77.0465275, "fusion_lon": 0.0, "lat": 38.89352216666666, "rental_uris": {"android": "https://dc.lft.to/lastmile_qr_scan", "ios": "https://dc.lft.to/lastmile_qr_scan"}, "fusion_lat": 0.0, "name": "5207de641dfcfdadec5261f6612a0955", "bike_id": "5207de641dfcfdadec5261f6612a0955"}, {"is_disabled": 0, "is_reserved": 0, "type": "electric_scooter", "lon": -77.031838, "fusion_lon": 0.0, "lat": 38.9192585, "rental_uris": {"android": "https://dc.lft.to/lastmile_qr_scan", "ios": "https://dc.lft.to/lastmile_qr_scan"}, "fusion_lat": 0.0, "name": "e29562d4d30192baf4f4c83090abecac", "bike_id": "e29562d4d30192baf4f4c83090abecac"}, {"is_disabled": 0, "is_reserved": 0, "type": "electric_scooter", "lon": -77.04871516666667, "fusion_lon": 0.0, "lat": 38.909614166666664, "rental_uris": {"android": "https://dc.lft.to/lastmile_qr_scan", "ios": "https://dc.lft.to/lastmile_qr_scan"}, "fusion_lat": 0.0, "name": "241290554e8336655df2fb34f9c43bcf", "bike_id": "241290554e8336655df2fb34f9c43bcf"}, {"is_disabled": 0, "is_reserved": 0, "type": "electric_scooter", "lon": -77.0467015, "fusion_lon": 0.0, "lat": 38.911831166666666, "rental_uris": {"android": "https://dc.lft.to/lastmile_qr_scan", "ios": "https://dc.lft.to/lastmile_qr_scan"}, "fusion_lat": 0.0, "name": "e3c7e472552d3890c68c84fc3b48b96c", "bike_id": "e3c7e472552d3890c68c84fc3b48b96c"}, {"is_disabled": 0, "is_reserved": 0, "type": "electric_scooter", "lon": -77.0320625, "fusion_lon": 0.0, "lat": 38.913428, "rental_uris": {"android": "https://dc.lft.to/lastmile_qr_scan", "ios": "https://dc.lft.to/lastmile_qr_scan"}, "fusion_lat": 0.0, "name": "d395239a7fe3842efee6408895e3a455", "bike_id": "d395239a7fe3842efee6408895e3a455"}, {"is_disabled": 0, "is_reserved": 0, "type": "electric_scooter", "lon": -77.0049755, "fusion_lon": 0.0, "lat": 38.896918666666664, "rental_uris": {"android": "https://dc.lft.to/lastmile_qr_scan", "ios": "https://dc.lft.to/lastmile_qr_scan"}, "fusion_lat": 0.0, "name": "a1c0b0be7266e599ef27e87a3f171f87", "bike_id": "a1c0b0be7266e599ef27e87a3f171f87"}, {"is_disabled": 0, "is_reserved": 0, "type": "electric_scooter", "lon": -77.0449625, "fusion_lon": 0.0, "lat": 38.908418833333336, "rental_uris": {"android": "https://dc.lft.to/lastmile_qr_scan", "ios": "https://dc.lft.to/lastmile_qr_scan"}, "fusion_lat": 0.0, "name": "abfe9d2246c1c1b06536ad4c9e326b50", "bike_id": "abfe9d2246c1c1b06536ad4c9e326b50"}, {"is_disabled": 0, "is_reserved": 0, "type": "electric_scooter", "lon": -76.99161633333334, "fusion_lon": 0.0, "lat": 38.881423833333336, "rental_uris": {"android": "https://dc.lft.to/lastmile_qr_scan", "ios": "https://dc.lft.to/lastmile_qr_scan"}, "fusion_lat": 0.0, "name": "909e7862f061cb6f0c8bc424f1c299da", "bike_id": "909e7862f061cb6f0c8bc424f1c299da"}, {"is_disabled": 0, "is_reserved": 0, "type": "electric_scooter", "lon": -77.03350716666667, "fusion_lon": 0.0, "lat": 38.892413166666664, "rental_uris": {"android": "https://dc.lft.to/lastmile_qr_scan", "ios": "https://dc.lft.to/lastmile_qr_scan"}, "fusion_lat": 0.0, "name": "738d157c3d22b878731b0d3f22484837", "bike_id": "738d157c3d22b878731b0d3f22484837"}, {"is_disabled": 0, "is_reserved": 0, "type": "electric_scooter", "lon": -77.03470933333334, "fusion_lon": 0.0, "lat": 38.91010683333333, "rental_uris": {"android": "https://dc.lft.to/lastmile_qr_scan", "ios": "https://dc.lft.to/lastmile_qr_scan"}, "fusion_lat": 0.0, "name": "4366e51f591a9f283e52bd3975235c65", "bike_id": "4366e51f591a9f283e52bd3975235c65"}, {"is_disabled": 0, "is_reserved": 0, "type": "electric_scooter", "lon": -77.029655, "fusion_lon": 0.0, "lat": 38.904530333333334, "rental_uris": {"android": "https://dc.lft.to/lastmile_qr_scan", "ios": "https://dc.lft.to/lastmile_qr_scan"}, "fusion_lat": 0.0, "name": "9fe8120af5aa6f39119874af375734c5", "bike_id": "9fe8120af5aa6f39119874af375734c5"}, {"is_disabled": 0, "is_reserved": 0, "type": "electric_scooter", "lon": -77.02494283333333, "fusion_lon": 0.0, "lat": 38.91809, "rental_uris": {"android": "https://dc.lft.to/lastmile_qr_scan", "ios": "https://dc.lft.to/lastmile_qr_scan"}, "fusion_lat": 0.0, "name": "23a065a1bf4366c485af3ad15a6f9a8c", "bike_id": "23a065a1bf4366c485af3ad15a6f9a8c"}, {"is_disabled": 0, "is_reserved": 0, "type": "electric_scooter", "lon": -77.02161466666666, "fusion_lon": 0.0, "lat": 38.893904166666665, "rental_uris": {"android": "https://dc.lft.to/lastmile_qr_scan", "ios": "https://dc.lft.to/lastmile_qr_scan"}, "fusion_lat": 0.0, "name": "5c240fec789dcd5a0217bbe35a39c919", "bike_id": "5c240fec789dcd5a0217bbe35a39c919"}, {"is_disabled": 0, "is_reserved": 0, "type": "electric_scooter", "lon": -77.0204235, "fusion_lon": 0.0, "lat": 38.90295883333334, "rental_uris": {"android": "https://dc.lft.to/lastmile_qr_scan", "ios": "https://dc.lft.to/lastmile_qr_scan"}, "fusion_lat": 0.0, "name": "2b5a8bbb368be298dc254a2784ee2d11", "bike_id": "2b5a8bbb368be298dc254a2784ee2d11"}, {"is_disabled": 0, "is_reserved": 0, "type": "electric_scooter", "lon": -76.9869635, "fusion_lon": 0.0, "lat": 38.907038166666666, "rental_uris": {"android": "https://dc.lft.to/lastmile_qr_scan", "ios": "https://dc.lft.to/lastmile_qr_scan"}, "fusion_lat": 0.0, "name": "90a1c04022ba81ca6ded06ca1e23aa94", "bike_id": "90a1c04022ba81ca6ded06ca1e23aa94"}, {"is_disabled": 0, "is_reserved": 0, "type": "electric_scooter", "lon": -77.06982016666667, "fusion_lon": 0.0, "lat": 38.94692283333333, "rental_uris": {"android": "https://dc.lft.to/lastmile_qr_scan", "ios": "https://dc.lft.to/lastmile_qr_scan"}, "fusion_lat": 0.0, "name": "b9950a915580d9bdeb8a0dc47da77b2f", "bike_id": "b9950a915580d9bdeb8a0dc47da77b2f"}, {"is_disabled": 0, "is_reserved": 0, "type": "electric_scooter", "lon": -77.03788916666667, "fusion_lon": 0.0, "lat": 38.926257, "rental_uris": {"android": "https://dc.lft.to/lastmile_qr_scan", "ios": "https://dc.lft.to/lastmile_qr_scan"}, "fusion_lat": 0.0, "name": "aa7758d56bbf58e74ad107805bdaac9f", "bike_id": "aa7758d56bbf58e74ad107805bdaac9f"}, {"is_disabled": 0, "is_reserved": 0, "type": "electric_scooter", "lon": -77.043357, "fusion_lon": 0.0, "lat": 38.915397, "rental_uris": {"android": "https://dc.lft.to/lastmile_qr_scan", "ios": "https://dc.lft.to/lastmile_qr_scan"}, "fusion_lat": 0.0, "name": "45c311cb9c6ddf67b462d87aebd8b458", "bike_id": "45c311cb9c6ddf67b462d87aebd8b458"}, {"is_disabled": 0, "is_reserved": 0, "type": "electric_scooter", "lon": -77.03053883333334, "fusion_lon": 0.0, "lat": 38.93977133333333, "rental_uris": {"android": "https://dc.lft.to/lastmile_qr_scan", "ios": "https://dc.lft.to/lastmile_qr_scan"}, "fusion_lat": 0.0, "name": "f2da21b2296eefb8037e1ab3f6c4fbd6", "bike_id": "f2da21b2296eefb8037e1ab3f6c4fbd6"}, {"is_disabled": 0, "is_reserved": 0, "type": "electric_scooter", "lon": -77.00205066666666, "fusion_lon": 0.0, "lat": 38.891409, "rental_uris": {"android": "https://dc.lft.to/lastmile_qr_scan", "ios": "https://dc.lft.to/lastmile_qr_scan"}, "fusion_lat": 0.0, "name": "0c11567e449d99a17a7be2c5655b7b3a", "bike_id": "0c11567e449d99a17a7be2c5655b7b3a"}, {"is_disabled": 0, "is_reserved": 0, "type": "electric_scooter", "lon": -76.9939595, "fusion_lon": 0.0, "lat": 38.9216375, "rental_uris": {"android": "https://dc.lft.to/lastmile_qr_scan", "ios": "https://dc.lft.to/lastmile_qr_scan"}, "fusion_lat": 0.0, "name": "1345c13bc611f6fd30a7293e83432e13", "bike_id": "1345c13bc611f6fd30a7293e83432e13"}, {"is_disabled": 0, "is_reserved": 0, "type": "electric_scooter", "lon": -76.98603233333333, "fusion_lon": 0.0, "lat": 38.906515166666665, "rental_uris": {"android": "https://dc.lft.to/lastmile_qr_scan", "ios": "https://dc.lft.to/lastmile_qr_scan"}, "fusion_lat": 0.0, "name": "13c004ac672c7830b2088f436800ec29", "bike_id": "13c004ac672c7830b2088f436800ec29"}, {"is_disabled": 0, "is_reserved": 0, "type": "electric_scooter", "lon": -77.0438725, "fusion_lon": 0.0, "lat": 38.902303, "rental_uris": {"android": "https://dc.lft.to/lastmile_qr_scan", "ios": "https://dc.lft.to/lastmile_qr_scan"}, "fusion_lat": 0.0, "name": "114dfa2413bd2f0d4bd48978bb11868e", "bike_id": "114dfa2413bd2f0d4bd48978bb11868e"}, {"is_disabled": 0, "is_reserved": 0, "type": "electric_scooter", "lon": -77.0305735, "fusion_lon": 0.0, "lat": 38.939787333333335, "rental_uris": {"android": "https://dc.lft.to/lastmile_qr_scan", "ios": "https://dc.lft.to/lastmile_qr_scan"}, "fusion_lat": 0.0, "name": "af26c572f624dc494b0df066d50b8a39", "bike_id": "af26c572f624dc494b0df066d50b8a39"}, {"is_disabled": 0, "is_reserved": 0, "type": "electric_scooter", "lon": -77.02724016666667, "fusion_lon": 0.0, "lat": 38.90855216666667, "rental_uris": {"android": "https://dc.lft.to/lastmile_qr_scan", "ios": "https://dc.lft.to/lastmile_qr_scan"}, "fusion_lat": 0.0, "name": "17158fc43a45fc33d857331507658a80", "bike_id": "17158fc43a45fc33d857331507658a80"}, {"is_disabled": 0, "is_reserved": 0, "type": "electric_bike", "lon": -76.98046583333333, "fusion_lon": 0.0, "lat": 38.90088883333333, "rental_uris": {"android": "https://dc.lft.to/lastmile_qr_scan", "ios": "https://dc.lft.to/lastmile_qr_scan"}, "fusion_lat": 0.0, "name": "45232e6ff8bfeead9964f0b4734977a1", "bike_id": "45232e6ff8bfeead9964f0b4734977a1"}, {"is_disabled": 0, "is_reserved": 0, "type": "electric_bike", "lon": -77.36096783333333, "fusion_lon": 0.0, "lat": 38.939636, "rental_uris": {"android": "https://dc.lft.to/lastmile_qr_scan", "ios": "https://dc.lft.to/lastmile_qr_scan"}, "fusion_lat": 0.0, "name": "6546d8a7f391f66498cfeeec9490aca7", "bike_id": "6546d8a7f391f66498cfeeec9490aca7"}, {"is_disabled": 0, "is_reserved": 0, "type": "electric_scooter", "lon": -77.01369283333334, "fusion_lon": 0.0, "lat": 38.87898966666667, "rental_uris": {"android": "https://dc.lft.to/lastmile_qr_scan", "ios": "https://dc.lft.to/lastmile_qr_scan"}, "fusion_lat": 0.0, "name": "7ad8667e0adca301c2c5c5145f01bfac", "bike_id": "7ad8667e0adca301c2c5c5145f01bfac"}, {"is_disabled": 0, "is_reserved": 0, "type": "electric_bike", "lon": -76.97997316666667, "fusion_lon": 0.0, "lat": 38.877582333333336, "rental_uris": {"android": "https://dc.lft.to/lastmile_qr_scan", "ios": "https://dc.lft.to/lastmile_qr_scan"}, "fusion_lat": 0.0, "name": "b5420ff8d52a8e89f2d12663ae3b49b9", "bike_id": "b5420ff8d52a8e89f2d12663ae3b49b9"}, {"is_disabled": 0, "is_reserved": 0, "type": "electric_scooter", "lon": -77.021757, "fusion_lon": 0.0, "lat": 38.94293566666666, "rental_uris": {"android": "https://dc.lft.to/lastmile_qr_scan", "ios": "https://dc.lft.to/lastmile_qr_scan"}, "fusion_lat": 0.0, "name": "e14dc5868631ba5939b37737e3d089d4", "bike_id": "e14dc5868631ba5939b37737e3d089d4"}, {"is_disabled": 0, "is_reserved": 0, "type": "electric_scooter", "lon": -77.04356133333333, "fusion_lon": 0.0, "lat": 38.89823533333333, "rental_uris": {"android": "https://dc.lft.to/lastmile_qr_scan", "ios": "https://dc.lft.to/lastmile_qr_scan"}, "fusion_lat": 0.0, "name": "f8f588b8d90e4e083d5eaf58b2a38bae", "bike_id": "f8f588b8d90e4e083d5eaf58b2a38bae"}, {"is_disabled": 0, "is_reserved": 0, "type": "electric_scooter", "lon": -77.035678, "fusion_lon": 0.0, "lat": 38.903847, "rental_uris": {"android": "https://dc.lft.to/lastmile_qr_scan", "ios": "https://dc.lft.to/lastmile_qr_scan"}, "fusion_lat": 0.0, "name": "12c5f63674d15d82fd7af471041af808", "bike_id": "12c5f63674d15d82fd7af471041af808"}, {"is_disabled": 0, "is_reserved": 0, "type": "electric_scooter", "lon": -77.00336466666667, "fusion_lon": 0.0, "lat": 38.893551333333335, "rental_uris": {"android": "https://dc.lft.to/lastmile_qr_scan", "ios": "https://dc.lft.to/lastmile_qr_scan"}, "fusion_lat": 0.0, "name": "c40fa4dd0057564407adbfbaadfbad0a", "bike_id": "c40fa4dd0057564407adbfbaadfbad0a"}, {"is_disabled": 0, "is_reserved": 0, "type": "electric_scooter", "lon": -77.023518, "fusion_lon": 0.0, "lat": 38.922659333333335, "rental_uris": {"android": "https://dc.lft.to/lastmile_qr_scan", "ios": "https://dc.lft.to/lastmile_qr_scan"}, "fusion_lat": 0.0, "name": "382a5f7455e317a30b129304b826c68e", "bike_id": "382a5f7455e317a30b129304b826c68e"}, {"is_disabled": 0, "is_reserved": 0, "type": "electric_bike", "lon": -76.952096, "fusion_lon": 0.0, "lat": 38.9366995, "rental_uris": {"android": "https://dc.lft.to/lastmile_qr_scan", "ios": "https://dc.lft.to/lastmile_qr_scan"}, "fusion_lat": 0.0, "name": "ab2d53fe5cfe7a8cac45f8b588c61df7", "bike_id": "ab2d53fe5cfe7a8cac45f8b588c61df7"}, {"is_disabled": 0, "is_reserved": 0, "type": "electric_bike", "lon": -77.08800333333333, "fusion_lon": 0.0, "lat": 38.83178783333334, "rental_uris": {"android": "https://dc.lft.to/lastmile_qr_scan", "ios": "https://dc.lft.to/lastmile_qr_scan"}, "fusion_lat": 0.0, "name": "1b281d6d60a211d68ddc508903bff1d0", "bike_id": "1b281d6d60a211d68ddc508903bff1d0"}, {"is_disabled": 0, "is_reserved": 0, "type": "electric_scooter", "lon": -77.01161916666666, "fusion_lon": 0.0, "lat": 38.89747, "rental_uris": {"android": "https://dc.lft.to/lastmile_qr_scan", "ios": "https://dc.lft.to/lastmile_qr_scan"}, "fusion_lat": 0.0, "name": "94f98e4ccf19ad9384953ced41105e47", "bike_id": "94f98e4ccf19ad9384953ced41105e47"}, {"is_disabled": 0, "is_reserved": 0, "type": "electric_scooter", "lon": -77.0475875, "fusion_lon": 0.0, "lat": 38.90726766666667, "rental_uris": {"android": "https://dc.lft.to/lastmile_qr_scan", "ios": "https://dc.lft.to/lastmile_qr_scan"}, "fusion_lat": 0.0, "name": "0e4deee653e8d5b48c6ae1354a15ed41", "bike_id": "0e4deee653e8d5b48c6ae1354a15ed41"}, {"is_disabled": 0, "is_reserved": 0, "type": "electric_scooter", "lon": -76.98734733333333, "fusion_lon": 0.0, "lat": 38.86712683333333, "rental_uris": {"android": "https://dc.lft.to/lastmile_qr_scan", "ios": "https://dc.lft.to/lastmile_qr_scan"}, "fusion_lat": 0.0, "name": "e209ac35d794dab04635cbddebf53bf5", "bike_id": "e209ac35d794dab04635cbddebf53bf5"}, {"is_disabled": 0, "is_reserved": 0, "type": "electric_scooter", "lon": -77.032046, "fusion_lon": 0.0, "lat": 38.9075895, "rental_uris": {"android": "https://dc.lft.to/lastmile_qr_scan", "ios": "https://dc.lft.to/lastmile_qr_scan"}, "fusion_lat": 0.0, "name": "284f29a4fd9e87e5443e963bd050f5b6", "bike_id": "284f29a4fd9e87e5443e963bd050f5b6"}, {"is_disabled": 0, "is_reserved": 0, "type": "electric_scooter", "lon": -77.03341866666666, "fusion_lon": 0.0, "lat": 38.916950666666665, "rental_uris": {"android": "https://dc.lft.to/lastmile_qr_scan", "ios": "https://dc.lft.to/lastmile_qr_scan"}, "fusion_lat": 0.0, "name": "a095d3fec34c33a1d30af09a2139fcea", "bike_id": "a095d3fec34c33a1d30af09a2139fcea"}, {"is_disabled": 0, "is_reserved": 0, "type": "electric_scooter", "lon": -77.046293, "fusion_lon": 0.0, "lat": 38.91807583333333, "rental_uris": {"android": "https://dc.lft.to/lastmile_qr_scan", "ios": "https://dc.lft.to/lastmile_qr_scan"}, "fusion_lat": 0.0, "name": "1ab1de44c82f4800ebd676e692060bdf", "bike_id": "1ab1de44c82f4800ebd676e692060bdf"}, {"is_disabled": 0, "is_reserved": 0, "type": "electric_scooter", "lon": -77.04330633333333, "fusion_lon": 0.0, "lat": 38.92246633333333, "rental_uris": {"android": "https://dc.lft.to/lastmile_qr_scan", "ios": "https://dc.lft.to/lastmile_qr_scan"}, "fusion_lat": 0.0, "name": "e74f2e806fd910e9d12ad51ec5b00abf", "bike_id": "e74f2e806fd910e9d12ad51ec5b00abf"}, {"is_disabled": 0, "is_reserved": 0, "type": "electric_scooter", "lon": -77.01982466666666, "fusion_lon": 0.0, "lat": 38.87781733333333, "rental_uris": {"android": "https://dc.lft.to/lastmile_qr_scan", "ios": "https://dc.lft.to/lastmile_qr_scan"}, "fusion_lat": 0.0, "name": "71ed5888cfabcf9737df96e170ac9de0", "bike_id": "71ed5888cfabcf9737df96e170ac9de0"}, {"is_disabled": 0, "is_reserved": 0, "type": "electric_scooter", "lon": -77.038425, "fusion_lon": 0.0, "lat": 38.92642883333333, "rental_uris": {"android": "https://dc.lft.to/lastmile_qr_scan", "ios": "https://dc.lft.to/lastmile_qr_scan"}, "fusion_lat": 0.0, "name": "2551bfcd7e880e27855f6a53e6e256fb", "bike_id": "2551bfcd7e880e27855f6a53e6e256fb"}, {"is_disabled": 0, "is_reserved": 0, "type": "electric_scooter", "lon": -77.0101865, "fusion_lon": 0.0, "lat": 38.9062295, "rental_uris": {"android": "https://dc.lft.to/lastmile_qr_scan", "ios": "https://dc.lft.to/lastmile_qr_scan"}, "fusion_lat": 0.0, "name": "f7655e306cba1e05c63111083c43f321", "bike_id": "f7655e306cba1e05c63111083c43f321"}, {"is_disabled": 0, "is_reserved": 0, "type": "electric_scooter", "lon": -77.03466933333333, "fusion_lon": 0.0, "lat": 38.921569166666664, "rental_uris": {"android": "https://dc.lft.to/lastmile_qr_scan", "ios": "https://dc.lft.to/lastmile_qr_scan"}, "fusion_lat": 0.0, "name": "f009cac0a030c605fc416167971da2fc", "bike_id": "f009cac0a030c605fc416167971da2fc"}, {"is_disabled": 0, "is_reserved": 0, "type": "electric_scooter", "lon": -77.02159883333333, "fusion_lon": 0.0, "lat": 38.92613716666666, "rental_uris": {"android": "https://dc.lft.to/lastmile_qr_scan", "ios": "https://dc.lft.to/lastmile_qr_scan"}, "fusion_lat": 0.0, "name": "f4371228632c29236e776588a92e458d", "bike_id": "f4371228632c29236e776588a92e458d"}, {"is_disabled": 0, "is_reserved": 0, "type": "electric_scooter", "lon": -77.04342716666666, "fusion_lon": 0.0, "lat": 38.900315666666664, "rental_uris": {"android": "https://dc.lft.to/lastmile_qr_scan", "ios": "https://dc.lft.to/lastmile_qr_scan"}, "fusion_lat": 0.0, "name": "a3f7a337bea485f90f44191ddd5749f0", "bike_id": "a3f7a337bea485f90f44191ddd5749f0"}, {"is_disabled": 0, "is_reserved": 0, "type": "electric_scooter", "lon": -76.986214, "fusion_lon": 0.0, "lat": 38.882779, "rental_uris": {"android": "https://dc.lft.to/lastmile_qr_scan", "ios": "https://dc.lft.to/lastmile_qr_scan"}, "fusion_lat": 0.0, "name": "447e9cd33521de0faeb21127276842a1", "bike_id": "447e9cd33521de0faeb21127276842a1"}, {"is_disabled": 0, "is_reserved": 0, "type": "electric_scooter", "lon": -77.02206483333333, "fusion_lon": 0.0, "lat": 38.91422416666666, "rental_uris": {"android": "https://dc.lft.to/lastmile_qr_scan", "ios": "https://dc.lft.to/lastmile_qr_scan"}, "fusion_lat": 0.0, "name": "0894d3fe3b46d527b36f963c5e080fc8", "bike_id": "0894d3fe3b46d527b36f963c5e080fc8"}, {"is_disabled": 0, "is_reserved": 0, "type": "electric_scooter", "lon": -77.026711, "fusion_lon": 0.0, "lat": 38.90002966666667, "rental_uris": {"android": "https://dc.lft.to/lastmile_qr_scan", "ios": "https://dc.lft.to/lastmile_qr_scan"}, "fusion_lat": 0.0, "name": "aa99bc72e87fbd09e816c93f1bb3d487", "bike_id": "aa99bc72e87fbd09e816c93f1bb3d487"}, {"is_disabled": 0, "is_reserved": 0, "type": "electric_scooter", "lon": -77.032338, "fusion_lon": 0.0, "lat": 38.90133933333333, "rental_uris": {"android": "https://dc.lft.to/lastmile_qr_scan", "ios": "https://dc.lft.to/lastmile_qr_scan"}, "fusion_lat": 0.0, "name": "caca3a92501ed9284ffea145632ba016", "bike_id": "caca3a92501ed9284ffea145632ba016"}, {"is_disabled": 0, "is_reserved": 0, "type": "electric_scooter", "lon": -77.021848, "fusion_lon": 0.0, "lat": 38.895142, "rental_uris": {"android": "https://dc.lft.to/lastmile_qr_scan", "ios": "https://dc.lft.to/lastmile_qr_scan"}, "fusion_lat": 0.0, "name": "9086d42d8231ff1adb0b0ee21e3bcfcf", "bike_id": "9086d42d8231ff1adb0b0ee21e3bcfcf"}, {"is_disabled": 0, "is_reserved": 0, "type": "electric_scooter", "lon": -77.0435675, "fusion_lon": 0.0, "lat": 38.92170433333333, "rental_uris": {"android": "https://dc.lft.to/lastmile_qr_scan", "ios": "https://dc.lft.to/lastmile_qr_scan"}, "fusion_lat": 0.0, "name": "41a7a78c34337baa8513c9454b91857c", "bike_id": "41a7a78c34337baa8513c9454b91857c"}, {"is_disabled": 0, "is_reserved": 0, "type": "electric_scooter", "lon": -77.04515883333333, "fusion_lon": 0.0, "lat": 38.905766166666666, "rental_uris": {"android": "https://dc.lft.to/lastmile_qr_scan", "ios": "https://dc.lft.to/lastmile_qr_scan"}, "fusion_lat": 0.0, "name": "c597d35a32a13caad809d5f4ffbd9a78", "bike_id": "c597d35a32a13caad809d5f4ffbd9a78"}, {"is_disabled": 0, "is_reserved": 0, "type": "electric_scooter", "lon": -77.02807166666666, "fusion_lon": 0.0, "lat": 38.90741883333333, "rental_uris": {"android": "https://dc.lft.to/lastmile_qr_scan", "ios": "https://dc.lft.to/lastmile_qr_scan"}, "fusion_lat": 0.0, "name": "2e8dad7a09baa1879ac3e74f0317fa96", "bike_id": "2e8dad7a09baa1879ac3e74f0317fa96"}, {"is_disabled": 0, "is_reserved": 0, "type": "electric_scooter", "lon": -76.98611933333333, "fusion_lon": 0.0, "lat": 38.903526, "rental_uris": {"android": "https://dc.lft.to/lastmile_qr_scan", "ios": "https://dc.lft.to/lastmile_qr_scan"}, "fusion_lat": 0.0, "name": "ef81b4b7fbae24fe9000112c5a2ee41f", "bike_id": "ef81b4b7fbae24fe9000112c5a2ee41f"}, {"is_disabled": 0, "is_reserved": 0, "type": "electric_scooter", "lon": -77.031844, "fusion_lon": 0.0, "lat": 38.89178716666667, "rental_uris": {"android": "https://dc.lft.to/lastmile_qr_scan", "ios": "https://dc.lft.to/lastmile_qr_scan"}, "fusion_lat": 0.0, "name": "9f061946a2583b35a6c0373525e705e8", "bike_id": "9f061946a2583b35a6c0373525e705e8"}, {"is_disabled": 0, "is_reserved": 0, "type": "electric_scooter", "lon": -77.02781066666667, "fusion_lon": 0.0, "lat": 38.910186333333336, "rental_uris": {"android": "https://dc.lft.to/lastmile_qr_scan", "ios": "https://dc.lft.to/lastmile_qr_scan"}, "fusion_lat": 0.0, "name": "4333da1b702cfc97606bd360f34c00d7", "bike_id": "4333da1b702cfc97606bd360f34c00d7"}, {"is_disabled": 0, "is_reserved": 0, "type": "electric_scooter", "lon": -77.0609835, "fusion_lon": 0.0, "lat": 38.94370116666666, "rental_uris": {"android": "https://dc.lft.to/lastmile_qr_scan", "ios": "https://dc.lft.to/lastmile_qr_scan"}, "fusion_lat": 0.0, "name": "f5f2227e4a6ea9a0418413e2d6d984e0", "bike_id": "f5f2227e4a6ea9a0418413e2d6d984e0"}, {"is_disabled": 0, "is_reserved": 0, "type": "electric_scooter", "lon": -76.93664533333333, "fusion_lon": 0.0, "lat": 38.88960633333333, "rental_uris": {"android": "https://dc.lft.to/lastmile_qr_scan", "ios": "https://dc.lft.to/lastmile_qr_scan"}, "fusion_lat": 0.0, "name": "dce20b3f0836d3fcc7d6dff358ec0aca", "bike_id": "dce20b3f0836d3fcc7d6dff358ec0aca"}, {"is_disabled": 0, "is_reserved": 0, "type": "electric_scooter", "lon": -77.03787766666666, "fusion_lon": 0.0, "lat": 38.936097, "rental_uris": {"android": "https://dc.lft.to/lastmile_qr_scan", "ios": "https://dc.lft.to/lastmile_qr_scan"}, "fusion_lat": 0.0, "name": "b514f1121fbef7613d2d20113574563b", "bike_id": "b514f1121fbef7613d2d20113574563b"}, {"is_disabled": 0, "is_reserved": 0, "type": "electric_bike", "lon": -77.01232516666667, "fusion_lon": 0.0, "lat": 38.950856, "rental_uris": {"android": "https://dc.lft.to/lastmile_qr_scan", "ios": "https://dc.lft.to/lastmile_qr_scan"}, "fusion_lat": 0.0, "name": "f9ed6f55f85c5a6c926262f4f5ac4742", "bike_id": "f9ed6f55f85c5a6c926262f4f5ac4742"}, {"is_disabled": 0, "is_reserved": 0, "type": "electric_scooter", "lon": -77.01784033333334, "fusion_lon": 0.0, "lat": 38.87696666666667, "rental_uris": {"android": "https://dc.lft.to/lastmile_qr_scan", "ios": "https://dc.lft.to/lastmile_qr_scan"}, "fusion_lat": 0.0, "name": "5a74a314c6dfd5f7c0ad9fedfc1ac94c", "bike_id": "5a74a314c6dfd5f7c0ad9fedfc1ac94c"}, {"is_disabled": 0, "is_reserved": 0, "type": "electric_scooter", "lon": -77.030593, "fusion_lon": 0.0, "lat": 38.9012535, "rental_uris": {"android": "https://dc.lft.to/lastmile_qr_scan", "ios": "https://dc.lft.to/lastmile_qr_scan"}, "fusion_lat": 0.0, "name": "c88f00a2c6978674054f2ec0b7e0f890", "bike_id": "c88f00a2c6978674054f2ec0b7e0f890"}, {"is_disabled": 0, "is_reserved": 0, "type": "electric_scooter", "lon": -76.94210383333333, "fusion_lon": 0.0, "lat": 38.889910666666665, "rental_uris": {"android": "https://dc.lft.to/lastmile_qr_scan", "ios": "https://dc.lft.to/lastmile_qr_scan"}, "fusion_lat": 0.0, "name": "cfa1ef2dd9ee80d8cf222fef5b20a305", "bike_id": "cfa1ef2dd9ee80d8cf222fef5b20a305"}, {"is_disabled": 0, "is_reserved": 0, "type": "electric_bike", "lon": -76.90977766666667, "fusion_lon": 0.0, "lat": 38.854291333333336, "rental_uris": {"android": "https://dc.lft.to/lastmile_qr_scan", "ios": "https://dc.lft.to/lastmile_qr_scan"}, "fusion_lat": 0.0, "name": "2d818095756da5f9cf30ce76341260ed", "bike_id": "2d818095756da5f9cf30ce76341260ed"}, {"is_disabled": 0, "is_reserved": 0, "type": "electric_scooter", "lon": -77.051359, "fusion_lon": 0.0, "lat": 38.907169, "rental_uris": {"android": "https://dc.lft.to/lastmile_qr_scan", "ios": "https://dc.lft.to/lastmile_qr_scan"}, "fusion_lat": 0.0, "name": "21758c4c8cea37d6de40b0f09f1966b1", "bike_id": "21758c4c8cea37d6de40b0f09f1966b1"}, {"is_disabled": 0, "is_reserved": 0, "type": "electric_scooter", "lon": -77.0101355, "fusion_lon": 0.0, "lat": 38.867121833333336, "rental_uris": {"android": "https://dc.lft.to/lastmile_qr_scan", "ios": "https://dc.lft.to/lastmile_qr_scan"}, "fusion_lat": 0.0, "name": "c8a87004e992bf0fdf43d40dc8005e22", "bike_id": "c8a87004e992bf0fdf43d40dc8005e22"}, {"is_disabled": 0, "is_reserved": 0, "type": "electric_scooter", "lon": -77.0139825, "fusion_lon": 0.0, "lat": 38.928266, "rental_uris": {"android": "https://dc.lft.to/lastmile_qr_scan", "ios": "https://dc.lft.to/lastmile_qr_scan"}, "fusion_lat": 0.0, "name": "058c00635cb4523770d534d7231543e8", "bike_id": "058c00635cb4523770d534d7231543e8"}, {"is_disabled": 0, "is_reserved": 0, "type": "electric_scooter", "lon": -77.032334, "fusion_lon": 0.0, "lat": 38.92490933333333, "rental_uris": {"android": "https://dc.lft.to/lastmile_qr_scan", "ios": "https://dc.lft.to/lastmile_qr_scan"}, "fusion_lat": 0.0, "name": "de44c300bfb18aacb842419c7d0b7f12", "bike_id": "de44c300bfb18aacb842419c7d0b7f12"}, {"is_disabled": 0, "is_reserved": 0, "type": "electric_scooter", "lon": -77.0213775, "fusion_lon": 0.0, "lat": 38.915998333333334, "rental_uris": {"android": "https://dc.lft.to/lastmile_qr_scan", "ios": "https://dc.lft.to/lastmile_qr_scan"}, "fusion_lat": 0.0, "name": "0e019ae8ca6d30263b7dbbbf67d21dbc", "bike_id": "0e019ae8ca6d30263b7dbbbf67d21dbc"}, {"is_disabled": 0, "is_reserved": 0, "type": "electric_scooter", "lon": -77.03353083333333, "fusion_lon": 0.0, "lat": 38.896252833333335, "rental_uris": {"android": "https://dc.lft.to/lastmile_qr_scan", "ios": "https://dc.lft.to/lastmile_qr_scan"}, "fusion_lat": 0.0, "name": "452aeff96dd68c42c88103b40695dedf", "bike_id": "452aeff96dd68c42c88103b40695dedf"}, {"is_disabled": 0, "is_reserved": 0, "type": "electric_scooter", "lon": -77.040937, "fusion_lon": 0.0, "lat": 38.90788, "rental_uris": {"android": "https://dc.lft.to/lastmile_qr_scan", "ios": "https://dc.lft.to/lastmile_qr_scan"}, "fusion_lat": 0.0, "name": "483c2f9004b6e32e7db3b66f5f7b6b7c", "bike_id": "483c2f9004b6e32e7db3b66f5f7b6b7c"}, {"is_disabled": 0, "is_reserved": 0, "type": "electric_scooter", "lon": -77.01893616666666, "fusion_lon": 0.0, "lat": 38.906417166666664, "rental_uris": {"android": "https://dc.lft.to/lastmile_qr_scan", "ios": "https://dc.lft.to/lastmile_qr_scan"}, "fusion_lat": 0.0, "name": "6f18fa9f77f1a05124221309b08b6f5c", "bike_id": "6f18fa9f77f1a05124221309b08b6f5c"}, {"is_disabled": 0, "is_reserved": 0, "type": "electric_scooter", "lon": -76.9652965, "fusion_lon": 0.0, "lat": 38.876279833333335, "rental_uris": {"android": "https://dc.lft.to/lastmile_qr_scan", "ios": "https://dc.lft.to/lastmile_qr_scan"}, "fusion_lat": 0.0, "name": "026d4909fbdaa7595a34be20a7b8d05c", "bike_id": "026d4909fbdaa7595a34be20a7b8d05c"}, {"is_disabled": 0, "is_reserved": 0, "type": "electric_scooter", "lon": -77.03842566666667, "fusion_lon": 0.0, "lat": 38.90267866666667, "rental_uris": {"android": "https://dc.lft.to/lastmile_qr_scan", "ios": "https://dc.lft.to/lastmile_qr_scan"}, "fusion_lat": 0.0, "name": "8c0893530b39f90542814ce5e294fd8c", "bike_id": "8c0893530b39f90542814ce5e294fd8c"}, {"is_disabled": 0, "is_reserved": 0, "type": "electric_scooter", "lon": -77.01954233333333, "fusion_lon": 0.0, "lat": 38.928493, "rental_uris": {"android": "https://dc.lft.to/lastmile_qr_scan", "ios": "https://dc.lft.to/lastmile_qr_scan"}, "fusion_lat": 0.0, "name": "bf7e70875bf340a2e68e5869c8243b42", "bike_id": "bf7e70875bf340a2e68e5869c8243b42"}, {"is_disabled": 0, "is_reserved": 0, "type": "electric_scooter", "lon": -77.03500333333334, "fusion_lon": 0.0, "lat": 38.917001166666665, "rental_uris": {"android": "https://dc.lft.to/lastmile_qr_scan", "ios": "https://dc.lft.to/lastmile_qr_scan"}, "fusion_lat": 0.0, "name": "80e9d82874c5300decc69df4342446b6", "bike_id": "80e9d82874c5300decc69df4342446b6"}, {"is_disabled": 0, "is_reserved": 0, "type": "electric_scooter", "lon": -77.0467825, "fusion_lon": 0.0, "lat": 38.89507583333334, "rental_uris": {"android": "https://dc.lft.to/lastmile_qr_scan", "ios": "https://dc.lft.to/lastmile_qr_scan"}, "fusion_lat": 0.0, "name": "c49e81703597f2d6b83eb1e164b7c2fc", "bike_id": "c49e81703597f2d6b83eb1e164b7c2fc"}, {"is_disabled": 0, "is_reserved": 0, "type": "electric_bike", "lon": -76.96561516666667, "fusion_lon": 0.0, "lat": 38.9509205, "rental_uris": {"android": "https://dc.lft.to/lastmile_qr_scan", "ios": "https://dc.lft.to/lastmile_qr_scan"}, "fusion_lat": 0.0, "name": "a59f2a8e91317e0dcedd31fb46dc11ba", "bike_id": "a59f2a8e91317e0dcedd31fb46dc11ba"}, {"is_disabled": 0, "is_reserved": 0, "type": "electric_scooter", "lon": -77.03868983333334, "fusion_lon": 0.0, "lat": 38.903813166666666, "rental_uris": {"android": "https://dc.lft.to/lastmile_qr_scan", "ios": "https://dc.lft.to/lastmile_qr_scan"}, "fusion_lat": 0.0, "name": "6edd748edc0777c45a0d6e4e3bfaa6b2", "bike_id": "6edd748edc0777c45a0d6e4e3bfaa6b2"}, {"is_disabled": 0, "is_reserved": 0, "type": "electric_scooter", "lon": -77.03203816666667, "fusion_lon": 0.0, "lat": 38.908162833333336, "rental_uris": {"android": "https://dc.lft.to/lastmile_qr_scan", "ios": "https://dc.lft.to/lastmile_qr_scan"}, "fusion_lat": 0.0, "name": "21d7d4da99f6545f9f03fc8e641db4c9", "bike_id": "21d7d4da99f6545f9f03fc8e641db4c9"}, {"is_disabled": 0, "is_reserved": 0, "type": "electric_scooter", "lon": -77.0354065, "fusion_lon": 0.0, "lat": 38.92502316666667, "rental_uris": {"android": "https://dc.lft.to/lastmile_qr_scan", "ios": "https://dc.lft.to/lastmile_qr_scan"}, "fusion_lat": 0.0, "name": "3dfdb17305daf54e13b6c6655c0203bd", "bike_id": "3dfdb17305daf54e13b6c6655c0203bd"}, {"is_disabled": 0, "is_reserved": 0, "type": "electric_scooter", "lon": -76.985685, "fusion_lon": 0.0, "lat": 38.86060716666667, "rental_uris": {"android": "https://dc.lft.to/lastmile_qr_scan", "ios": "https://dc.lft.to/lastmile_qr_scan"}, "fusion_lat": 0.0, "name": "5c1338cb00c52457001c1e8b582e0a46", "bike_id": "5c1338cb00c52457001c1e8b582e0a46"}, {"is_disabled": 0, "is_reserved": 0, "type": "electric_scooter", "lon": -77.0309455, "fusion_lon": 0.0, "lat": 38.946819, "rental_uris": {"android": "https://dc.lft.to/lastmile_qr_scan", "ios": "https://dc.lft.to/lastmile_qr_scan"}, "fusion_lat": 0.0, "name": "561484aee4e2612f60b79f2aa819e008", "bike_id": "561484aee4e2612f60b79f2aa819e008"}, {"is_disabled": 0, "is_reserved": 0, "type": "electric_scooter", "lon": -77.04621716666666, "fusion_lon": 0.0, "lat": 38.9232215, "rental_uris": {"android": "https://dc.lft.to/lastmile_qr_scan", "ios": "https://dc.lft.to/lastmile_qr_scan"}, "fusion_lat": 0.0, "name": "c408a166ced97b2d639ac3a52203b445", "bike_id": "c408a166ced97b2d639ac3a52203b445"}, {"is_disabled": 0, "is_reserved": 0, "type": "electric_scooter", "lon": -77.04742683333333, "fusion_lon": 0.0, "lat": 38.90534983333333, "rental_uris": {"android": "https://dc.lft.to/lastmile_qr_scan", "ios": "https://dc.lft.to/lastmile_qr_scan"}, "fusion_lat": 0.0, "name": "21b6bcd288e3111c367b7dbe0fc47503", "bike_id": "21b6bcd288e3111c367b7dbe0fc47503"}, {"is_disabled": 0, "is_reserved": 0, "type": "electric_scooter", "lon": -77.02964133333333, "fusion_lon": 0.0, "lat": 38.921470666666664, "rental_uris": {"android": "https://dc.lft.to/lastmile_qr_scan", "ios": "https://dc.lft.to/lastmile_qr_scan"}, "fusion_lat": 0.0, "name": "a43c9db710dcb9bdeeb8a43a60e13015", "bike_id": "a43c9db710dcb9bdeeb8a43a60e13015"}, {"is_disabled": 0, "is_reserved": 0, "type": "electric_bike", "lon": -76.965331, "fusion_lon": 0.0, "lat": 38.918834333333336, "rental_uris": {"android": "https://dc.lft.to/lastmile_qr_scan", "ios": "https://dc.lft.to/lastmile_qr_scan"}, "fusion_lat": 0.0, "name": "a766c0da86d434cd0871eb729f75e359", "bike_id": "a766c0da86d434cd0871eb729f75e359"}, {"is_disabled": 0, "is_reserved": 0, "type": "electric_scooter", "lon": -77.02498133333333, "fusion_lon": 0.0, "lat": 38.918088, "rental_uris": {"android": "https://dc.lft.to/lastmile_qr_scan", "ios": "https://dc.lft.to/lastmile_qr_scan"}, "fusion_lat": 0.0, "name": "12872d93e03a3e790f7c006b8fff38c4", "bike_id": "12872d93e03a3e790f7c006b8fff38c4"}, {"is_disabled": 0, "is_reserved": 0, "type": "electric_scooter", "lon": -77.04371216666667, "fusion_lon": 0.0, "lat": 38.90091233333333, "rental_uris": {"android": "https://dc.lft.to/lastmile_qr_scan", "ios": "https://dc.lft.to/lastmile_qr_scan"}, "fusion_lat": 0.0, "name": "283f1b2da8647606688c3b6de5ff265f", "bike_id": "283f1b2da8647606688c3b6de5ff265f"}, {"is_disabled": 0, "is_reserved": 0, "type": "electric_scooter", "lon": -77.0380675, "fusion_lon": 0.0, "lat": 38.932260166666666, "rental_uris": {"android": "https://dc.lft.to/lastmile_qr_scan", "ios": "https://dc.lft.to/lastmile_qr_scan"}, "fusion_lat": 0.0, "name": "3dcca3111faea7cf783bfc438581733b", "bike_id": "3dcca3111faea7cf783bfc438581733b"}, {"is_disabled": 0, "is_reserved": 0, "type": "electric_scooter", "lon": -77.0396885, "fusion_lon": 0.0, "lat": 38.9023515, "rental_uris": {"android": "https://dc.lft.to/lastmile_qr_scan", "ios": "https://dc.lft.to/lastmile_qr_scan"}, "fusion_lat": 0.0, "name": "054bf6239875f6172b286261e21a7046", "bike_id": "054bf6239875f6172b286261e21a7046"}, {"is_disabled": 0, "is_reserved": 0, "type": "electric_scooter", "lon": -77.0320695, "fusion_lon": 0.0, "lat": 38.920669333333336, "rental_uris": {"android": "https://dc.lft.to/lastmile_qr_scan", "ios": "https://dc.lft.to/lastmile_qr_scan"}, "fusion_lat": 0.0, "name": "760fc56ff05a8d5999908aba0a842e33", "bike_id": "760fc56ff05a8d5999908aba0a842e33"}, {"is_disabled": 0, "is_reserved": 0, "type": "electric_scooter", "lon": -76.93189566666666, "fusion_lon": 0.0, "lat": 38.898787666666664, "rental_uris": {"android": "https://dc.lft.to/lastmile_qr_scan", "ios": "https://dc.lft.to/lastmile_qr_scan"}, "fusion_lat": 0.0, "name": "64286a607737cec837c518ac24ef40a1", "bike_id": "64286a607737cec837c518ac24ef40a1"}, {"is_disabled": 0, "is_reserved": 0, "type": "electric_scooter", "lon": -76.98923583333334, "fusion_lon": 0.0, "lat": 38.90221966666667, "rental_uris": {"android": "https://dc.lft.to/lastmile_qr_scan", "ios": "https://dc.lft.to/lastmile_qr_scan"}, "fusion_lat": 0.0, "name": "d17923713fe12da7c91dfe5ad1d71fe0", "bike_id": "d17923713fe12da7c91dfe5ad1d71fe0"}, {"is_disabled": 0, "is_reserved": 0, "type": "electric_scooter", "lon": -77.0417995, "fusion_lon": 0.0, "lat": 38.90530666666667, "rental_uris": {"android": "https://dc.lft.to/lastmile_qr_scan", "ios": "https://dc.lft.to/lastmile_qr_scan"}, "fusion_lat": 0.0, "name": "7956ef35af62e16cdb1dd71cd984451c", "bike_id": "7956ef35af62e16cdb1dd71cd984451c"}, {"is_disabled": 0, "is_reserved": 0, "type": "electric_scooter", "lon": -77.05731633333333, "fusion_lon": 0.0, "lat": 38.933657333333336, "rental_uris": {"android": "https://dc.lft.to/lastmile_qr_scan", "ios": "https://dc.lft.to/lastmile_qr_scan"}, "fusion_lat": 0.0, "name": "ffb7304f8df98fca51d720c125ef0751", "bike_id": "ffb7304f8df98fca51d720c125ef0751"}, {"is_disabled": 0, "is_reserved": 0, "type": "electric_scooter", "lon": -77.0437415, "fusion_lon": 0.0, "lat": 38.9105365, "rental_uris": {"android": "https://dc.lft.to/lastmile_qr_scan", "ios": "https://dc.lft.to/lastmile_qr_scan"}, "fusion_lat": 0.0, "name": "6c2a7496f0b7cc99f0004d00d1819435", "bike_id": "6c2a7496f0b7cc99f0004d00d1819435"}, {"is_disabled": 0, "is_reserved": 0, "type": "electric_scooter", "lon": -77.0369525, "fusion_lon": 0.0, "lat": 38.92641316666667, "rental_uris": {"android": "https://dc.lft.to/lastmile_qr_scan", "ios": "https://dc.lft.to/lastmile_qr_scan"}, "fusion_lat": 0.0, "name": "074ecc01c0d5a0c720e6ab7137328d98", "bike_id": "074ecc01c0d5a0c720e6ab7137328d98"}, {"is_disabled": 0, "is_reserved": 0, "type": "electric_scooter", "lon": -77.05523183333334, "fusion_lon": 0.0, "lat": 38.944157, "rental_uris": {"android": "https://dc.lft.to/lastmile_qr_scan", "ios": "https://dc.lft.to/lastmile_qr_scan"}, "fusion_lat": 0.0, "name": "1186fac639a533e421dcc2fc163a256a", "bike_id": "1186fac639a533e421dcc2fc163a256a"}, {"is_disabled": 0, "is_reserved": 0, "type": "electric_scooter", "lon": -77.04405016666666, "fusion_lon": 0.0, "lat": 38.900688, "rental_uris": {"android": "https://dc.lft.to/lastmile_qr_scan", "ios": "https://dc.lft.to/lastmile_qr_scan"}, "fusion_lat": 0.0, "name": "ca91f5026dd24d582839e7126d1a9687", "bike_id": "ca91f5026dd24d582839e7126d1a9687"}, {"is_disabled": 0, "is_reserved": 0, "type": "electric_scooter", "lon": -77.022568, "fusion_lon": 0.0, "lat": 38.92305283333334, "rental_uris": {"android": "https://dc.lft.to/lastmile_qr_scan", "ios": "https://dc.lft.to/lastmile_qr_scan"}, "fusion_lat": 0.0, "name": "8f0a46fd363c976978e5274fa951253c", "bike_id": "8f0a46fd363c976978e5274fa951253c"}, {"is_disabled": 0, "is_reserved": 0, "type": "electric_scooter", "lon": -77.03155266666667, "fusion_lon": 0.0, "lat": 38.8875415, "rental_uris": {"android": "https://dc.lft.to/lastmile_qr_scan", "ios": "https://dc.lft.to/lastmile_qr_scan"}, "fusion_lat": 0.0, "name": "d61f01c99f1be98a655ca3cd9b196230", "bike_id": "d61f01c99f1be98a655ca3cd9b196230"}, {"is_disabled": 0, "is_reserved": 0, "type": "electric_scooter", "lon": -77.03629333333333, "fusion_lon": 0.0, "lat": 38.93685983333334, "rental_uris": {"android": "https://dc.lft.to/lastmile_qr_scan", "ios": "https://dc.lft.to/lastmile_qr_scan"}, "fusion_lat": 0.0, "name": "255ce33e717615cb3061140b9d552083", "bike_id": "255ce33e717615cb3061140b9d552083"}, {"is_disabled": 0, "is_reserved": 0, "type": "electric_scooter", "lon": -77.041742, "fusion_lon": 0.0, "lat": 38.90861983333333, "rental_uris": {"android": "https://dc.lft.to/lastmile_qr_scan", "ios": "https://dc.lft.to/lastmile_qr_scan"}, "fusion_lat": 0.0, "name": "9910a2aff51ec94c0ebebe3d06416f74", "bike_id": "9910a2aff51ec94c0ebebe3d06416f74"}, {"is_disabled": 0, "is_reserved": 0, "type": "electric_scooter", "lon": -77.03197883333333, "fusion_lon": 0.0, "lat": 38.902489333333335, "rental_uris": {"android": "https://dc.lft.to/lastmile_qr_scan", "ios": "https://dc.lft.to/lastmile_qr_scan"}, "fusion_lat": 0.0, "name": "bdf998f77c16b17f2f861945b31230fa", "bike_id": "bdf998f77c16b17f2f861945b31230fa"}, {"is_disabled": 0, "is_reserved": 0, "type": "electric_scooter", "lon": -77.04674933333334, "fusion_lon": 0.0, "lat": 38.906766833333336, "rental_uris": {"android": "https://dc.lft.to/lastmile_qr_scan", "ios": "https://dc.lft.to/lastmile_qr_scan"}, "fusion_lat": 0.0, "name": "33147c97fdc03a684f38b466d3390d9a", "bike_id": "33147c97fdc03a684f38b466d3390d9a"}, {"is_disabled": 0, "is_reserved": 0, "type": "electric_scooter", "lon": -77.02581016666667, "fusion_lon": 0.0, "lat": 38.90349716666667, "rental_uris": {"android": "https://dc.lft.to/lastmile_qr_scan", "ios": "https://dc.lft.to/lastmile_qr_scan"}, "fusion_lat": 0.0, "name": "4d0b06b5c516f48b9acd008040f5b897", "bike_id": "4d0b06b5c516f48b9acd008040f5b897"}, {"is_disabled": 0, "is_reserved": 0, "type": "electric_scooter", "lon": -77.05726116666666, "fusion_lon": 0.0, "lat": 38.93369416666667, "rental_uris": {"android": "https://dc.lft.to/lastmile_qr_scan", "ios": "https://dc.lft.to/lastmile_qr_scan"}, "fusion_lat": 0.0, "name": "8d29553f091a48f8eda587faebe358ea", "bike_id": "8d29553f091a48f8eda587faebe358ea"}, {"is_disabled": 0, "is_reserved": 0, "type": "electric_scooter", "lon": -77.03681216666666, "fusion_lon": 0.0, "lat": 38.916821, "rental_uris": {"android": "https://dc.lft.to/lastmile_qr_scan", "ios": "https://dc.lft.to/lastmile_qr_scan"}, "fusion_lat": 0.0, "name": "7f69f852e270352e8f61ce666f3dbbf3", "bike_id": "7f69f852e270352e8f61ce666f3dbbf3"}, {"is_disabled": 0, "is_reserved": 0, "type": "electric_scooter", "lon": -77.044163, "fusion_lon": 0.0, "lat": 38.90904, "rental_uris": {"android": "https://dc.lft.to/lastmile_qr_scan", "ios": "https://dc.lft.to/lastmile_qr_scan"}, "fusion_lat": 0.0, "name": "643be729309927ff46cea0536ef7613f", "bike_id": "643be729309927ff46cea0536ef7613f"}, {"is_disabled": 0, "is_reserved": 0, "type": "electric_bike", "lon": -76.96842066666666, "fusion_lon": 0.0, "lat": 38.924453166666666, "rental_uris": {"android": "https://dc.lft.to/lastmile_qr_scan", "ios": "https://dc.lft.to/lastmile_qr_scan"}, "fusion_lat": 0.0, "name": "018f6fbdeb292935d687e23534c4468e", "bike_id": "018f6fbdeb292935d687e23534c4468e"}, {"is_disabled": 0, "is_reserved": 0, "type": "electric_scooter", "lon": -77.0345225, "fusion_lon": 0.0, "lat": 38.964318, "rental_uris": {"android": "https://dc.lft.to/lastmile_qr_scan", "ios": "https://dc.lft.to/lastmile_qr_scan"}, "fusion_lat": 0.0, "name": "0136e570afad7faeaac619942681d605", "bike_id": "0136e570afad7faeaac619942681d605"}, {"is_disabled": 0, "is_reserved": 0, "type": "electric_scooter", "lon": -77.0225095, "fusion_lon": 0.0, "lat": 38.892252, "rental_uris": {"android": "https://dc.lft.to/lastmile_qr_scan", "ios": "https://dc.lft.to/lastmile_qr_scan"}, "fusion_lat": 0.0, "name": "97173e58637dc65b3eece0c53d1092fd", "bike_id": "97173e58637dc65b3eece0c53d1092fd"}, {"is_disabled": 0, "is_reserved": 0, "type": "electric_scooter", "lon": -77.04718216666667, "fusion_lon": 0.0, "lat": 38.89966066666667, "rental_uris": {"android": "https://dc.lft.to/lastmile_qr_scan", "ios": "https://dc.lft.to/lastmile_qr_scan"}, "fusion_lat": 0.0, "name": "01dbf536021c9627eddbaa37fb42956e", "bike_id": "01dbf536021c9627eddbaa37fb42956e"}, {"is_disabled": 0, "is_reserved": 0, "type": "electric_scooter", "lon": -77.03160583333333, "fusion_lon": 0.0, "lat": 38.9035515, "rental_uris": {"android": "https://dc.lft.to/lastmile_qr_scan", "ios": "https://dc.lft.to/lastmile_qr_scan"}, "fusion_lat": 0.0, "name": "25831086297d192faa184f5bc69824cf", "bike_id": "25831086297d192faa184f5bc69824cf"}, {"is_disabled": 0, "is_reserved": 0, "type": "electric_bike", "lon": -77.15268416666666, "fusion_lon": 0.0, "lat": 39.10565833333333, "rental_uris": {"android": "https://dc.lft.to/lastmile_qr_scan", "ios": "https://dc.lft.to/lastmile_qr_scan"}, "fusion_lat": 0.0, "name": "b288e20c26daf5f68f28ef74431816c5", "bike_id": "b288e20c26daf5f68f28ef74431816c5"}, {"is_disabled": 0, "is_reserved": 0, "type": "electric_scooter", "lon": -76.983275, "fusion_lon": 0.0, "lat": 38.861748666666664, "rental_uris": {"android": "https://dc.lft.to/lastmile_qr_scan", "ios": "https://dc.lft.to/lastmile_qr_scan"}, "fusion_lat": 0.0, "name": "caaee056bf93515d8b426c918d8602d6", "bike_id": "caaee056bf93515d8b426c918d8602d6"}, {"is_disabled": 0, "is_reserved": 0, "type": "electric_scooter", "lon": -77.04497533333333, "fusion_lon": 0.0, "lat": 38.896162, "rental_uris": {"android": "https://dc.lft.to/lastmile_qr_scan", "ios": "https://dc.lft.to/lastmile_qr_scan"}, "fusion_lat": 0.0, "name": "634caefad48308d00df3794d4fef7d83", "bike_id": "634caefad48308d00df3794d4fef7d83"}, {"is_disabled": 0, "is_reserved": 0, "type": "electric_scooter", "lon": -77.04163983333333, "fusion_lon": 0.0, "lat": 38.917558666666665, "rental_uris": {"android": "https://dc.lft.to/lastmile_qr_scan", "ios": "https://dc.lft.to/lastmile_qr_scan"}, "fusion_lat": 0.0, "name": "98af67205050fc5a099d947e15274816", "bike_id": "98af67205050fc5a099d947e15274816"},