{"data": {"bikes": [{"is_disabled": 0, "rental_uris": {"android": "https://dc.lft.to/lastmile_qr_scan", "ios": "https://dc.lft.to/lastmile_qr_scan"}, "is_reserved": 0, "name": "bbbc6df81ff7ad6e9d6f7811c2209cea", "lon": -77.04726366666667, "type": "electric_scooter", "bike_id": "bbbc6df81ff7ad6e9d6f7811c2209cea", "fusion_lon": 0.0, "lat": 38.898325166666666, "fusion_lat": 0.0}, {"is_disabled": 0, "rental_uris": {"android": "https://dc.lft.to/lastmile_qr_scan", "ios": "https://dc.lft.to/lastmile_qr_scan"}, "is_reserved": 0, "name": "a8b6d22e147d7b6f92fe4ece8a56683a", "lon": -77.0222885, "type": "electric_scooter", "bike_id": "a8b6d22e147d7b6f92fe4ece8a56683a", "fusion_lon": 0.0, "lat": 38.915676833333336, "fusion_lat": 0.0}, {"is_disabled": 0, "rental_uris": {"android": "https://dc.lft.to/lastmile_qr_scan", "ios": "https://dc.lft.to/lastmile_qr_scan"}, "is_reserved": 0, "name": "ca09395d00b8e5b3313fc38d9c42f4b9", "lon": -77.01775483333333, "type": "electric_scooter", "bike_id": "ca09395d00b8e5b3313fc38d9c42f4b9", "fusion_lon": 0.0, "lat": 38.9212495, "fusion_lat": 0.0}, {"is_disabled": 0, "rental_uris": {"android": "https://dc.lft.to/lastmile_qr_scan", "ios": "https://dc.lft.to/lastmile_qr_scan"}, "is_reserved": 0, "name": "f9b9b7674e42d042c68cd8d59bf1a695", "lon": -77.0268895, "type": "electric_scooter", "bike_id": "f9b9b7674e42d042c68cd8d59bf1a695", "fusion_lon": 0.0, "lat": 38.908700833333334, "fusion_lat": 0.0}, {"is_disabled": 0, "rental_uris": {"android": "https://dc.lft.to/lastmile_qr_scan", "ios": "https://dc.lft.to/lastmile_qr_scan"}, "is_reserved": 0, "name": "b2e3e31ca3eac190d6774870fd92908b", "lon": -77.041634, "type": "electric_scooter", "bike_id": "b2e3e31ca3eac190d6774870fd92908b", "fusion_lon": 0.0, "lat": 38.91311, "fusion_lat": 0.0}, {"is_disabled": 0, "rental_uris": {"android": "https://dc.lft.to/lastmile_qr_scan", "ios": "https://dc.lft.to/lastmile_qr_scan"}, "is_reserved": 0, "name": "21e4302e006f1b44536810f41497d6a0", "lon": -77.02913383333333, "type": "electric_bike", "bike_id": "21e4302e006f1b44536810f41497d6a0", "fusion_lon": 0.0, "lat": 38.99869433333333, "fusion_lat": 0.0}, {"is_disabled": 0, "rental_uris": {"android": "https://dc.lft.to/lastmile_qr_scan", "ios": "https://dc.lft.to/lastmile_qr_scan"}, "is_reserved": 0, "name": "7aced96a15929030a6327b3ec4339a96", "lon": -76.97436616666667, "type": "electric_scooter", "bike_id": "7aced96a15929030a6327b3ec4339a96", "fusion_lon": 0.0, "lat": 38.865085666666666, "fusion_lat": 0.0}, {"is_disabled": 0, "rental_uris": {"android": "https://dc.lft.to/lastmile_qr_scan", "ios": "https://dc.lft.to/lastmile_qr_scan"}, "is_reserved": 0, "name": "6c8e886a99bffa51d85a3806e9d267ff", "lon": -77.06767566666667, "type": "electric_scooter", "bike_id": "6c8e886a99bffa51d85a3806e9d267ff", "fusion_lon": 0.0, "lat": 38.949851333333335, "fusion_lat": 0.0}, {"is_disabled": 0, "rental_uris": {"android": "https://dc.lft.to/lastmile_qr_scan", "ios": "https://dc.lft.to/lastmile_qr_scan"}, "is_reserved": 0, "name": "96515696e497af3c09ffc756151ab2a7", "lon": -77.08187466666666, "type": "electric_bike", "bike_id": "96515696e497af3c09ffc756151ab2a7", "fusion_lon": 0.0, "lat": 38.92208483333334, "fusion_lat": 0.0}, {"is_disabled": 0, "rental_uris": {"android": "https://dc.lft.to/lastmile_qr_scan", "ios": "https://dc.lft.to/lastmile_qr_scan"}, "is_reserved": 0, "name": "a30b7f319668a829fb39db8b275354ed", "lon": -76.97221633333334, "type": "electric_bike", "bike_id": "a30b7f319668a829fb39db8b275354ed", "fusion_lon": 0.0, "lat": 38.844822666666666, "fusion_lat": 0.0}, {"is_disabled": 0, "rental_uris": {"android": "https://dc.lft.to/lastmile_qr_scan", "ios": "https://dc.lft.to/lastmile_qr_scan"}, "is_reserved": 0, "name": "164f142907a3badf783ba3dfe830d23d", "lon": -76.93345883333333, "type": "electric_scooter", "bike_id": "164f142907a3badf783ba3dfe830d23d", "fusion_lon": 0.0, "lat": 38.899065, "fusion_lat": 0.0}, {"is_disabled": 0, "rental_uris": {"android": "https://dc.lft.to/lastmile_qr_scan", "ios": "https://dc.lft.to/lastmile_qr_scan"}, "is_reserved": 0, "name": "0c111c6b52f7e1e839f4bbef3cd4a753", "lon": -77.02272333333333, "type": "electric_scooter", "bike_id": "0c111c6b52f7e1e839f4bbef3cd4a753", "fusion_lon": 0.0, "lat": 38.912712666666664, "fusion_lat": 0.0}, {"is_disabled": 0, "rental_uris": {"android": "https://dc.lft.to/lastmile_qr_scan", "ios": "https://dc.lft.to/lastmile_qr_scan"}, "is_reserved": 0, "name": "4f1649916e39b32f050da1bdf20e9cd0", "lon": -77.01111016666667, "type": "electric_scooter", "bike_id": "4f1649916e39b32f050da1bdf20e9cd0", "fusion_lon": 0.0, "lat": 38.903607, "fusion_lat": 0.0}, {"is_disabled": 0, "rental_uris": {"android": "https://dc.lft.to/lastmile_qr_scan", "ios": "https://dc.lft.to/lastmile_qr_scan"}, "is_reserved": 0, "name": "aaaf8fd900ec4807e7e78a0e336ea3c7", "lon": -77.024303, "type": "electric_scooter", "bike_id": "aaaf8fd900ec4807e7e78a0e336ea3c7", "fusion_lon": 0.0, "lat": 38.912519333333336, "fusion_lat": 0.0}, {"is_disabled": 0, "rental_uris": {"android": "https://dc.lft.to/lastmile_qr_scan", "ios": "https://dc.lft.to/lastmile_qr_scan"}, "is_reserved": 0, "name": "68964ca73bd981c387f8e2a3714fc7af", "lon": -77.08529183333333, "type": "electric_bike", "bike_id": "68964ca73bd981c387f8e2a3714fc7af", "fusion_lon": 0.0, "lat": 38.85653466666667, "fusion_lat": 0.0}, {"is_disabled": 0, "rental_uris": {"android": "https://dc.lft.to/lastmile_qr_scan", "ios": "https://dc.lft.to/lastmile_qr_scan"}, "is_reserved": 0, "name": "d91c99107fbe7055615954e827078716", "lon": -76.9941205, "type": "electric_scooter", "bike_id": "d91c99107fbe7055615954e827078716", "fusion_lon": 0.0, "lat": 38.87784633333333, "fusion_lat": 0.0}, {"is_disabled": 0, "rental_uris": {"android": "https://dc.lft.to/lastmile_qr_scan", "ios": "https://dc.lft.to/lastmile_qr_scan"}, "is_reserved": 0, "name": "16a23aaaf1b122d2ba38bbc728b0500c", "lon": -77.03158166666667, "type": "electric_scooter", "bike_id": "16a23aaaf1b122d2ba38bbc728b0500c", "fusion_lon": 0.0, "lat": 38.88746733333333, "fusion_lat": 0.0}, {"is_disabled": 0, "rental_uris": {"android": "https://dc.lft.to/lastmile_qr_scan", "ios": "https://dc.lft.to/lastmile_qr_scan"}, "is_reserved": 0, "name": "6fe05760f8ddf8f1f374f361f27a4850", "lon": -77.0059935, "type": "electric_scooter", "bike_id": "6fe05760f8ddf8f1f374f361f27a4850", "fusion_lon": 0.0, "lat": 38.90579816666666, "fusion_lat": 0.0}, {"is_disabled": 0, "rental_uris": {"android": "https://dc.lft.to/lastmile_qr_scan", "ios": "https://dc.lft.to/lastmile_qr_scan"}, "is_reserved": 0, "name": "c7bed0b3f392d37f90694a4c2270cfb3", "lon": -77.02724233333333, "type": "electric_scooter", "bike_id": "c7bed0b3f392d37f90694a4c2270cfb3", "fusion_lon": 0.0, "lat": 38.908551833333334, "fusion_lat": 0.0}, {"is_disabled": 0, "rental_uris": {"android": "https://dc.lft.to/lastmile_qr_scan", "ios": "https://dc.lft.to/lastmile_qr_scan"}, "is_reserved": 0, "name": "dbdcf6d8f0f4b0b8f6863a513d052dd2", "lon": -77.04173316666666, "type": "electric_scooter", "bike_id": "dbdcf6d8f0f4b0b8f6863a513d052dd2", "fusion_lon": 0.0, "lat": 38.91505383333333, "fusion_lat": 0.0}, {"is_disabled": 0, "rental_uris": {"android": "https://dc.lft.to/lastmile_qr_scan", "ios": "https://dc.lft.to/lastmile_qr_scan"}, "is_reserved": 0, "name": "af0a18fa02dca9b40242e2ee92ed8c42", "lon": -76.96529716666667, "type": "electric_scooter", "bike_id": "af0a18fa02dca9b40242e2ee92ed8c42", "fusion_lon": 0.0, "lat": 38.87633566666667, "fusion_lat": 0.0}, {"is_disabled": 0, "rental_uris": {"android": "https://dc.lft.to/lastmile_qr_scan", "ios": "https://dc.lft.to/lastmile_qr_scan"}, "is_reserved": 0, "name": "cb19095048e8a718b670a630e6bb653e", "lon": -77.06111183333333, "type": "electric_scooter", "bike_id": "cb19095048e8a718b670a630e6bb653e", "fusion_lon": 0.0, "lat": 38.9436685, "fusion_lat": 0.0}, {"is_disabled": 0, "rental_uris": {"android": "https://dc.lft.to/lastmile_qr_scan", "ios": "https://dc.lft.to/lastmile_qr_scan"}, "is_reserved": 0, "name": "1ad5d3dd5eb2d0bfd3ca0e26cee7a5be", "lon": -77.046742, "type": "electric_scooter", "bike_id": "1ad5d3dd5eb2d0bfd3ca0e26cee7a5be", "fusion_lon": 0.0, "lat": 38.907387, "fusion_lat": 0.0}, {"is_disabled": 0, "rental_uris": {"android": "https://dc.lft.to/lastmile_qr_scan", "ios": "https://dc.lft.to/lastmile_qr_scan"}, "is_reserved": 0, "name": "cc346394029f2c27f20129504bb1ad08", "lon": -77.061701, "type": "electric_bike", "bike_id": "cc346394029f2c27f20129504bb1ad08", "fusion_lon": 0.0, "lat": 38.81271383333333, "fusion_lat": 0.0}, {"is_disabled": 0, "rental_uris": {"android": "https://dc.lft.to/lastmile_qr_scan", "ios": "https://dc.lft.to/lastmile_qr_scan"}, "is_reserved": 0, "name": "0f2247bf4730043a8c0b364ac8ff0310", "lon": -77.024055, "type": "electric_scooter", "bike_id": "0f2247bf4730043a8c0b364ac8ff0310", "fusion_lon": 0.0, "lat": 38.9168435, "fusion_lat": 0.0}, {"is_disabled": 0, "rental_uris": {"android": "https://dc.lft.to/lastmile_qr_scan", "ios": "https://dc.lft.to/lastmile_qr_scan"}, "is_reserved": 0, "name": "3904b0ffd135c7c1faaecbddb05c0b77", "lon": -77.07904783333333, "type": "electric_bike", "bike_id": "3904b0ffd135c7c1faaecbddb05c0b77", "fusion_lon": 0.0, "lat": 38.839308333333335, "fusion_lat": 0.0}, {"is_disabled": 0, "rental_uris": {"android": "https://dc.lft.to/lastmile_qr_scan", "ios": "https://dc.lft.to/lastmile_qr_scan"}, "is_reserved": 0, "name": "c309498d3c6fc0559f2c865c2f0115c3", "lon": -77.01754383333333, "type": "electric_scooter", "bike_id": "c309498d3c6fc0559f2c865c2f0115c3", "fusion_lon": 0.0, "lat": 38.91352916666666, "fusion_lat": 0.0}, {"is_disabled": 0, "rental_uris": {"android": "https://dc.lft.to/lastmile_qr_scan", "ios": "https://dc.lft.to/lastmile_qr_scan"}, "is_reserved": 0, "name": "ceca881a427e3e9005952c3423fa5ca1", "lon": -76.991706, "type": "electric_bike", "bike_id": "ceca881a427e3e9005952c3423fa5ca1", "fusion_lon": 0.0, "lat": 38.972549666666666, "fusion_lat": 0.0}, {"is_disabled": 0, "rental_uris": {"android": "https://dc.lft.to/lastmile_qr_scan", "ios": "https://dc.lft.to/lastmile_qr_scan"}, "is_reserved": 0, "name": "34b53ab9c105175d4220d81027cd2d55", "lon": -77.00119266666667, "type": "electric_scooter", "bike_id": "34b53ab9c105175d4220d81027cd2d55", "fusion_lon": 0.0, "lat": 38.912478, "fusion_lat": 0.0}, {"is_disabled": 0, "rental_uris": {"android": "https://dc.lft.to/lastmile_qr_scan", "ios": "https://dc.lft.to/lastmile_qr_scan"}, "is_reserved": 0, "name": "fe07e0ae35b1c6d6b4b63e0d21c70c99", "lon": -77.016231, "type": "electric_scooter", "bike_id": "fe07e0ae35b1c6d6b4b63e0d21c70c99", "fusion_lon": 0.0, "lat": 38.8986615, "fusion_lat": 0.0}, {"is_disabled": 0, "rental_uris": {"android": "https://dc.lft.to/lastmile_qr_scan", "ios": "https://dc.lft.to/lastmile_qr_scan"}, "is_reserved": 0, "name": "1a76645f208a0ed5098ea2e3901ed0ca", "lon": -77.0280185, "type": "electric_scooter", "bike_id": "1a76645f208a0ed5098ea2e3901ed0ca", "fusion_lon": 0.0, "lat": 38.917503333333336, "fusion_lat": 0.0}, {"is_disabled": 0, "rental_uris": {"android": "https://dc.lft.to/lastmile_qr_scan", "ios": "https://dc.lft.to/lastmile_qr_scan"}, "is_reserved": 0, "name": "226d61985f4a0ba573022ccaf30b856f", "lon": -77.0101055, "type": "electric_scooter", "bike_id": "226d61985f4a0ba573022ccaf30b856f", "fusion_lon": 0.0, "lat": 38.87968133333333, "fusion_lat": 0.0}, {"is_disabled": 0, "rental_uris": {"android": "https://dc.lft.to/lastmile_qr_scan", "ios": "https://dc.lft.to/lastmile_qr_scan"}, "is_reserved": 0, "name": "e0eb7624199c1fad4cf24bc792ed8b2e", "lon": -76.99489383333334, "type": "electric_scooter", "bike_id": "e0eb7624199c1fad4cf24bc792ed8b2e", "fusion_lon": 0.0, "lat": 38.93223616666667, "fusion_lat": 0.0}, {"is_disabled": 0, "rental_uris": {"android": "https://dc.lft.to/lastmile_qr_scan", "ios": "https://dc.lft.to/lastmile_qr_scan"}, "is_reserved": 0, "name": "e271d90721ffbe30bc22fbb894478e3f", "lon": -77.00893766666667, "type": "electric_scooter", "bike_id": "e271d90721ffbe30bc22fbb894478e3f", "fusion_lon": 0.0, "lat": 38.895395, "fusion_lat": 0.0}, {"is_disabled": 0, "rental_uris": {"android": "https://dc.lft.to/lastmile_qr_scan", "ios": "https://dc.lft.to/lastmile_qr_scan"}, "is_reserved": 0, "name": "49fcb7dba754d3079642566145ecec46", "lon": -77.03398483333334, "type": "electric_scooter", "bike_id": "49fcb7dba754d3079642566145ecec46", "fusion_lon": 0.0, "lat": 38.91967783333333, "fusion_lat": 0.0}, {"is_disabled": 0, "rental_uris": {"android": "https://dc.lft.to/lastmile_qr_scan", "ios": "https://dc.lft.to/lastmile_qr_scan"}, "is_reserved": 0, "name": "c204fa4c8c0982c91d26e9bd06527255", "lon": -77.02380983333333, "type": "electric_scooter", "bike_id": "c204fa4c8c0982c91d26e9bd06527255", "fusion_lon": 0.0, "lat": 38.93259883333333, "fusion_lat": 0.0}, {"is_disabled": 0, "rental_uris": {"android": "https://dc.lft.to/lastmile_qr_scan", "ios": "https://dc.lft.to/lastmile_qr_scan"}, "is_reserved": 0, "name": "acd6f4f4514734cc138f2b9fcbf26d64", "lon": -77.0298795, "type": "electric_scooter", "bike_id": "acd6f4f4514734cc138f2b9fcbf26d64", "fusion_lon": 0.0, "lat": 38.90721533333333, "fusion_lat": 0.0}, {"is_disabled": 0, "rental_uris": {"android": "https://dc.lft.to/lastmile_qr_scan", "ios": "https://dc.lft.to/lastmile_qr_scan"}, "is_reserved": 0, "name": "4f3040b59bbf4ae84ce4e30b4fc302d5", "lon": -77.030541, "type": "electric_scooter", "bike_id": "4f3040b59bbf4ae84ce4e30b4fc302d5", "fusion_lon": 0.0, "lat": 38.8997665, "fusion_lat": 0.0}, {"is_disabled": 0, "rental_uris": {"android": "https://dc.lft.to/lastmile_qr_scan", "ios": "https://dc.lft.to/lastmile_qr_scan"}, "is_reserved": 0, "name": "9edc3db3f7ac0531f2d0feb7bf912597", "lon": -77.0251565, "type": "electric_scooter", "bike_id": "9edc3db3f7ac0531f2d0feb7bf912597", "fusion_lon": 0.0, "lat": 38.91914416666667, "fusion_lat": 0.0}, {"is_disabled": 0, "rental_uris": {"android": "https://dc.lft.to/lastmile_qr_scan", "ios": "https://dc.lft.to/lastmile_qr_scan"}, "is_reserved": 0, "name": "854e8efb8def3b4fa4b96054739e0ab1", "lon": -76.98330266666666, "type": "electric_bike", "bike_id": "854e8efb8def3b4fa4b96054739e0ab1", "fusion_lon": 0.0, "lat": 38.96603416666667, "fusion_lat": 0.0}, {"is_disabled": 0, "rental_uris": {"android": "https://dc.lft.to/lastmile_qr_scan", "ios": "https://dc.lft.to/lastmile_qr_scan"}, "is_reserved": 0, "name": "d69033aae6b717f23e402fdc3516f57e", "lon": -77.009244, "type": "electric_scooter", "bike_id": "d69033aae6b717f23e402fdc3516f57e", "fusion_lon": 0.0, "lat": 38.89560433333333, "fusion_lat": 0.0}, {"is_disabled": 0, "rental_uris": {"android": "https://dc.lft.to/lastmile_qr_scan", "ios": "https://dc.lft.to/lastmile_qr_scan"}, "is_reserved": 0, "name": "a10e8c02bffe6ce224079095425b1977", "lon": -76.93372816666667, "type": "electric_scooter", "bike_id": "a10e8c02bffe6ce224079095425b1977", "fusion_lon": 0.0, "lat": 38.89921316666667, "fusion_lat": 0.0}, {"is_disabled": 0, "rental_uris": {"android": "https://dc.lft.to/lastmile_qr_scan", "ios": "https://dc.lft.to/lastmile_qr_scan"}, "is_reserved": 0, "name": "2191fd73d8f044d68fef56e4677bda60", "lon": -76.96525516666667, "type": "electric_scooter", "bike_id": "2191fd73d8f044d68fef56e4677bda60", "fusion_lon": 0.0, "lat": 38.87626933333333, "fusion_lat": 0.0}, {"is_disabled": 0, "rental_uris": {"android": "https://dc.lft.to/lastmile_qr_scan", "ios": "https://dc.lft.to/lastmile_qr_scan"}, "is_reserved": 0, "name": "ffc0ae4e26f2d0b5df76320fce250882", "lon": -76.9900245, "type": "electric_scooter", "bike_id": "ffc0ae4e26f2d0b5df76320fce250882", "fusion_lon": 0.0, "lat": 38.865062, "fusion_lat": 0.0}, {"is_disabled": 0, "rental_uris": {"android": "https://dc.lft.to/lastmile_qr_scan", "ios": "https://dc.lft.to/lastmile_qr_scan"}, "is_reserved": 0, "name": "75c579396c276b8ae38ae15f2a3d904f", "lon": -77.02846233333334, "type": "electric_scooter", "bike_id": "75c579396c276b8ae38ae15f2a3d904f", "fusion_lon": 0.0, "lat": 38.922368, "fusion_lat": 0.0}, {"is_disabled": 0, "rental_uris": {"android": "https://dc.lft.to/lastmile_qr_scan", "ios": "https://dc.lft.to/lastmile_qr_scan"}, "is_reserved": 0, "name": "e9de8dba3f96869c9c86bd50027597fc", "lon": -77.01256366666667, "type": "electric_scooter", "bike_id": "e9de8dba3f96869c9c86bd50027597fc", "fusion_lon": 0.0, "lat": 38.9084655, "fusion_lat": 0.0}, {"is_disabled": 0, "rental_uris": {"android": "https://dc.lft.to/lastmile_qr_scan", "ios": "https://dc.lft.to/lastmile_qr_scan"}, "is_reserved": 0, "name": "08a1c9c9891c5c6cdd3d26b90c0feaea", "lon": -77.032073, "type": "electric_bike", "bike_id": "08a1c9c9891c5c6cdd3d26b90c0feaea", "fusion_lon": 0.0, "lat": 38.92010833333333, "fusion_lat": 0.0}, {"is_disabled": 0, "rental_uris": {"android": "https://dc.lft.to/lastmile_qr_scan", "ios": "https://dc.lft.to/lastmile_qr_scan"}, "is_reserved": 0, "name": "043816e423a0979eaed053e1869ef320", "lon": -77.02496983333333, "type": "electric_scooter", "bike_id": "043816e423a0979eaed053e1869ef320", "fusion_lon": 0.0, "lat": 38.918081, "fusion_lat": 0.0}, {"is_disabled": 0, "rental_uris": {"android": "https://dc.lft.to/lastmile_qr_scan", "ios": "https://dc.lft.to/lastmile_qr_scan"}, "is_reserved": 0, "name": "4344bfcdaafd65211cb82cd65b6f1a13", "lon": -76.95195416666667, "type": "electric_bike", "bike_id": "4344bfcdaafd65211cb82cd65b6f1a13", "fusion_lon": 0.0, "lat": 38.9068705, "fusion_lat": 0.0}, {"is_disabled": 0, "rental_uris": {"android": "https://dc.lft.to/lastmile_qr_scan", "ios": "https://dc.lft.to/lastmile_qr_scan"}, "is_reserved": 0, "name": "8710a39b3ea04ab50998f51e8d055ab4", "lon": -77.054601, "type": "electric_scooter", "bike_id": "8710a39b3ea04ab50998f51e8d055ab4", "fusion_lon": 0.0, "lat": 38.929017, "fusion_lat": 0.0}, {"is_disabled": 0, "rental_uris": {"android": "https://dc.lft.to/lastmile_qr_scan", "ios": "https://dc.lft.to/lastmile_qr_scan"}, "is_reserved": 0, "name": "5ba02f97a31c9892a4209351fe913d97", "lon": -77.03786316666667, "type": "electric_scooter", "bike_id": "5ba02f97a31c9892a4209351fe913d97", "fusion_lon": 0.0, "lat": 38.93021533333334, "fusion_lat": 0.0}, {"is_disabled": 0, "rental_uris": {"android": "https://dc.lft.to/lastmile_qr_scan", "ios": "https://dc.lft.to/lastmile_qr_scan"}, "is_reserved": 0, "name": "25de92aa5ffbf2abeb140e2e8f1db6ab", "lon": -77.0291705, "type": "electric_scooter", "bike_id": "25de92aa5ffbf2abeb140e2e8f1db6ab", "fusion_lon": 0.0, "lat": 38.92481333333333, "fusion_lat": 0.0}, {"is_disabled": 0, "rental_uris": {"android": "https://dc.lft.to/lastmile_qr_scan", "ios": "https://dc.lft.to/lastmile_qr_scan"}, "is_reserved": 0, "name": "5f5696c89611621c175ab23a980c224c", "lon": -77.02587483333333, "type": "electric_scooter", "bike_id": "5f5696c89611621c175ab23a980c224c", "fusion_lon": 0.0, "lat": 38.92035766666667, "fusion_lat": 0.0}, {"is_disabled": 0, "rental_uris": {"android": "https://dc.lft.to/lastmile_qr_scan", "ios": "https://dc.lft.to/lastmile_qr_scan"}, "is_reserved": 0, "name": "21f89f78363b3b5d68197aa8694438e1", "lon": -77.03214133333333, "type": "electric_scooter", "bike_id": "21f89f78363b3b5d68197aa8694438e1", "fusion_lon": 0.0, "lat": 38.92578616666667, "fusion_lat": 0.0}, {"is_disabled": 0, "rental_uris": {"android": "https://dc.lft.to/lastmile_qr_scan", "ios": "https://dc.lft.to/lastmile_qr_scan"}, "is_reserved": 0, "name": "3e41c96f45eb00bdbf04d34aed76676e", "lon": -77.029416, "type": "electric_scooter", "bike_id": "3e41c96f45eb00bdbf04d34aed76676e", "fusion_lon": 0.0, "lat": 38.899742833333335, "fusion_lat": 0.0}, {"is_disabled": 0, "rental_uris": {"android": "https://dc.lft.to/lastmile_qr_scan", "ios": "https://dc.lft.to/lastmile_qr_scan"}, "is_reserved": 0, "name": "d522e9ad26ee9572bba4ec682cd38b37", "lon": -77.04196216666666, "type": "electric_scooter", "bike_id": "d522e9ad26ee9572bba4ec682cd38b37", "fusion_lon": 0.0, "lat": 38.91671783333334, "fusion_lat": 0.0}, {"is_disabled": 0, "rental_uris": {"android": "https://dc.lft.to/lastmile_qr_scan", "ios": "https://dc.lft.to/lastmile_qr_scan"}, "is_reserved": 0, "name": "516d9f8dd71d3c566d918d161819e6ee", "lon": -76.98769416666667, "type": "electric_scooter", "bike_id": "516d9f8dd71d3c566d918d161819e6ee", "fusion_lon": 0.0, "lat": 38.844554333333335, "fusion_lat": 0.0}, {"is_disabled": 0, "rental_uris": {"android": "https://dc.lft.to/lastmile_qr_scan", "ios": "https://dc.lft.to/lastmile_qr_scan"}, "is_reserved": 0, "name": "0577e3c776e114112162f0499ce56a4d", "lon": -77.03689483333333, "type": "electric_scooter", "bike_id": "0577e3c776e114112162f0499ce56a4d", "fusion_lon": 0.0, "lat": 38.936555166666665, "fusion_lat": 0.0}, {"is_disabled": 0, "rental_uris": {"android": "https://dc.lft.to/lastmile_qr_scan", "ios": "https://dc.lft.to/lastmile_qr_scan"}, "is_reserved": 0, "name": "bd13a7004c0842ad270b47612cc2170d", "lon": -77.034728, "type": "electric_scooter", "bike_id": "bd13a7004c0842ad270b47612cc2170d", "fusion_lon": 0.0, "lat": 38.91110583333333, "fusion_lat": 0.0}, {"is_disabled": 0, "rental_uris": {"android": "https://dc.lft.to/lastmile_qr_scan", "ios": "https://dc.lft.to/lastmile_qr_scan"}, "is_reserved": 0, "name": "17f8ae15b984ca0b5e03b19020321639", "lon": -77.01205183333333, "type": "electric_scooter", "bike_id": "17f8ae15b984ca0b5e03b19020321639", "fusion_lon": 0.0, "lat": 38.92739433333333, "fusion_lat": 0.0}, {"is_disabled": 0, "rental_uris": {"android": "https://dc.lft.to/lastmile_qr_scan", "ios": "https://dc.lft.to/lastmile_qr_scan"}, "is_reserved": 0, "name": "a79ce2efeb528341169bb0febfd65f4f", "lon": -76.98461883333333, "type": "electric_scooter", "bike_id": "a79ce2efeb528341169bb0febfd65f4f", "fusion_lon": 0.0, "lat": 38.89367283333333, "fusion_lat": 0.0}, {"is_disabled": 0, "rental_uris": {"android": "https://dc.lft.to/lastmile_qr_scan", "ios": "https://dc.lft.to/lastmile_qr_scan"}, "is_reserved": 0, "name": "d129db6d84f4c509d5f6617bbf34a205", "lon": -77.0325245, "type": "electric_scooter", "bike_id": "d129db6d84f4c509d5f6617bbf34a205", "fusion_lon": 0.0, "lat": 38.909775833333335, "fusion_lat": 0.0}, {"is_disabled": 0, "rental_uris": {"android": "https://dc.lft.to/lastmile_qr_scan", "ios": "https://dc.lft.to/lastmile_qr_scan"}, "is_reserved": 0, "name": "c419c010763e775630b1321207a668e8", "lon": -77.029133, "type": "electric_scooter", "bike_id": "c419c010763e775630b1321207a668e8", "fusion_lon": 0.0, "lat": 38.93969666666667, "fusion_lat": 0.0}, {"is_disabled": 0, "rental_uris": {"android": "https://dc.lft.to/lastmile_qr_scan", "ios": "https://dc.lft.to/lastmile_qr_scan"}, "is_reserved": 0, "name": "04f26e409ec6eb443bf0e7c69fe31ce3", "lon": -77.0320245, "type": "electric_scooter", "bike_id": "04f26e409ec6eb443bf0e7c69fe31ce3", "fusion_lon": 0.0, "lat": 38.907326, "fusion_lat": 0.0}, {"is_disabled": 0, "rental_uris": {"android": "https://dc.lft.to/lastmile_qr_scan", "ios": "https://dc.lft.to/lastmile_qr_scan"}, "is_reserved": 0, "name": "e4b7d2ec84dba0dddfe4addf594ad900", "lon": -76.93552633333333, "type": "electric_scooter", "bike_id": "e4b7d2ec84dba0dddfe4addf594ad900", "fusion_lon": 0.0, "lat": 38.901588333333336, "fusion_lat": 0.0}, {"is_disabled": 0, "rental_uris": {"android": "https://dc.lft.to/lastmile_qr_scan", "ios": "https://dc.lft.to/lastmile_qr_scan"}, "is_reserved": 0, "name": "9af8e4c05e3be4bc95c0b22a0a596985", "lon": -77.057853, "type": "electric_scooter", "bike_id": "9af8e4c05e3be4bc95c0b22a0a596985", "fusion_lon": 0.0, "lat": 38.905091, "fusion_lat": 0.0}, {"is_disabled": 0, "rental_uris": {"android": "https://dc.lft.to/lastmile_qr_scan", "ios": "https://dc.lft.to/lastmile_qr_scan"}, "is_reserved": 0, "name": "9f1c108402c0685cacd02dc23114b389", "lon": -76.98551466666666, "type": "electric_scooter", "bike_id": "9f1c108402c0685cacd02dc23114b389", "fusion_lon": 0.0, "lat": 38.90419516666667, "fusion_lat": 0.0}, {"is_disabled": 0, "rental_uris": {"android": "https://dc.lft.to/lastmile_qr_scan", "ios": "https://dc.lft.to/lastmile_qr_scan"}, "is_reserved": 0, "name": "422519f79e2982b24a239e08d3593526", "lon": -76.98679483333333, "type": "electric_scooter", "bike_id": "422519f79e2982b24a239e08d3593526", "fusion_lon": 0.0, "lat": 38.858137666666664, "fusion_lat": 0.0}, {"is_disabled": 0, "rental_uris": {"android": "https://dc.lft.to/lastmile_qr_scan", "ios": "https://dc.lft.to/lastmile_qr_scan"}, "is_reserved": 0, "name": "6327ec72762380aa411a97fa6b9e0ce5", "lon": -77.034928, "type": "electric_scooter", "bike_id": "6327ec72762380aa411a97fa6b9e0ce5", "fusion_lon": 0.0, "lat": 38.9327435, "fusion_lat": 0.0}, {"is_disabled": 0, "rental_uris": {"android": "https://dc.lft.to/lastmile_qr_scan", "ios": "https://dc.lft.to/lastmile_qr_scan"}, "is_reserved": 0, "name": "3e4dc5bbf30a39aafffdb575ba6b5d53", "lon": -77.04654983333333, "type": "electric_scooter", "bike_id": "3e4dc5bbf30a39aafffdb575ba6b5d53", "fusion_lon": 0.0, "lat": 38.89297083333334, "fusion_lat": 0.0}, {"is_disabled": 0, "rental_uris": {"android": "https://dc.lft.to/lastmile_qr_scan", "ios": "https://dc.lft.to/lastmile_qr_scan"}, "is_reserved": 0, "name": "5336ad7d4195b9bd0705216be6426610", "lon": -77.0915775, "type": "electric_bike", "bike_id": "5336ad7d4195b9bd0705216be6426610", "fusion_lon": 0.0, "lat": 38.967603833333335, "fusion_lat": 0.0}, {"is_disabled": 0, "rental_uris": {"android": "https://dc.lft.to/lastmile_qr_scan", "ios": "https://dc.lft.to/lastmile_qr_scan"}, "is_reserved": 0, "name": "f7df7b32d04db6f3216cc2821e1608e0", "lon": -77.0318315, "type": "electric_scooter", "bike_id": "f7df7b32d04db6f3216cc2821e1608e0", "fusion_lon": 0.0, "lat": 38.9139835, "fusion_lat": 0.0}, {"is_disabled": 0, "rental_uris": {"android": "https://dc.lft.to/lastmile_qr_scan", "ios": "https://dc.lft.to/lastmile_qr_scan"}, "is_reserved": 0, "name": "7819bec8cada11d3c4c3a438bd5f3d15", "lon": -77.032255, "type": "electric_scooter", "bike_id": "7819bec8cada11d3c4c3a438bd5f3d15", "fusion_lon": 0.0, "lat": 38.909679833333335, "fusion_lat": 0.0}, {"is_disabled": 0, "rental_uris": {"android": "https://dc.lft.to/lastmile_qr_scan", "ios": "https://dc.lft.to/lastmile_qr_scan"}, "is_reserved": 0, "name": "bef11468cff46c09851efbf039b36cd4", "lon": -77.0318415, "type": "electric_scooter", "bike_id": "bef11468cff46c09851efbf039b36cd4", "fusion_lon": 0.0, "lat": 38.915654833333335, "fusion_lat": 0.0}, {"is_disabled": 0, "rental_uris": {"android": "https://dc.lft.to/lastmile_qr_scan", "ios": "https://dc.lft.to/lastmile_qr_scan"}, "is_reserved": 0, "name": "6aab3c4900480b35a8034902727b91f7", "lon": -77.0417325, "type": "electric_scooter", "bike_id": "6aab3c4900480b35a8034902727b91f7", "fusion_lon": 0.0, "lat": 38.91547716666667, "fusion_lat": 0.0}, {"is_disabled": 0, "rental_uris": {"android": "https://dc.lft.to/lastmile_qr_scan", "ios": "https://dc.lft.to/lastmile_qr_scan"}, "is_reserved": 0, "name": "b0ad433c3c91844bb3e224bffe6bf078", "lon": -77.027321, "type": "electric_scooter", "bike_id": "b0ad433c3c91844bb3e224bffe6bf078", "fusion_lon": 0.0, "lat": 38.94089016666667, "fusion_lat": 0.0}, {"is_disabled": 0, "rental_uris": {"android": "https://dc.lft.to/lastmile_qr_scan", "ios": "https://dc.lft.to/lastmile_qr_scan"}, "is_reserved": 0, "name": "2147b18dd07c3997a2f67df957beb4f8", "lon": -76.99516533333333, "type": "electric_scooter", "bike_id": "2147b18dd07c3997a2f67df957beb4f8", "fusion_lon": 0.0, "lat": 38.894843333333334, "fusion_lat": 0.0}, {"is_disabled": 0, "rental_uris": {"android": "https://dc.lft.to/lastmile_qr_scan", "ios": "https://dc.lft.to/lastmile_qr_scan"}, "is_reserved": 0, "name": "08d2862ac2a972bfd9ae69fb1f30ebf0", "lon": -76.9462465, "type": "electric_bike", "bike_id": "08d2862ac2a972bfd9ae69fb1f30ebf0", "fusion_lon": 0.0, "lat": 38.8323445, "fusion_lat": 0.0}, {"is_disabled": 0, "rental_uris": {"android": "https://dc.lft.to/lastmile_qr_scan", "ios": "https://dc.lft.to/lastmile_qr_scan"}, "is_reserved": 0, "name": "12e6385ee123e6be788b41c8d17f89db", "lon": -77.03069033333334, "type": "electric_scooter", "bike_id": "12e6385ee123e6be788b41c8d17f89db", "fusion_lon": 0.0, "lat": 38.923887, "fusion_lat": 0.0}, {"is_disabled": 0, "rental_uris": {"android": "https://dc.lft.to/lastmile_qr_scan", "ios": "https://dc.lft.to/lastmile_qr_scan"}, "is_reserved": 0, "name": "7180dec574433b05fab052ccf56deb5a", "lon": -76.99703983333333, "type": "electric_scooter", "bike_id": "7180dec574433b05fab052ccf56deb5a", "fusion_lon": 0.0, "lat": 38.83869, "fusion_lat": 0.0}, {"is_disabled": 0, "rental_uris": {"android": "https://dc.lft.to/lastmile_qr_scan", "ios": "https://dc.lft.to/lastmile_qr_scan"}, "is_reserved": 0, "name": "f8bcd4d43c8084ca37f80cc6e90d5fe6", "lon": -77.03183666666666, "type": "electric_scooter", "bike_id": "f8bcd4d43c8084ca37f80cc6e90d5fe6", "fusion_lon": 0.0, "lat": 38.919281, "fusion_lat": 0.0}, {"is_disabled": 0, "rental_uris": {"android": "https://dc.lft.to/lastmile_qr_scan", "ios": "https://dc.lft.to/lastmile_qr_scan"}, "is_reserved": 0, "name": "4466ff23875a5be4f15c9805fb1a617b", "lon": -77.03396233333333, "type": "electric_scooter", "bike_id": "4466ff23875a5be4f15c9805fb1a617b", "fusion_lon": 0.0, "lat": 38.91704716666667, "fusion_lat": 0.0}, {"is_disabled": 0, "rental_uris": {"android": "https://dc.lft.to/lastmile_qr_scan", "ios": "https://dc.lft.to/lastmile_qr_scan"}, "is_reserved": 0, "name": "9c040e8d7381f4233cd5131f25828ea5", "lon": -77.03194883333333, "type": "electric_scooter", "bike_id": "9c040e8d7381f4233cd5131f25828ea5", "fusion_lon": 0.0, "lat": 38.93068533333334, "fusion_lat": 0.0}, {"is_disabled": 0, "rental_uris": {"android": "https://dc.lft.to/lastmile_qr_scan", "ios": "https://dc.lft.to/lastmile_qr_scan"}, "is_reserved": 0, "name": "eec6a80db9d48aa1dcd0b3e2a4bed91a", "lon": -77.0636565, "type": "electric_scooter", "bike_id": "eec6a80db9d48aa1dcd0b3e2a4bed91a", "fusion_lon": 0.0, "lat": 38.944154166666664, "fusion_lat": 0.0}, {"is_disabled": 0, "rental_uris": {"android": "https://dc.lft.to/lastmile_qr_scan", "ios": "https://dc.lft.to/lastmile_qr_scan"}, "is_reserved": 0, "name": "6112bb9ee31a23c2796f6b20b6ea8251", "lon": -76.99955683333333, "type": "electric_scooter", "bike_id": "6112bb9ee31a23c2796f6b20b6ea8251", "fusion_lon": 0.0, "lat": 38.903415833333334, "fusion_lat": 0.0}, {"is_disabled": 0, "rental_uris": {"android": "https://dc.lft.to/lastmile_qr_scan", "ios": "https://dc.lft.to/lastmile_qr_scan"}, "is_reserved": 0, "name": "0bc95a01cb6d29ea25994512071df7fb", "lon": -77.00204516666666, "type": "electric_scooter", "bike_id": "0bc95a01cb6d29ea25994512071df7fb", "fusion_lon": 0.0, "lat": 38.902413833333334, "fusion_lat": 0.0}, {"is_disabled": 0, "rental_uris": {"android": "https://dc.lft.to/lastmile_qr_scan", "ios": "https://dc.lft.to/lastmile_qr_scan"}, "is_reserved": 0, "name": "05056776fd517d0a98111b36fd5ae92d", "lon": -77.00647733333334, "type": "electric_bike", "bike_id": "05056776fd517d0a98111b36fd5ae92d", "fusion_lon": 0.0, "lat": 38.944721666666666, "fusion_lat": 0.0}, {"is_disabled": 0, "rental_uris": {"android": "https://dc.lft.to/lastmile_qr_scan", "ios": "https://dc.lft.to/lastmile_qr_scan"}, "is_reserved": 0, "name": "804770ac788833655e9d5e6dfff1f06f", "lon": -77.031856, "type": "electric_scooter", "bike_id": "804770ac788833655e9d5e6dfff1f06f", "fusion_lon": 0.0, "lat": 38.919076833333335, "fusion_lat": 0.0}, {"is_disabled": 0, "rental_uris": {"android": "https://dc.lft.to/lastmile_qr_scan", "ios": "https://dc.lft.to/lastmile_qr_scan"}, "is_reserved": 0, "name": "0cfda11dc83c916bd7c0a89f0eb75672", "lon": -77.0387755, "type": "electric_scooter", "bike_id": "0cfda11dc83c916bd7c0a89f0eb75672", "fusion_lon": 0.0, "lat": 38.934285833333334, "fusion_lat": 0.0}, {"is_disabled": 0, "rental_uris": {"android": "https://dc.lft.to/lastmile_qr_scan", "ios": "https://dc.lft.to/lastmile_qr_scan"}, "is_reserved": 0, "name": "094672f698997c9a0c127c3dd55d65f9", "lon": -77.05837583333333, "type": "electric_scooter", "bike_id": "094672f698997c9a0c127c3dd55d65f9", "fusion_lon": 0.0, "lat": 38.934255, "fusion_lat": 0.0}, {"is_disabled": 0, "rental_uris": {"android": "https://dc.lft.to/lastmile_qr_scan", "ios": "https://dc.lft.to/lastmile_qr_scan"}, "is_reserved": 0, "name": "2f63f2c14c667aa8f0e437e322f35fe8", "lon": -77.05113533333333, "type": "electric_bike", "bike_id": "2f63f2c14c667aa8f0e437e322f35fe8", "fusion_lon": 0.0, "lat": 38.9456205, "fusion_lat": 0.0}, {"is_disabled": 0, "rental_uris": {"android": "https://dc.lft.to/lastmile_qr_scan", "ios": "https://dc.lft.to/lastmile_qr_scan"}, "is_reserved": 0, "name": "4d2b22aa8b9c4f24ff5f974b46badb1d", "lon": -77.03202133333333, "type": "electric_scooter", "bike_id": "4d2b22aa8b9c4f24ff5f974b46badb1d", "fusion_lon": 0.0, "lat": 38.919113833333334, "fusion_lat": 0.0}, {"is_disabled": 0, "rental_uris": {"android": "https://dc.lft.to/lastmile_qr_scan", "ios": "https://dc.lft.to/lastmile_qr_scan"}, "is_reserved": 0, "name": "dd2b608adaccfaaafa41a67eac1a644f", "lon": -77.04354316666667, "type": "electric_scooter", "bike_id": "dd2b608adaccfaaafa41a67eac1a644f", "fusion_lon": 0.0, "lat": 38.90125716666667, "fusion_lat": 0.0}, {"is_disabled": 0, "rental_uris": {"android": "https://dc.lft.to/lastmile_qr_scan", "ios": "https://dc.lft.to/lastmile_qr_scan"}, "is_reserved": 0, "name": "f997510dc9e7341579b2b0ac96b22caa", "lon": -76.98371083333333, "type": "electric_scooter", "bike_id": "f997510dc9e7341579b2b0ac96b22caa", "fusion_lon": 0.0, "lat": 38.9220205, "fusion_lat": 0.0}, {"is_disabled": 0, "rental_uris": {"android": "https://dc.lft.to/lastmile_qr_scan", "ios": "https://dc.lft.to/lastmile_qr_scan"}, "is_reserved": 0, "name": "afb53660c6464907da984839945cdffc", "lon": -77.0218535, "type": "electric_scooter", "bike_id": "afb53660c6464907da984839945cdffc", "fusion_lon": 0.0, "lat": 38.89738916666667, "fusion_lat": 0.0}, {"is_disabled": 0, "rental_uris": {"android": "https://dc.lft.to/lastmile_qr_scan", "ios": "https://dc.lft.to/lastmile_qr_scan"}, "is_reserved": 0, "name": "f4972fd7b01b0b9da4580538a1d0a0c7", "lon": -77.02831283333333, "type": "electric_scooter", "bike_id": "f4972fd7b01b0b9da4580538a1d0a0c7", "fusion_lon": 0.0, "lat": 38.914188, "fusion_lat": 0.0}, {"is_disabled": 0, "rental_uris": {"android": "https://dc.lft.to/lastmile_qr_scan", "ios": "https://dc.lft.to/lastmile_qr_scan"}, "is_reserved": 0, "name": "62e22a0ffdadcb98d28bf48f3946f8c7", "lon": -77.107283, "type": "electric_bike", "bike_id": "62e22a0ffdadcb98d28bf48f3946f8c7", "fusion_lon": 0.0, "lat": 38.8556115, "fusion_lat": 0.0}, {"is_disabled": 0, "rental_uris": {"android": "https://dc.lft.to/lastmile_qr_scan", "ios": "https://dc.lft.to/lastmile_qr_scan"}, "is_reserved": 0, "name": "61e74a77ca8fdb5648a4b2d52156332f", "lon": -77.0266235, "type": "electric_scooter", "bike_id": "61e74a77ca8fdb5648a4b2d52156332f", "fusion_lon": 0.0, "lat": 38.92383616666667, "fusion_lat": 0.0}, {"is_disabled": 0, "rental_uris": {"android": "https://dc.lft.to/lastmile_qr_scan", "ios": "https://dc.lft.to/lastmile_qr_scan"}, "is_reserved": 0, "name": "00b1159552cb36de03d42d768d9ed1d0", "lon": -77.02980883333333, "type": "electric_scooter", "bike_id": "00b1159552cb36de03d42d768d9ed1d0", "fusion_lon": 0.0, "lat": 38.92471583333333, "fusion_lat": 0.0}, {"is_disabled": 0, "rental_uris": {"android": "https://dc.lft.to/lastmile_qr_scan", "ios": "https://dc.lft.to/lastmile_qr_scan"}, "is_reserved": 0, "name": "2dfc08c830fc2de1b863e7facd9bae18", "lon": -77.07794383333334, "type": "electric_bike", "bike_id": "2dfc08c830fc2de1b863e7facd9bae18", "fusion_lon": 0.0, "lat": 38.84514983333333, "fusion_lat": 0.0}, {"is_disabled": 0, "rental_uris": {"android": "https://dc.lft.to/lastmile_qr_scan", "ios": "https://dc.lft.to/lastmile_qr_scan"}, "is_reserved": 0, "name": "16fe56dc29a288d2955976278a42fbc3", "lon": -77.060372, "type": "electric_scooter", "bike_id": "16fe56dc29a288d2955976278a42fbc3", "fusion_lon": 0.0, "lat": 38.9390185, "fusion_lat": 0.0}, {"is_disabled": 0, "rental_uris": {"android": "https://dc.lft.to/lastmile_qr_scan", "ios": "https://dc.lft.to/lastmile_qr_scan"}, "is_reserved": 0, "name": "52769c276bac6168f67bd960184fb9f7", "lon": -76.980212, "type": "electric_scooter", "bike_id": "52769c276bac6168f67bd960184fb9f7", "fusion_lon": 0.0, "lat": 38.864040333333335, "fusion_lat": 0.0}, {"is_disabled": 0, "rental_uris": {"android": "https://dc.lft.to/lastmile_qr_scan", "ios": "https://dc.lft.to/lastmile_qr_scan"}, "is_reserved": 0, "name": "5bde086e90d637d677ed3307001772a0", "lon": -77.03919116666667, "type": "electric_scooter", "bike_id": "5bde086e90d637d677ed3307001772a0", "fusion_lon": 0.0, "lat": 38.902759, "fusion_lat": 0.0}, {"is_disabled": 0, "rental_uris": {"android": "https://dc.lft.to/lastmile_qr_scan", "ios": "https://dc.lft.to/lastmile_qr_scan"}, "is_reserved": 0, "name": "b389208d239685bb5498125ecaecbb38", "lon": -77.02490383333334, "type": "electric_scooter", "bike_id": "b389208d239685bb5498125ecaecbb38", "fusion_lon": 0.0, "lat": 38.94184583333333, "fusion_lat": 0.0}, {"is_disabled": 0, "rental_uris": {"android": "https://dc.lft.to/lastmile_qr_scan", "ios": "https://dc.lft.to/lastmile_qr_scan"}, "is_reserved": 0, "name": "904c68a276cbc23173555b3aa5415fa5", "lon": -77.04172716666666, "type": "electric_scooter", "bike_id": "904c68a276cbc23173555b3aa5415fa5", "fusion_lon": 0.0, "lat": 38.916162, "fusion_lat": 0.0}, {"is_disabled": 0, "rental_uris": {"android": "https://dc.lft.to/lastmile_qr_scan", "ios": "https://dc.lft.to/lastmile_qr_scan"}, "is_reserved": 0, "name": "3ce83c784219a338c618fab1d2ff48e4", "lon": -77.02957966666666, "type": "electric_scooter", "bike_id": "3ce83c784219a338c618fab1d2ff48e4", "fusion_lon": 0.0, "lat": 38.921423833333336, "fusion_lat": 0.0}, {"is_disabled": 0, "rental_uris": {"android": "https://dc.lft.to/lastmile_qr_scan", "ios": "https://dc.lft.to/lastmile_qr_scan"}, "is_reserved": 0, "name": "38a986dc070cd709031dae63763473b1", "lon": -77.01770616666667, "type": "electric_scooter", "bike_id": "38a986dc070cd709031dae63763473b1", "fusion_lon": 0.0, "lat": 38.90278266666667, "fusion_lat": 0.0}, {"is_disabled": 0, "rental_uris": {"android": "https://dc.lft.to/lastmile_qr_scan", "ios": "https://dc.lft.to/lastmile_qr_scan"}, "is_reserved": 0, "name": "17a9b78c416210f6dd604ce534d5e8b1", "lon": -77.0281065, "type": "electric_scooter", "bike_id": "17a9b78c416210f6dd604ce534d5e8b1", "fusion_lon": 0.0, "lat": 38.896028666666666, "fusion_lat": 0.0}, {"is_disabled": 0, "rental_uris": {"android": "https://dc.lft.to/lastmile_qr_scan", "ios": "https://dc.lft.to/lastmile_qr_scan"}, "is_reserved": 0, "name": "2ae7639fa16d9d7a46ee4507f7c0f51c", "lon": -77.00069816666667, "type": "electric_scooter", "bike_id": "2ae7639fa16d9d7a46ee4507f7c0f51c", "fusion_lon": 0.0, "lat": 38.923878, "fusion_lat": 0.0}, {"is_disabled": 0, "rental_uris": {"android": "https://dc.lft.to/lastmile_qr_scan", "ios": "https://dc.lft.to/lastmile_qr_scan"}, "is_reserved": 0, "name": "dacc025e06bcdbc30af19941a32db4cd", "lon": -77.05252083333333, "type": "electric_scooter", "bike_id": "dacc025e06bcdbc30af19941a32db4cd", "fusion_lon": 0.0, "lat": 38.923838, "fusion_lat": 0.0}, {"is_disabled": 0, "rental_uris": {"android": "https://dc.lft.to/lastmile_qr_scan", "ios": "https://dc.lft.to/lastmile_qr_scan"}, "is_reserved": 0, "name": "41924beff69638b71f57a19e5b8f2ca3", "lon": -77.035263, "type": "electric_scooter", "bike_id": "41924beff69638b71f57a19e5b8f2ca3", "fusion_lon": 0.0, "lat": 38.909738, "fusion_lat": 0.0}, {"is_disabled": 0, "rental_uris": {"android": "https://dc.lft.to/lastmile_qr_scan", "ios": "https://dc.lft.to/lastmile_qr_scan"}, "is_reserved": 0, "name": "b43797ea174e057034f71791d70798bd", "lon": -77.02409216666666, "type": "electric_scooter", "bike_id": "b43797ea174e057034f71791d70798bd", "fusion_lon": 0.0, "lat": 38.91565516666667, "fusion_lat": 0.0}, {"is_disabled": 0, "rental_uris": {"android": "https://dc.lft.to/lastmile_qr_scan", "ios": "https://dc.lft.to/lastmile_qr_scan"}, "is_reserved": 0, "name": "1f6085407e30a1522773bdb5cf5491af", "lon": -77.02995216666666, "type": "electric_scooter", "bike_id": "1f6085407e30a1522773bdb5cf5491af", "fusion_lon": 0.0, "lat": 38.9247005, "fusion_lat": 0.0}, {"is_disabled": 0, "rental_uris": {"android": "https://dc.lft.to/lastmile_qr_scan", "ios": "https://dc.lft.to/lastmile_qr_scan"}, "is_reserved": 0, "name": "4a31d1a7f273df126c3f182ce5e65690", "lon": -77.011096, "type": "electric_scooter", "bike_id": "4a31d1a7f273df126c3f182ce5e65690", "fusion_lon": 0.0, "lat": 38.90782166666666, "fusion_lat": 0.0}, {"is_disabled": 0, "rental_uris": {"android": "https://dc.lft.to/lastmile_qr_scan", "ios": "https://dc.lft.to/lastmile_qr_scan"}, "is_reserved": 0, "name": "5a36d37dafb0e89098498949aa71277b", "lon": -77.04182416666667, "type": "electric_scooter", "bike_id": "5a36d37dafb0e89098498949aa71277b", "fusion_lon": 0.0, "lat": 38.892320833333336, "fusion_lat": 0.0}, {"is_disabled": 0, "rental_uris": {"android": "https://dc.lft.to/lastmile_qr_scan", "ios": "https://dc.lft.to/lastmile_qr_scan"}, "is_reserved": 0, "name": "1c04c10d9a641b9a908c360653f403cd", "lon": -76.981883, "type": "electric_bike", "bike_id": "1c04c10d9a641b9a908c360653f403cd", "fusion_lon": 0.0, "lat": 38.9849885, "fusion_lat": 0.0}, {"is_disabled": 0, "rental_uris": {"android": "https://dc.lft.to/lastmile_qr_scan", "ios": "https://dc.lft.to/lastmile_qr_scan"}, "is_reserved": 0, "name": "809cb87ed7ae80f671112d468620f869", "lon": -77.03413816666666, "type": "electric_scooter", "bike_id": "809cb87ed7ae80f671112d468620f869", "fusion_lon": 0.0, "lat": 38.91932533333333, "fusion_lat": 0.0}, {"is_disabled": 0, "rental_uris": {"android": "https://dc.lft.to/lastmile_qr_scan", "ios": "https://dc.lft.to/lastmile_qr_scan"}, "is_reserved": 0, "name": "16dbb858815db971f1777639c5417f4e", "lon": -77.03957966666667, "type": "electric_scooter", "bike_id": "16dbb858815db971f1777639c5417f4e", "fusion_lon": 0.0, "lat": 38.899079666666665, "fusion_lat": 0.0}, {"is_disabled": 0, "rental_uris": {"android": "https://dc.lft.to/lastmile_qr_scan", "ios": "https://dc.lft.to/lastmile_qr_scan"}, "is_reserved": 0, "name": "fddccc75f9d1cfe805f2c5dd8eb8a4b6", "lon": -77.04380683333333, "type": "electric_scooter", "bike_id": "fddccc75f9d1cfe805f2c5dd8eb8a4b6", "fusion_lon": 0.0, "lat": 38.90282583333333, "fusion_lat": 0.0}, {"is_disabled": 0, "rental_uris": {"android": "https://dc.lft.to/lastmile_qr_scan", "ios": "https://dc.lft.to/lastmile_qr_scan"}, "is_reserved": 0, "name": "159dd6d5c742454a7e18866d004154c4", "lon": -77.0375335, "type": "electric_scooter", "bike_id": "159dd6d5c742454a7e18866d004154c4", "fusion_lon": 0.0, "lat": 38.929070833333334, "fusion_lat": 0.0}, {"is_disabled": 0, "rental_uris": {"android": "https://dc.lft.to/lastmile_qr_scan", "ios": "https://dc.lft.to/lastmile_qr_scan"}, "is_reserved": 0, "name": "1ca5d6418c323632f6e8d453f7832668", "lon": -77.02393233333333, "type": "electric_scooter", "bike_id": "1ca5d6418c323632f6e8d453f7832668", "fusion_lon": 0.0, "lat": 38.907116333333335, "fusion_lat": 0.0}, {"is_disabled": 0, "rental_uris": {"android": "https://dc.lft.to/lastmile_qr_scan", "ios": "https://dc.lft.to/lastmile_qr_scan"}, "is_reserved": 0, "name": "dc425acdcd51b9275ac6dc3158b349c0", "lon": -77.03181433333333, "type": "electric_scooter", "bike_id": "dc425acdcd51b9275ac6dc3158b349c0", "fusion_lon": 0.0, "lat": 38.919177, "fusion_lat": 0.0}, {"is_disabled": 0, "rental_uris": {"android": "https://dc.lft.to/lastmile_qr_scan", "ios": "https://dc.lft.to/lastmile_qr_scan"}, "is_reserved": 0, "name": "5ecdb9c4766f67b0baa2e3577a3ba757", "lon": -77.03148966666667, "type": "electric_scooter", "bike_id": "5ecdb9c4766f67b0baa2e3577a3ba757", "fusion_lon": 0.0, "lat": 38.927244333333334, "fusion_lat": 0.0}, {"is_disabled": 0, "rental_uris": {"android": "https://dc.lft.to/lastmile_qr_scan", "ios": "https://dc.lft.to/lastmile_qr_scan"}, "is_reserved": 0, "name": "2699f3b11276a9cb46ca5f3293e21f9f", "lon": -76.9878215, "type": "electric_scooter", "bike_id": "2699f3b11276a9cb46ca5f3293e21f9f", "fusion_lon": 0.0, "lat": 38.89825033333334, "fusion_lat": 0.0}, {"is_disabled": 0, "rental_uris": {"android": "https://dc.lft.to/lastmile_qr_scan", "ios": "https://dc.lft.to/lastmile_qr_scan"}, "is_reserved": 0, "name": "4c2c56414a32387afad86748839a198a", "lon": -76.96546483333333, "type": "electric_scooter", "bike_id": "4c2c56414a32387afad86748839a198a", "fusion_lon": 0.0, "lat": 38.91895383333333, "fusion_lat": 0.0}, {"is_disabled": 0, "rental_uris": {"android": "https://dc.lft.to/lastmile_qr_scan", "ios": "https://dc.lft.to/lastmile_qr_scan"}, "is_reserved": 0, "name": "627046f4cbcc8248a29bc8ebda6b5870", "lon": -77.0292015, "type": "electric_scooter", "bike_id": "627046f4cbcc8248a29bc8ebda6b5870", "fusion_lon": 0.0, "lat": 38.938749333333334, "fusion_lat": 0.0}, {"is_disabled": 0, "rental_uris": {"android": "https://dc.lft.to/lastmile_qr_scan", "ios": "https://dc.lft.to/lastmile_qr_scan"}, "is_reserved": 0, "name": "7fdbd8f6024b1e6d38d0eb5f2fd7191d", "lon": -77.0455505, "type": "electric_scooter", "bike_id": "7fdbd8f6024b1e6d38d0eb5f2fd7191d", "fusion_lon": 0.0, "lat": 38.91935183333333, "fusion_lat": 0.0}, {"is_disabled": 0, "rental_uris": {"android": "https://dc.lft.to/lastmile_qr_scan", "ios": "https://dc.lft.to/lastmile_qr_scan"}, "is_reserved": 0, "name": "03c7e6e606f305c71efa6a6195a7d49f", "lon": -77.04332266666667, "type": "electric_scooter", "bike_id": "03c7e6e606f305c71efa6a6195a7d49f", "fusion_lon": 0.0, "lat": 38.90859666666667, "fusion_lat": 0.0}, {"is_disabled": 0, "rental_uris": {"android": "https://dc.lft.to/lastmile_qr_scan", "ios": "https://dc.lft.to/lastmile_qr_scan"}, "is_reserved": 0, "name": "3a097248d24c54eaff68a42d404a3857", "lon": -77.039641, "type": "electric_scooter", "bike_id": "3a097248d24c54eaff68a42d404a3857", "fusion_lon": 0.0, "lat": 38.93150116666666, "fusion_lat": 0.0}, {"is_disabled": 0, "rental_uris": {"android": "https://dc.lft.to/lastmile_qr_scan", "ios": "https://dc.lft.to/lastmile_qr_scan"}, "is_reserved": 0, "name": "ab36277c257cc31c219495919b0aa84f", "lon": -77.01577566666667, "type": "electric_scooter", "bike_id": "ab36277c257cc31c219495919b0aa84f", "fusion_lon": 0.0, "lat": 38.87660183333333, "fusion_lat": 0.0}, {"is_disabled": 0, "rental_uris": {"android": "https://dc.lft.to/lastmile_qr_scan", "ios": "https://dc.lft.to/lastmile_qr_scan"}, "is_reserved": 0, "name": "c87bcab62fe3b6acbdbeec17c77ffb80", "lon": -77.05972483333333, "type": "electric_scooter", "bike_id": "c87bcab62fe3b6acbdbeec17c77ffb80", "fusion_lon": 0.0, "lat": 38.90531033333333, "fusion_lat": 0.0}, {"is_disabled": 0, "rental_uris": {"android": "https://dc.lft.to/lastmile_qr_scan", "ios": "https://dc.lft.to/lastmile_qr_scan"}, "is_reserved": 0, "name": "4ed8166a9022eb864d6ba558d8a11fca", "lon": -76.9341135, "type": "electric_bike", "bike_id": "4ed8166a9022eb864d6ba558d8a11fca", "fusion_lon": 0.0, "lat": 38.946254, "fusion_lat": 0.0}, {"is_disabled": 0, "rental_uris": {"android": "https://dc.lft.to/lastmile_qr_scan", "ios": "https://dc.lft.to/lastmile_qr_scan"}, "is_reserved": 0, "name": "c148f95cf8803d079a92f558ba952c4f", "lon": -77.0373815, "type": "electric_scooter", "bike_id": "c148f95cf8803d079a92f558ba952c4f", "fusion_lon": 0.0, "lat": 38.90980616666667, "fusion_lat": 0.0}, {"is_disabled": 0, "rental_uris": {"android": "https://dc.lft.to/lastmile_qr_scan", "ios": "https://dc.lft.to/lastmile_qr_scan"}, "is_reserved": 0, "name": "facc2ac8f9536161d2025f536a4a1fc1", "lon": -77.0284095, "type": "electric_scooter", "bike_id": "facc2ac8f9536161d2025f536a4a1fc1", "fusion_lon": 0.0, "lat": 38.934213666666665, "fusion_lat": 0.0}, {"is_disabled": 0, "rental_uris": {"android": "https://dc.lft.to/lastmile_qr_scan", "ios": "https://dc.lft.to/lastmile_qr_scan"}, "is_reserved": 0, "name": "3d2ba0938a52b96b4ce3070feac3aba3", "lon": -77.012602, "type": "electric_scooter", "bike_id": "3d2ba0938a52b96b4ce3070feac3aba3", "fusion_lon": 0.0, "lat": 38.876303, "fusion_lat": 0.0}, {"is_disabled": 0, "rental_uris": {"android": "https://dc.lft.to/lastmile_qr_scan", "ios": "https://dc.lft.to/lastmile_qr_scan"}, "is_reserved": 0, "name": "1a4e67010e0e8e4cb4c32ad6caa27c59", "lon": -77.02130833333334, "type": "electric_scooter", "bike_id": "1a4e67010e0e8e4cb4c32ad6caa27c59", "fusion_lon": 0.0, "lat": 38.88749766666667, "fusion_lat": 0.0}, {"is_disabled": 0, "rental_uris": {"android": "https://dc.lft.to/lastmile_qr_scan", "ios": "https://dc.lft.to/lastmile_qr_scan"}, "is_reserved": 0, "name": "dc7707381fa1d72c42541cf5f0728b38", "lon": -77.03521533333333, "type": "electric_scooter", "bike_id": "dc7707381fa1d72c42541cf5f0728b38", "fusion_lon": 0.0, "lat": 38.93588283333333, "fusion_lat": 0.0}, {"is_disabled": 0, "rental_uris": {"android": "https://dc.lft.to/lastmile_qr_scan", "ios": "https://dc.lft.to/lastmile_qr_scan"}, "is_reserved": 0, "name": "2a4fe518c512d384eb3fad7ee6098e81", "lon": -77.02973266666666, "type": "electric_scooter", "bike_id": "2a4fe518c512d384eb3fad7ee6098e81", "fusion_lon": 0.0, "lat": 38.90782033333333, "fusion_lat": 0.0}, {"is_disabled": 0, "rental_uris": {"android": "https://dc.lft.to/lastmile_qr_scan", "ios": "https://dc.lft.to/lastmile_qr_scan"}, "is_reserved": 0, "name": "49b6de581448058898af16e73b8d91e1", "lon": -76.94703416666667, "type": "electric_scooter", "bike_id": "49b6de581448058898af16e73b8d91e1", "fusion_lon": 0.0, "lat": 38.8973095, "fusion_lat": 0.0}, {"is_disabled": 0, "rental_uris": {"android": "https://dc.lft.to/lastmile_qr_scan", "ios": "https://dc.lft.to/lastmile_qr_scan"}, "is_reserved": 0, "name": "a6c59586db53b87f0cc3855513b98e93", "lon": -77.00123316666667, "type": "electric_bike", "bike_id": "a6c59586db53b87f0cc3855513b98e93", "fusion_lon": 0.0, "lat": 38.99933566666667, "fusion_lat": 0.0}, {"is_disabled": 0, "rental_uris": {"android": "https://dc.lft.to/lastmile_qr_scan", "ios": "https://dc.lft.to/lastmile_qr_scan"}, "is_reserved": 0, "name": "0cc2162daa4ab8097aeae376e69e236e", "lon": -77.01824816666667, "type": "electric_scooter", "bike_id": "0cc2162daa4ab8097aeae376e69e236e", "fusion_lon": 0.0, "lat": 38.903909, "fusion_lat": 0.0}, {"is_disabled": 0, "rental_uris": {"android": "https://dc.lft.to/lastmile_qr_scan", "ios": "https://dc.lft.to/lastmile_qr_scan"}, "is_reserved": 0, "name": "0670b04f581e8684f7873b8e24b2bfda", "lon": -76.9922805, "type": "electric_scooter", "bike_id": "0670b04f581e8684f7873b8e24b2bfda", "fusion_lon": 0.0, "lat": 38.89881916666667, "fusion_lat": 0.0}, {"is_disabled": 0, "rental_uris": {"android": "https://dc.lft.to/lastmile_qr_scan", "ios": "https://dc.lft.to/lastmile_qr_scan"}, "is_reserved": 0, "name": "4ba09823d9443c934a44101eac01fe2a", "lon": -77.02567216666667, "type": "electric_scooter", "bike_id": "4ba09823d9443c934a44101eac01fe2a", "fusion_lon": 0.0, "lat": 38.899543333333334, "fusion_lat": 0.0}, {"is_disabled": 0, "rental_uris": {"android": "https://dc.lft.to/lastmile_qr_scan", "ios": "https://dc.lft.to/lastmile_qr_scan"}, "is_reserved": 0, "name": "a29a36d51c89e710979a199d0b5d8558", "lon": -77.030581, "type": "electric_scooter", "bike_id": "a29a36d51c89e710979a199d0b5d8558", "fusion_lon": 0.0, "lat": 38.956294666666665, "fusion_lat": 0.0}, {"is_disabled": 0, "rental_uris": {"android": "https://dc.lft.to/lastmile_qr_scan", "ios": "https://dc.lft.to/lastmile_qr_scan"}, "is_reserved": 0, "name": "d7f0f88bc7efabd7ae0cafa7624f21b8", "lon": -77.041239, "type": "electric_scooter", "bike_id": "d7f0f88bc7efabd7ae0cafa7624f21b8", "fusion_lon": 0.0, "lat": 38.91708666666667, "fusion_lat": 0.0}, {"is_disabled": 0, "rental_uris": {"android": "https://dc.lft.to/lastmile_qr_scan", "ios": "https://dc.lft.to/lastmile_qr_scan"}, "is_reserved": 0, "name": "9e28be055026f14985c7e3d5957959c3", "lon": -76.99685583333333, "type": "electric_scooter", "bike_id": "9e28be055026f14985c7e3d5957959c3", "fusion_lon": 0.0, "lat": 38.8603885, "fusion_lat": 0.0}, {"is_disabled": 0, "rental_uris": {"android": "https://dc.lft.to/lastmile_qr_scan", "ios": "https://dc.lft.to/lastmile_qr_scan"}, "is_reserved": 0, "name": "4023e904c91806c660ac0bbe75560d48", "lon": -77.14777383333333, "type": "electric_bike", "bike_id": "4023e904c91806c660ac0bbe75560d48", "fusion_lon": 0.0, "lat": 39.09594283333333, "fusion_lat": 0.0}, {"is_disabled": 0, "rental_uris": {"android": "https://dc.lft.to/lastmile_qr_scan", "ios": "https://dc.lft.to/lastmile_qr_scan"}, "is_reserved": 0, "name": "4a8ca0683eefde889d7f1e9e308c7db6", "lon": -77.00267966666667, "type": "electric_scooter", "bike_id": "4a8ca0683eefde889d7f1e9e308c7db6", "fusion_lon": 0.0, "lat": 38.911903, "fusion_lat": 0.0}, {"is_disabled": 0, "rental_uris": {"android": "https://dc.lft.to/lastmile_qr_scan", "ios": "https://dc.lft.to/lastmile_qr_scan"}, "is_reserved": 0, "name": "d0792cb389d6b8f16bdc3f9dcfd8ce0a", "lon": -77.0957765, "type": "electric_bike", "bike_id": "d0792cb389d6b8f16bdc3f9dcfd8ce0a", "fusion_lon": 0.0, "lat": 38.837875333333336, "fusion_lat": 0.0}, {"is_disabled": 0, "rental_uris": {"android": "https://dc.lft.to/lastmile_qr_scan", "ios": "https://dc.lft.to/lastmile_qr_scan"}, "is_reserved": 0, "name": "e6aeddcc8e2bbdcf34c649bff54638b8", "lon": -77.0361515, "type": "electric_scooter", "bike_id": "e6aeddcc8e2bbdcf34c649bff54638b8", "fusion_lon": 0.0, "lat": 38.931512833333336, "fusion_lat": 0.0}, {"is_disabled": 0, "rental_uris": {"android": "https://dc.lft.to/lastmile_qr_scan", "ios": "https://dc.lft.to/lastmile_qr_scan"}, "is_reserved": 0, "name": "f36c8283270c1d5d5c714df673851053", "lon": -76.948841, "type": "electric_scooter", "bike_id": "f36c8283270c1d5d5c714df673851053", "fusion_lon": 0.0, "lat": 38.89510966666667, "fusion_lat": 0.0}, {"is_disabled": 0, "rental_uris": {"android": "https://dc.lft.to/lastmile_qr_scan", "ios": "https://dc.lft.to/lastmile_qr_scan"}, "is_reserved": 0, "name": "825cc67d4078a7cc7eea4975ad465126", "lon": -77.047864, "type": "electric_bike", "bike_id": "825cc67d4078a7cc7eea4975ad465126", "fusion_lon": 0.0, "lat": 38.91941033333333, "fusion_lat": 0.0}, {"is_disabled": 0, "rental_uris": {"android": "https://dc.lft.to/lastmile_qr_scan", "ios": "https://dc.lft.to/lastmile_qr_scan"}, "is_reserved": 0, "name": "d9dd807b52987a5b4249c185b4f6dbee", "lon": -77.03524783333333, "type": "electric_scooter", "bike_id": "d9dd807b52987a5b4249c185b4f6dbee", "fusion_lon": 0.0, "lat": 38.922409, "fusion_lat": 0.0}, {"is_disabled": 0, "rental_uris": {"android": "https://dc.lft.to/lastmile_qr_scan", "ios": "https://dc.lft.to/lastmile_qr_scan"}, "is_reserved": 0, "name": "2de235b5a81c2e5702d2600af46803ef", "lon": -77.054081, "type": "electric_scooter", "bike_id": "2de235b5a81c2e5702d2600af46803ef", "fusion_lon": 0.0, "lat": 38.92773, "fusion_lat": 0.0}, {"is_disabled": 0, "rental_uris": {"android": "https://dc.lft.to/lastmile_qr_scan", "ios": "https://dc.lft.to/lastmile_qr_scan"}, "is_reserved": 0, "name": "14e3a2dec1374b745b0f4e8816b9aac4", "lon": -77.02782366666666, "type": "electric_scooter", "bike_id": "14e3a2dec1374b745b0f4e8816b9aac4", "fusion_lon": 0.0, "lat": 38.8842315, "fusion_lat": 0.0}, {"is_disabled": 0, "rental_uris": {"android": "https://dc.lft.to/lastmile_qr_scan", "ios": "https://dc.lft.to/lastmile_qr_scan"}, "is_reserved": 0, "name": "115942609574c3f46a8690048712f05c", "lon": -77.04197516666666, "type": "electric_scooter", "bike_id": "115942609574c3f46a8690048712f05c", "fusion_lon": 0.0, "lat": 38.91676016666667, "fusion_lat": 0.0}, {"is_disabled": 0, "rental_uris": {"android": "https://dc.lft.to/lastmile_qr_scan", "ios": "https://dc.lft.to/lastmile_qr_scan"}, "is_reserved": 0, "name": "5079db53fe2c830737ccee66046d770c", "lon": -77.0020185, "type": "electric_scooter", "bike_id": "5079db53fe2c830737ccee66046d770c", "fusion_lon": 0.0, "lat": 38.90036933333333, "fusion_lat": 0.0}, {"is_disabled": 0, "rental_uris": {"android": "https://dc.lft.to/lastmile_qr_scan", "ios": "https://dc.lft.to/lastmile_qr_scan"}, "is_reserved": 0, "name": "309fa479ac813e5fdf845b3a58031bb7", "lon": -77.059276, "type": "electric_scooter", "bike_id": "309fa479ac813e5fdf845b3a58031bb7", "fusion_lon": 0.0, "lat": 38.8624115, "fusion_lat": 0.0}, {"is_disabled": 0, "rental_uris": {"android": "https://dc.lft.to/lastmile_qr_scan", "ios": "https://dc.lft.to/lastmile_qr_scan"}, "is_reserved": 0, "name": "5b8ba71bfb81e1187f070ff333d3677c", "lon": -77.022016, "type": "electric_scooter", "bike_id": "5b8ba71bfb81e1187f070ff333d3677c", "fusion_lon": 0.0, "lat": 38.90981, "fusion_lat": 0.0}, {"is_disabled": 0, "rental_uris": {"android": "https://dc.lft.to/lastmile_qr_scan", "ios": "https://dc.lft.to/lastmile_qr_scan"}, "is_reserved": 0, "name": "4ccde33f3ea03614a3c927a65a81b64c", "lon": -77.038537, "type": "electric_scooter", "bike_id": "4ccde33f3ea03614a3c927a65a81b64c", "fusion_lon": 0.0, "lat": 38.90402566666667, "fusion_lat": 0.0}, {"is_disabled": 0, "rental_uris": {"android": "https://dc.lft.to/lastmile_qr_scan", "ios": "https://dc.lft.to/lastmile_qr_scan"}, "is_reserved": 0, "name": "c8e9546f76a0b5453c6d6da21a1b553c", "lon": -76.97733333333333, "type": "electric_scooter", "bike_id": "c8e9546f76a0b5453c6d6da21a1b553c", "fusion_lon": 0.0, "lat": 38.894868, "fusion_lat": 0.0}, {"is_disabled": 0, "rental_uris": {"android": "https://dc.lft.to/lastmile_qr_scan", "ios": "https://dc.lft.to/lastmile_qr_scan"}, "is_reserved": 0, "name": "c84e92ed9620ef6595cee0125ea87dba", "lon": -76.9799895, "type": "electric_scooter", "bike_id": "c84e92ed9620ef6595cee0125ea87dba", "fusion_lon": 0.0, "lat": 38.888735, "fusion_lat": 0.0}, {"is_disabled": 0, "rental_uris": {"android": "https://dc.lft.to/lastmile_qr_scan", "ios": "https://dc.lft.to/lastmile_qr_scan"}, "is_reserved": 0, "name": "1695d1225316fd00c6fc51f0e2a69ed4", "lon": -77.02181733333333, "type": "electric_scooter", "bike_id": "1695d1225316fd00c6fc51f0e2a69ed4", "fusion_lon": 0.0, "lat": 38.90147283333334, "fusion_lat": 0.0}, {"is_disabled": 0, "rental_uris": {"android": "https://dc.lft.to/lastmile_qr_scan", "ios": "https://dc.lft.to/lastmile_qr_scan"}, "is_reserved": 0, "name": "8341ef6b4566d5f304c50427a3246ff1", "lon": -77.03225516666667, "type": "electric_scooter", "bike_id": "8341ef6b4566d5f304c50427a3246ff1", "fusion_lon": 0.0, "lat": 38.90976833333333, "fusion_lat": 0.0}, {"is_disabled": 0, "rental_uris": {"android": "https://dc.lft.to/lastmile_qr_scan", "ios": "https://dc.lft.to/lastmile_qr_scan"}, "is_reserved": 0, "name": "f79acb4c8276178e810cf66937613c77", "lon": -77.0386675, "type": "electric_scooter", "bike_id": "f79acb4c8276178e810cf66937613c77", "fusion_lon": 0.0, "lat": 38.9126225, "fusion_lat": 0.0}, {"is_disabled": 0, "rental_uris": {"android": "https://dc.lft.to/lastmile_qr_scan", "ios": "https://dc.lft.to/lastmile_qr_scan"}, "is_reserved": 0, "name": "d3206fe676a2bc7cd955e027e11fe041", "lon": -76.98470216666666, "type": "electric_scooter", "bike_id": "d3206fe676a2bc7cd955e027e11fe041", "fusion_lon": 0.0, "lat": 38.893521166666666, "fusion_lat": 0.0}, {"is_disabled": 0, "rental_uris": {"android": "https://dc.lft.to/lastmile_qr_scan", "ios": "https://dc.lft.to/lastmile_qr_scan"}, "is_reserved": 0, "name": "8ff546dea806990932bf0e456687772e", "lon": -77.02952416666666, "type": "electric_scooter", "bike_id": "8ff546dea806990932bf0e456687772e", "fusion_lon": 0.0, "lat": 38.91195066666667, "fusion_lat": 0.0}, {"is_disabled": 0, "rental_uris": {"android": "https://dc.lft.to/lastmile_qr_scan", "ios": "https://dc.lft.to/lastmile_qr_scan"}, "is_reserved": 0, "name": "fbb20f881ede45c9e900516835e26b24", "lon": -77.11541916666667, "type": "electric_bike", "bike_id": "fbb20f881ede45c9e900516835e26b24", "fusion_lon": 0.0, "lat": 38.882486, "fusion_lat": 0.0}, {"is_disabled": 0, "rental_uris": {"android": "https://dc.lft.to/lastmile_qr_scan", "ios": "https://dc.lft.to/lastmile_qr_scan"}, "is_reserved": 0, "name": "f801094b723e7c1d0690ac04721a78a4", "lon": -77.03088266666667, "type": "electric_scooter", "bike_id": "f801094b723e7c1d0690ac04721a78a4", "fusion_lon": 0.0, "lat": 38.92240683333333, "fusion_lat": 0.0}, {"is_disabled": 0, "rental_uris": {"android": "https://dc.lft.to/lastmile_qr_scan", "ios": "https://dc.lft.to/lastmile_qr_scan"}, "is_reserved": 0, "name": "efcce3839db5721e5f96b80088d955a3", "lon": -77.06530083333334, "type": "electric_scooter", "bike_id": "efcce3839db5721e5f96b80088d955a3", "fusion_lon": 0.0, "lat": 38.905245, "fusion_lat": 0.0}, {"is_disabled": 0, "rental_uris": {"android": "https://dc.lft.to/lastmile_qr_scan", "ios": "https://dc.lft.to/lastmile_qr_scan"}, "is_reserved": 0, "name": "7f0d142da1c5e330667892a9e0b29a69", "lon": -77.0319875, "type": "electric_scooter", "bike_id": "7f0d142da1c5e330667892a9e0b29a69", "fusion_lon": 0.0, "lat": 38.918016, "fusion_lat": 0.0}, {"is_disabled": 0, "rental_uris": {"android": "https://dc.lft.to/lastmile_qr_scan", "ios": "https://dc.lft.to/lastmile_qr_scan"}, "is_reserved": 0, "name": "43c7859e424461166c1284e3b7bfa62c", "lon": -76.95205966666667, "type": "electric_bike", "bike_id": "43c7859e424461166c1284e3b7bfa62c", "fusion_lon": 0.0, "lat": 38.93664833333333, "fusion_lat": 0.0}, {"is_disabled": 0, "rental_uris": {"android": "https://dc.lft.to/lastmile_qr_scan", "ios": "https://dc.lft.to/lastmile_qr_scan"}, "is_reserved": 0, "name": "47c9ee00f019a3232d7b337ed53e93c2", "lon": -77.03842783333333, "type": "electric_scooter", "bike_id": "47c9ee00f019a3232d7b337ed53e93c2", "fusion_lon": 0.0, "lat": 38.926502, "fusion_lat": 0.0}, {"is_disabled": 0, "rental_uris": {"android": "https://dc.lft.to/lastmile_qr_scan", "ios": "https://dc.lft.to/lastmile_qr_scan"}, "is_reserved": 0, "name": "eb657acd0e13bedbe49eb60093a7f3b4", "lon": -77.0240095, "type": "electric_scooter", "bike_id": "eb657acd0e13bedbe49eb60093a7f3b4", "fusion_lon": 0.0, "lat": 38.930974, "fusion_lat": 0.0}, {"is_disabled": 0, "rental_uris": {"android": "https://dc.lft.to/lastmile_qr_scan", "ios": "https://dc.lft.to/lastmile_qr_scan"}, "is_reserved": 0, "name": "1eb816a2027442c9b85d51a86a2f2a41", "lon": -77.02350883333334, "type": "electric_scooter", "bike_id": "1eb816a2027442c9b85d51a86a2f2a41", "fusion_lon": 0.0, "lat": 38.92263366666667, "fusion_lat": 0.0}, {"is_disabled": 0, "rental_uris": {"android": "https://dc.lft.to/lastmile_qr_scan", "ios": "https://dc.lft.to/lastmile_qr_scan"}, "is_reserved": 0, "name": "72ce8d9ae2a05077ee3572e9b4a879ce", "lon": -77.00204666666667, "type": "electric_scooter", "bike_id": "72ce8d9ae2a05077ee3572e9b4a879ce", "fusion_lon": 0.0, "lat": 38.9004485, "fusion_lat": 0.0}, {"is_disabled": 0, "rental_uris": {"android": "https://dc.lft.to/lastmile_qr_scan", "ios": "https://dc.lft.to/lastmile_qr_scan"}, "is_reserved": 0, "name": "9c387fccb13f9b214f6131ab7e463911", "lon": -77.0281815, "type": "electric_scooter", "bike_id": "9c387fccb13f9b214f6131ab7e463911", "fusion_lon": 0.0, "lat": 38.93172066666666, "fusion_lat": 0.0}, {"is_disabled": 0, "rental_uris": {"android": "https://dc.lft.to/lastmile_qr_scan", "ios": "https://dc.lft.to/lastmile_qr_scan"}, "is_reserved": 0, "name": "eabb83c56adfb81bc40fbbdb4daf32d9", "lon": -77.04340316666666, "type": "electric_scooter", "bike_id": "eabb83c56adfb81bc40fbbdb4daf32d9", "fusion_lon": 0.0, "lat": 38.89844, "fusion_lat": 0.0}, {"is_disabled": 0, "rental_uris": {"android": "https://dc.lft.to/lastmile_qr_scan", "ios": "https://dc.lft.to/lastmile_qr_scan"}, "is_reserved": 0, "name": "bf7d6d3ffa43f444a7e746068a96868d", "lon": -77.02382466666667, "type": "electric_scooter", "bike_id": "bf7d6d3ffa43f444a7e746068a96868d", "fusion_lon": 0.0, "lat": 38.9167255, "fusion_lat": 0.0}, {"is_disabled": 0, "rental_uris": {"android": "https://dc.lft.to/lastmile_qr_scan", "ios": "https://dc.lft.to/lastmile_qr_scan"}, "is_reserved": 0, "name": "7b0351d5fe65efd1a81f6658723365a2", "lon": -77.04754216666667, "type": "electric_scooter", "bike_id": "7b0351d5fe65efd1a81f6658723365a2", "fusion_lon": 0.0, "lat": 38.907149833333335, "fusion_lat": 0.0}, {"is_disabled": 0, "rental_uris": {"android": "https://dc.lft.to/lastmile_qr_scan", "ios": "https://dc.lft.to/lastmile_qr_scan"}, "is_reserved": 0, "name": "efac354dc74b60c91c2a5183b135c3af", "lon": -77.01017483333334, "type": "electric_scooter", "bike_id": "efac354dc74b60c91c2a5183b135c3af", "fusion_lon": 0.0, "lat": 38.906208166666666, "fusion_lat": 0.0}, {"is_disabled": 0, "rental_uris": {"android": "https://dc.lft.to/lastmile_qr_scan", "ios": "https://dc.lft.to/lastmile_qr_scan"}, "is_reserved": 0, "name": "8f7236e0d3beeafd4666159ed681498f", "lon": -77.0077495, "type": "electric_scooter", "bike_id": "8f7236e0d3beeafd4666159ed681498f", "fusion_lon": 0.0, "lat": 38.9075785, "fusion_lat": 0.0}, {"is_disabled": 0, "rental_uris": {"android": "https://dc.lft.to/lastmile_qr_scan", "ios": "https://dc.lft.to/lastmile_qr_scan"}, "is_reserved": 0, "name": "79788a934e9038423ee57e4ff26edbac", "lon": -77.0198645, "type": "electric_scooter", "bike_id": "79788a934e9038423ee57e4ff26edbac", "fusion_lon": 0.0, "lat": 38.87782033333333, "fusion_lat": 0.0}, {"is_disabled": 0, "rental_uris": {"android": "https://dc.lft.to/lastmile_qr_scan", "ios": "https://dc.lft.to/lastmile_qr_scan"}, "is_reserved": 0, "name": "561da004b39dfd4aa656b3a78acbb63e", "lon": -76.987275, "type": "electric_scooter", "bike_id": "561da004b39dfd4aa656b3a78acbb63e", "fusion_lon": 0.0, "lat": 38.86711733333333, "fusion_lat": 0.0}, {"is_disabled": 0, "rental_uris": {"android": "https://dc.lft.to/lastmile_qr_scan", "ios": "https://dc.lft.to/lastmile_qr_scan"}, "is_reserved": 0, "name": "2caefcdef72295c4a74410eb4adaa9eb", "lon": -77.03869966666667, "type": "electric_scooter", "bike_id": "2caefcdef72295c4a74410eb4adaa9eb", "fusion_lon": 0.0, "lat": 38.915623833333335, "fusion_lat": 0.0}, {"is_disabled": 0, "rental_uris": {"android": "https://dc.lft.to/lastmile_qr_scan", "ios": "https://dc.lft.to/lastmile_qr_scan"}, "is_reserved": 0, "name": "2f23cf772891f0dbc9d6c6b88453c863", "lon": -76.929158, "type": "electric_bike", "bike_id": "2f23cf772891f0dbc9d6c6b88453c863", "fusion_lon": 0.0, "lat": 38.980258666666664, "fusion_lat": 0.0}, {"is_disabled": 0, "rental_uris": {"android": "https://dc.lft.to/lastmile_qr_scan", "ios": "https://dc.lft.to/lastmile_qr_scan"}, "is_reserved": 0, "name": "61cf5dcef28a7ae1f5348067feedb635", "lon": -77.01732316666667, "type": "electric_scooter", "bike_id": "61cf5dcef28a7ae1f5348067feedb635", "fusion_lon": 0.0, "lat": 38.91120866666667, "fusion_lat": 0.0}, {"is_disabled": 0, "rental_uris": {"android": "https://dc.lft.to/lastmile_qr_scan", "ios": "https://dc.lft.to/lastmile_qr_scan"}, "is_reserved": 0, "name": "51bdb54f15da92a7f117382244f0528f", "lon": -77.01710583333333, "type": "electric_scooter", "bike_id": "51bdb54f15da92a7f117382244f0528f", "fusion_lon": 0.0, "lat": 38.90253283333333, "fusion_lat": 0.0}, {"is_disabled": 0, "rental_uris": {"android": "https://dc.lft.to/lastmile_qr_scan", "ios": "https://dc.lft.to/lastmile_qr_scan"}, "is_reserved": 0, "name": "ef1178b056f17ff377d16a98dcfa6481", "lon": -77.029553, "type": "electric_scooter", "bike_id": "ef1178b056f17ff377d16a98dcfa6481", "fusion_lon": 0.0, "lat": 38.927656, "fusion_lat": 0.0}, {"is_disabled": 0, "rental_uris": {"android": "https://dc.lft.to/lastmile_qr_scan", "ios": "https://dc.lft.to/lastmile_qr_scan"}, "is_reserved": 0, "name": "a5e419b35a36bc01e57e47154f5c50b8", "lon": -77.02491783333333, "type": "electric_scooter", "bike_id": "a5e419b35a36bc01e57e47154f5c50b8", "fusion_lon": 0.0, "lat": 38.94183533333333, "fusion_lat": 0.0}, {"is_disabled": 0, "rental_uris": {"android": "https://dc.lft.to/lastmile_qr_scan", "ios": "https://dc.lft.to/lastmile_qr_scan"}, "is_reserved": 0, "name": "dad536b2763e04d9334662c47c97aae5", "lon": -76.9499845, "type": "electric_scooter", "bike_id": "dad536b2763e04d9334662c47c97aae5", "fusion_lon": 0.0, "lat": 38.893922833333335, "fusion_lat": 0.0}, {"is_disabled": 0, "rental_uris": {"android": "https://dc.lft.to/lastmile_qr_scan", "ios": "https://dc.lft.to/lastmile_qr_scan"}, "is_reserved": 0, "name": "90763e1188f47eebaef5c8353da49328", "lon": -77.05068383333334, "type": "electric_scooter", "bike_id": "90763e1188f47eebaef5c8353da49328", "fusion_lon": 0.0, "lat": 38.90104616666667, "fusion_lat": 0.0}, {"is_disabled": 0, "rental_uris": {"android": "https://dc.lft.to/lastmile_qr_scan", "ios": "https://dc.lft.to/lastmile_qr_scan"}, "is_reserved": 0, "name": "a6a35fc6a60f4d61a8e7988f734c01a3", "lon": -77.02491916666666, "type": "electric_scooter", "bike_id": "a6a35fc6a60f4d61a8e7988f734c01a3", "fusion_lon": 0.0, "lat": 38.9194855, "fusion_lat": 0.0}, {"is_disabled": 0, "rental_uris": {"android": "https://dc.lft.to/lastmile_qr_scan", "ios": "https://dc.lft.to/lastmile_qr_scan"}, "is_reserved": 0, "name": "98f9445a22157866b9007c7ebd8b5b31", "lon": -77.0262525, "type": "electric_scooter", "bike_id": "98f9445a22157866b9007c7ebd8b5b31", "fusion_lon": 0.0, "lat": 38.91567883333333, "fusion_lat": 0.0}, {"is_disabled": 0, "rental_uris": {"android": "https://dc.lft.to/lastmile_qr_scan", "ios": "https://dc.lft.to/lastmile_qr_scan"}, "is_reserved": 0, "name": "8341e622c386a8f30b72fdbe3ac20339", "lon": -77.027787, "type": "electric_scooter", "bike_id": "8341e622c386a8f30b72fdbe3ac20339", "fusion_lon": 0.0, "lat": 38.917146333333335, "fusion_lat": 0.0}, {"is_disabled": 0, "rental_uris": {"android": "https://dc.lft.to/lastmile_qr_scan", "ios": "https://dc.lft.to/lastmile_qr_scan"}, "is_reserved": 0, "name": "624ddd547b5a580343d0b720ba92c1f3", "lon": -77.04489066666666, "type": "electric_scooter", "bike_id": "624ddd547b5a580343d0b720ba92c1f3", "fusion_lon": 0.0, "lat": 38.906787666666666, "fusion_lat": 0.0}, {"is_disabled": 0, "rental_uris": {"android": "https://dc.lft.to/lastmile_qr_scan", "ios": "https://dc.lft.to/lastmile_qr_scan"}, "is_reserved": 0, "name": "ce198ef5b66627e015ddfedc223c25c4", "lon": -77.02688383333333, "type": "electric_scooter", "bike_id": "ce198ef5b66627e015ddfedc223c25c4", "fusion_lon": 0.0, "lat": 38.89632266666667, "fusion_lat": 0.0}, {"is_disabled": 0, "rental_uris": {"android": "https://dc.lft.to/lastmile_qr_scan", "ios": "https://dc.lft.to/lastmile_qr_scan"}, "is_reserved": 0, "name": "bc7c0d5fd73cbed1986d5fc2ac0dfafb", "lon": -77.02182933333333, "type": "electric_scooter", "bike_id": "bc7c0d5fd73cbed1986d5fc2ac0dfafb", "fusion_lon": 0.0, "lat": 38.897365, "fusion_lat": 0.0}, {"is_disabled": 0, "rental_uris": {"android": "https://dc.lft.to/lastmile_qr_scan", "ios": "https://dc.lft.to/lastmile_qr_scan"}, "is_reserved": 0, "name": "2c7ca43e4584e528ff64d7244a899789", "lon": -77.04799616666666, "type": "electric_scooter", "bike_id": "2c7ca43e4584e528ff64d7244a899789", "fusion_lon": 0.0, "lat": 38.90461766666667, "fusion_lat": 0.0}, {"is_disabled": 0, "rental_uris": {"android": "https://dc.lft.to/lastmile_qr_scan", "ios": "https://dc.lft.to/lastmile_qr_scan"}, "is_reserved": 0, "name": "a79974f36bcb2987f236283b5574ca9b", "lon": -76.99504016666667, "type": "electric_scooter", "bike_id": "a79974f36bcb2987f236283b5574ca9b", "fusion_lon": 0.0, "lat": 38.8981765, "fusion_lat": 0.0}, {"is_disabled": 0, "rental_uris": {"android": "https://dc.lft.to/lastmile_qr_scan", "ios": "https://dc.lft.to/lastmile_qr_scan"}, "is_reserved": 0, "name": "82bdb2bca1b951cab4bc0c5fea292776", "lon": -77.0476535, "type": "electric_scooter", "bike_id": "82bdb2bca1b951cab4bc0c5fea292776", "fusion_lon": 0.0, "lat": 38.9124545, "fusion_lat": 0.0}, {"is_disabled": 0, "rental_uris": {"android": "https://dc.lft.to/lastmile_qr_scan", "ios": "https://dc.lft.to/lastmile_qr_scan"}, "is_reserved": 0, "name": "10edde595aa7c7be0372242f97a7d5f2", "lon": -76.94470266666667, "type": "electric_scooter", "bike_id": "10edde595aa7c7be0372242f97a7d5f2", "fusion_lon": 0.0, "lat": 38.902802333333334, "fusion_lat": 0.0}, {"is_disabled": 0, "rental_uris": {"android": "https://dc.lft.to/lastmile_qr_scan", "ios": "https://dc.lft.to/lastmile_qr_scan"}, "is_reserved": 0, "name": "2d28c0f0d971872caa2b2cc7928f227a", "lon": -76.94641033333333, "type": "electric_scooter", "bike_id": "2d28c0f0d971872caa2b2cc7928f227a", "fusion_lon": 0.0, "lat": 38.8984205, "fusion_lat": 0.0}, {"is_disabled": 0, "rental_uris": {"android": "https://dc.lft.to/lastmile_qr_scan", "ios": "https://dc.lft.to/lastmile_qr_scan"}, "is_reserved": 0, "name": "e4f607952a6d553f031970398dcded52", "lon": -77.050973, "type": "electric_scooter", "bike_id": "e4f607952a6d553f031970398dcded52", "fusion_lon": 0.0, "lat": 38.900525333333334, "fusion_lat": 0.0}, {"is_disabled": 0, "rental_uris": {"android": "https://dc.lft.to/lastmile_qr_scan", "ios": "https://dc.lft.to/lastmile_qr_scan"}, "is_reserved": 0, "name": "0484766c541376cb49f93dba4fb6624f", "lon": -77.02537216666667, "type": "electric_scooter", "bike_id": "0484766c541376cb49f93dba4fb6624f", "fusion_lon": 0.0, "lat": 38.92400216666667, "fusion_lat": 0.0}, {"is_disabled": 0, "rental_uris": {"android": "https://dc.lft.to/lastmile_qr_scan", "ios": "https://dc.lft.to/lastmile_qr_scan"}, "is_reserved": 0, "name": "07ddc909dd0b7b8ec3ca2daadb934cbf", "lon": -77.03438966666667, "type": "electric_scooter", "bike_id": "07ddc909dd0b7b8ec3ca2daadb934cbf", "fusion_lon": 0.0, "lat": 38.90889383333333, "fusion_lat": 0.0}, {"is_disabled": 0, "rental_uris": {"android": "https://dc.lft.to/lastmile_qr_scan", "ios": "https://dc.lft.to/lastmile_qr_scan"}, "is_reserved": 0, "name": "edf475ce9920ac04ea44fcd6378661cc", "lon": -77.03523016666666, "type": "electric_scooter", "bike_id": "edf475ce9920ac04ea44fcd6378661cc", "fusion_lon": 0.0, "lat": 38.922584666666665, "fusion_lat": 0.0}, {"is_disabled": 0, "rental_uris": {"android": "https://dc.lft.to/lastmile_qr_scan", "ios": "https://dc.lft.to/lastmile_qr_scan"}, "is_reserved": 0, "name": "abbe0c111b1f590e1e14f246c1fb6b80", "lon": -77.03529116666667, "type": "electric_scooter", "bike_id": "abbe0c111b1f590e1e14f246c1fb6b80", "fusion_lon": 0.0, "lat": 38.923553166666665, "fusion_lat": 0.0}, {"is_disabled": 0, "rental_uris": {"android": "https://dc.lft.to/lastmile_qr_scan", "ios": "https://dc.lft.to/lastmile_qr_scan"}, "is_reserved": 0, "name": "40b8758c0792164019ea4fb1a32e0de5", "lon": -77.000894, "type": "electric_scooter", "bike_id": "40b8758c0792164019ea4fb1a32e0de5", "fusion_lon": 0.0, "lat": 38.92552233333333, "fusion_lat": 0.0}, {"is_disabled": 0, "rental_uris": {"android": "https://dc.lft.to/lastmile_qr_scan", "ios": "https://dc.lft.to/lastmile_qr_scan"}, "is_reserved": 0, "name": "98ce4e3bdbd12ce016a95475b960908a", "lon": -77.01285633333333, "type": "electric_scooter", "bike_id": "98ce4e3bdbd12ce016a95475b960908a", "fusion_lon": 0.0, "lat": 38.9201835, "fusion_lat": 0.0}, {"is_disabled": 0, "rental_uris": {"android": "https://dc.lft.to/lastmile_qr_scan", "ios": "https://dc.lft.to/lastmile_qr_scan"}, "is_reserved": 0, "name": "f15584ef2042d68b3a893dbb902833ae", "lon": -77.05091666666667, "type": "electric_scooter", "bike_id": "f15584ef2042d68b3a893dbb902833ae", "fusion_lon": 0.0, "lat": 38.92343783333333, "fusion_lat": 0.0}, {"is_disabled": 0, "rental_uris": {"android": "https://dc.lft.to/lastmile_qr_scan", "ios": "https://dc.lft.to/lastmile_qr_scan"}, "is_reserved": 0, "name": "d2c8b6054f5511a1e82956a9218ac3af", "lon": -77.03858433333333, "type": "electric_scooter", "bike_id": "d2c8b6054f5511a1e82956a9218ac3af", "fusion_lon": 0.0, "lat": 38.90932, "fusion_lat": 0.0}, {"is_disabled": 0, "rental_uris": {"android": "https://dc.lft.to/lastmile_qr_scan", "ios": "https://dc.lft.to/lastmile_qr_scan"}, "is_reserved": 0, "name": "de55e57f21445bfb64c87fca189f50d1", "lon": -77.02383416666666, "type": "electric_scooter", "bike_id": "de55e57f21445bfb64c87fca189f50d1", "fusion_lon": 0.0, "lat": 38.9071215, "fusion_lat": 0.0}, {"is_disabled": 0, "rental_uris": {"android": "https://dc.lft.to/lastmile_qr_scan", "ios": "https://dc.lft.to/lastmile_qr_scan"}, "is_reserved": 0, "name": "a2f25228b4b564da4db43de7a446007d", "lon": -76.9733095, "type": "electric_bike", "bike_id": "a2f25228b4b564da4db43de7a446007d", "fusion_lon": 0.0, "lat": 38.850691, "fusion_lat": 0.0}, {"is_disabled": 0, "rental_uris": {"android": "https://dc.lft.to/lastmile_qr_scan", "ios": "https://dc.lft.to/lastmile_qr_scan"}, "is_reserved": 0, "name": "88183b8a9d5ad2c27c876d5c643a4594", "lon": -77.02150683333333, "type": "electric_bike", "bike_id": "88183b8a9d5ad2c27c876d5c643a4594", "fusion_lon": 0.0, "lat": 38.94796983333333, "fusion_lat": 0.0}, {"is_disabled": 0, "rental_uris": {"android": "https://dc.lft.to/lastmile_qr_scan", "ios": "https://dc.lft.to/lastmile_qr_scan"}, "is_reserved": 0, "name": "da9a56a9d0866117deb390ed3caecf33", "lon": -77.02360983333334, "type": "electric_scooter", "bike_id": "da9a56a9d0866117deb390ed3caecf33", "fusion_lon": 0.0, "lat": 38.93145916666667, "fusion_lat": 0.0}, {"is_disabled": 0, "rental_uris": {"android": "https://dc.lft.to/lastmile_qr_scan", "ios": "https://dc.lft.to/lastmile_qr_scan"}, "is_reserved": 0, "name": "44e9489f6c3ab44757a40a02bafad61b", "lon": -77.02484666666666, "type": "electric_scooter", "bike_id": "44e9489f6c3ab44757a40a02bafad61b", "fusion_lon": 0.0, "lat": 38.91615133333333, "fusion_lat": 0.0}, {"is_disabled": 0, "rental_uris": {"android": "https://dc.lft.to/lastmile_qr_scan", "ios": "https://dc.lft.to/lastmile_qr_scan"}, "is_reserved": 0, "name": "1e7c64865dffbcb41064f8e0c1a155c0", "lon": -77.03612516666666, "type": "electric_scooter", "bike_id": "1e7c64865dffbcb41064f8e0c1a155c0", "fusion_lon": 0.0, "lat": 38.9314765, "fusion_lat": 0.0}, {"is_disabled": 0, "rental_uris": {"android": "https://dc.lft.to/lastmile_qr_scan", "ios": "https://dc.lft.to/lastmile_qr_scan"}, "is_reserved": 0, "name": "cabdf567cd03ba5d38f6213aa99d640b", "lon": -77.04355933333333, "type": "electric_scooter", "bike_id": "cabdf567cd03ba5d38f6213aa99d640b", "fusion_lon": 0.0, "lat": 38.905242333333334, "fusion_lat": 0.0}, {"is_disabled": 0, "rental_uris": {"android": "https://dc.lft.to/lastmile_qr_scan", "ios": "https://dc.lft.to/lastmile_qr_scan"}, "is_reserved": 0, "name": "9dc01b5ac0abc085eeb96f643b90f96e", "lon": -77.035214, "type": "electric_scooter", "bike_id": "9dc01b5ac0abc085eeb96f643b90f96e", "fusion_lon": 0.0, "lat": 38.92258566666667, "fusion_lat": 0.0}, {"is_disabled": 0, "rental_uris": {"android": "https://dc.lft.to/lastmile_qr_scan", "ios": "https://dc.lft.to/lastmile_qr_scan"}, "is_reserved": 0, "name": "f8b3c9bd5f39adba5667d60faae31e5b", "lon": -77.0393665, "type": "electric_scooter", "bike_id": "f8b3c9bd5f39adba5667d60faae31e5b", "fusion_lon": 0.0, "lat": 38.899644, "fusion_lat": 0.0}, {"is_disabled": 0, "rental_uris": {"android": "https://dc.lft.to/lastmile_qr_scan", "ios": "https://dc.lft.to/lastmile_qr_scan"}, "is_reserved": 0, "name": "5b301b2c26ce45df6ec6f2a892a40cfa", "lon": -77.0402305, "type": "electric_scooter", "bike_id": "5b301b2c26ce45df6ec6f2a892a40cfa", "fusion_lon": 0.0, "lat": 38.92205633333333, "fusion_lat": 0.0}, {"is_disabled": 0, "rental_uris": {"android": "https://dc.lft.to/lastmile_qr_scan", "ios": "https://dc.lft.to/lastmile_qr_scan"}, "is_reserved": 0, "name": "63299805e0373dbb38f84351c0939d0c", "lon": -77.029177, "type": "electric_scooter", "bike_id": "63299805e0373dbb38f84351c0939d0c", "fusion_lon": 0.0, "lat": 38.91029233333333, "fusion_lat": 0.0}, {"is_disabled": 0, "rental_uris": {"android": "https://dc.lft.to/lastmile_qr_scan", "ios": "https://dc.lft.to/lastmile_qr_scan"}, "is_reserved": 0, "name": "0d08ef791b8e151535871670cfd77f38", "lon": -77.044527, "type": "electric_scooter", "bike_id": "0d08ef791b8e151535871670cfd77f38", "fusion_lon": 0.0, "lat": 38.9186475, "fusion_lat": 0.0}, {"is_disabled": 0, "rental_uris": {"android": "https://dc.lft.to/lastmile_qr_scan", "ios": "https://dc.lft.to/lastmile_qr_scan"}, "is_reserved": 0, "name": "9e68f2e197a6ead5c4c05b1b19f28cd0", "lon": -76.94950683333333, "type": "electric_bike", "bike_id": "9e68f2e197a6ead5c4c05b1b19f28cd0", "fusion_lon": 0.0, "lat": 38.93507966666667, "fusion_lat": 0.0}, {"is_disabled": 0, "rental_uris": {"android": "https://dc.lft.to/lastmile_qr_scan", "ios": "https://dc.lft.to/lastmile_qr_scan"}, "is_reserved": 0, "name": "8ec5f3282f919d8a8372df72a83388ec", "lon": -77.004104, "type": "electric_scooter", "bike_id": "8ec5f3282f919d8a8372df72a83388ec", "fusion_lon": 0.0, "lat": 38.876614833333335, "fusion_lat": 0.0}, {"is_disabled": 0, "rental_uris": {"android": "https://dc.lft.to/lastmile_qr_scan", "ios": "https://dc.lft.to/lastmile_qr_scan"}, "is_reserved": 0, "name": "5d4da76f8a37a6e364e213b97c4c6f54", "lon": -76.9897415, "type": "electric_scooter", "bike_id": "5d4da76f8a37a6e364e213b97c4c6f54", "fusion_lon": 0.0, "lat": 38.90249516666667, "fusion_lat": 0.0}, {"is_disabled": 0, "rental_uris": {"android": "https://dc.lft.to/lastmile_qr_scan", "ios": "https://dc.lft.to/lastmile_qr_scan"}, "is_reserved": 0, "name": "d0317cae25682f33d713ed7f39727dce", "lon": -77.03910633333334, "type": "electric_scooter", "bike_id": "d0317cae25682f33d713ed7f39727dce", "fusion_lon": 0.0, "lat": 38.902473666666666, "fusion_lat": 0.0}, {"is_disabled": 0, "rental_uris": {"android": "https://dc.lft.to/lastmile_qr_scan", "ios": "https://dc.lft.to/lastmile_qr_scan"}, "is_reserved": 0, "name": "fea7adcd51cd343027fa02793b9a39af", "lon": -77.03152533333333, "type": "electric_scooter", "bike_id": "fea7adcd51cd343027fa02793b9a39af", "fusion_lon": 0.0, "lat": 38.91629566666667, "fusion_lat": 0.0}, {"is_disabled": 0, "rental_uris": {"android": "https://dc.lft.to/lastmile_qr_scan", "ios": "https://dc.lft.to/lastmile_qr_scan"}, "is_reserved": 0, "name": "ee311a2c52e46ec47eb6673105752f63", "lon": -77.01630283333333, "type": "electric_scooter", "bike_id": "ee311a2c52e46ec47eb6673105752f63", "fusion_lon": 0.0, "lat": 38.872475666666666, "fusion_lat": 0.0}, {"is_disabled": 0, "rental_uris": {"android": "https://dc.lft.to/lastmile_qr_scan", "ios": "https://dc.lft.to/lastmile_qr_scan"}, "is_reserved": 0, "name": "aa5ed631fa41a693fbc0f9f85c4dbf7b", "lon": -77.0043045, "type": "electric_scooter", "bike_id": "aa5ed631fa41a693fbc0f9f85c4dbf7b", "fusion_lon": 0.0, "lat": 38.83812533333333, "fusion_lat": 0.0}, {"is_disabled": 0, "rental_uris": {"android": "https://dc.lft.to/lastmile_qr_scan", "ios": "https://dc.lft.to/lastmile_qr_scan"}, "is_reserved": 0, "name": "c081ed3b4942b954e5ed28b30a9338bc", "lon": -77.031828, "type": "electric_scooter", "bike_id": "c081ed3b4942b954e5ed28b30a9338bc", "fusion_lon": 0.0, "lat": 38.9193225, "fusion_lat": 0.0}, {"is_disabled": 0, "rental_uris": {"android": "https://dc.lft.to/lastmile_qr_scan", "ios": "https://dc.lft.to/lastmile_qr_scan"}, "is_reserved": 0, "name": "335b65890b0a55b546afd117d370a3a4", "lon": -77.0500395, "type": "electric_scooter", "bike_id": "335b65890b0a55b546afd117d370a3a4", "fusion_lon": 0.0, "lat": 38.8923125, "fusion_lat": 0.0}, {"is_disabled": 0, "rental_uris": {"android": "https://dc.lft.to/lastmile_qr_scan", "ios": "https://dc.lft.to/lastmile_qr_scan"}, "is_reserved": 0, "name": "65473c3e2ad9af7d310a7d89bcbe2400", "lon": -76.99955883333334, "type": "electric_scooter", "bike_id": "65473c3e2ad9af7d310a7d89bcbe2400", "fusion_lon": 0.0, "lat": 38.84283166666667, "fusion_lat": 0.0}, {"is_disabled": 0, "rental_uris": {"android": "https://dc.lft.to/lastmile_qr_scan", "ios": "https://dc.lft.to/lastmile_qr_scan"}, "is_reserved": 0, "name": "9c942b8a4cedf4a4b2acd2d6135fd3ed", "lon": -76.998833, "type": "electric_scooter", "bike_id": "9c942b8a4cedf4a4b2acd2d6135fd3ed", "fusion_lon": 0.0, "lat": 38.8897415, "fusion_lat": 0.0}, {"is_disabled": 0, "rental_uris": {"android": "https://dc.lft.to/lastmile_qr_scan", "ios": "https://dc.lft.to/lastmile_qr_scan"}, "is_reserved": 0, "name": "693c0fef108c25c6b5c31b1b8bfff53d", "lon": -77.047045, "type": "electric_scooter", "bike_id": "693c0fef108c25c6b5c31b1b8bfff53d", "fusion_lon": 0.0, "lat": 38.91581033333333, "fusion_lat": 0.0}, {"is_disabled": 0, "rental_uris": {"android": "https://dc.lft.to/lastmile_qr_scan", "ios": "https://dc.lft.to/lastmile_qr_scan"}, "is_reserved": 0, "name": "942984df0450d82a6774c2ac5755c329", "lon": -77.04175366666666, "type": "electric_scooter", "bike_id": "942984df0450d82a6774c2ac5755c329", "fusion_lon": 0.0, "lat": 38.912759333333334, "fusion_lat": 0.0}, {"is_disabled": 0, "rental_uris": {"android": "https://dc.lft.to/lastmile_qr_scan", "ios": "https://dc.lft.to/lastmile_qr_scan"}, "is_reserved": 0, "name": "d64f569c084615be427c04d526bbd069", "lon": -77.04675016666667, "type": "electric_scooter", "bike_id": "d64f569c084615be427c04d526bbd069", "fusion_lon": 0.0, "lat": 38.90738316666667, "fusion_lat": 0.0}, {"is_disabled": 0, "rental_uris": {"android": "https://dc.lft.to/lastmile_qr_scan", "ios": "https://dc.lft.to/lastmile_qr_scan"}, "is_reserved": 0, "name": "3009f179707d8a5b6580886a16450db2", "lon": -77.00757633333333, "type": "electric_scooter", "bike_id": "3009f179707d8a5b6580886a16450db2", "fusion_lon": 0.0, "lat": 38.907601666666665, "fusion_lat": 0.0}, {"is_disabled": 0, "rental_uris": {"android": "https://dc.lft.to/lastmile_qr_scan", "ios": "https://dc.lft.to/lastmile_qr_scan"}, "is_reserved": 0, "name": "22113099294f3cf0b0d0ca34d3057cf4", "lon": -77.06090766666667, "type": "electric_scooter", "bike_id": "22113099294f3cf0b0d0ca34d3057cf4", "fusion_lon": 0.0, "lat": 38.943678, "fusion_lat": 0.0}, {"is_disabled": 0, "rental_uris": {"android": "https://dc.lft.to/lastmile_qr_scan", "ios": "https://dc.lft.to/lastmile_qr_scan"}, "is_reserved": 0, "name": "a7a20c33a7e39cc31cb1de301a9fbd82", "lon": -77.0344165, "type": "electric_scooter", "bike_id": "a7a20c33a7e39cc31cb1de301a9fbd82", "fusion_lon": 0.0, "lat": 38.9343395, "fusion_lat": 0.0}, {"is_disabled": 0, "rental_uris": {"android": "https://dc.lft.to/lastmile_qr_scan", "ios": "https://dc.lft.to/lastmile_qr_scan"}, "is_reserved": 0, "name": "3a9992a5b87f9167c147e0a7eb4909ac", "lon": -77.01757266666667, "type": "electric_scooter", "bike_id": "3a9992a5b87f9167c147e0a7eb4909ac", "fusion_lon": 0.0, "lat": 38.91924933333333, "fusion_lat": 0.0}, {"is_disabled": 0, "rental_uris": {"android": "https://dc.lft.to/lastmile_qr_scan", "ios": "https://dc.lft.to/lastmile_qr_scan"}, "is_reserved": 0, "name": "7e9608a36fcf90586619b365053b3e00", "lon": -77.03355783333333, "type": "electric_scooter", "bike_id": "7e9608a36fcf90586619b365053b3e00", "fusion_lon": 0.0, "lat": 38.937886666666664, "fusion_lat": 0.0}, {"is_disabled": 0, "rental_uris": {"android": "https://dc.lft.to/lastmile_qr_scan", "ios": "https://dc.lft.to/lastmile_qr_scan"}, "is_reserved": 0, "name": "ed7c666baaa7ff8980652abdf3811621", "lon": -77.0330585, "type": "electric_scooter", "bike_id": "ed7c666baaa7ff8980652abdf3811621", "fusion_lon": 0.0, "lat": 38.91816166666667, "fusion_lat": 0.0}, {"is_disabled": 0, "rental_uris": {"android": "https://dc.lft.to/lastmile_qr_scan", "ios": "https://dc.lft.to/lastmile_qr_scan"}, "is_reserved": 0, "name": "4c4db39ec2f00f88e1d77c0d5cb19e9a", "lon": -77.0521135, "type": "electric_scooter", "bike_id": "4c4db39ec2f00f88e1d77c0d5cb19e9a", "fusion_lon": 0.0, "lat": 38.92475533333333, "fusion_lat": 0.0}, {"is_disabled": 0, "rental_uris": {"android": "https://dc.lft.to/lastmile_qr_scan", "ios": "https://dc.lft.to/lastmile_qr_scan"}, "is_reserved": 0, "name": "06d0a80f8116f0f2a3ad0a1f287e15c7", "lon": -77.03855766666666, "type": "electric_scooter", "bike_id": "06d0a80f8116f0f2a3ad0a1f287e15c7", "fusion_lon": 0.0, "lat": 38.93200366666667, "fusion_lat": 0.0}, {"is_disabled": 0, "rental_uris": {"android": "https://dc.lft.to/lastmile_qr_scan", "ios": "https://dc.lft.to/lastmile_qr_scan"}, "is_reserved": 0, "name": "bc42ca88e35544e322d13e8f78b7c12b", "lon": -76.94632016666667, "type": "electric_scooter", "bike_id": "bc42ca88e35544e322d13e8f78b7c12b", "fusion_lon": 0.0, "lat": 38.89832166666667, "fusion_lat": 0.0}, {"is_disabled": 0, "rental_uris": {"android": "https://dc.lft.to/lastmile_qr_scan", "ios": "https://dc.lft.to/lastmile_qr_scan"}, "is_reserved": 0, "name": "4e5a939fb659d4f39ffa8907689c485b", "lon": -77.05002466666667, "type": "electric_scooter", "bike_id": "4e5a939fb659d4f39ffa8907689c485b", "fusion_lon": 0.0, "lat": 38.90531716666667, "fusion_lat": 0.0}, {"is_disabled": 0, "rental_uris": {"android": "https://dc.lft.to/lastmile_qr_scan", "ios": "https://dc.lft.to/lastmile_qr_scan"}, "is_reserved": 0, "name": "b2529a307595d9eabc6312de9523888b", "lon": -77.03254516666667, "type": "electric_scooter", "bike_id": "b2529a307595d9eabc6312de9523888b", "fusion_lon": 0.0, "lat": 38.93699266666667, "fusion_lat": 0.0}, {"is_disabled": 0, "rental_uris": {"android": "https://dc.lft.to/lastmile_qr_scan", "ios": "https://dc.lft.to/lastmile_qr_scan"}, "is_reserved": 0, "name": "1a8b272fd80e74c91a40c9cc502da05a", "lon": -77.05939966666666, "type": "electric_scooter", "bike_id": "1a8b272fd80e74c91a40c9cc502da05a", "fusion_lon": 0.0, "lat": 38.93673016666666, "fusion_lat": 0.0}, {"is_disabled": 0, "rental_uris": {"android": "https://dc.lft.to/lastmile_qr_scan", "ios": "https://dc.lft.to/lastmile_qr_scan"}, "is_reserved": 0, "name": "f90c8ca04d53b4581f77d0b7cac2cd3a", "lon": -76.998506, "type": "electric_scooter", "bike_id": "f90c8ca04d53b4581f77d0b7cac2cd3a", "fusion_lon": 0.0, "lat": 38.90891, "fusion_lat": 0.0}, {"is_disabled": 0, "rental_uris": {"android": "https://dc.lft.to/lastmile_qr_scan", "ios": "https://dc.lft.to/lastmile_qr_scan"}, "is_reserved": 0, "name": "72f791682fd37ddff92ec07277389f1d", "lon": -77.0306675, "type": "electric_scooter", "bike_id": "72f791682fd37ddff92ec07277389f1d", "fusion_lon": 0.0, "lat": 38.92377966666667, "fusion_lat": 0.0}, {"is_disabled": 0, "rental_uris": {"android": "https://dc.lft.to/lastmile_qr_scan", "ios": "https://dc.lft.to/lastmile_qr_scan"}, "is_reserved": 0, "name": "c1fde86a7edcdba463f3ff33cc8d52ac", "lon": -77.02588233333333, "type": "electric_scooter", "bike_id": "c1fde86a7edcdba463f3ff33cc8d52ac", "fusion_lon": 0.0, "lat": 38.92034866666667, "fusion_lat": 0.0}, {"is_disabled": 0, "rental_uris": {"android": "https://dc.lft.to/lastmile_qr_scan", "ios": "https://dc.lft.to/lastmile_qr_scan"}, "is_reserved": 0, "name": "b9a1a72ce512be7272f7a0712ff0f1f8", "lon": -77.04569133333334, "type": "electric_scooter", "bike_id": "b9a1a72ce512be7272f7a0712ff0f1f8", "fusion_lon": 0.0, "lat": 38.91316483333333, "fusion_lat": 0.0}, {"is_disabled": 0, "rental_uris": {"android": "https://dc.lft.to/lastmile_qr_scan", "ios": "https://dc.lft.to/lastmile_qr_scan"}, "is_reserved": 0, "name": "44d7fec6805055d6a9fa4c9aed44c7b8", "lon": -77.0072445, "type": "electric_scooter", "bike_id": "44d7fec6805055d6a9fa4c9aed44c7b8", "fusion_lon": 0.0, "lat": 38.9034885, "fusion_lat": 0.0}, {"is_disabled": 0, "rental_uris": {"android": "https://dc.lft.to/lastmile_qr_scan", "ios": "https://dc.lft.to/lastmile_qr_scan"}, "is_reserved": 0, "name": "5ccc5fd7083dfe280c23953bbc84288a", "lon": -77.04239166666666, "type": "electric_scooter", "bike_id": "5ccc5fd7083dfe280c23953bbc84288a", "fusion_lon": 0.0, "lat": 38.907843166666666, "fusion_lat": 0.0}, {"is_disabled": 0, "rental_uris": {"android": "https://dc.lft.to/lastmile_qr_scan", "ios": "https://dc.lft.to/lastmile_qr_scan"}, "is_reserved": 0, "name": "8cff2dee7cb1ae085a7cc8411d281ee4", "lon": -77.03854466666667, "type": "electric_scooter", "bike_id": "8cff2dee7cb1ae085a7cc8411d281ee4", "fusion_lon": 0.0, "lat": 38.91838216666667, "fusion_lat": 0.0}, {"is_disabled": 0, "rental_uris": {"android": "https://dc.lft.to/lastmile_qr_scan", "ios": "https://dc.lft.to/lastmile_qr_scan"}, "is_reserved": 0, "name": "db3a2e09d4248a16e2166981c427025e", "lon": -76.99873433333333, "type": "electric_scooter", "bike_id": "db3a2e09d4248a16e2166981c427025e", "fusion_lon": 0.0, "lat": 38.900329666666664, "fusion_lat": 0.0}, {"is_disabled": 0, "rental_uris": {"android": "https://dc.lft.to/lastmile_qr_scan", "ios": "https://dc.lft.to/lastmile_qr_scan"}, "is_reserved": 0, "name": "5e6d3a692a3733b9d3d928c61db0698c", "lon": -76.983143, "type": "electric_bike", "bike_id": "5e6d3a692a3733b9d3d928c61db0698c", "fusion_lon": 0.0, "lat": 38.922546833333335, "fusion_lat": 0.0}, {"is_disabled": 0, "rental_uris": {"android": "https://dc.lft.to/lastmile_qr_scan", "ios": "https://dc.lft.to/lastmile_qr_scan"}, "is_reserved": 0, "name": "197f54b2fda80f128050559ba3dc5cbd", "lon": -77.02720983333333, "type": "electric_scooter", "bike_id": "197f54b2fda80f128050559ba3dc5cbd", "fusion_lon": 0.0, "lat": 38.90958916666666, "fusion_lat": 0.0}, {"is_disabled": 0, "rental_uris": {"android": "https://dc.lft.to/lastmile_qr_scan", "ios": "https://dc.lft.to/lastmile_qr_scan"}, "is_reserved": 0, "name": "067d41023e2ae1790dadc29b91e69c3b", "lon": -77.029709, "type": "electric_scooter", "bike_id": "067d41023e2ae1790dadc29b91e69c3b", "fusion_lon": 0.0, "lat": 38.9169925, "fusion_lat": 0.0}, {"is_disabled": 0, "rental_uris": {"android": "https://dc.lft.to/lastmile_qr_scan", "ios": "https://dc.lft.to/lastmile_qr_scan"}, "is_reserved": 0, "name": "03798dec26af6818fa37ac23258cebc9", "lon": -77.046578, "type": "electric_scooter", "bike_id": "03798dec26af6818fa37ac23258cebc9", "fusion_lon": 0.0, "lat": 38.9117875, "fusion_lat": 0.0}, {"is_disabled": 0, "rental_uris": {"android": "https://dc.lft.to/lastmile_qr_scan", "ios": "https://dc.lft.to/lastmile_qr_scan"}, "is_reserved": 0, "name": "58948db978fc24415ba5f8af5f6c4d2d", "lon": -76.90080366666666, "type": "electric_bike", "bike_id": "58948db978fc24415ba5f8af5f6c4d2d", "fusion_lon": 0.0, "lat": 38.887528833333334, "fusion_lat": 0.0}, {"is_disabled": 0, "rental_uris": {"android": "https://dc.lft.to/lastmile_qr_scan", "ios": "https://dc.lft.to/lastmile_qr_scan"}, "is_reserved": 0, "name": "296f3fc9347dbb3cc0d9dd8f31e827ae", "lon": -76.99163766666666, "type": "electric_scooter", "bike_id": "296f3fc9347dbb3cc0d9dd8f31e827ae", "fusion_lon": 0.0, "lat": 38.881433333333334, "fusion_lat": 0.0}, {"is_disabled": 0, "rental_uris": {"android": "https://dc.lft.to/lastmile_qr_scan", "ios": "https://dc.lft.to/lastmile_qr_scan"}, "is_reserved": 0, "name": "0cf0861f06c46ec3d98ce535cec6aefe", "lon": -77.01546883333333, "type": "electric_scooter", "bike_id": "0cf0861f06c46ec3d98ce535cec6aefe", "fusion_lon": 0.0, "lat": 38.887703333333334, "fusion_lat": 0.0}, {"is_disabled": 0, "rental_uris": {"android": "https://dc.lft.to/lastmile_qr_scan", "ios": "https://dc.lft.to/lastmile_qr_scan"}, "is_reserved": 0, "name": "c933375020ccaef9072922e836c6f2ec", "lon": -77.0462755, "type": "electric_scooter", "bike_id": "c933375020ccaef9072922e836c6f2ec", "fusion_lon": 0.0, "lat": 38.905411, "fusion_lat": 0.0}, {"is_disabled": 0, "rental_uris": {"android": "https://dc.lft.to/lastmile_qr_scan", "ios": "https://dc.lft.to/lastmile_qr_scan"}, "is_reserved": 0, "name": "8546e6d70a48a4a7453019d721bb4565", "lon": -76.9874815, "type": "electric_scooter", "bike_id": "8546e6d70a48a4a7453019d721bb4565", "fusion_lon": 0.0, "lat": 38.879626, "fusion_lat": 0.0}, {"is_disabled": 0, "rental_uris": {"android": "https://dc.lft.to/lastmile_qr_scan", "ios": "https://dc.lft.to/lastmile_qr_scan"}, "is_reserved": 0, "name": "b65d48097325a95d5f914026e19afc26", "lon": -77.0401635, "type": "electric_scooter", "bike_id": "b65d48097325a95d5f914026e19afc26", "fusion_lon": 0.0, "lat": 38.91799, "fusion_lat": 0.0}, {"is_disabled": 0, "rental_uris": {"android": "https://dc.lft.to/lastmile_qr_scan", "ios": "https://dc.lft.to/lastmile_qr_scan"}, "is_reserved": 0, "name": "800ecfd35423fa422e42ed45b826a535", "lon": -77.029585, "type": "electric_scooter", "bike_id": "800ecfd35423fa422e42ed45b826a535", "fusion_lon": 0.0, "lat": 38.90446583333333, "fusion_lat": 0.0}, {"is_disabled": 0, "rental_uris": {"android": "https://dc.lft.to/lastmile_qr_scan", "ios": "https://dc.lft.to/lastmile_qr_scan"}, "is_reserved": 0, "name": "c2352b26f8d6117d1763cd6211b39c1a", "lon": -77.02495733333333, "type": "electric_scooter", "bike_id": "c2352b26f8d6117d1763cd6211b39c1a", "fusion_lon": 0.0, "lat": 38.91807133333333, "fusion_lat": 0.0}, {"is_disabled": 0, "rental_uris": {"android": "https://dc.lft.to/lastmile_qr_scan", "ios": "https://dc.lft.to/lastmile_qr_scan"}, "is_reserved": 0, "name": "4d6eae763b948dc503edea1262f5be2d", "lon": -77.04059283333333, "type": "electric_scooter", "bike_id": "4d6eae763b948dc503edea1262f5be2d", "fusion_lon": 0.0, "lat": 38.910336666666666, "fusion_lat": 0.0}, {"is_disabled": 0, "rental_uris": {"android": "https://dc.lft.to/lastmile_qr_scan", "ios": "https://dc.lft.to/lastmile_qr_scan"}, "is_reserved": 0, "name": "15f420a1b408c5627a23c2b64dad5435", "lon": -77.02791116666667, "type": "electric_scooter", "bike_id": "15f420a1b408c5627a23c2b64dad5435", "fusion_lon": 0.0, "lat": 38.9613085, "fusion_lat": 0.0}, {"is_disabled": 0, "rental_uris": {"android": "https://dc.lft.to/lastmile_qr_scan", "ios": "https://dc.lft.to/lastmile_qr_scan"}, "is_reserved": 0, "name": "fe9cff75126911dc151c0a8fb0647b0b", "lon": -76.93185533333333, "type": "electric_scooter", "bike_id": "fe9cff75126911dc151c0a8fb0647b0b", "fusion_lon": 0.0, "lat": 38.89878133333333, "fusion_lat": 0.0}, {"is_disabled": 0, "rental_uris": {"android": "https://dc.lft.to/lastmile_qr_scan", "ios": "https://dc.lft.to/lastmile_qr_scan"}, "is_reserved": 0, "name": "de01711a11e0d3ca06e1d5e520e8083a", "lon": -77.0385945, "type": "electric_scooter", "bike_id": "de01711a11e0d3ca06e1d5e520e8083a", "fusion_lon": 0.0, "lat": 38.90784766666667, "fusion_lat": 0.0}, {"is_disabled": 0, "rental_uris": {"android": "https://dc.lft.to/lastmile_qr_scan", "ios": "https://dc.lft.to/lastmile_qr_scan"}, "is_reserved": 0, "name": "b786211a77f1aa726243b931b3057811", "lon": -77.05709016666667, "type": "electric_scooter", "bike_id": "b786211a77f1aa726243b931b3057811", "fusion_lon": 0.0, "lat": 38.92626883333333, "fusion_lat": 0.0}, {"is_disabled": 0, "rental_uris": {"android": "https://dc.lft.to/lastmile_qr_scan", "ios": "https://dc.lft.to/lastmile_qr_scan"}, "is_reserved": 0, "name": "fab9441531d9009db489dfe2299f71e5", "lon": -77.01983816666667, "type": "electric_scooter", "bike_id": "fab9441531d9009db489dfe2299f71e5", "fusion_lon": 0.0, "lat": 38.91191833333333, "fusion_lat": 0.0}, {"is_disabled": 0, "rental_uris": {"android": "https://dc.lft.to/lastmile_qr_scan", "ios": "https://dc.lft.to/lastmile_qr_scan"}, "is_reserved": 0, "name": "7ddb6a0f8ed8fe24b1f038bfb8ef9804", "lon": -77.0238155, "type": "electric_scooter", "bike_id": "7ddb6a0f8ed8fe24b1f038bfb8ef9804", "fusion_lon": 0.0, "lat": 38.90586233333333, "fusion_lat": 0.0}, {"is_disabled": 0, "rental_uris": {"android": "https://dc.lft.to/lastmile_qr_scan", "ios": "https://dc.lft.to/lastmile_qr_scan"}, "is_reserved": 0, "name": "86bdbb0dc433b2996b01f8b4a5abca2c", "lon": -76.956754, "type": "electric_scooter", "bike_id": "86bdbb0dc433b2996b01f8b4a5abca2c", "fusion_lon": 0.0, "lat": 38.8876245, "fusion_lat": 0.0}, {"is_disabled": 0, "rental_uris": {"android": "https://dc.lft.to/lastmile_qr_scan", "ios": "https://dc.lft.to/lastmile_qr_scan"}, "is_reserved": 0, "name": "70e0f59615ba72c61b449c751439ff41", "lon": -76.98168933333334, "type": "electric_bike", "bike_id": "70e0f59615ba72c61b449c751439ff41", "fusion_lon": 0.0, "lat": 38.959604, "fusion_lat": 0.0}, {"is_disabled": 0, "rental_uris": {"android": "https://dc.lft.to/lastmile_qr_scan", "ios": "https://dc.lft.to/lastmile_qr_scan"}, "is_reserved": 0, "name": "598760a2c3b4d25a566d13a4efdf73f0", "lon": -77.0247055, "type": "electric_bike", "bike_id": "598760a2c3b4d25a566d13a4efdf73f0", "fusion_lon": 0.0, "lat": 38.955761833333334, "fusion_lat": 0.0}, {"is_disabled": 0, "rental_uris": {"android": "https://dc.lft.to/lastmile_qr_scan", "ios": "https://dc.lft.to/lastmile_qr_scan"}, "is_reserved": 0, "name": "aef1964595743ad54432bdc1bd16e55e", "lon": -77.04151466666667, "type": "electric_scooter", "bike_id": "aef1964595743ad54432bdc1bd16e55e", "fusion_lon": 0.0, "lat": 38.9126545, "fusion_lat": 0.0}, {"is_disabled": 0, "rental_uris": {"android": "https://dc.lft.to/lastmile_qr_scan", "ios": "https://dc.lft.to/lastmile_qr_scan"}, "is_reserved": 0, "name": "1f0ea006ed9d8b2c7bacbe170d4362d2", "lon": -76.93350116666667, "type": "electric_scooter", "bike_id": "1f0ea006ed9d8b2c7bacbe170d4362d2", "fusion_lon": 0.0, "lat": 38.8990245, "fusion_lat": 0.0}, {"is_disabled": 0, "rental_uris": {"android": "https://dc.lft.to/lastmile_qr_scan", "ios": "https://dc.lft.to/lastmile_qr_scan"},