{"data": {"bikes": [{"bike_id": "5d6c46fa68ab1c726929411c03fbdf26", "is_reserved": 0, "fusion_lon": 0.0, "lat": 38.8974365, "is_disabled": 0, "name": "5d6c46fa68ab1c726929411c03fbdf26", "fusion_lat": 0.0, "rental_uris": {"ios": "https://dc.lft.to/lastmile_qr_scan", "android": "https://dc.lft.to/lastmile_qr_scan"}, "lon": -77.01750066666666, "type": "electric_scooter"}, {"bike_id": "ba9a26a925bdb00bb17bcc0cf3a86022", "is_reserved": 0, "fusion_lon": 0.0, "lat": 38.91112416666667, "is_disabled": 0, "name": "ba9a26a925bdb00bb17bcc0cf3a86022", "fusion_lat": 0.0, "rental_uris": {"ios": "https://dc.lft.to/lastmile_qr_scan", "android": "https://dc.lft.to/lastmile_qr_scan"}, "lon": -77.03724483333333, "type": "electric_scooter"}, {"bike_id": "f8742f83e46833a12e113b28ded03de2", "is_reserved": 0, "fusion_lon": 0.0, "lat": 38.896778166666664, "is_disabled": 0, "name": "f8742f83e46833a12e113b28ded03de2", "fusion_lat": 0.0, "rental_uris": {"ios": "https://dc.lft.to/lastmile_qr_scan", "android": "https://dc.lft.to/lastmile_qr_scan"}, "lon": -77.02688216666667, "type": "electric_scooter"}, {"bike_id": "e0a6e925b14f8a46f1fead7392733c73", "is_reserved": 0, "fusion_lon": 0.0, "lat": 38.86975283333334, "is_disabled": 0, "name": "e0a6e925b14f8a46f1fead7392733c73", "fusion_lat": 0.0, "rental_uris": {"ios": "https://dc.lft.to/lastmile_qr_scan", "android": "https://dc.lft.to/lastmile_qr_scan"}, "lon": -76.9599385, "type": "electric_bike"}, {"bike_id": "c413cbe89a68f5067e55bf4a775becf5", "is_reserved": 0, "fusion_lon": 0.0, "lat": 38.892234333333334, "is_disabled": 0, "name": "c413cbe89a68f5067e55bf4a775becf5", "fusion_lat": 0.0, "rental_uris": {"ios": "https://dc.lft.to/lastmile_qr_scan", "android": "https://dc.lft.to/lastmile_qr_scan"}, "lon": -77.04647533333333, "type": "electric_scooter"}, {"bike_id": "a7fe6b49571ac04293dbe1247800cdd0", "is_reserved": 0, "fusion_lon": 0.0, "lat": 38.9849635, "is_disabled": 0, "name": "a7fe6b49571ac04293dbe1247800cdd0", "fusion_lat": 0.0, "rental_uris": {"ios": "https://dc.lft.to/lastmile_qr_scan", "android": "https://dc.lft.to/lastmile_qr_scan"}, "lon": -76.98188616666667, "type": "electric_bike"}, {"bike_id": "706f12bb0d14e3eeec93dd0fc679c42f", "is_reserved": 0, "fusion_lon": 0.0, "lat": 38.932281, "is_disabled": 0, "name": "706f12bb0d14e3eeec93dd0fc679c42f", "fusion_lat": 0.0, "rental_uris": {"ios": "https://dc.lft.to/lastmile_qr_scan", "android": "https://dc.lft.to/lastmile_qr_scan"}, "lon": -77.03831, "type": "electric_scooter"}, {"bike_id": "f9baf31e83bef7b66a8d2341d836338d", "is_reserved": 0, "fusion_lon": 0.0, "lat": 38.82260383333333, "is_disabled": 0, "name": "f9baf31e83bef7b66a8d2341d836338d", "fusion_lat": 0.0, "rental_uris": {"ios": "https://dc.lft.to/lastmile_qr_scan", "android": "https://dc.lft.to/lastmile_qr_scan"}, "lon": -77.058092, "type": "electric_bike"}, {"bike_id": "8b49280cdd158dfb3df0f4a9236c79a5", "is_reserved": 0, "fusion_lon": 0.0, "lat": 38.90785866666667, "is_disabled": 0, "name": "8b49280cdd158dfb3df0f4a9236c79a5", "fusion_lat": 0.0, "rental_uris": {"ios": "https://dc.lft.to/lastmile_qr_scan", "android": "https://dc.lft.to/lastmile_qr_scan"}, "lon": -77.03650616666667, "type": "electric_scooter"}, {"bike_id": "4018f07937d0e52e4b3812d53223cf43", "is_reserved": 0, "fusion_lon": 0.0, "lat": 38.876826333333334, "is_disabled": 0, "name": "4018f07937d0e52e4b3812d53223cf43", "fusion_lat": 0.0, "rental_uris": {"ios": "https://dc.lft.to/lastmile_qr_scan", "android": "https://dc.lft.to/lastmile_qr_scan"}, "lon": -77.0045785, "type": "electric_scooter"}, {"bike_id": "90ed0647f21de496caafddef8a1d347d", "is_reserved": 0, "fusion_lon": 0.0, "lat": 38.910669666666664, "is_disabled": 0, "name": "90ed0647f21de496caafddef8a1d347d", "fusion_lat": 0.0, "rental_uris": {"ios": "https://dc.lft.to/lastmile_qr_scan", "android": "https://dc.lft.to/lastmile_qr_scan"}, "lon": -77.06769166666666, "type": "electric_bike"}, {"bike_id": "901e5fa793000eeebe830b74cda9bc28", "is_reserved": 0, "fusion_lon": 0.0, "lat": 38.893843, "is_disabled": 0, "name": "901e5fa793000eeebe830b74cda9bc28", "fusion_lat": 0.0, "rental_uris": {"ios": "https://dc.lft.to/lastmile_qr_scan", "android": "https://dc.lft.to/lastmile_qr_scan"}, "lon": -77.0059855, "type": "electric_scooter"}, {"bike_id": "1dbee5ee79aed4e5fcb1065b4ae7cfb1", "is_reserved": 0, "fusion_lon": 0.0, "lat": 38.91660433333333, "is_disabled": 0, "name": "1dbee5ee79aed4e5fcb1065b4ae7cfb1", "fusion_lat": 0.0, "rental_uris": {"ios": "https://dc.lft.to/lastmile_qr_scan", "android": "https://dc.lft.to/lastmile_qr_scan"}, "lon": -77.02706783333333, "type": "electric_scooter"}, {"bike_id": "f6cbf1af75315933581e0ac51f14ffd1", "is_reserved": 0, "fusion_lon": 0.0, "lat": 38.86246, "is_disabled": 0, "name": "f6cbf1af75315933581e0ac51f14ffd1", "fusion_lat": 0.0, "rental_uris": {"ios": "https://dc.lft.to/lastmile_qr_scan", "android": "https://dc.lft.to/lastmile_qr_scan"}, "lon": -76.99478266666667, "type": "electric_scooter"}, {"bike_id": "c64397eac2bcabbb20e58609c79baf0f", "is_reserved": 0, "fusion_lon": 0.0, "lat": 38.892189333333334, "is_disabled": 0, "name": "c64397eac2bcabbb20e58609c79baf0f", "fusion_lat": 0.0, "rental_uris": {"ios": "https://dc.lft.to/lastmile_qr_scan", "android": "https://dc.lft.to/lastmile_qr_scan"}, "lon": -77.04871916666667, "type": "electric_scooter"}, {"bike_id": "8cc303ae96a4892ec0ad1a9b092b98de", "is_reserved": 0, "fusion_lon": 0.0, "lat": 38.9025565, "is_disabled": 0, "name": "8cc303ae96a4892ec0ad1a9b092b98de", "fusion_lat": 0.0, "rental_uris": {"ios": "https://dc.lft.to/lastmile_qr_scan", "android": "https://dc.lft.to/lastmile_qr_scan"}, "lon": -77.039612, "type": "electric_scooter"}, {"bike_id": "c964c5bf107a3f4c3550fd76f0b5e108", "is_reserved": 0, "fusion_lon": 0.0, "lat": 38.902815833333335, "is_disabled": 0, "name": "c964c5bf107a3f4c3550fd76f0b5e108", "fusion_lat": 0.0, "rental_uris": {"ios": "https://dc.lft.to/lastmile_qr_scan", "android": "https://dc.lft.to/lastmile_qr_scan"}, "lon": -77.03845666666666, "type": "electric_scooter"}, {"bike_id": "ba2f81122bae0fbf7c82f5f95c507b53", "is_reserved": 0, "fusion_lon": 0.0, "lat": 38.903907833333335, "is_disabled": 0, "name": "ba2f81122bae0fbf7c82f5f95c507b53", "fusion_lat": 0.0, "rental_uris": {"ios": "https://dc.lft.to/lastmile_qr_scan", "android": "https://dc.lft.to/lastmile_qr_scan"}, "lon": -77.04515416666666, "type": "electric_scooter"}, {"bike_id": "d3603c528c1c777ec0831534d0f0f593", "is_reserved": 0, "fusion_lon": 0.0, "lat": 38.890055333333336, "is_disabled": 0, "name": "d3603c528c1c777ec0831534d0f0f593", "fusion_lat": 0.0, "rental_uris": {"ios": "https://dc.lft.to/lastmile_qr_scan", "android": "https://dc.lft.to/lastmile_qr_scan"}, "lon": -76.93743966666666, "type": "electric_scooter"}, {"bike_id": "8ed46644dc49c4ea1f621957a93cd703", "is_reserved": 0, "fusion_lon": 0.0, "lat": 38.84585766666667, "is_disabled": 0, "name": "8ed46644dc49c4ea1f621957a93cd703", "fusion_lat": 0.0, "rental_uris": {"ios": "https://dc.lft.to/lastmile_qr_scan", "android": "https://dc.lft.to/lastmile_qr_scan"}, "lon": -76.98161066666667, "type": "electric_scooter"}, {"bike_id": "4377bcd25c1a98dac8ba037c8f9180cd", "is_reserved": 0, "fusion_lon": 0.0, "lat": 38.89221033333333, "is_disabled": 0, "name": "4377bcd25c1a98dac8ba037c8f9180cd", "fusion_lat": 0.0, "rental_uris": {"ios": "https://dc.lft.to/lastmile_qr_scan", "android": "https://dc.lft.to/lastmile_qr_scan"}, "lon": -77.03222533333333, "type": "electric_scooter"}, {"bike_id": "4740cdf2a6e0d188c4bc0263345c1126", "is_reserved": 0, "fusion_lon": 0.0, "lat": 38.935078833333336, "is_disabled": 0, "name": "4740cdf2a6e0d188c4bc0263345c1126", "fusion_lat": 0.0, "rental_uris": {"ios": "https://dc.lft.to/lastmile_qr_scan", "android": "https://dc.lft.to/lastmile_qr_scan"}, "lon": -77.03296816666666, "type": "electric_scooter"}, {"bike_id": "4931bc9b9c994223f46841b59692d8a6", "is_reserved": 0, "fusion_lon": 0.0, "lat": 38.923993833333334, "is_disabled": 0, "name": "4931bc9b9c994223f46841b59692d8a6", "fusion_lat": 0.0, "rental_uris": {"ios": "https://dc.lft.to/lastmile_qr_scan", "android": "https://dc.lft.to/lastmile_qr_scan"}, "lon": -77.019558, "type": "electric_scooter"}, {"bike_id": "73061e79f53e09b2a96f532e8c75873d", "is_reserved": 0, "fusion_lon": 0.0, "lat": 38.914707666666665, "is_disabled": 0, "name": "73061e79f53e09b2a96f532e8c75873d", "fusion_lat": 0.0, "rental_uris": {"ios": "https://dc.lft.to/lastmile_qr_scan", "android": "https://dc.lft.to/lastmile_qr_scan"}, "lon": -77.0321055, "type": "electric_scooter"}, {"bike_id": "9ebec0f4d2e7b020a8651427998976e7", "is_reserved": 0, "fusion_lon": 0.0, "lat": 38.88667566666667, "is_disabled": 0, "name": "9ebec0f4d2e7b020a8651427998976e7", "fusion_lat": 0.0, "rental_uris": {"ios": "https://dc.lft.to/lastmile_qr_scan", "android": "https://dc.lft.to/lastmile_qr_scan"}, "lon": -77.01370516666667, "type": "electric_scooter"}, {"bike_id": "8a28745746801927548b10c20d19fcd9", "is_reserved": 0, "fusion_lon": 0.0, "lat": 38.91567916666666, "is_disabled": 0, "name": "8a28745746801927548b10c20d19fcd9", "fusion_lat": 0.0, "rental_uris": {"ios": "https://dc.lft.to/lastmile_qr_scan", "android": "https://dc.lft.to/lastmile_qr_scan"}, "lon": -77.03370533333333, "type": "electric_scooter"}, {"bike_id": "abd2ba12299fd712bb72a1f457ae3884", "is_reserved": 0, "fusion_lon": 0.0, "lat": 38.943913333333334, "is_disabled": 0, "name": "abd2ba12299fd712bb72a1f457ae3884", "fusion_lat": 0.0, "rental_uris": {"ios": "https://dc.lft.to/lastmile_qr_scan", "android": "https://dc.lft.to/lastmile_qr_scan"}, "lon": -77.03894016666666, "type": "electric_scooter"}, {"bike_id": "ccdddcc2da3097d26fbff15447380070", "is_reserved": 0, "fusion_lon": 0.0, "lat": 38.90854566666667, "is_disabled": 0, "name": "ccdddcc2da3097d26fbff15447380070", "fusion_lat": 0.0, "rental_uris": {"ios": "https://dc.lft.to/lastmile_qr_scan", "android": "https://dc.lft.to/lastmile_qr_scan"}, "lon": -77.04481416666667, "type": "electric_scooter"}, {"bike_id": "a94dc6d5357159d662c92df199479d3f", "is_reserved": 0, "fusion_lon": 0.0, "lat": 38.904626, "is_disabled": 0, "name": "a94dc6d5357159d662c92df199479d3f", "fusion_lat": 0.0, "rental_uris": {"ios": "https://dc.lft.to/lastmile_qr_scan", "android": "https://dc.lft.to/lastmile_qr_scan"}, "lon": -77.03861966666666, "type": "electric_scooter"}, {"bike_id": "8ca8ce0bdec8273a44e6960abeb6e3b0", "is_reserved": 0, "fusion_lon": 0.0, "lat": 38.90545916666667, "is_disabled": 0, "name": "8ca8ce0bdec8273a44e6960abeb6e3b0", "fusion_lat": 0.0, "rental_uris": {"ios": "https://dc.lft.to/lastmile_qr_scan", "android": "https://dc.lft.to/lastmile_qr_scan"}, "lon": -77.03972016666667, "type": "electric_scooter"}, {"bike_id": "a77c12c86beb3f4a0165b61be976a9e1", "is_reserved": 0, "fusion_lon": 0.0, "lat": 38.905961166666664, "is_disabled": 0, "name": "a77c12c86beb3f4a0165b61be976a9e1", "fusion_lat": 0.0, "rental_uris": {"ios": "https://dc.lft.to/lastmile_qr_scan", "android": "https://dc.lft.to/lastmile_qr_scan"}, "lon": -77.04671466666667, "type": "electric_scooter"}, {"bike_id": "2865cafe8863815232fd2f3f1e868f72", "is_reserved": 0, "fusion_lon": 0.0, "lat": 38.90602466666667, "is_disabled": 0, "name": "2865cafe8863815232fd2f3f1e868f72", "fusion_lat": 0.0, "rental_uris": {"ios": "https://dc.lft.to/lastmile_qr_scan", "android": "https://dc.lft.to/lastmile_qr_scan"}, "lon": -77.03984983333334, "type": "electric_scooter"}, {"bike_id": "bca27837f1c979f7db2aba6d3404f1cc", "is_reserved": 0, "fusion_lon": 0.0, "lat": 38.898773, "is_disabled": 0, "name": "bca27837f1c979f7db2aba6d3404f1cc", "fusion_lat": 0.0, "rental_uris": {"ios": "https://dc.lft.to/lastmile_qr_scan", "android": "https://dc.lft.to/lastmile_qr_scan"}, "lon": -76.93157616666667, "type": "electric_scooter"}, {"bike_id": "114b228db4bdbfea47f2b6df3d2bfef1", "is_reserved": 0, "fusion_lon": 0.0, "lat": 38.915289666666666, "is_disabled": 0, "name": "114b228db4bdbfea47f2b6df3d2bfef1", "fusion_lat": 0.0, "rental_uris": {"ios": "https://dc.lft.to/lastmile_qr_scan", "android": "https://dc.lft.to/lastmile_qr_scan"}, "lon": -77.01848316666667, "type": "electric_scooter"}, {"bike_id": "23922b4db8c9fd6049fab7b089d39ea2", "is_reserved": 0, "fusion_lon": 0.0, "lat": 38.909664166666666, "is_disabled": 0, "name": "23922b4db8c9fd6049fab7b089d39ea2", "fusion_lat": 0.0, "rental_uris": {"ios": "https://dc.lft.to/lastmile_qr_scan", "android": "https://dc.lft.to/lastmile_qr_scan"}, "lon": -77.02718916666667, "type": "electric_scooter"}, {"bike_id": "672c726713d064a29430a7a02c8367f0", "is_reserved": 0, "fusion_lon": 0.0, "lat": 38.920504666666666, "is_disabled": 0, "name": "672c726713d064a29430a7a02c8367f0", "fusion_lat": 0.0, "rental_uris": {"ios": "https://dc.lft.to/lastmile_qr_scan", "android": "https://dc.lft.to/lastmile_qr_scan"}, "lon": -77.02362666666667, "type": "electric_scooter"}, {"bike_id": "9bb9091e8d2fcd81b5893bd58396fd96", "is_reserved": 0, "fusion_lon": 0.0, "lat": 38.90107183333333, "is_disabled": 0, "name": "9bb9091e8d2fcd81b5893bd58396fd96", "fusion_lat": 0.0, "rental_uris": {"ios": "https://dc.lft.to/lastmile_qr_scan", "android": "https://dc.lft.to/lastmile_qr_scan"}, "lon": -77.04373016666666, "type": "electric_scooter"}, {"bike_id": "0d9b791684ce613ea88e7bd235ab4c73", "is_reserved": 0, "fusion_lon": 0.0, "lat": 38.91208666666667, "is_disabled": 0, "name": "0d9b791684ce613ea88e7bd235ab4c73", "fusion_lat": 0.0, "rental_uris": {"ios": "https://dc.lft.to/lastmile_qr_scan", "android": "https://dc.lft.to/lastmile_qr_scan"}, "lon": -77.048752, "type": "electric_scooter"}, {"bike_id": "c8b9e9a8a00263387956138a2bafc424", "is_reserved": 0, "fusion_lon": 0.0, "lat": 38.9123665, "is_disabled": 0, "name": "c8b9e9a8a00263387956138a2bafc424", "fusion_lat": 0.0, "rental_uris": {"ios": "https://dc.lft.to/lastmile_qr_scan", "android": "https://dc.lft.to/lastmile_qr_scan"}, "lon": -77.01608283333333, "type": "electric_scooter"}, {"bike_id": "4df487f696db8e17eba3bc08dc27902c", "is_reserved": 0, "fusion_lon": 0.0, "lat": 38.91267883333333, "is_disabled": 0, "name": "4df487f696db8e17eba3bc08dc27902c", "fusion_lat": 0.0, "rental_uris": {"ios": "https://dc.lft.to/lastmile_qr_scan", "android": "https://dc.lft.to/lastmile_qr_scan"}, "lon": -77.02212583333333, "type": "electric_scooter"}, {"bike_id": "06affa1876ec3b393911873a164984dd", "is_reserved": 0, "fusion_lon": 0.0, "lat": 38.921558, "is_disabled": 0, "name": "06affa1876ec3b393911873a164984dd", "fusion_lat": 0.0, "rental_uris": {"ios": "https://dc.lft.to/lastmile_qr_scan", "android": "https://dc.lft.to/lastmile_qr_scan"}, "lon": -77.03284066666667, "type": "electric_scooter"}, {"bike_id": "be29de21a36e8eb88bedacf1e04f795b", "is_reserved": 0, "fusion_lon": 0.0, "lat": 38.916257333333334, "is_disabled": 0, "name": "be29de21a36e8eb88bedacf1e04f795b", "fusion_lat": 0.0, "rental_uris": {"ios": "https://dc.lft.to/lastmile_qr_scan", "android": "https://dc.lft.to/lastmile_qr_scan"}, "lon": -77.035907, "type": "electric_scooter"}, {"bike_id": "de5a48c4712589e131240356ffd00cc7", "is_reserved": 0, "fusion_lon": 0.0, "lat": 38.91318416666667, "is_disabled": 0, "name": "de5a48c4712589e131240356ffd00cc7", "fusion_lat": 0.0, "rental_uris": {"ios": "https://dc.lft.to/lastmile_qr_scan", "android": "https://dc.lft.to/lastmile_qr_scan"}, "lon": -77.03258633333333, "type": "electric_scooter"}, {"bike_id": "38f2ca597eae9a1f8d81ea4fd7d702d6", "is_reserved": 0, "fusion_lon": 0.0, "lat": 38.907925666666664, "is_disabled": 0, "name": "38f2ca597eae9a1f8d81ea4fd7d702d6", "fusion_lat": 0.0, "rental_uris": {"ios": "https://dc.lft.to/lastmile_qr_scan", "android": "https://dc.lft.to/lastmile_qr_scan"}, "lon": -77.04248883333334, "type": "electric_scooter"}, {"bike_id": "c4795885b83297251c348d9e184dab79", "is_reserved": 0, "fusion_lon": 0.0, "lat": 38.9180625, "is_disabled": 0, "name": "c4795885b83297251c348d9e184dab79", "fusion_lat": 0.0, "rental_uris": {"ios": "https://dc.lft.to/lastmile_qr_scan", "android": "https://dc.lft.to/lastmile_qr_scan"}, "lon": -77.03298633333333, "type": "electric_scooter"}, {"bike_id": "956f1c1d8f0c5cbb2e8a348518991edd", "is_reserved": 0, "fusion_lon": 0.0, "lat": 38.85954916666667, "is_disabled": 0, "name": "956f1c1d8f0c5cbb2e8a348518991edd", "fusion_lat": 0.0, "rental_uris": {"ios": "https://dc.lft.to/lastmile_qr_scan", "android": "https://dc.lft.to/lastmile_qr_scan"}, "lon": -76.99106633333334, "type": "electric_scooter"}, {"bike_id": "d09ab769cad7ca13c29c160343b84177", "is_reserved": 0, "fusion_lon": 0.0, "lat": 38.920984, "is_disabled": 0, "name": "d09ab769cad7ca13c29c160343b84177", "fusion_lat": 0.0, "rental_uris": {"ios": "https://dc.lft.to/lastmile_qr_scan", "android": "https://dc.lft.to/lastmile_qr_scan"}, "lon": -77.0177855, "type": "electric_scooter"}, {"bike_id": "599df0bf07c4503371105f298720f20f", "is_reserved": 0, "fusion_lon": 0.0, "lat": 38.9397335, "is_disabled": 0, "name": "599df0bf07c4503371105f298720f20f", "fusion_lat": 0.0, "rental_uris": {"ios": "https://dc.lft.to/lastmile_qr_scan", "android": "https://dc.lft.to/lastmile_qr_scan"}, "lon": -77.0288275, "type": "electric_scooter"}, {"bike_id": "71fe8b436f525aed0418c3c8d131d30b", "is_reserved": 0, "fusion_lon": 0.0, "lat": 38.90264033333333, "is_disabled": 0, "name": "71fe8b436f525aed0418c3c8d131d30b", "fusion_lat": 0.0, "rental_uris": {"ios": "https://dc.lft.to/lastmile_qr_scan", "android": "https://dc.lft.to/lastmile_qr_scan"}, "lon": -77.03073916666666, "type": "electric_scooter"}, {"bike_id": "6f80dfc0a09efe9984878856fbfb4c54", "is_reserved": 0, "fusion_lon": 0.0, "lat": 38.9167605, "is_disabled": 0, "name": "6f80dfc0a09efe9984878856fbfb4c54", "fusion_lat": 0.0, "rental_uris": {"ios": "https://dc.lft.to/lastmile_qr_scan", "android": "https://dc.lft.to/lastmile_qr_scan"}, "lon": -77.03681616666667, "type": "electric_scooter"}, {"bike_id": "2bf723e6d11beb516ed85bc339b032fd", "is_reserved": 0, "fusion_lon": 0.0, "lat": 38.9034925, "is_disabled": 0, "name": "2bf723e6d11beb516ed85bc339b032fd", "fusion_lat": 0.0, "rental_uris": {"ios": "https://dc.lft.to/lastmile_qr_scan", "android": "https://dc.lft.to/lastmile_qr_scan"}, "lon": -77.045143, "type": "electric_scooter"}, {"bike_id": "58c555262d676fe6524730a93ce7fb6c", "is_reserved": 0, "fusion_lon": 0.0, "lat": 38.89218366666667, "is_disabled": 0, "name": "58c555262d676fe6524730a93ce7fb6c", "fusion_lat": 0.0, "rental_uris": {"ios": "https://dc.lft.to/lastmile_qr_scan", "android": "https://dc.lft.to/lastmile_qr_scan"}, "lon": -77.02582366666667, "type": "electric_scooter"}, {"bike_id": "02e61725a148c0ff76190a9306d483cd", "is_reserved": 0, "fusion_lon": 0.0, "lat": 38.924496, "is_disabled": 0, "name": "02e61725a148c0ff76190a9306d483cd", "fusion_lat": 0.0, "rental_uris": {"ios": "https://dc.lft.to/lastmile_qr_scan", "android": "https://dc.lft.to/lastmile_qr_scan"}, "lon": -77.0522245, "type": "electric_scooter"}, {"bike_id": "e5c49bf6741f3c856a474f01abced0a2", "is_reserved": 0, "fusion_lon": 0.0, "lat": 38.8130695, "is_disabled": 0, "name": "e5c49bf6741f3c856a474f01abced0a2", "fusion_lat": 0.0, "rental_uris": {"ios": "https://dc.lft.to/lastmile_qr_scan", "android": "https://dc.lft.to/lastmile_qr_scan"}, "lon": -77.05098066666666, "type": "electric_bike"}, {"bike_id": "a2f8f66d18d27a1ea1b6106d0913256f", "is_reserved": 0, "fusion_lon": 0.0, "lat": 38.9285505, "is_disabled": 0, "name": "a2f8f66d18d27a1ea1b6106d0913256f", "fusion_lat": 0.0, "rental_uris": {"ios": "https://dc.lft.to/lastmile_qr_scan", "android": "https://dc.lft.to/lastmile_qr_scan"}, "lon": -76.98936533333334, "type": "electric_bike"}, {"bike_id": "b536ff6117964c92f20038ab513fd4e4", "is_reserved": 0, "fusion_lon": 0.0, "lat": 38.92169916666667, "is_disabled": 0, "name": "b536ff6117964c92f20038ab513fd4e4", "fusion_lat": 0.0, "rental_uris": {"ios": "https://dc.lft.to/lastmile_qr_scan", "android": "https://dc.lft.to/lastmile_qr_scan"}, "lon": -77.02531266666666, "type": "electric_scooter"}, {"bike_id": "e62ee4952f3df957b67ea577b22caa65", "is_reserved": 0, "fusion_lon": 0.0, "lat": 38.8762365, "is_disabled": 0, "name": "e62ee4952f3df957b67ea577b22caa65", "fusion_lat": 0.0, "rental_uris": {"ios": "https://dc.lft.to/lastmile_qr_scan", "android": "https://dc.lft.to/lastmile_qr_scan"}, "lon": -76.9652385, "type": "electric_scooter"}, {"bike_id": "e7cfb598b1429d302375b4acb49153d6", "is_reserved": 0, "fusion_lon": 0.0, "lat": 38.893688, "is_disabled": 0, "name": "e7cfb598b1429d302375b4acb49153d6", "fusion_lat": 0.0, "rental_uris": {"ios": "https://dc.lft.to/lastmile_qr_scan", "android": "https://dc.lft.to/lastmile_qr_scan"}, "lon": -76.949645, "type": "electric_scooter"}, {"bike_id": "dd61b5441038bd1aa1757412557ea63a", "is_reserved": 0, "fusion_lon": 0.0, "lat": 38.878302166666664, "is_disabled": 0, "name": "dd61b5441038bd1aa1757412557ea63a", "fusion_lat": 0.0, "rental_uris": {"ios": "https://dc.lft.to/lastmile_qr_scan", "android": "https://dc.lft.to/lastmile_qr_scan"}, "lon": -76.99038366666667, "type": "electric_scooter"}, {"bike_id": "70e1bd23b14126e2ade6290bb58538ed", "is_reserved": 0, "fusion_lon": 0.0, "lat": 38.902956333333336, "is_disabled": 0, "name": "70e1bd23b14126e2ade6290bb58538ed", "fusion_lat": 0.0, "rental_uris": {"ios": "https://dc.lft.to/lastmile_qr_scan", "android": "https://dc.lft.to/lastmile_qr_scan"}, "lon": -76.998552, "type": "electric_scooter"}, {"bike_id": "5f30e5019e3050cde167e720d011a3fb", "is_reserved": 0, "fusion_lon": 0.0, "lat": 38.90448333333333, "is_disabled": 0, "name": "5f30e5019e3050cde167e720d011a3fb", "fusion_lat": 0.0, "rental_uris": {"ios": "https://dc.lft.to/lastmile_qr_scan", "android": "https://dc.lft.to/lastmile_qr_scan"}, "lon": -76.9962395, "type": "electric_scooter"}, {"bike_id": "1cc4aff2b736bf55b7905d7d8705161a", "is_reserved": 0, "fusion_lon": 0.0, "lat": 38.904315, "is_disabled": 0, "name": "1cc4aff2b736bf55b7905d7d8705161a", "fusion_lat": 0.0, "rental_uris": {"ios": "https://dc.lft.to/lastmile_qr_scan", "android": "https://dc.lft.to/lastmile_qr_scan"}, "lon": -77.0435085, "type": "electric_scooter"}, {"bike_id": "4b5bc06e2d4ee22d8c4817dd5751b6ce", "is_reserved": 0, "fusion_lon": 0.0, "lat": 38.89218483333333, "is_disabled": 0, "name": "4b5bc06e2d4ee22d8c4817dd5751b6ce", "fusion_lat": 0.0, "rental_uris": {"ios": "https://dc.lft.to/lastmile_qr_scan", "android": "https://dc.lft.to/lastmile_qr_scan"}, "lon": -77.04510766666667, "type": "electric_scooter"}, {"bike_id": "cd524824a134ccb6a9a072ac345a6cc9", "is_reserved": 0, "fusion_lon": 0.0, "lat": 38.9027735, "is_disabled": 0, "name": "cd524824a134ccb6a9a072ac345a6cc9", "fusion_lat": 0.0, "rental_uris": {"ios": "https://dc.lft.to/lastmile_qr_scan", "android": "https://dc.lft.to/lastmile_qr_scan"}, "lon": -77.0337075, "type": "electric_scooter"}, {"bike_id": "f19b7527bd734434aab1392c7f498829", "is_reserved": 0, "fusion_lon": 0.0, "lat": 38.92261333333333, "is_disabled": 0, "name": "f19b7527bd734434aab1392c7f498829", "fusion_lat": 0.0, "rental_uris": {"ios": "https://dc.lft.to/lastmile_qr_scan", "android": "https://dc.lft.to/lastmile_qr_scan"}, "lon": -77.0182615, "type": "electric_scooter"}, {"bike_id": "629452df817bd9147d4628c88c96d827", "is_reserved": 0, "fusion_lon": 0.0, "lat": 38.842952, "is_disabled": 0, "name": "629452df817bd9147d4628c88c96d827", "fusion_lat": 0.0, "rental_uris": {"ios": "https://dc.lft.to/lastmile_qr_scan", "android": "https://dc.lft.to/lastmile_qr_scan"}, "lon": -76.99950266666667, "type": "electric_scooter"}, {"bike_id": "59c1df8186daba996c3b9e23ac3b0c9a", "is_reserved": 0, "fusion_lon": 0.0, "lat": 38.922975, "is_disabled": 0, "name": "59c1df8186daba996c3b9e23ac3b0c9a", "fusion_lat": 0.0, "rental_uris": {"ios": "https://dc.lft.to/lastmile_qr_scan", "android": "https://dc.lft.to/lastmile_qr_scan"}, "lon": -77.04154633333333, "type": "electric_scooter"}, {"bike_id": "4e7185b56a96945b51808cdf572c6c2b", "is_reserved": 0, "fusion_lon": 0.0, "lat": 38.898535, "is_disabled": 0, "name": "4e7185b56a96945b51808cdf572c6c2b", "fusion_lat": 0.0, "rental_uris": {"ios": "https://dc.lft.to/lastmile_qr_scan", "android": "https://dc.lft.to/lastmile_qr_scan"}, "lon": -77.03330816666667, "type": "electric_scooter"}, {"bike_id": "dc2916f1a787e8a9ac1bf484084d152a", "is_reserved": 0, "fusion_lon": 0.0, "lat": 38.941748833333335, "is_disabled": 0, "name": "dc2916f1a787e8a9ac1bf484084d152a", "fusion_lat": 0.0, "rental_uris": {"ios": "https://dc.lft.to/lastmile_qr_scan", "android": "https://dc.lft.to/lastmile_qr_scan"}, "lon": -77.025022, "type": "electric_scooter"}, {"bike_id": "963045d40ba0e71f9bddade76f5a4bd3", "is_reserved": 0, "fusion_lon": 0.0, "lat": 38.921403, "is_disabled": 0, "name": "963045d40ba0e71f9bddade76f5a4bd3", "fusion_lat": 0.0, "rental_uris": {"ios": "https://dc.lft.to/lastmile_qr_scan", "android": "https://dc.lft.to/lastmile_qr_scan"}, "lon": -77.03483116666666, "type": "electric_scooter"}, {"bike_id": "7bf769998e9236ba1e475b37182c3ada", "is_reserved": 0, "fusion_lon": 0.0, "lat": 38.90855066666666, "is_disabled": 0, "name": "7bf769998e9236ba1e475b37182c3ada", "fusion_lat": 0.0, "rental_uris": {"ios": "https://dc.lft.to/lastmile_qr_scan", "android": "https://dc.lft.to/lastmile_qr_scan"}, "lon": -77.04477016666667, "type": "electric_scooter"}, {"bike_id": "6489a6de9c9149a9b9a10df65c557351", "is_reserved": 0, "fusion_lon": 0.0, "lat": 38.898419833333335, "is_disabled": 0, "name": "6489a6de9c9149a9b9a10df65c557351", "fusion_lat": 0.0, "rental_uris": {"ios": "https://dc.lft.to/lastmile_qr_scan", "android": "https://dc.lft.to/lastmile_qr_scan"}, "lon": -77.00750116666667, "type": "electric_scooter"}, {"bike_id": "3698aa6b21718593127e707f849b95b7", "is_reserved": 0, "fusion_lon": 0.0, "lat": 38.90342283333333, "is_disabled": 0, "name": "3698aa6b21718593127e707f849b95b7", "fusion_lat": 0.0, "rental_uris": {"ios": "https://dc.lft.to/lastmile_qr_scan", "android": "https://dc.lft.to/lastmile_qr_scan"}, "lon": -77.06643066666666, "type": "electric_scooter"}, {"bike_id": "ea409429013048d5cd54fe4224df8e0b", "is_reserved": 0, "fusion_lon": 0.0, "lat": 38.957786666666664, "is_disabled": 0, "name": "ea409429013048d5cd54fe4224df8e0b", "fusion_lat": 0.0, "rental_uris": {"ios": "https://dc.lft.to/lastmile_qr_scan", "android": "https://dc.lft.to/lastmile_qr_scan"}, "lon": -76.97670166666667, "type": "electric_bike"}, {"bike_id": "994f075ca4f6ebe15b5eb10a40bc4599", "is_reserved": 0, "fusion_lon": 0.0, "lat": 38.9416095, "is_disabled": 0, "name": "994f075ca4f6ebe15b5eb10a40bc4599", "fusion_lat": 0.0, "rental_uris": {"ios": "https://dc.lft.to/lastmile_qr_scan", "android": "https://dc.lft.to/lastmile_qr_scan"}, "lon": -77.041305, "type": "electric_scooter"}, {"bike_id": "21b08b53442e8213f609636662dd5901", "is_reserved": 0, "fusion_lon": 0.0, "lat": 38.89216616666667, "is_disabled": 0, "name": "21b08b53442e8213f609636662dd5901", "fusion_lat": 0.0, "rental_uris": {"ios": "https://dc.lft.to/lastmile_qr_scan", "android": "https://dc.lft.to/lastmile_qr_scan"}, "lon": -77.04362716666667, "type": "electric_scooter"}, {"bike_id": "1ea164a0f35c67e14d0f7655a51a2179", "is_reserved": 0, "fusion_lon": 0.0, "lat": 38.916783333333335, "is_disabled": 0, "name": "1ea164a0f35c67e14d0f7655a51a2179", "fusion_lat": 0.0, "rental_uris": {"ios": "https://dc.lft.to/lastmile_qr_scan", "android": "https://dc.lft.to/lastmile_qr_scan"}, "lon": -77.01226083333333, "type": "electric_scooter"}, {"bike_id": "05c228f3832382e494c36732b105c230", "is_reserved": 0, "fusion_lon": 0.0, "lat": 38.998170333333334, "is_disabled": 0, "name": "05c228f3832382e494c36732b105c230", "fusion_lat": 0.0, "rental_uris": {"ios": "https://dc.lft.to/lastmile_qr_scan", "android": "https://dc.lft.to/lastmile_qr_scan"}, "lon": -76.88380116666667, "type": "electric_bike"}, {"bike_id": "2e4a363ef5a2e52c1f85383b738b38c8", "is_reserved": 0, "fusion_lon": 0.0, "lat": 38.906870166666664, "is_disabled": 0, "name": "2e4a363ef5a2e52c1f85383b738b38c8", "fusion_lat": 0.0, "rental_uris": {"ios": "https://dc.lft.to/lastmile_qr_scan", "android": "https://dc.lft.to/lastmile_qr_scan"}, "lon": -77.06261883333333, "type": "electric_bike"}, {"bike_id": "1001a8699396c8b2b60b6870e4b3de01", "is_reserved": 0, "fusion_lon": 0.0, "lat": 38.898764666666665, "is_disabled": 0, "name": "1001a8699396c8b2b60b6870e4b3de01", "fusion_lat": 0.0, "rental_uris": {"ios": "https://dc.lft.to/lastmile_qr_scan", "android": "https://dc.lft.to/lastmile_qr_scan"}, "lon": -76.931589, "type": "electric_scooter"}, {"bike_id": "639445425207566fb19d978122cf4b00", "is_reserved": 0, "fusion_lon": 0.0, "lat": 38.903761, "is_disabled": 0, "name": "639445425207566fb19d978122cf4b00", "fusion_lat": 0.0, "rental_uris": {"ios": "https://dc.lft.to/lastmile_qr_scan", "android": "https://dc.lft.to/lastmile_qr_scan"}, "lon": -77.0109685, "type": "electric_scooter"}, {"bike_id": "cca5cd403fa8af4034d8beced60a37d3", "is_reserved": 0, "fusion_lon": 0.0, "lat": 38.863828, "is_disabled": 0, "name": "cca5cd403fa8af4034d8beced60a37d3", "fusion_lat": 0.0, "rental_uris": {"ios": "https://dc.lft.to/lastmile_qr_scan", "android": "https://dc.lft.to/lastmile_qr_scan"}, "lon": -76.98991683333334, "type": "electric_bike"}, {"bike_id": "016b071ef818e674f22eb4993c4c1262", "is_reserved": 0, "fusion_lon": 0.0, "lat": 38.92901466666667, "is_disabled": 0, "name": "016b071ef818e674f22eb4993c4c1262", "fusion_lat": 0.0, "rental_uris": {"ios": "https://dc.lft.to/lastmile_qr_scan", "android": "https://dc.lft.to/lastmile_qr_scan"}, "lon": -77.05460366666667, "type": "electric_scooter"}, {"bike_id": "5fdd70fb9bd3a488620a5257fb21f753", "is_reserved": 0, "fusion_lon": 0.0, "lat": 38.929651166666666, "is_disabled": 0, "name": "5fdd70fb9bd3a488620a5257fb21f753", "fusion_lat": 0.0, "rental_uris": {"ios": "https://dc.lft.to/lastmile_qr_scan", "android": "https://dc.lft.to/lastmile_qr_scan"}, "lon": -77.05500033333334, "type": "electric_scooter"}, {"bike_id": "e689b6c8d241819723b6a4c28dd82dd3", "is_reserved": 0, "fusion_lon": 0.0, "lat": 38.935808333333334, "is_disabled": 0, "name": "e689b6c8d241819723b6a4c28dd82dd3", "fusion_lat": 0.0, "rental_uris": {"ios": "https://dc.lft.to/lastmile_qr_scan", "android": "https://dc.lft.to/lastmile_qr_scan"}, "lon": -77.02763, "type": "electric_scooter"}, {"bike_id": "19fc5a0e93c6524ab9477e86fa721406", "is_reserved": 0, "fusion_lon": 0.0, "lat": 38.913304833333335, "is_disabled": 0, "name": "19fc5a0e93c6524ab9477e86fa721406", "fusion_lat": 0.0, "rental_uris": {"ios": "https://dc.lft.to/lastmile_qr_scan", "android": "https://dc.lft.to/lastmile_qr_scan"}, "lon": -77.04873266666667, "type": "electric_scooter"}, {"bike_id": "80888348d159af653ae2df8f92eb13cc", "is_reserved": 0, "fusion_lon": 0.0, "lat": 38.9250025, "is_disabled": 0, "name": "80888348d159af653ae2df8f92eb13cc", "fusion_lat": 0.0, "rental_uris": {"ios": "https://dc.lft.to/lastmile_qr_scan", "android": "https://dc.lft.to/lastmile_qr_scan"}, "lon": -77.03881366666667, "type": "electric_scooter"}, {"bike_id": "0a5da882eea48f1dabe14959f251533b", "is_reserved": 0, "fusion_lon": 0.0, "lat": 38.97089616666667, "is_disabled": 0, "name": "0a5da882eea48f1dabe14959f251533b", "fusion_lat": 0.0, "rental_uris": {"ios": "https://dc.lft.to/lastmile_qr_scan", "android": "https://dc.lft.to/lastmile_qr_scan"}, "lon": -77.06965466666666, "type": "electric_bike"}, {"bike_id": "e1b5f6303cb90f53b65c72932b8a310d", "is_reserved": 0, "fusion_lon": 0.0, "lat": 38.898747, "is_disabled": 0, "name": "e1b5f6303cb90f53b65c72932b8a310d", "fusion_lat": 0.0, "rental_uris": {"ios": "https://dc.lft.to/lastmile_qr_scan", "android": "https://dc.lft.to/lastmile_qr_scan"}, "lon": -77.032761, "type": "electric_scooter"}, {"bike_id": "795e7245e7c37b2803a205fabc7c3953", "is_reserved": 0, "fusion_lon": 0.0, "lat": 38.915381333333336, "is_disabled": 0, "name": "795e7245e7c37b2803a205fabc7c3953", "fusion_lat": 0.0, "rental_uris": {"ios": "https://dc.lft.to/lastmile_qr_scan", "android": "https://dc.lft.to/lastmile_qr_scan"}, "lon": -77.04624933333334, "type": "electric_bike"}, {"bike_id": "b84ef2e8d52b8b85755bf94a924afc12", "is_reserved": 0, "fusion_lon": 0.0, "lat": 38.91620366666667, "is_disabled": 0, "name": "b84ef2e8d52b8b85755bf94a924afc12", "fusion_lat": 0.0, "rental_uris": {"ios": "https://dc.lft.to/lastmile_qr_scan", "android": "https://dc.lft.to/lastmile_qr_scan"}, "lon": -77.031491, "type": "electric_scooter"}, {"bike_id": "948376e6ee35bf4d30ba357b7f336ff6", "is_reserved": 0, "fusion_lon": 0.0, "lat": 38.92581883333333, "is_disabled": 0, "name": "948376e6ee35bf4d30ba357b7f336ff6", "fusion_lat": 0.0, "rental_uris": {"ios": "https://dc.lft.to/lastmile_qr_scan", "android": "https://dc.lft.to/lastmile_qr_scan"}, "lon": -77.00474283333334, "type": "electric_scooter"}, {"bike_id": "911c529cd191b0758370933bb1ed96ae", "is_reserved": 0, "fusion_lon": 0.0, "lat": 38.926267833333334, "is_disabled": 0, "name": "911c529cd191b0758370933bb1ed96ae", "fusion_lat": 0.0, "rental_uris": {"ios": "https://dc.lft.to/lastmile_qr_scan", "android": "https://dc.lft.to/lastmile_qr_scan"}, "lon": -77.03787416666667, "type": "electric_scooter"}, {"bike_id": "d5092fa7368a7fa6ad4dc57187cc1ecf", "is_reserved": 0, "fusion_lon": 0.0, "lat": 38.865065666666666, "is_disabled": 0, "name": "d5092fa7368a7fa6ad4dc57187cc1ecf", "fusion_lat": 0.0, "rental_uris": {"ios": "https://dc.lft.to/lastmile_qr_scan", "android": "https://dc.lft.to/lastmile_qr_scan"}, "lon": -76.98975966666667, "type": "electric_scooter"}, {"bike_id": "5d00bbf8c840f3e15de6b0119b9957cf", "is_reserved": 0, "fusion_lon": 0.0, "lat": 38.89957016666666, "is_disabled": 0, "name": "5d00bbf8c840f3e15de6b0119b9957cf", "fusion_lat": 0.0, "rental_uris": {"ios": "https://dc.lft.to/lastmile_qr_scan", "android": "https://dc.lft.to/lastmile_qr_scan"}, "lon": -77.03153433333334, "type": "electric_scooter"}, {"bike_id": "5d1abe6286166362bc2abc5b8234b74c", "is_reserved": 0, "fusion_lon": 0.0, "lat": 38.87844483333333, "is_disabled": 0, "name": "5d1abe6286166362bc2abc5b8234b74c", "fusion_lat": 0.0, "rental_uris": {"ios": "https://dc.lft.to/lastmile_qr_scan", "android": "https://dc.lft.to/lastmile_qr_scan"}, "lon": -77.00489, "type": "electric_scooter"}, {"bike_id": "a34b05f49ed2f0547fd951cfa2793d4f", "is_reserved": 0, "fusion_lon": 0.0, "lat": 38.89335833333333, "is_disabled": 0, "name": "a34b05f49ed2f0547fd951cfa2793d4f", "fusion_lat": 0.0, "rental_uris": {"ios": "https://dc.lft.to/lastmile_qr_scan", "android": "https://dc.lft.to/lastmile_qr_scan"}, "lon": -76.98455383333334, "type": "electric_scooter"}, {"bike_id": "f6b7825b1539998519ab04f70d6988e9", "is_reserved": 0, "fusion_lon": 0.0, "lat": 38.884951, "is_disabled": 0, "name": "f6b7825b1539998519ab04f70d6988e9", "fusion_lat": 0.0, "rental_uris": {"ios": "https://dc.lft.to/lastmile_qr_scan", "android": "https://dc.lft.to/lastmile_qr_scan"}, "lon": -77.01535333333334, "type": "electric_scooter"}, {"bike_id": "68d231014009acf8813f57ad3f8c81fc", "is_reserved": 0, "fusion_lon": 0.0, "lat": 38.89027883333333, "is_disabled": 0, "name": "68d231014009acf8813f57ad3f8c81fc", "fusion_lat": 0.0, "rental_uris": {"ios": "https://dc.lft.to/lastmile_qr_scan", "android": "https://dc.lft.to/lastmile_qr_scan"}, "lon": -76.93598416666667, "type": "electric_scooter"}, {"bike_id": "64ee174decd2d36e5ff0ee0e8a1af085", "is_reserved": 0, "fusion_lon": 0.0, "lat": 38.9034795, "is_disabled": 0, "name": "64ee174decd2d36e5ff0ee0e8a1af085", "fusion_lat": 0.0, "rental_uris": {"ios": "https://dc.lft.to/lastmile_qr_scan", "android": "https://dc.lft.to/lastmile_qr_scan"}, "lon": -77.03196216666667, "type": "electric_scooter"}, {"bike_id": "69c07dc18eb2ea07b313be10097e44d9", "is_reserved": 0, "fusion_lon": 0.0, "lat": 38.83933566666666, "is_disabled": 0, "name": "69c07dc18eb2ea07b313be10097e44d9", "fusion_lat": 0.0, "rental_uris": {"ios": "https://dc.lft.to/lastmile_qr_scan", "android": "https://dc.lft.to/lastmile_qr_scan"}, "lon": -77.07898383333334, "type": "electric_bike"}, {"bike_id": "7b8b3f0c6d2b0b21b03a4ca6c4eda7e0", "is_reserved": 0, "fusion_lon": 0.0, "lat": 38.898018, "is_disabled": 0, "name": "7b8b3f0c6d2b0b21b03a4ca6c4eda7e0", "fusion_lat": 0.0, "rental_uris": {"ios": "https://dc.lft.to/lastmile_qr_scan", "android": "https://dc.lft.to/lastmile_qr_scan"}, "lon": -77.03300583333333, "type": "electric_scooter"}, {"bike_id": "c5797fe33117f98df1a2a74cfd133208", "is_reserved": 0, "fusion_lon": 0.0, "lat": 38.903102833333335, "is_disabled": 0, "name": "c5797fe33117f98df1a2a74cfd133208", "fusion_lat": 0.0, "rental_uris": {"ios": "https://dc.lft.to/lastmile_qr_scan", "android": "https://dc.lft.to/lastmile_qr_scan"}, "lon": -77.03324883333333, "type": "electric_scooter"}, {"bike_id": "ea27fab6d3d5b44959401e27a5dc9f9a", "is_reserved": 0, "fusion_lon": 0.0, "lat": 38.884870666666664, "is_disabled": 0, "name": "ea27fab6d3d5b44959401e27a5dc9f9a", "fusion_lat": 0.0, "rental_uris": {"ios": "https://dc.lft.to/lastmile_qr_scan", "android": "https://dc.lft.to/lastmile_qr_scan"}, "lon": -77.00726683333333, "type": "electric_scooter"}, {"bike_id": "a99d313bfe6434d13af1523eab6f8c07", "is_reserved": 0, "fusion_lon": 0.0, "lat": 38.900307833333336, "is_disabled": 0, "name": "a99d313bfe6434d13af1523eab6f8c07", "fusion_lat": 0.0, "rental_uris": {"ios": "https://dc.lft.to/lastmile_qr_scan", "android": "https://dc.lft.to/lastmile_qr_scan"}, "lon": -77.01167466666666, "type": "electric_scooter"}, {"bike_id": "8ec512ce51754eafa05f563649908860", "is_reserved": 0, "fusion_lon": 0.0, "lat": 38.84260883333334, "is_disabled": 0, "name": "8ec512ce51754eafa05f563649908860", "fusion_lat": 0.0, "rental_uris": {"ios": "https://dc.lft.to/lastmile_qr_scan", "android": "https://dc.lft.to/lastmile_qr_scan"}, "lon": -76.98822366666667, "type": "electric_bike"}, {"bike_id": "964e93b182d7e6238cd4a0b92e53fece", "is_reserved": 0, "fusion_lon": 0.0, "lat": 38.88036866666667, "is_disabled": 0, "name": "964e93b182d7e6238cd4a0b92e53fece", "fusion_lat": 0.0, "rental_uris": {"ios": "https://dc.lft.to/lastmile_qr_scan", "android": "https://dc.lft.to/lastmile_qr_scan"}, "lon": -77.01328416666666, "type": "electric_bike"}, {"bike_id": "4f3b986da71d7861c0ddfff5194ecdd1", "is_reserved": 0, "fusion_lon": 0.0, "lat": 38.89227316666667, "is_disabled": 0, "name": "4f3b986da71d7861c0ddfff5194ecdd1", "fusion_lat": 0.0, "rental_uris": {"ios": "https://dc.lft.to/lastmile_qr_scan", "android": "https://dc.lft.to/lastmile_qr_scan"}, "lon": -77.02207416666667, "type": "electric_scooter"}, {"bike_id": "9de53b08bec0f7dce75575835f6b0c0b", "is_reserved": 0, "fusion_lon": 0.0, "lat": 38.903757, "is_disabled": 0, "name": "9de53b08bec0f7dce75575835f6b0c0b", "fusion_lat": 0.0, "rental_uris": {"ios": "https://dc.lft.to/lastmile_qr_scan", "android": "https://dc.lft.to/lastmile_qr_scan"}, "lon": -77.0419735, "type": "electric_scooter"}, {"bike_id": "dfaa56ca96fce932d2371ca26f963ce1", "is_reserved": 0, "fusion_lon": 0.0, "lat": 38.89898733333333, "is_disabled": 0, "name": "dfaa56ca96fce932d2371ca26f963ce1", "fusion_lat": 0.0, "rental_uris": {"ios": "https://dc.lft.to/lastmile_qr_scan", "android": "https://dc.lft.to/lastmile_qr_scan"}, "lon": -76.933445, "type": "electric_scooter"}, {"bike_id": "d2a4a9a1e0e291f85185be0d801d5e88", "is_reserved": 0, "fusion_lon": 0.0, "lat": 38.94006866666667, "is_disabled": 0, "name": "d2a4a9a1e0e291f85185be0d801d5e88", "fusion_lat": 0.0, "rental_uris": {"ios": "https://dc.lft.to/lastmile_qr_scan", "android": "https://dc.lft.to/lastmile_qr_scan"}, "lon": -77.07161016666667, "type": "electric_scooter"}, {"bike_id": "295d5180d3043c53e6edf33e75546de3", "is_reserved": 0, "fusion_lon": 0.0, "lat": 38.874956833333336, "is_disabled": 0, "name": "295d5180d3043c53e6edf33e75546de3", "fusion_lat": 0.0, "rental_uris": {"ios": "https://dc.lft.to/lastmile_qr_scan", "android": "https://dc.lft.to/lastmile_qr_scan"}, "lon": -76.99797216666667, "type": "electric_scooter"}, {"bike_id": "40092c9f32d38b7ce04cfbb921be8d21", "is_reserved": 0, "fusion_lon": 0.0, "lat": 38.88748733333333, "is_disabled": 0, "name": "40092c9f32d38b7ce04cfbb921be8d21", "fusion_lat": 0.0, "rental_uris": {"ios": "https://dc.lft.to/lastmile_qr_scan", "android": "https://dc.lft.to/lastmile_qr_scan"}, "lon": -77.02862016666667, "type": "electric_scooter"}, {"bike_id": "1daa1fe26e16dc80e9cddbe06376310d", "is_reserved": 0, "fusion_lon": 0.0, "lat": 38.89195483333334, "is_disabled": 0, "name": "1daa1fe26e16dc80e9cddbe06376310d", "fusion_lat": 0.0, "rental_uris": {"ios": "https://dc.lft.to/lastmile_qr_scan", "android": "https://dc.lft.to/lastmile_qr_scan"}, "lon": -77.0238165, "type": "electric_scooter"}, {"bike_id": "6eb1e18be9553d98596888d1f784c053", "is_reserved": 0, "fusion_lon": 0.0, "lat": 38.8580925, "is_disabled": 0, "name": "6eb1e18be9553d98596888d1f784c053", "fusion_lat": 0.0, "rental_uris": {"ios": "https://dc.lft.to/lastmile_qr_scan", "android": "https://dc.lft.to/lastmile_qr_scan"}, "lon": -76.98994216666667, "type": "electric_scooter"}, {"bike_id": "781a2ddab13822bfbed60ea7de5e47c1", "is_reserved": 0, "fusion_lon": 0.0, "lat": 38.903727333333336, "is_disabled": 0, "name": "781a2ddab13822bfbed60ea7de5e47c1", "fusion_lat": 0.0, "rental_uris": {"ios": "https://dc.lft.to/lastmile_qr_scan", "android": "https://dc.lft.to/lastmile_qr_scan"}, "lon": -77.044983, "type": "electric_scooter"}, {"bike_id": "c5a796e33ab7001237fd09ce7a3256a4", "is_reserved": 0, "fusion_lon": 0.0, "lat": 38.9030395, "is_disabled": 0, "name": "c5a796e33ab7001237fd09ce7a3256a4", "fusion_lat": 0.0, "rental_uris": {"ios": "https://dc.lft.to/lastmile_qr_scan", "android": "https://dc.lft.to/lastmile_qr_scan"}, "lon": -77.022193, "type": "electric_scooter"}, {"bike_id": "2fa4dbda0e453e1101cb0d37f6a09f82", "is_reserved": 0, "fusion_lon": 0.0, "lat": 38.89223416666667, "is_disabled": 0, "name": "2fa4dbda0e453e1101cb0d37f6a09f82", "fusion_lat": 0.0, "rental_uris": {"ios": "https://dc.lft.to/lastmile_qr_scan", "android": "https://dc.lft.to/lastmile_qr_scan"}, "lon": -77.03215633333333, "type": "electric_scooter"}, {"bike_id": "6e0d1f010dd19b591b050a6de4e4bd22", "is_reserved": 0, "fusion_lon": 0.0, "lat": 38.905500333333336, "is_disabled": 0, "name": "6e0d1f010dd19b591b050a6de4e4bd22", "fusion_lat": 0.0, "rental_uris": {"ios": "https://dc.lft.to/lastmile_qr_scan", "android": "https://dc.lft.to/lastmile_qr_scan"}, "lon": -77.00295866666667, "type": "electric_scooter"}, {"bike_id": "073adc6585f5b276e2eded3932b1072c", "is_reserved": 0, "fusion_lon": 0.0, "lat": 38.90532966666667, "is_disabled": 0, "name": "073adc6585f5b276e2eded3932b1072c", "fusion_lat": 0.0, "rental_uris": {"ios": "https://dc.lft.to/lastmile_qr_scan", "android": "https://dc.lft.to/lastmile_qr_scan"}, "lon": -77.04996566666667, "type": "electric_scooter"}, {"bike_id": "063507c5822b30ff64c9cf668780cf05", "is_reserved": 0, "fusion_lon": 0.0, "lat": 38.904017833333334, "is_disabled": 0, "name": "063507c5822b30ff64c9cf668780cf05", "fusion_lat": 0.0, "rental_uris": {"ios": "https://dc.lft.to/lastmile_qr_scan", "android": "https://dc.lft.to/lastmile_qr_scan"}, "lon": -77.04335116666667, "type": "electric_scooter"}, {"bike_id": "01a90ac4bb703b143652c3423bb78a59", "is_reserved": 0, "fusion_lon": 0.0, "lat": 38.8948715, "is_disabled": 0, "name": "01a90ac4bb703b143652c3423bb78a59", "fusion_lat": 0.0, "rental_uris": {"ios": "https://dc.lft.to/lastmile_qr_scan", "android": "https://dc.lft.to/lastmile_qr_scan"}, "lon": -77.02166983333333, "type": "electric_scooter"}, {"bike_id": "2503549260fd7d8e0ff5b501dc7bada2", "is_reserved": 0, "fusion_lon": 0.0, "lat": 38.930837333333336, "is_disabled": 0, "name": "2503549260fd7d8e0ff5b501dc7bada2", "fusion_lat": 0.0, "rental_uris": {"ios": "https://dc.lft.to/lastmile_qr_scan", "android": "https://dc.lft.to/lastmile_qr_scan"}, "lon": -77.03422716666667, "type": "electric_scooter"}, {"bike_id": "cdd01946867093b062d2f2c7c6e68e2d", "is_reserved": 0, "fusion_lon": 0.0, "lat": 38.866572833333336, "is_disabled": 0, "name": "cdd01946867093b062d2f2c7c6e68e2d", "fusion_lat": 0.0, "rental_uris": {"ios": "https://dc.lft.to/lastmile_qr_scan", "android": "https://dc.lft.to/lastmile_qr_scan"}, "lon": -76.98880533333333, "type": "electric_scooter"}, {"bike_id": "ee671ec5537b2452fd8551d45e2908a5", "is_reserved": 0, "fusion_lon": 0.0, "lat": 38.86535833333333, "is_disabled": 0, "name": "ee671ec5537b2452fd8551d45e2908a5", "fusion_lat": 0.0, "rental_uris": {"ios": "https://dc.lft.to/lastmile_qr_scan", "android": "https://dc.lft.to/lastmile_qr_scan"}, "lon": -76.98709516666666, "type": "electric_scooter"}, {"bike_id": "5bc8c29c397da7d57c20c83008ea7716", "is_reserved": 0, "fusion_lon": 0.0, "lat": 38.892199, "is_disabled": 0, "name": "5bc8c29c397da7d57c20c83008ea7716", "fusion_lat": 0.0, "rental_uris": {"ios": "https://dc.lft.to/lastmile_qr_scan", "android": "https://dc.lft.to/lastmile_qr_scan"}, "lon": -77.03163183333334, "type": "electric_scooter"}, {"bike_id": "7df1c48d6d86160e1ad85d93e640aaff", "is_reserved": 0, "fusion_lon": 0.0, "lat": 38.924687166666665, "is_disabled": 0, "name": "7df1c48d6d86160e1ad85d93e640aaff", "fusion_lat": 0.0, "rental_uris": {"ios": "https://dc.lft.to/lastmile_qr_scan", "android": "https://dc.lft.to/lastmile_qr_scan"}, "lon": -77.025514, "type": "electric_scooter"}, {"bike_id": "1d4bfcef1f81a0a2e85e5a59d66665c1", "is_reserved": 0, "fusion_lon": 0.0, "lat": 38.90728283333333, "is_disabled": 0, "name": "1d4bfcef1f81a0a2e85e5a59d66665c1", "fusion_lat": 0.0, "rental_uris": {"ios": "https://dc.lft.to/lastmile_qr_scan", "android": "https://dc.lft.to/lastmile_qr_scan"}, "lon": -77.042426, "type": "electric_scooter"}, {"bike_id": "a206c74393b64dc45e0e74ecb8b78c54", "is_reserved": 0, "fusion_lon": 0.0, "lat": 38.879092166666666, "is_disabled": 0, "name": "a206c74393b64dc45e0e74ecb8b78c54", "fusion_lat": 0.0, "rental_uris": {"ios": "https://dc.lft.to/lastmile_qr_scan", "android": "https://dc.lft.to/lastmile_qr_scan"}, "lon": -77.00599816666667, "type": "electric_scooter"}, {"bike_id": "81bce7d224e11378e119d35b2b283d61", "is_reserved": 0, "fusion_lon": 0.0, "lat": 38.922457666666666, "is_disabled": 0, "name": "81bce7d224e11378e119d35b2b283d61", "fusion_lat": 0.0, "rental_uris": {"ios": "https://dc.lft.to/lastmile_qr_scan", "android": "https://dc.lft.to/lastmile_qr_scan"}, "lon": -77.01818883333334, "type": "electric_scooter"}, {"bike_id": "b64fd00f81def1ec4dc3c0237cd27eb0", "is_reserved": 0, "fusion_lon": 0.0, "lat": 38.90583566666667, "is_disabled": 0, "name": "b64fd00f81def1ec4dc3c0237cd27eb0", "fusion_lat": 0.0, "rental_uris": {"ios": "https://dc.lft.to/lastmile_qr_scan", "android": "https://dc.lft.to/lastmile_qr_scan"}, "lon": -77.002731, "type": "electric_scooter"}, {"bike_id": "f1bd6cb84ac125699cd0470844305b0f", "is_reserved": 0, "fusion_lon": 0.0, "lat": 38.900272, "is_disabled": 0, "name": "f1bd6cb84ac125699cd0470844305b0f", "fusion_lat": 0.0, "rental_uris": {"ios": "https://dc.lft.to/lastmile_qr_scan", "android": "https://dc.lft.to/lastmile_qr_scan"}, "lon": -77.046934, "type": "electric_scooter"}, {"bike_id": "b51545998b31082ce1e36462a890bbbe", "is_reserved": 0, "fusion_lon": 0.0, "lat": 38.89011333333333, "is_disabled": 0, "name": "b51545998b31082ce1e36462a890bbbe", "fusion_lat": 0.0, "rental_uris": {"ios": "https://dc.lft.to/lastmile_qr_scan", "android": "https://dc.lft.to/lastmile_qr_scan"}, "lon": -76.93738933333333, "type": "electric_scooter"}, {"bike_id": "6637971dbdc3a5c8a48646fcc89f8d51", "is_reserved": 0, "fusion_lon": 0.0, "lat": 38.9236455, "is_disabled": 0, "name": "6637971dbdc3a5c8a48646fcc89f8d51", "fusion_lat": 0.0, "rental_uris": {"ios": "https://dc.lft.to/lastmile_qr_scan", "android": "https://dc.lft.to/lastmile_qr_scan"}, "lon": -77.05029816666666, "type": "electric_scooter"}, {"bike_id": "bbbadcab4bc419ef2e6b99f1a9f62e72", "is_reserved": 0, "fusion_lon": 0.0, "lat": 38.91989383333333, "is_disabled": 0, "name": "bbbadcab4bc419ef2e6b99f1a9f62e72", "fusion_lat": 0.0, "rental_uris": {"ios": "https://dc.lft.to/lastmile_qr_scan", "android": "https://dc.lft.to/lastmile_qr_scan"}, "lon": -77.071126, "type": "electric_bike"}, {"bike_id": "5528448eb278f9a3d44a3f27897ab72b", "is_reserved": 0, "fusion_lon": 0.0, "lat": 38.865588833333334, "is_disabled": 0, "name": "5528448eb278f9a3d44a3f27897ab72b", "fusion_lat": 0.0, "rental_uris": {"ios": "https://dc.lft.to/lastmile_qr_scan", "android": "https://dc.lft.to/lastmile_qr_scan"}, "lon": -76.9895, "type": "electric_scooter"}, {"bike_id": "dceaa0a60c5acc73c1cebf9b31a6507b", "is_reserved": 0, "fusion_lon": 0.0, "lat": 38.91724166666667, "is_disabled": 0, "name": "dceaa0a60c5acc73c1cebf9b31a6507b", "fusion_lat": 0.0, "rental_uris": {"ios": "https://dc.lft.to/lastmile_qr_scan", "android": "https://dc.lft.to/lastmile_qr_scan"}, "lon": -77.04091783333334, "type": "electric_scooter"}, {"bike_id": "a02d7b733dabe9c2f8d835a83ce810e1", "is_reserved": 0, "fusion_lon": 0.0, "lat": 38.91252383333333, "is_disabled": 0, "name": "a02d7b733dabe9c2f8d835a83ce810e1", "fusion_lat": 0.0, "rental_uris": {"ios": "https://dc.lft.to/lastmile_qr_scan", "android": "https://dc.lft.to/lastmile_qr_scan"}, "lon": -77.014371, "type": "electric_scooter"}, {"bike_id": "0b43f43e3f5892ee1a1af694d3be677a", "is_reserved": 0, "fusion_lon": 0.0, "lat": 38.89215266666667, "is_disabled": 0, "name": "0b43f43e3f5892ee1a1af694d3be677a", "fusion_lat": 0.0, "rental_uris": {"ios": "https://dc.lft.to/lastmile_qr_scan", "android": "https://dc.lft.to/lastmile_qr_scan"}, "lon": -77.045085, "type": "electric_scooter"}, {"bike_id": "54447e2529fb4ef9dda5c54178dda7e0", "is_reserved": 0, "fusion_lon": 0.0, "lat": 38.90591916666666, "is_disabled": 0, "name": "54447e2529fb4ef9dda5c54178dda7e0", "fusion_lat": 0.0, "rental_uris": {"ios": "https://dc.lft.to/lastmile_qr_scan", "android": "https://dc.lft.to/lastmile_qr_scan"}, "lon": -77.06302383333333, "type": "electric_scooter"}, {"bike_id": "2567e670ce265a0c814b4793f427051b", "is_reserved": 0, "fusion_lon": 0.0, "lat": 38.913907333333334, "is_disabled": 0, "name": "2567e670ce265a0c814b4793f427051b", "fusion_lat": 0.0, "rental_uris": {"ios": "https://dc.lft.to/lastmile_qr_scan", "android": "https://dc.lft.to/lastmile_qr_scan"}, "lon": -77.01701316666667, "type": "electric_scooter"}, {"bike_id": "a5a74485c36fea4feed6854e8d768f1b", "is_reserved": 0, "fusion_lon": 0.0, "lat": 38.898228, "is_disabled": 0, "name": "a5a74485c36fea4feed6854e8d768f1b", "fusion_lat": 0.0, "rental_uris": {"ios": "https://dc.lft.to/lastmile_qr_scan", "android": "https://dc.lft.to/lastmile_qr_scan"}, "lon": -77.03347766666667, "type": "electric_scooter"}, {"bike_id": "6dff85dc538ea106ad7ffc274432710f", "is_reserved": 0, "fusion_lon": 0.0, "lat": 38.973292, "is_disabled": 0, "name": "6dff85dc538ea106ad7ffc274432710f", "fusion_lat": 0.0, "rental_uris": {"ios": "https://dc.lft.to/lastmile_qr_scan", "android": "https://dc.lft.to/lastmile_qr_scan"}, "lon": -77.0214725, "type": "electric_bike"}, {"bike_id": "5337946144625f12688dec173ddfeec5", "is_reserved": 0, "fusion_lon": 0.0, "lat": 38.86174166666667, "is_disabled": 0, "name": "5337946144625f12688dec173ddfeec5", "fusion_lat": 0.0, "rental_uris": {"ios": "https://dc.lft.to/lastmile_qr_scan", "android": "https://dc.lft.to/lastmile_qr_scan"}, "lon": -76.9691305, "type": "electric_scooter"}, {"bike_id": "ea75afc206e512d18b2f0d9472f4498f", "is_reserved": 0, "fusion_lon": 0.0, "lat": 38.90262633333333, "is_disabled": 0, "name": "ea75afc206e512d18b2f0d9472f4498f", "fusion_lat": 0.0, "rental_uris": {"ios": "https://dc.lft.to/lastmile_qr_scan", "android": "https://dc.lft.to/lastmile_qr_scan"}, "lon": -77.031458, "type": "electric_scooter"}, {"bike_id": "3709cd8a811f7d1ea21857261db82610", "is_reserved": 0, "fusion_lon": 0.0, "lat": 38.898322, "is_disabled": 0, "name": "3709cd8a811f7d1ea21857261db82610", "fusion_lat": 0.0, "rental_uris": {"ios": "https://dc.lft.to/lastmile_qr_scan", "android": "https://dc.lft.to/lastmile_qr_scan"}, "lon": -76.9463865, "type": "electric_scooter"}, {"bike_id": "36dc33399c388768144bd1e9e9fb4108", "is_reserved": 0, "fusion_lon": 0.0, "lat": 38.91698916666667, "is_disabled": 0, "name": "36dc33399c388768144bd1e9e9fb4108", "fusion_lat": 0.0, "rental_uris": {"ios": "https://dc.lft.to/lastmile_qr_scan", "android": "https://dc.lft.to/lastmile_qr_scan"}, "lon": -77.02252416666667, "type": "electric_scooter"}, {"bike_id": "6b33754f72b847f4d2d2b01aa72cd11b", "is_reserved": 0, "fusion_lon": 0.0, "lat": 38.897402, "is_disabled": 0, "name": "6b33754f72b847f4d2d2b01aa72cd11b", "fusion_lat": 0.0, "rental_uris": {"ios": "https://dc.lft.to/lastmile_qr_scan", "android": "https://dc.lft.to/lastmile_qr_scan"}, "lon": -77.02705966666667, "type": "electric_scooter"}, {"bike_id": "c27008da40e6c060a92d8409ab228852", "is_reserved": 0, "fusion_lon": 0.0, "lat": 38.922522, "is_disabled": 0, "name": "c27008da40e6c060a92d8409ab228852", "fusion_lat": 0.0, "rental_uris": {"ios": "https://dc.lft.to/lastmile_qr_scan", "android": "https://dc.lft.to/lastmile_qr_scan"}, "lon": -77.02974816666666, "type": "electric_scooter"}, {"bike_id": "44c206adb492f240e4936b1af93a8ceb", "is_reserved": 0, "fusion_lon": 0.0, "lat": 38.89215433333333, "is_disabled": 0, "name": "44c206adb492f240e4936b1af93a8ceb", "fusion_lat": 0.0, "rental_uris": {"ios": "https://dc.lft.to/lastmile_qr_scan", "android": "https://dc.lft.to/lastmile_qr_scan"}, "lon": -77.04359216666667, "type": "electric_scooter"}, {"bike_id": "aebc2f323dee16e3ba97243daa876444", "is_reserved": 0, "fusion_lon": 0.0, "lat": 38.914914833333334, "is_disabled": 0, "name": "aebc2f323dee16e3ba97243daa876444", "fusion_lat": 0.0, "rental_uris": {"ios": "https://dc.lft.to/lastmile_qr_scan", "android": "https://dc.lft.to/lastmile_qr_scan"}, "lon": -77.0185715, "type": "electric_scooter"}, {"bike_id": "4a116c11e03be0a3a1d3bdade65b5300", "is_reserved": 0, "fusion_lon": 0.0, "lat": 38.94546233333333, "is_disabled": 0, "name": "4a116c11e03be0a3a1d3bdade65b5300", "fusion_lat": 0.0, "rental_uris": {"ios": "https://dc.lft.to/lastmile_qr_scan", "android": "https://dc.lft.to/lastmile_qr_scan"}, "lon": -76.89534733333333, "type": "electric_bike"}, {"bike_id": "35f3824f83b5dc0661c06feaab9f85ca", "is_reserved": 0, "fusion_lon": 0.0, "lat": 38.90007666666666, "is_disabled": 0, "name": "35f3824f83b5dc0661c06feaab9f85ca", "fusion_lat": 0.0, "rental_uris": {"ios": "https://dc.lft.to/lastmile_qr_scan", "android": "https://dc.lft.to/lastmile_qr_scan"}, "lon": -77.04655516666666, "type": "electric_scooter"}, {"bike_id": "d49a0775e8ee810b3566af7b16cccaa2", "is_reserved": 0, "fusion_lon": 0.0, "lat": 38.944408, "is_disabled": 0, "name": "d49a0775e8ee810b3566af7b16cccaa2", "fusion_lat": 0.0, "rental_uris": {"ios": "https://dc.lft.to/lastmile_qr_scan", "android": "https://dc.lft.to/lastmile_qr_scan"}, "lon": -77.064108, "type": "electric_scooter"}, {"bike_id": "5ec9d025f1b8a8c7b319ac81244db37a", "is_reserved": 0, "fusion_lon": 0.0, "lat": 38.844223, "is_disabled": 0, "name": "5ec9d025f1b8a8c7b319ac81244db37a", "fusion_lat": 0.0, "rental_uris": {"ios": "https://dc.lft.to/lastmile_qr_scan", "android": "https://dc.lft.to/lastmile_qr_scan"}, "lon": -76.9977955, "type": "electric_scooter"}, {"bike_id": "02fc5597aa78cd156d7b03ba84d58e7d", "is_reserved": 0, "fusion_lon": 0.0, "lat": 38.882382, "is_disabled": 0, "name": "02fc5597aa78cd156d7b03ba84d58e7d", "fusion_lat": 0.0, "rental_uris": {"ios": "https://dc.lft.to/lastmile_qr_scan", "android": "https://dc.lft.to/lastmile_qr_scan"}, "lon": -76.99009283333334, "type": "electric_scooter"}, {"bike_id": "d85ad74f886c5184cbc64188e655c414", "is_reserved": 0, "fusion_lon": 0.0, "lat": 38.91824883333334, "is_disabled": 0, "name": "d85ad74f886c5184cbc64188e655c414", "fusion_lat": 0.0, "rental_uris": {"ios": "https://dc.lft.to/lastmile_qr_scan", "android": "https://dc.lft.to/lastmile_qr_scan"}, "lon": -77.03198716666667, "type": "electric_scooter"}, {"bike_id": "58222340e8f88d59358edb813deb6a4b", "is_reserved": 0, "fusion_lon": 0.0, "lat": 38.91025883333333, "is_disabled": 0, "name": "58222340e8f88d59358edb813deb6a4b", "fusion_lat": 0.0, "rental_uris": {"ios": "https://dc.lft.to/lastmile_qr_scan", "android": "https://dc.lft.to/lastmile_qr_scan"}, "lon": -77.03861083333334, "type": "electric_scooter"}, {"bike_id": "e2d9df0f001aa8a3c02b62a5e1ee232f", "is_reserved": 0, "fusion_lon": 0.0, "lat": 38.925480666666665, "is_disabled": 0, "name": "e2d9df0f001aa8a3c02b62a5e1ee232f", "fusion_lat": 0.0, "rental_uris": {"ios": "https://dc.lft.to/lastmile_qr_scan", "android": "https://dc.lft.to/lastmile_qr_scan"}, "lon": -77.07325816666666, "type": "electric_bike"}, {"bike_id": "e309094c543e07efc073a50ff9677e36", "is_reserved": 0, "fusion_lon": 0.0, "lat": 38.89820866666667, "is_disabled": 0, "name": "e309094c543e07efc073a50ff9677e36", "fusion_lat": 0.0, "rental_uris": {"ios": "https://dc.lft.to/lastmile_qr_scan", "android": "https://dc.lft.to/lastmile_qr_scan"}, "lon": -77.03263983333333, "type": "electric_scooter"}, {"bike_id": "4b7f1874b6615257970ef18ea231c5a7", "is_reserved": 0, "fusion_lon": 0.0, "lat": 38.95645583333334, "is_disabled": 0, "name": "4b7f1874b6615257970ef18ea231c5a7", "fusion_lat": 0.0, "rental_uris": {"ios": "https://dc.lft.to/lastmile_qr_scan", "android": "https://dc.lft.to/lastmile_qr_scan"}, "lon": -77.02272933333333, "type": "electric_scooter"}, {"bike_id": "acda6b44ff6ddd113b64e02e3583a5a3", "is_reserved": 0, "fusion_lon": 0.0, "lat": 38.901010166666666, "is_disabled": 0, "name": "acda6b44ff6ddd113b64e02e3583a5a3", "fusion_lat": 0.0, "rental_uris": {"ios": "https://dc.lft.to/lastmile_qr_scan", "android": "https://dc.lft.to/lastmile_qr_scan"}, "lon": -77.03180283333333, "type": "electric_scooter"}, {"bike_id": "ab5c853aef2ad690d2ad9e11dba6cb46", "is_reserved": 0, "fusion_lon": 0.0, "lat": 38.8651725, "is_disabled": 0, "name": "ab5c853aef2ad690d2ad9e11dba6cb46", "fusion_lat": 0.0, "rental_uris": {"ios": "https://dc.lft.to/lastmile_qr_scan", "android": "https://dc.lft.to/lastmile_qr_scan"}, "lon": -76.990345, "type": "electric_scooter"}, {"bike_id": "e5d8904d4d37ac0d561bafaf3f5f8068", "is_reserved": 0, "fusion_lon": 0.0, "lat": 38.8528525, "is_disabled": 0, "name": "e5d8904d4d37ac0d561bafaf3f5f8068", "fusion_lat": 0.0, "rental_uris": {"ios": "https://dc.lft.to/lastmile_qr_scan", "android": "https://dc.lft.to/lastmile_qr_scan"}, "lon": -77.052706, "type": "electric_bike"}, {"bike_id": "62bebdde94b187df213300399170cead", "is_reserved": 0, "fusion_lon": 0.0, "lat": 38.85675283333333, "is_disabled": 0, "name": "62bebdde94b187df213300399170cead", "fusion_lat": 0.0, "rental_uris": {"ios": "https://dc.lft.to/lastmile_qr_scan", "android": "https://dc.lft.to/lastmile_qr_scan"}, "lon": -77.08569233333333, "type": "electric_bike"}, {"bike_id": "97d5eb58285a2eb1200223c5f9743e90", "is_reserved": 0, "fusion_lon": 0.0, "lat": 38.924781333333335, "is_disabled": 0, "name": "97d5eb58285a2eb1200223c5f9743e90", "fusion_lat": 0.0, "rental_uris": {"ios": "https://dc.lft.to/lastmile_qr_scan", "android": "https://dc.lft.to/lastmile_qr_scan"}, "lon": -77.05210183333334, "type": "electric_scooter"}, {"bike_id": "f15bd1f3e3939cd9915eb43844764861", "is_reserved": 0, "fusion_lon": 0.0, "lat": 38.90032183333334, "is_disabled": 0, "name": "f15bd1f3e3939cd9915eb43844764861", "fusion_lat": 0.0, "rental_uris": {"ios": "https://dc.lft.to/lastmile_qr_scan", "android": "https://dc.lft.to/lastmile_qr_scan"}, "lon": -76.99842083333333, "type": "electric_scooter"}, {"bike_id": "c55feb18ec7952643932fb68b406a998", "is_reserved": 0, "fusion_lon": 0.0, "lat": 38.8710955, "is_disabled": 0, "name": "c55feb18ec7952643932fb68b406a998", "fusion_lat": 0.0, "rental_uris": {"ios": "https://dc.lft.to/lastmile_qr_scan", "android": "https://dc.lft.to/lastmile_qr_scan"}, "lon": -76.9774955, "type": "electric_scooter"}, {"bike_id": "af0eb90619cbee84c745bf50bf5209a8", "is_reserved": 0, "fusion_lon": 0.0, "lat": 38.924643333333336, "is_disabled": 0, "name": "af0eb90619cbee84c745bf50bf5209a8", "fusion_lat": 0.0, "rental_uris": {"ios": "https://dc.lft.to/lastmile_qr_scan", "android": "https://dc.lft.to/lastmile_qr_scan"}, "lon": -77.02268333333333, "type": "electric_scooter"}, {"bike_id": "3ebbf9836b4254ecc3ed9d0b2b563612", "is_reserved": 0, "fusion_lon": 0.0, "lat": 38.86366866666667, "is_disabled": 0, "name": "3ebbf9836b4254ecc3ed9d0b2b563612", "fusion_lat": 0.0, "rental_uris": {"ios": "https://dc.lft.to/lastmile_qr_scan", "android": "https://dc.lft.to/lastmile_qr_scan"}, "lon": -76.9904945, "type": "electric_scooter"}, {"bike_id": "452c70f0fbc44e6fd7fac56511fce870", "is_reserved": 0, "fusion_lon": 0.0, "lat": 38.939698666666665, "is_disabled": 0, "name": "452c70f0fbc44e6fd7fac56511fce870", "fusion_lat": 0.0, "rental_uris": {"ios": "https://dc.lft.to/lastmile_qr_scan", "android": "https://dc.lft.to/lastmile_qr_scan"}, "lon": -77.032645, "type": "electric_scooter"}, {"bike_id": "9174dfd829504ea0450744d4c505cd2d", "is_reserved": 0, "fusion_lon": 0.0, "lat": 38.8849655, "is_disabled": 0, "name": "9174dfd829504ea0450744d4c505cd2d", "fusion_lat": 0.0, "rental_uris": {"ios": "https://dc.lft.to/lastmile_qr_scan", "android": "https://dc.lft.to/lastmile_qr_scan"}, "lon": -77.003434, "type": "electric_scooter"}, {"bike_id": "9f6cf7f7544228a4f0eb16d058ce26e2", "is_reserved": 0, "fusion_lon": 0.0, "lat": 38.8372495, "is_disabled": 0, "name": "9f6cf7f7544228a4f0eb16d058ce26e2", "fusion_lat": 0.0, "rental_uris": {"ios": "https://dc.lft.to/lastmile_qr_scan", "android": "https://dc.lft.to/lastmile_qr_scan"}, "lon": -76.9976365, "type": "electric_bike"}, {"bike_id": "21a9c4a9510015f10a1508bfe792535f", "is_reserved": 0, "fusion_lon": 0.0, "lat": 38.855062833333335, "is_disabled": 0, "name": "21a9c4a9510015f10a1508bfe792535f", "fusion_lat": 0.0, "rental_uris": {"ios": "https://dc.lft.to/lastmile_qr_scan", "android": "https://dc.lft.to/lastmile_qr_scan"}, "lon": -76.98411783333333, "type": "electric_bike"}, {"bike_id": "5aafd9059e309a49d697833b9d647ebb", "is_reserved": 0, "fusion_lon": 0.0, "lat": 38.924752833333336, "is_disabled": 0, "name": "5aafd9059e309a49d697833b9d647ebb", "fusion_lat": 0.0, "rental_uris": {"ios": "https://dc.lft.to/lastmile_qr_scan", "android": "https://dc.lft.to/lastmile_qr_scan"}, "lon": -77.02651133333333, "type": "electric_scooter"}, {"bike_id": "3e0d01a60ff9170e0366e37cc4975784", "is_reserved": 0, "fusion_lon": 0.0, "lat": 38.950764166666666, "is_disabled": 0, "name": "3e0d01a60ff9170e0366e37cc4975784", "fusion_lat": 0.0, "rental_uris": {"ios": "https://dc.lft.to/lastmile_qr_scan", "android": "https://dc.lft.to/lastmile_qr_scan"}, "lon": -77.012379, "type": "electric_bike"}, {"bike_id": "360edf1abe0e97887d79c7be370ac8ad", "is_reserved": 0, "fusion_lon": 0.0, "lat": 38.885139333333335, "is_disabled": 0, "name": "360edf1abe0e97887d79c7be370ac8ad", "fusion_lat": 0.0, "rental_uris": {"ios": "https://dc.lft.to/lastmile_qr_scan", "android": "https://dc.lft.to/lastmile_qr_scan"}, "lon": -77.00570166666667, "type": "electric_scooter"}, {"bike_id": "71314d198310c4ab7fc8aad00669d6b9", "is_reserved": 0, "fusion_lon": 0.0, "lat": 38.934232, "is_disabled": 0, "name": "71314d198310c4ab7fc8aad00669d6b9", "fusion_lat": 0.0, "rental_uris": {"ios": "https://dc.lft.to/lastmile_qr_scan", "android": "https://dc.lft.to/lastmile_qr_scan"}, "lon": -77.03995383333333, "type": "electric_scooter"}, {"bike_id": "c836f7852e76b3c90f828b840218e8f5", "is_reserved": 0, "fusion_lon": 0.0, "lat": 38.906108, "is_disabled": 0, "name": "c836f7852e76b3c90f828b840218e8f5", "fusion_lat": 0.0, "rental_uris": {"ios": "https://dc.lft.to/lastmile_qr_scan", "android": "https://dc.lft.to/lastmile_qr_scan"}, "lon": -77.05108833333334, "type": "electric_scooter"}, {"bike_id": "e963eae136795c1dea9ec2c583f064dc", "is_reserved": 0, "fusion_lon": 0.0, "lat": 38.91385433333333, "is_disabled": 0, "name": "e963eae136795c1dea9ec2c583f064dc", "fusion_lat": 0.0, "rental_uris": {"ios": "https://dc.lft.to/lastmile_qr_scan", "android": "https://dc.lft.to/lastmile_qr_scan"}, "lon": -77.01703283333333, "type": "electric_scooter"}, {"bike_id": "e5909da39506a596d5f7d7282ec7b9e4", "is_reserved": 0, "fusion_lon": 0.0, "lat": 38.889983, "is_disabled": 0, "name": "e5909da39506a596d5f7d7282ec7b9e4", "fusion_lat": 0.0, "rental_uris": {"ios": "https://dc.lft.to/lastmile_qr_scan", "android": "https://dc.lft.to/lastmile_qr_scan"}, "lon": -76.9384095, "type": "electric_scooter"}, {"bike_id": "9d7b9c6dd60b8b2e63f9fd57487f2dec", "is_reserved": 0, "fusion_lon": 0.0, "lat": 38.937068, "is_disabled": 0, "name": "9d7b9c6dd60b8b2e63f9fd57487f2dec", "fusion_lat": 0.0, "rental_uris": {"ios": "https://dc.lft.to/lastmile_qr_scan", "android": "https://dc.lft.to/lastmile_qr_scan"}, "lon": -77.02936616666666, "type": "electric_scooter"}, {"bike_id": "1cd5543e5cabe60abb669553395945ab", "is_reserved": 0, "fusion_lon": 0.0, "lat": 38.90451783333334, "is_disabled": 0, "name": "1cd5543e5cabe60abb669553395945ab", "fusion_lat": 0.0, "rental_uris": {"ios": "https://dc.lft.to/lastmile_qr_scan", "android": "https://dc.lft.to/lastmile_qr_scan"}, "lon": -77.04047066666666, "type": "electric_scooter"}, {"bike_id": "ecd8077629cfdfa82ace0ce9ddf11b44", "is_reserved": 0, "fusion_lon": 0.0, "lat": 38.90242516666667, "is_disabled": 0, "name": "ecd8077629cfdfa82ace0ce9ddf11b44", "fusion_lat": 0.0, "rental_uris": {"ios": "https://dc.lft.to/lastmile_qr_scan", "android": "https://dc.lft.to/lastmile_qr_scan"}, "lon": -77.0335495, "type": "electric_scooter"}, {"bike_id": "65cf430f6e8e851d1b5b83d4e77935f9", "is_reserved": 0, "fusion_lon": 0.0, "lat": 38.902417166666666, "is_disabled": 0, "name": "65cf430f6e8e851d1b5b83d4e77935f9", "fusion_lat": 0.0, "rental_uris": {"ios": "https://dc.lft.to/lastmile_qr_scan", "android": "https://dc.lft.to/lastmile_qr_scan"}, "lon": -77.0071945, "type": "electric_scooter"}, {"bike_id": "bf45b425f8bfe7b29531d4ba35450144", "is_reserved": 0, "fusion_lon": 0.0, "lat": 38.9286275, "is_disabled": 0, "name": "bf45b425f8bfe7b29531d4ba35450144", "fusion_lat": 0.0, "rental_uris": {"ios": "https://dc.lft.to/lastmile_qr_scan", "android": "https://dc.lft.to/lastmile_qr_scan"}, "lon": -77.01396966666667, "type": "electric_scooter"}, {"bike_id": "24de703cdbb1eec2cb96f8352f0edff6", "is_reserved": 0, "fusion_lon": 0.0, "lat": 38.9617125, "is_disabled": 0, "name": "24de703cdbb1eec2cb96f8352f0edff6", "fusion_lat": 0.0, "rental_uris": {"ios": "https://dc.lft.to/lastmile_qr_scan", "android": "https://dc.lft.to/lastmile_qr_scan"}, "lon": -76.99589283333333, "type": "electric_bike"}, {"bike_id": "25f684a34392726b963e3241fd30a3a3", "is_reserved": 0, "fusion_lon": 0.0, "lat": 38.92497183333333, "is_disabled": 0, "name": "25f684a34392726b963e3241fd30a3a3", "fusion_lat": 0.0, "rental_uris": {"ios": "https://dc.lft.to/lastmile_qr_scan", "android": "https://dc.lft.to/lastmile_qr_scan"}, "lon": -77.00893416666666, "type": "electric_scooter"}, {"bike_id": "301dc857391c385b8c039e537d36d833", "is_reserved": 0, "fusion_lon": 0.0, "lat": 38.9001945, "is_disabled": 0, "name": "301dc857391c385b8c039e537d36d833", "fusion_lat": 0.0, "rental_uris": {"ios": "https://dc.lft.to/lastmile_qr_scan", "android": "https://dc.lft.to/lastmile_qr_scan"}, "lon": -76.99870983333334, "type": "electric_scooter"}, {"bike_id": "952641d22a7eec0bc81fc554d91928be", "is_reserved": 0, "fusion_lon": 0.0, "lat": 38.898784, "is_disabled": 0, "name": "952641d22a7eec0bc81fc554d91928be", "fusion_lat": 0.0, "rental_uris": {"ios": "https://dc.lft.to/lastmile_qr_scan", "android": "https://dc.lft.to/lastmile_qr_scan"}, "lon": -76.9316125, "type": "electric_scooter"}, {"bike_id": "b42b8767b3049920f9b70187859217d8", "is_reserved": 0, "fusion_lon": 0.0, "lat": 38.89524466666667, "is_disabled": 0, "name": "b42b8767b3049920f9b70187859217d8", "fusion_lat": 0.0, "rental_uris": {"ios": "https://dc.lft.to/lastmile_qr_scan", "android": "https://dc.lft.to/lastmile_qr_scan"}, "lon": -76.9489195, "type": "electric_scooter"}, {"bike_id": "651321204b208cb35549f64585e92e3d", "is_reserved": 0, "fusion_lon": 0.0, "lat": 38.934360833333336, "is_disabled": 0, "name": "651321204b208cb35549f64585e92e3d", "fusion_lat": 0.0, "rental_uris": {"ios": "https://dc.lft.to/lastmile_qr_scan", "android": "https://dc.lft.to/lastmile_qr_scan"}, "lon": -77.03447516666667, "type": "electric_scooter"}, {"bike_id": "4cdadb9e53f62f0049d5114093e3028f", "is_reserved": 0, "fusion_lon": 0.0, "lat": 38.89948866666667, "is_disabled": 0, "name": "4cdadb9e53f62f0049d5114093e3028f", "fusion_lat": 0.0, "rental_uris": {"ios": "https://dc.lft.to/lastmile_qr_scan", "android": "https://dc.lft.to/lastmile_qr_scan"}, "lon": -77.033484, "type": "electric_scooter"}, {"bike_id": "1075cbd373b02046200a47ff3a8e8647", "is_reserved": 0, "fusion_lon": 0.0, "lat": 38.88517866666667, "is_disabled": 0, "name": "1075cbd373b02046200a47ff3a8e8647", "fusion_lat": 0.0, "rental_uris": {"ios": "https://dc.lft.to/lastmile_qr_scan", "android": "https://dc.lft.to/lastmile_qr_scan"}, "lon": -76.9978525, "type": "electric_bike"}, {"bike_id": "8ca1e959d9bf5709aad3049308e6e992", "is_reserved": 0, "fusion_lon": 0.0, "lat": 38.90532833333333, "is_disabled": 0, "name": "8ca1e959d9bf5709aad3049308e6e992", "fusion_lat": 0.0, "rental_uris": {"ios": "https://dc.lft.to/lastmile_qr_scan", "android": "https://dc.lft.to/lastmile_qr_scan"}, "lon": -77.04362616666667, "type": "electric_scooter"}, {"bike_id": "8790b1d78d356dbeddc591e8c596ea5a", "is_reserved": 0, "fusion_lon": 0.0, "lat": 38.944379166666664, "is_disabled": 0, "name": "8790b1d78d356dbeddc591e8c596ea5a", "fusion_lat": 0.0, "rental_uris": {"ios": "https://dc.lft.to/lastmile_qr_scan", "android": "https://dc.lft.to/lastmile_qr_scan"}, "lon": -77.06351033333334, "type": "electric_scooter"}, {"bike_id": "5d8bf0fa7d50953adebbc6ac061d939b", "is_reserved": 0, "fusion_lon": 0.0, "lat": 38.909570333333335, "is_disabled": 0, "name": "5d8bf0fa7d50953adebbc6ac061d939b", "fusion_lat": 0.0, "rental_uris": {"ios": "https://dc.lft.to/lastmile_qr_scan", "android": "https://dc.lft.to/lastmile_qr_scan"}, "lon": -77.048648, "type": "electric_scooter"}, {"bike_id": "94666d81d043f992adfdff2f1b6f9014", "is_reserved": 0, "fusion_lon": 0.0, "lat": 38.85806633333333, "is_disabled": 0, "name": "94666d81d043f992adfdff2f1b6f9014", "fusion_lat": 0.0, "rental_uris": {"ios": "https://dc.lft.to/lastmile_qr_scan", "android": "https://dc.lft.to/lastmile_qr_scan"}, "lon": -76.98653433333334, "type": "electric_scooter"}, {"bike_id": "40ac9d89c1086994945b18f4399ce3e7", "is_reserved": 0, "fusion_lon": 0.0, "lat": 38.88835866666667, "is_disabled": 0, "name": "40ac9d89c1086994945b18f4399ce3e7", "fusion_lat": 0.0, "rental_uris": {"ios": "https://dc.lft.to/lastmile_qr_scan", "android": "https://dc.lft.to/lastmile_qr_scan"}, "lon": -76.97735666666667, "type": "electric_scooter"}, {"bike_id": "39a26a0655f7eb7a9ea0bdafd14c1733", "is_reserved": 0, "fusion_lon": 0.0, "lat": 39.038801666666664, "is_disabled": 0, "name": "39a26a0655f7eb7a9ea0bdafd14c1733", "fusion_lat": 0.0, "rental_uris": {"ios": "https://dc.lft.to/lastmile_qr_scan", "android": "https://dc.lft.to/lastmile_qr_scan"}, "lon": -76.99042283333333, "type": "electric_bike"}, {"bike_id": "1f05fb5a5d8568995e09263d0e26179c", "is_reserved": 0, "fusion_lon": 0.0, "lat": 38.887693666666664, "is_disabled": 0, "name": "1f05fb5a5d8568995e09263d0e26179c", "fusion_lat": 0.0, "rental_uris": {"ios": "https://dc.lft.to/lastmile_qr_scan", "android": "https://dc.lft.to/lastmile_qr_scan"}, "lon": -77.03015966666666, "type": "electric_scooter"}, {"bike_id": "4e39a94a1d47cee9d9b239261c446fd3", "is_reserved": 0, "fusion_lon": 0.0, "lat": 38.892222, "is_disabled": 0, "name": "4e39a94a1d47cee9d9b239261c446fd3", "fusion_lat": 0.0, "rental_uris": {"ios": "https://dc.lft.to/lastmile_qr_scan", "android": "https://dc.lft.to/lastmile_qr_scan"}, "lon": -77.02445516666667, "type": "electric_scooter"}, {"bike_id": "ac24c1cf420fa9ec82f82249a47057cf", "is_reserved": 0, "fusion_lon": 0.0, "lat": 38.90611766666667, "is_disabled": 0, "name": "ac24c1cf420fa9ec82f82249a47057cf", "fusion_lat": 0.0, "rental_uris": {"ios": "https://dc.lft.to/lastmile_qr_scan", "android": "https://dc.lft.to/lastmile_qr_scan"}, "lon": -77.07488133333334, "type": "electric_scooter"}, {"bike_id": "b11fff34d7c242180bbf2854290886e3", "is_reserved": 0, "fusion_lon": 0.0, "lat": 38.861968833333336, "is_disabled": 0, "name": "b11fff34d7c242180bbf2854290886e3", "fusion_lat": 0.0, "rental_uris": {"ios": "https://dc.lft.to/lastmile_qr_scan", "android": "https://dc.lft.to/lastmile_qr_scan"}, "lon": -76.994639, "type": "electric_scooter"}, {"bike_id": "46bcb28d6a2e1a40697c14b4bc04e992", "is_reserved": 0, "fusion_lon": 0.0, "lat": 38.90852566666667, "is_disabled": 0, "name": "46bcb28d6a2e1a40697c14b4bc04e992", "fusion_lat": 0.0, "rental_uris": {"ios": "https://dc.lft.to/lastmile_qr_scan", "android": "https://dc.lft.to/lastmile_qr_scan"}, "lon": -77.04481783333334, "type": "electric_scooter"}, {"bike_id": "6d59d5161aa341291077999e595c8e0f", "is_reserved": 0, "fusion_lon": 0.0, "lat": 38.902476, "is_disabled": 0, "name": "6d59d5161aa341291077999e595c8e0f", "fusion_lat": 0.0, "rental_uris": {"ios": "https://dc.lft.to/lastmile_qr_scan", "android": "https://dc.lft.to/lastmile_qr_scan"}, "lon": -77.03259366666667, "type": "electric_scooter"}, {"bike_id": "01d28e33cf476626d54d1fd43b6942bd", "is_reserved": 0, "fusion_lon": 0.0, "lat": 38.899532666666666, "is_disabled": 0, "name": "01d28e33cf476626d54d1fd43b6942bd", "fusion_lat": 0.0, "rental_uris": {"ios": "https://dc.lft.to/lastmile_qr_scan", "android": "https://dc.lft.to/lastmile_qr_scan"}, "lon": -76.9755375, "type": "electric_scooter"}, {"bike_id": "114544d4417287b0218905a843644b58", "is_reserved": 0, "fusion_lon": 0.0, "lat": 38.91032083333333, "is_disabled": 0, "name": "114544d4417287b0218905a843644b58", "fusion_lat": 0.0, "rental_uris": {"ios": "https://dc.lft.to/lastmile_qr_scan", "android": "https://dc.lft.to/lastmile_qr_scan"}, "lon": -77.04392133333333, "type": "electric_scooter"}, {"bike_id": "b6f90b33cf5285e469835aaf23a09e0c", "is_reserved": 0, "fusion_lon": 0.0, "lat": 38.91839316666667, "is_disabled": 0, "name": "b6f90b33cf5285e469835aaf23a09e0c", "fusion_lat": 0.0, "rental_uris": {"ios": "https://dc.lft.to/lastmile_qr_scan", "android": "https://dc.lft.to/lastmile_qr_scan"}, "lon": -77.02315966666667, "type": "electric_scooter"}, {"bike_id": "4bd94307b4bd5a1358f331be55867efa", "is_reserved": 0, "fusion_lon": 0.0, "lat": 38.895119, "is_disabled": 0, "name": "4bd94307b4bd5a1358f331be55867efa", "fusion_lat": 0.0, "rental_uris": {"ios": "https://dc.lft.to/lastmile_qr_scan", "android": "https://dc.lft.to/lastmile_qr_scan"}, "lon": -77.04846616666667, "type": "electric_scooter"}, {"bike_id": "118619bc51b7368280b18f2b6e64dcc7", "is_reserved": 0, "fusion_lon": 0.0, "lat": 38.958861166666665, "is_disabled": 0, "name": "118619bc51b7368280b18f2b6e64dcc7", "fusion_lat": 0.0, "rental_uris": {"ios": "https://dc.lft.to/lastmile_qr_scan", "android": "https://dc.lft.to/lastmile_qr_scan"}, "lon": -76.924934, "type": "electric_bike"}, {"bike_id": "caf4cb38ca041559adb18dac895a5db6", "is_reserved": 0, "fusion_lon": 0.0, "lat": 38.875497333333335, "is_disabled": 0, "name": "caf4cb38ca041559adb18dac895a5db6", "fusion_lat": 0.0, "rental_uris": {"ios": "https://dc.lft.to/lastmile_qr_scan", "android": "https://dc.lft.to/lastmile_qr_scan"}, "lon": -76.96492816666667, "type": "electric_scooter"}, {"bike_id": "042b8fb6a3eb4e04f4034da580635d97", "is_reserved": 0, "fusion_lon": 0.0, "lat": 38.899982666666666, "is_disabled": 0, "name": "042b8fb6a3eb4e04f4034da580635d97", "fusion_lat": 0.0, "rental_uris": {"ios": "https://dc.lft.to/lastmile_qr_scan", "android": "https://dc.lft.to/lastmile_qr_scan"}, "lon": -77.052333, "type": "electric_scooter"}, {"bike_id": "69e11cda73c1fbf50ee8fd76797c0e1b", "is_reserved": 0, "fusion_lon": 0.0, "lat": 38.93200566666667, "is_disabled": 0, "name": "69e11cda73c1fbf50ee8fd76797c0e1b", "fusion_lat": 0.0, "rental_uris": {"ios": "https://dc.lft.to/lastmile_qr_scan", "android": "https://dc.lft.to/lastmile_qr_scan"}, "lon": -77.03875516666666, "type": "electric_scooter"}, {"bike_id": "b256d5638c59e51e8e12032ad59efb93", "is_reserved": 0, "fusion_lon": 0.0, "lat": 38.892243, "is_disabled": 0, "name": "b256d5638c59e51e8e12032ad59efb93", "fusion_lat": 0.0, "rental_uris": {"ios": "https://dc.lft.to/lastmile_qr_scan", "android": "https://dc.lft.to/lastmile_qr_scan"}, "lon": -77.04369283333334, "type": "electric_scooter"}, {"bike_id": "03c41ccf6f110d0c2a5e47837799c1ff", "is_reserved": 0, "fusion_lon": 0.0, "lat": 38.8921345, "is_disabled": 0, "name": "03c41ccf6f110d0c2a5e47837799c1ff", "fusion_lat": 0.0, "rental_uris": {"ios": "https://dc.lft.to/lastmile_qr_scan", "android": "https://dc.lft.to/lastmile_qr_scan"}, "lon": -77.02617816666667, "type": "electric_scooter"}, {"bike_id": "f48c93d00294aae91e738b2c91aaa92f", "is_reserved": 0, "fusion_lon": 0.0, "lat": 38.89479683333333, "is_disabled": 0, "name": "f48c93d00294aae91e738b2c91aaa92f", "fusion_lat": 0.0, "rental_uris": {"ios": "https://dc.lft.to/lastmile_qr_scan", "android": "https://dc.lft.to/lastmile_qr_scan"}, "lon": -76.94873233333334, "type": "electric_scooter"}, {"bike_id": "0152a6134eb889f07894b4ea6cd86834", "is_reserved": 0, "fusion_lon": 0.0, "lat": 38.9200475, "is_disabled": 0, "name": "0152a6134eb889f07894b4ea6cd86834", "fusion_lat": 0.0, "rental_uris": {"ios": "https://dc.lft.to/lastmile_qr_scan", "android": "https://dc.lft.to/lastmile_qr_scan"}, "lon": -77.03210666666666, "type": "electric_scooter"}, {"bike_id": "af750e08cdd54ea8e6471b5ffa9544f8", "is_reserved": 0, "fusion_lon": 0.0, "lat": 38.9066835, "is_disabled": 0, "name": "af750e08cdd54ea8e6471b5ffa9544f8", "fusion_lat": 0.0, "rental_uris": {"ios": "https://dc.lft.to/lastmile_qr_scan", "android": "https://dc.lft.to/lastmile_qr_scan"}, "lon": -76.9878415, "type": "electric_scooter"}, {"bike_id": "c30c1e41e075ee304125a673c94deb8c", "is_reserved": 0, "fusion_lon": 0.0, "lat": 39.05634466666667, "is_disabled": 0, "name": "c30c1e41e075ee304125a673c94deb8c", "fusion_lat": 0.0, "rental_uris": {"ios": "https://dc.lft.to/lastmile_qr_scan", "android": "https://dc.lft.to/lastmile_qr_scan"}, "lon": -77.125266, "type": "electric_bike"}, {"bike_id": "8dc6d6ee2ff93360bc01bcf5b1c5b2fc", "is_reserved": 0, "fusion_lon": 0.0, "lat": 38.94538466666667, "is_disabled": 0, "name": "8dc6d6ee2ff93360bc01bcf5b1c5b2fc", "fusion_lat": 0.0, "rental_uris": {"ios": "https://dc.lft.to/lastmile_qr_scan", "android": "https://dc.lft.to/lastmile_qr_scan"}, "lon": -77.02215183333334, "type": "electric_scooter"}, {"bike_id": "7ddacf0c8897689ed34e07418fd089ae", "is_reserved": 0, "fusion_lon": 0.0, "lat": 38.90636, "is_disabled": 0, "name": "7ddacf0c8897689ed34e07418fd089ae", "fusion_lat": 0.0, "rental_uris": {"ios": "https://dc.lft.to/lastmile_qr_scan", "android": "https://dc.lft.to/lastmile_qr_scan"}, "lon": -77.01137533333333, "type": "electric_scooter"}, {"bike_id": "01cc3c90915417d003d79f97db84a401", "is_reserved": 0, "fusion_lon": 0.0, "lat": 38.88410366666667, "is_disabled": 0, "name": "01cc3c90915417d003d79f97db84a401", "fusion_lat": 0.0, "rental_uris": {"ios": "https://dc.lft.to/lastmile_qr_scan", "android": "https://dc.lft.to/lastmile_qr_scan"}, "lon": -77.0257875, "type": "electric_scooter"}, {"bike_id": "420112bcc4cf67b8dd4977cc73909a97", "is_reserved": 0, "fusion_lon": 0.0, "lat": 38.906379666666666, "is_disabled": 0, "name": "420112bcc4cf67b8dd4977cc73909a97", "fusion_lat": 0.0, "rental_uris": {"ios": "https://dc.lft.to/lastmile_qr_scan", "android": "https://dc.lft.to/lastmile_qr_scan"}, "lon": -77.04654, "type": "electric_scooter"}, {"bike_id": "2124ff07cb94122aba71a401494ada55", "is_reserved": 0, "fusion_lon": 0.0, "lat": 38.923585, "is_disabled": 0, "name": "2124ff07cb94122aba71a401494ada55", "fusion_lat": 0.0, "rental_uris": {"ios": "https://dc.lft.to/lastmile_qr_scan", "android": "https://dc.lft.to/lastmile_qr_scan"}, "lon": -77.04130016666667, "type": "electric_scooter"}, {"bike_id": "42e968e2d6f6d45df42c84b0f08634fb", "is_reserved": 0, "fusion_lon": 0.0, "lat": 38.8952915, "is_disabled": 0, "name": "42e968e2d6f6d45df42c84b0f08634fb", "fusion_lat": 0.0, "rental_uris": {"ios": "https://dc.lft.to/lastmile_qr_scan", "android": "https://dc.lft.to/lastmile_qr_scan"}, "lon": -77.03350966666666, "type": "electric_scooter"}, {"bike_id": "3a967beea3254ba01d5ef2091021b201", "is_reserved": 0, "fusion_lon": 0.0, "lat": 38.8922825, "is_disabled": 0, "name": "3a967beea3254ba01d5ef2091021b201", "fusion_lat": 0.0, "rental_uris": {"ios": "https://dc.lft.to/lastmile_qr_scan", "android": "https://dc.lft.to/lastmile_qr_scan"}, "lon": -77.02176516666667, "type": "electric_scooter"}, {"bike_id": "ad8a6786c0f708e3ce8a997b4ff75366", "is_reserved": 0, "fusion_lon": 0.0, "lat": 38.8962005, "is_disabled": 0, "name": "ad8a6786c0f708e3ce8a997b4ff75366", "fusion_lat": 0.0, "rental_uris": {"ios": "https://dc.lft.to/lastmile_qr_scan", "android": "https://dc.lft.to/lastmile_qr_scan"}, "lon": -76.99843533333333, "type": "electric_scooter"}, {"bike_id": "0868c422522634076366e4ad32591fcf", "is_reserved": 0, "fusion_lon": 0.0, "lat": 38.868259, "is_disabled": 0, "name": "0868c422522634076366e4ad32591fcf", "fusion_lat": 0.0, "rental_uris": {"ios": "https://dc.lft.to/lastmile_qr_scan", "android": "https://dc.lft.to/lastmile_qr_scan"}, "lon": -76.98619566666666, "type": "electric_scooter"}, {"bike_id": "bbd4d0abec069d95f27fae15fce52457", "is_reserved": 0, "fusion_lon": 0.0, "lat": 38.88019166666667, "is_disabled": 0, "name": "bbd4d0abec069d95f27fae15fce52457", "fusion_lat": 0.0, "rental_uris": {"ios": "https://dc.lft.to/lastmile_qr_scan", "android": "https://dc.lft.to/lastmile_qr_scan"}, "lon": -77.00246083333333, "type": "electric_scooter"}, {"bike_id": "38c426c0a2d2752a1b21da011821a251", "is_reserved": 0, "fusion_lon": 0.0, "lat": 38.94627783333333, "is_disabled": 0, "name": "38c426c0a2d2752a1b21da011821a251", "fusion_lat": 0.0, "rental_uris": {"ios": "https://dc.lft.to/lastmile_qr_scan", "android": "https://dc.lft.to/lastmile_qr_scan"}, "lon": -77.0184415, "type": "electric_scooter"}, {"bike_id": "8730468dbb066361194365bc10348312", "is_reserved": 0, "fusion_lon": 0.0, "lat": 38.93285, "is_disabled": 0, "name": "8730468dbb066361194365bc10348312", "fusion_lat": 0.0, "rental_uris": {"ios": "https://dc.lft.to/lastmile_qr_scan", "android": "https://dc.lft.to/lastmile_qr_scan"}, "lon": -77.03976433333334, "type": "electric_scooter"}, {"bike_id": "5d5522323055b9caf30dc2af971c96c1", "is_reserved": 0, "fusion_lon": 0.0, "lat": 38.933342833333334, "is_disabled": 0, "name": "5d5522323055b9caf30dc2af971c96c1", "fusion_lat": 0.0, "rental_uris": {"ios": "https://dc.lft.to/lastmile_qr_scan", "android": "https://dc.lft.to/lastmile_qr_scan"}, "lon": -77.03285483333333, "type": "electric_scooter"}, {"bike_id": "7296e1bcf2fee68f1c6413dc63b6e4f0", "is_reserved": 0, "fusion_lon": 0.0, "lat": 38.87626266666667, "is_disabled": 0, "name": "7296e1bcf2fee68f1c6413dc63b6e4f0", "fusion_lat": 0.0, "rental_uris": {"ios": "https://dc.lft.to/lastmile_qr_scan", "android": "https://dc.lft.to/lastmile_qr_scan"}, "lon": -76.9652855, "type": "electric_scooter"}, {"bike_id": "bcbd373d16f8669f8c4025ae0b00fb99", "is_reserved": 0, "fusion_lon": 0.0, "lat": 38.903305, "is_disabled": 0, "name": "bcbd373d16f8669f8c4025ae0b00fb99", "fusion_lat": 0.0, "rental_uris": {"ios": "https://dc.lft.to/lastmile_qr_scan", "android": "https://dc.lft.to/lastmile_qr_scan"}, "lon": -76.97597033333334, "type": "electric_scooter"}, {"bike_id": "edf725546452b2cc99d96b3ed2311f92", "is_reserved": 0, "fusion_lon": 0.0, "lat": 38.86519833333333, "is_disabled": 0, "name": "edf725546452b2cc99d96b3ed2311f92", "fusion_lat": 0.0, "rental_uris": {"ios": "https://dc.lft.to/lastmile_qr_scan", "android": "https://dc.lft.to/lastmile_qr_scan"}, "lon": -76.990404, "type": "electric_scooter"}, {"bike_id": "1c5d0aa85ab377bc7592bc36354ff8ba", "is_reserved": 0, "fusion_lon": 0.0, "lat": 38.89735616666667, "is_disabled": 0, "name": "1c5d0aa85ab377bc7592bc36354ff8ba", "fusion_lat": 0.0, "rental_uris": {"ios": "https://dc.lft.to/lastmile_qr_scan", "android": "https://dc.lft.to/lastmile_qr_scan"}, "lon": -76.9384225, "type": "electric_scooter"}, {"bike_id": "bf23345207a3861c59f4dbe5523329c6", "is_reserved": 0, "fusion_lon": 0.0, "lat": 38.9046445, "is_disabled": 0, "name": "bf23345207a3861c59f4dbe5523329c6", "fusion_lat": 0.0, "rental_uris": {"ios": "https://dc.lft.to/lastmile_qr_scan", "android": "https://dc.lft.to/lastmile_qr_scan"}, "lon": -77.02977766666666, "type": "electric_scooter"}, {"bike_id": "38bdce0b0fa3141b1386dfc42a7d06aa", "is_reserved": 0, "fusion_lon": 0.0, "lat": 38.928894666666665, "is_disabled": 0, "name": "38bdce0b0fa3141b1386dfc42a7d06aa", "fusion_lat": 0.0, "rental_uris": {"ios": "https://dc.lft.to/lastmile_qr_scan", "android": "https://dc.lft.to/lastmile_qr_scan"}, "lon": -77.01376133333333, "type": "electric_scooter"}, {"bike_id": "0598a8613aafd0aac17af8465803f3cd", "is_reserved": 0, "fusion_lon": 0.0, "lat": 38.866558166666664, "is_disabled": 0, "name": "0598a8613aafd0aac17af8465803f3cd", "fusion_lat": 0.0, "rental_uris": {"ios": "https://dc.lft.to/lastmile_qr_scan", "android": "https://dc.lft.to/lastmile_qr_scan"}, "lon": -76.98898583333333, "type": "electric_scooter"}, {"bike_id": "e5d6e2930022a88496cf7a6b15412f9d", "is_reserved": 0, "fusion_lon": 0.0, "lat": 38.896036, "is_disabled": 0, "name": "e5d6e2930022a88496cf7a6b15412f9d", "fusion_lat": 0.0, "rental_uris": {"ios": "https://dc.lft.to/lastmile_qr_scan", "android": "https://dc.lft.to/lastmile_qr_scan"}, "lon": -77.04446333333334, "type": "electric_scooter"}, {"bike_id": "a51b7ddb21bb2e0066880f5ed559f782", "is_reserved": 0, "fusion_lon": 0.0, "lat": 38.916780833333334, "is_disabled": 0, "name": "a51b7ddb21bb2e0066880f5ed559f782", "fusion_lat": 0.0, "rental_uris": {"ios": "https://dc.lft.to/lastmile_qr_scan", "android": "https://dc.lft.to/lastmile_qr_scan"}, "lon": -77.03189033333334, "type": "electric_scooter"}, {"bike_id": "85248fdf11821b0e598685aad4210b7f", "is_reserved": 0, "fusion_lon": 0.0, "lat": 38.904449666666665, "is_disabled": 0, "name": "85248fdf11821b0e598685aad4210b7f", "fusion_lat": 0.0, "rental_uris": {"ios": "https://dc.lft.to/lastmile_qr_scan", "android": "https://dc.lft.to/lastmile_qr_scan"}, "lon": -77.04909883333333, "type": "electric_scooter"}, {"bike_id": "318cf757c3054a40e5bb57803fc44dda", "is_reserved": 0, "fusion_lon": 0.0, "lat": 38.884229833333336, "is_disabled": 0, "name": "318cf757c3054a40e5bb57803fc44dda", "fusion_lat": 0.0, "rental_uris": {"ios": "https://dc.lft.to/lastmile_qr_scan", "android": "https://dc.lft.to/lastmile_qr_scan"}, "lon": -76.95753783333333, "type": "electric_scooter"}, {"bike_id": "ccbd3c15cbb4238b83de95f36c531d0f", "is_reserved": 0, "fusion_lon": 0.0, "lat": 38.897546166666665, "is_disabled": 0, "name": "ccbd3c15cbb4238b83de95f36c531d0f", "fusion_lat": 0.0, "rental_uris": {"ios": "https://dc.lft.to/lastmile_qr_scan", "android": "https://dc.lft.to/lastmile_qr_scan"}, "lon": -76.94182866666667, "type": "electric_scooter"}, {"bike_id": "e278bf03ee7621f56f94d2c59064f5ea", "is_reserved": 0, "fusion_lon": 0.0, "lat": 38.917065, "is_disabled": 0, "name": "e278bf03ee7621f56f94d2c59064f5ea", "fusion_lat": 0.0, "rental_uris": {"ios": "https://dc.lft.to/lastmile_qr_scan", "android": "https://dc.lft.to/lastmile_qr_scan"}, "lon": -77.02463833333333, "type": "electric_scooter"}, {"bike_id": "851d3fd0c7988ed02e67ea1d533154ee", "is_reserved": 0, "fusion_lon": 0.0, "lat": 38.926087333333335, "is_disabled": 0, "name": "851d3fd0c7988ed02e67ea1d533154ee", "fusion_lat": 0.0, "rental_uris": {"ios": "https://dc.lft.to/lastmile_qr_scan", "android": "https://dc.lft.to/lastmile_qr_scan"}, "lon": -77.00538183333333, "type": "electric_scooter"}, {"bike_id": "171222057e57d598d98abff28c6e0ec7", "is_reserved": 0, "fusion_lon": 0.0, "lat": 38.954788666666666, "is_disabled": 0, "name": "171222057e57d598d98abff28c6e0ec7", "fusion_lat": 0.0, "rental_uris": {"ios": "https://dc.lft.to/lastmile_qr_scan", "android": "https://dc.lft.to/lastmile_qr_scan"}, "lon": -77.08244666666667, "type": "electric_bike"}, {"bike_id": "d51cb3a0bc4fc8643a229802813ff286", "is_reserved": 0, "fusion_lon": 0.0, "lat": 38.895217, "is_disabled": 0, "name": "d51cb3a0bc4fc8643a229802813ff286", "fusion_lat": 0.0, "rental_uris": {"ios": "https://dc.lft.to/lastmile_qr_scan", "android": "https://dc.lft.to/lastmile_qr_scan"}, "lon": -77.04181466666667, "type": "electric_scooter"}, {"bike_id": "d9302198641220e1242e1db4db3504f0", "is_reserved": 0, "fusion_lon": 0.0, "lat": 38.899945, "is_disabled": 0, "name": "d9302198641220e1242e1db4db3504f0", "fusion_lat": 0.0, "rental_uris": {"ios": "https://dc.lft.to/lastmile_qr_scan", "android": "https://dc.lft.to/lastmile_qr_scan"}, "lon": -77.04030783333333, "type": "electric_scooter"}, {"bike_id": "dc00298beb2e56a487c4bbf6a0b1dfda", "is_reserved": 0, "fusion_lon": 0.0, "lat": 38.89897333333333, "is_disabled": 0, "name": "dc00298beb2e56a487c4bbf6a0b1dfda", "fusion_lat": 0.0, "rental_uris": {"ios": "https://dc.lft.to/lastmile_qr_scan", "android": "https://dc.lft.to/lastmile_qr_scan"}, "lon": -76.93350666666667, "type": "electric_scooter"}, {"bike_id": "1cf409c19790e7a9915aab1894298588", "is_reserved": 0, "fusion_lon": 0.0, "lat": 38.90353233333333, "is_disabled": 0, "name": "1cf409c19790e7a9915aab1894298588", "fusion_lat": 0.0, "rental_uris": {"ios": "https://dc.lft.to/lastmile_qr_scan", "android": "https://dc.lft.to/lastmile_qr_scan"}, "lon": -77.04015233333334, "type": "electric_scooter"}, {"bike_id": "da167af6433abf31b09f0d157dea48d0", "is_reserved": 0, "fusion_lon": 0.0, "lat": 38.902633333333334, "is_disabled": 0, "name": "da167af6433abf31b09f0d157dea48d0", "fusion_lat": 0.0, "rental_uris": {"ios": "https://dc.lft.to/lastmile_qr_scan", "android": "https://dc.lft.to/lastmile_qr_scan"}, "lon": -77.03469266666667, "type": "electric_scooter"}, {"bike_id": "0c0c19216a829770b17a2357ebf40b7e", "is_reserved": 0, "fusion_lon": 0.0, "lat": 39.03042583333333, "is_disabled": 0, "name": "0c0c19216a829770b17a2357ebf40b7e", "fusion_lat": 0.0, "rental_uris": {"ios": "https://dc.lft.to/lastmile_qr_scan", "android": "https://dc.lft.to/lastmile_qr_scan"}, "lon": -77.0947415, "type": "electric_bike"}, {"bike_id": "0481ed873b95be9d39d4ea51d0b76d3b", "is_reserved": 0, "fusion_lon": 0.0, "lat": 38.90479366666667, "is_disabled": 0, "name": "0481ed873b95be9d39d4ea51d0b76d3b", "fusion_lat": 0.0, "rental_uris": {"ios": "https://dc.lft.to/lastmile_qr_scan", "android": "https://dc.lft.to/lastmile_qr_scan"}, "lon": -77.02185966666667, "type": "electric_scooter"}, {"bike_id": "b118c68d0aafbe101727318eb74a6e00", "is_reserved": 0, "fusion_lon": 0.0, "lat": 38.917884666666666, "is_disabled": 0, "name": "b118c68d0aafbe101727318eb74a6e00", "fusion_lat": 0.0, "rental_uris": {"ios": "https://dc.lft.to/lastmile_qr_scan", "android": "https://dc.lft.to/lastmile_qr_scan"}, "lon": -77.044178, "type": "electric_scooter"}, {"bike_id": "a71922e2d81d2cf4814e4e2cfb10f030", "is_reserved": 0, "fusion_lon": 0.0, "lat": 38.88706833333333, "is_disabled": 0, "name": "a71922e2d81d2cf4814e4e2cfb10f030", "fusion_lat": 0.0, "rental_uris": {"ios": "https://dc.lft.to/lastmile_qr_scan", "android": "https://dc.lft.to/lastmile_qr_scan"}, "lon": -77.001547, "type": "electric_scooter"}, {"bike_id": "6a06e68ee2ff5bb41f0308fe19a0c343", "is_reserved": 0, "fusion_lon": 0.0, "lat": 38.90827433333333, "is_disabled": 0, "name": "6a06e68ee2ff5bb41f0308fe19a0c343", "fusion_lat": 0.0, "rental_uris": {"ios": "https://dc.lft.to/lastmile_qr_scan", "android": "https://dc.lft.to/lastmile_qr_scan"}, "lon": -76.99699666666666, "type": "electric_scooter"}, {"bike_id": "6fe2ca4c25405bea7791a9bd925724fb", "is_reserved": 0, "fusion_lon": 0.0, "lat": 38.892236833333335, "is_disabled": 0, "name": "6fe2ca4c25405bea7791a9bd925724fb", "fusion_lat": 0.0, "rental_uris": {"ios": "https://dc.lft.to/lastmile_qr_scan", "android": "https://dc.lft.to/lastmile_qr_scan"}, "lon": -77.003006, "type": "electric_scooter"}, {"bike_id": "f584fa5ef5dc0b91411c47a64b53e473", "is_reserved": 0, "fusion_lon": 0.0, "lat": 38.917691833333336, "is_disabled": 0, "name": "f584fa5ef5dc0b91411c47a64b53e473", "fusion_lat": 0.0, "rental_uris": {"ios": "https://dc.lft.to/lastmile_qr_scan", "android": "https://dc.lft.to/lastmile_qr_scan"}, "lon": -76.973262, "type": "electric_scooter"}, {"bike_id": "5506adf7124775f9dc44e95ee168ffa7", "is_reserved": 0, "fusion_lon": 0.0, "lat": 38.905132, "is_disabled": 0, "name": "5506adf7124775f9dc44e95ee168ffa7", "fusion_lat": 0.0, "rental_uris": {"ios": "https://dc.lft.to/lastmile_qr_scan", "android": "https://dc.lft.to/lastmile_qr_scan"}, "lon": -77.06532716666666, "type": "electric_scooter"}, {"bike_id": "735cd060c4d9ad957cf355b38963b67a", "is_reserved": 0, "fusion_lon": 0.0, "lat": 38.889612666666665, "is_disabled": 0, "name": "735cd060c4d9ad957cf355b38963b67a", "fusion_lat": 0.0, "rental_uris": {"ios": "https://dc.lft.to/lastmile_qr_scan", "android": "https://dc.lft.to/lastmile_qr_scan"}, "lon": -76.980362, "type": "electric_scooter"}, {"bike_id": "4866b714e52a4c8e4a468773571f1dd2", "is_reserved": 0, "fusion_lon": 0.0, "lat": 38.933505833333335, "is_disabled": 0, "name": "4866b714e52a4c8e4a468773571f1dd2", "fusion_lat": 0.0, "rental_uris": {"ios": "https://dc.lft.to/lastmile_qr_scan", "android": "https://dc.lft.to/lastmile_qr_scan"}, "lon": -77.05711466666666, "type": "electric_scooter"}, {"bike_id": "1b26109c1130a58d40d45317ddf57ca2", "is_reserved": 0, "fusion_lon": 0.0, "lat": 38.8997295, "is_disabled": 0, "name": "1b26109c1130a58d40d45317ddf57ca2", "fusion_lat": 0.0, "rental_uris": {"ios": "https://dc.lft.to/lastmile_qr_scan", "android": "https://dc.lft.to/lastmile_qr_scan"}, "lon": -77.009415, "type": "electric_scooter"}, {"bike_id": "e15858bba32764d3bd97bb6065ea8295", "is_reserved": 0, "fusion_lon": 0.0, "lat": 38.89827183333333, "is_disabled": 0, "name": "e15858bba32764d3bd97bb6065ea8295", "fusion_lat": 0.0, "rental_uris": {"ios": "https://dc.lft.to/lastmile_qr_scan", "android": "https://dc.lft.to/lastmile_qr_scan"}, "lon": -76.98033616666666, "type": "electric_scooter"}, {"bike_id": "42be4883b3b70e3651a4f1ff687715b7", "is_reserved": 0, "fusion_lon": 0.0, "lat": 38.89195333333333, "is_disabled": 0, "name": "42be4883b3b70e3651a4f1ff687715b7", "fusion_lat": 0.0, "rental_uris": {"ios": "https://dc.lft.to/lastmile_qr_scan", "android": "https://dc.lft.to/lastmile_qr_scan"}, "lon": -77.015538, "type": "electric_scooter"}, {"bike_id": "996b74fd261baeabeae0190e4001f4e7", "is_reserved": 0, "fusion_lon": 0.0, "lat": 38.9440865, "is_disabled": 0, "name": "996b74fd261baeabeae0190e4001f4e7", "fusion_lat": 0.0, "rental_uris": {"ios": "https://dc.lft.to/lastmile_qr_scan", "android": "https://dc.lft.to/lastmile_qr_scan"}, "lon": -77.06322366666667, "type": "electric_scooter"}, {"bike_id": "0f21127f9969142e9fcb9c92f3d852d0", "is_reserved": 0, "fusion_lon": 0.0, "lat": 38.895998, "is_disabled": 0, "name": "0f21127f9969142e9fcb9c92f3d852d0", "fusion_lat": 0.0, "rental_uris": {"ios": "https://dc.lft.to/lastmile_qr_scan", "android": "https://dc.lft.to/lastmile_qr_scan"}, "lon": -77.00925383333333, "type": "electric_scooter"}, {"bike_id": "0f58987d144afffa3adcc03b29a66feb", "is_reserved": 0, "fusion_lon": 0.0, "lat": 38.908473666666666, "is_disabled": 0, "name": "0f58987d144afffa3adcc03b29a66feb", "fusion_lat": 0.0, "rental_uris": {"ios": "https://dc.lft.to/lastmile_qr_scan", "android": "https://dc.lft.to/lastmile_qr_scan"}, "lon": -77.01187833333333, "type": "electric_scooter"}, {"bike_id": "405e6b98d1008609e329f72a8d3292c5", "is_reserved": 0, "fusion_lon": 0.0, "lat": 38.88203766666667, "is_disabled": 0, "name": "405e6b98d1008609e329f72a8d3292c5", "fusion_lat": 0.0, "rental_uris": {"ios": "https://dc.lft.to/lastmile_qr_scan", "android": "https://dc.lft.to/lastmile_qr_scan"}, "lon": -76.9269525, "type": "electric_scooter"}, {"bike_id": "cc7fe4f67aa21a56ea237c49bc40731e", "is_reserved": 0, "fusion_lon": 0.0, "lat": 38.9332975, "is_disabled": 0, "name": "cc7fe4f67aa21a56ea237c49bc40731e", "fusion_lat": 0.0, "rental_uris": {"ios": "https://dc.lft.to/lastmile_qr_scan", "android": "https://dc.lft.to/lastmile_qr_scan"}, "lon": -77.03264133333333, "type": "electric_scooter"}, {"bike_id": "8fcaee0cbc59790358e329a23c5a80f9", "is_reserved": 0, "fusion_lon": 0.0, "lat": 38.901056833333335, "is_disabled": 0, "name": "8fcaee0cbc59790358e329a23c5a80f9", "fusion_lat": 0.0, "rental_uris": {"ios": "https://dc.lft.to/lastmile_qr_scan", "android": "https://dc.lft.to/lastmile_qr_scan"}, "lon": -77.04230883333334, "type": "electric_scooter"}, {"bike_id": "f180f81d952255d9092b4ee4a614dc36", "is_reserved": 0, "fusion_lon": 0.0, "lat": 39.05201666666667, "is_disabled": 0, "name": "f180f81d952255d9092b4ee4a614dc36", "fusion_lat": 0.0, "rental_uris": {"ios": "https://dc.lft.to/lastmile_qr_scan", "android": "https://dc.lft.to/lastmile_qr_scan"}, "lon": -77.1092195, "type": "electric_bike"}, {"bike_id": "5e91d1a13884ac099bc9934f79aec51f", "is_reserved": 0, "fusion_lon": 0.0, "lat": 38.9068875, "is_disabled": 0, "name": "5e91d1a13884ac099bc9934f79aec51f", "fusion_lat": 0.0, "rental_uris": {"ios": "https://dc.lft.to/lastmile_qr_scan", "android": "https://dc.lft.to/lastmile_qr_scan"}, "lon": -77.07532616666667, "type": "electric_scooter"}, {"bike_id": "ba21cdd83a0906b4a6e864ad0addacda", "is_reserved": 0, "fusion_lon": 0.0, "lat": 38.9220545, "is_disabled": 0, "name": "ba21cdd83a0906b4a6e864ad0addacda", "fusion_lat": 0.0, "rental_uris": {"ios": "https://dc.lft.to/lastmile_qr_scan", "android": "https://dc.lft.to/lastmile_qr_scan"}, "lon": -77.03654516666667, "type": "electric_scooter"}, {"bike_id": "1dab353cec151c7bd83d17b94104be2b", "is_reserved": 0, "fusion_lon": 0.0, "lat": 38.916856, "is_disabled": 0, "name": "1dab353cec151c7bd83d17b94104be2b", "fusion_lat": 0.0, "rental_uris": {"ios": "https://dc.lft.to/lastmile_qr_scan", "android": "https://dc.lft.to/lastmile_qr_scan"}, "lon": -77.0295205, "type": "electric_scooter"}, {"bike_id": "ab979db2601b718d0885c6a26af94528", "is_reserved": 0, "fusion_lon": 0.0, "lat": 38.915532, "is_disabled": 0, "name": "ab979db2601b718d0885c6a26af94528", "fusion_lat": 0.0, "rental_uris": {"ios": "https://dc.lft.to/lastmile_qr_scan", "android": "https://dc.lft.to/lastmile_qr_scan"}, "lon": -77.0393425, "type": "electric_scooter"}, {"bike_id": "84828f4cfe61751bb8a3747418d43b81", "is_reserved": 0, "fusion_lon": 0.0, "lat": 38.898283, "is_disabled": 0, "name": "84828f4cfe61751bb8a3747418d43b81", "fusion_lat": 0.0, "rental_uris": {"ios": "https://dc.lft.to/lastmile_qr_scan", "android": "https://dc.lft.to/lastmile_qr_scan"}, "lon": -76.94628966666667, "type": "electric_scooter"}, {"bike_id": "b3951fcda2b036cb2787a234b94d556c", "is_reserved": 0, "fusion_lon": 0.0, "lat": 38.9342505, "is_disabled": 0, "name": "b3951fcda2b036cb2787a234b94d556c", "fusion_lat": 0.0, "rental_uris": {"ios": "https://dc.lft.to/lastmile_qr_scan", "android": "https://dc.lft.to/lastmile_qr_scan"}, "lon": -77.04322233333333, "type": "electric_scooter"}, {"bike_id": "712b46bb57439e2e2176df90592e4e48", "is_reserved": 0, "fusion_lon": 0.0, "lat": 38.91718316666667, "is_disabled": 0, "name": "712b46bb57439e2e2176df90592e4e48", "fusion_lat": 0.0, "rental_uris": {"ios": "https://dc.lft.to/lastmile_qr_scan", "android": "https://dc.lft.to/lastmile_qr_scan"}, "lon": -77.030111, "type": "electric_scooter"}, {"bike_id": "5c35f3159b91f469cc737f3636dc0352", "is_reserved": 0, "fusion_lon": 0.0, "lat": 38.973236666666665, "is_disabled": 0, "name": "5c35f3159b91f469cc737f3636dc0352", "fusion_lat": 0.0, "rental_uris": {"ios": "https://dc.lft.to/lastmile_qr_scan", "android": "https://dc.lft.to/lastmile_qr_scan"}, "lon": -77.02147133333334, "type": "electric_bike"}, {"bike_id": "5ae59799ff7bec565bf6c9c283a04cd5", "is_reserved": 0, "fusion_lon": 0.0, "lat": 38.92212833333333, "is_disabled": 0, "name": "5ae59799ff7bec565bf6c9c283a04cd5", "fusion_lat": 0.0, "rental_uris": {"ios": "https://dc.lft.to/lastmile_qr_scan", "android": "https://dc.lft.to/lastmile_qr_scan"}, "lon": -77.04244316666667, "type": "electric_scooter"},