{"data": {"bikes": [{"lat": 38.90953783333333, "fusion_lat": 0.0, "type": "electric_scooter", "bike_id": "e0f77f2b531913f081d2c56431787768", "is_reserved": 0, "rental_uris": {"ios": "https://dc.lft.to/lastmile_qr_scan", "android": "https://dc.lft.to/lastmile_qr_scan"}, "is_disabled": 0, "lon": -76.99882933333333, "name": "e0f77f2b531913f081d2c56431787768", "fusion_lon": 0.0}, {"lat": 38.9215165, "fusion_lat": 0.0, "type": "electric_scooter", "bike_id": "034fd7e6e05df6c6d2cd54a10f2e354a", "is_reserved": 0, "rental_uris": {"ios": "https://dc.lft.to/lastmile_qr_scan", "android": "https://dc.lft.to/lastmile_qr_scan"}, "is_disabled": 0, "lon": -77.01818466666667, "name": "034fd7e6e05df6c6d2cd54a10f2e354a", "fusion_lon": 0.0}, {"lat": 38.928475666666664, "fusion_lat": 0.0, "type": "electric_scooter", "bike_id": "abddd7e7576323eb9bc8a6064bd2337f", "is_reserved": 0, "rental_uris": {"ios": "https://dc.lft.to/lastmile_qr_scan", "android": "https://dc.lft.to/lastmile_qr_scan"}, "is_disabled": 0, "lon": -77.01379416666667, "name": "abddd7e7576323eb9bc8a6064bd2337f", "fusion_lon": 0.0}, {"lat": 38.905917, "fusion_lat": 0.0, "type": "electric_scooter", "bike_id": "de9880aca1b6323859bc4b3685833548", "is_reserved": 0, "rental_uris": {"ios": "https://dc.lft.to/lastmile_qr_scan", "android": "https://dc.lft.to/lastmile_qr_scan"}, "is_disabled": 0, "lon": -77.0058475, "name": "de9880aca1b6323859bc4b3685833548", "fusion_lon": 0.0}, {"lat": 38.95177316666667, "fusion_lat": 0.0, "type": "electric_bike", "bike_id": "af406ee6193e6668600ab416e5351fa0", "is_reserved": 0, "rental_uris": {"ios": "https://dc.lft.to/lastmile_qr_scan", "android": "https://dc.lft.to/lastmile_qr_scan"}, "is_disabled": 0, "lon": -76.97731133333333, "name": "af406ee6193e6668600ab416e5351fa0", "fusion_lon": 0.0}, {"lat": 38.904957333333336, "fusion_lat": 0.0, "type": "electric_scooter", "bike_id": "ff44ce01291f07d6df63a1dc5bbf14d9", "is_reserved": 0, "rental_uris": {"ios": "https://dc.lft.to/lastmile_qr_scan", "android": "https://dc.lft.to/lastmile_qr_scan"}, "is_disabled": 0, "lon": -76.9496505, "name": "ff44ce01291f07d6df63a1dc5bbf14d9", "fusion_lon": 0.0}, {"lat": 38.93678833333333, "fusion_lat": 0.0, "type": "electric_scooter", "bike_id": "fc90caa9f66cfda3a85a3eca1dc956ed", "is_reserved": 0, "rental_uris": {"ios": "https://dc.lft.to/lastmile_qr_scan", "android": "https://dc.lft.to/lastmile_qr_scan"}, "is_disabled": 0, "lon": -77.03568016666667, "name": "fc90caa9f66cfda3a85a3eca1dc956ed", "fusion_lon": 0.0}, {"lat": 38.917852833333335, "fusion_lat": 0.0, "type": "electric_scooter", "bike_id": "d8881212d3ffa170cf57937392071bc6", "is_reserved": 0, "rental_uris": {"ios": "https://dc.lft.to/lastmile_qr_scan", "android": "https://dc.lft.to/lastmile_qr_scan"}, "is_disabled": 0, "lon": -77.04187416666667, "name": "d8881212d3ffa170cf57937392071bc6", "fusion_lon": 0.0}, {"lat": 38.925103166666666, "fusion_lat": 0.0, "type": "electric_scooter", "bike_id": "29eae565ac4d68d1d174baf26b6bb88f", "is_reserved": 0, "rental_uris": {"ios": "https://dc.lft.to/lastmile_qr_scan", "android": "https://dc.lft.to/lastmile_qr_scan"}, "is_disabled": 0, "lon": -77.02273583333333, "name": "29eae565ac4d68d1d174baf26b6bb88f", "fusion_lon": 0.0}, {"lat": 38.91950833333333, "fusion_lat": 0.0, "type": "electric_scooter", "bike_id": "e38c65f3a3d121d40d7c247270cb0825", "is_reserved": 0, "rental_uris": {"ios": "https://dc.lft.to/lastmile_qr_scan", "android": "https://dc.lft.to/lastmile_qr_scan"}, "is_disabled": 0, "lon": -77.04566, "name": "e38c65f3a3d121d40d7c247270cb0825", "fusion_lon": 0.0}, {"lat": 38.877888, "fusion_lat": 0.0, "type": "electric_scooter", "bike_id": "0aee7edca846e09bf208cd80cdc350e5", "is_reserved": 0, "rental_uris": {"ios": "https://dc.lft.to/lastmile_qr_scan", "android": "https://dc.lft.to/lastmile_qr_scan"}, "is_disabled": 0, "lon": -76.930974, "name": "0aee7edca846e09bf208cd80cdc350e5", "fusion_lon": 0.0}, {"lat": 38.903661166666666, "fusion_lat": 0.0, "type": "electric_scooter", "bike_id": "2be515ad77c7c87726946306abce3caf", "is_reserved": 0, "rental_uris": {"ios": "https://dc.lft.to/lastmile_qr_scan", "android": "https://dc.lft.to/lastmile_qr_scan"}, "is_disabled": 0, "lon": -77.0290015, "name": "2be515ad77c7c87726946306abce3caf", "fusion_lon": 0.0}, {"lat": 38.925306166666665, "fusion_lat": 0.0, "type": "electric_scooter", "bike_id": "0f83b9e54b651383d9032c94fcf141ba", "is_reserved": 0, "rental_uris": {"ios": "https://dc.lft.to/lastmile_qr_scan", "android": "https://dc.lft.to/lastmile_qr_scan"}, "is_disabled": 0, "lon": -77.02259266666667, "name": "0f83b9e54b651383d9032c94fcf141ba", "fusion_lon": 0.0}, {"lat": 38.9258815, "fusion_lat": 0.0, "type": "electric_scooter", "bike_id": "8cbbaa3e707fe43e742bce1f6d8801b7", "is_reserved": 0, "rental_uris": {"ios": "https://dc.lft.to/lastmile_qr_scan", "android": "https://dc.lft.to/lastmile_qr_scan"}, "is_disabled": 0, "lon": -77.044056, "name": "8cbbaa3e707fe43e742bce1f6d8801b7", "fusion_lon": 0.0}, {"lat": 38.918127, "fusion_lat": 0.0, "type": "electric_scooter", "bike_id": "d54dba318b501669a47877561378a242", "is_reserved": 0, "rental_uris": {"ios": "https://dc.lft.to/lastmile_qr_scan", "android": "https://dc.lft.to/lastmile_qr_scan"}, "is_disabled": 0, "lon": -77.02827466666666, "name": "d54dba318b501669a47877561378a242", "fusion_lon": 0.0}, {"lat": 38.892247833333336, "fusion_lat": 0.0, "type": "electric_scooter", "bike_id": "c300b68589c2177760d76053a67ced7f", "is_reserved": 0, "rental_uris": {"ios": "https://dc.lft.to/lastmile_qr_scan", "android": "https://dc.lft.to/lastmile_qr_scan"}, "is_disabled": 0, "lon": -77.04263416666667, "name": "c300b68589c2177760d76053a67ced7f", "fusion_lon": 0.0}, {"lat": 38.903081666666665, "fusion_lat": 0.0, "type": "electric_scooter", "bike_id": "324876a07aa2a6c62f57851a4093bd92", "is_reserved": 0, "rental_uris": {"ios": "https://dc.lft.to/lastmile_qr_scan", "android": "https://dc.lft.to/lastmile_qr_scan"}, "is_disabled": 0, "lon": -77.02126533333333, "name": "324876a07aa2a6c62f57851a4093bd92", "fusion_lon": 0.0}, {"lat": 38.94448666666667, "fusion_lat": 0.0, "type": "electric_scooter", "bike_id": "9008b190bf8fadade8e47ca2c5735b38", "is_reserved": 0, "rental_uris": {"ios": "https://dc.lft.to/lastmile_qr_scan", "android": "https://dc.lft.to/lastmile_qr_scan"}, "is_disabled": 0, "lon": -77.06359833333333, "name": "9008b190bf8fadade8e47ca2c5735b38", "fusion_lon": 0.0}, {"lat": 38.9120035, "fusion_lat": 0.0, "type": "electric_scooter", "bike_id": "7a891f9eca5563c26762d0297f8ff6c9", "is_reserved": 0, "rental_uris": {"ios": "https://dc.lft.to/lastmile_qr_scan", "android": "https://dc.lft.to/lastmile_qr_scan"}, "is_disabled": 0, "lon": -77.04526616666666, "name": "7a891f9eca5563c26762d0297f8ff6c9", "fusion_lon": 0.0}, {"lat": 38.921306666666666, "fusion_lat": 0.0, "type": "electric_scooter", "bike_id": "93b762adcaed31920e01a780083efa88", "is_reserved": 0, "rental_uris": {"ios": "https://dc.lft.to/lastmile_qr_scan", "android": "https://dc.lft.to/lastmile_qr_scan"}, "is_disabled": 0, "lon": -76.99248, "name": "93b762adcaed31920e01a780083efa88", "fusion_lon": 0.0}, {"lat": 38.917898, "fusion_lat": 0.0, "type": "electric_scooter", "bike_id": "7425d5a195f2ff90a0fa5d1167ab09e4", "is_reserved": 0, "rental_uris": {"ios": "https://dc.lft.to/lastmile_qr_scan", "android": "https://dc.lft.to/lastmile_qr_scan"}, "is_disabled": 0, "lon": -77.04212033333333, "name": "7425d5a195f2ff90a0fa5d1167ab09e4", "fusion_lon": 0.0}, {"lat": 38.90022783333333, "fusion_lat": 0.0, "type": "electric_scooter", "bike_id": "b0f7669793e1707a636f7105c35cffca", "is_reserved": 0, "rental_uris": {"ios": "https://dc.lft.to/lastmile_qr_scan", "android": "https://dc.lft.to/lastmile_qr_scan"}, "is_disabled": 0, "lon": -77.00695866666666, "name": "b0f7669793e1707a636f7105c35cffca", "fusion_lon": 0.0}, {"lat": 38.92456033333333, "fusion_lat": 0.0, "type": "electric_scooter", "bike_id": "f79faf8a2277294d74a429a8c30ec9ce", "is_reserved": 0, "rental_uris": {"ios": "https://dc.lft.to/lastmile_qr_scan", "android": "https://dc.lft.to/lastmile_qr_scan"}, "is_disabled": 0, "lon": -77.04115283333333, "name": "f79faf8a2277294d74a429a8c30ec9ce", "fusion_lon": 0.0}, {"lat": 38.89746733333333, "fusion_lat": 0.0, "type": "electric_scooter", "bike_id": "1eb90bb2d575795bc52606dc6e65ff4c", "is_reserved": 0, "rental_uris": {"ios": "https://dc.lft.to/lastmile_qr_scan", "android": "https://dc.lft.to/lastmile_qr_scan"}, "is_disabled": 0, "lon": -77.02702833333333, "name": "1eb90bb2d575795bc52606dc6e65ff4c", "fusion_lon": 0.0}, {"lat": 38.919362666666665, "fusion_lat": 0.0, "type": "electric_scooter", "bike_id": "0478fd210bd3ef31c277d29ddbce2969", "is_reserved": 0, "rental_uris": {"ios": "https://dc.lft.to/lastmile_qr_scan", "android": "https://dc.lft.to/lastmile_qr_scan"}, "is_disabled": 0, "lon": -77.0448945, "name": "0478fd210bd3ef31c277d29ddbce2969", "fusion_lon": 0.0}, {"lat": 38.8953575, "fusion_lat": 0.0, "type": "electric_scooter", "bike_id": "82f62c22782f97162238c514acb833d0", "is_reserved": 0, "rental_uris": {"ios": "https://dc.lft.to/lastmile_qr_scan", "android": "https://dc.lft.to/lastmile_qr_scan"}, "is_disabled": 0, "lon": -76.94930266666667, "name": "82f62c22782f97162238c514acb833d0", "fusion_lon": 0.0}, {"lat": 38.91035083333333, "fusion_lat": 0.0, "type": "electric_scooter", "bike_id": "c588eec0640c5432937fbb5ab094b7f7", "is_reserved": 0, "rental_uris": {"ios": "https://dc.lft.to/lastmile_qr_scan", "android": "https://dc.lft.to/lastmile_qr_scan"}, "is_disabled": 0, "lon": -77.034389, "name": "c588eec0640c5432937fbb5ab094b7f7", "fusion_lon": 0.0}, {"lat": 38.89793933333333, "fusion_lat": 0.0, "type": "electric_scooter", "bike_id": "14e1a396bcb4b55c8fbf2030ca26b412", "is_reserved": 0, "rental_uris": {"ios": "https://dc.lft.to/lastmile_qr_scan", "android": "https://dc.lft.to/lastmile_qr_scan"}, "is_disabled": 0, "lon": -77.01201816666666, "name": "14e1a396bcb4b55c8fbf2030ca26b412", "fusion_lon": 0.0}, {"lat": 38.928856833333334, "fusion_lat": 0.0, "type": "electric_scooter", "bike_id": "b57d4764dbcdd4cbd3572dc66c867898", "is_reserved": 0, "rental_uris": {"ios": "https://dc.lft.to/lastmile_qr_scan", "android": "https://dc.lft.to/lastmile_qr_scan"}, "is_disabled": 0, "lon": -77.033352, "name": "b57d4764dbcdd4cbd3572dc66c867898", "fusion_lon": 0.0}, {"lat": 38.922291, "fusion_lat": 0.0, "type": "electric_scooter", "bike_id": "32b0225e6ccdd879d8ac7bef299dc31f", "is_reserved": 0, "rental_uris": {"ios": "https://dc.lft.to/lastmile_qr_scan", "android": "https://dc.lft.to/lastmile_qr_scan"}, "is_disabled": 0, "lon": -77.03457383333334, "name": "32b0225e6ccdd879d8ac7bef299dc31f", "fusion_lon": 0.0}, {"lat": 38.897345666666666, "fusion_lat": 0.0, "type": "electric_scooter", "bike_id": "6b7e34f7a5c8fb5d77a5f845f1d2280f", "is_reserved": 0, "rental_uris": {"ios": "https://dc.lft.to/lastmile_qr_scan", "android": "https://dc.lft.to/lastmile_qr_scan"}, "is_disabled": 0, "lon": -77.05473483333333, "name": "6b7e34f7a5c8fb5d77a5f845f1d2280f", "fusion_lon": 0.0}, {"lat": 38.87682783333333, "fusion_lat": 0.0, "type": "electric_scooter", "bike_id": "ddaeec398f4582ce460ae0022b057c81", "is_reserved": 0, "rental_uris": {"ios": "https://dc.lft.to/lastmile_qr_scan", "android": "https://dc.lft.to/lastmile_qr_scan"}, "is_disabled": 0, "lon": -76.99825783333333, "name": "ddaeec398f4582ce460ae0022b057c81", "fusion_lon": 0.0}, {"lat": 38.909755833333335, "fusion_lat": 0.0, "type": "electric_scooter", "bike_id": "f98a82bfd1d43e0e58375631ea95120d", "is_reserved": 0, "rental_uris": {"ios": "https://dc.lft.to/lastmile_qr_scan", "android": "https://dc.lft.to/lastmile_qr_scan"}, "is_disabled": 0, "lon": -77.03366783333334, "name": "f98a82bfd1d43e0e58375631ea95120d", "fusion_lon": 0.0}, {"lat": 39.039933, "fusion_lat": 0.0, "type": "electric_bike", "bike_id": "570d468bafbf156c99d7033951bb61fe", "is_reserved": 0, "rental_uris": {"ios": "https://dc.lft.to/lastmile_qr_scan", "android": "https://dc.lft.to/lastmile_qr_scan"}, "is_disabled": 0, "lon": -76.99928516666667, "name": "570d468bafbf156c99d7033951bb61fe", "fusion_lon": 0.0}, {"lat": 38.9026135, "fusion_lat": 0.0, "type": "electric_scooter", "bike_id": "53fdc73f026ec530ea2d6b9d748f4912", "is_reserved": 0, "rental_uris": {"ios": "https://dc.lft.to/lastmile_qr_scan", "android": "https://dc.lft.to/lastmile_qr_scan"}, "is_disabled": 0, "lon": -76.97550583333333, "name": "53fdc73f026ec530ea2d6b9d748f4912", "fusion_lon": 0.0}, {"lat": 38.9672985, "fusion_lat": 0.0, "type": "electric_scooter", "bike_id": "405c7409b9c1767f6b4e3cc16a20f104", "is_reserved": 0, "rental_uris": {"ios": "https://dc.lft.to/lastmile_qr_scan", "android": "https://dc.lft.to/lastmile_qr_scan"}, "is_disabled": 0, "lon": -77.018748, "name": "405c7409b9c1767f6b4e3cc16a20f104", "fusion_lon": 0.0}, {"lat": 38.885294333333334, "fusion_lat": 0.0, "type": "electric_scooter", "bike_id": "8563dbade3d4a8c8b6dda3166db29baa", "is_reserved": 0, "rental_uris": {"ios": "https://dc.lft.to/lastmile_qr_scan", "android": "https://dc.lft.to/lastmile_qr_scan"}, "is_disabled": 0, "lon": -77.01139633333334, "name": "8563dbade3d4a8c8b6dda3166db29baa", "fusion_lon": 0.0}, {"lat": 38.90591766666667, "fusion_lat": 0.0, "type": "electric_scooter", "bike_id": "e529b5ca52af41a2e3a2c92edc7eebb4", "is_reserved": 0, "rental_uris": {"ios": "https://dc.lft.to/lastmile_qr_scan", "android": "https://dc.lft.to/lastmile_qr_scan"}, "is_disabled": 0, "lon": -77.07010233333334, "name": "e529b5ca52af41a2e3a2c92edc7eebb4", "fusion_lon": 0.0}, {"lat": 38.897406333333336, "fusion_lat": 0.0, "type": "electric_scooter", "bike_id": "270793bdbeb8bdfa4e66d97f64ec2d89", "is_reserved": 0, "rental_uris": {"ios": "https://dc.lft.to/lastmile_qr_scan", "android": "https://dc.lft.to/lastmile_qr_scan"}, "is_disabled": 0, "lon": -77.00762333333333, "name": "270793bdbeb8bdfa4e66d97f64ec2d89", "fusion_lon": 0.0}, {"lat": 38.945995333333336, "fusion_lat": 0.0, "type": "electric_scooter", "bike_id": "bcab45a4635fedbf62ec00fd6654f552", "is_reserved": 0, "rental_uris": {"ios": "https://dc.lft.to/lastmile_qr_scan", "android": "https://dc.lft.to/lastmile_qr_scan"}, "is_disabled": 0, "lon": -77.0703495, "name": "bcab45a4635fedbf62ec00fd6654f552", "fusion_lon": 0.0}, {"lat": 38.907362666666664, "fusion_lat": 0.0, "type": "electric_scooter", "bike_id": "df97ba6bc2cd4791cf6cc750ad340edc", "is_reserved": 0, "rental_uris": {"ios": "https://dc.lft.to/lastmile_qr_scan", "android": "https://dc.lft.to/lastmile_qr_scan"}, "is_disabled": 0, "lon": -76.986264, "name": "df97ba6bc2cd4791cf6cc750ad340edc", "fusion_lon": 0.0}, {"lat": 38.91634, "fusion_lat": 0.0, "type": "electric_scooter", "bike_id": "48ef58bce11b4c55db4d98df1bac35e6", "is_reserved": 0, "rental_uris": {"ios": "https://dc.lft.to/lastmile_qr_scan", "android": "https://dc.lft.to/lastmile_qr_scan"}, "is_disabled": 0, "lon": -77.04815266666667, "name": "48ef58bce11b4c55db4d98df1bac35e6", "fusion_lon": 0.0}, {"lat": 38.9279145, "fusion_lat": 0.0, "type": "electric_scooter", "bike_id": "bace892e6d1ddf4616c773b3b631fb2e", "is_reserved": 0, "rental_uris": {"ios": "https://dc.lft.to/lastmile_qr_scan", "android": "https://dc.lft.to/lastmile_qr_scan"}, "is_disabled": 0, "lon": -77.02675616666667, "name": "bace892e6d1ddf4616c773b3b631fb2e", "fusion_lon": 0.0}, {"lat": 38.874681, "fusion_lat": 0.0, "type": "electric_scooter", "bike_id": "12a74dfa112907115ceb4ebb3f88eee6", "is_reserved": 0, "rental_uris": {"ios": "https://dc.lft.to/lastmile_qr_scan", "android": "https://dc.lft.to/lastmile_qr_scan"}, "is_disabled": 0, "lon": -77.00565633333333, "name": "12a74dfa112907115ceb4ebb3f88eee6", "fusion_lon": 0.0}, {"lat": 38.8577325, "fusion_lat": 0.0, "type": "electric_bike", "bike_id": "dad8c9e987789d6fed3cb7cc64338bf5", "is_reserved": 0, "rental_uris": {"ios": "https://dc.lft.to/lastmile_qr_scan", "android": "https://dc.lft.to/lastmile_qr_scan"}, "is_disabled": 0, "lon": -76.98761216666666, "name": "dad8c9e987789d6fed3cb7cc64338bf5", "fusion_lon": 0.0}, {"lat": 38.9069135, "fusion_lat": 0.0, "type": "electric_scooter", "bike_id": "389aeaa004c446c854530415a5a4dbfc", "is_reserved": 0, "rental_uris": {"ios": "https://dc.lft.to/lastmile_qr_scan", "android": "https://dc.lft.to/lastmile_qr_scan"}, "is_disabled": 0, "lon": -77.06511783333333, "name": "389aeaa004c446c854530415a5a4dbfc", "fusion_lon": 0.0}, {"lat": 38.929773, "fusion_lat": 0.0, "type": "electric_scooter", "bike_id": "ac62effcbe49773e6b52377ce6fdb6d4", "is_reserved": 0, "rental_uris": {"ios": "https://dc.lft.to/lastmile_qr_scan", "android": "https://dc.lft.to/lastmile_qr_scan"}, "is_disabled": 0, "lon": -77.02952716666667, "name": "ac62effcbe49773e6b52377ce6fdb6d4", "fusion_lon": 0.0}, {"lat": 38.922783, "fusion_lat": 0.0, "type": "electric_scooter", "bike_id": "4ff02450188ab16f8eab897779a1db5c", "is_reserved": 0, "rental_uris": {"ios": "https://dc.lft.to/lastmile_qr_scan", "android": "https://dc.lft.to/lastmile_qr_scan"}, "is_disabled": 0, "lon": -77.022468, "name": "4ff02450188ab16f8eab897779a1db5c", "fusion_lon": 0.0}, {"lat": 38.902503833333334, "fusion_lat": 0.0, "type": "electric_scooter", "bike_id": "f2764ef1eea9237f87df3abc38ae8eea", "is_reserved": 0, "rental_uris": {"ios": "https://dc.lft.to/lastmile_qr_scan", "android": "https://dc.lft.to/lastmile_qr_scan"}, "is_disabled": 0, "lon": -76.974137, "name": "f2764ef1eea9237f87df3abc38ae8eea", "fusion_lon": 0.0}, {"lat": 38.930186666666664, "fusion_lat": 0.0, "type": "electric_scooter", "bike_id": "c18b4f8e899dac8e4b5efbc27eecfc95", "is_reserved": 0, "rental_uris": {"ios": "https://dc.lft.to/lastmile_qr_scan", "android": "https://dc.lft.to/lastmile_qr_scan"}, "is_disabled": 0, "lon": -77.06091116666667, "name": "c18b4f8e899dac8e4b5efbc27eecfc95", "fusion_lon": 0.0}, {"lat": 38.955331, "fusion_lat": 0.0, "type": "electric_scooter", "bike_id": "478527e5fc63d793fd1dcbf38bded80b", "is_reserved": 0, "rental_uris": {"ios": "https://dc.lft.to/lastmile_qr_scan", "android": "https://dc.lft.to/lastmile_qr_scan"}, "is_disabled": 0, "lon": -77.027789, "name": "478527e5fc63d793fd1dcbf38bded80b", "fusion_lon": 0.0}, {"lat": 38.905363666666666, "fusion_lat": 0.0, "type": "electric_scooter", "bike_id": "5f33ade6a23f025e7a576765008f256d", "is_reserved": 0, "rental_uris": {"ios": "https://dc.lft.to/lastmile_qr_scan", "android": "https://dc.lft.to/lastmile_qr_scan"}, "is_disabled": 0, "lon": -77.03826216666667, "name": "5f33ade6a23f025e7a576765008f256d", "fusion_lon": 0.0}, {"lat": 38.838144166666666, "fusion_lat": 0.0, "type": "electric_bike", "bike_id": "c3e7c5a69c5477c955bb04e2787cf219", "is_reserved": 0, "rental_uris": {"ios": "https://dc.lft.to/lastmile_qr_scan", "android": "https://dc.lft.to/lastmile_qr_scan"}, "is_disabled": 0, "lon": -77.09521833333334, "name": "c3e7c5a69c5477c955bb04e2787cf219", "fusion_lon": 0.0}, {"lat": 38.88061716666667, "fusion_lat": 0.0, "type": "electric_bike", "bike_id": "e77f5880ff9e30f7dbd950a26a6c8a17", "is_reserved": 0, "rental_uris": {"ios": "https://dc.lft.to/lastmile_qr_scan", "android": "https://dc.lft.to/lastmile_qr_scan"}, "is_disabled": 0, "lon": -76.9623545, "name": "e77f5880ff9e30f7dbd950a26a6c8a17", "fusion_lon": 0.0}, {"lat": 38.86361633333333, "fusion_lat": 0.0, "type": "electric_scooter", "bike_id": "a015e00348f462f8868e2d3fc0e291fc", "is_reserved": 0, "rental_uris": {"ios": "https://dc.lft.to/lastmile_qr_scan", "android": "https://dc.lft.to/lastmile_qr_scan"}, "is_disabled": 0, "lon": -76.98701566666666, "name": "a015e00348f462f8868e2d3fc0e291fc", "fusion_lon": 0.0}, {"lat": 38.906107, "fusion_lat": 0.0, "type": "electric_scooter", "bike_id": "5ebdd4dd0b1a8b4a413ace87468fa61f", "is_reserved": 0, "rental_uris": {"ios": "https://dc.lft.to/lastmile_qr_scan", "android": "https://dc.lft.to/lastmile_qr_scan"}, "is_disabled": 0, "lon": -77.056912, "name": "5ebdd4dd0b1a8b4a413ace87468fa61f", "fusion_lon": 0.0}, {"lat": 38.898362166666665, "fusion_lat": 0.0, "type": "electric_scooter", "bike_id": "c1079c83b82ec1b96b43e2d766fcd6af", "is_reserved": 0, "rental_uris": {"ios": "https://dc.lft.to/lastmile_qr_scan", "android": "https://dc.lft.to/lastmile_qr_scan"}, "is_disabled": 0, "lon": -77.033329, "name": "c1079c83b82ec1b96b43e2d766fcd6af", "fusion_lon": 0.0}, {"lat": 38.923998, "fusion_lat": 0.0, "type": "electric_scooter", "bike_id": "c72df23885b34cadbd9680395aea4a20", "is_reserved": 0, "rental_uris": {"ios": "https://dc.lft.to/lastmile_qr_scan", "android": "https://dc.lft.to/lastmile_qr_scan"}, "is_disabled": 0, "lon": -77.02152133333334, "name": "c72df23885b34cadbd9680395aea4a20", "fusion_lon": 0.0}, {"lat": 38.92919466666667, "fusion_lat": 0.0, "type": "electric_scooter", "bike_id": "66d66abb8f81ec13bcaa6d8318c19eba", "is_reserved": 0, "rental_uris": {"ios": "https://dc.lft.to/lastmile_qr_scan", "android": "https://dc.lft.to/lastmile_qr_scan"}, "is_disabled": 0, "lon": -77.032845, "name": "66d66abb8f81ec13bcaa6d8318c19eba", "fusion_lon": 0.0}, {"lat": 38.904799833333335, "fusion_lat": 0.0, "type": "electric_scooter", "bike_id": "b71354eec1f6cd52eccf9aa5a3510776", "is_reserved": 0, "rental_uris": {"ios": "https://dc.lft.to/lastmile_qr_scan", "android": "https://dc.lft.to/lastmile_qr_scan"}, "is_disabled": 0, "lon": -77.038233, "name": "b71354eec1f6cd52eccf9aa5a3510776", "fusion_lon": 0.0}, {"lat": 38.94797466666667, "fusion_lat": 0.0, "type": "electric_scooter", "bike_id": "507b0f1858be4b7de428aabd4c890d8e", "is_reserved": 0, "rental_uris": {"ios": "https://dc.lft.to/lastmile_qr_scan", "android": "https://dc.lft.to/lastmile_qr_scan"}, "is_disabled": 0, "lon": -77.02135466666667, "name": "507b0f1858be4b7de428aabd4c890d8e", "fusion_lon": 0.0}, {"lat": 38.91018666666667, "fusion_lat": 0.0, "type": "electric_bike", "bike_id": "e0867b3a1e7cc3088327490e27e9fb64", "is_reserved": 0, "rental_uris": {"ios": "https://dc.lft.to/lastmile_qr_scan", "android": "https://dc.lft.to/lastmile_qr_scan"}, "is_disabled": 0, "lon": -77.22799266666667, "name": "e0867b3a1e7cc3088327490e27e9fb64", "fusion_lon": 0.0}, {"lat": 38.872901166666665, "fusion_lat": 0.0, "type": "electric_scooter", "bike_id": "1f8a76ab83746e6d76376567cc4d41ad", "is_reserved": 0, "rental_uris": {"ios": "https://dc.lft.to/lastmile_qr_scan", "android": "https://dc.lft.to/lastmile_qr_scan"}, "is_disabled": 0, "lon": -77.00987116666667, "name": "1f8a76ab83746e6d76376567cc4d41ad", "fusion_lon": 0.0}, {"lat": 38.869553333333336, "fusion_lat": 0.0, "type": "electric_scooter", "bike_id": "e45ca481a06761942ff33bf56a7d7e44", "is_reserved": 0, "rental_uris": {"ios": "https://dc.lft.to/lastmile_qr_scan", "android": "https://dc.lft.to/lastmile_qr_scan"}, "is_disabled": 0, "lon": -76.981751, "name": "e45ca481a06761942ff33bf56a7d7e44", "fusion_lon": 0.0}, {"lat": 38.915248166666665, "fusion_lat": 0.0, "type": "electric_scooter", "bike_id": "6f28fffbaec20234e6fc7d69f580875a", "is_reserved": 0, "rental_uris": {"ios": "https://dc.lft.to/lastmile_qr_scan", "android": "https://dc.lft.to/lastmile_qr_scan"}, "is_disabled": 0, "lon": -77.03180866666666, "name": "6f28fffbaec20234e6fc7d69f580875a", "fusion_lon": 0.0}, {"lat": 38.872801833333334, "fusion_lat": 0.0, "type": "electric_bike", "bike_id": "bd9b6fdcaffedf258cd5c6bc6f3b6cfc", "is_reserved": 0, "rental_uris": {"ios": "https://dc.lft.to/lastmile_qr_scan", "android": "https://dc.lft.to/lastmile_qr_scan"}, "is_disabled": 0, "lon": -77.23320266666667, "name": "bd9b6fdcaffedf258cd5c6bc6f3b6cfc", "fusion_lon": 0.0}, {"lat": 38.910259833333335, "fusion_lat": 0.0, "type": "electric_scooter", "bike_id": "1f029f3924f27725435ba5aefaf80104", "is_reserved": 0, "rental_uris": {"ios": "https://dc.lft.to/lastmile_qr_scan", "android": "https://dc.lft.to/lastmile_qr_scan"}, "is_disabled": 0, "lon": -76.98618, "name": "1f029f3924f27725435ba5aefaf80104", "fusion_lon": 0.0}, {"lat": 38.90099766666667, "fusion_lat": 0.0, "type": "electric_scooter", "bike_id": "e5d85250e79532057c27fddcb3484fc0", "is_reserved": 0, "rental_uris": {"ios": "https://dc.lft.to/lastmile_qr_scan", "android": "https://dc.lft.to/lastmile_qr_scan"}, "is_disabled": 0, "lon": -77.05786733333333, "name": "e5d85250e79532057c27fddcb3484fc0", "fusion_lon": 0.0}, {"lat": 38.91488016666667, "fusion_lat": 0.0, "type": "electric_scooter", "bike_id": "1f0c4de4c82d8b5facc6b3041ae95691", "is_reserved": 0, "rental_uris": {"ios": "https://dc.lft.to/lastmile_qr_scan", "android": "https://dc.lft.to/lastmile_qr_scan"}, "is_disabled": 0, "lon": -77.041347, "name": "1f0c4de4c82d8b5facc6b3041ae95691", "fusion_lon": 0.0}, {"lat": 38.8710375, "fusion_lat": 0.0, "type": "electric_scooter", "bike_id": "b24acd07c7d218fec72664fe42b76e07", "is_reserved": 0, "rental_uris": {"ios": "https://dc.lft.to/lastmile_qr_scan", "android": "https://dc.lft.to/lastmile_qr_scan"}, "is_disabled": 0, "lon": -76.965725, "name": "b24acd07c7d218fec72664fe42b76e07", "fusion_lon": 0.0}, {"lat": 38.87427916666667, "fusion_lat": 0.0, "type": "electric_scooter", "bike_id": "545c243041a1034d236156fe1e6e1287", "is_reserved": 0, "rental_uris": {"ios": "https://dc.lft.to/lastmile_qr_scan", "android": "https://dc.lft.to/lastmile_qr_scan"}, "is_disabled": 0, "lon": -77.00077733333333, "name": "545c243041a1034d236156fe1e6e1287", "fusion_lon": 0.0}, {"lat": 38.897412833333334, "fusion_lat": 0.0, "type": "electric_scooter", "bike_id": "51b9397b94f60c726b49e99d9a7045fa", "is_reserved": 0, "rental_uris": {"ios": "https://dc.lft.to/lastmile_qr_scan", "android": "https://dc.lft.to/lastmile_qr_scan"}, "is_disabled": 0, "lon": -77.00738716666666, "name": "51b9397b94f60c726b49e99d9a7045fa", "fusion_lon": 0.0}, {"lat": 38.90498633333333, "fusion_lat": 0.0, "type": "electric_scooter", "bike_id": "5f5f6e5c3bb3d26129f6c52d5d0e24af", "is_reserved": 0, "rental_uris": {"ios": "https://dc.lft.to/lastmile_qr_scan", "android": "https://dc.lft.to/lastmile_qr_scan"}, "is_disabled": 0, "lon": -77.0177855, "name": "5f5f6e5c3bb3d26129f6c52d5d0e24af", "fusion_lon": 0.0}, {"lat": 38.921587333333335, "fusion_lat": 0.0, "type": "electric_scooter", "bike_id": "f4f83e0b0211014f08f78772cbd40fe1", "is_reserved": 0, "rental_uris": {"ios": "https://dc.lft.to/lastmile_qr_scan", "android": "https://dc.lft.to/lastmile_qr_scan"}, "is_disabled": 0, "lon": -77.03375233333334, "name": "f4f83e0b0211014f08f78772cbd40fe1", "fusion_lon": 0.0}, {"lat": 39.052851833333335, "fusion_lat": 0.0, "type": "electric_bike", "bike_id": "fe2a52d1b8b0c37a4f8297e0d19eb2be", "is_reserved": 0, "rental_uris": {"ios": "https://dc.lft.to/lastmile_qr_scan", "android": "https://dc.lft.to/lastmile_qr_scan"}, "is_disabled": 0, "lon": -77.08067, "name": "fe2a52d1b8b0c37a4f8297e0d19eb2be", "fusion_lon": 0.0}, {"lat": 38.947971333333335, "fusion_lat": 0.0, "type": "electric_scooter", "bike_id": "11b85edfe73a05af29d4cc9817b41b72", "is_reserved": 0, "rental_uris": {"ios": "https://dc.lft.to/lastmile_qr_scan", "android": "https://dc.lft.to/lastmile_qr_scan"}, "is_disabled": 0, "lon": -77.0801885, "name": "11b85edfe73a05af29d4cc9817b41b72", "fusion_lon": 0.0}, {"lat": 38.901352333333335, "fusion_lat": 0.0, "type": "electric_scooter", "bike_id": "8d56702713dc099de09fd92ffeaa9177", "is_reserved": 0, "rental_uris": {"ios": "https://dc.lft.to/lastmile_qr_scan", "android": "https://dc.lft.to/lastmile_qr_scan"}, "is_disabled": 0, "lon": -77.041464, "name": "8d56702713dc099de09fd92ffeaa9177", "fusion_lon": 0.0}, {"lat": 38.914743, "fusion_lat": 0.0, "type": "electric_scooter", "bike_id": "0af8d8a0006e9b97a71d11bf803c1416", "is_reserved": 0, "rental_uris": {"ios": "https://dc.lft.to/lastmile_qr_scan", "android": "https://dc.lft.to/lastmile_qr_scan"}, "is_disabled": 0, "lon": -76.9841015, "name": "0af8d8a0006e9b97a71d11bf803c1416", "fusion_lon": 0.0}, {"lat": 38.93054016666667, "fusion_lat": 0.0, "type": "electric_scooter", "bike_id": "7400c62a1788cb413af03e40cb751a5f", "is_reserved": 0, "rental_uris": {"ios": "https://dc.lft.to/lastmile_qr_scan", "android": "https://dc.lft.to/lastmile_qr_scan"}, "is_disabled": 0, "lon": -77.03808516666666, "name": "7400c62a1788cb413af03e40cb751a5f", "fusion_lon": 0.0}, {"lat": 38.862177333333335, "fusion_lat": 0.0, "type": "electric_scooter", "bike_id": "6045ea74e425a567225090bbc9235095", "is_reserved": 0, "rental_uris": {"ios": "https://dc.lft.to/lastmile_qr_scan", "android": "https://dc.lft.to/lastmile_qr_scan"}, "is_disabled": 0, "lon": -76.994803, "name": "6045ea74e425a567225090bbc9235095", "fusion_lon": 0.0}, {"lat": 38.87828616666667, "fusion_lat": 0.0, "type": "electric_scooter", "bike_id": "149be0d9ddd1335f98afc42d2c9f3edb", "is_reserved": 0, "rental_uris": {"ios": "https://dc.lft.to/lastmile_qr_scan", "android": "https://dc.lft.to/lastmile_qr_scan"}, "is_disabled": 0, "lon": -76.96312983333334, "name": "149be0d9ddd1335f98afc42d2c9f3edb", "fusion_lon": 0.0}, {"lat": 38.91539, "fusion_lat": 0.0, "type": "electric_scooter", "bike_id": "265799020336be1bed2e0eeafa2a28b0", "is_reserved": 0, "rental_uris": {"ios": "https://dc.lft.to/lastmile_qr_scan", "android": "https://dc.lft.to/lastmile_qr_scan"}, "is_disabled": 0, "lon": -76.983701, "name": "265799020336be1bed2e0eeafa2a28b0", "fusion_lon": 0.0}, {"lat": 38.86699766666667, "fusion_lat": 0.0, "type": "electric_scooter", "bike_id": "f4f25ec3d2c533b864915d1db0d6cb83", "is_reserved": 0, "rental_uris": {"ios": "https://dc.lft.to/lastmile_qr_scan", "android": "https://dc.lft.to/lastmile_qr_scan"}, "is_disabled": 0, "lon": -76.9871555, "name": "f4f25ec3d2c533b864915d1db0d6cb83", "fusion_lon": 0.0}, {"lat": 38.94093633333333, "fusion_lat": 0.0, "type": "electric_scooter", "bike_id": "1ad53e4907f8ccfafabff5c618430b5f", "is_reserved": 0, "rental_uris": {"ios": "https://dc.lft.to/lastmile_qr_scan", "android": "https://dc.lft.to/lastmile_qr_scan"}, "is_disabled": 0, "lon": -77.02717766666666, "name": "1ad53e4907f8ccfafabff5c618430b5f", "fusion_lon": 0.0}, {"lat": 38.90368766666667, "fusion_lat": 0.0, "type": "electric_scooter", "bike_id": "e51a9d8e4a125c64c7f24e3b6398083e", "is_reserved": 0, "rental_uris": {"ios": "https://dc.lft.to/lastmile_qr_scan", "android": "https://dc.lft.to/lastmile_qr_scan"}, "is_disabled": 0, "lon": -77.04472333333334, "name": "e51a9d8e4a125c64c7f24e3b6398083e", "fusion_lon": 0.0}, {"lat": 38.90021983333333, "fusion_lat": 0.0, "type": "electric_scooter", "bike_id": "070a820de36d272f03237bb719354321", "is_reserved": 0, "rental_uris": {"ios": "https://dc.lft.to/lastmile_qr_scan", "android": "https://dc.lft.to/lastmile_qr_scan"}, "is_disabled": 0, "lon": -77.010225, "name": "070a820de36d272f03237bb719354321", "fusion_lon": 0.0}, {"lat": 38.905037, "fusion_lat": 0.0, "type": "electric_scooter", "bike_id": "975fed6a67489d3ce98173100165c72c", "is_reserved": 0, "rental_uris": {"ios": "https://dc.lft.to/lastmile_qr_scan", "android": "https://dc.lft.to/lastmile_qr_scan"}, "is_disabled": 0, "lon": -77.060162, "name": "975fed6a67489d3ce98173100165c72c", "fusion_lon": 0.0}, {"lat": 38.920401, "fusion_lat": 0.0, "type": "electric_scooter", "bike_id": "71e51cee9308294f2329159440520284", "is_reserved": 0, "rental_uris": {"ios": "https://dc.lft.to/lastmile_qr_scan", "android": "https://dc.lft.to/lastmile_qr_scan"}, "is_disabled": 0, "lon": -77.0260295, "name": "71e51cee9308294f2329159440520284", "fusion_lon": 0.0}, {"lat": 38.909834833333335, "fusion_lat": 0.0, "type": "electric_scooter", "bike_id": "e2af484add50c90ce16a8ebab145cdb8", "is_reserved": 0, "rental_uris": {"ios": "https://dc.lft.to/lastmile_qr_scan", "android": "https://dc.lft.to/lastmile_qr_scan"}, "is_disabled": 0, "lon": -77.03380716666666, "name": "e2af484add50c90ce16a8ebab145cdb8", "fusion_lon": 0.0}, {"lat": 38.934930333333334, "fusion_lat": 0.0, "type": "electric_scooter", "bike_id": "7858f60e652b11bcc2ff9d411a30035c", "is_reserved": 0, "rental_uris": {"ios": "https://dc.lft.to/lastmile_qr_scan", "android": "https://dc.lft.to/lastmile_qr_scan"}, "is_disabled": 0, "lon": -77.0726065, "name": "7858f60e652b11bcc2ff9d411a30035c", "fusion_lon": 0.0}, {"lat": 38.89248966666667, "fusion_lat": 0.0, "type": "electric_bike", "bike_id": "c44508942c070350cdc2efed9d9c9fe1", "is_reserved": 0, "rental_uris": {"ios": "https://dc.lft.to/lastmile_qr_scan", "android": "https://dc.lft.to/lastmile_qr_scan"}, "is_disabled": 0, "lon": -76.9854635, "name": "c44508942c070350cdc2efed9d9c9fe1", "fusion_lon": 0.0}, {"lat": 38.919257, "fusion_lat": 0.0, "type": "electric_scooter", "bike_id": "7f7ec38f8cf054183ffec0dbe1d33fbb", "is_reserved": 0, "rental_uris": {"ios": "https://dc.lft.to/lastmile_qr_scan", "android": "https://dc.lft.to/lastmile_qr_scan"}, "is_disabled": 0, "lon": -77.03180666666667, "name": "7f7ec38f8cf054183ffec0dbe1d33fbb", "fusion_lon": 0.0}, {"lat": 38.85509183333333, "fusion_lat": 0.0, "type": "electric_bike", "bike_id": "b90ce7d793684ed1b4d6d96a811216f8", "is_reserved": 0, "rental_uris": {"ios": "https://dc.lft.to/lastmile_qr_scan", "android": "https://dc.lft.to/lastmile_qr_scan"}, "is_disabled": 0, "lon": -76.98398316666666, "name": "b90ce7d793684ed1b4d6d96a811216f8", "fusion_lon": 0.0}, {"lat": 38.893155, "fusion_lat": 0.0, "type": "electric_scooter", "bike_id": "76418110a465fcae36d53c482cf6fe92", "is_reserved": 0, "rental_uris": {"ios": "https://dc.lft.to/lastmile_qr_scan", "android": "https://dc.lft.to/lastmile_qr_scan"}, "is_disabled": 0, "lon": -77.01219683333333, "name": "76418110a465fcae36d53c482cf6fe92", "fusion_lon": 0.0}, {"lat": 38.900419, "fusion_lat": 0.0, "type": "electric_scooter", "bike_id": "bafc568032f8f7a6856c9c786bc2c9b8", "is_reserved": 0, "rental_uris": {"ios": "https://dc.lft.to/lastmile_qr_scan", "android": "https://dc.lft.to/lastmile_qr_scan"}, "is_disabled": 0, "lon": -76.9191955, "name": "bafc568032f8f7a6856c9c786bc2c9b8", "fusion_lon": 0.0}, {"lat": 38.87483533333333, "fusion_lat": 0.0, "type": "electric_scooter", "bike_id": "a79e10182985d406cb4801b5fc8b0cdc", "is_reserved": 0, "rental_uris": {"ios": "https://dc.lft.to/lastmile_qr_scan", "android": "https://dc.lft.to/lastmile_qr_scan"}, "is_disabled": 0, "lon": -77.00942033333334, "name": "a79e10182985d406cb4801b5fc8b0cdc", "fusion_lon": 0.0}, {"lat": 38.849114166666666, "fusion_lat": 0.0, "type": "electric_bike", "bike_id": "aa88e1bead48bd36ca58948dd810a221", "is_reserved": 0, "rental_uris": {"ios": "https://dc.lft.to/lastmile_qr_scan", "android": "https://dc.lft.to/lastmile_qr_scan"}, "is_disabled": 0, "lon": -77.07791966666667, "name": "aa88e1bead48bd36ca58948dd810a221", "fusion_lon": 0.0}, {"lat": 38.94474983333333, "fusion_lat": 0.0, "type": "electric_bike", "bike_id": "ac09a207bbdffcfee8b876ae5bec37c5", "is_reserved": 0, "rental_uris": {"ios": "https://dc.lft.to/lastmile_qr_scan", "android": "https://dc.lft.to/lastmile_qr_scan"}, "is_disabled": 0, "lon": -76.986904, "name": "ac09a207bbdffcfee8b876ae5bec37c5", "fusion_lon": 0.0}, {"lat": 38.916097666666666, "fusion_lat": 0.0, "type": "electric_scooter", "bike_id": "0a91bc57d59a5d73782f5563738b9294", "is_reserved": 0, "rental_uris": {"ios": "https://dc.lft.to/lastmile_qr_scan", "android": "https://dc.lft.to/lastmile_qr_scan"}, "is_disabled": 0, "lon": -77.03178216666667, "name": "0a91bc57d59a5d73782f5563738b9294", "fusion_lon": 0.0}, {"lat": 38.9041525, "fusion_lat": 0.0, "type": "electric_scooter", "bike_id": "35915333a8a5da15ee99cf3a902630b8", "is_reserved": 0, "rental_uris": {"ios": "https://dc.lft.to/lastmile_qr_scan", "android": "https://dc.lft.to/lastmile_qr_scan"}, "is_disabled": 0, "lon": -76.97331866666667, "name": "35915333a8a5da15ee99cf3a902630b8", "fusion_lon": 0.0}, {"lat": 38.91031183333333, "fusion_lat": 0.0, "type": "electric_scooter", "bike_id": "408e9d416dac54c1386de192adc6385d", "is_reserved": 0, "rental_uris": {"ios": "https://dc.lft.to/lastmile_qr_scan", "android": "https://dc.lft.to/lastmile_qr_scan"}, "is_disabled": 0, "lon": -76.98669983333333, "name": "408e9d416dac54c1386de192adc6385d", "fusion_lon": 0.0}, {"lat": 38.89850416666667, "fusion_lat": 0.0, "type": "electric_scooter", "bike_id": "e5ff3111d963d30cdc1d342de9767345", "is_reserved": 0, "rental_uris": {"ios": "https://dc.lft.to/lastmile_qr_scan", "android": "https://dc.lft.to/lastmile_qr_scan"}, "is_disabled": 0, "lon": -77.0220125, "name": "e5ff3111d963d30cdc1d342de9767345", "fusion_lon": 0.0}, {"lat": 38.90513116666666, "fusion_lat": 0.0, "type": "electric_scooter", "bike_id": "16256093130b11c4e1c8c1eae71df2b3", "is_reserved": 0, "rental_uris": {"ios": "https://dc.lft.to/lastmile_qr_scan", "android": "https://dc.lft.to/lastmile_qr_scan"}, "is_disabled": 0, "lon": -77.00137183333334, "name": "16256093130b11c4e1c8c1eae71df2b3", "fusion_lon": 0.0}, {"lat": 38.9039275, "fusion_lat": 0.0, "type": "electric_scooter", "bike_id": "092e769b70041f2292b4921d40ca4757", "is_reserved": 0, "rental_uris": {"ios": "https://dc.lft.to/lastmile_qr_scan", "android": "https://dc.lft.to/lastmile_qr_scan"}, "is_disabled": 0, "lon": -77.067822, "name": "092e769b70041f2292b4921d40ca4757", "fusion_lon": 0.0}, {"lat": 38.9254665, "fusion_lat": 0.0, "type": "electric_scooter", "bike_id": "2af2fe0b64641299397e4d03c67f2700", "is_reserved": 0, "rental_uris": {"ios": "https://dc.lft.to/lastmile_qr_scan", "android": "https://dc.lft.to/lastmile_qr_scan"}, "is_disabled": 0, "lon": -77.032959, "name": "2af2fe0b64641299397e4d03c67f2700", "fusion_lon": 0.0}, {"lat": 38.920808666666666, "fusion_lat": 0.0, "type": "electric_scooter", "bike_id": "e0e16fa45d53cf1cef27748bc4aa2bb9", "is_reserved": 0, "rental_uris": {"ios": "https://dc.lft.to/lastmile_qr_scan", "android": "https://dc.lft.to/lastmile_qr_scan"}, "is_disabled": 0, "lon": -77.03882533333334, "name": "e0e16fa45d53cf1cef27748bc4aa2bb9", "fusion_lon": 0.0}, {"lat": 38.86519666666667, "fusion_lat": 0.0, "type": "electric_scooter", "bike_id": "24e487b423bb6377db6c6d91aac9ec06", "is_reserved": 0, "rental_uris": {"ios": "https://dc.lft.to/lastmile_qr_scan", "android": "https://dc.lft.to/lastmile_qr_scan"}, "is_disabled": 0, "lon": -76.97344966666667, "name": "24e487b423bb6377db6c6d91aac9ec06", "fusion_lon": 0.0}, {"lat": 39.0210295, "fusion_lat": 0.0, "type": "electric_bike", "bike_id": "3f795508955e5734d03d6852c536f8ac", "is_reserved": 0, "rental_uris": {"ios": "https://dc.lft.to/lastmile_qr_scan", "android": "https://dc.lft.to/lastmile_qr_scan"}, "is_disabled": 0, "lon": -77.01240483333333, "name": "3f795508955e5734d03d6852c536f8ac", "fusion_lon": 0.0}, {"lat": 38.86242333333333, "fusion_lat": 0.0, "type": "electric_scooter", "bike_id": "0f6a5105c80d762093be2e0274e2db25", "is_reserved": 0, "rental_uris": {"ios": "https://dc.lft.to/lastmile_qr_scan", "android": "https://dc.lft.to/lastmile_qr_scan"}, "is_disabled": 0, "lon": -76.99494983333334, "name": "0f6a5105c80d762093be2e0274e2db25", "fusion_lon": 0.0}, {"lat": 38.9004265, "fusion_lat": 0.0, "type": "electric_scooter", "bike_id": "92deb85b653eb43d22f8d6b56ca101b0", "is_reserved": 0, "rental_uris": {"ios": "https://dc.lft.to/lastmile_qr_scan", "android": "https://dc.lft.to/lastmile_qr_scan"}, "is_disabled": 0, "lon": -77.01218633333333, "name": "92deb85b653eb43d22f8d6b56ca101b0", "fusion_lon": 0.0}, {"lat": 38.866595833333335, "fusion_lat": 0.0, "type": "electric_scooter", "bike_id": "191e19143cc6e8be9e2c1d10e6b9c3a3", "is_reserved": 0, "rental_uris": {"ios": "https://dc.lft.to/lastmile_qr_scan", "android": "https://dc.lft.to/lastmile_qr_scan"}, "is_disabled": 0, "lon": -76.98884033333333, "name": "191e19143cc6e8be9e2c1d10e6b9c3a3", "fusion_lon": 0.0}, {"lat": 38.90540333333333, "fusion_lat": 0.0, "type": "electric_scooter", "bike_id": "afac5de9bc523fcc3d00aac0007a32bf", "is_reserved": 0, "rental_uris": {"ios": "https://dc.lft.to/lastmile_qr_scan", "android": "https://dc.lft.to/lastmile_qr_scan"}, "is_disabled": 0, "lon": -76.9811275, "name": "afac5de9bc523fcc3d00aac0007a32bf", "fusion_lon": 0.0}, {"lat": 38.8972435, "fusion_lat": 0.0, "type": "electric_scooter", "bike_id": "cca199e078359c6052548863f3594534", "is_reserved": 0, "rental_uris": {"ios": "https://dc.lft.to/lastmile_qr_scan", "android": "https://dc.lft.to/lastmile_qr_scan"}, "is_disabled": 0, "lon": -76.98359816666667, "name": "cca199e078359c6052548863f3594534", "fusion_lon": 0.0}, {"lat": 38.90441466666667, "fusion_lat": 0.0, "type": "electric_scooter", "bike_id": "07bdbd118fe1a0ca8fcc5f3a3f709e4f", "is_reserved": 0, "rental_uris": {"ios": "https://dc.lft.to/lastmile_qr_scan", "android": "https://dc.lft.to/lastmile_qr_scan"}, "is_disabled": 0, "lon": -77.03441383333333, "name": "07bdbd118fe1a0ca8fcc5f3a3f709e4f", "fusion_lon": 0.0}, {"lat": 38.862431, "fusion_lat": 0.0, "type": "electric_scooter", "bike_id": "bb633dbde4437ae1ec73134322d46d7e", "is_reserved": 0, "rental_uris": {"ios": "https://dc.lft.to/lastmile_qr_scan", "android": "https://dc.lft.to/lastmile_qr_scan"}, "is_disabled": 0, "lon": -76.99495466666667, "name": "bb633dbde4437ae1ec73134322d46d7e", "fusion_lon": 0.0}, {"lat": 38.924595833333335, "fusion_lat": 0.0, "type": "electric_scooter", "bike_id": "4316c7f8ef11944d586f7f2008dd813a", "is_reserved": 0, "rental_uris": {"ios": "https://dc.lft.to/lastmile_qr_scan", "android": "https://dc.lft.to/lastmile_qr_scan"}, "is_disabled": 0, "lon": -77.04116766666667, "name": "4316c7f8ef11944d586f7f2008dd813a", "fusion_lon": 0.0}, {"lat": 38.8961085, "fusion_lat": 0.0, "type": "electric_scooter", "bike_id": "7668b6b4014bc6f83d7f13fc54d0166a", "is_reserved": 0, "rental_uris": {"ios": "https://dc.lft.to/lastmile_qr_scan", "android": "https://dc.lft.to/lastmile_qr_scan"}, "is_disabled": 0, "lon": -77.031258, "name": "7668b6b4014bc6f83d7f13fc54d0166a", "fusion_lon": 0.0}, {"lat": 38.89751183333333, "fusion_lat": 0.0, "type": "electric_scooter", "bike_id": "a14a4329890dfe7c254bd0d46d641868", "is_reserved": 0, "rental_uris": {"ios": "https://dc.lft.to/lastmile_qr_scan", "android": "https://dc.lft.to/lastmile_qr_scan"}, "is_disabled": 0, "lon": -76.925931, "name": "a14a4329890dfe7c254bd0d46d641868", "fusion_lon": 0.0}, {"lat": 38.918178166666664, "fusion_lat": 0.0, "type": "electric_scooter", "bike_id": "da1dedcc136f604138e1389b5a8502e9", "is_reserved": 0, "rental_uris": {"ios": "https://dc.lft.to/lastmile_qr_scan", "android": "https://dc.lft.to/lastmile_qr_scan"}, "is_disabled": 0, "lon": -77.04560166666667, "name": "da1dedcc136f604138e1389b5a8502e9", "fusion_lon": 0.0}, {"lat": 38.88503683333333, "fusion_lat": 0.0, "type": "electric_scooter", "bike_id": "39e8fc856460f5986027428f9dd0cf8f", "is_reserved": 0, "rental_uris": {"ios": "https://dc.lft.to/lastmile_qr_scan", "android": "https://dc.lft.to/lastmile_qr_scan"}, "is_disabled": 0, "lon": -77.01553066666666, "name": "39e8fc856460f5986027428f9dd0cf8f", "fusion_lon": 0.0}, {"lat": 38.92787966666667, "fusion_lat": 0.0, "type": "electric_scooter", "bike_id": "c8303fe9f19a36a7324366e3dfdef4bd", "is_reserved": 0, "rental_uris": {"ios": "https://dc.lft.to/lastmile_qr_scan", "android": "https://dc.lft.to/lastmile_qr_scan"}, "is_disabled": 0, "lon": -77.02673233333333, "name": "c8303fe9f19a36a7324366e3dfdef4bd", "fusion_lon": 0.0}, {"lat": 38.8320795, "fusion_lat": 0.0, "type": "electric_scooter", "bike_id": "dc9dd4e4632d53992310488645287bd3", "is_reserved": 0, "rental_uris": {"ios": "https://dc.lft.to/lastmile_qr_scan", "android": "https://dc.lft.to/lastmile_qr_scan"}, "is_disabled": 0, "lon": -77.00796333333334, "name": "dc9dd4e4632d53992310488645287bd3", "fusion_lon": 0.0}, {"lat": 38.87641933333333, "fusion_lat": 0.0, "type": "electric_scooter", "bike_id": "87a35ede452210c4bec09e7c3d0c113e", "is_reserved": 0, "rental_uris": {"ios": "https://dc.lft.to/lastmile_qr_scan", "android": "https://dc.lft.to/lastmile_qr_scan"}, "is_disabled": 0, "lon": -77.00456566666666, "name": "87a35ede452210c4bec09e7c3d0c113e", "fusion_lon": 0.0}, {"lat": 38.88720283333333, "fusion_lat": 0.0, "type": "electric_scooter", "bike_id": "a92b5fe2c4a87401e7d5c72fe1af3a06", "is_reserved": 0, "rental_uris": {"ios": "https://dc.lft.to/lastmile_qr_scan", "android": "https://dc.lft.to/lastmile_qr_scan"}, "is_disabled": 0, "lon": -77.02207483333333, "name": "a92b5fe2c4a87401e7d5c72fe1af3a06", "fusion_lon": 0.0}, {"lat": 38.892608, "fusion_lat": 0.0, "type": "electric_scooter", "bike_id": "86158f9c2afe42bc8d275f6f6cb5c2d5", "is_reserved": 0, "rental_uris": {"ios": "https://dc.lft.to/lastmile_qr_scan", "android": "https://dc.lft.to/lastmile_qr_scan"}, "is_disabled": 0, "lon": -77.00348333333334, "name": "86158f9c2afe42bc8d275f6f6cb5c2d5", "fusion_lon": 0.0}, {"lat": 38.86062483333333, "fusion_lat": 0.0, "type": "electric_scooter", "bike_id": "daf71965d9127f9e1cbd3eca92eb61d4", "is_reserved": 0, "rental_uris": {"ios": "https://dc.lft.to/lastmile_qr_scan", "android": "https://dc.lft.to/lastmile_qr_scan"}, "is_disabled": 0, "lon": -76.98422566666666, "name": "daf71965d9127f9e1cbd3eca92eb61d4", "fusion_lon": 0.0}, {"lat": 38.90445033333334, "fusion_lat": 0.0, "type": "electric_scooter", "bike_id": "4d6f3b14464c12ffec586d8a87690616", "is_reserved": 0, "rental_uris": {"ios": "https://dc.lft.to/lastmile_qr_scan", "android": "https://dc.lft.to/lastmile_qr_scan"}, "is_disabled": 0, "lon": -77.03457516666667, "name": "4d6f3b14464c12ffec586d8a87690616", "fusion_lon": 0.0}, {"lat": 38.919169, "fusion_lat": 0.0, "type": "electric_scooter", "bike_id": "19e65061ea1a872bf3db50e24db73f05", "is_reserved": 0, "rental_uris": {"ios": "https://dc.lft.to/lastmile_qr_scan", "android": "https://dc.lft.to/lastmile_qr_scan"}, "is_disabled": 0, "lon": -77.03338266666667, "name": "19e65061ea1a872bf3db50e24db73f05", "fusion_lon": 0.0}, {"lat": 38.908644833333334, "fusion_lat": 0.0, "type": "electric_scooter", "bike_id": "eed99d3e01c061a22ab8876f171a0014", "is_reserved": 0, "rental_uris": {"ios": "https://dc.lft.to/lastmile_qr_scan", "android": "https://dc.lft.to/lastmile_qr_scan"}, "is_disabled": 0, "lon": -77.03284216666667, "name": "eed99d3e01c061a22ab8876f171a0014", "fusion_lon": 0.0}, {"lat": 38.88138283333333, "fusion_lat": 0.0, "type": "electric_scooter", "bike_id": "512b14ed4785f20e9ce6c23da9f579d4", "is_reserved": 0, "rental_uris": {"ios": "https://dc.lft.to/lastmile_qr_scan", "android": "https://dc.lft.to/lastmile_qr_scan"}, "is_disabled": 0, "lon": -77.01335, "name": "512b14ed4785f20e9ce6c23da9f579d4", "fusion_lon": 0.0}, {"lat": 38.876490833333335, "fusion_lat": 0.0, "type": "electric_scooter", "bike_id": "569125821b3dfed82b062acdade28858", "is_reserved": 0, "rental_uris": {"ios": "https://dc.lft.to/lastmile_qr_scan", "android": "https://dc.lft.to/lastmile_qr_scan"}, "is_disabled": 0, "lon": -77.00057216666667, "name": "569125821b3dfed82b062acdade28858", "fusion_lon": 0.0}, {"lat": 38.900786, "fusion_lat": 0.0, "type": "electric_scooter", "bike_id": "a5ecd3db2d68bd749884b3904f834321", "is_reserved": 0, "rental_uris": {"ios": "https://dc.lft.to/lastmile_qr_scan", "android": "https://dc.lft.to/lastmile_qr_scan"}, "is_disabled": 0, "lon": -77.03058616666667, "name": "a5ecd3db2d68bd749884b3904f834321", "fusion_lon": 0.0}, {"lat": 38.9246265, "fusion_lat": 0.0, "type": "electric_bike", "bike_id": "0a57114b483733429daa6d9be98a9299", "is_reserved": 0, "rental_uris": {"ios": "https://dc.lft.to/lastmile_qr_scan", "android": "https://dc.lft.to/lastmile_qr_scan"}, "is_disabled": 0, "lon": -77.22563783333334, "name": "0a57114b483733429daa6d9be98a9299", "fusion_lon": 0.0}, {"lat": 38.91256666666666, "fusion_lat": 0.0, "type": "electric_scooter", "bike_id": "015da820ab9794e19ab3898d737d8bbe", "is_reserved": 0, "rental_uris": {"ios": "https://dc.lft.to/lastmile_qr_scan", "android": "https://dc.lft.to/lastmile_qr_scan"}, "is_disabled": 0, "lon": -77.04465733333333, "name": "015da820ab9794e19ab3898d737d8bbe", "fusion_lon": 0.0}, {"lat": 38.877263166666665, "fusion_lat": 0.0, "type": "electric_scooter", "bike_id": "25497d0a18178d030f37573e6a7053c6", "is_reserved": 0, "rental_uris": {"ios": "https://dc.lft.to/lastmile_qr_scan", "android": "https://dc.lft.to/lastmile_qr_scan"}, "is_disabled": 0, "lon": -77.01744133333334, "name": "25497d0a18178d030f37573e6a7053c6", "fusion_lon": 0.0}, {"lat": 38.935397, "fusion_lat": 0.0, "type": "electric_scooter", "bike_id": "b4304782b285b103f1e14ec4af9d2983", "is_reserved": 0, "rental_uris": {"ios": "https://dc.lft.to/lastmile_qr_scan", "android": "https://dc.lft.to/lastmile_qr_scan"}, "is_disabled": 0, "lon": -77.0582835, "name": "b4304782b285b103f1e14ec4af9d2983", "fusion_lon": 0.0}, {"lat": 38.9132685, "fusion_lat": 0.0, "type": "electric_scooter", "bike_id": "342f93bb958ae39f3c1c16d869e0a814", "is_reserved": 0, "rental_uris": {"ios": "https://dc.lft.to/lastmile_qr_scan", "android": "https://dc.lft.to/lastmile_qr_scan"}, "is_disabled": 0, "lon": -76.98489983333333, "name": "342f93bb958ae39f3c1c16d869e0a814", "fusion_lon": 0.0}, {"lat": 38.90507816666667, "fusion_lat": 0.0, "type": "electric_scooter", "bike_id": "0f4901e2582a5ffb2887662f5431b0cc", "is_reserved": 0, "rental_uris": {"ios": "https://dc.lft.to/lastmile_qr_scan", "android": "https://dc.lft.to/lastmile_qr_scan"}, "is_disabled": 0, "lon": -77.06017483333333, "name": "0f4901e2582a5ffb2887662f5431b0cc", "fusion_lon": 0.0}, {"lat": 38.9181735, "fusion_lat": 0.0, "type": "electric_scooter", "bike_id": "76b94546c6f7369749d11c65c7c894b9", "is_reserved": 0, "rental_uris": {"ios": "https://dc.lft.to/lastmile_qr_scan", "android": "https://dc.lft.to/lastmile_qr_scan"}, "is_disabled": 0, "lon": -77.08962983333333, "name": "76b94546c6f7369749d11c65c7c894b9", "fusion_lon": 0.0}, {"lat": 38.916877, "fusion_lat": 0.0, "type": "electric_scooter", "bike_id": "b789fa5b8f474af767678fc82694c267", "is_reserved": 0, "rental_uris": {"ios": "https://dc.lft.to/lastmile_qr_scan", "android": "https://dc.lft.to/lastmile_qr_scan"}, "is_disabled": 0, "lon": -77.01581166666666, "name": "b789fa5b8f474af767678fc82694c267", "fusion_lon": 0.0}, {"lat": 38.919090833333335, "fusion_lat": 0.0, "type": "electric_scooter", "bike_id": "ee9ef2365c284e2b378399b6df756ab2", "is_reserved": 0, "rental_uris": {"ios": "https://dc.lft.to/lastmile_qr_scan", "android": "https://dc.lft.to/lastmile_qr_scan"}, "is_disabled": 0, "lon": -77.01538616666667, "name": "ee9ef2365c284e2b378399b6df756ab2", "fusion_lon": 0.0}, {"lat": 38.90532666666667, "fusion_lat": 0.0, "type": "electric_scooter", "bike_id": "da865450cbb7b36aebcd08bf74907585", "is_reserved": 0, "rental_uris": {"ios": "https://dc.lft.to/lastmile_qr_scan", "android": "https://dc.lft.to/lastmile_qr_scan"}, "is_disabled": 0, "lon": -77.06135066666667, "name": "da865450cbb7b36aebcd08bf74907585", "fusion_lon": 0.0}, {"lat": 38.96326166666667, "fusion_lat": 0.0, "type": "electric_bike", "bike_id": "11bd430f11b6bfd03651cb244ab54aff", "is_reserved": 0, "rental_uris": {"ios": "https://dc.lft.to/lastmile_qr_scan", "android": "https://dc.lft.to/lastmile_qr_scan"}, "is_disabled": 0, "lon": -76.9736165, "name": "11bd430f11b6bfd03651cb244ab54aff", "fusion_lon": 0.0}, {"lat": 38.96312783333333, "fusion_lat": 0.0, "type": "electric_bike", "bike_id": "f1770e9813f9a6d9ad2f51f88788fc28", "is_reserved": 0, "rental_uris": {"ios": "https://dc.lft.to/lastmile_qr_scan", "android": "https://dc.lft.to/lastmile_qr_scan"}, "is_disabled": 0, "lon": -77.01104383333333, "name": "f1770e9813f9a6d9ad2f51f88788fc28", "fusion_lon": 0.0}, {"lat": 38.92347266666667, "fusion_lat": 0.0, "type": "electric_scooter", "bike_id": "6c2e5bfaceb9b6fd4acd9898a32b929e", "is_reserved": 0, "rental_uris": {"ios": "https://dc.lft.to/lastmile_qr_scan", "android": "https://dc.lft.to/lastmile_qr_scan"}, "is_disabled": 0, "lon": -77.04172966666667, "name": "6c2e5bfaceb9b6fd4acd9898a32b929e", "fusion_lon": 0.0}, {"lat": 38.955328333333334, "fusion_lat": 0.0, "type": "electric_bike", "bike_id": "d038549d9fce6c5fbd98d03e9bd785a9", "is_reserved": 0, "rental_uris": {"ios": "https://dc.lft.to/lastmile_qr_scan", "android": "https://dc.lft.to/lastmile_qr_scan"}, "is_disabled": 0, "lon": -76.968283, "name": "d038549d9fce6c5fbd98d03e9bd785a9", "fusion_lon": 0.0}, {"lat": 38.88875983333333, "fusion_lat": 0.0, "type": "electric_scooter", "bike_id": "87d41808ec3ea469dc58688e314f5bb2", "is_reserved": 0, "rental_uris": {"ios": "https://dc.lft.to/lastmile_qr_scan", "android": "https://dc.lft.to/lastmile_qr_scan"}, "is_disabled": 0, "lon": -76.99036233333334, "name": "87d41808ec3ea469dc58688e314f5bb2", "fusion_lon": 0.0}, {"lat": 38.91966866666667, "fusion_lat": 0.0, "type": "electric_scooter", "bike_id": "30125bab8f5fda387926e77153468215", "is_reserved": 0, "rental_uris": {"ios": "https://dc.lft.to/lastmile_qr_scan", "android": "https://dc.lft.to/lastmile_qr_scan"}, "is_disabled": 0, "lon": -77.03853766666667, "name": "30125bab8f5fda387926e77153468215", "fusion_lon": 0.0}, {"lat": 38.956483666666664, "fusion_lat": 0.0, "type": "electric_bike", "bike_id": "8691ed4446164cf2a4efbc8d55602388", "is_reserved": 0, "rental_uris": {"ios": "https://dc.lft.to/lastmile_qr_scan", "android": "https://dc.lft.to/lastmile_qr_scan"}, "is_disabled": 0, "lon": -76.99790116666667, "name": "8691ed4446164cf2a4efbc8d55602388", "fusion_lon": 0.0}, {"lat": 39.01371183333333, "fusion_lat": 0.0, "type": "electric_bike", "bike_id": "3735478d82018064a5bd151a44559d7c", "is_reserved": 0, "rental_uris": {"ios": "https://dc.lft.to/lastmile_qr_scan", "android": "https://dc.lft.to/lastmile_qr_scan"}, "is_disabled": 0, "lon": -76.9213695, "name": "3735478d82018064a5bd151a44559d7c", "fusion_lon": 0.0}, {"lat": 38.90968783333334, "fusion_lat": 0.0, "type": "electric_scooter", "bike_id": "5e10d9594dfcb5b953b7f8fb0ac8618d", "is_reserved": 0, "rental_uris": {"ios": "https://dc.lft.to/lastmile_qr_scan", "android": "https://dc.lft.to/lastmile_qr_scan"}, "is_disabled": 0, "lon": -77.03318933333334, "name": "5e10d9594dfcb5b953b7f8fb0ac8618d", "fusion_lon": 0.0}, {"lat": 38.924135, "fusion_lat": 0.0, "type": "electric_scooter", "bike_id": "309ca781713928a7f6f4d7de47f2eab4", "is_reserved": 0, "rental_uris": {"ios": "https://dc.lft.to/lastmile_qr_scan", "android": "https://dc.lft.to/lastmile_qr_scan"}, "is_disabled": 0, "lon": -77.02031783333334, "name": "309ca781713928a7f6f4d7de47f2eab4", "fusion_lon": 0.0}, {"lat": 38.901041666666664, "fusion_lat": 0.0, "type": "electric_scooter", "bike_id": "ef854b0bed2a8a56c523c877e1a3ac55", "is_reserved": 0, "rental_uris": {"ios": "https://dc.lft.to/lastmile_qr_scan", "android": "https://dc.lft.to/lastmile_qr_scan"}, "is_disabled": 0, "lon": -77.04738616666667, "name": "ef854b0bed2a8a56c523c877e1a3ac55", "fusion_lon": 0.0}, {"lat": 38.91188366666667, "fusion_lat": 0.0, "type": "electric_scooter", "bike_id": "4b0c0a68ed639642e2c3c6cf39a62f63", "is_reserved": 0, "rental_uris": {"ios": "https://dc.lft.to/lastmile_qr_scan", "android": "https://dc.lft.to/lastmile_qr_scan"}, "is_disabled": 0, "lon": -77.0321145, "name": "4b0c0a68ed639642e2c3c6cf39a62f63", "fusion_lon": 0.0}, {"lat": 38.908601, "fusion_lat": 0.0, "type": "electric_scooter", "bike_id": "4cee05d048ad860aa4ef4b005fa8bcc4", "is_reserved": 0, "rental_uris": {"ios": "https://dc.lft.to/lastmile_qr_scan", "android": "https://dc.lft.to/lastmile_qr_scan"}, "is_disabled": 0, "lon": -77.02233083333333, "name": "4cee05d048ad860aa4ef4b005fa8bcc4", "fusion_lon": 0.0}, {"lat": 38.924465166666664, "fusion_lat": 0.0, "type": "electric_scooter", "bike_id": "2a3da402194343257e3ec14570fb9aaf", "is_reserved": 0, "rental_uris": {"ios": "https://dc.lft.to/lastmile_qr_scan", "android": "https://dc.lft.to/lastmile_qr_scan"}, "is_disabled": 0, "lon": -77.043983, "name": "2a3da402194343257e3ec14570fb9aaf", "fusion_lon": 0.0}, {"lat": 38.90637266666667, "fusion_lat": 0.0, "type": "electric_scooter", "bike_id": "aff58b2b7e21bf0bb479dd8594d37a2e", "is_reserved": 0, "rental_uris": {"ios": "https://dc.lft.to/lastmile_qr_scan", "android": "https://dc.lft.to/lastmile_qr_scan"}, "is_disabled": 0, "lon": -77.04160816666666, "name": "aff58b2b7e21bf0bb479dd8594d37a2e", "fusion_lon": 0.0}, {"lat": 38.927605166666666, "fusion_lat": 0.0, "type": "electric_scooter", "bike_id": "4065438f418a84fadbac41dc4482a952", "is_reserved": 0, "rental_uris": {"ios": "https://dc.lft.to/lastmile_qr_scan", "android": "https://dc.lft.to/lastmile_qr_scan"}, "is_disabled": 0, "lon": -77.03274883333333, "name": "4065438f418a84fadbac41dc4482a952", "fusion_lon": 0.0}, {"lat": 38.903891, "fusion_lat": 0.0, "type": "electric_scooter", "bike_id": "9e01d43d63e203b3835b6ca0bb49ca15", "is_reserved": 0, "rental_uris": {"ios": "https://dc.lft.to/lastmile_qr_scan", "android": "https://dc.lft.to/lastmile_qr_scan"}, "is_disabled": 0, "lon": -77.04913383333333, "name": "9e01d43d63e203b3835b6ca0bb49ca15", "fusion_lon": 0.0}, {"lat": 38.940414833333335, "fusion_lat": 0.0, "type": "electric_scooter", "bike_id": "1fd59a754998c30c1de51abd0920422b", "is_reserved": 0, "rental_uris": {"ios": "https://dc.lft.to/lastmile_qr_scan", "android": "https://dc.lft.to/lastmile_qr_scan"}, "is_disabled": 0, "lon": -77.02902, "name": "1fd59a754998c30c1de51abd0920422b", "fusion_lon": 0.0}, {"lat": 38.91800766666667, "fusion_lat": 0.0, "type": "electric_scooter", "bike_id": "874d211a89678ed9b7ea6c4ed0fb91e2", "is_reserved": 0, "rental_uris": {"ios": "https://dc.lft.to/lastmile_qr_scan", "android": "https://dc.lft.to/lastmile_qr_scan"}, "is_disabled": 0, "lon": -77.04576616666667, "name": "874d211a89678ed9b7ea6c4ed0fb91e2", "fusion_lon": 0.0}, {"lat": 38.9520485, "fusion_lat": 0.0, "type": "electric_scooter", "bike_id": "3dabe807fd0df589db84c588d07dc6d5", "is_reserved": 0, "rental_uris": {"ios": "https://dc.lft.to/lastmile_qr_scan", "android": "https://dc.lft.to/lastmile_qr_scan"}, "is_disabled": 0, "lon": -77.02728883333333, "name": "3dabe807fd0df589db84c588d07dc6d5", "fusion_lon": 0.0}, {"lat": 38.9013625, "fusion_lat": 0.0, "type": "electric_scooter", "bike_id": "02af85a3bfd8f0719a1dddb8785301df", "is_reserved": 0, "rental_uris": {"ios": "https://dc.lft.to/lastmile_qr_scan", "android": "https://dc.lft.to/lastmile_qr_scan"}, "is_disabled": 0, "lon": -77.00857466666666, "name": "02af85a3bfd8f0719a1dddb8785301df", "fusion_lon": 0.0}, {"lat": 38.95661483333333, "fusion_lat": 0.0, "type": "electric_scooter", "bike_id": "270163df9066b6b995520d35c3784f11", "is_reserved": 0, "rental_uris": {"ios": "https://dc.lft.to/lastmile_qr_scan", "android": "https://dc.lft.to/lastmile_qr_scan"}, "is_disabled": 0, "lon": -77.03326266666667, "name": "270163df9066b6b995520d35c3784f11", "fusion_lon": 0.0}, {"lat": 38.8619765, "fusion_lat": 0.0, "type": "electric_bike", "bike_id": "70116e8f1e38b8c4978bf6affbaf31b5", "is_reserved": 0, "rental_uris": {"ios": "https://dc.lft.to/lastmile_qr_scan", "android": "https://dc.lft.to/lastmile_qr_scan"}, "is_disabled": 0, "lon": -76.948053, "name": "70116e8f1e38b8c4978bf6affbaf31b5", "fusion_lon": 0.0}, {"lat": 38.90518083333333, "fusion_lat": 0.0, "type": "electric_scooter", "bike_id": "c5f1afed0954a94e3de163354d00432e", "is_reserved": 0, "rental_uris": {"ios": "https://dc.lft.to/lastmile_qr_scan", "android": "https://dc.lft.to/lastmile_qr_scan"}, "is_disabled": 0, "lon": -77.04188666666667, "name": "c5f1afed0954a94e3de163354d00432e", "fusion_lon": 0.0}, {"lat": 38.9189985, "fusion_lat": 0.0, "type": "electric_scooter", "bike_id": "70b92989bf81d19f0c117bbbb40a71f2", "is_reserved": 0, "rental_uris": {"ios": "https://dc.lft.to/lastmile_qr_scan", "android": "https://dc.lft.to/lastmile_qr_scan"}, "is_disabled": 0, "lon": -77.03457116666667, "name": "70b92989bf81d19f0c117bbbb40a71f2", "fusion_lon": 0.0}, {"lat": 38.91727216666666, "fusion_lat": 0.0, "type": "electric_scooter", "bike_id": "a91966da42392e043e52616626391650", "is_reserved": 0, "rental_uris": {"ios": "https://dc.lft.to/lastmile_qr_scan", "android": "https://dc.lft.to/lastmile_qr_scan"}, "is_disabled": 0, "lon": -77.02291983333333, "name": "a91966da42392e043e52616626391650", "fusion_lon": 0.0}, {"lat": 38.903609333333335, "fusion_lat": 0.0, "type": "electric_scooter", "bike_id": "413d5b28ef77799f6cef0f01aaff1729", "is_reserved": 0, "rental_uris": {"ios": "https://dc.lft.to/lastmile_qr_scan", "android": "https://dc.lft.to/lastmile_qr_scan"}, "is_disabled": 0, "lon": -77.0074445, "name": "413d5b28ef77799f6cef0f01aaff1729", "fusion_lon": 0.0}, {"lat": 38.923489333333336, "fusion_lat": 0.0, "type": "electric_scooter", "bike_id": "6376567dbe2b1138b1d213a7c06b0c0b", "is_reserved": 0, "rental_uris": {"ios": "https://dc.lft.to/lastmile_qr_scan", "android": "https://dc.lft.to/lastmile_qr_scan"}, "is_disabled": 0, "lon": -77.04155083333333, "name": "6376567dbe2b1138b1d213a7c06b0c0b", "fusion_lon": 0.0}, {"lat": 38.8962115, "fusion_lat": 0.0, "type": "electric_scooter", "bike_id": "1c3dc4ae351d5ad3923bb3c9e5a411b9", "is_reserved": 0, "rental_uris": {"ios": "https://dc.lft.to/lastmile_qr_scan", "android": "https://dc.lft.to/lastmile_qr_scan"}, "is_disabled": 0, "lon": -76.98569883333333, "name": "1c3dc4ae351d5ad3923bb3c9e5a411b9", "fusion_lon": 0.0}, {"lat": 38.910470333333336, "fusion_lat": 0.0, "type": "electric_scooter", "bike_id": "166e771032cd6d8b69fba4031f63a32c", "is_reserved": 0, "rental_uris": {"ios": "https://dc.lft.to/lastmile_qr_scan", "android": "https://dc.lft.to/lastmile_qr_scan"}, "is_disabled": 0, "lon": -77.03840416666667, "name": "166e771032cd6d8b69fba4031f63a32c", "fusion_lon": 0.0}, {"lat": 38.833709, "fusion_lat": 0.0, "type": "electric_scooter", "bike_id": "388bac2dba30d892410065a28ad6df8d", "is_reserved": 0, "rental_uris": {"ios": "https://dc.lft.to/lastmile_qr_scan", "android": "https://dc.lft.to/lastmile_qr_scan"}, "is_disabled": 0, "lon": -76.99661833333333, "name": "388bac2dba30d892410065a28ad6df8d", "fusion_lon": 0.0}, {"lat": 38.9113145, "fusion_lat": 0.0, "type": "electric_scooter", "bike_id": "b398ffdf45f5ec44fece1f77ee307704", "is_reserved": 0, "rental_uris": {"ios": "https://dc.lft.to/lastmile_qr_scan", "android": "https://dc.lft.to/lastmile_qr_scan"}, "is_disabled": 0, "lon": -77.03843666666667, "name": "b398ffdf45f5ec44fece1f77ee307704", "fusion_lon": 0.0}, {"lat": 38.9349525, "fusion_lat": 0.0, "type": "electric_scooter", "bike_id": "672be6be9fc127a8257224e28f364c8a", "is_reserved": 0, "rental_uris": {"ios": "https://dc.lft.to/lastmile_qr_scan", "android": "https://dc.lft.to/lastmile_qr_scan"}, "is_disabled": 0, "lon": -77.03277983333334, "name": "672be6be9fc127a8257224e28f364c8a", "fusion_lon": 0.0}, {"lat": 38.9108085, "fusion_lat": 0.0, "type": "electric_scooter", "bike_id": "32d38562943cc44b17b585ca3fb60a4b", "is_reserved": 0, "rental_uris": {"ios": "https://dc.lft.to/lastmile_qr_scan", "android": "https://dc.lft.to/lastmile_qr_scan"}, "is_disabled": 0, "lon": -77.0085745, "name": "32d38562943cc44b17b585ca3fb60a4b", "fusion_lon": 0.0}, {"lat": 38.9258055, "fusion_lat": 0.0, "type": "electric_scooter", "bike_id": "83a7997168db6822517c1bae19896e1a", "is_reserved": 0, "rental_uris": {"ios": "https://dc.lft.to/lastmile_qr_scan", "android": "https://dc.lft.to/lastmile_qr_scan"}, "is_disabled": 0, "lon": -77.02760083333334, "name": "83a7997168db6822517c1bae19896e1a", "fusion_lon": 0.0}, {"lat": 38.937174, "fusion_lat": 0.0, "type": "electric_scooter", "bike_id": "72934f75306e67197b4626fbf0c0bd46", "is_reserved": 0, "rental_uris": {"ios": "https://dc.lft.to/lastmile_qr_scan", "android": "https://dc.lft.to/lastmile_qr_scan"}, "is_disabled": 0, "lon": -77.03635016666667, "name": "72934f75306e67197b4626fbf0c0bd46", "fusion_lon": 0.0}, {"lat": 38.89915516666667, "fusion_lat": 0.0, "type": "electric_scooter", "bike_id": "ad766b6175535e7f1380411fd9c15e46", "is_reserved": 0, "rental_uris": {"ios": "https://dc.lft.to/lastmile_qr_scan", "android": "https://dc.lft.to/lastmile_qr_scan"}, "is_disabled": 0, "lon": -76.934086, "name": "ad766b6175535e7f1380411fd9c15e46", "fusion_lon": 0.0}, {"lat": 38.922745, "fusion_lat": 0.0, "type": "electric_scooter", "bike_id": "9b801958675eaa57c17593ea938eae6c", "is_reserved": 0, "rental_uris": {"ios": "https://dc.lft.to/lastmile_qr_scan", "android": "https://dc.lft.to/lastmile_qr_scan"}, "is_disabled": 0, "lon": -77.0428525, "name": "9b801958675eaa57c17593ea938eae6c", "fusion_lon": 0.0}, {"lat": 38.92279516666667, "fusion_lat": 0.0, "type": "electric_scooter", "bike_id": "f496df12627f465a660395aec44cc2d3", "is_reserved": 0, "rental_uris": {"ios": "https://dc.lft.to/lastmile_qr_scan", "android": "https://dc.lft.to/lastmile_qr_scan"}, "is_disabled": 0, "lon": -77.022442, "name": "f496df12627f465a660395aec44cc2d3", "fusion_lon": 0.0}, {"lat": 38.898338833333334, "fusion_lat": 0.0, "type": "electric_scooter", "bike_id": "bb7048ad40ac4ac242b51ccd9b0de12a", "is_reserved": 0, "rental_uris": {"ios": "https://dc.lft.to/lastmile_qr_scan", "android": "https://dc.lft.to/lastmile_qr_scan"}, "is_disabled": 0, "lon": -77.04360816666667, "name": "bb7048ad40ac4ac242b51ccd9b0de12a", "fusion_lon": 0.0}, {"lat": 38.925821, "fusion_lat": 0.0, "type": "electric_scooter", "bike_id": "e1d1d2054b798215536ac1ba2e0e4045", "is_reserved": 0, "rental_uris": {"ios": "https://dc.lft.to/lastmile_qr_scan", "android": "https://dc.lft.to/lastmile_qr_scan"}, "is_disabled": 0, "lon": -77.0260565, "name": "e1d1d2054b798215536ac1ba2e0e4045", "fusion_lon": 0.0}, {"lat": 38.937388166666665, "fusion_lat": 0.0, "type": "electric_scooter", "bike_id": "207908bc762699afb33014dcb243bb39", "is_reserved": 0, "rental_uris": {"ios": "https://dc.lft.to/lastmile_qr_scan", "android": "https://dc.lft.to/lastmile_qr_scan"}, "is_disabled": 0, "lon": -77.0335245, "name": "207908bc762699afb33014dcb243bb39", "fusion_lon": 0.0}, {"lat": 38.92054233333333, "fusion_lat": 0.0, "type": "electric_scooter", "bike_id": "9e2b7ebc9cfd363b72991e8ca1fa88a1", "is_reserved": 0, "rental_uris": {"ios": "https://dc.lft.to/lastmile_qr_scan", "android": "https://dc.lft.to/lastmile_qr_scan"}, "is_disabled": 0, "lon": -77.033445, "name": "9e2b7ebc9cfd363b72991e8ca1fa88a1", "fusion_lon": 0.0}, {"lat": 38.89183083333333, "fusion_lat": 0.0, "type": "electric_scooter", "bike_id": "87efa2876690ceb81118dcacf36b682e", "is_reserved": 0, "rental_uris": {"ios": "https://dc.lft.to/lastmile_qr_scan", "android": "https://dc.lft.to/lastmile_qr_scan"}, "is_disabled": 0, "lon": -76.91188883333334, "name": "87efa2876690ceb81118dcacf36b682e", "fusion_lon": 0.0}, {"lat": 38.9185605, "fusion_lat": 0.0, "type": "electric_scooter", "bike_id": "38e064d8d4757a107d0f2967fba88145", "is_reserved": 0, "rental_uris": {"ios": "https://dc.lft.to/lastmile_qr_scan", "android": "https://dc.lft.to/lastmile_qr_scan"}, "is_disabled": 0, "lon": -77.015591, "name": "38e064d8d4757a107d0f2967fba88145", "fusion_lon": 0.0}, {"lat": 38.9084645, "fusion_lat": 0.0, "type": "electric_bike", "bike_id": "83b1c7f23f0142fcb4b73ab40ad96cd3", "is_reserved": 0, "rental_uris": {"ios": "https://dc.lft.to/lastmile_qr_scan", "android": "https://dc.lft.to/lastmile_qr_scan"}, "is_disabled": 0, "lon": -77.04019383333333, "name": "83b1c7f23f0142fcb4b73ab40ad96cd3", "fusion_lon": 0.0}, {"lat": 38.923396, "fusion_lat": 0.0, "type": "electric_scooter", "bike_id": "ecb9e361257ce5c2e4ca0b3950beb80f", "is_reserved": 0, "rental_uris": {"ios": "https://dc.lft.to/lastmile_qr_scan", "android": "https://dc.lft.to/lastmile_qr_scan"}, "is_disabled": 0, "lon": -77.052503, "name": "ecb9e361257ce5c2e4ca0b3950beb80f", "fusion_lon": 0.0}, {"lat": 38.897441666666666, "fusion_lat": 0.0, "type": "electric_scooter", "bike_id": "43045f9decaae1e314c3224d8a04cdfb", "is_reserved": 0, "rental_uris": {"ios": "https://dc.lft.to/lastmile_qr_scan", "android": "https://dc.lft.to/lastmile_qr_scan"}, "is_disabled": 0, "lon": -77.033426, "name": "43045f9decaae1e314c3224d8a04cdfb", "fusion_lon": 0.0}, {"lat": 38.94110233333333, "fusion_lat": 0.0, "type": "electric_scooter", "bike_id": "a5a8fd91fa664111386dfb0b57cec84e", "is_reserved": 0, "rental_uris": {"ios": "https://dc.lft.to/lastmile_qr_scan", "android": "https://dc.lft.to/lastmile_qr_scan"}, "is_disabled": 0, "lon": -77.07731816666667, "name": "a5a8fd91fa664111386dfb0b57cec84e", "fusion_lon": 0.0}, {"lat": 38.90136533333333, "fusion_lat": 0.0, "type": "electric_scooter", "bike_id": "41f27e76c311f655dc2f5bc77832dd23", "is_reserved": 0, "rental_uris": {"ios": "https://dc.lft.to/lastmile_qr_scan", "android": "https://dc.lft.to/lastmile_qr_scan"}, "is_disabled": 0, "lon": -77.015978, "name": "41f27e76c311f655dc2f5bc77832dd23", "fusion_lon": 0.0}, {"lat": 38.881993, "fusion_lat": 0.0, "type": "electric_bike", "bike_id": "2d35b03650c92146ceba642388e77ac0", "is_reserved": 0, "rental_uris": {"ios": "https://dc.lft.to/lastmile_qr_scan", "android": "https://dc.lft.to/lastmile_qr_scan"}, "is_disabled": 0, "lon": -77.1175375, "name": "2d35b03650c92146ceba642388e77ac0", "fusion_lon": 0.0}, {"lat": 38.988072, "fusion_lat": 0.0, "type": "electric_bike", "bike_id": "a2fb06b96496f3bbfd4dee5120af717a", "is_reserved": 0, "rental_uris": {"ios": "https://dc.lft.to/lastmile_qr_scan", "android": "https://dc.lft.to/lastmile_qr_scan"}, "is_disabled": 0, "lon": -77.09569183333333, "name": "a2fb06b96496f3bbfd4dee5120af717a", "fusion_lon": 0.0}, {"lat": 38.90261266666667, "fusion_lat": 0.0, "type": "electric_scooter", "bike_id": "57df17c3670dabe05f4c5f4fc0a92d97", "is_reserved": 0, "rental_uris": {"ios": "https://dc.lft.to/lastmile_qr_scan", "android": "https://dc.lft.to/lastmile_qr_scan"}, "is_disabled": 0, "lon": -77.0433415, "name": "57df17c3670dabe05f4c5f4fc0a92d97", "fusion_lon": 0.0}, {"lat": 38.91912716666667, "fusion_lat": 0.0, "type": "electric_bike", "bike_id": "a2e5e13c13c984b8a94b54aeb6642d4b", "is_reserved": 0, "rental_uris": {"ios": "https://dc.lft.to/lastmile_qr_scan", "android": "https://dc.lft.to/lastmile_qr_scan"}, "is_disabled": 0, "lon": -77.02006233333333, "name": "a2e5e13c13c984b8a94b54aeb6642d4b", "fusion_lon": 0.0}, {"lat": 38.92245916666667, "fusion_lat": 0.0, "type": "electric_scooter", "bike_id": "7071fd05c3b777daf3599822864c21d9", "is_reserved": 0, "rental_uris": {"ios": "https://dc.lft.to/lastmile_qr_scan", "android": "https://dc.lft.to/lastmile_qr_scan"}, "is_disabled": 0, "lon": -77.03346983333333, "name": "7071fd05c3b777daf3599822864c21d9", "fusion_lon": 0.0}, {"lat": 38.89508266666667, "fusion_lat": 0.0, "type": "electric_scooter", "bike_id": "1baffb8114294d8f20325966f10d247b", "is_reserved": 0, "rental_uris": {"ios": "https://dc.lft.to/lastmile_qr_scan", "android": "https://dc.lft.to/lastmile_qr_scan"}, "is_disabled": 0, "lon": -76.93475266666667, "name": "1baffb8114294d8f20325966f10d247b", "fusion_lon": 0.0}, {"lat": 38.866916, "fusion_lat": 0.0, "type": "electric_scooter", "bike_id": "31d1dd25420ff51ead85439e11b609f7", "is_reserved": 0, "rental_uris": {"ios": "https://dc.lft.to/lastmile_qr_scan", "android": "https://dc.lft.to/lastmile_qr_scan"}, "is_disabled": 0, "lon": -76.985676, "name": "31d1dd25420ff51ead85439e11b609f7", "fusion_lon": 0.0}, {"lat": 38.907226666666666, "fusion_lat": 0.0, "type": "electric_scooter", "bike_id": "81666de8c86c84ada3a8f6030fa05416", "is_reserved": 0, "rental_uris": {"ios": "https://dc.lft.to/lastmile_qr_scan", "android": "https://dc.lft.to/lastmile_qr_scan"}, "is_disabled": 0, "lon": -77.02371866666667, "name": "81666de8c86c84ada3a8f6030fa05416", "fusion_lon": 0.0}, {"lat": 38.92618566666667, "fusion_lat": 0.0, "type": "electric_scooter", "bike_id": "39ceae7085af9717a39bf64cc0dde379", "is_reserved": 0, "rental_uris": {"ios": "https://dc.lft.to/lastmile_qr_scan", "android": "https://dc.lft.to/lastmile_qr_scan"}, "is_disabled": 0, "lon": -77.04334266666666, "name": "39ceae7085af9717a39bf64cc0dde379", "fusion_lon": 0.0}, {"lat": 38.92438683333334, "fusion_lat": 0.0, "type": "electric_bike", "bike_id": "0a85d4f786fac51c3ce5fde3904f3fbb", "is_reserved": 0, "rental_uris": {"ios": "https://dc.lft.to/lastmile_qr_scan", "android": "https://dc.lft.to/lastmile_qr_scan"}, "is_disabled": 0, "lon": -77.04032733333334, "name": "0a85d4f786fac51c3ce5fde3904f3fbb", "fusion_lon": 0.0}, {"lat": 38.907223333333334, "fusion_lat": 0.0, "type": "electric_scooter", "bike_id": "aa6b3f3bba4ceca04f4bbe1ee46d0c41", "is_reserved": 0, "rental_uris": {"ios": "https://dc.lft.to/lastmile_qr_scan", "android": "https://dc.lft.to/lastmile_qr_scan"}, "is_disabled": 0, "lon": -77.02677, "name": "aa6b3f3bba4ceca04f4bbe1ee46d0c41", "fusion_lon": 0.0}, {"lat": 38.984296666666665, "fusion_lat": 0.0, "type": "electric_scooter", "bike_id": "11ede6dc3871b7fafd7813480d5eab5b", "is_reserved": 0, "rental_uris": {"ios": "https://dc.lft.to/lastmile_qr_scan", "android": "https://dc.lft.to/lastmile_qr_scan"}, "is_disabled": 0, "lon": -77.0267565, "name": "11ede6dc3871b7fafd7813480d5eab5b", "fusion_lon": 0.0}, {"lat": 38.8924165, "fusion_lat": 0.0, "type": "electric_scooter", "bike_id": "a5e8643746bbe19e8fca96852af89c5e", "is_reserved": 0, "rental_uris": {"ios": "https://dc.lft.to/lastmile_qr_scan", "android": "https://dc.lft.to/lastmile_qr_scan"}, "is_disabled": 0, "lon": -77.02412083333333, "name": "a5e8643746bbe19e8fca96852af89c5e", "fusion_lon": 0.0}, {"lat": 38.89474533333333, "fusion_lat": 0.0, "type": "electric_scooter", "bike_id": "92565dbd22c95797b702c76205977147", "is_reserved": 0, "rental_uris": {"ios": "https://dc.lft.to/lastmile_qr_scan", "android": "https://dc.lft.to/lastmile_qr_scan"}, "is_disabled": 0, "lon": -77.0465605, "name": "92565dbd22c95797b702c76205977147", "fusion_lon": 0.0}, {"lat": 38.909251, "fusion_lat": 0.0, "type": "electric_scooter", "bike_id": "bf9bd20896fabb38d514e55e8f01d6ca", "is_reserved": 0, "rental_uris": {"ios": "https://dc.lft.to/lastmile_qr_scan", "android": "https://dc.lft.to/lastmile_qr_scan"}, "is_disabled": 0, "lon": -77.02289366666666, "name": "bf9bd20896fabb38d514e55e8f01d6ca", "fusion_lon": 0.0}, {"lat": 38.872377166666666, "fusion_lat": 0.0, "type": "electric_scooter", "bike_id": "cfb0a36286ae732f4179e1efaf4e4ab2", "is_reserved": 0, "rental_uris": {"ios": "https://dc.lft.to/lastmile_qr_scan", "android": "https://dc.lft.to/lastmile_qr_scan"}, "is_disabled": 0, "lon": -77.01171816666667, "name": "cfb0a36286ae732f4179e1efaf4e4ab2", "fusion_lon": 0.0}, {"lat": 38.907663666666664, "fusion_lat": 0.0, "type": "electric_scooter", "bike_id": "d8b18bee7c4abcbf2eaac5323a0e2ab4", "is_reserved": 0, "rental_uris": {"ios": "https://dc.lft.to/lastmile_qr_scan", "android": "https://dc.lft.to/lastmile_qr_scan"}, "is_disabled": 0, "lon": -77.02598966666666, "name": "d8b18bee7c4abcbf2eaac5323a0e2ab4", "fusion_lon": 0.0}, {"lat": 38.936017666666665, "fusion_lat": 0.0, "type": "electric_scooter", "bike_id": "4acb69953d77c9ac743c5aecdda7059d", "is_reserved": 0, "rental_uris": {"ios": "https://dc.lft.to/lastmile_qr_scan", "android": "https://dc.lft.to/lastmile_qr_scan"}, "is_disabled": 0, "lon": -77.036565, "name": "4acb69953d77c9ac743c5aecdda7059d", "fusion_lon": 0.0}, {"lat": 38.902604333333336, "fusion_lat": 0.0, "type": "electric_scooter", "bike_id": "186d62d950e5f9cea12050b4f249501d", "is_reserved": 0, "rental_uris": {"ios": "https://dc.lft.to/lastmile_qr_scan", "android": "https://dc.lft.to/lastmile_qr_scan"}, "is_disabled": 0, "lon": -77.048685, "name": "186d62d950e5f9cea12050b4f249501d", "fusion_lon": 0.0}, {"lat": 38.94023033333333, "fusion_lat": 0.0, "type": "electric_bike", "bike_id": "fcb6b757206289e85506bb79b692a247", "is_reserved": 0, "rental_uris": {"ios": "https://dc.lft.to/lastmile_qr_scan", "android": "https://dc.lft.to/lastmile_qr_scan"}, "is_disabled": 0, "lon": -76.97613316666667, "name": "fcb6b757206289e85506bb79b692a247", "fusion_lon": 0.0}, {"lat": 38.892997666666666, "fusion_lat": 0.0, "type": "electric_scooter", "bike_id": "5d9db3583bfa8479dc473460d49e6826", "is_reserved": 0, "rental_uris": {"ios": "https://dc.lft.to/lastmile_qr_scan", "android": "https://dc.lft.to/lastmile_qr_scan"}, "is_disabled": 0, "lon": -76.9392965, "name": "5d9db3583bfa8479dc473460d49e6826", "fusion_lon": 0.0}, {"lat": 38.901046, "fusion_lat": 0.0, "type": "electric_scooter", "bike_id": "5a7263ae423e7dfded81fdeaf84178f1", "is_reserved": 0, "rental_uris": {"ios": "https://dc.lft.to/lastmile_qr_scan", "android": "https://dc.lft.to/lastmile_qr_scan"}, "is_disabled": 0, "lon": -77.00607133333334, "name": "5a7263ae423e7dfded81fdeaf84178f1", "fusion_lon": 0.0}, {"lat": 38.9177435, "fusion_lat": 0.0, "type": "electric_scooter", "bike_id": "c3d2fd7ab65a37661e0cd9dac1e5948a", "is_reserved": 0, "rental_uris": {"ios": "https://dc.lft.to/lastmile_qr_scan", "android": "https://dc.lft.to/lastmile_qr_scan"}, "is_disabled": 0, "lon": -77.04765333333333, "name": "c3d2fd7ab65a37661e0cd9dac1e5948a", "fusion_lon": 0.0}, {"lat": 38.956265333333334, "fusion_lat": 0.0, "type": "electric_bike", "bike_id": "302d985db6d4d28e5dc324efa22f606f", "is_reserved": 0, "rental_uris": {"ios": "https://dc.lft.to/lastmile_qr_scan", "android": "https://dc.lft.to/lastmile_qr_scan"}, "is_disabled": 0, "lon": -76.93871783333333, "name": "302d985db6d4d28e5dc324efa22f606f", "fusion_lon": 0.0}, {"lat": 38.911014, "fusion_lat": 0.0, "type": "electric_scooter", "bike_id": "4584af6053e364807d2a3cb08dfc500c", "is_reserved": 0, "rental_uris": {"ios": "https://dc.lft.to/lastmile_qr_scan", "android": "https://dc.lft.to/lastmile_qr_scan"}, "is_disabled": 0, "lon": -77.03201266666666, "name": "4584af6053e364807d2a3cb08dfc500c", "fusion_lon": 0.0}, {"lat": 38.902682666666664, "fusion_lat": 0.0, "type": "electric_scooter", "bike_id": "e8ff15539d187cd360f30915c33780d4", "is_reserved": 0, "rental_uris": {"ios": "https://dc.lft.to/lastmile_qr_scan", "android": "https://dc.lft.to/lastmile_qr_scan"}, "is_disabled": 0, "lon": -77.0397885, "name": "e8ff15539d187cd360f30915c33780d4", "fusion_lon": 0.0}, {"lat": 38.90472966666667, "fusion_lat": 0.0, "type": "electric_scooter", "bike_id": "c9355e48250ae38a3618609d79fc420f", "is_reserved": 0, "rental_uris": {"ios": "https://dc.lft.to/lastmile_qr_scan", "android": "https://dc.lft.to/lastmile_qr_scan"}, "is_disabled": 0, "lon": -77.05342716666667, "name": "c9355e48250ae38a3618609d79fc420f", "fusion_lon": 0.0}, {"lat": 38.88721433333333, "fusion_lat": 0.0, "type": "electric_scooter", "bike_id": "3960b7a9fd965ed2dc9fd2f8da9c1a59", "is_reserved": 0, "rental_uris": {"ios": "https://dc.lft.to/lastmile_qr_scan", "android": "https://dc.lft.to/lastmile_qr_scan"}, "is_disabled": 0, "lon": -77.02204933333333, "name": "3960b7a9fd965ed2dc9fd2f8da9c1a59", "fusion_lon": 0.0}, {"lat": 38.921111, "fusion_lat": 0.0, "type": "electric_scooter", "bike_id": "82605d97db937adedf09406e9bc049e5", "is_reserved": 0, "rental_uris": {"ios": "https://dc.lft.to/lastmile_qr_scan", "android": "https://dc.lft.to/lastmile_qr_scan"}, "is_disabled": 0, "lon": -77.03043166666667, "name": "82605d97db937adedf09406e9bc049e5", "fusion_lon": 0.0}, {"lat": 38.913141833333334, "fusion_lat": 0.0, "type": "electric_bike", "bike_id": "0128c0a8ade06c883a2719ebb53b7d7f", "is_reserved": 0, "rental_uris": {"ios": "https://dc.lft.to/lastmile_qr_scan", "android": "https://dc.lft.to/lastmile_qr_scan"}, "is_disabled": 0, "lon": -77.22309483333333, "name": "0128c0a8ade06c883a2719ebb53b7d7f", "fusion_lon": 0.0}, {"lat": 38.86375866666667, "fusion_lat": 0.0, "type": "electric_scooter", "bike_id": "adb007d4405920d053c996373890af6a", "is_reserved": 0, "rental_uris": {"ios": "https://dc.lft.to/lastmile_qr_scan", "android": "https://dc.lft.to/lastmile_qr_scan"}, "is_disabled": 0, "lon": -76.99059466666667, "name": "adb007d4405920d053c996373890af6a", "fusion_lon": 0.0}, {"lat": 38.91558116666667, "fusion_lat": 0.0, "type": "electric_scooter", "bike_id": "775fca2a93c95a12dcb26de5595cb00e", "is_reserved": 0, "rental_uris": {"ios": "https://dc.lft.to/lastmile_qr_scan", "android": "https://dc.lft.to/lastmile_qr_scan"}, "is_disabled": 0, "lon": -77.0316395, "name": "775fca2a93c95a12dcb26de5595cb00e", "fusion_lon": 0.0}, {"lat": 38.90409866666667, "fusion_lat": 0.0, "type": "electric_scooter", "bike_id": "285985ee773b992148dd7b98daebc702", "is_reserved": 0, "rental_uris": {"ios": "https://dc.lft.to/lastmile_qr_scan", "android": "https://dc.lft.to/lastmile_qr_scan"}, "is_disabled": 0, "lon": -77.01620316666667, "name": "285985ee773b992148dd7b98daebc702", "fusion_lon": 0.0}, {"lat": 38.908523333333335, "fusion_lat": 0.0, "type": "electric_scooter", "bike_id": "95729b19f565f108ceb076e5c7a9e439", "is_reserved": 0, "rental_uris": {"ios": "https://dc.lft.to/lastmile_qr_scan", "android": "https://dc.lft.to/lastmile_qr_scan"}, "is_disabled": 0, "lon": -76.99795916666666, "name": "95729b19f565f108ceb076e5c7a9e439", "fusion_lon": 0.0}, {"lat": 38.88373766666667, "fusion_lat": 0.0, "type": "electric_scooter", "bike_id": "a39bba60d51080aabcbfc90bdedbebdd", "is_reserved": 0, "rental_uris": {"ios": "https://dc.lft.to/lastmile_qr_scan", "android": "https://dc.lft.to/lastmile_qr_scan"}, "is_disabled": 0, "lon": -76.99523333333333, "name": "a39bba60d51080aabcbfc90bdedbebdd", "fusion_lon": 0.0}, {"lat": 38.89347733333334, "fusion_lat": 0.0, "type": "electric_scooter", "bike_id": "211ce28fcb406b51295937f5d0c5cab3", "is_reserved": 0, "rental_uris": {"ios": "https://dc.lft.to/lastmile_qr_scan", "android": "https://dc.lft.to/lastmile_qr_scan"}, "is_disabled": 0, "lon": -76.98088966666667, "name": "211ce28fcb406b51295937f5d0c5cab3", "fusion_lon": 0.0}, {"lat": 38.8748395, "fusion_lat": 0.0, "type": "electric_bike", "bike_id": "4d95e0b1146ac8426a8734589c64871f", "is_reserved": 0, "rental_uris": {"ios": "https://dc.lft.to/lastmile_qr_scan", "android": "https://dc.lft.to/lastmile_qr_scan"}, "is_disabled": 0, "lon": -76.96527716666667, "name": "4d95e0b1146ac8426a8734589c64871f", "fusion_lon": 0.0}, {"lat": 38.9101625, "fusion_lat": 0.0, "type": "electric_scooter", "bike_id": "77a34a0ed6c0558f24a18bbcbf807e79", "is_reserved": 0, "rental_uris": {"ios": "https://dc.lft.to/lastmile_qr_scan", "android": "https://dc.lft.to/lastmile_qr_scan"}, "is_disabled": 0, "lon": -77.0526595, "name": "77a34a0ed6c0558f24a18bbcbf807e79", "fusion_lon": 0.0}, {"lat": 38.892257666666666, "fusion_lat": 0.0, "type": "electric_scooter", "bike_id": "8d5c379bcfa518666aabc7012a92b9b7", "is_reserved": 0, "rental_uris": {"ios": "https://dc.lft.to/lastmile_qr_scan", "android": "https://dc.lft.to/lastmile_qr_scan"}, "is_disabled": 0, "lon": -77.04862283333334, "name": "8d5c379bcfa518666aabc7012a92b9b7", "fusion_lon": 0.0}, {"lat": 38.907202833333336, "fusion_lat": 0.0, "type": "electric_scooter", "bike_id": "6b1c189794933c3ebaaafce57e5dfb3d", "is_reserved": 0, "rental_uris": {"ios": "https://dc.lft.to/lastmile_qr_scan", "android": "https://dc.lft.to/lastmile_qr_scan"}, "is_disabled": 0, "lon": -77.02888966666667, "name": "6b1c189794933c3ebaaafce57e5dfb3d", "fusion_lon": 0.0}, {"lat": 38.904003, "fusion_lat": 0.0, "type": "electric_scooter", "bike_id": "2f8982bf612f21fb86a59c13f94c73c5", "is_reserved": 0, "rental_uris": {"ios": "https://dc.lft.to/lastmile_qr_scan", "android": "https://dc.lft.to/lastmile_qr_scan"}, "is_disabled": 0, "lon": -77.06511966666666, "name": "2f8982bf612f21fb86a59c13f94c73c5", "fusion_lon": 0.0}, {"lat": 38.90013166666667, "fusion_lat": 0.0, "type": "electric_scooter", "bike_id": "f72a9d5284623ecde9d69662f5842636", "is_reserved": 0, "rental_uris": {"ios": "https://dc.lft.to/lastmile_qr_scan", "android": "https://dc.lft.to/lastmile_qr_scan"}, "is_disabled": 0, "lon": -76.99616233333333, "name": "f72a9d5284623ecde9d69662f5842636", "fusion_lon": 0.0}, {"lat": 38.897210333333334, "fusion_lat": 0.0, "type": "electric_scooter", "bike_id": "2e515dcfceace4aca68d5197ec6d216a", "is_reserved": 0, "rental_uris": {"ios": "https://dc.lft.to/lastmile_qr_scan", "android": "https://dc.lft.to/lastmile_qr_scan"}, "is_disabled": 0, "lon": -77.0079715, "name": "2e515dcfceace4aca68d5197ec6d216a", "fusion_lon": 0.0}, {"lat": 38.938378166666666, "fusion_lat": 0.0, "type": "electric_scooter", "bike_id": "a8eefb2446691486fba6ba6ff04faebc", "is_reserved": 0, "rental_uris": {"ios": "https://dc.lft.to/lastmile_qr_scan", "android": "https://dc.lft.to/lastmile_qr_scan"}, "is_disabled": 0, "lon": -76.99694616666666, "name": "a8eefb2446691486fba6ba6ff04faebc", "fusion_lon": 0.0}, {"lat": 38.8746115, "fusion_lat": 0.0, "type": "electric_scooter", "bike_id": "d250853bf75637cd7c4156f1896a79ec", "is_reserved": 0, "rental_uris": {"ios": "https://dc.lft.to/lastmile_qr_scan", "android": "https://dc.lft.to/lastmile_qr_scan"}, "is_disabled": 0, "lon": -77.00314133333333, "name": "d250853bf75637cd7c4156f1896a79ec", "fusion_lon": 0.0}, {"lat": 38.923358666666665, "fusion_lat": 0.0, "type": "electric_scooter", "bike_id": "6c4ca0ad2222c3341465065476ab2b5e", "is_reserved": 0, "rental_uris": {"ios": "https://dc.lft.to/lastmile_qr_scan", "android": "https://dc.lft.to/lastmile_qr_scan"}, "is_disabled": 0, "lon": -77.02336616666666, "name": "6c4ca0ad2222c3341465065476ab2b5e", "fusion_lon": 0.0}, {"lat": 38.9484205, "fusion_lat": 0.0, "type": "electric_scooter", "bike_id": "28327ff5c5a8fadfd0d6bdc8f4377806", "is_reserved": 0, "rental_uris": {"ios": "https://dc.lft.to/lastmile_qr_scan", "android": "https://dc.lft.to/lastmile_qr_scan"}, "is_disabled": 0, "lon": -77.02543733333333, "name": "28327ff5c5a8fadfd0d6bdc8f4377806", "fusion_lon": 0.0}, {"lat": 38.89975716666667, "fusion_lat": 0.0, "type": "electric_scooter", "bike_id": "6c358fdad69b57432c40cf58c94d9f58", "is_reserved": 0, "rental_uris": {"ios": "https://dc.lft.to/lastmile_qr_scan", "android": "https://dc.lft.to/lastmile_qr_scan"}, "is_disabled": 0, "lon": -77.04652316666666, "name": "6c358fdad69b57432c40cf58c94d9f58", "fusion_lon": 0.0}, {"lat": 38.93424616666667, "fusion_lat": 0.0, "type": "electric_scooter", "bike_id": "53d429de37a8a89becf2e8a6ec5f9768", "is_reserved": 0, "rental_uris": {"ios": "https://dc.lft.to/lastmile_qr_scan", "android": "https://dc.lft.to/lastmile_qr_scan"}, "is_disabled": 0, "lon": -77.03906016666667, "name": "53d429de37a8a89becf2e8a6ec5f9768", "fusion_lon": 0.0}, {"lat": 38.91573116666667, "fusion_lat": 0.0, "type": "electric_scooter", "bike_id": "fad0f35cb827f84c9bda70aa974b92f6", "is_reserved": 0, "rental_uris": {"ios": "https://dc.lft.to/lastmile_qr_scan", "android": "https://dc.lft.to/lastmile_qr_scan"}, "is_disabled": 0, "lon": -77.02288116666666, "name": "fad0f35cb827f84c9bda70aa974b92f6", "fusion_lon": 0.0}, {"lat": 38.882295166666665, "fusion_lat": 0.0, "type": "electric_scooter", "bike_id": "88cc35ac584fd4f6fa71cd85934c2b3b", "is_reserved": 0, "rental_uris": {"ios": "https://dc.lft.to/lastmile_qr_scan", "android": "https://dc.lft.to/lastmile_qr_scan"}, "is_disabled": 0, "lon": -77.02970333333333, "name": "88cc35ac584fd4f6fa71cd85934c2b3b", "fusion_lon": 0.0}, {"lat": 38.903389, "fusion_lat": 0.0, "type": "electric_scooter", "bike_id": "5e7537e50e85d42fb7aa3ce11d4115df", "is_reserved": 0, "rental_uris": {"ios": "https://dc.lft.to/lastmile_qr_scan", "android": "https://dc.lft.to/lastmile_qr_scan"}, "is_disabled": 0, "lon": -76.97580533333333, "name": "5e7537e50e85d42fb7aa3ce11d4115df", "fusion_lon": 0.0}, {"lat": 38.901563833333334, "fusion_lat": 0.0, "type": "electric_scooter", "bike_id": "868f606fb6e97081bc8c84671fca9b1a", "is_reserved": 0, "rental_uris": {"ios": "https://dc.lft.to/lastmile_qr_scan", "android": "https://dc.lft.to/lastmile_qr_scan"}, "is_disabled": 0, "lon": -76.92139383333334, "name": "868f606fb6e97081bc8c84671fca9b1a", "fusion_lon": 0.0}, {"lat": 38.85417233333333, "fusion_lat": 0.0, "type": "electric_bike", "bike_id": "ca00f5b67b057dba7d80ce1dc48eb9cd", "is_reserved": 0, "rental_uris": {"ios": "https://dc.lft.to/lastmile_qr_scan", "android": "https://dc.lft.to/lastmile_qr_scan"}, "is_disabled": 0, "lon": -77.12078466666667, "name": "ca00f5b67b057dba7d80ce1dc48eb9cd", "fusion_lon": 0.0}, {"lat": 38.86243416666667, "fusion_lat": 0.0, "type": "electric_scooter", "bike_id": "abc1fe8dbce9b8569ec92cb878a7a146", "is_reserved": 0, "rental_uris": {"ios": "https://dc.lft.to/lastmile_qr_scan", "android": "https://dc.lft.to/lastmile_qr_scan"}, "is_disabled": 0, "lon": -76.9949485, "name": "abc1fe8dbce9b8569ec92cb878a7a146", "fusion_lon": 0.0}, {"lat": 38.92566816666667, "fusion_lat": 0.0, "type": "electric_scooter", "bike_id": "9e1ab28d65f0e3e68ba7f7278fe9763a", "is_reserved": 0, "rental_uris": {"ios": "https://dc.lft.to/lastmile_qr_scan", "android": "https://dc.lft.to/lastmile_qr_scan"}, "is_disabled": 0, "lon": -77.03242933333334, "name": "9e1ab28d65f0e3e68ba7f7278fe9763a", "fusion_lon": 0.0}, {"lat": 38.90755216666667, "fusion_lat": 0.0, "type": "electric_scooter", "bike_id": "8de80276a8ebb38e806d7ed7eaa2c4aa", "is_reserved": 0, "rental_uris": {"ios": "https://dc.lft.to/lastmile_qr_scan", "android": "https://dc.lft.to/lastmile_qr_scan"}, "is_disabled": 0, "lon": -77.034674, "name": "8de80276a8ebb38e806d7ed7eaa2c4aa", "fusion_lon": 0.0}, {"lat": 38.90722916666667, "fusion_lat": 0.0, "type": "electric_scooter", "bike_id": "9b1e464be2ba1a112ee52aa9a59f72e8", "is_reserved": 0, "rental_uris": {"ios": "https://dc.lft.to/lastmile_qr_scan", "android": "https://dc.lft.to/lastmile_qr_scan"}, "is_disabled": 0, "lon": -77.01011266666667, "name": "9b1e464be2ba1a112ee52aa9a59f72e8", "fusion_lon": 0.0}, {"lat": 38.90194616666667, "fusion_lat": 0.0, "type": "electric_scooter", "bike_id": "8df94b92fe8e499ab5c1028074f49705", "is_reserved": 0, "rental_uris": {"ios": "https://dc.lft.to/lastmile_qr_scan", "android": "https://dc.lft.to/lastmile_qr_scan"}, "is_disabled": 0, "lon": -76.98846766666666, "name": "8df94b92fe8e499ab5c1028074f49705", "fusion_lon": 0.0}, {"lat": 38.940743499999996, "fusion_lat": 0.0, "type": "electric_scooter", "bike_id": "1e71288e12fdb5e0a67bf3606f17df52", "is_reserved": 0, "rental_uris": {"ios": "https://dc.lft.to/lastmile_qr_scan", "android": "https://dc.lft.to/lastmile_qr_scan"}, "is_disabled": 0, "lon": -77.05253233333333, "name": "1e71288e12fdb5e0a67bf3606f17df52", "fusion_lon": 0.0}, {"lat": 38.87665666666667, "fusion_lat": 0.0, "type": "electric_scooter", "bike_id": "e270690e2b1053ff1619eed29aba135c", "is_reserved": 0, "rental_uris": {"ios": "https://dc.lft.to/lastmile_qr_scan", "android": "https://dc.lft.to/lastmile_qr_scan"}, "is_disabled": 0, "lon": -77.00734583333333, "name": "e270690e2b1053ff1619eed29aba135c", "fusion_lon": 0.0}, {"lat": 38.921723166666666, "fusion_lat": 0.0, "type": "electric_scooter", "bike_id": "bd0abc95548fdb6bc006d0c0a0820b32", "is_reserved": 0, "rental_uris": {"ios": "https://dc.lft.to/lastmile_qr_scan", "android": "https://dc.lft.to/lastmile_qr_scan"}, "is_disabled": 0, "lon": -77.01923266666667, "name": "bd0abc95548fdb6bc006d0c0a0820b32", "fusion_lon": 0.0}, {"lat": 38.89239466666667, "fusion_lat": 0.0, "type": "electric_scooter", "bike_id": "2aa0c7c143a5e6630b272be6e6f3eab9", "is_reserved": 0, "rental_uris": {"ios": "https://dc.lft.to/lastmile_qr_scan", "android": "https://dc.lft.to/lastmile_qr_scan"}, "is_disabled": 0, "lon": -77.023821, "name": "2aa0c7c143a5e6630b272be6e6f3eab9", "fusion_lon": 0.0}, {"lat": 38.93863733333333, "fusion_lat": 0.0, "type": "electric_scooter", "bike_id": "4eff6b10929bdd79c1c56989e94af16d", "is_reserved": 0, "rental_uris": {"ios": "https://dc.lft.to/lastmile_qr_scan", "android": "https://dc.lft.to/lastmile_qr_scan"}, "is_disabled": 0, "lon": -77.0247875, "name": "4eff6b10929bdd79c1c56989e94af16d", "fusion_lon": 0.0}, {"lat": 38.91994966666667, "fusion_lat": 0.0, "type": "electric_scooter", "bike_id": "b23a058d4709c8b23eb2159a980d6a45", "is_reserved": 0, "rental_uris": {"ios": "https://dc.lft.to/lastmile_qr_scan", "android": "https://dc.lft.to/lastmile_qr_scan"}, "is_disabled": 0, "lon": -77.03302483333333, "name": "b23a058d4709c8b23eb2159a980d6a45", "fusion_lon": 0.0}, {"lat": 38.921171, "fusion_lat": 0.0, "type": "electric_scooter", "bike_id": "b1abbda6c502be488045dfb998eab9bd", "is_reserved": 0, "rental_uris": {"ios": "https://dc.lft.to/lastmile_qr_scan", "android": "https://dc.lft.to/lastmile_qr_scan"}, "is_disabled": 0, "lon": -77.045762, "name": "b1abbda6c502be488045dfb998eab9bd", "fusion_lon": 0.0}, {"lat": 38.914822, "fusion_lat": 0.0, "type": "electric_scooter", "bike_id": "225f7b66da0a4fdc6ff4d383c803e9a1", "is_reserved": 0, "rental_uris": {"ios": "https://dc.lft.to/lastmile_qr_scan", "android": "https://dc.lft.to/lastmile_qr_scan"}, "is_disabled": 0, "lon": -76.98578116666667, "name": "225f7b66da0a4fdc6ff4d383c803e9a1", "fusion_lon": 0.0}, {"lat": 38.91989916666667, "fusion_lat": 0.0, "type": "electric_scooter", "bike_id": "6540b9f579d48511bf22b6a66c66302d", "is_reserved": 0, "rental_uris": {"ios": "https://dc.lft.to/lastmile_qr_scan", "android": "https://dc.lft.to/lastmile_qr_scan"}, "is_disabled": 0, "lon": -76.97301316666666, "name": "6540b9f579d48511bf22b6a66c66302d", "fusion_lon": 0.0}, {"lat": 38.90247816666667, "fusion_lat": 0.0, "type": "electric_scooter", "bike_id": "2aa9b4d59cd57fe6e8264c20e0c35fc9", "is_reserved": 0, "rental_uris": {"ios": "https://dc.lft.to/lastmile_qr_scan", "android": "https://dc.lft.to/lastmile_qr_scan"}, "is_disabled": 0, "lon": -77.03264133333333, "name": "2aa9b4d59cd57fe6e8264c20e0c35fc9", "fusion_lon": 0.0}, {"lat": 38.874599, "fusion_lat": 0.0, "type": "electric_scooter", "bike_id": "f04a005a2f66d03fc5a2e24143260814", "is_reserved": 0, "rental_uris": {"ios": "https://dc.lft.to/lastmile_qr_scan", "android": "https://dc.lft.to/lastmile_qr_scan"}, "is_disabled": 0, "lon": -77.005438, "name": "f04a005a2f66d03fc5a2e24143260814", "fusion_lon": 0.0}, {"lat": 38.887765, "fusion_lat": 0.0, "type": "electric_scooter", "bike_id": "53ca79ced777654a23c71639eeaa7d0b", "is_reserved": 0, "rental_uris": {"ios": "https://dc.lft.to/lastmile_qr_scan", "android": "https://dc.lft.to/lastmile_qr_scan"}, "is_disabled": 0, "lon": -77.02268, "name": "53ca79ced777654a23c71639eeaa7d0b", "fusion_lon": 0.0}, {"lat": 38.92973833333333, "fusion_lat": 0.0, "type": "electric_scooter", "bike_id": "0a9b2902176e314065ed76ce5248180a", "is_reserved": 0, "rental_uris": {"ios": "https://dc.lft.to/lastmile_qr_scan", "android": "https://dc.lft.to/lastmile_qr_scan"}, "is_disabled": 0, "lon": -76.9907245, "name": "0a9b2902176e314065ed76ce5248180a", "fusion_lon": 0.0}, {"lat": 38.909881, "fusion_lat": 0.0, "type": "electric_scooter", "bike_id": "c7b05d41dddace240a2ff4eb7d75f6c6", "is_reserved": 0, "rental_uris": {"ios": "https://dc.lft.to/lastmile_qr_scan", "android": "https://dc.lft.to/lastmile_qr_scan"}, "is_disabled": 0, "lon": -77.0216565, "name": "c7b05d41dddace240a2ff4eb7d75f6c6", "fusion_lon": 0.0}, {"lat": 38.935361, "fusion_lat": 0.0, "type": "electric_scooter", "bike_id": "e9755da83340859bceeb831cd742571c", "is_reserved": 0, "rental_uris": {"ios": "https://dc.lft.to/lastmile_qr_scan", "android": "https://dc.lft.to/lastmile_qr_scan"}, "is_disabled": 0, "lon": -77.05443433333333, "name": "e9755da83340859bceeb831cd742571c", "fusion_lon": 0.0}, {"lat": 38.90035183333333, "fusion_lat": 0.0, "type": "electric_scooter", "bike_id": "aabfe0088e72af09ebb2715c2d27d38b", "is_reserved": 0, "rental_uris": {"ios": "https://dc.lft.to/lastmile_qr_scan", "android": "https://dc.lft.to/lastmile_qr_scan"}, "is_disabled": 0, "lon": -76.980636, "name": "aabfe0088e72af09ebb2715c2d27d38b", "fusion_lon": 0.0}, {"lat": 38.9116055, "fusion_lat": 0.0, "type": "electric_scooter", "bike_id": "1124376892750a4159f7cd400b06e7a1", "is_reserved": 0, "rental_uris": {"ios": "https://dc.lft.to/lastmile_qr_scan", "android": "https://dc.lft.to/lastmile_qr_scan"}, "is_disabled": 0, "lon": -77.03848616666667, "name": "1124376892750a4159f7cd400b06e7a1", "fusion_lon": 0.0}, {"lat": 38.921303, "fusion_lat": 0.0, "type": "electric_scooter", "bike_id": "ae0df6d378d772e674a335fc086c516b", "is_reserved": 0, "rental_uris": {"ios": "https://dc.lft.to/lastmile_qr_scan", "android": "https://dc.lft.to/lastmile_qr_scan"}, "is_disabled": 0, "lon": -77.03315866666667, "name": "ae0df6d378d772e674a335fc086c516b", "fusion_lon": 0.0}, {"lat": 38.86218516666667, "fusion_lat": 0.0, "type": "electric_scooter", "bike_id": "1f673655d9b353d83714cb158e2ee4ec", "is_reserved": 0, "rental_uris": {"ios": "https://dc.lft.to/lastmile_qr_scan", "android": "https://dc.lft.to/lastmile_qr_scan"}, "is_disabled": 0, "lon": -76.994775, "name": "1f673655d9b353d83714cb158e2ee4ec", "fusion_lon": 0.0}, {"lat": 38.9064605, "fusion_lat": 0.0, "type": "electric_scooter", "bike_id": "619cba7a3f66faff378fc1f975c81271", "is_reserved": 0, "rental_uris": {"ios": "https://dc.lft.to/lastmile_qr_scan", "android": "https://dc.lft.to/lastmile_qr_scan"}, "is_disabled": 0, "lon": -77.04172616666666, "name": "619cba7a3f66faff378fc1f975c81271", "fusion_lon": 0.0}, {"lat": 38.90241266666666, "fusion_lat": 0.0, "type": "electric_scooter", "bike_id": "5eed47eea9160363d90486ffb0988be7", "is_reserved": 0, "rental_uris": {"ios": "https://dc.lft.to/lastmile_qr_scan", "android": "https://dc.lft.to/lastmile_qr_scan"}, "is_disabled": 0, "lon": -76.97414516666667, "name": "5eed47eea9160363d90486ffb0988be7", "fusion_lon": 0.0}, {"lat": 38.90769266666667, "fusion_lat": 0.0, "type": "electric_scooter", "bike_id": "f3608c5a1996df3c2f301d9bf0679e61", "is_reserved": 0, "rental_uris": {"ios": "https://dc.lft.to/lastmile_qr_scan", "android": "https://dc.lft.to/lastmile_qr_scan"}, "is_disabled": 0, "lon": -77.03212233333333, "name": "f3608c5a1996df3c2f301d9bf0679e61", "fusion_lon": 0.0}, {"lat": 38.93380716666667, "fusion_lat": 0.0, "type": "electric_scooter", "bike_id": "71bec91bd0fb7083fc09efd55215865d", "is_reserved": 0, "rental_uris": {"ios": "https://dc.lft.to/lastmile_qr_scan", "android": "https://dc.lft.to/lastmile_qr_scan"}, "is_disabled": 0, "lon": -77.057585, "name": "71bec91bd0fb7083fc09efd55215865d", "fusion_lon": 0.0}, {"lat": 38.9046625, "fusion_lat": 0.0, "type": "electric_scooter", "bike_id": "4ce04919502e9ec7eff7af5c03388bd8", "is_reserved": 0, "rental_uris": {"ios": "https://dc.lft.to/lastmile_qr_scan", "android": "https://dc.lft.to/lastmile_qr_scan"}, "is_disabled": 0, "lon": -77.039861, "name": "4ce04919502e9ec7eff7af5c03388bd8", "fusion_lon": 0.0}, {"lat": 38.899374, "fusion_lat": 0.0, "type": "electric_scooter", "bike_id": "c5ab14c55962864fbfa191f94b5b3f58", "is_reserved": 0, "rental_uris": {"ios": "https://dc.lft.to/lastmile_qr_scan", "android": "https://dc.lft.to/lastmile_qr_scan"}, "is_disabled": 0, "lon": -77.00759883333333, "name": "c5ab14c55962864fbfa191f94b5b3f58", "fusion_lon": 0.0}, {"lat": 38.850684, "fusion_lat": 0.0, "type": "electric_scooter", "bike_id": "154b4e6b0db87c6b84720ca11ccc628e", "is_reserved": 0, "rental_uris": {"ios": "https://dc.lft.to/lastmile_qr_scan", "android": "https://dc.lft.to/lastmile_qr_scan"}, "is_disabled": 0, "lon": -76.97007333333333, "name": "154b4e6b0db87c6b84720ca11ccc628e", "fusion_lon": 0.0}, {"lat": 38.903822166666664, "fusion_lat": 0.0, "type": "electric_scooter", "bike_id": "b363a44c3c64574a07ed8975581c4e8e", "is_reserved": 0, "rental_uris": {"ios": "https://dc.lft.to/lastmile_qr_scan", "android": "https://dc.lft.to/lastmile_qr_scan"}, "is_disabled": 0, "lon": -77.033214, "name": "b363a44c3c64574a07ed8975581c4e8e", "fusion_lon": 0.0}, {"lat": 38.89311683333333, "fusion_lat": 0.0, "type": "electric_scooter", "bike_id": "e69de2473dc0077f280d1fb2e8cc7bfa", "is_reserved": 0, "rental_uris": {"ios": "https://dc.lft.to/lastmile_qr_scan", "android": "https://dc.lft.to/lastmile_qr_scan"}, "is_disabled": 0, "lon": -76.93974733333333, "name": "e69de2473dc0077f280d1fb2e8cc7bfa", "fusion_lon": 0.0}, {"lat": 38.915622166666665, "fusion_lat": 0.0, "type": "electric_scooter", "bike_id": "04a8df42182722fe8741ec9a1d4a7250", "is_reserved": 0, "rental_uris": {"ios": "https://dc.lft.to/lastmile_qr_scan", "android": "https://dc.lft.to/lastmile_qr_scan"}, "is_disabled": 0, "lon": -77.03958816666666, "name": "04a8df42182722fe8741ec9a1d4a7250", "fusion_lon": 0.0}, {"lat": 38.8837635, "fusion_lat": 0.0, "type": "electric_scooter", "bike_id": "8d0405a37b9eee5a0c2cc66743a56ea6", "is_reserved": 0, "rental_uris": {"ios": "https://dc.lft.to/lastmile_qr_scan", "android": "https://dc.lft.to/lastmile_qr_scan"}, "is_disabled": 0, "lon": -76.99517216666666, "name": "8d0405a37b9eee5a0c2cc66743a56ea6", "fusion_lon": 0.0}, {"lat": 38.915935833333336, "fusion_lat": 0.0, "type": "electric_scooter", "bike_id": "4c2951808d8c4acdc60c22fc2d515490", "is_reserved": 0, "rental_uris": {"ios": "https://dc.lft.to/lastmile_qr_scan", "android": "https://dc.lft.to/lastmile_qr_scan"}, "is_disabled": 0, "lon": -77.04520883333333, "name": "4c2951808d8c4acdc60c22fc2d515490", "fusion_lon": 0.0},