{"data": {"bikes": [{"type": "electric_scooter", "name": "646e2efbfcab2bdc5719a039f95ec299", "fusion_lat": 0.0, "fusion_lon": 0.0, "lon": -77.04232266666666, "is_disabled": 0, "bike_id": "646e2efbfcab2bdc5719a039f95ec299", "is_reserved": 0, "rental_uris": {"android": "https://dc.lft.to/lastmile_qr_scan", "ios": "https://dc.lft.to/lastmile_qr_scan"}, "lat": 38.9219195}, {"type": "electric_scooter", "name": "0e8404c2c57ef1d4f27ac97871d7fb15", "fusion_lat": 0.0, "fusion_lon": 0.0, "lon": -76.99628983333334, "is_disabled": 0, "bike_id": "0e8404c2c57ef1d4f27ac97871d7fb15", "is_reserved": 0, "rental_uris": {"android": "https://dc.lft.to/lastmile_qr_scan", "ios": "https://dc.lft.to/lastmile_qr_scan"}, "lat": 38.877381666666665}, {"type": "electric_scooter", "name": "0e1f86ad7492d1ac6c4f8262d142dc10", "fusion_lat": 0.0, "fusion_lon": 0.0, "lon": -77.0092365, "is_disabled": 0, "bike_id": "0e1f86ad7492d1ac6c4f8262d142dc10", "is_reserved": 0, "rental_uris": {"android": "https://dc.lft.to/lastmile_qr_scan", "ios": "https://dc.lft.to/lastmile_qr_scan"}, "lat": 38.874539}, {"type": "electric_scooter", "name": "94fa02a1d984c7ca2e9411385fda939c", "fusion_lat": 0.0, "fusion_lon": 0.0, "lon": -77.04113233333334, "is_disabled": 0, "bike_id": "94fa02a1d984c7ca2e9411385fda939c", "is_reserved": 0, "rental_uris": {"android": "https://dc.lft.to/lastmile_qr_scan", "ios": "https://dc.lft.to/lastmile_qr_scan"}, "lat": 38.90006616666667}, {"type": "electric_scooter", "name": "e5a5ccf1a7735bb4a41dd69354a0226b", "fusion_lat": 0.0, "fusion_lon": 0.0, "lon": -77.00889516666666, "is_disabled": 0, "bike_id": "e5a5ccf1a7735bb4a41dd69354a0226b", "is_reserved": 0, "rental_uris": {"android": "https://dc.lft.to/lastmile_qr_scan", "ios": "https://dc.lft.to/lastmile_qr_scan"}, "lat": 38.905708833333335}, {"type": "electric_scooter", "name": "79a231c7dad0f53811e1bd462a29df2e", "fusion_lat": 0.0, "fusion_lon": 0.0, "lon": -77.01974, "is_disabled": 0, "bike_id": "79a231c7dad0f53811e1bd462a29df2e", "is_reserved": 0, "rental_uris": {"android": "https://dc.lft.to/lastmile_qr_scan", "ios": "https://dc.lft.to/lastmile_qr_scan"}, "lat": 38.90148716666667}, {"type": "electric_scooter", "name": "0db2e81fad253c2d896e166f67bc32a1", "fusion_lat": 0.0, "fusion_lon": 0.0, "lon": -77.05054033333333, "is_disabled": 0, "bike_id": "0db2e81fad253c2d896e166f67bc32a1", "is_reserved": 0, "rental_uris": {"android": "https://dc.lft.to/lastmile_qr_scan", "ios": "https://dc.lft.to/lastmile_qr_scan"}, "lat": 38.903077333333336}, {"type": "electric_scooter", "name": "32105ce47a9adc6b560ddb82294e89d8", "fusion_lat": 0.0, "fusion_lon": 0.0, "lon": -76.99139266666667, "is_disabled": 0, "bike_id": "32105ce47a9adc6b560ddb82294e89d8", "is_reserved": 0, "rental_uris": {"android": "https://dc.lft.to/lastmile_qr_scan", "ios": "https://dc.lft.to/lastmile_qr_scan"}, "lat": 38.87338666666667}, {"type": "electric_scooter", "name": "d1bbf4f6deeb6ea4151cdd4c0dc6f18e", "fusion_lat": 0.0, "fusion_lon": 0.0, "lon": -77.040003, "is_disabled": 0, "bike_id": "d1bbf4f6deeb6ea4151cdd4c0dc6f18e", "is_reserved": 0, "rental_uris": {"android": "https://dc.lft.to/lastmile_qr_scan", "ios": "https://dc.lft.to/lastmile_qr_scan"}, "lat": 38.93427366666667}, {"type": "electric_scooter", "name": "0358f6773bf30148d88dcd97ea304ef9", "fusion_lat": 0.0, "fusion_lon": 0.0, "lon": -77.026526, "is_disabled": 0, "bike_id": "0358f6773bf30148d88dcd97ea304ef9", "is_reserved": 0, "rental_uris": {"android": "https://dc.lft.to/lastmile_qr_scan", "ios": "https://dc.lft.to/lastmile_qr_scan"}, "lat": 38.923895}, {"type": "electric_bike", "name": "c93c9420eeca84f2c464ff30226b44a9", "fusion_lat": 0.0, "fusion_lon": 0.0, "lon": -77.128902, "is_disabled": 0, "bike_id": "c93c9420eeca84f2c464ff30226b44a9", "is_reserved": 0, "rental_uris": {"android": "https://dc.lft.to/lastmile_qr_scan", "ios": "https://dc.lft.to/lastmile_qr_scan"}, "lat": 38.9059815}, {"type": "electric_scooter", "name": "7af790fb24964e8c448706b5cef1eb0b", "fusion_lat": 0.0, "fusion_lon": 0.0, "lon": -77.042474, "is_disabled": 0, "bike_id": "7af790fb24964e8c448706b5cef1eb0b", "is_reserved": 0, "rental_uris": {"android": "https://dc.lft.to/lastmile_qr_scan", "ios": "https://dc.lft.to/lastmile_qr_scan"}, "lat": 38.907308}, {"type": "electric_bike", "name": "530bfe4259d59a83892d22b5fac5aff2", "fusion_lat": 0.0, "fusion_lon": 0.0, "lon": -76.96887566666666, "is_disabled": 0, "bike_id": "530bfe4259d59a83892d22b5fac5aff2", "is_reserved": 0, "rental_uris": {"android": "https://dc.lft.to/lastmile_qr_scan", "ios": "https://dc.lft.to/lastmile_qr_scan"}, "lat": 38.8698455}, {"type": "electric_bike", "name": "a20425a3a9491750a6e33e2d29355b93", "fusion_lat": 0.0, "fusion_lon": 0.0, "lon": -76.97313783333334, "is_disabled": 0, "bike_id": "a20425a3a9491750a6e33e2d29355b93", "is_reserved": 0, "rental_uris": {"android": "https://dc.lft.to/lastmile_qr_scan", "ios": "https://dc.lft.to/lastmile_qr_scan"}, "lat": 38.91762583333333}, {"type": "electric_scooter", "name": "577745bca9bb028871feda45c38eee19", "fusion_lat": 0.0, "fusion_lon": 0.0, "lon": -77.02315683333333, "is_disabled": 0, "bike_id": "577745bca9bb028871feda45c38eee19", "is_reserved": 0, "rental_uris": {"android": "https://dc.lft.to/lastmile_qr_scan", "ios": "https://dc.lft.to/lastmile_qr_scan"}, "lat": 38.91775}, {"type": "electric_scooter", "name": "b7fc3e9cde7b10766a59d6146d00afd1", "fusion_lat": 0.0, "fusion_lon": 0.0, "lon": -77.01779416666666, "is_disabled": 0, "bike_id": "b7fc3e9cde7b10766a59d6146d00afd1", "is_reserved": 0, "rental_uris": {"android": "https://dc.lft.to/lastmile_qr_scan", "ios": "https://dc.lft.to/lastmile_qr_scan"}, "lat": 38.92110983333333}, {"type": "electric_scooter", "name": "668a5685f68ccc87854717f8f2e99f01", "fusion_lat": 0.0, "fusion_lon": 0.0, "lon": -77.035602, "is_disabled": 0, "bike_id": "668a5685f68ccc87854717f8f2e99f01", "is_reserved": 0, "rental_uris": {"android": "https://dc.lft.to/lastmile_qr_scan", "ios": "https://dc.lft.to/lastmile_qr_scan"}, "lat": 38.9096565}, {"type": "electric_bike", "name": "2b5b25716da89ba697ff78c003c48a97", "fusion_lat": 0.0, "fusion_lon": 0.0, "lon": -77.07751966666666, "is_disabled": 0, "bike_id": "2b5b25716da89ba697ff78c003c48a97", "is_reserved": 0, "rental_uris": {"android": "https://dc.lft.to/lastmile_qr_scan", "ios": "https://dc.lft.to/lastmile_qr_scan"}, "lat": 38.8419265}, {"type": "electric_scooter", "name": "b8455976fbac9aafc7f7b8dd938102fe", "fusion_lat": 0.0, "fusion_lon": 0.0, "lon": -77.0160535, "is_disabled": 0, "bike_id": "b8455976fbac9aafc7f7b8dd938102fe", "is_reserved": 0, "rental_uris": {"android": "https://dc.lft.to/lastmile_qr_scan", "ios": "https://dc.lft.to/lastmile_qr_scan"}, "lat": 38.915939333333334}, {"type": "electric_scooter", "name": "6427b60dc28b347da00730bdc68fcb98", "fusion_lat": 0.0, "fusion_lon": 0.0, "lon": -77.05327733333333, "is_disabled": 0, "bike_id": "6427b60dc28b347da00730bdc68fcb98", "is_reserved": 0, "rental_uris": {"android": "https://dc.lft.to/lastmile_qr_scan", "ios": "https://dc.lft.to/lastmile_qr_scan"}, "lat": 38.90648516666667}, {"type": "electric_bike", "name": "71e73746db867343a25a47665b6cf4c6", "fusion_lat": 0.0, "fusion_lon": 0.0, "lon": -76.96088683333333, "is_disabled": 0, "bike_id": "71e73746db867343a25a47665b6cf4c6", "is_reserved": 0, "rental_uris": {"android": "https://dc.lft.to/lastmile_qr_scan", "ios": "https://dc.lft.to/lastmile_qr_scan"}, "lat": 38.9186235}, {"type": "electric_bike", "name": "f469594614c56f4ae1182622c67e93ff", "fusion_lat": 0.0, "fusion_lon": 0.0, "lon": -77.04595683333334, "is_disabled": 0, "bike_id": "f469594614c56f4ae1182622c67e93ff", "is_reserved": 0, "rental_uris": {"android": "https://dc.lft.to/lastmile_qr_scan", "ios": "https://dc.lft.to/lastmile_qr_scan"}, "lat": 38.933029833333336}, {"type": "electric_scooter", "name": "ec4ea90548242ac5c399fa88511515c6", "fusion_lat": 0.0, "fusion_lon": 0.0, "lon": -77.01732866666667, "is_disabled": 0, "bike_id": "ec4ea90548242ac5c399fa88511515c6", "is_reserved": 0, "rental_uris": {"android": "https://dc.lft.to/lastmile_qr_scan", "ios": "https://dc.lft.to/lastmile_qr_scan"}, "lat": 38.9044575}, {"type": "electric_scooter", "name": "e5e2d3be582ff0dfce4946a9ee52cc51", "fusion_lat": 0.0, "fusion_lon": 0.0, "lon": -76.992493, "is_disabled": 0, "bike_id": "e5e2d3be582ff0dfce4946a9ee52cc51", "is_reserved": 0, "rental_uris": {"android": "https://dc.lft.to/lastmile_qr_scan", "ios": "https://dc.lft.to/lastmile_qr_scan"}, "lat": 38.940686666666664}, {"type": "electric_scooter", "name": "50de0f962421c78ebcc6fc814837dc5e", "fusion_lat": 0.0, "fusion_lon": 0.0, "lon": -77.02556916666667, "is_disabled": 0, "bike_id": "50de0f962421c78ebcc6fc814837dc5e", "is_reserved": 0, "rental_uris": {"android": "https://dc.lft.to/lastmile_qr_scan", "ios": "https://dc.lft.to/lastmile_qr_scan"}, "lat": 38.953951833333335}, {"type": "electric_scooter", "name": "77e55522f883cb35ffec7812fd144d09", "fusion_lat": 0.0, "fusion_lon": 0.0, "lon": -77.04193583333333, "is_disabled": 0, "bike_id": "77e55522f883cb35ffec7812fd144d09", "is_reserved": 0, "rental_uris": {"android": "https://dc.lft.to/lastmile_qr_scan", "ios": "https://dc.lft.to/lastmile_qr_scan"}, "lat": 38.920506833333334}, {"type": "electric_scooter", "name": "850305c3b947430cd3dc15bf3cc982d2", "fusion_lat": 0.0, "fusion_lon": 0.0, "lon": -77.007258, "is_disabled": 0, "bike_id": "850305c3b947430cd3dc15bf3cc982d2", "is_reserved": 0, "rental_uris": {"android": "https://dc.lft.to/lastmile_qr_scan", "ios": "https://dc.lft.to/lastmile_qr_scan"}, "lat": 38.876607166666666}, {"type": "electric_scooter", "name": "4ebd13a2fa25df81a6a2165c7f861813", "fusion_lat": 0.0, "fusion_lon": 0.0, "lon": -77.02705666666667, "is_disabled": 0, "bike_id": "4ebd13a2fa25df81a6a2165c7f861813", "is_reserved": 0, "rental_uris": {"android": "https://dc.lft.to/lastmile_qr_scan", "ios": "https://dc.lft.to/lastmile_qr_scan"}, "lat": 38.897678666666664}, {"type": "electric_scooter", "name": "47aa854c98628df2f5b7133da3fb73d7", "fusion_lat": 0.0, "fusion_lon": 0.0, "lon": -76.96516466666667, "is_disabled": 0, "bike_id": "47aa854c98628df2f5b7133da3fb73d7", "is_reserved": 0, "rental_uris": {"android": "https://dc.lft.to/lastmile_qr_scan", "ios": "https://dc.lft.to/lastmile_qr_scan"}, "lat": 38.876294666666666}, {"type": "electric_scooter", "name": "2bb6ca09fcbf13e68474d7e88b87ac97", "fusion_lat": 0.0, "fusion_lon": 0.0, "lon": -76.94105216666667, "is_disabled": 0, "bike_id": "2bb6ca09fcbf13e68474d7e88b87ac97", "is_reserved": 0, "rental_uris": {"android": "https://dc.lft.to/lastmile_qr_scan", "ios": "https://dc.lft.to/lastmile_qr_scan"}, "lat": 38.893666833333334}, {"type": "electric_scooter", "name": "58b36c929ee4a3e979896527de1cb145", "fusion_lat": 0.0, "fusion_lon": 0.0, "lon": -77.028852, "is_disabled": 0, "bike_id": "58b36c929ee4a3e979896527de1cb145", "is_reserved": 0, "rental_uris": {"android": "https://dc.lft.to/lastmile_qr_scan", "ios": "https://dc.lft.to/lastmile_qr_scan"}, "lat": 38.89721516666667}, {"type": "electric_scooter", "name": "5aecd1e65200c8761db47f90c8b4f3f7", "fusion_lat": 0.0, "fusion_lon": 0.0, "lon": -76.997563, "is_disabled": 0, "bike_id": "5aecd1e65200c8761db47f90c8b4f3f7", "is_reserved": 0, "rental_uris": {"android": "https://dc.lft.to/lastmile_qr_scan", "ios": "https://dc.lft.to/lastmile_qr_scan"}, "lat": 38.8850115}, {"type": "electric_scooter", "name": "5f058b2b6b7df34210d236dc09fbfdc3", "fusion_lat": 0.0, "fusion_lon": 0.0, "lon": -77.0427895, "is_disabled": 0, "bike_id": "5f058b2b6b7df34210d236dc09fbfdc3", "is_reserved": 0, "rental_uris": {"android": "https://dc.lft.to/lastmile_qr_scan", "ios": "https://dc.lft.to/lastmile_qr_scan"}, "lat": 38.903613}, {"type": "electric_scooter", "name": "d07880974bb5f9b5a928017d1e2e77c5", "fusion_lat": 0.0, "fusion_lon": 0.0, "lon": -77.02550666666667, "is_disabled": 0, "bike_id": "d07880974bb5f9b5a928017d1e2e77c5", "is_reserved": 0, "rental_uris": {"android": "https://dc.lft.to/lastmile_qr_scan", "ios": "https://dc.lft.to/lastmile_qr_scan"}, "lat": 38.9700275}, {"type": "electric_scooter", "name": "40fe5b94f76c0c1aa2f97b68241aab27", "fusion_lat": 0.0, "fusion_lon": 0.0, "lon": -77.03852833333333, "is_disabled": 0, "bike_id": "40fe5b94f76c0c1aa2f97b68241aab27", "is_reserved": 0, "rental_uris": {"android": "https://dc.lft.to/lastmile_qr_scan", "ios": "https://dc.lft.to/lastmile_qr_scan"}, "lat": 38.915418333333335}, {"type": "electric_scooter", "name": "99d92e42cc2643237bf1eef577639197", "fusion_lat": 0.0, "fusion_lon": 0.0, "lon": -77.043487, "is_disabled": 0, "bike_id": "99d92e42cc2643237bf1eef577639197", "is_reserved": 0, "rental_uris": {"android": "https://dc.lft.to/lastmile_qr_scan", "ios": "https://dc.lft.to/lastmile_qr_scan"}, "lat": 38.90738233333333}, {"type": "electric_scooter", "name": "ad6c0f8bcb7defa60f816c333158fd75", "fusion_lat": 0.0, "fusion_lon": 0.0, "lon": -77.01994433333333, "is_disabled": 0, "bike_id": "ad6c0f8bcb7defa60f816c333158fd75", "is_reserved": 0, "rental_uris": {"android": "https://dc.lft.to/lastmile_qr_scan", "ios": "https://dc.lft.to/lastmile_qr_scan"}, "lat": 38.9662755}, {"type": "electric_bike", "name": "8c838358cdf1b3ce97904e00c0105243", "fusion_lat": 0.0, "fusion_lon": 0.0, "lon": -76.96146266666666, "is_disabled": 0, "bike_id": "8c838358cdf1b3ce97904e00c0105243", "is_reserved": 0, "rental_uris": {"android": "https://dc.lft.to/lastmile_qr_scan", "ios": "https://dc.lft.to/lastmile_qr_scan"}, "lat": 38.85619283333333}, {"type": "electric_scooter", "name": "6a11b0c195122e4dceedc2b257bbf7b3", "fusion_lat": 0.0, "fusion_lon": 0.0, "lon": -77.04339466666667, "is_disabled": 0, "bike_id": "6a11b0c195122e4dceedc2b257bbf7b3", "is_reserved": 0, "rental_uris": {"android": "https://dc.lft.to/lastmile_qr_scan", "ios": "https://dc.lft.to/lastmile_qr_scan"}, "lat": 38.906318166666665}, {"type": "electric_scooter", "name": "c43459a368682b80d9e2dcebbb37e21e", "fusion_lat": 0.0, "fusion_lon": 0.0, "lon": -77.03844916666667, "is_disabled": 0, "bike_id": "c43459a368682b80d9e2dcebbb37e21e", "is_reserved": 0, "rental_uris": {"android": "https://dc.lft.to/lastmile_qr_scan", "ios": "https://dc.lft.to/lastmile_qr_scan"}, "lat": 38.916553}, {"type": "electric_scooter", "name": "28ad8ec8c19eaf8b95bdcf4194f215ea", "fusion_lat": 0.0, "fusion_lon": 0.0, "lon": -77.02806933333333, "is_disabled": 0, "bike_id": "28ad8ec8c19eaf8b95bdcf4194f215ea", "is_reserved": 0, "rental_uris": {"android": "https://dc.lft.to/lastmile_qr_scan", "ios": "https://dc.lft.to/lastmile_qr_scan"}, "lat": 38.9091795}, {"type": "electric_scooter", "name": "1cb402f260f02e8508edc5a29f3d5aac", "fusion_lat": 0.0, "fusion_lon": 0.0, "lon": -77.04573916666666, "is_disabled": 0, "bike_id": "1cb402f260f02e8508edc5a29f3d5aac", "is_reserved": 0, "rental_uris": {"android": "https://dc.lft.to/lastmile_qr_scan", "ios": "https://dc.lft.to/lastmile_qr_scan"}, "lat": 38.90391416666667}, {"type": "electric_scooter", "name": "4519fa195c9d44ed2647b8d2307c283d", "fusion_lat": 0.0, "fusion_lon": 0.0, "lon": -77.03982683333334, "is_disabled": 0, "bike_id": "4519fa195c9d44ed2647b8d2307c283d", "is_reserved": 0, "rental_uris": {"android": "https://dc.lft.to/lastmile_qr_scan", "ios": "https://dc.lft.to/lastmile_qr_scan"}, "lat": 38.89543916666667}, {"type": "electric_scooter", "name": "9cff1b843e81b59a1fe17873be87bc43", "fusion_lat": 0.0, "fusion_lon": 0.0, "lon": -77.00733866666667, "is_disabled": 0, "bike_id": "9cff1b843e81b59a1fe17873be87bc43", "is_reserved": 0, "rental_uris": {"android": "https://dc.lft.to/lastmile_qr_scan", "ios": "https://dc.lft.to/lastmile_qr_scan"}, "lat": 38.8766175}, {"type": "electric_scooter", "name": "bc0f52b64b7f0e9ab3b7d74eef919cf9", "fusion_lat": 0.0, "fusion_lon": 0.0, "lon": -77.03984466666667, "is_disabled": 0, "bike_id": "bc0f52b64b7f0e9ab3b7d74eef919cf9", "is_reserved": 0, "rental_uris": {"android": "https://dc.lft.to/lastmile_qr_scan", "ios": "https://dc.lft.to/lastmile_qr_scan"}, "lat": 38.93399816666667}, {"type": "electric_scooter", "name": "8759fa588d25e48febc73f4588c79f5f", "fusion_lat": 0.0, "fusion_lon": 0.0, "lon": -77.03952516666666, "is_disabled": 0, "bike_id": "8759fa588d25e48febc73f4588c79f5f", "is_reserved": 0, "rental_uris": {"android": "https://dc.lft.to/lastmile_qr_scan", "ios": "https://dc.lft.to/lastmile_qr_scan"}, "lat": 38.89244983333333}, {"type": "electric_scooter", "name": "432363c76ecbf56a5fcdd1531cfaef61", "fusion_lat": 0.0, "fusion_lon": 0.0, "lon": -76.9902995, "is_disabled": 0, "bike_id": "432363c76ecbf56a5fcdd1531cfaef61", "is_reserved": 0, "rental_uris": {"android": "https://dc.lft.to/lastmile_qr_scan", "ios": "https://dc.lft.to/lastmile_qr_scan"}, "lat": 38.891365}, {"type": "electric_scooter", "name": "77c4eb4f0e6cc08c5346715dab983995", "fusion_lat": 0.0, "fusion_lon": 0.0, "lon": -77.00705016666667, "is_disabled": 0, "bike_id": "77c4eb4f0e6cc08c5346715dab983995", "is_reserved": 0, "rental_uris": {"android": "https://dc.lft.to/lastmile_qr_scan", "ios": "https://dc.lft.to/lastmile_qr_scan"}, "lat": 38.90579416666667}, {"type": "electric_scooter", "name": "5f684b9000c46a02635b82ce2bf02100", "fusion_lat": 0.0, "fusion_lon": 0.0, "lon": -77.00484666666667, "is_disabled": 0, "bike_id": "5f684b9000c46a02635b82ce2bf02100", "is_reserved": 0, "rental_uris": {"android": "https://dc.lft.to/lastmile_qr_scan", "ios": "https://dc.lft.to/lastmile_qr_scan"}, "lat": 38.874553166666665}, {"type": "electric_scooter", "name": "32fd05c261489a4cee03bae4fa372e58", "fusion_lat": 0.0, "fusion_lon": 0.0, "lon": -77.04156366666666, "is_disabled": 0, "bike_id": "32fd05c261489a4cee03bae4fa372e58", "is_reserved": 0, "rental_uris": {"android": "https://dc.lft.to/lastmile_qr_scan", "ios": "https://dc.lft.to/lastmile_qr_scan"}, "lat": 38.91548783333333}, {"type": "electric_scooter", "name": "075f9e78b479ce7e2c1014f4231d2caf", "fusion_lat": 0.0, "fusion_lon": 0.0, "lon": -77.03686516666667, "is_disabled": 0, "bike_id": "075f9e78b479ce7e2c1014f4231d2caf", "is_reserved": 0, "rental_uris": {"android": "https://dc.lft.to/lastmile_qr_scan", "ios": "https://dc.lft.to/lastmile_qr_scan"}, "lat": 38.9392995}, {"type": "electric_bike", "name": "ff706e5e6946b04c52e5fed2bb576462", "fusion_lat": 0.0, "fusion_lon": 0.0, "lon": -76.980553, "is_disabled": 0, "bike_id": "ff706e5e6946b04c52e5fed2bb576462", "is_reserved": 0, "rental_uris": {"android": "https://dc.lft.to/lastmile_qr_scan", "ios": "https://dc.lft.to/lastmile_qr_scan"}, "lat": 38.97248733333333}, {"type": "electric_bike", "name": "88d00b34b9d5971c6df2e4e334a6e490", "fusion_lat": 0.0, "fusion_lon": 0.0, "lon": -77.02422533333333, "is_disabled": 0, "bike_id": "88d00b34b9d5971c6df2e4e334a6e490", "is_reserved": 0, "rental_uris": {"android": "https://dc.lft.to/lastmile_qr_scan", "ios": "https://dc.lft.to/lastmile_qr_scan"}, "lat": 38.94906066666667}, {"type": "electric_scooter", "name": "b59d6b6e9af5e1cc82a4f0e8072b297c", "fusion_lat": 0.0, "fusion_lon": 0.0, "lon": -77.021803, "is_disabled": 0, "bike_id": "b59d6b6e9af5e1cc82a4f0e8072b297c", "is_reserved": 0, "rental_uris": {"android": "https://dc.lft.to/lastmile_qr_scan", "ios": "https://dc.lft.to/lastmile_qr_scan"}, "lat": 38.90546116666667}, {"type": "electric_scooter", "name": "68d2a3249d5a53c7a93a128a6a2c7503", "fusion_lat": 0.0, "fusion_lon": 0.0, "lon": -77.01782683333333, "is_disabled": 0, "bike_id": "68d2a3249d5a53c7a93a128a6a2c7503", "is_reserved": 0, "rental_uris": {"android": "https://dc.lft.to/lastmile_qr_scan", "ios": "https://dc.lft.to/lastmile_qr_scan"}, "lat": 38.91996016666667}, {"type": "electric_scooter", "name": "82ae495d8120dca423805e655dd18deb", "fusion_lat": 0.0, "fusion_lon": 0.0, "lon": -76.983333, "is_disabled": 0, "bike_id": "82ae495d8120dca423805e655dd18deb", "is_reserved": 0, "rental_uris": {"android": "https://dc.lft.to/lastmile_qr_scan", "ios": "https://dc.lft.to/lastmile_qr_scan"}, "lat": 38.895439}, {"type": "electric_scooter", "name": "903a681466fb8258af13d3bca4218d72", "fusion_lat": 0.0, "fusion_lon": 0.0, "lon": -77.03347433333333, "is_disabled": 0, "bike_id": "903a681466fb8258af13d3bca4218d72", "is_reserved": 0, "rental_uris": {"android": "https://dc.lft.to/lastmile_qr_scan", "ios": "https://dc.lft.to/lastmile_qr_scan"}, "lat": 38.9234495}, {"type": "electric_scooter", "name": "d9a582e67a30c36790c003c07b59fa91", "fusion_lat": 0.0, "fusion_lon": 0.0, "lon": -77.00344766666667, "is_disabled": 0, "bike_id": "d9a582e67a30c36790c003c07b59fa91", "is_reserved": 0, "rental_uris": {"android": "https://dc.lft.to/lastmile_qr_scan", "ios": "https://dc.lft.to/lastmile_qr_scan"}, "lat": 38.916194833333336}, {"type": "electric_scooter", "name": "4fffa190102d570b32f7ccc956b2c993", "fusion_lat": 0.0, "fusion_lon": 0.0, "lon": -77.02092066666667, "is_disabled": 0, "bike_id": "4fffa190102d570b32f7ccc956b2c993", "is_reserved": 0, "rental_uris": {"android": "https://dc.lft.to/lastmile_qr_scan", "ios": "https://dc.lft.to/lastmile_qr_scan"}, "lat": 38.9301245}, {"type": "electric_scooter", "name": "b22809495409eb5a94538e73715b0a68", "fusion_lat": 0.0, "fusion_lon": 0.0, "lon": -77.03667733333333, "is_disabled": 0, "bike_id": "b22809495409eb5a94538e73715b0a68", "is_reserved": 0, "rental_uris": {"android": "https://dc.lft.to/lastmile_qr_scan", "ios": "https://dc.lft.to/lastmile_qr_scan"}, "lat": 38.91820766666667}, {"type": "electric_bike", "name": "588aef418a6e962878f8365f473ab852", "fusion_lat": 0.0, "fusion_lon": 0.0, "lon": -77.11407716666666, "is_disabled": 0, "bike_id": "588aef418a6e962878f8365f473ab852", "is_reserved": 0, "rental_uris": {"android": "https://dc.lft.to/lastmile_qr_scan", "ios": "https://dc.lft.to/lastmile_qr_scan"}, "lat": 38.87319933333333}, {"type": "electric_scooter", "name": "08fb9f4fa932aeb1c73ec9bbbeac82aa", "fusion_lat": 0.0, "fusion_lon": 0.0, "lon": -77.04330366666667, "is_disabled": 0, "bike_id": "08fb9f4fa932aeb1c73ec9bbbeac82aa", "is_reserved": 0, "rental_uris": {"android": "https://dc.lft.to/lastmile_qr_scan", "ios": "https://dc.lft.to/lastmile_qr_scan"}, "lat": 38.93419166666666}, {"type": "electric_scooter", "name": "f7096270c0f1c7527d62e38e0d855d05", "fusion_lat": 0.0, "fusion_lon": 0.0, "lon": -77.02197733333334, "is_disabled": 0, "bike_id": "f7096270c0f1c7527d62e38e0d855d05", "is_reserved": 0, "rental_uris": {"android": "https://dc.lft.to/lastmile_qr_scan", "ios": "https://dc.lft.to/lastmile_qr_scan"}, "lat": 38.914408}, {"type": "electric_scooter", "name": "0c68c95e31dbddc05c192224b221c851", "fusion_lat": 0.0, "fusion_lon": 0.0, "lon": -77.00621, "is_disabled": 0, "bike_id": "0c68c95e31dbddc05c192224b221c851", "is_reserved": 0, "rental_uris": {"android": "https://dc.lft.to/lastmile_qr_scan", "ios": "https://dc.lft.to/lastmile_qr_scan"}, "lat": 38.8719685}, {"type": "electric_scooter", "name": "8f00fb78076632b5d627fcf26dafb679", "fusion_lat": 0.0, "fusion_lon": 0.0, "lon": -77.04874766666667, "is_disabled": 0, "bike_id": "8f00fb78076632b5d627fcf26dafb679", "is_reserved": 0, "rental_uris": {"android": "https://dc.lft.to/lastmile_qr_scan", "ios": "https://dc.lft.to/lastmile_qr_scan"}, "lat": 38.910573666666664}, {"type": "electric_scooter", "name": "f51ffa9e045f75c26aec3eaed6dd0dae", "fusion_lat": 0.0, "fusion_lon": 0.0, "lon": -77.02288216666666, "is_disabled": 0, "bike_id": "f51ffa9e045f75c26aec3eaed6dd0dae", "is_reserved": 0, "rental_uris": {"android": "https://dc.lft.to/lastmile_qr_scan", "ios": "https://dc.lft.to/lastmile_qr_scan"}, "lat": 38.91699833333333}, {"type": "electric_scooter", "name": "75cc61e512cf5138b268a1b4ee532551", "fusion_lat": 0.0, "fusion_lon": 0.0, "lon": -77.04856116666667, "is_disabled": 0, "bike_id": "75cc61e512cf5138b268a1b4ee532551", "is_reserved": 0, "rental_uris": {"android": "https://dc.lft.to/lastmile_qr_scan", "ios": "https://dc.lft.to/lastmile_qr_scan"}, "lat": 38.91265333333333}, {"type": "electric_scooter", "name": "fbf51fb10e45a2c0f5b29499f4e4f843", "fusion_lat": 0.0, "fusion_lon": 0.0, "lon": -77.02302816666666, "is_disabled": 0, "bike_id": "fbf51fb10e45a2c0f5b29499f4e4f843", "is_reserved": 0, "rental_uris": {"android": "https://dc.lft.to/lastmile_qr_scan", "ios": "https://dc.lft.to/lastmile_qr_scan"}, "lat": 38.916080666666666}, {"type": "electric_scooter", "name": "64c3283e56ec60c0e802c12b091b1f0f", "fusion_lat": 0.0, "fusion_lon": 0.0, "lon": -76.9836595, "is_disabled": 0, "bike_id": "64c3283e56ec60c0e802c12b091b1f0f", "is_reserved": 0, "rental_uris": {"android": "https://dc.lft.to/lastmile_qr_scan", "ios": "https://dc.lft.to/lastmile_qr_scan"}, "lat": 38.8914}, {"type": "electric_scooter", "name": "bc5ce4e58c4aa0094514a92b9f8fd29f", "fusion_lat": 0.0, "fusion_lon": 0.0, "lon": -77.06690966666666, "is_disabled": 0, "bike_id": "bc5ce4e58c4aa0094514a92b9f8fd29f", "is_reserved": 0, "rental_uris": {"android": "https://dc.lft.to/lastmile_qr_scan", "ios": "https://dc.lft.to/lastmile_qr_scan"}, "lat": 38.95012416666667}, {"type": "electric_scooter", "name": "0322a9d26e10050dbbbe8dcd491f5faa", "fusion_lat": 0.0, "fusion_lon": 0.0, "lon": -77.01794433333333, "is_disabled": 0, "bike_id": "0322a9d26e10050dbbbe8dcd491f5faa", "is_reserved": 0, "rental_uris": {"android": "https://dc.lft.to/lastmile_qr_scan", "ios": "https://dc.lft.to/lastmile_qr_scan"}, "lat": 38.919445333333336}, {"type": "electric_scooter", "name": "80964b2404a9473ab712fba13e828011", "fusion_lat": 0.0, "fusion_lon": 0.0, "lon": -76.98083083333333, "is_disabled": 0, "bike_id": "80964b2404a9473ab712fba13e828011", "is_reserved": 0, "rental_uris": {"android": "https://dc.lft.to/lastmile_qr_scan", "ios": "https://dc.lft.to/lastmile_qr_scan"}, "lat": 38.89439933333333}, {"type": "electric_scooter", "name": "996b4a1a753f19ae235225e022171ffb", "fusion_lat": 0.0, "fusion_lon": 0.0, "lon": -77.0344915, "is_disabled": 0, "bike_id": "996b4a1a753f19ae235225e022171ffb", "is_reserved": 0, "rental_uris": {"android": "https://dc.lft.to/lastmile_qr_scan", "ios": "https://dc.lft.to/lastmile_qr_scan"}, "lat": 38.913932}, {"type": "electric_scooter", "name": "682a163e1086fc6797a7e2457aa4147a", "fusion_lat": 0.0, "fusion_lon": 0.0, "lon": -77.0336195, "is_disabled": 0, "bike_id": "682a163e1086fc6797a7e2457aa4147a", "is_reserved": 0, "rental_uris": {"android": "https://dc.lft.to/lastmile_qr_scan", "ios": "https://dc.lft.to/lastmile_qr_scan"}, "lat": 38.9003795}, {"type": "electric_scooter", "name": "1e565d59a568abe3f32e82221f682693", "fusion_lat": 0.0, "fusion_lon": 0.0, "lon": -77.03843616666667, "is_disabled": 0, "bike_id": "1e565d59a568abe3f32e82221f682693", "is_reserved": 0, "rental_uris": {"android": "https://dc.lft.to/lastmile_qr_scan", "ios": "https://dc.lft.to/lastmile_qr_scan"}, "lat": 38.923140333333336}, {"type": "electric_bike", "name": "54e0e4fc8dc20e2d486b90cb2519eec8", "fusion_lat": 0.0, "fusion_lon": 0.0, "lon": -76.98355316666667, "is_disabled": 0, "bike_id": "54e0e4fc8dc20e2d486b90cb2519eec8", "is_reserved": 0, "rental_uris": {"android": "https://dc.lft.to/lastmile_qr_scan", "ios": "https://dc.lft.to/lastmile_qr_scan"}, "lat": 38.86262083333333}, {"type": "electric_scooter", "name": "650d488c1b56cf739913b02560f6ea98", "fusion_lat": 0.0, "fusion_lon": 0.0, "lon": -76.98004116666667, "is_disabled": 0, "bike_id": "650d488c1b56cf739913b02560f6ea98", "is_reserved": 0, "rental_uris": {"android": "https://dc.lft.to/lastmile_qr_scan", "ios": "https://dc.lft.to/lastmile_qr_scan"}, "lat": 38.902436}, {"type": "electric_scooter", "name": "b8478b453e430733efdae13d623e1402", "fusion_lat": 0.0, "fusion_lon": 0.0, "lon": -77.0422985, "is_disabled": 0, "bike_id": "b8478b453e430733efdae13d623e1402", "is_reserved": 0, "rental_uris": {"android": "https://dc.lft.to/lastmile_qr_scan", "ios": "https://dc.lft.to/lastmile_qr_scan"}, "lat": 38.91117}, {"type": "electric_scooter", "name": "8bda6328720a6cbbd6348529fcc3453c", "fusion_lat": 0.0, "fusion_lon": 0.0, "lon": -77.016306, "is_disabled": 0, "bike_id": "8bda6328720a6cbbd6348529fcc3453c", "is_reserved": 0, "rental_uris": {"android": "https://dc.lft.to/lastmile_qr_scan", "ios": "https://dc.lft.to/lastmile_qr_scan"}, "lat": 38.88746283333333}, {"type": "electric_scooter", "name": "e9df7644971da473957e40969ad570cc", "fusion_lat": 0.0, "fusion_lon": 0.0, "lon": -77.04167, "is_disabled": 0, "bike_id": "e9df7644971da473957e40969ad570cc", "is_reserved": 0, "rental_uris": {"android": "https://dc.lft.to/lastmile_qr_scan", "ios": "https://dc.lft.to/lastmile_qr_scan"}, "lat": 38.918153333333336}, {"type": "electric_scooter", "name": "2aa3ba966ab879b70b7994b47d021cfe", "fusion_lat": 0.0, "fusion_lon": 0.0, "lon": -77.05918, "is_disabled": 0, "bike_id": "2aa3ba966ab879b70b7994b47d021cfe", "is_reserved": 0, "rental_uris": {"android": "https://dc.lft.to/lastmile_qr_scan", "ios": "https://dc.lft.to/lastmile_qr_scan"}, "lat": 38.901471}, {"type": "electric_scooter", "name": "567ceff9b6aee35e236da9a9ee8d0608", "fusion_lat": 0.0, "fusion_lon": 0.0, "lon": -77.0364135, "is_disabled": 0, "bike_id": "567ceff9b6aee35e236da9a9ee8d0608", "is_reserved": 0, "rental_uris": {"android": "https://dc.lft.to/lastmile_qr_scan", "ios": "https://dc.lft.to/lastmile_qr_scan"}, "lat": 38.90343433333334}, {"type": "electric_scooter", "name": "ff5cd7f92a48f311b903463939e6fed8", "fusion_lat": 0.0, "fusion_lon": 0.0, "lon": -77.010827, "is_disabled": 0, "bike_id": "ff5cd7f92a48f311b903463939e6fed8", "is_reserved": 0, "rental_uris": {"android": "https://dc.lft.to/lastmile_qr_scan", "ios": "https://dc.lft.to/lastmile_qr_scan"}, "lat": 38.903318166666665}, {"type": "electric_scooter", "name": "1b12afb0a65729769ceca5d35e1af933", "fusion_lat": 0.0, "fusion_lon": 0.0, "lon": -77.02168383333333, "is_disabled": 0, "bike_id": "1b12afb0a65729769ceca5d35e1af933", "is_reserved": 0, "rental_uris": {"android": "https://dc.lft.to/lastmile_qr_scan", "ios": "https://dc.lft.to/lastmile_qr_scan"}, "lat": 38.911072833333336}, {"type": "electric_scooter", "name": "9e42cc3dbaceab02b6ef2b5b00e074b9", "fusion_lat": 0.0, "fusion_lon": 0.0, "lon": -77.036572, "is_disabled": 0, "bike_id": "9e42cc3dbaceab02b6ef2b5b00e074b9", "is_reserved": 0, "rental_uris": {"android": "https://dc.lft.to/lastmile_qr_scan", "ios": "https://dc.lft.to/lastmile_qr_scan"}, "lat": 38.92046066666666}, {"type": "electric_scooter", "name": "5b57e2e365081ecc79006b21a9b8366a", "fusion_lat": 0.0, "fusion_lon": 0.0, "lon": -77.03416783333333, "is_disabled": 0, "bike_id": "5b57e2e365081ecc79006b21a9b8366a", "is_reserved": 0, "rental_uris": {"android": "https://dc.lft.to/lastmile_qr_scan", "ios": "https://dc.lft.to/lastmile_qr_scan"}, "lat": 38.91922733333333}, {"type": "electric_scooter", "name": "72f81db8920cc0aa9f07bda78430fd82", "fusion_lat": 0.0, "fusion_lon": 0.0, "lon": -77.02883983333334, "is_disabled": 0, "bike_id": "72f81db8920cc0aa9f07bda78430fd82", "is_reserved": 0, "rental_uris": {"android": "https://dc.lft.to/lastmile_qr_scan", "ios": "https://dc.lft.to/lastmile_qr_scan"}, "lat": 38.936053333333334}, {"type": "electric_scooter", "name": "e376da9fb1512c2d6d8831ade60e20ff", "fusion_lat": 0.0, "fusion_lon": 0.0, "lon": -77.022718, "is_disabled": 0, "bike_id": "e376da9fb1512c2d6d8831ade60e20ff", "is_reserved": 0, "rental_uris": {"android": "https://dc.lft.to/lastmile_qr_scan", "ios": "https://dc.lft.to/lastmile_qr_scan"}, "lat": 38.89837216666667}, {"type": "electric_scooter", "name": "cfea1b86aa16a96b1ecf9f928d1a8465", "fusion_lat": 0.0, "fusion_lon": 0.0, "lon": -77.02959933333334, "is_disabled": 0, "bike_id": "cfea1b86aa16a96b1ecf9f928d1a8465", "is_reserved": 0, "rental_uris": {"android": "https://dc.lft.to/lastmile_qr_scan", "ios": "https://dc.lft.to/lastmile_qr_scan"}, "lat": 38.9075635}, {"type": "electric_bike", "name": "47219d3c344dc1b74d4b624e9c8f0a3e", "fusion_lat": 0.0, "fusion_lon": 0.0, "lon": -77.03029, "is_disabled": 0, "bike_id": "47219d3c344dc1b74d4b624e9c8f0a3e", "is_reserved": 0, "rental_uris": {"android": "https://dc.lft.to/lastmile_qr_scan", "ios": "https://dc.lft.to/lastmile_qr_scan"}, "lat": 38.9000555}, {"type": "electric_scooter", "name": "23d2e92b228a60b76af8bc53332b3873", "fusion_lat": 0.0, "fusion_lon": 0.0, "lon": -77.0158065, "is_disabled": 0, "bike_id": "23d2e92b228a60b76af8bc53332b3873", "is_reserved": 0, "rental_uris": {"android": "https://dc.lft.to/lastmile_qr_scan", "ios": "https://dc.lft.to/lastmile_qr_scan"}, "lat": 38.876526166666665}, {"type": "electric_scooter", "name": "f398345384c1e89889e91928516d1b14", "fusion_lat": 0.0, "fusion_lon": 0.0, "lon": -77.02205616666667, "is_disabled": 0, "bike_id": "f398345384c1e89889e91928516d1b14", "is_reserved": 0, "rental_uris": {"android": "https://dc.lft.to/lastmile_qr_scan", "ios": "https://dc.lft.to/lastmile_qr_scan"}, "lat": 38.892324}, {"type": "electric_scooter", "name": "8e91d20dd140bef543aa9f543375bf41", "fusion_lat": 0.0, "fusion_lon": 0.0, "lon": -77.04521383333334, "is_disabled": 0, "bike_id": "8e91d20dd140bef543aa9f543375bf41", "is_reserved": 0, "rental_uris": {"android": "https://dc.lft.to/lastmile_qr_scan", "ios": "https://dc.lft.to/lastmile_qr_scan"}, "lat": 38.911138}, {"type": "electric_scooter", "name": "38576211e7d015032348c59ec7de4609", "fusion_lat": 0.0, "fusion_lon": 0.0, "lon": -77.03566766666667, "is_disabled": 0, "bike_id": "38576211e7d015032348c59ec7de4609", "is_reserved": 0, "rental_uris": {"android": "https://dc.lft.to/lastmile_qr_scan", "ios": "https://dc.lft.to/lastmile_qr_scan"}, "lat": 38.91813}, {"type": "electric_scooter", "name": "182dd079bd1faba69edce1731691a626", "fusion_lat": 0.0, "fusion_lon": 0.0, "lon": -77.04740466666667, "is_disabled": 0, "bike_id": "182dd079bd1faba69edce1731691a626", "is_reserved": 0, "rental_uris": {"android": "https://dc.lft.to/lastmile_qr_scan", "ios": "https://dc.lft.to/lastmile_qr_scan"}, "lat": 38.9128215}, {"type": "electric_scooter", "name": "9f8d85d89a344763d05017d22caa9ed1", "fusion_lat": 0.0, "fusion_lon": 0.0, "lon": -77.02349416666667, "is_disabled": 0, "bike_id": "9f8d85d89a344763d05017d22caa9ed1", "is_reserved": 0, "rental_uris": {"android": "https://dc.lft.to/lastmile_qr_scan", "ios": "https://dc.lft.to/lastmile_qr_scan"}, "lat": 38.9353745}, {"type": "electric_scooter", "name": "86ac1e04065ebe6f6d901edadb5fbbef", "fusion_lat": 0.0, "fusion_lon": 0.0, "lon": -77.04555666666667, "is_disabled": 0, "bike_id": "86ac1e04065ebe6f6d901edadb5fbbef", "is_reserved": 0, "rental_uris": {"android": "https://dc.lft.to/lastmile_qr_scan", "ios": "https://dc.lft.to/lastmile_qr_scan"}, "lat": 38.900724}, {"type": "electric_bike", "name": "ff9d0d6d7f437e346444c6b8ad77a6ea", "fusion_lat": 0.0, "fusion_lon": 0.0, "lon": -77.01228116666667, "is_disabled": 0, "bike_id": "ff9d0d6d7f437e346444c6b8ad77a6ea", "is_reserved": 0, "rental_uris": {"android": "https://dc.lft.to/lastmile_qr_scan", "ios": "https://dc.lft.to/lastmile_qr_scan"}, "lat": 38.9508605}, {"type": "electric_scooter", "name": "d04e0ab1c5c5fd6eccea4f405898978d", "fusion_lat": 0.0, "fusion_lon": 0.0, "lon": -77.05966666666667, "is_disabled": 0, "bike_id": "d04e0ab1c5c5fd6eccea4f405898978d", "is_reserved": 0, "rental_uris": {"android": "https://dc.lft.to/lastmile_qr_scan", "ios": "https://dc.lft.to/lastmile_qr_scan"}, "lat": 38.910491}, {"type": "electric_bike", "name": "0ec4bbbe6a5096ef2a88c42ad3f55ff7", "fusion_lat": 0.0, "fusion_lon": 0.0, "lon": -77.07350733333334, "is_disabled": 0, "bike_id": "0ec4bbbe6a5096ef2a88c42ad3f55ff7", "is_reserved": 0, "rental_uris": {"android": "https://dc.lft.to/lastmile_qr_scan", "ios": "https://dc.lft.to/lastmile_qr_scan"}, "lat": 38.910970666666664}, {"type": "electric_scooter", "name": "bd139006424daf70bacfe0cd17555a7e", "fusion_lat": 0.0, "fusion_lon": 0.0, "lon": -76.97349016666666, "is_disabled": 0, "bike_id": "bd139006424daf70bacfe0cd17555a7e", "is_reserved": 0, "rental_uris": {"android": "https://dc.lft.to/lastmile_qr_scan", "ios": "https://dc.lft.to/lastmile_qr_scan"}, "lat": 38.85018983333333}, {"type": "electric_scooter", "name": "9ad6586a60eb049c4da5cdab6329a07d", "fusion_lat": 0.0, "fusion_lon": 0.0, "lon": -77.04253733333333, "is_disabled": 0, "bike_id": "9ad6586a60eb049c4da5cdab6329a07d", "is_reserved": 0, "rental_uris": {"android": "https://dc.lft.to/lastmile_qr_scan", "ios": "https://dc.lft.to/lastmile_qr_scan"}, "lat": 38.907333333333334}, {"type": "electric_scooter", "name": "e4301916d0fe10a454ab58a4d7565b69", "fusion_lat": 0.0, "fusion_lon": 0.0, "lon": -77.03635633333333, "is_disabled": 0, "bike_id": "e4301916d0fe10a454ab58a4d7565b69", "is_reserved": 0, "rental_uris": {"android": "https://dc.lft.to/lastmile_qr_scan", "ios": "https://dc.lft.to/lastmile_qr_scan"}, "lat": 38.916110833333335}, {"type": "electric_scooter", "name": "8a444ab003f815759e5ce0b3b4d4333a", "fusion_lat": 0.0, "fusion_lon": 0.0, "lon": -76.95446466666667, "is_disabled": 0, "bike_id": "8a444ab003f815759e5ce0b3b4d4333a", "is_reserved": 0, "rental_uris": {"android": "https://dc.lft.to/lastmile_qr_scan", "ios": "https://dc.lft.to/lastmile_qr_scan"}, "lat": 38.88391416666666}, {"type": "electric_scooter", "name": "7846f621e0015c45001c3e707a751092", "fusion_lat": 0.0, "fusion_lon": 0.0, "lon": -77.0293745, "is_disabled": 0, "bike_id": "7846f621e0015c45001c3e707a751092", "is_reserved": 0, "rental_uris": {"android": "https://dc.lft.to/lastmile_qr_scan", "ios": "https://dc.lft.to/lastmile_qr_scan"}, "lat": 38.9048585}, {"type": "electric_scooter", "name": "3edef0b8af53b417d41dad345ff9e4bd", "fusion_lat": 0.0, "fusion_lon": 0.0, "lon": -77.04351133333333, "is_disabled": 0, "bike_id": "3edef0b8af53b417d41dad345ff9e4bd", "is_reserved": 0, "rental_uris": {"android": "https://dc.lft.to/lastmile_qr_scan", "ios": "https://dc.lft.to/lastmile_qr_scan"}, "lat": 38.913483166666666}, {"type": "electric_scooter", "name": "0c0d9b4065c2f66b74df6ee8ec8f7a51", "fusion_lat": 0.0, "fusion_lon": 0.0, "lon": -76.99509433333333, "is_disabled": 0, "bike_id": "0c0d9b4065c2f66b74df6ee8ec8f7a51", "is_reserved": 0, "rental_uris": {"android": "https://dc.lft.to/lastmile_qr_scan", "ios": "https://dc.lft.to/lastmile_qr_scan"}, "lat": 38.889861833333335}, {"type": "electric_scooter", "name": "ceb10a81e4dd38725c9c6400d7b793b4", "fusion_lat": 0.0, "fusion_lon": 0.0, "lon": -76.9869935, "is_disabled": 0, "bike_id": "ceb10a81e4dd38725c9c6400d7b793b4", "is_reserved": 0, "rental_uris": {"android": "https://dc.lft.to/lastmile_qr_scan", "ios": "https://dc.lft.to/lastmile_qr_scan"}, "lat": 38.85963183333333}, {"type": "electric_scooter", "name": "fae6f6d20b7d77bd8cd6b4cae96160b7", "fusion_lat": 0.0, "fusion_lon": 0.0, "lon": -77.02472583333333, "is_disabled": 0, "bike_id": "fae6f6d20b7d77bd8cd6b4cae96160b7", "is_reserved": 0, "rental_uris": {"android": "https://dc.lft.to/lastmile_qr_scan", "ios": "https://dc.lft.to/lastmile_qr_scan"}, "lat": 38.91818033333333}, {"type": "electric_scooter", "name": "9a21639e94d034e59348c169cf8bbd1b", "fusion_lat": 0.0, "fusion_lon": 0.0, "lon": -77.00961666666667, "is_disabled": 0, "bike_id": "9a21639e94d034e59348c169cf8bbd1b", "is_reserved": 0, "rental_uris": {"android": "https://dc.lft.to/lastmile_qr_scan", "ios": "https://dc.lft.to/lastmile_qr_scan"}, "lat": 38.91704266666667}, {"type": "electric_scooter", "name": "b7dfd70fb9aada2769da7f8f422991a1", "fusion_lat": 0.0, "fusion_lon": 0.0, "lon": -77.03291883333333, "is_disabled": 0, "bike_id": "b7dfd70fb9aada2769da7f8f422991a1", "is_reserved": 0, "rental_uris": {"android": "https://dc.lft.to/lastmile_qr_scan", "ios": "https://dc.lft.to/lastmile_qr_scan"}, "lat": 38.935116}, {"type": "electric_scooter", "name": "ff9467963b39fd1032f1d86277511d01", "fusion_lat": 0.0, "fusion_lon": 0.0, "lon": -77.034751, "is_disabled": 0, "bike_id": "ff9467963b39fd1032f1d86277511d01", "is_reserved": 0, "rental_uris": {"android": "https://dc.lft.to/lastmile_qr_scan", "ios": "https://dc.lft.to/lastmile_qr_scan"}, "lat": 38.91705366666667}, {"type": "electric_scooter", "name": "d67fec664326c931900471e28f0dae80", "fusion_lat": 0.0, "fusion_lon": 0.0, "lon": -76.99543483333333, "is_disabled": 0, "bike_id": "d67fec664326c931900471e28f0dae80", "is_reserved": 0, "rental_uris": {"android": "https://dc.lft.to/lastmile_qr_scan", "ios": "https://dc.lft.to/lastmile_qr_scan"}, "lat": 38.927028666666665}, {"type": "electric_scooter", "name": "9aa0ba4bec61b0a3ab434f014debf771", "fusion_lat": 0.0, "fusion_lon": 0.0, "lon": -77.021936, "is_disabled": 0, "bike_id": "9aa0ba4bec61b0a3ab434f014debf771", "is_reserved": 0, "rental_uris": {"android": "https://dc.lft.to/lastmile_qr_scan", "ios": "https://dc.lft.to/lastmile_qr_scan"}, "lat": 38.89515633333333}, {"type": "electric_scooter", "name": "a043444187a5d25ba1fb7df09fbb6fbc", "fusion_lat": 0.0, "fusion_lon": 0.0, "lon": -77.03079016666666, "is_disabled": 0, "bike_id": "a043444187a5d25ba1fb7df09fbb6fbc", "is_reserved": 0, "rental_uris": {"android": "https://dc.lft.to/lastmile_qr_scan", "ios": "https://dc.lft.to/lastmile_qr_scan"}, "lat": 38.89539283333333}, {"type": "electric_scooter", "name": "80bf17dc3ca25c64e02852a8229b6a16", "fusion_lat": 0.0, "fusion_lon": 0.0, "lon": -77.03653, "is_disabled": 0, "bike_id": "80bf17dc3ca25c64e02852a8229b6a16", "is_reserved": 0, "rental_uris": {"android": "https://dc.lft.to/lastmile_qr_scan", "ios": "https://dc.lft.to/lastmile_qr_scan"}, "lat": 38.936273}, {"type": "electric_scooter", "name": "b7717c827530d8c5a6ff3ab94e9a57e3", "fusion_lat": 0.0, "fusion_lon": 0.0, "lon": -77.004096, "is_disabled": 0, "bike_id": "b7717c827530d8c5a6ff3ab94e9a57e3", "is_reserved": 0, "rental_uris": {"android": "https://dc.lft.to/lastmile_qr_scan", "ios": "https://dc.lft.to/lastmile_qr_scan"}, "lat": 38.9295845}, {"type": "electric_scooter", "name": "fa468c9375ae5730abc55019ae161010", "fusion_lat": 0.0, "fusion_lon": 0.0, "lon": -77.0297045, "is_disabled": 0, "bike_id": "fa468c9375ae5730abc55019ae161010", "is_reserved": 0, "rental_uris": {"android": "https://dc.lft.to/lastmile_qr_scan", "ios": "https://dc.lft.to/lastmile_qr_scan"}, "lat": 38.926348}, {"type": "electric_scooter", "name": "7f45f5fc3e88bfaad807089b5db1e5c2", "fusion_lat": 0.0, "fusion_lon": 0.0, "lon": -77.02544866666666, "is_disabled": 0, "bike_id": "7f45f5fc3e88bfaad807089b5db1e5c2", "is_reserved": 0, "rental_uris": {"android": "https://dc.lft.to/lastmile_qr_scan", "ios": "https://dc.lft.to/lastmile_qr_scan"}, "lat": 38.935138}, {"type": "electric_scooter", "name": "b3f5e39c28e581aac4e3aa934fca5615", "fusion_lat": 0.0, "fusion_lon": 0.0, "lon": -77.0366175, "is_disabled": 0, "bike_id": "b3f5e39c28e581aac4e3aa934fca5615", "is_reserved": 0, "rental_uris": {"android": "https://dc.lft.to/lastmile_qr_scan", "ios": "https://dc.lft.to/lastmile_qr_scan"}, "lat": 38.91065566666666}, {"type": "electric_scooter", "name": "22a0cae5ed32b0b66046275d4ad53c71", "fusion_lat": 0.0, "fusion_lon": 0.0, "lon": -76.9838145, "is_disabled": 0, "bike_id": "22a0cae5ed32b0b66046275d4ad53c71", "is_reserved": 0, "rental_uris": {"android": "https://dc.lft.to/lastmile_qr_scan", "ios": "https://dc.lft.to/lastmile_qr_scan"}, "lat": 38.912877333333334}, {"type": "electric_scooter", "name": "5655f904e43fd1cef52d8a8db634e3d4", "fusion_lat": 0.0, "fusion_lon": 0.0, "lon": -77.03719166666667, "is_disabled": 0, "bike_id": "5655f904e43fd1cef52d8a8db634e3d4", "is_reserved": 0, "rental_uris": {"android": "https://dc.lft.to/lastmile_qr_scan", "ios": "https://dc.lft.to/lastmile_qr_scan"}, "lat": 38.914871166666664}, {"type": "electric_scooter", "name": "08abf16a00c7e2b10ddae258cdc33ea4", "fusion_lat": 0.0, "fusion_lon": 0.0, "lon": -77.01186833333334, "is_disabled": 0, "bike_id": "08abf16a00c7e2b10ddae258cdc33ea4", "is_reserved": 0, "rental_uris": {"android": "https://dc.lft.to/lastmile_qr_scan", "ios": "https://dc.lft.to/lastmile_qr_scan"}, "lat": 38.9002885}, {"type": "electric_scooter", "name": "d75df87cf7d90bdc95e0dbf0a36319a2", "fusion_lat": 0.0, "fusion_lon": 0.0, "lon": -77.03045116666667, "is_disabled": 0, "bike_id": "d75df87cf7d90bdc95e0dbf0a36319a2", "is_reserved": 0, "rental_uris": {"android": "https://dc.lft.to/lastmile_qr_scan", "ios": "https://dc.lft.to/lastmile_qr_scan"}, "lat": 38.990272}, {"type": "electric_scooter", "name": "c411e5a069bf2755f8d918e68f5de0c7", "fusion_lat": 0.0, "fusion_lon": 0.0, "lon": -77.02568483333333, "is_disabled": 0, "bike_id": "c411e5a069bf2755f8d918e68f5de0c7", "is_reserved": 0, "rental_uris": {"android": "https://dc.lft.to/lastmile_qr_scan", "ios": "https://dc.lft.to/lastmile_qr_scan"}, "lat": 38.9125715}, {"type": "electric_scooter", "name": "bcee94c4b0bc828b2a7aa8828120dc6d", "fusion_lat": 0.0, "fusion_lon": 0.0, "lon": -77.05696583333334, "is_disabled": 0, "bike_id": "bcee94c4b0bc828b2a7aa8828120dc6d", "is_reserved": 0, "rental_uris": {"android": "https://dc.lft.to/lastmile_qr_scan", "ios": "https://dc.lft.to/lastmile_qr_scan"}, "lat": 38.937152}, {"type": "electric_scooter", "name": "7eac9acf8e32153a493b7e74c564b72e", "fusion_lat": 0.0, "fusion_lon": 0.0, "lon": -77.0551235, "is_disabled": 0, "bike_id": "7eac9acf8e32153a493b7e74c564b72e", "is_reserved": 0, "rental_uris": {"android": "https://dc.lft.to/lastmile_qr_scan", "ios": "https://dc.lft.to/lastmile_qr_scan"}, "lat": 38.928368166666665}, {"type": "electric_scooter", "name": "d378fa7ba0fd1e6f356266ac80e14fe1", "fusion_lat": 0.0, "fusion_lon": 0.0, "lon": -76.9229935, "is_disabled": 0, "bike_id": "d378fa7ba0fd1e6f356266ac80e14fe1", "is_reserved": 0, "rental_uris": {"android": "https://dc.lft.to/lastmile_qr_scan", "ios": "https://dc.lft.to/lastmile_qr_scan"}, "lat": 38.8938455}, {"type": "electric_scooter", "name": "a02914be8b5cc407147639d406ec3a8e", "fusion_lat": 0.0, "fusion_lon": 0.0, "lon": -77.0055475, "is_disabled": 0, "bike_id": "a02914be8b5cc407147639d406ec3a8e", "is_reserved": 0, "rental_uris": {"android": "https://dc.lft.to/lastmile_qr_scan", "ios": "https://dc.lft.to/lastmile_qr_scan"}, "lat": 38.876631}, {"type": "electric_scooter", "name": "2f87f486504affa406f4ad250e226374", "fusion_lat": 0.0, "fusion_lon": 0.0, "lon": -77.00071166666666, "is_disabled": 0, "bike_id": "2f87f486504affa406f4ad250e226374", "is_reserved": 0, "rental_uris": {"android": "https://dc.lft.to/lastmile_qr_scan", "ios": "https://dc.lft.to/lastmile_qr_scan"}, "lat": 38.90141083333334}, {"type": "electric_bike", "name": "5ed1f46b24fc96f33c96cea05e9d74f2", "fusion_lat": 0.0, "fusion_lon": 0.0, "lon": -76.97954516666667, "is_disabled": 0, "bike_id": "5ed1f46b24fc96f33c96cea05e9d74f2", "is_reserved": 0, "rental_uris": {"android": "https://dc.lft.to/lastmile_qr_scan", "ios": "https://dc.lft.to/lastmile_qr_scan"}, "lat": 38.92037916666666}, {"type": "electric_scooter", "name": "f2e496062571fa681924b35197966542", "fusion_lat": 0.0, "fusion_lon": 0.0, "lon": -77.02786333333333, "is_disabled": 0, "bike_id": "f2e496062571fa681924b35197966542", "is_reserved": 0, "rental_uris": {"android": "https://dc.lft.to/lastmile_qr_scan", "ios": "https://dc.lft.to/lastmile_qr_scan"}, "lat": 38.92689816666667}, {"type": "electric_scooter", "name": "303eae2a320d78ae02deaa137e39e68d", "fusion_lat": 0.0, "fusion_lon": 0.0, "lon": -76.98358316666666, "is_disabled": 0, "bike_id": "303eae2a320d78ae02deaa137e39e68d", "is_reserved": 0, "rental_uris": {"android": "https://dc.lft.to/lastmile_qr_scan", "ios": "https://dc.lft.to/lastmile_qr_scan"}, "lat": 38.887342333333336}, {"type": "electric_scooter", "name": "8e38be3d61238b1e110d38048a018aa2", "fusion_lat": 0.0, "fusion_lon": 0.0, "lon": -77.01635366666666, "is_disabled": 0, "bike_id": "8e38be3d61238b1e110d38048a018aa2", "is_reserved": 0, "rental_uris": {"android": "https://dc.lft.to/lastmile_qr_scan", "ios": "https://dc.lft.to/lastmile_qr_scan"}, "lat": 38.92937766666667}, {"type": "electric_bike", "name": "fd2fb30c0010d3136fd21e86cb38e445", "fusion_lat": 0.0, "fusion_lon": 0.0, "lon": -77.07898683333333, "is_disabled": 0, "bike_id": "fd2fb30c0010d3136fd21e86cb38e445", "is_reserved": 0, "rental_uris": {"android": "https://dc.lft.to/lastmile_qr_scan", "ios": "https://dc.lft.to/lastmile_qr_scan"}, "lat": 38.8393725}, {"type": "electric_scooter", "name": "814d3005e53181dfc21736c132cfc993", "fusion_lat": 0.0, "fusion_lon": 0.0, "lon": -77.0447855, "is_disabled": 0, "bike_id": "814d3005e53181dfc21736c132cfc993", "is_reserved": 0, "rental_uris": {"android": "https://dc.lft.to/lastmile_qr_scan", "ios": "https://dc.lft.to/lastmile_qr_scan"}, "lat": 38.9135775}, {"type": "electric_scooter", "name": "1b866edc5bc44cf7f6e26d62048df6cd", "fusion_lat": 0.0, "fusion_lon": 0.0, "lon": -77.06383766666667, "is_disabled": 0, "bike_id": "1b866edc5bc44cf7f6e26d62048df6cd", "is_reserved": 0, "rental_uris": {"android": "https://dc.lft.to/lastmile_qr_scan", "ios": "https://dc.lft.to/lastmile_qr_scan"}, "lat": 38.9052945}, {"type": "electric_bike", "name": "93c3282a26a06b077ef0246bcb63f8e3", "fusion_lat": 0.0, "fusion_lon": 0.0, "lon": -77.10288483333333, "is_disabled": 0, "bike_id": "93c3282a26a06b077ef0246bcb63f8e3", "is_reserved": 0, "rental_uris": {"android": "https://dc.lft.to/lastmile_qr_scan", "ios": "https://dc.lft.to/lastmile_qr_scan"}, "lat": 38.85253866666667}, {"type": "electric_scooter", "name": "60ba0fb97a10f1a617f61f324bd6d28e", "fusion_lat": 0.0, "fusion_lon": 0.0, "lon": -77.034163, "is_disabled": 0, "bike_id": "60ba0fb97a10f1a617f61f324bd6d28e", "is_reserved": 0, "rental_uris": {"android": "https://dc.lft.to/lastmile_qr_scan", "ios": "https://dc.lft.to/lastmile_qr_scan"}, "lat": 38.901411333333336}, {"type": "electric_scooter", "name": "bc2706914e8934a042512631bc32ffd7", "fusion_lat": 0.0, "fusion_lon": 0.0, "lon": -77.03827383333334, "is_disabled": 0, "bike_id": "bc2706914e8934a042512631bc32ffd7", "is_reserved": 0, "rental_uris": {"android": "https://dc.lft.to/lastmile_qr_scan", "ios": "https://dc.lft.to/lastmile_qr_scan"}, "lat": 38.9118935}, {"type": "electric_scooter", "name": "b15bf89a2f9defe3db15fd15ad2b2bfa", "fusion_lat": 0.0, "fusion_lon": 0.0, "lon": -77.02971, "is_disabled": 0, "bike_id": "b15bf89a2f9defe3db15fd15ad2b2bfa", "is_reserved": 0, "rental_uris": {"android": "https://dc.lft.to/lastmile_qr_scan", "ios": "https://dc.lft.to/lastmile_qr_scan"}, "lat": 38.9244515}, {"type": "electric_bike", "name": "d3b3f2f68de0488c349f1ea00355341e", "fusion_lat": 0.0, "fusion_lon": 0.0, "lon": -77.2317555, "is_disabled": 0, "bike_id": "d3b3f2f68de0488c349f1ea00355341e", "is_reserved": 0, "rental_uris": {"android": "https://dc.lft.to/lastmile_qr_scan", "ios": "https://dc.lft.to/lastmile_qr_scan"}, "lat": 38.928934166666664}, {"type": "electric_scooter", "name": "318e30189ca0da5997ae5347cbf07c76", "fusion_lat": 0.0, "fusion_lon": 0.0, "lon": -76.94633766666666, "is_disabled": 0, "bike_id": "318e30189ca0da5997ae5347cbf07c76", "is_reserved": 0, "rental_uris": {"android": "https://dc.lft.to/lastmile_qr_scan", "ios": "https://dc.lft.to/lastmile_qr_scan"}, "lat": 38.89862316666667}, {"type": "electric_scooter", "name": "af53c60a99df0a30b3cc8a5c4b7252d0", "fusion_lat": 0.0, "fusion_lon": 0.0, "lon": -77.01499766666667, "is_disabled": 0, "bike_id": "af53c60a99df0a30b3cc8a5c4b7252d0", "is_reserved": 0, "rental_uris": {"android": "https://dc.lft.to/lastmile_qr_scan", "ios": "https://dc.lft.to/lastmile_qr_scan"}, "lat": 38.9065225}, {"type": "electric_scooter", "name": "6519dafbd723ad138a502ecbbb032c1a", "fusion_lat": 0.0, "fusion_lon": 0.0, "lon": -77.02566, "is_disabled": 0, "bike_id": "6519dafbd723ad138a502ecbbb032c1a", "is_reserved": 0, "rental_uris": {"android": "https://dc.lft.to/lastmile_qr_scan", "ios": "https://dc.lft.to/lastmile_qr_scan"}, "lat": 38.9484985}, {"type": "electric_scooter", "name": "6fdb82d26549cb7fc42d72fc0a4e2b96", "fusion_lat": 0.0, "fusion_lon": 0.0, "lon": -77.0244365, "is_disabled": 0, "bike_id": "6fdb82d26549cb7fc42d72fc0a4e2b96", "is_reserved": 0, "rental_uris": {"android": "https://dc.lft.to/lastmile_qr_scan", "ios": "https://dc.lft.to/lastmile_qr_scan"}, "lat": 38.94973916666667}, {"type": "electric_scooter", "name": "affca7fc9e1b3017a416eea10fe18142", "fusion_lat": 0.0, "fusion_lon": 0.0, "lon": -77.01054633333334, "is_disabled": 0, "bike_id": "affca7fc9e1b3017a416eea10fe18142", "is_reserved": 0, "rental_uris": {"android": "https://dc.lft.to/lastmile_qr_scan", "ios": "https://dc.lft.to/lastmile_qr_scan"}, "lat": 38.92989216666667}, {"type": "electric_scooter", "name": "53c531dbe3845b7acab9632321cee7dc", "fusion_lat": 0.0, "fusion_lon": 0.0, "lon": -77.03165266666667, "is_disabled": 0, "bike_id": "53c531dbe3845b7acab9632321cee7dc", "is_reserved": 0, "rental_uris": {"android": "https://dc.lft.to/lastmile_qr_scan", "ios": "https://dc.lft.to/lastmile_qr_scan"}, "lat": 38.9209765}, {"type": "electric_scooter", "name": "a14d6ec01af84f127fe728b8489d09fd", "fusion_lat": 0.0, "fusion_lon": 0.0, "lon": -77.02004483333333, "is_disabled": 0, "bike_id": "a14d6ec01af84f127fe728b8489d09fd", "is_reserved": 0, "rental_uris": {"android": "https://dc.lft.to/lastmile_qr_scan", "ios": "https://dc.lft.to/lastmile_qr_scan"}, "lat": 38.928066333333334}, {"type": "electric_bike", "name": "07d349c56e56891bed66f6eec4727455", "fusion_lat": 0.0, "fusion_lon": 0.0, "lon": -77.090093, "is_disabled": 0, "bike_id": "07d349c56e56891bed66f6eec4727455", "is_reserved": 0, "rental_uris": {"android": "https://dc.lft.to/lastmile_qr_scan", "ios": "https://dc.lft.to/lastmile_qr_scan"}, "lat": 38.926508166666665}, {"type": "electric_bike", "name": "f33b25d8522a484a2ec3f6775e3dbecb", "fusion_lat": 0.0, "fusion_lon": 0.0, "lon": -76.9570175, "is_disabled": 0, "bike_id": "f33b25d8522a484a2ec3f6775e3dbecb", "is_reserved": 0, "rental_uris": {"android": "https://dc.lft.to/lastmile_qr_scan", "ios": "https://dc.lft.to/lastmile_qr_scan"}, "lat": 38.850856}, {"type": "electric_scooter", "name": "fe3797b7c1ced6b2c60fc6ccd5bd4697", "fusion_lat": 0.0, "fusion_lon": 0.0, "lon": -77.0336005, "is_disabled": 0, "bike_id": "fe3797b7c1ced6b2c60fc6ccd5bd4697", "is_reserved": 0, "rental_uris": {"android": "https://dc.lft.to/lastmile_qr_scan", "ios": "https://dc.lft.to/lastmile_qr_scan"}, "lat": 38.900372833333336}, {"type": "electric_scooter", "name": "7583ae298a261467fff7180e85cb7d6d", "fusion_lat": 0.0, "fusion_lon": 0.0, "lon": -77.01463616666666, "is_disabled": 0, "bike_id": "7583ae298a261467fff7180e85cb7d6d", "is_reserved": 0, "rental_uris": {"android": "https://dc.lft.to/lastmile_qr_scan", "ios": "https://dc.lft.to/lastmile_qr_scan"}, "lat": 38.9175535}, {"type": "electric_scooter", "name": "ef77f7c247315c18977de68146830882", "fusion_lat": 0.0, "fusion_lon": 0.0, "lon": -77.0256595, "is_disabled": 0, "bike_id": "ef77f7c247315c18977de68146830882", "is_reserved": 0, "rental_uris": {"android": "https://dc.lft.to/lastmile_qr_scan", "ios": "https://dc.lft.to/lastmile_qr_scan"}, "lat": 38.901457666666666}, {"type": "electric_scooter", "name": "e245d02eaff3ad68eeac21cfb8ae5aa5", "fusion_lat": 0.0, "fusion_lon": 0.0, "lon": -76.957393, "is_disabled": 0, "bike_id": "e245d02eaff3ad68eeac21cfb8ae5aa5", "is_reserved": 0, "rental_uris": {"android": "https://dc.lft.to/lastmile_qr_scan", "ios": "https://dc.lft.to/lastmile_qr_scan"}, "lat": 38.883895333333335}, {"type": "electric_scooter", "name": "053690f032b29a436ea7f54b2c993539", "fusion_lat": 0.0, "fusion_lon": 0.0, "lon": -77.02292216666666, "is_disabled": 0, "bike_id": "053690f032b29a436ea7f54b2c993539", "is_reserved": 0, "rental_uris": {"android": "https://dc.lft.to/lastmile_qr_scan", "ios": "https://dc.lft.to/lastmile_qr_scan"}, "lat": 38.91696483333333}, {"type": "electric_scooter", "name": "3ac00b42a39b10422c94d5cb083132af", "fusion_lat": 0.0, "fusion_lon": 0.0, "lon": -77.02228966666667, "is_disabled": 0, "bike_id": "3ac00b42a39b10422c94d5cb083132af", "is_reserved": 0, "rental_uris": {"android": "https://dc.lft.to/lastmile_qr_scan", "ios": "https://dc.lft.to/lastmile_qr_scan"}, "lat": 38.90860516666667}, {"type": "electric_scooter", "name": "244d760610b2ac0194964e39ab6c9939", "fusion_lat": 0.0, "fusion_lon": 0.0, "lon": -77.030099, "is_disabled": 0, "bike_id": "244d760610b2ac0194964e39ab6c9939", "is_reserved": 0, "rental_uris": {"android": "https://dc.lft.to/lastmile_qr_scan", "ios": "https://dc.lft.to/lastmile_qr_scan"}, "lat": 38.928753666666665}, {"type": "electric_bike", "name": "ebb9a359bb39f1f063a5e11caed572e3", "fusion_lat": 0.0, "fusion_lon": 0.0, "lon": -77.1273255, "is_disabled": 0, "bike_id": "ebb9a359bb39f1f063a5e11caed572e3", "is_reserved": 0, "rental_uris": {"android": "https://dc.lft.to/lastmile_qr_scan", "ios": "https://dc.lft.to/lastmile_qr_scan"}, "lat": 38.89562866666667}, {"type": "electric_scooter", "name": "59b9b0851c16d6eb00aad44350041031", "fusion_lat": 0.0, "fusion_lon": 0.0, "lon": -77.040235, "is_disabled": 0, "bike_id": "59b9b0851c16d6eb00aad44350041031", "is_reserved": 0, "rental_uris": {"android": "https://dc.lft.to/lastmile_qr_scan", "ios": "https://dc.lft.to/lastmile_qr_scan"}, "lat": 38.90608183333333}, {"type": "electric_scooter", "name": "660b1f1f1d6e55e33b747893acffb51c", "fusion_lat": 0.0, "fusion_lon": 0.0, "lon": -76.9991245, "is_disabled": 0, "bike_id": "660b1f1f1d6e55e33b747893acffb51c", "is_reserved": 0, "rental_uris": {"android": "https://dc.lft.to/lastmile_qr_scan", "ios": "https://dc.lft.to/lastmile_qr_scan"}, "lat": 38.92457066666667}, {"type": "electric_scooter", "name": "cfd550d770ff3e8afe0ee7cb7e554047", "fusion_lat": 0.0, "fusion_lon": 0.0, "lon": -76.98848166666667, "is_disabled": 0, "bike_id": "cfd550d770ff3e8afe0ee7cb7e554047", "is_reserved": 0, "rental_uris": {"android": "https://dc.lft.to/lastmile_qr_scan", "ios": "https://dc.lft.to/lastmile_qr_scan"}, "lat": 38.89164433333333}, {"type": "electric_scooter", "name": "59d0c7c4c4b1f5a09c68cf99fa2bfc76", "fusion_lat": 0.0, "fusion_lon": 0.0, "lon": -77.01790833333334, "is_disabled": 0, "bike_id": "59d0c7c4c4b1f5a09c68cf99fa2bfc76", "is_reserved": 0, "rental_uris": {"android": "https://dc.lft.to/lastmile_qr_scan", "ios": "https://dc.lft.to/lastmile_qr_scan"}, "lat": 38.919480166666666}, {"type": "electric_scooter", "name": "3ee1d4837353f259cc6d72821d573e06", "fusion_lat": 0.0, "fusion_lon": 0.0, "lon": -77.02942566666667, "is_disabled": 0, "bike_id": "3ee1d4837353f259cc6d72821d573e06", "is_reserved": 0, "rental_uris": {"android": "https://dc.lft.to/lastmile_qr_scan", "ios": "https://dc.lft.to/lastmile_qr_scan"}, "lat": 38.916819333333336}, {"type": "electric_scooter", "name": "45a4b02bb223046dbd5e9075dd565389", "fusion_lat": 0.0, "fusion_lon": 0.0, "lon": -77.03205016666666, "is_disabled": 0, "bike_id": "45a4b02bb223046dbd5e9075dd565389", "is_reserved": 0, "rental_uris": {"android": "https://dc.lft.to/lastmile_qr_scan", "ios": "https://dc.lft.to/lastmile_qr_scan"}, "lat": 38.907281}, {"type": "electric_scooter", "name": "ffba65e895801524a22d181dba075846", "fusion_lat": 0.0, "fusion_lon": 0.0, "lon": -77.0250075, "is_disabled": 0, "bike_id": "ffba65e895801524a22d181dba075846", "is_reserved": 0, "rental_uris": {"android": "https://dc.lft.to/lastmile_qr_scan", "ios": "https://dc.lft.to/lastmile_qr_scan"}, "lat": 38.921046}, {"type": "electric_bike", "name": "70cd06a45ea314809da28be8f726b6a3", "fusion_lat": 0.0, "fusion_lon": 0.0, "lon": -77.09616966666667, "is_disabled": 0, "bike_id": "70cd06a45ea314809da28be8f726b6a3", "is_reserved": 0, "rental_uris": {"android": "https://dc.lft.to/lastmile_qr_scan", "ios": "https://dc.lft.to/lastmile_qr_scan"}, "lat": 38.95245283333333}, {"type": "electric_scooter", "name": "84bb6c95ed16dc700ed6ee67e986f583", "fusion_lat": 0.0, "fusion_lon": 0.0, "lon": -77.01130916666666, "is_disabled": 0, "bike_id": "84bb6c95ed16dc700ed6ee67e986f583", "is_reserved": 0, "rental_uris": {"android": "https://dc.lft.to/lastmile_qr_scan", "ios": "https://dc.lft.to/lastmile_qr_scan"}, "lat": 38.896656}, {"type": "electric_scooter", "name": "5cb93f28527d349118ecbc2fc072f5f5", "fusion_lat": 0.0, "fusion_lon": 0.0, "lon": -77.03436233333333, "is_disabled": 0, "bike_id": "5cb93f28527d349118ecbc2fc072f5f5", "is_reserved": 0, "rental_uris": {"android": "https://dc.lft.to/lastmile_qr_scan", "ios": "https://dc.lft.to/lastmile_qr_scan"}, "lat": 38.90583816666667}, {"type": "electric_scooter", "name": "62b4abf26346e2b34532dfa19f094ebc", "fusion_lat": 0.0, "fusion_lon": 0.0, "lon": -76.9457675, "is_disabled": 0, "bike_id": "62b4abf26346e2b34532dfa19f094ebc", "is_reserved": 0, "rental_uris": {"android": "https://dc.lft.to/lastmile_qr_scan", "ios": "https://dc.lft.to/lastmile_qr_scan"}, "lat": 38.89923533333334}, {"type": "electric_scooter", "name": "49501e0da82e62f06d669a0be18dba72", "fusion_lat": 0.0, "fusion_lon": 0.0, "lon": -77.02378016666667, "is_disabled": 0, "bike_id": "49501e0da82e62f06d669a0be18dba72", "is_reserved": 0, "rental_uris": {"android": "https://dc.lft.to/lastmile_qr_scan", "ios": "https://dc.lft.to/lastmile_qr_scan"}, "lat": 38.89197216666667}, {"type": "electric_bike", "name": "70c3b5377d024e0b16f221f8e0f34882", "fusion_lat": 0.0, "fusion_lon": 0.0, "lon": -77.1273735, "is_disabled": 0, "bike_id": "70c3b5377d024e0b16f221f8e0f34882", "is_reserved": 0, "rental_uris": {"android": "https://dc.lft.to/lastmile_qr_scan", "ios": "https://dc.lft.to/lastmile_qr_scan"}, "lat": 38.895671166666666}, {"type": "electric_bike", "name": "d9c376616146a06a74e7838a31ded6e2", "fusion_lat": 0.0, "fusion_lon": 0.0, "lon": -77.038806, "is_disabled": 0, "bike_id": "d9c376616146a06a74e7838a31ded6e2", "is_reserved": 0, "rental_uris": {"android": "https://dc.lft.to/lastmile_qr_scan", "ios": "https://dc.lft.to/lastmile_qr_scan"}, "lat": 39.026246}, {"type": "electric_scooter", "name": "6ef66785a0c3a4eb6b732c4e08104952", "fusion_lat": 0.0, "fusion_lon": 0.0, "lon": -77.03021666666666, "is_disabled": 0, "bike_id": "6ef66785a0c3a4eb6b732c4e08104952", "is_reserved": 0, "rental_uris": {"android": "https://dc.lft.to/lastmile_qr_scan", "ios": "https://dc.lft.to/lastmile_qr_scan"}, "lat": 38.878511333333336}, {"type": "electric_bike", "name": "f425fbc5551178ead965dc0fa72bee59", "fusion_lat": 0.0, "fusion_lon": 0.0, "lon": -76.90737816666666, "is_disabled": 0, "bike_id": "f425fbc5551178ead965dc0fa72bee59", "is_reserved": 0, "rental_uris": {"android": "https://dc.lft.to/lastmile_qr_scan", "ios": "https://dc.lft.to/lastmile_qr_scan"}, "lat": 38.89618216666667}, {"type": "electric_scooter", "name": "f42ac679565bc383589511d525572111", "fusion_lat": 0.0, "fusion_lon": 0.0, "lon": -77.02276316666666, "is_disabled": 0, "bike_id": "f42ac679565bc383589511d525572111", "is_reserved": 0, "rental_uris": {"android": "https://dc.lft.to/lastmile_qr_scan", "ios": "https://dc.lft.to/lastmile_qr_scan"}, "lat": 38.89838666666667}, {"type": "electric_bike", "name": "9e80ca2f199e59f0f5b39838c481d031", "fusion_lat": 0.0, "fusion_lon": 0.0, "lon": -77.02979083333334, "is_disabled": 0, "bike_id": "9e80ca2f199e59f0f5b39838c481d031", "is_reserved": 0, "rental_uris": {"android": "https://dc.lft.to/lastmile_qr_scan", "ios": "https://dc.lft.to/lastmile_qr_scan"}, "lat": 38.93501966666667}, {"type": "electric_scooter", "name": "51ac26c87ab059b81bd0e48e0bd495db", "fusion_lat": 0.0, "fusion_lon": 0.0, "lon": -77.022969, "is_disabled": 0, "bike_id": "51ac26c87ab059b81bd0e48e0bd495db", "is_reserved": 0, "rental_uris": {"android": "https://dc.lft.to/lastmile_qr_scan", "ios": "https://dc.lft.to/lastmile_qr_scan"}, "lat": 38.896488}, {"type": "electric_scooter", "name": "e21800b338620181a85c52006ad60a44", "fusion_lat": 0.0, "fusion_lon": 0.0, "lon": -77.03575183333334, "is_disabled": 0, "bike_id": "e21800b338620181a85c52006ad60a44", "is_reserved": 0, "rental_uris": {"android": "https://dc.lft.to/lastmile_qr_scan", "ios": "https://dc.lft.to/lastmile_qr_scan"}, "lat": 38.90691666666667}, {"type": "electric_scooter", "name": "4e19cc9fe21ca1b4fafa39f2754ddf8b", "fusion_lat": 0.0, "fusion_lon": 0.0, "lon": -77.03163183333334, "is_disabled": 0, "bike_id": "4e19cc9fe21ca1b4fafa39f2754ddf8b", "is_reserved": 0, "rental_uris": {"android": "https://dc.lft.to/lastmile_qr_scan", "ios": "https://dc.lft.to/lastmile_qr_scan"}, "lat": 38.91565516666667}, {"type": "electric_scooter", "name": "cf5a91360f8444a945edd99228f8c077", "fusion_lat": 0.0, "fusion_lon": 0.0, "lon": -77.02197966666667, "is_disabled": 0, "bike_id": "cf5a91360f8444a945edd99228f8c077", "is_reserved": 0, "rental_uris": {"android": "https://dc.lft.to/lastmile_qr_scan", "ios": "https://dc.lft.to/lastmile_qr_scan"}, "lat": 38.91440216666667}, {"type": "electric_scooter", "name": "e38cda46c0f3ee6472788c1415bb738d", "fusion_lat": 0.0, "fusion_lon": 0.0, "lon": -76.98367833333333, "is_disabled": 0, "bike_id": "e38cda46c0f3ee6472788c1415bb738d", "is_reserved": 0, "rental_uris": {"android": "https://dc.lft.to/lastmile_qr_scan", "ios": "https://dc.lft.to/lastmile_qr_scan"}, "lat": 38.9220485}, {"type": "electric_scooter", "name": "b604360c0150f40d57eeed21c8316516", "fusion_lat": 0.0, "fusion_lon": 0.0, "lon": -77.023646, "is_disabled": 0, "bike_id": "b604360c0150f40d57eeed21c8316516", "is_reserved": 0, "rental_uris": {"android": "https://dc.lft.to/lastmile_qr_scan", "ios": "https://dc.lft.to/lastmile_qr_scan"}, "lat": 38.9205755}, {"type": "electric_scooter", "name": "7968c8097148b1d9cf705df57280330b", "fusion_lat": 0.0, "fusion_lon": 0.0, "lon": -77.03974033333333, "is_disabled": 0, "bike_id": "7968c8097148b1d9cf705df57280330b", "is_reserved": 0, "rental_uris": {"android": "https://dc.lft.to/lastmile_qr_scan", "ios": "https://dc.lft.to/lastmile_qr_scan"}, "lat": 38.902732}, {"type": "electric_scooter", "name": "f30d5443538022cf0a17b242fffa13fa", "fusion_lat": 0.0, "fusion_lon": 0.0, "lon": -76.92653616666666, "is_disabled": 0, "bike_id": "f30d5443538022cf0a17b242fffa13fa", "is_reserved": 0, "rental_uris": {"android": "https://dc.lft.to/lastmile_qr_scan", "ios": "https://dc.lft.to/lastmile_qr_scan"}, "lat": 38.882538333333336}, {"type": "electric_scooter", "name": "3bfd5965bb844535060c0dccdb35c5d7", "fusion_lat": 0.0, "fusion_lon": 0.0, "lon": -77.01955233333334, "is_disabled": 0, "bike_id": "3bfd5965bb844535060c0dccdb35c5d7", "is_reserved": 0, "rental_uris": {"android": "https://dc.lft.to/lastmile_qr_scan", "ios": "https://dc.lft.to/lastmile_qr_scan"}, "lat": 38.930399333333334}, {"type": "electric_scooter", "name": "77b7f12436cbcc5980c2b540cc346b9a", "fusion_lat": 0.0, "fusion_lon": 0.0, "lon": -77.0486055, "is_disabled": 0, "bike_id": "77b7f12436cbcc5980c2b540cc346b9a", "is_reserved": 0, "rental_uris": {"android": "https://dc.lft.to/lastmile_qr_scan", "ios": "https://dc.lft.to/lastmile_qr_scan"}, "lat": 38.91269366666667}, {"type": "electric_scooter", "name": "b392d23630158e0773875a5e26879378", "fusion_lat": 0.0, "fusion_lon": 0.0, "lon": -77.005564, "is_disabled": 0, "bike_id": "b392d23630158e0773875a5e26879378", "is_reserved": 0, "rental_uris": {"android": "https://dc.lft.to/lastmile_qr_scan", "ios": "https://dc.lft.to/lastmile_qr_scan"}, "lat": 38.87555433333333}, {"type": "electric_scooter", "name": "c68d7ca3c500dd6293ed40e96441848c", "fusion_lat": 0.0, "fusion_lon": 0.0, "lon": -77.0272405, "is_disabled": 0, "bike_id": "c68d7ca3c500dd6293ed40e96441848c", "is_reserved": 0, "rental_uris": {"android": "https://dc.lft.to/lastmile_qr_scan", "ios": "https://dc.lft.to/lastmile_qr_scan"}, "lat": 38.933970333333335}, {"type": "electric_bike", "name": "581325e00e71b9b98a1d911c1ac30455", "fusion_lat": 0.0, "fusion_lon": 0.0, "lon": -76.99351933333334, "is_disabled": 0, "bike_id": "581325e00e71b9b98a1d911c1ac30455", "is_reserved": 0, "rental_uris": {"android": "https://dc.lft.to/lastmile_qr_scan", "ios": "https://dc.lft.to/lastmile_qr_scan"}, "lat": 38.836730333333335}, {"type": "electric_scooter", "name": "bc144c575a47f5173042fb1e99584300", "fusion_lat": 0.0, "fusion_lon": 0.0, "lon": -77.02429583333333, "is_disabled": 0, "bike_id": "bc144c575a47f5173042fb1e99584300", "is_reserved": 0, "rental_uris": {"android": "https://dc.lft.to/lastmile_qr_scan", "ios": "https://dc.lft.to/lastmile_qr_scan"}, "lat": 38.92049516666667}, {"type": "electric_scooter", "name": "9c88b903455a11305a8602bfc09cbbd0", "fusion_lat": 0.0, "fusion_lon": 0.0, "lon": -76.94887683333333, "is_disabled": 0, "bike_id": "9c88b903455a11305a8602bfc09cbbd0", "is_reserved": 0, "rental_uris": {"android": "https://dc.lft.to/lastmile_qr_scan", "ios": "https://dc.lft.to/lastmile_qr_scan"}, "lat": 38.895344}, {"type": "electric_scooter", "name": "62bc425dec9dbfb16c09c11aa2b42816", "fusion_lat": 0.0, "fusion_lon": 0.0, "lon": -77.02264066666666, "is_disabled": 0, "bike_id": "62bc425dec9dbfb16c09c11aa2b42816", "is_reserved": 0, "rental_uris": {"android": "https://dc.lft.to/lastmile_qr_scan", "ios": "https://dc.lft.to/lastmile_qr_scan"}, "lat": 38.924640333333336}, {"type": "electric_scooter", "name": "19c4af5f9d8c74cc7fe2433e036d00df", "fusion_lat": 0.0, "fusion_lon": 0.0, "lon": -77.00249533333333, "is_disabled": 0, "bike_id": "19c4af5f9d8c74cc7fe2433e036d00df", "is_reserved": 0, "rental_uris": {"android": "https://dc.lft.to/lastmile_qr_scan", "ios": "https://dc.lft.to/lastmile_qr_scan"}, "lat": 38.90039433333333}, {"type": "electric_scooter", "name": "6a522cb2c152bb8f93c0877a8ddc9906", "fusion_lat": 0.0, "fusion_lon": 0.0, "lon": -77.034667, "is_disabled": 0, "bike_id": "6a522cb2c152bb8f93c0877a8ddc9906", "is_reserved": 0, "rental_uris": {"android": "https://dc.lft.to/lastmile_qr_scan", "ios": "https://dc.lft.to/lastmile_qr_scan"}, "lat": 38.91184333333333}, {"type": "electric_scooter", "name": "00125731e4702cea61f3c251693da8fa", "fusion_lat": 0.0, "fusion_lon": 0.0, "lon": -77.02150016666667, "is_disabled": 0, "bike_id": "00125731e4702cea61f3c251693da8fa", "is_reserved": 0, "rental_uris": {"android": "https://dc.lft.to/lastmile_qr_scan", "ios": "https://dc.lft.to/lastmile_qr_scan"}, "lat": 38.927536}, {"type": "electric_scooter", "name": "966ce6da0882e9954ddd6d8965165036", "fusion_lat": 0.0, "fusion_lon": 0.0, "lon": -77.04121016666667, "is_disabled": 0, "bike_id": "966ce6da0882e9954ddd6d8965165036", "is_reserved": 0, "rental_uris": {"android": "https://dc.lft.to/lastmile_qr_scan", "ios": "https://dc.lft.to/lastmile_qr_scan"}, "lat": 38.92199016666667}, {"type": "electric_scooter", "name": "fce5671bf0ff737b871e5c9a8b93ae4c", "fusion_lat": 0.0, "fusion_lon": 0.0, "lon": -76.99866383333334, "is_disabled": 0, "bike_id": "fce5671bf0ff737b871e5c9a8b93ae4c", "is_reserved": 0, "rental_uris": {"android": "https://dc.lft.to/lastmile_qr_scan", "ios": "https://dc.lft.to/lastmile_qr_scan"}, "lat": 38.9003025}, {"type": "electric_scooter", "name": "bb7aa78aa4d628fdc1f4b606bba3b18a", "fusion_lat": 0.0, "fusion_lon": 0.0, "lon": -77.02549983333333, "is_disabled": 0, "bike_id": "bb7aa78aa4d628fdc1f4b606bba3b18a", "is_reserved": 0, "rental_uris": {"android": "https://dc.lft.to/lastmile_qr_scan", "ios": "https://dc.lft.to/lastmile_qr_scan"}, "lat": 38.91549783333333}, {"type": "electric_scooter", "name": "fde238c50a4eaf1cc4fab4dd48f04674", "fusion_lat": 0.0, "fusion_lon": 0.0, "lon": -77.03184683333333, "is_disabled": 0, "bike_id": "fde238c50a4eaf1cc4fab4dd48f04674", "is_reserved": 0, "rental_uris": {"android": "https://dc.lft.to/lastmile_qr_scan", "ios": "https://dc.lft.to/lastmile_qr_scan"}, "lat": 38.91426166666667}, {"type": "electric_scooter", "name": "2496762a0e26dad4582c739859b5ea71", "fusion_lat": 0.0, "fusion_lon": 0.0, "lon": -77.0321675, "is_disabled": 0, "bike_id": "2496762a0e26dad4582c739859b5ea71", "is_reserved": 0, "rental_uris": {"android": "https://dc.lft.to/lastmile_qr_scan", "ios": "https://dc.lft.to/lastmile_qr_scan"}, "lat": 38.914060166666665}, {"type": "electric_scooter", "name": "5948a11c163ced1e259a31dbe1e48b53", "fusion_lat": 0.0, "fusion_lon": 0.0, "lon": -77.02690416666667, "is_disabled": 0, "bike_id": "5948a11c163ced1e259a31dbe1e48b53", "is_reserved": 0, "rental_uris": {"android": "https://dc.lft.to/lastmile_qr_scan", "ios": "https://dc.lft.to/lastmile_qr_scan"}, "lat": 38.913888666666665}, {"type": "electric_scooter", "name": "2bd220959f0b5a339b5d97bd36a58006", "fusion_lat": 0.0, "fusion_lon": 0.0, "lon": -77.021765, "is_disabled": 0, "bike_id": "2bd220959f0b5a339b5d97bd36a58006", "is_reserved": 0, "rental_uris": {"android": "https://dc.lft.to/lastmile_qr_scan", "ios": "https://dc.lft.to/lastmile_qr_scan"}, "lat": 38.90952166666667}, {"type": "electric_scooter", "name": "4f4b5da6ba7f1a9682c3df406374e24e", "fusion_lat": 0.0, "fusion_lon": 0.0, "lon": -77.0326385, "is_disabled": 0, "bike_id": "4f4b5da6ba7f1a9682c3df406374e24e", "is_reserved": 0, "rental_uris": {"android": "https://dc.lft.to/lastmile_qr_scan", "ios": "https://dc.lft.to/lastmile_qr_scan"}, "lat": 38.93735983333333}, {"type": "electric_scooter", "name": "2ce8cf8b0d34ec127018a70421066a4f", "fusion_lat": 0.0, "fusion_lon": 0.0, "lon": -77.04874033333333, "is_disabled": 0, "bike_id": "2ce8cf8b0d34ec127018a70421066a4f", "is_reserved": 0, "rental_uris": {"android": "https://dc.lft.to/lastmile_qr_scan", "ios": "https://dc.lft.to/lastmile_qr_scan"}, "lat": 38.90902666666667}, {"type": "electric_scooter", "name": "270c1622f335818057c00ecf868f1a02", "fusion_lat": 0.0, "fusion_lon": 0.0, "lon": -76.99897533333333, "is_disabled": 0, "bike_id": "270c1622f335818057c00ecf868f1a02", "is_reserved": 0, "rental_uris": {"android": "https://dc.lft.to/lastmile_qr_scan", "ios": "https://dc.lft.to/lastmile_qr_scan"}, "lat": 38.952977}, {"type": "electric_scooter", "name": "61ff3dcca51e6dc5f92825fa2208a638", "fusion_lat": 0.0, "fusion_lon": 0.0, "lon": -77.02376683333334, "is_disabled": 0, "bike_id": "61ff3dcca51e6dc5f92825fa2208a638", "is_reserved": 0, "rental_uris": {"android": "https://dc.lft.to/lastmile_qr_scan", "ios": "https://dc.lft.to/lastmile_qr_scan"}, "lat": 38.95268183333334}, {"type": "electric_scooter", "name": "15ab056fa35eaee90c1de2d8d1ac8880", "fusion_lat": 0.0, "fusion_lon": 0.0, "lon": -77.02368616666666, "is_disabled": 0, "bike_id": "15ab056fa35eaee90c1de2d8d1ac8880", "is_reserved": 0, "rental_uris": {"android": "https://dc.lft.to/lastmile_qr_scan", "ios": "https://dc.lft.to/lastmile_qr_scan"}, "lat": 38.9021515}, {"type": "electric_scooter", "name": "6bf04c1a806e70895a5b73a4fd618392", "fusion_lat": 0.0, "fusion_lon": 0.0, "lon": -76.94088466666666, "is_disabled": 0, "bike_id": "6bf04c1a806e70895a5b73a4fd618392", "is_reserved": 0, "rental_uris": {"android": "https://dc.lft.to/lastmile_qr_scan", "ios": "https://dc.lft.to/lastmile_qr_scan"}, "lat": 38.89118766666667}, {"type": "electric_scooter", "name": "830b2ddabbfb8b14f802711fc702ddf3", "fusion_lat": 0.0, "fusion_lon": 0.0, "lon": -77.01884416666667, "is_disabled": 0, "bike_id": "830b2ddabbfb8b14f802711fc702ddf3", "is_reserved": 0, "rental_uris": {"android": "https://dc.lft.to/lastmile_qr_scan", "ios": "https://dc.lft.to/lastmile_qr_scan"}, "lat": 38.8974995}, {"type": "electric_scooter", "name": "403db4542571c3339383bd438c3ecc97", "fusion_lat": 0.0, "fusion_lon": 0.0, "lon": -77.0264575, "is_disabled": 0, "bike_id": "403db4542571c3339383bd438c3ecc97", "is_reserved": 0, "rental_uris": {"android": "https://dc.lft.to/lastmile_qr_scan", "ios": "https://dc.lft.to/lastmile_qr_scan"}, "lat": 38.93097066666667}, {"type": "electric_scooter", "name": "3666013b7165e5125fdf12c1435dfdbf", "fusion_lat": 0.0, "fusion_lon": 0.0, "lon": -77.03840833333334, "is_disabled": 0, "bike_id": "3666013b7165e5125fdf12c1435dfdbf", "is_reserved": 0, "rental_uris": {"android": "https://dc.lft.to/lastmile_qr_scan", "ios": "https://dc.lft.to/lastmile_qr_scan"}, "lat": 38.907137}, {"type": "electric_scooter", "name": "3dd9c73825f8a2de743dae6295847033", "fusion_lat": 0.0, "fusion_lon": 0.0, "lon": -77.11023983333334, "is_disabled": 0, "bike_id": "3dd9c73825f8a2de743dae6295847033", "is_reserved": 0, "rental_uris": {"android": "https://dc.lft.to/lastmile_qr_scan", "ios": "https://dc.lft.to/lastmile_qr_scan"}, "lat": 38.87710766666667}, {"type": "electric_scooter", "name": "8bec2f809ab122d3477fa096c0141ed9", "fusion_lat": 0.0, "fusion_lon": 0.0, "lon": -77.02441633333333, "is_disabled": 0, "bike_id": "8bec2f809ab122d3477fa096c0141ed9", "is_reserved": 0, "rental_uris": {"android": "https://dc.lft.to/lastmile_qr_scan", "ios": "https://dc.lft.to/lastmile_qr_scan"}, "lat": 38.92054566666667}, {"type": "electric_scooter", "name": "d848cf68ff0bfd46d1800230e45a590a", "fusion_lat": 0.0, "fusion_lon": 0.0, "lon": -77.02446316666666, "is_disabled": 0, "bike_id": "d848cf68ff0bfd46d1800230e45a590a", "is_reserved": 0, "rental_uris": {"android": "https://dc.lft.to/lastmile_qr_scan", "ios": "https://dc.lft.to/lastmile_qr_scan"}, "lat": 38.9235055}, {"type": "electric_scooter", "name": "32d6dea9502f69e2a4b59eb14a81a953", "fusion_lat": 0.0, "fusion_lon": 0.0, "lon": -77.032784, "is_disabled": 0, "bike_id": "32d6dea9502f69e2a4b59eb14a81a953", "is_reserved": 0, "rental_uris": {"android": "https://dc.lft.to/lastmile_qr_scan", "ios": "https://dc.lft.to/lastmile_qr_scan"}, "lat": 38.93155683333333}, {"type": "electric_scooter", "name": "47bccbf7798e4a806614f0bbb5cee319", "fusion_lat": 0.0, "fusion_lon": 0.0, "lon": -77.02798916666667, "is_disabled": 0, "bike_id": "47bccbf7798e4a806614f0bbb5cee319", "is_reserved": 0, "rental_uris": {"android": "https://dc.lft.to/lastmile_qr_scan", "ios": "https://dc.lft.to/lastmile_qr_scan"}, "lat": 38.9105925}, {"type": "electric_scooter", "name": "68f8b3dc03025e2255646b5efeb5ec59", "fusion_lat": 0.0, "fusion_lon": 0.0, "lon": -77.03423783333334, "is_disabled": 0, "bike_id": "68f8b3dc03025e2255646b5efeb5ec59", "is_reserved": 0, "rental_uris": {"android": "https://dc.lft.to/lastmile_qr_scan", "ios": "https://dc.lft.to/lastmile_qr_scan"}, "lat": 38.9140665}, {"type": "electric_scooter", "name": "baa15b34af9e2b34310de5e285159280", "fusion_lat": 0.0, "fusion_lon": 0.0, "lon": -77.02687416666667, "is_disabled": 0, "bike_id": "baa15b34af9e2b34310de5e285159280", "is_reserved": 0, "rental_uris": {"android": "https://dc.lft.to/lastmile_qr_scan", "ios": "https://dc.lft.to/lastmile_qr_scan"}, "lat": 38.9308}, {"type": "electric_scooter", "name": "328912a955aeb13e0de37997114fff23", "fusion_lat": 0.0, "fusion_lon": 0.0, "lon": -77.02305516666667, "is_disabled": 0, "bike_id": "328912a955aeb13e0de37997114fff23", "is_reserved": 0, "rental_uris": {"android": "https://dc.lft.to/lastmile_qr_scan", "ios": "https://dc.lft.to/lastmile_qr_scan"}, "lat": 38.91609833333333}, {"type": "electric_bike", "name": "52392421afa73773869bdc0913d0ad13", "fusion_lat": 0.0, "fusion_lon": 0.0, "lon": -77.020063, "is_disabled": 0, "bike_id": "52392421afa73773869bdc0913d0ad13", "is_reserved": 0, "rental_uris": {"android": "https://dc.lft.to/lastmile_qr_scan", "ios": "https://dc.lft.to/lastmile_qr_scan"}, "lat": 39.026235}, {"type": "electric_scooter", "name": "d24e6f902939546daafd312e46560b38", "fusion_lat": 0.0, "fusion_lon": 0.0, "lon": -77.00819766666666, "is_disabled": 0, "bike_id": "d24e6f902939546daafd312e46560b38", "is_reserved": 0, "rental_uris": {"android": "https://dc.lft.to/lastmile_qr_scan", "ios": "https://dc.lft.to/lastmile_qr_scan"}, "lat": 38.9156225}, {"type": "electric_scooter", "name": "0abf667592be7bcb41f18af08f5cc50c", "fusion_lat": 0.0, "fusion_lon": 0.0, "lon": -77.024461, "is_disabled": 0, "bike_id": "0abf667592be7bcb41f18af08f5cc50c", "is_reserved": 0, "rental_uris": {"android": "https://dc.lft.to/lastmile_qr_scan", "ios": "https://dc.lft.to/lastmile_qr_scan"}, "lat": 38.934181333333335}, {"type": "electric_scooter", "name": "853618e5ca781ae8bc98ae773b769efc", "fusion_lat": 0.0, "fusion_lon": 0.0, "lon": -77.0295155, "is_disabled": 0, "bike_id": "853618e5ca781ae8bc98ae773b769efc", "is_reserved": 0, "rental_uris": {"android": "https://dc.lft.to/lastmile_qr_scan", "ios": "https://dc.lft.to/lastmile_qr_scan"}, "lat": 38.8981005}, {"type": "electric_bike", "name": "2889f98f1d903bfacedd31601ea730d4", "fusion_lat": 0.0, "fusion_lon": 0.0, "lon": -77.112852, "is_disabled": 0, "bike_id": "2889f98f1d903bfacedd31601ea730d4", "is_reserved": 0, "rental_uris": {"android": "https://dc.lft.to/lastmile_qr_scan", "ios": "https://dc.lft.to/lastmile_qr_scan"}, "lat": 38.83107233333333}, {"type": "electric_scooter", "name": "fdb33f1c213eac300d390de1c0565355", "fusion_lat": 0.0, "fusion_lon": 0.0, "lon": -77.0138865, "is_disabled": 0, "bike_id": "fdb33f1c213eac300d390de1c0565355", "is_reserved": 0, "rental_uris": {"android": "https://dc.lft.to/lastmile_qr_scan", "ios": "https://dc.lft.to/lastmile_qr_scan"}, "lat": 38.91109266666667}, {"type": "electric_scooter", "name": "b094258cbbe4829faedfff36a8274174", "fusion_lat": 0.0, "fusion_lon": 0.0, "lon": -77.00624416666666, "is_disabled": 0, "bike_id": "b094258cbbe4829faedfff36a8274174", "is_reserved": 0, "rental_uris": {"android": "https://dc.lft.to/lastmile_qr_scan", "ios": "https://dc.lft.to/lastmile_qr_scan"}, "lat": 38.871733}, {"type": "electric_bike", "name": "113b606859e6cc17e522be7dd664611a", "fusion_lat": 0.0, "fusion_lon": 0.0, "lon": -77.12977383333333, "is_disabled": 0, "bike_id": "113b606859e6cc17e522be7dd664611a", "is_reserved": 0, "rental_uris": {"android": "https://dc.lft.to/lastmile_qr_scan", "ios": "https://dc.lft.to/lastmile_qr_scan"}, "lat": 38.799806}, {"type": "electric_scooter", "name": "0cdbb49d47b1e42afd1cb26a8409fd0f", "fusion_lat": 0.0, "fusion_lon": 0.0, "lon": -77.0321935, "is_disabled": 0, "bike_id": "0cdbb49d47b1e42afd1cb26a8409fd0f", "is_reserved": 0, "rental_uris": {"android": "https://dc.lft.to/lastmile_qr_scan", "ios": "https://dc.lft.to/lastmile_qr_scan"}, "lat": 38.920801}, {"type": "electric_bike", "name": "0620f51ff5acab48569ed3ecec31419b", "fusion_lat": 0.0, "fusion_lon": 0.0, "lon": -76.95246866666666, "is_disabled": 0, "bike_id": "0620f51ff5acab48569ed3ecec31419b", "is_reserved": 0, "rental_uris": {"android": "https://dc.lft.to/lastmile_qr_scan", "ios": "https://dc.lft.to/lastmile_qr_scan"}, "lat": 38.90695133333333}, {"type": "electric_scooter", "name": "e9473700f360edf064a5b2ba5545d3af", "fusion_lat": 0.0, "fusion_lon": 0.0, "lon": -76.9879935, "is_disabled": 0, "bike_id": "e9473700f360edf064a5b2ba5545d3af", "is_reserved": 0, "rental_uris": {"android": "https://dc.lft.to/lastmile_qr_scan", "ios": "https://dc.lft.to/lastmile_qr_scan"}, "lat": 38.89363266666667}, {"type": "electric_scooter", "name": "b201ebeccffa7ea3b37dee92e7236af5", "fusion_lat": 0.0, "fusion_lon": 0.0, "lon": -77.02250616666667, "is_disabled": 0, "bike_id": "b201ebeccffa7ea3b37dee92e7236af5", "is_reserved": 0, "rental_uris": {"android": "https://dc.lft.to/lastmile_qr_scan", "ios": "https://dc.lft.to/lastmile_qr_scan"}, "lat": 38.900055333333334}, {"type": "electric_scooter", "name": "2026baccd54ed3037f90633b29e10e4a", "fusion_lat": 0.0, "fusion_lon": 0.0, "lon": -76.97962283333334, "is_disabled": 0, "bike_id": "2026baccd54ed3037f90633b29e10e4a", "is_reserved": 0, "rental_uris": {"android": "https://dc.lft.to/lastmile_qr_scan", "ios": "https://dc.lft.to/lastmile_qr_scan"}, "lat": 38.897915833333336}, {"type": "electric_scooter", "name": "19372a55d93e49d3f58a47aef0a28aee", "fusion_lat": 0.0, "fusion_lon": 0.0, "lon": -76.97988983333333, "is_disabled": 0, "bike_id": "19372a55d93e49d3f58a47aef0a28aee", "is_reserved": 0, "rental_uris": {"android": "https://dc.lft.to/lastmile_qr_scan", "ios": "https://dc.lft.to/lastmile_qr_scan"}, "lat": 38.894424666666666}, {"type": "electric_scooter", "name": "2ea9ed808787c2dff141c41960bfa8a3", "fusion_lat": 0.0, "fusion_lon": 0.0, "lon": -77.02640583333333, "is_disabled": 0, "bike_id": "2ea9ed808787c2dff141c41960bfa8a3", "is_reserved": 0, "rental_uris": {"android": "https://dc.lft.to/lastmile_qr_scan", "ios": "https://dc.lft.to/lastmile_qr_scan"}, "lat": 38.90256133333333}, {"type": "electric_scooter", "name": "683b633db68e116926263858f66955c6", "fusion_lat": 0.0, "fusion_lon": 0.0, "lon": -77.044669, "is_disabled": 0, "bike_id": "683b633db68e116926263858f66955c6", "is_reserved": 0, "rental_uris": {"android": "https://dc.lft.to/lastmile_qr_scan", "ios": "https://dc.lft.to/lastmile_qr_scan"}, "lat": 38.923185833333335}, {"type": "electric_bike", "name": "35b7b53d56204be4f93a7434b71092f5", "fusion_lat": 0.0, "fusion_lon": 0.0, "lon": -77.02810616666666, "is_disabled": 0, "bike_id": "35b7b53d56204be4f93a7434b71092f5", "is_reserved": 0, "rental_uris": {"android": "https://dc.lft.to/lastmile_qr_scan", "ios": "https://dc.lft.to/lastmile_qr_scan"}, "lat": 38.945096}, {"type": "electric_bike", "name": "e6bf861f05c9d20de4a12b29bdcbb865", "fusion_lat": 0.0, "fusion_lon": 0.0, "lon": -77.04647716666666, "is_disabled": 0, "bike_id": "e6bf861f05c9d20de4a12b29bdcbb865", "is_reserved": 0, "rental_uris": {"android": "https://dc.lft.to/lastmile_qr_scan", "ios": "https://dc.lft.to/lastmile_qr_scan"}, "lat": 38.81542683333333}, {"type": "electric_scooter", "name": "c802fbcb335fdcb5c86ff8f2832628cd", "fusion_lat": 0.0, "fusion_lon": 0.0, "lon": -77.03074816666667, "is_disabled": 0, "bike_id": "c802fbcb335fdcb5c86ff8f2832628cd", "is_reserved": 0, "rental_uris": {"android": "https://dc.lft.to/lastmile_qr_scan", "ios": "https://dc.lft.to/lastmile_qr_scan"}, "lat": 38.90563516666667}, {"type": "electric_scooter", "name": "a0f516f57f334dc30c2cf5225a2167de", "fusion_lat": 0.0, "fusion_lon": 0.0, "lon": -77.03997766666667, "is_disabled": 0, "bike_id": "a0f516f57f334dc30c2cf5225a2167de", "is_reserved": 0, "rental_uris": {"android": "https://dc.lft.to/lastmile_qr_scan", "ios": "https://dc.lft.to/lastmile_qr_scan"}, "lat": 38.89869816666667}, {"type": "electric_bike", "name": "cb52bd3197e52124cb0a92dd5240ea0d", "fusion_lat": 0.0, "fusion_lon": 0.0, "lon": -77.05268966666667, "is_disabled": 0, "bike_id": "cb52bd3197e52124cb0a92dd5240ea0d", "is_reserved": 0, "rental_uris": {"android": "https://dc.lft.to/lastmile_qr_scan", "ios": "https://dc.lft.to/lastmile_qr_scan"}, "lat": 38.9409035}, {"type": "electric_scooter", "name": "22e7409b6b2e6db7fae413c3d532614c", "fusion_lat": 0.0, "fusion_lon": 0.0, "lon": -76.99844816666666, "is_disabled": 0, "bike_id": "22e7409b6b2e6db7fae413c3d532614c", "is_reserved": 0, "rental_uris": {"android": "https://dc.lft.to/lastmile_qr_scan", "ios": "https://dc.lft.to/lastmile_qr_scan"}, "lat": 38.8919055}, {"type": "electric_scooter", "name": "b6b4e636c9368bf2c8a820c8efcf372b", "fusion_lat": 0.0, "fusion_lon": 0.0, "lon": -77.02836433333333, "is_disabled": 0, "bike_id": "b6b4e636c9368bf2c8a820c8efcf372b", "is_reserved": 0, "rental_uris": {"android": "https://dc.lft.to/lastmile_qr_scan", "ios": "https://dc.lft.to/lastmile_qr_scan"}, "lat": 38.8873475}, {"type": "electric_scooter", "name": "d525268b07e9596cada59d7eef9be089", "fusion_lat": 0.0, "fusion_lon": 0.0, "lon": -77.03955933333333, "is_disabled": 0, "bike_id": "d525268b07e9596cada59d7eef9be089", "is_reserved": 0, "rental_uris": {"android": "https://dc.lft.to/lastmile_qr_scan", "ios": "https://dc.lft.to/lastmile_qr_scan"}, "lat": 38.901473333333335}, {"type": "electric_scooter", "name": "6b1286f988814d3f7cc84a7e18c6e019", "fusion_lat": 0.0, "fusion_lon": 0.0, "lon": -77.04897733333334, "is_disabled": 0, "bike_id": "6b1286f988814d3f7cc84a7e18c6e019", "is_reserved": 0, "rental_uris": {"android": "https://dc.lft.to/lastmile_qr_scan", "ios": "https://dc.lft.to/lastmile_qr_scan"}, "lat": 38.89734216666667}, {"type": "electric_scooter", "name": "664dfdbf1e4ac0b222a63d14bfcc1bd8", "fusion_lat": 0.0, "fusion_lon": 0.0, "lon": -77.02956333333333, "is_disabled": 0, "bike_id": "664dfdbf1e4ac0b222a63d14bfcc1bd8", "is_reserved": 0, "rental_uris": {"android": "https://dc.lft.to/lastmile_qr_scan", "ios": "https://dc.lft.to/lastmile_qr_scan"}, "lat": 38.916669}, {"type": "electric_scooter", "name": "7d61c5f39368169a0b99b6d06ed787bf", "fusion_lat": 0.0, "fusion_lon": 0.0, "lon": -77.06558833333334, "is_disabled": 0, "bike_id": "7d61c5f39368169a0b99b6d06ed787bf", "is_reserved": 0, "rental_uris": {"android": "https://dc.lft.to/lastmile_qr_scan", "ios": "https://dc.lft.to/lastmile_qr_scan"}, "lat": 38.883342166666665}, {"type": "electric_bike", "name": "500c273fc43c08279aacd9edf4c9ad19", "fusion_lat": 0.0, "fusion_lon": 0.0, "lon": -77.0071715, "is_disabled": 0, "bike_id": "500c273fc43c08279aacd9edf4c9ad19", "is_reserved": 0, "rental_uris": {"android": "https://dc.lft.to/lastmile_qr_scan", "ios": "https://dc.lft.to/lastmile_qr_scan"}, "lat": 38.99505716666667}, {"type": "electric_scooter", "name": "30d575e07f2fb59dcea91ce771394865", "fusion_lat": 0.0, "fusion_lon": 0.0, "lon": -77.02291883333334, "is_disabled": 0, "bike_id": "30d575e07f2fb59dcea91ce771394865", "is_reserved": 0, "rental_uris": {"android": "https://dc.lft.to/lastmile_qr_scan", "ios": "https://dc.lft.to/lastmile_qr_scan"}, "lat": 38.8987435}, {"type": "electric_scooter", "name": "b223a6c7599653fb320bc34f29dbd052", "fusion_lat": 0.0, "fusion_lon": 0.0, "lon": -76.99623883333334, "is_disabled": 0, "bike_id": "b223a6c7599653fb320bc34f29dbd052", "is_reserved": 0, "rental_uris": {"android": "https://dc.lft.to/lastmile_qr_scan", "ios": "https://dc.lft.to/lastmile_qr_scan"}, "lat": 38.877384}, {"type": "electric_scooter", "name": "781b5421a2882e4bddfac6bc1f73eae0", "fusion_lat": 0.0, "fusion_lon": 0.0, "lon": -77.0058335, "is_disabled": 0, "bike_id": "781b5421a2882e4bddfac6bc1f73eae0", "is_reserved": 0, "rental_uris": {"android": "https://dc.lft.to/lastmile_qr_scan", "ios": "https://dc.lft.to/lastmile_qr_scan"}, "lat": 38.90260116666666}, {"type": "electric_scooter", "name": "257ff952056fd1300a530515672c8b65", "fusion_lat": 0.0, "fusion_lon": 0.0, "lon": -77.01946516666666, "is_disabled": 0, "bike_id": "257ff952056fd1300a530515672c8b65", "is_reserved": 0, "rental_uris": {"android": "https://dc.lft.to/lastmile_qr_scan", "ios": "https://dc.lft.to/lastmile_qr_scan"}, "lat": 38.90258583333333}, {"type": "electric_scooter", "name": "6ab37b189a01d5494b7c02ff5bf896fa", "fusion_lat": 0.0, "fusion_lon": 0.0, "lon": -77.03540183333334, "is_disabled": 0, "bike_id": "6ab37b189a01d5494b7c02ff5bf896fa", "is_reserved": 0, "rental_uris": {"android": "https://dc.lft.to/lastmile_qr_scan", "ios": "https://dc.lft.to/lastmile_qr_scan"}, "lat": 38.92334483333333}, {"type": "electric_scooter", "name": "b8544efdbce9bf072831da602283cf0a", "fusion_lat": 0.0, "fusion_lon": 0.0, "lon": -77.02838583333333, "is_disabled": 0, "bike_id": "b8544efdbce9bf072831da602283cf0a", "is_reserved": 0, "rental_uris": {"android": "https://dc.lft.to/lastmile_qr_scan", "ios": "https://dc.lft.to/lastmile_qr_scan"}, "lat": 38.9305885}, {"type": "electric_scooter", "name": "7edb84cdc2e77224916b1a111399c3ba", "fusion_lat": 0.0, "fusion_lon": 0.0, "lon": -76.93520333333333, "is_disabled": 0, "bike_id": "7edb84cdc2e77224916b1a111399c3ba", "is_reserved": 0, "rental_uris": {"android": "https://dc.lft.to/lastmile_qr_scan", "ios": "https://dc.lft.to/lastmile_qr_scan"}, "lat": 38.87896583333333}, {"type": "electric_scooter", "name": "75d71552a4515273f25804b9fcca9637", "fusion_lat": 0.0, "fusion_lon": 0.0, "lon": -77.04809916666666, "is_disabled": 0, "bike_id": "75d71552a4515273f25804b9fcca9637", "is_reserved": 0, "rental_uris": {"android": "https://dc.lft.to/lastmile_qr_scan", "ios": "https://dc.lft.to/lastmile_qr_scan"}, "lat": 38.91039883333333}, {"type": "electric_scooter", "name": "0b091bd90f9793f39c5be18efe4a9a21", "fusion_lat": 0.0, "fusion_lon": 0.0, "lon": -76.99734983333333, "is_disabled": 0, "bike_id": "0b091bd90f9793f39c5be18efe4a9a21", "is_reserved": 0, "rental_uris": {"android": "https://dc.lft.to/lastmile_qr_scan", "ios": "https://dc.lft.to/lastmile_qr_scan"}, "lat": 38.920481}, {"type": "electric_scooter", "name": "8214d2665350b1073d701fde92942cb0", "fusion_lat": 0.0, "fusion_lon": 0.0, "lon": -77.0502475, "is_disabled": 0, "bike_id": "8214d2665350b1073d701fde92942cb0", "is_reserved": 0, "rental_uris": {"android": "https://dc.lft.to/lastmile_qr_scan", "ios": "https://dc.lft.to/lastmile_qr_scan"}, "lat": 38.90535}, {"type": "electric_scooter", "name": "1c82ce0c1c75d7b1fe10d04b2f89ffdf", "fusion_lat": 0.0, "fusion_lon": 0.0, "lon": -77.02693183333334, "is_disabled": 0, "bike_id": "1c82ce0c1c75d7b1fe10d04b2f89ffdf", "is_reserved": 0, "rental_uris": {"android": "https://dc.lft.to/lastmile_qr_scan", "ios": "https://dc.lft.to/lastmile_qr_scan"}, "lat": 38.9087185}, {"type": "electric_scooter", "name": "568167e283f90ee941dfc7ab4827cccc", "fusion_lat": 0.0, "fusion_lon": 0.0, "lon": -77.03574816666666, "is_disabled": 0, "bike_id": "568167e283f90ee941dfc7ab4827cccc", "is_reserved": 0, "rental_uris": {"android": "https://dc.lft.to/lastmile_qr_scan", "ios": "https://dc.lft.to/lastmile_qr_scan"}, "lat": 38.90811866666667}, {"type": "electric_scooter", "name": "0df8a1dd8cf8a5be461cfa6a5687345c", "fusion_lat": 0.0, "fusion_lon": 0.0, "lon": -77.028895, "is_disabled": 0, "bike_id": "0df8a1dd8cf8a5be461cfa6a5687345c", "is_reserved": 0, "rental_uris": {"android": "https://dc.lft.to/lastmile_qr_scan", "ios": "https://dc.lft.to/lastmile_qr_scan"}, "lat": 38.936042666666665}, {"type": "electric_scooter", "name": "a6ee904a97f16f6b93e14353f0341a5c", "fusion_lat": 0.0, "fusion_lon": 0.0, "lon": -77.011852, "is_disabled": 0, "bike_id": "a6ee904a97f16f6b93e14353f0341a5c", "is_reserved": 0, "rental_uris": {"android": "https://dc.lft.to/lastmile_qr_scan", "ios": "https://dc.lft.to/lastmile_qr_scan"}, "lat": 38.90023216666667}, {"type": "electric_bike", "name": "3c739df6544ea5a46d56b127efa3bad9", "fusion_lat": 0.0, "fusion_lon": 0.0, "lon": -76.97700833333333, "is_disabled": 0, "bike_id": "3c739df6544ea5a46d56b127efa3bad9", "is_reserved": 0, "rental_uris": {"android": "https://dc.lft.to/lastmile_qr_scan", "ios": "https://dc.lft.to/lastmile_qr_scan"}, "lat": 38.822089166666665}, {"type": "electric_bike", "name": "da1bc7b54a84c5c82d5dba8e7d421fc5", "fusion_lat": 0.0, "fusion_lon": 0.0, "lon": -77.08317133333334, "is_disabled": 0, "bike_id": "da1bc7b54a84c5c82d5dba8e7d421fc5", "is_reserved": 0, "rental_uris": {"android": "https://dc.lft.to/lastmile_qr_scan", "ios": "https://dc.lft.to/lastmile_qr_scan"}, "lat": 38.8544205}, {"type": "electric_scooter", "name": "9e985ea947cbdb3754d125743c5bfe94", "fusion_lat": 0.0, "fusion_lon": 0.0, "lon": -77.0210915, "is_disabled": 0, "bike_id": "9e985ea947cbdb3754d125743c5bfe94", "is_reserved": 0, "rental_uris": {"android": "https://dc.lft.to/lastmile_qr_scan", "ios": "https://dc.lft.to/lastmile_qr_scan"}, "lat": 38.90939066666667}, {"type": "electric_scooter", "name": "5bee90920a195d52817fbbfe9743b58d", "fusion_lat": 0.0, "fusion_lon": 0.0, "lon": -76.9721065, "is_disabled": 0, "bike_id": "5bee90920a195d52817fbbfe9743b58d", "is_reserved": 0, "rental_uris": {"android": "https://dc.lft.to/lastmile_qr_scan", "ios": "https://dc.lft.to/lastmile_qr_scan"}, "lat": 38.917193833333336}, {"type": "electric_scooter", "name": "289b2fe7c64300f0f97d6fe0a63f8a2c", "fusion_lat": 0.0, "fusion_lon": 0.0, "lon": -77.0137885, "is_disabled": 0, "bike_id": "289b2fe7c64300f0f97d6fe0a63f8a2c", "is_reserved": 0, "rental_uris": {"android": "https://dc.lft.to/lastmile_qr_scan", "ios": "https://dc.lft.to/lastmile_qr_scan"}, "lat": 38.898252166666666}, {"type": "electric_scooter", "name": "c77e88b59e7108cec6ea2e4ca74cdcc3", "fusion_lat": 0.0, "fusion_lon": 0.0, "lon": -77.01786516666667, "is_disabled": 0, "bike_id": "c77e88b59e7108cec6ea2e4ca74cdcc3", "is_reserved": 0, "rental_uris": {"android": "https://dc.lft.to/lastmile_qr_scan", "ios": "https://dc.lft.to/lastmile_qr_scan"}, "lat": 38.877507666666666}, {"type": "electric_scooter", "name": "7a416fbfdc5360045e879d6a58e25aad", "fusion_lat": 0.0, "fusion_lon": 0.0, "lon": -77.022781, "is_disabled": 0, "bike_id": "7a416fbfdc5360045e879d6a58e25aad", "is_reserved": 0, "rental_uris": {"android": "https://dc.lft.to/lastmile_qr_scan", "ios": "https://dc.lft.to/lastmile_qr_scan"}, "lat": 38.91652783333333}, {"type": "electric_scooter", "name": "b1735301681a26d7bf6943e12d10e046", "fusion_lat": 0.0, "fusion_lon": 0.0, "lon": -77.05425183333334, "is_disabled": 0, "bike_id": "b1735301681a26d7bf6943e12d10e046", "is_reserved": 0, "rental_uris": {"android": "https://dc.lft.to/lastmile_qr_scan", "ios": "https://dc.lft.to/lastmile_qr_scan"}, "lat": 38.923489833333335}, {"type": "electric_scooter", "name": "21e7ac6fa154a5efa9089ee9c02e9d80", "fusion_lat": 0.0, "fusion_lon": 0.0, "lon": -77.01981933333333, "is_disabled": 0, "bike_id": "21e7ac6fa154a5efa9089ee9c02e9d80", "is_reserved": 0, "rental_uris": {"android": "https://dc.lft.to/lastmile_qr_scan", "ios": "https://dc.lft.to/lastmile_qr_scan"}, "lat": 38.904981}, {"type": "electric_scooter", "name": "937820ffa329b3fe2d945840dc7a6332", "fusion_lat": 0.0, "fusion_lon": 0.0, "lon": -77.04406533333334, "is_disabled": 0, "bike_id": "937820ffa329b3fe2d945840dc7a6332", "is_reserved": 0, "rental_uris": {"android": "https://dc.lft.to/lastmile_qr_scan", "ios": "https://dc.lft.to/lastmile_qr_scan"}, "lat": 38.8959295}, {"type": "electric_bike", "name": "0e017de36ec3b3fa9c1cf08f969928b1", "fusion_lat": 0.0, "fusion_lon": 0.0, "lon": -77.09454933333333, "is_disabled": 0, "bike_id": "0e017de36ec3b3fa9c1cf08f969928b1", "is_reserved": 0, "rental_uris": {"android": "https://dc.lft.to/lastmile_qr_scan", "ios": "https://dc.lft.to/lastmile_qr_scan"}, "lat": 38.8075435}, {"type": "electric_scooter", "name": "06ac88585c3645627254e8f2a02c3a92", "fusion_lat": 0.0, "fusion_lon": 0.0, "lon": -76.92922333333334, "is_disabled": 0, "bike_id": "06ac88585c3645627254e8f2a02c3a92", "is_reserved": 0, "rental_uris": {"android": "https://dc.lft.to/lastmile_qr_scan", "ios": "https://dc.lft.to/lastmile_qr_scan"}, "lat": 38.892096}, {"type": "electric_bike", "name": "c35222bb369d69403d4aae51d31b40cc", "fusion_lat": 0.0, "fusion_lon": 0.0, "lon": -77.099647, "is_disabled": 0, "bike_id": "c35222bb369d69403d4aae51d31b40cc", "is_reserved": 0, "rental_uris": {"android": "https://dc.lft.to/lastmile_qr_scan", "ios": "https://dc.lft.to/lastmile_qr_scan"}, "lat": 38.85786183333333}, {"type": "electric_scooter", "name": "ca5c63403447d8ec6dacbb8bb5a76f2b", "fusion_lat": 0.0, "fusion_lon": 0.0, "lon": -77.032397, "is_disabled": 0, "bike_id": "ca5c63403447d8ec6dacbb8bb5a76f2b", "is_reserved": 0, "rental_uris": {"android": "https://dc.lft.to/lastmile_qr_scan", "ios": "https://dc.lft.to/lastmile_qr_scan"}, "lat": 38.91416816666667}, {"type": "electric_scooter", "name": "2c08d9dc717137db77211271d526de60", "fusion_lat": 0.0, "fusion_lon": 0.0, "lon": -77.03134983333334, "is_disabled": 0, "bike_id": "2c08d9dc717137db77211271d526de60", "is_reserved": 0, "rental_uris": {"android": "https://dc.lft.to/lastmile_qr_scan", "ios": "https://dc.lft.to/lastmile_qr_scan"}, "lat": 38.923853666666666}, {"type": "electric_scooter", "name": "c764073718625f91ff6b95f991281b2e", "fusion_lat": 0.0, "fusion_lon": 0.0, "lon": -77.02096583333334, "is_disabled": 0, "bike_id": "c764073718625f91ff6b95f991281b2e", "is_reserved": 0, "rental_uris": {"android": "https://dc.lft.to/lastmile_qr_scan", "ios": "https://dc.lft.to/lastmile_qr_scan"}, "lat": 38.914056}, {"type": "electric_bike", "name": "68fec43972a4b72937487c812920af88", "fusion_lat": 0.0, "fusion_lon": 0.0, "lon": -77.03754766666667, "is_disabled": 0, "bike_id": "68fec43972a4b72937487c812920af88", "is_reserved": 0, "rental_uris": {"android": "https://dc.lft.to/lastmile_qr_scan", "ios": "https://dc.lft.to/lastmile_qr_scan"}, "lat": 38.93968233333333}, {"type": "electric_scooter", "name": "2c8b3ee342951e36c02b3971da023244", "fusion_lat": 0.0, "fusion_lon": 0.0, "lon": -77.026505, "is_disabled": 0, "bike_id": "2c8b3ee342951e36c02b3971da023244", "is_reserved": 0, "rental_uris": {"android": "https://dc.lft.to/lastmile_qr_scan", "ios": "https://dc.lft.to/lastmile_qr_scan"}, "lat": 38.931058666666665}, {"type": "electric_scooter", "name": "2d27de8a0f3b98538819aa54f52fe565", "fusion_lat": 0.0, "fusion_lon": 0.0, "lon": -77.01868016666667, "is_disabled": 0, "bike_id": "2d27de8a0f3b98538819aa54f52fe565", "is_reserved": 0, "rental_uris": {"android": "https://dc.lft.to/lastmile_qr_scan", "ios": "https://dc.lft.to/lastmile_qr_scan"}, "lat": 38.951497833333335}, {"type": "electric_scooter", "name": "453e2cea38877fd25031dede06623f99", "fusion_lat": 0.0, "fusion_lon": 0.0, "lon": -77.02693533333333, "is_disabled": 0, "bike_id": "453e2cea38877fd25031dede06623f99", "is_reserved": 0, "rental_uris": {"android": "https://dc.lft.to/lastmile_qr_scan", "ios": "https://dc.lft.to/lastmile_qr_scan"}, "lat": 38.9264805},