{"data": {"bikes": [{"lat": 38.8874645, "is_disabled": 0, "type": "electric_scooter", "lon": -77.02071066666667, "bike_id": "52649fe500bd28dcd039dd584d7ec8ec", "fusion_lat": 0.0, "name": "52649fe500bd28dcd039dd584d7ec8ec", "is_reserved": 0, "rental_uris": {"android": "https://dc.lft.to/lastmile_qr_scan", "ios": "https://dc.lft.to/lastmile_qr_scan"}, "fusion_lon": 0.0}, {"lat": 38.90275716666667, "is_disabled": 0, "type": "electric_scooter", "lon": -77.03374116666667, "bike_id": "ca2dfcc14ce3c686212ca654c7702445", "fusion_lat": 0.0, "name": "ca2dfcc14ce3c686212ca654c7702445", "is_reserved": 0, "rental_uris": {"android": "https://dc.lft.to/lastmile_qr_scan", "ios": "https://dc.lft.to/lastmile_qr_scan"}, "fusion_lon": 0.0}, {"lat": 38.86715933333333, "is_disabled": 0, "type": "electric_scooter", "lon": -76.98722916666667, "bike_id": "a512d35b70052738a4e86725f2696f04", "fusion_lat": 0.0, "name": "a512d35b70052738a4e86725f2696f04", "is_reserved": 0, "rental_uris": {"android": "https://dc.lft.to/lastmile_qr_scan", "ios": "https://dc.lft.to/lastmile_qr_scan"}, "fusion_lon": 0.0}, {"lat": 38.905731, "is_disabled": 0, "type": "electric_scooter", "lon": -77.022044, "bike_id": "003e0208623a4247d0862a83faf5919e", "fusion_lat": 0.0, "name": "003e0208623a4247d0862a83faf5919e", "is_reserved": 0, "rental_uris": {"android": "https://dc.lft.to/lastmile_qr_scan", "ios": "https://dc.lft.to/lastmile_qr_scan"}, "fusion_lon": 0.0}, {"lat": 38.9444305, "is_disabled": 0, "type": "electric_scooter", "lon": -77.06407983333334, "bike_id": "c55c76086bc889eb751c6833bb080df6", "fusion_lat": 0.0, "name": "c55c76086bc889eb751c6833bb080df6", "is_reserved": 0, "rental_uris": {"android": "https://dc.lft.to/lastmile_qr_scan", "ios": "https://dc.lft.to/lastmile_qr_scan"}, "fusion_lon": 0.0}, {"lat": 38.92034316666667, "is_disabled": 0, "type": "electric_scooter", "lon": -76.97803083333334, "bike_id": "00e52d62f55c77d2371edf623404a83b", "fusion_lat": 0.0, "name": "00e52d62f55c77d2371edf623404a83b", "is_reserved": 0, "rental_uris": {"android": "https://dc.lft.to/lastmile_qr_scan", "ios": "https://dc.lft.to/lastmile_qr_scan"}, "fusion_lon": 0.0}, {"lat": 38.92797083333333, "is_disabled": 0, "type": "electric_scooter", "lon": -76.9849165, "bike_id": "cad426ef923830e38ff293ab4ea08dff", "fusion_lat": 0.0, "name": "cad426ef923830e38ff293ab4ea08dff", "is_reserved": 0, "rental_uris": {"android": "https://dc.lft.to/lastmile_qr_scan", "ios": "https://dc.lft.to/lastmile_qr_scan"}, "fusion_lon": 0.0}, {"lat": 38.8922245, "is_disabled": 0, "type": "electric_scooter", "lon": -77.03977433333333, "bike_id": "c9313476ddfce74c1c62a2d2ab5e4990", "fusion_lat": 0.0, "name": "c9313476ddfce74c1c62a2d2ab5e4990", "is_reserved": 0, "rental_uris": {"android": "https://dc.lft.to/lastmile_qr_scan", "ios": "https://dc.lft.to/lastmile_qr_scan"}, "fusion_lon": 0.0}, {"lat": 38.9020045, "is_disabled": 0, "type": "electric_scooter", "lon": -77.04842116666667, "bike_id": "61f57194bfc2b3dc52097e13793f6a96", "fusion_lat": 0.0, "name": "61f57194bfc2b3dc52097e13793f6a96", "is_reserved": 0, "rental_uris": {"android": "https://dc.lft.to/lastmile_qr_scan", "ios": "https://dc.lft.to/lastmile_qr_scan"}, "fusion_lon": 0.0}, {"lat": 38.87064783333334, "is_disabled": 0, "type": "electric_scooter", "lon": -77.00839066666667, "bike_id": "265d725bcb79359c0f80084a1e01575e", "fusion_lat": 0.0, "name": "265d725bcb79359c0f80084a1e01575e", "is_reserved": 0, "rental_uris": {"android": "https://dc.lft.to/lastmile_qr_scan", "ios": "https://dc.lft.to/lastmile_qr_scan"}, "fusion_lon": 0.0}, {"lat": 38.865066166666665, "is_disabled": 0, "type": "electric_scooter", "lon": -76.99051433333334, "bike_id": "5d4611c0ff5698b250619e7fd055b207", "fusion_lat": 0.0, "name": "5d4611c0ff5698b250619e7fd055b207", "is_reserved": 0, "rental_uris": {"android": "https://dc.lft.to/lastmile_qr_scan", "ios": "https://dc.lft.to/lastmile_qr_scan"}, "fusion_lon": 0.0}, {"lat": 38.892312833333335, "is_disabled": 0, "type": "electric_scooter", "lon": -77.04995783333334, "bike_id": "ab8d9797b49fecf8da8d6a1a0d6b88cb", "fusion_lat": 0.0, "name": "ab8d9797b49fecf8da8d6a1a0d6b88cb", "is_reserved": 0, "rental_uris": {"android": "https://dc.lft.to/lastmile_qr_scan", "ios": "https://dc.lft.to/lastmile_qr_scan"}, "fusion_lon": 0.0}, {"lat": 38.892559, "is_disabled": 0, "type": "electric_scooter", "lon": -77.0489525, "bike_id": "1df9fc2adc027dbfd7721b3c0a799c39", "fusion_lat": 0.0, "name": "1df9fc2adc027dbfd7721b3c0a799c39", "is_reserved": 0, "rental_uris": {"android": "https://dc.lft.to/lastmile_qr_scan", "ios": "https://dc.lft.to/lastmile_qr_scan"}, "fusion_lon": 0.0}, {"lat": 38.94179233333333, "is_disabled": 0, "type": "electric_scooter", "lon": -77.036503, "bike_id": "7c9213c8fe29bc6f0704e9d2f0035a56", "fusion_lat": 0.0, "name": "7c9213c8fe29bc6f0704e9d2f0035a56", "is_reserved": 0, "rental_uris": {"android": "https://dc.lft.to/lastmile_qr_scan", "ios": "https://dc.lft.to/lastmile_qr_scan"}, "fusion_lon": 0.0}, {"lat": 38.89625866666667, "is_disabled": 0, "type": "electric_scooter", "lon": -77.03210616666667, "bike_id": "ec3fcd240b9f820cc47e34cc91ff6044", "fusion_lat": 0.0, "name": "ec3fcd240b9f820cc47e34cc91ff6044", "is_reserved": 0, "rental_uris": {"android": "https://dc.lft.to/lastmile_qr_scan", "ios": "https://dc.lft.to/lastmile_qr_scan"}, "fusion_lon": 0.0}, {"lat": 38.93106783333333, "is_disabled": 0, "type": "electric_scooter", "lon": -77.03819133333333, "bike_id": "ca1ea052ff37e570ad9f91f7c8da62c5", "fusion_lat": 0.0, "name": "ca1ea052ff37e570ad9f91f7c8da62c5", "is_reserved": 0, "rental_uris": {"android": "https://dc.lft.to/lastmile_qr_scan", "ios": "https://dc.lft.to/lastmile_qr_scan"}, "fusion_lon": 0.0}, {"lat": 38.870818666666665, "is_disabled": 0, "type": "electric_bike", "lon": -77.0121445, "bike_id": "71d0d921540ffa0fb95d141b6c109006", "fusion_lat": 0.0, "name": "71d0d921540ffa0fb95d141b6c109006", "is_reserved": 0, "rental_uris": {"android": "https://dc.lft.to/lastmile_qr_scan", "ios": "https://dc.lft.to/lastmile_qr_scan"}, "fusion_lon": 0.0}, {"lat": 38.862117833333336, "is_disabled": 0, "type": "electric_bike", "lon": -76.99778616666667, "bike_id": "8e566747841ca67680a2daaace5f1733", "fusion_lat": 0.0, "name": "8e566747841ca67680a2daaace5f1733", "is_reserved": 0, "rental_uris": {"android": "https://dc.lft.to/lastmile_qr_scan", "ios": "https://dc.lft.to/lastmile_qr_scan"}, "fusion_lon": 0.0}, {"lat": 38.90243516666666, "is_disabled": 0, "type": "electric_scooter", "lon": -77.00200033333333, "bike_id": "04f1db1bb7a0203540fe4307c82ac7e2", "fusion_lat": 0.0, "name": "04f1db1bb7a0203540fe4307c82ac7e2", "is_reserved": 0, "rental_uris": {"android": "https://dc.lft.to/lastmile_qr_scan", "ios": "https://dc.lft.to/lastmile_qr_scan"}, "fusion_lon": 0.0}, {"lat": 38.898221166666666, "is_disabled": 0, "type": "electric_scooter", "lon": -77.02527483333333, "bike_id": "8cca937e7c3bde1aea4bd4be98e05480", "fusion_lat": 0.0, "name": "8cca937e7c3bde1aea4bd4be98e05480", "is_reserved": 0, "rental_uris": {"android": "https://dc.lft.to/lastmile_qr_scan", "ios": "https://dc.lft.to/lastmile_qr_scan"}, "fusion_lon": 0.0}, {"lat": 38.931025, "is_disabled": 0, "type": "electric_scooter", "lon": -77.02477816666666, "bike_id": "7fa79f4442493339e80d99376ccbe78e", "fusion_lat": 0.0, "name": "7fa79f4442493339e80d99376ccbe78e", "is_reserved": 0, "rental_uris": {"android": "https://dc.lft.to/lastmile_qr_scan", "ios": "https://dc.lft.to/lastmile_qr_scan"}, "fusion_lon": 0.0}, {"lat": 38.9250005, "is_disabled": 0, "type": "electric_scooter", "lon": -77.008907, "bike_id": "efeb52c6c44211c143ba811ce3f2a54b", "fusion_lat": 0.0, "name": "efeb52c6c44211c143ba811ce3f2a54b", "is_reserved": 0, "rental_uris": {"android": "https://dc.lft.to/lastmile_qr_scan", "ios": "https://dc.lft.to/lastmile_qr_scan"}, "fusion_lon": 0.0}, {"lat": 38.9167785, "is_disabled": 0, "type": "electric_scooter", "lon": -77.02282416666667, "bike_id": "2d18771656c9558e53f25f9d98ecd097", "fusion_lat": 0.0, "name": "2d18771656c9558e53f25f9d98ecd097", "is_reserved": 0, "rental_uris": {"android": "https://dc.lft.to/lastmile_qr_scan", "ios": "https://dc.lft.to/lastmile_qr_scan"}, "fusion_lon": 0.0}, {"lat": 38.839363, "is_disabled": 0, "type": "electric_bike", "lon": -77.07900233333334, "bike_id": "b797702aa7b170153e4fe434afd9c831", "fusion_lat": 0.0, "name": "b797702aa7b170153e4fe434afd9c831", "is_reserved": 0, "rental_uris": {"android": "https://dc.lft.to/lastmile_qr_scan", "ios": "https://dc.lft.to/lastmile_qr_scan"}, "fusion_lon": 0.0}, {"lat": 38.893685166666664, "is_disabled": 0, "type": "electric_scooter", "lon": -76.9498995, "bike_id": "327aafde44ca49a968903d14a89d14b4", "fusion_lat": 0.0, "name": "327aafde44ca49a968903d14a89d14b4", "is_reserved": 0, "rental_uris": {"android": "https://dc.lft.to/lastmile_qr_scan", "ios": "https://dc.lft.to/lastmile_qr_scan"}, "fusion_lon": 0.0}, {"lat": 38.9097215, "is_disabled": 0, "type": "electric_scooter", "lon": -77.03866983333333, "bike_id": "2e3e0052cac3777ca111ffe4a5494435", "fusion_lat": 0.0, "name": "2e3e0052cac3777ca111ffe4a5494435", "is_reserved": 0, "rental_uris": {"android": "https://dc.lft.to/lastmile_qr_scan", "ios": "https://dc.lft.to/lastmile_qr_scan"}, "fusion_lon": 0.0}, {"lat": 38.8795525, "is_disabled": 0, "type": "electric_scooter", "lon": -76.9833635, "bike_id": "6444462e69988dd2c25eb4458dd19d28", "fusion_lat": 0.0, "name": "6444462e69988dd2c25eb4458dd19d28", "is_reserved": 0, "rental_uris": {"android": "https://dc.lft.to/lastmile_qr_scan", "ios": "https://dc.lft.to/lastmile_qr_scan"}, "fusion_lon": 0.0}, {"lat": 38.880937333333335, "is_disabled": 0, "type": "electric_scooter", "lon": -76.92719433333333, "bike_id": "81678fee7cc8e655257acc37206de2f5", "fusion_lat": 0.0, "name": "81678fee7cc8e655257acc37206de2f5", "is_reserved": 0, "rental_uris": {"android": "https://dc.lft.to/lastmile_qr_scan", "ios": "https://dc.lft.to/lastmile_qr_scan"}, "fusion_lon": 0.0}, {"lat": 38.89963566666667, "is_disabled": 0, "type": "electric_scooter", "lon": -77.01613783333333, "bike_id": "0fcff3a9a3022d356508cdb137d20400", "fusion_lat": 0.0, "name": "0fcff3a9a3022d356508cdb137d20400", "is_reserved": 0, "rental_uris": {"android": "https://dc.lft.to/lastmile_qr_scan", "ios": "https://dc.lft.to/lastmile_qr_scan"}, "fusion_lon": 0.0}, {"lat": 38.928309, "is_disabled": 0, "type": "electric_scooter", "lon": -77.0219095, "bike_id": "d23d44943cc41dd8c463587fa371ff75", "fusion_lat": 0.0, "name": "d23d44943cc41dd8c463587fa371ff75", "is_reserved": 0, "rental_uris": {"android": "https://dc.lft.to/lastmile_qr_scan", "ios": "https://dc.lft.to/lastmile_qr_scan"}, "fusion_lon": 0.0}, {"lat": 38.9731645, "is_disabled": 0, "type": "electric_scooter", "lon": -77.02704783333333, "bike_id": "ae5b9ed1239a305704e76980065fc79f", "fusion_lat": 0.0, "name": "ae5b9ed1239a305704e76980065fc79f", "is_reserved": 0, "rental_uris": {"android": "https://dc.lft.to/lastmile_qr_scan", "ios": "https://dc.lft.to/lastmile_qr_scan"}, "fusion_lon": 0.0}, {"lat": 38.91102466666667, "is_disabled": 0, "type": "electric_scooter", "lon": -77.03183733333333, "bike_id": "180e328e6a07b88a300c9e5dc709d9be", "fusion_lat": 0.0, "name": "180e328e6a07b88a300c9e5dc709d9be", "is_reserved": 0, "rental_uris": {"android": "https://dc.lft.to/lastmile_qr_scan", "ios": "https://dc.lft.to/lastmile_qr_scan"}, "fusion_lon": 0.0}, {"lat": 38.8698935, "is_disabled": 0, "type": "electric_bike", "lon": -76.95984916666667, "bike_id": "ae5ce904cd465259e7b57ef93f52e07a", "fusion_lat": 0.0, "name": "ae5ce904cd465259e7b57ef93f52e07a", "is_reserved": 0, "rental_uris": {"android": "https://dc.lft.to/lastmile_qr_scan", "ios": "https://dc.lft.to/lastmile_qr_scan"}, "fusion_lon": 0.0}, {"lat": 38.858977333333335, "is_disabled": 0, "type": "electric_scooter", "lon": -76.99435166666666, "bike_id": "2bd6d099fdf36c9eaff0100e22cee084", "fusion_lat": 0.0, "name": "2bd6d099fdf36c9eaff0100e22cee084", "is_reserved": 0, "rental_uris": {"android": "https://dc.lft.to/lastmile_qr_scan", "ios": "https://dc.lft.to/lastmile_qr_scan"}, "fusion_lon": 0.0}, {"lat": 38.899603666666664, "is_disabled": 0, "type": "electric_scooter", "lon": -77.0211055, "bike_id": "3d46dabb3363188c19ff9b3e02f99484", "fusion_lat": 0.0, "name": "3d46dabb3363188c19ff9b3e02f99484", "is_reserved": 0, "rental_uris": {"android": "https://dc.lft.to/lastmile_qr_scan", "ios": "https://dc.lft.to/lastmile_qr_scan"}, "fusion_lon": 0.0}, {"lat": 38.984949, "is_disabled": 0, "type": "electric_bike", "lon": -76.98196733333333, "bike_id": "73fe0ea5670c996b5f3df8fa82ef61b3", "fusion_lat": 0.0, "name": "73fe0ea5670c996b5f3df8fa82ef61b3", "is_reserved": 0, "rental_uris": {"android": "https://dc.lft.to/lastmile_qr_scan", "ios": "https://dc.lft.to/lastmile_qr_scan"}, "fusion_lon": 0.0}, {"lat": 38.93237366666666, "is_disabled": 0, "type": "electric_bike", "lon": -76.97429566666666, "bike_id": "2be2696eb2db8bd8c3e3f4f0ed0f5dd4", "fusion_lat": 0.0, "name": "2be2696eb2db8bd8c3e3f4f0ed0f5dd4", "is_reserved": 0, "rental_uris": {"android": "https://dc.lft.to/lastmile_qr_scan", "ios": "https://dc.lft.to/lastmile_qr_scan"}, "fusion_lon": 0.0}, {"lat": 38.881063833333336, "is_disabled": 0, "type": "electric_scooter", "lon": -77.01659116666667, "bike_id": "17d94d6d6534c3cb183f35d9d14b003f", "fusion_lat": 0.0, "name": "17d94d6d6534c3cb183f35d9d14b003f", "is_reserved": 0, "rental_uris": {"android": "https://dc.lft.to/lastmile_qr_scan", "ios": "https://dc.lft.to/lastmile_qr_scan"}, "fusion_lon": 0.0}, {"lat": 38.8227095, "is_disabled": 0, "type": "electric_bike", "lon": -77.05809716666667, "bike_id": "db1c8c34899216bc09be65b22178d8b6", "fusion_lat": 0.0, "name": "db1c8c34899216bc09be65b22178d8b6", "is_reserved": 0, "rental_uris": {"android": "https://dc.lft.to/lastmile_qr_scan", "ios": "https://dc.lft.to/lastmile_qr_scan"}, "fusion_lon": 0.0}, {"lat": 38.89832333333333, "is_disabled": 0, "type": "electric_scooter", "lon": -77.03168466666666, "bike_id": "02edd50f685a5766183190721993217f", "fusion_lat": 0.0, "name": "02edd50f685a5766183190721993217f", "is_reserved": 0, "rental_uris": {"android": "https://dc.lft.to/lastmile_qr_scan", "ios": "https://dc.lft.to/lastmile_qr_scan"}, "fusion_lon": 0.0}, {"lat": 38.90240516666667, "is_disabled": 0, "type": "electric_scooter", "lon": -77.05322866666667, "bike_id": "d4c301cbcce87d80e83d7243a39d8ea3", "fusion_lat": 0.0, "name": "d4c301cbcce87d80e83d7243a39d8ea3", "is_reserved": 0, "rental_uris": {"android": "https://dc.lft.to/lastmile_qr_scan", "ios": "https://dc.lft.to/lastmile_qr_scan"}, "fusion_lon": 0.0}, {"lat": 38.90794733333333, "is_disabled": 0, "type": "electric_scooter", "lon": -77.0363795, "bike_id": "6312fb49c18200e5d7bd6c83db599d94", "fusion_lat": 0.0, "name": "6312fb49c18200e5d7bd6c83db599d94", "is_reserved": 0, "rental_uris": {"android": "https://dc.lft.to/lastmile_qr_scan", "ios": "https://dc.lft.to/lastmile_qr_scan"}, "fusion_lon": 0.0}, {"lat": 38.93882683333333, "is_disabled": 0, "type": "electric_scooter", "lon": -77.03283966666666, "bike_id": "52ce21bd20cf82f0323f345da2febd00", "fusion_lat": 0.0, "name": "52ce21bd20cf82f0323f345da2febd00", "is_reserved": 0, "rental_uris": {"android": "https://dc.lft.to/lastmile_qr_scan", "ios": "https://dc.lft.to/lastmile_qr_scan"}, "fusion_lon": 0.0}, {"lat": 38.92299116666667, "is_disabled": 0, "type": "electric_scooter", "lon": -77.03661383333333, "bike_id": "63368f1cb346781395e30726bd04eea4", "fusion_lat": 0.0, "name": "63368f1cb346781395e30726bd04eea4", "is_reserved": 0, "rental_uris": {"android": "https://dc.lft.to/lastmile_qr_scan", "ios": "https://dc.lft.to/lastmile_qr_scan"}, "fusion_lon": 0.0}, {"lat": 38.89978416666667, "is_disabled": 0, "type": "electric_bike", "lon": -76.98546683333333, "bike_id": "6a954e3422e00190630852eaae6f4caf", "fusion_lat": 0.0, "name": "6a954e3422e00190630852eaae6f4caf", "is_reserved": 0, "rental_uris": {"android": "https://dc.lft.to/lastmile_qr_scan", "ios": "https://dc.lft.to/lastmile_qr_scan"}, "fusion_lon": 0.0}, {"lat": 38.936434166666665, "is_disabled": 0, "type": "electric_bike", "lon": -77.03283966666666, "bike_id": "1cb581fa4dc133bfc3d2313f94c4b0ea", "fusion_lat": 0.0, "name": "1cb581fa4dc133bfc3d2313f94c4b0ea", "is_reserved": 0, "rental_uris": {"android": "https://dc.lft.to/lastmile_qr_scan", "ios": "https://dc.lft.to/lastmile_qr_scan"}, "fusion_lon": 0.0}, {"lat": 38.926933166666664, "is_disabled": 0, "type": "electric_scooter", "lon": -77.025778, "bike_id": "cfdfc6bf0260b82d4b2387e8b1bc6337", "fusion_lat": 0.0, "name": "cfdfc6bf0260b82d4b2387e8b1bc6337", "is_reserved": 0, "rental_uris": {"android": "https://dc.lft.to/lastmile_qr_scan", "ios": "https://dc.lft.to/lastmile_qr_scan"}, "fusion_lon": 0.0}, {"lat": 38.92323116666667, "is_disabled": 0, "type": "electric_scooter", "lon": -77.02966266666667, "bike_id": "a9aec4bcec416b993333adb1a9db678d", "fusion_lat": 0.0, "name": "a9aec4bcec416b993333adb1a9db678d", "is_reserved": 0, "rental_uris": {"android": "https://dc.lft.to/lastmile_qr_scan", "ios": "https://dc.lft.to/lastmile_qr_scan"}, "fusion_lon": 0.0}, {"lat": 38.966057666666664, "is_disabled": 0, "type": "electric_bike", "lon": -76.98334516666667, "bike_id": "7e1817cfdad5f2182abfd0ee1d08e82c", "fusion_lat": 0.0, "name": "7e1817cfdad5f2182abfd0ee1d08e82c", "is_reserved": 0, "rental_uris": {"android": "https://dc.lft.to/lastmile_qr_scan", "ios": "https://dc.lft.to/lastmile_qr_scan"}, "fusion_lon": 0.0}, {"lat": 38.938193166666665, "is_disabled": 0, "type": "electric_scooter", "lon": -77.060447, "bike_id": "721d5ca674aff2e7a2f07d2e767cf51d", "fusion_lat": 0.0, "name": "721d5ca674aff2e7a2f07d2e767cf51d", "is_reserved": 0, "rental_uris": {"android": "https://dc.lft.to/lastmile_qr_scan", "ios": "https://dc.lft.to/lastmile_qr_scan"}, "fusion_lon": 0.0}, {"lat": 38.933404, "is_disabled": 0, "type": "electric_scooter", "lon": -77.05716466666667, "bike_id": "ac1d9d87371b2203383f1ee7839e4683", "fusion_lat": 0.0, "name": "ac1d9d87371b2203383f1ee7839e4683", "is_reserved": 0, "rental_uris": {"android": "https://dc.lft.to/lastmile_qr_scan", "ios": "https://dc.lft.to/lastmile_qr_scan"}, "fusion_lon": 0.0}, {"lat": 38.898424, "is_disabled": 0, "type": "electric_scooter", "lon": -76.931047, "bike_id": "70ebfcacfe75861a5ae1463aee7c70ce", "fusion_lat": 0.0, "name": "70ebfcacfe75861a5ae1463aee7c70ce", "is_reserved": 0, "rental_uris": {"android": "https://dc.lft.to/lastmile_qr_scan", "ios": "https://dc.lft.to/lastmile_qr_scan"}, "fusion_lon": 0.0}, {"lat": 38.90242666666666, "is_disabled": 0, "type": "electric_scooter", "lon": -77.05335033333333, "bike_id": "1a1c77ca83a08ae1e356ccd98577983f", "fusion_lat": 0.0, "name": "1a1c77ca83a08ae1e356ccd98577983f", "is_reserved": 0, "rental_uris": {"android": "https://dc.lft.to/lastmile_qr_scan", "ios": "https://dc.lft.to/lastmile_qr_scan"}, "fusion_lon": 0.0}, {"lat": 38.925739166666666, "is_disabled": 0, "type": "electric_scooter", "lon": -76.970073, "bike_id": "bfefb66fe587ad3ad6c56d8174b309ee", "fusion_lat": 0.0, "name": "bfefb66fe587ad3ad6c56d8174b309ee", "is_reserved": 0, "rental_uris": {"android": "https://dc.lft.to/lastmile_qr_scan", "ios": "https://dc.lft.to/lastmile_qr_scan"}, "fusion_lon": 0.0}, {"lat": 38.933578, "is_disabled": 0, "type": "electric_scooter", "lon": -77.0737585, "bike_id": "3676f4983578522fc45944ace4216977", "fusion_lat": 0.0, "name": "3676f4983578522fc45944ace4216977", "is_reserved": 0, "rental_uris": {"android": "https://dc.lft.to/lastmile_qr_scan", "ios": "https://dc.lft.to/lastmile_qr_scan"}, "fusion_lon": 0.0}, {"lat": 38.8924555, "is_disabled": 0, "type": "electric_scooter", "lon": -77.0488855, "bike_id": "9ea2b3c385223b2dedb5fa77cd905881", "fusion_lat": 0.0, "name": "9ea2b3c385223b2dedb5fa77cd905881", "is_reserved": 0, "rental_uris": {"android": "https://dc.lft.to/lastmile_qr_scan", "ios": "https://dc.lft.to/lastmile_qr_scan"}, "fusion_lon": 0.0}, {"lat": 38.92412, "is_disabled": 0, "type": "electric_scooter", "lon": -77.02557383333334, "bike_id": "6e682afe8ba9426343552c958151fd4d", "fusion_lat": 0.0, "name": "6e682afe8ba9426343552c958151fd4d", "is_reserved": 0, "rental_uris": {"android": "https://dc.lft.to/lastmile_qr_scan", "ios": "https://dc.lft.to/lastmile_qr_scan"}, "fusion_lon": 0.0}, {"lat": 38.8661885, "is_disabled": 0, "type": "electric_scooter", "lon": -76.986953, "bike_id": "6c9d9c0eecef485c5be18d88d55bc640", "fusion_lat": 0.0, "name": "6c9d9c0eecef485c5be18d88d55bc640", "is_reserved": 0, "rental_uris": {"android": "https://dc.lft.to/lastmile_qr_scan", "ios": "https://dc.lft.to/lastmile_qr_scan"}, "fusion_lon": 0.0}, {"lat": 38.893723, "is_disabled": 0, "type": "electric_scooter", "lon": -76.94997683333334, "bike_id": "859a0f6ee2ef19dfb4afdbd336fe6ffa", "fusion_lat": 0.0, "name": "859a0f6ee2ef19dfb4afdbd336fe6ffa", "is_reserved": 0, "rental_uris": {"android": "https://dc.lft.to/lastmile_qr_scan", "ios": "https://dc.lft.to/lastmile_qr_scan"}, "fusion_lon": 0.0}, {"lat": 38.909737666666665, "is_disabled": 0, "type": "electric_scooter", "lon": -77.0479895, "bike_id": "5fabc725f2d2d54377c5af03c2c8311b", "fusion_lat": 0.0, "name": "5fabc725f2d2d54377c5af03c2c8311b", "is_reserved": 0, "rental_uris": {"android": "https://dc.lft.to/lastmile_qr_scan", "ios": "https://dc.lft.to/lastmile_qr_scan"}, "fusion_lon": 0.0}, {"lat": 38.88491833333333, "is_disabled": 0, "type": "electric_scooter", "lon": -77.00712583333333, "bike_id": "dfac0b79b119e642d4ac52724493b9f8", "fusion_lat": 0.0, "name": "dfac0b79b119e642d4ac52724493b9f8", "is_reserved": 0, "rental_uris": {"android": "https://dc.lft.to/lastmile_qr_scan", "ios": "https://dc.lft.to/lastmile_qr_scan"}, "fusion_lon": 0.0}, {"lat": 38.921375166666664, "is_disabled": 0, "type": "electric_scooter", "lon": -77.01042766666667, "bike_id": "438e730bbbcfb2aa79773ff2c959c59c", "fusion_lat": 0.0, "name": "438e730bbbcfb2aa79773ff2c959c59c", "is_reserved": 0, "rental_uris": {"android": "https://dc.lft.to/lastmile_qr_scan", "ios": "https://dc.lft.to/lastmile_qr_scan"}, "fusion_lon": 0.0}, {"lat": 38.93266583333333, "is_disabled": 0, "type": "electric_scooter", "lon": -77.03894733333334, "bike_id": "70faf0117e4aff3f130ca626a70043d6", "fusion_lat": 0.0, "name": "70faf0117e4aff3f130ca626a70043d6", "is_reserved": 0, "rental_uris": {"android": "https://dc.lft.to/lastmile_qr_scan", "ios": "https://dc.lft.to/lastmile_qr_scan"}, "fusion_lon": 0.0}, {"lat": 38.8429735, "is_disabled": 0, "type": "electric_scooter", "lon": -76.99945716666667, "bike_id": "644136a44ee226b0c1cbcc0cca6288b3", "fusion_lat": 0.0, "name": "644136a44ee226b0c1cbcc0cca6288b3", "is_reserved": 0, "rental_uris": {"android": "https://dc.lft.to/lastmile_qr_scan", "ios": "https://dc.lft.to/lastmile_qr_scan"}, "fusion_lon": 0.0}, {"lat": 38.8427385, "is_disabled": 0, "type": "electric_bike", "lon": -76.98845783333333, "bike_id": "cf9bd8aa9ddff9e8f31b540145ae3e79", "fusion_lat": 0.0, "name": "cf9bd8aa9ddff9e8f31b540145ae3e79", "is_reserved": 0, "rental_uris": {"android": "https://dc.lft.to/lastmile_qr_scan", "ios": "https://dc.lft.to/lastmile_qr_scan"}, "fusion_lon": 0.0}, {"lat": 38.93106366666667, "is_disabled": 0, "type": "electric_scooter", "lon": -77.03821433333333, "bike_id": "8925dcd4be375e029bd08580e2558c15", "fusion_lat": 0.0, "name": "8925dcd4be375e029bd08580e2558c15", "is_reserved": 0, "rental_uris": {"android": "https://dc.lft.to/lastmile_qr_scan", "ios": "https://dc.lft.to/lastmile_qr_scan"}, "fusion_lon": 0.0}, {"lat": 38.924845833333336, "is_disabled": 0, "type": "electric_scooter", "lon": -77.026296, "bike_id": "27ac8bf61ebf0601f194810d52818f5f", "fusion_lat": 0.0, "name": "27ac8bf61ebf0601f194810d52818f5f", "is_reserved": 0, "rental_uris": {"android": "https://dc.lft.to/lastmile_qr_scan", "ios": "https://dc.lft.to/lastmile_qr_scan"}, "fusion_lon": 0.0}, {"lat": 38.909588166666666, "is_disabled": 0, "type": "electric_scooter", "lon": -77.02271016666667, "bike_id": "729437134da938f7ab4039f3423a3cf2", "fusion_lat": 0.0, "name": "729437134da938f7ab4039f3423a3cf2", "is_reserved": 0, "rental_uris": {"android": "https://dc.lft.to/lastmile_qr_scan", "ios": "https://dc.lft.to/lastmile_qr_scan"}, "fusion_lon": 0.0}, {"lat": 38.93321983333333, "is_disabled": 0, "type": "electric_scooter", "lon": -77.04390083333334, "bike_id": "e2b89909423b53cb9ba721eac4bbe019", "fusion_lat": 0.0, "name": "e2b89909423b53cb9ba721eac4bbe019", "is_reserved": 0, "rental_uris": {"android": "https://dc.lft.to/lastmile_qr_scan", "ios": "https://dc.lft.to/lastmile_qr_scan"}, "fusion_lon": 0.0}, {"lat": 38.857913333333336, "is_disabled": 0, "type": "electric_bike", "lon": -76.98744916666666, "bike_id": "73d5af7d4919b2a58fc9bb9e2ada9f04", "fusion_lat": 0.0, "name": "73d5af7d4919b2a58fc9bb9e2ada9f04", "is_reserved": 0, "rental_uris": {"android": "https://dc.lft.to/lastmile_qr_scan", "ios": "https://dc.lft.to/lastmile_qr_scan"}, "fusion_lon": 0.0}, {"lat": 38.898112, "is_disabled": 0, "type": "electric_scooter", "lon": -77.03297983333333, "bike_id": "27fc4f157bd4cbc04a2c27db93961c22", "fusion_lat": 0.0, "name": "27fc4f157bd4cbc04a2c27db93961c22", "is_reserved": 0, "rental_uris": {"android": "https://dc.lft.to/lastmile_qr_scan", "ios": "https://dc.lft.to/lastmile_qr_scan"}, "fusion_lon": 0.0}, {"lat": 38.802262166666665, "is_disabled": 0, "type": "electric_bike", "lon": -77.0791575, "bike_id": "191434942b0a9c50f1a4375e7ac8f69d", "fusion_lat": 0.0, "name": "191434942b0a9c50f1a4375e7ac8f69d", "is_reserved": 0, "rental_uris": {"android": "https://dc.lft.to/lastmile_qr_scan", "ios": "https://dc.lft.to/lastmile_qr_scan"}, "fusion_lon": 0.0}, {"lat": 38.89956866666667, "is_disabled": 0, "type": "electric_scooter", "lon": -77.0520025, "bike_id": "93f2556f294eb0725a63f91215636581", "fusion_lat": 0.0, "name": "93f2556f294eb0725a63f91215636581", "is_reserved": 0, "rental_uris": {"android": "https://dc.lft.to/lastmile_qr_scan", "ios": "https://dc.lft.to/lastmile_qr_scan"}, "fusion_lon": 0.0}, {"lat": 38.884826833333335, "is_disabled": 0, "type": "electric_scooter", "lon": -77.02074033333334, "bike_id": "c78072cb26fce2e8e09000453e034e43", "fusion_lat": 0.0, "name": "c78072cb26fce2e8e09000453e034e43", "is_reserved": 0, "rental_uris": {"android": "https://dc.lft.to/lastmile_qr_scan", "ios": "https://dc.lft.to/lastmile_qr_scan"}, "fusion_lon": 0.0}, {"lat": 38.9121485, "is_disabled": 0, "type": "electric_scooter", "lon": -77.00463383333333, "bike_id": "cfa5e01b90345efe7e8e7a7f5d3a9e4a", "fusion_lat": 0.0, "name": "cfa5e01b90345efe7e8e7a7f5d3a9e4a", "is_reserved": 0, "rental_uris": {"android": "https://dc.lft.to/lastmile_qr_scan", "ios": "https://dc.lft.to/lastmile_qr_scan"}, "fusion_lon": 0.0}, {"lat": 38.892923833333334, "is_disabled": 0, "type": "electric_scooter", "lon": -77.00218366666667, "bike_id": "2b8e2a8ff2dc725d20dfbb427606154b", "fusion_lat": 0.0, "name": "2b8e2a8ff2dc725d20dfbb427606154b", "is_reserved": 0, "rental_uris": {"android": "https://dc.lft.to/lastmile_qr_scan", "ios": "https://dc.lft.to/lastmile_qr_scan"}, "fusion_lon": 0.0}, {"lat": 38.931182666666665, "is_disabled": 0, "type": "electric_scooter", "lon": -77.038246, "bike_id": "cd4989721a6cc1976a321833cf42e67d", "fusion_lat": 0.0, "name": "cd4989721a6cc1976a321833cf42e67d", "is_reserved": 0, "rental_uris": {"android": "https://dc.lft.to/lastmile_qr_scan", "ios": "https://dc.lft.to/lastmile_qr_scan"}, "fusion_lon": 0.0}, {"lat": 38.91759666666667, "is_disabled": 0, "type": "electric_scooter", "lon": -77.03994233333333, "bike_id": "5911f9e1790ec8c9bcd31b574a96f286", "fusion_lat": 0.0, "name": "5911f9e1790ec8c9bcd31b574a96f286", "is_reserved": 0, "rental_uris": {"android": "https://dc.lft.to/lastmile_qr_scan", "ios": "https://dc.lft.to/lastmile_qr_scan"}, "fusion_lon": 0.0}, {"lat": 38.8611485, "is_disabled": 0, "type": "electric_scooter", "lon": -76.9837775, "bike_id": "b8b1efe0401ec59532880e0a576c0d94", "fusion_lat": 0.0, "name": "b8b1efe0401ec59532880e0a576c0d94", "is_reserved": 0, "rental_uris": {"android": "https://dc.lft.to/lastmile_qr_scan", "ios": "https://dc.lft.to/lastmile_qr_scan"}, "fusion_lon": 0.0}, {"lat": 38.89616566666667, "is_disabled": 0, "type": "electric_scooter", "lon": -76.99298866666666, "bike_id": "4d1dd195e12c7411f24a79ed3c9d755e", "fusion_lat": 0.0, "name": "4d1dd195e12c7411f24a79ed3c9d755e", "is_reserved": 0, "rental_uris": {"android": "https://dc.lft.to/lastmile_qr_scan", "ios": "https://dc.lft.to/lastmile_qr_scan"}, "fusion_lon": 0.0}, {"lat": 38.935371833333335, "is_disabled": 0, "type": "electric_scooter", "lon": -77.03405616666667, "bike_id": "0267249b85b9d80c96ff209c12a43024", "fusion_lat": 0.0, "name": "0267249b85b9d80c96ff209c12a43024", "is_reserved": 0, "rental_uris": {"android": "https://dc.lft.to/lastmile_qr_scan", "ios": "https://dc.lft.to/lastmile_qr_scan"}, "fusion_lon": 0.0}, {"lat": 38.925418666666666, "is_disabled": 0, "type": "electric_scooter", "lon": -77.034484, "bike_id": "a2a33f818947ff4149aaccda9faa278f", "fusion_lat": 0.0, "name": "a2a33f818947ff4149aaccda9faa278f", "is_reserved": 0, "rental_uris": {"android": "https://dc.lft.to/lastmile_qr_scan", "ios": "https://dc.lft.to/lastmile_qr_scan"}, "fusion_lon": 0.0}, {"lat": 38.900038, "is_disabled": 0, "type": "electric_scooter", "lon": -77.04029416666667, "bike_id": "781f9da406123188b72623f6f62c800e", "fusion_lat": 0.0, "name": "781f9da406123188b72623f6f62c800e", "is_reserved": 0, "rental_uris": {"android": "https://dc.lft.to/lastmile_qr_scan", "ios": "https://dc.lft.to/lastmile_qr_scan"}, "fusion_lon": 0.0}, {"lat": 38.8919, "is_disabled": 0, "type": "electric_scooter", "lon": -76.99627666666666, "bike_id": "bd0cca5d00f5ffb5f603776da2cb55a0", "fusion_lat": 0.0, "name": "bd0cca5d00f5ffb5f603776da2cb55a0", "is_reserved": 0, "rental_uris": {"android": "https://dc.lft.to/lastmile_qr_scan", "ios": "https://dc.lft.to/lastmile_qr_scan"}, "fusion_lon": 0.0}, {"lat": 38.93091183333333, "is_disabled": 0, "type": "electric_scooter", "lon": -77.0774875, "bike_id": "2b5b606ae0398aaa35645f5d8fbf2d19", "fusion_lat": 0.0, "name": "2b5b606ae0398aaa35645f5d8fbf2d19", "is_reserved": 0, "rental_uris": {"android": "https://dc.lft.to/lastmile_qr_scan", "ios": "https://dc.lft.to/lastmile_qr_scan"}, "fusion_lon": 0.0}, {"lat": 38.90262033333333, "is_disabled": 0, "type": "electric_scooter", "lon": -77.02896333333334, "bike_id": "07bc6d42ea00ebaba8fabc4951f57001", "fusion_lat": 0.0, "name": "07bc6d42ea00ebaba8fabc4951f57001", "is_reserved": 0, "rental_uris": {"android": "https://dc.lft.to/lastmile_qr_scan", "ios": "https://dc.lft.to/lastmile_qr_scan"}, "fusion_lon": 0.0}, {"lat": 39.0581505, "is_disabled": 0, "type": "electric_bike", "lon": -77.126258, "bike_id": "96edd9b57f455a8ed6cd0ab70e7ec6cf", "fusion_lat": 0.0, "name": "96edd9b57f455a8ed6cd0ab70e7ec6cf", "is_reserved": 0, "rental_uris": {"android": "https://dc.lft.to/lastmile_qr_scan", "ios": "https://dc.lft.to/lastmile_qr_scan"}, "fusion_lon": 0.0}, {"lat": 38.84028133333333, "is_disabled": 0, "type": "electric_bike", "lon": -76.975793, "bike_id": "4346dad0b0daba04dce7f302fdaf243c", "fusion_lat": 0.0, "name": "4346dad0b0daba04dce7f302fdaf243c", "is_reserved": 0, "rental_uris": {"android": "https://dc.lft.to/lastmile_qr_scan", "ios": "https://dc.lft.to/lastmile_qr_scan"}, "fusion_lon": 0.0}, {"lat": 38.90725533333333, "is_disabled": 0, "type": "electric_scooter", "lon": -76.98930383333334, "bike_id": "9fdd3bd7a8668435c56e66f1fa5ecc74", "fusion_lat": 0.0, "name": "9fdd3bd7a8668435c56e66f1fa5ecc74", "is_reserved": 0, "rental_uris": {"android": "https://dc.lft.to/lastmile_qr_scan", "ios": "https://dc.lft.to/lastmile_qr_scan"}, "fusion_lon": 0.0}, {"lat": 38.838142, "is_disabled": 0, "type": "electric_bike", "lon": -77.0952255, "bike_id": "6db36bd421e65b7ab4bdcf91fa6b1b6e", "fusion_lat": 0.0, "name": "6db36bd421e65b7ab4bdcf91fa6b1b6e", "is_reserved": 0, "rental_uris": {"android": "https://dc.lft.to/lastmile_qr_scan", "ios": "https://dc.lft.to/lastmile_qr_scan"}, "fusion_lon": 0.0}, {"lat": 38.87630083333333, "is_disabled": 0, "type": "electric_scooter", "lon": -76.96525883333334, "bike_id": "d817cf5c56faa27fc578de33de646f75", "fusion_lat": 0.0, "name": "d817cf5c56faa27fc578de33de646f75", "is_reserved": 0, "rental_uris": {"android": "https://dc.lft.to/lastmile_qr_scan", "ios": "https://dc.lft.to/lastmile_qr_scan"}, "fusion_lon": 0.0}, {"lat": 38.92547366666667, "is_disabled": 0, "type": "electric_scooter", "lon": -77.03329316666667, "bike_id": "b37f7f96bcab69ae8dba495753b31021", "fusion_lat": 0.0, "name": "b37f7f96bcab69ae8dba495753b31021", "is_reserved": 0, "rental_uris": {"android": "https://dc.lft.to/lastmile_qr_scan", "ios": "https://dc.lft.to/lastmile_qr_scan"}, "fusion_lon": 0.0}, {"lat": 38.91571783333333, "is_disabled": 0, "type": "electric_scooter", "lon": -77.01192983333334, "bike_id": "c651b0a5e3fd596e8a9b3f0edf1bae6b", "fusion_lat": 0.0, "name": "c651b0a5e3fd596e8a9b3f0edf1bae6b", "is_reserved": 0, "rental_uris": {"android": "https://dc.lft.to/lastmile_qr_scan", "ios": "https://dc.lft.to/lastmile_qr_scan"}, "fusion_lon": 0.0}, {"lat": 38.859303833333335, "is_disabled": 0, "type": "electric_scooter", "lon": -76.997141, "bike_id": "1a8d501f8c8fe169ce57c9d65a809aa1", "fusion_lat": 0.0, "name": "1a8d501f8c8fe169ce57c9d65a809aa1", "is_reserved": 0, "rental_uris": {"android": "https://dc.lft.to/lastmile_qr_scan", "ios": "https://dc.lft.to/lastmile_qr_scan"}, "fusion_lon": 0.0}, {"lat": 38.907836333333336, "is_disabled": 0, "type": "electric_scooter", "lon": -77.03860083333333, "bike_id": "03c5d12526283f8d931bbda90dbf8f44", "fusion_lat": 0.0, "name": "03c5d12526283f8d931bbda90dbf8f44", "is_reserved": 0, "rental_uris": {"android": "https://dc.lft.to/lastmile_qr_scan", "ios": "https://dc.lft.to/lastmile_qr_scan"}, "fusion_lon": 0.0}, {"lat": 38.869977666666664, "is_disabled": 0, "type": "electric_bike", "lon": -77.0656365, "bike_id": "31d6356e243ad4c137ccd6738f3e6761", "fusion_lat": 0.0, "name": "31d6356e243ad4c137ccd6738f3e6761", "is_reserved": 0, "rental_uris": {"android": "https://dc.lft.to/lastmile_qr_scan", "ios": "https://dc.lft.to/lastmile_qr_scan"}, "fusion_lon": 0.0}, {"lat": 38.94629616666667, "is_disabled": 0, "type": "electric_scooter", "lon": -77.01841783333333, "bike_id": "597630f61a11acd60259a5ee8083bb27", "fusion_lat": 0.0, "name": "597630f61a11acd60259a5ee8083bb27", "is_reserved": 0, "rental_uris": {"android": "https://dc.lft.to/lastmile_qr_scan", "ios": "https://dc.lft.to/lastmile_qr_scan"}, "fusion_lon": 0.0}, {"lat": 38.924048166666665, "is_disabled": 0, "type": "electric_scooter", "lon": -77.02746616666667, "bike_id": "efe89e8e48b24346e3d16d2c5e24f016", "fusion_lat": 0.0, "name": "efe89e8e48b24346e3d16d2c5e24f016", "is_reserved": 0, "rental_uris": {"android": "https://dc.lft.to/lastmile_qr_scan", "ios": "https://dc.lft.to/lastmile_qr_scan"}, "fusion_lon": 0.0}, {"lat": 38.890523333333334, "is_disabled": 0, "type": "electric_scooter", "lon": -76.9375245, "bike_id": "3098c1d4cd9dac99aaacba44ab143184", "fusion_lat": 0.0, "name": "3098c1d4cd9dac99aaacba44ab143184", "is_reserved": 0, "rental_uris": {"android": "https://dc.lft.to/lastmile_qr_scan", "ios": "https://dc.lft.to/lastmile_qr_scan"}, "fusion_lon": 0.0}, {"lat": 38.90251816666667, "is_disabled": 0, "type": "electric_scooter", "lon": -77.01758016666666, "bike_id": "47bc3f13799a89435853f9811e40c3c6", "fusion_lat": 0.0, "name": "47bc3f13799a89435853f9811e40c3c6", "is_reserved": 0, "rental_uris": {"android": "https://dc.lft.to/lastmile_qr_scan", "ios": "https://dc.lft.to/lastmile_qr_scan"}, "fusion_lon": 0.0}, {"lat": 38.95408666666667, "is_disabled": 0, "type": "electric_scooter", "lon": -77.02748466666667, "bike_id": "acf2b59c38efaf21decd92759920dcbd", "fusion_lat": 0.0, "name": "acf2b59c38efaf21decd92759920dcbd", "is_reserved": 0, "rental_uris": {"android": "https://dc.lft.to/lastmile_qr_scan", "ios": "https://dc.lft.to/lastmile_qr_scan"}, "fusion_lon": 0.0}, {"lat": 38.904436, "is_disabled": 0, "type": "electric_scooter", "lon": -77.036369, "bike_id": "73f4e0d1ca8c595aef38528b30b4b3f3", "fusion_lat": 0.0, "name": "73f4e0d1ca8c595aef38528b30b4b3f3", "is_reserved": 0, "rental_uris": {"android": "https://dc.lft.to/lastmile_qr_scan", "ios": "https://dc.lft.to/lastmile_qr_scan"}, "fusion_lon": 0.0}, {"lat": 38.90272266666667, "is_disabled": 0, "type": "electric_scooter", "lon": -77.0403475, "bike_id": "c20f608708917d08739b1afec853e42d", "fusion_lat": 0.0, "name": "c20f608708917d08739b1afec853e42d", "is_reserved": 0, "rental_uris": {"android": "https://dc.lft.to/lastmile_qr_scan", "ios": "https://dc.lft.to/lastmile_qr_scan"}, "fusion_lon": 0.0}, {"lat": 38.86513766666667, "is_disabled": 0, "type": "electric_scooter", "lon": -76.99053466666666, "bike_id": "7c18feb7aafb7e8a4c3984818e82ef72", "fusion_lat": 0.0, "name": "7c18feb7aafb7e8a4c3984818e82ef72", "is_reserved": 0, "rental_uris": {"android": "https://dc.lft.to/lastmile_qr_scan", "ios": "https://dc.lft.to/lastmile_qr_scan"}, "fusion_lon": 0.0}, {"lat": 38.914097, "is_disabled": 0, "type": "electric_scooter", "lon": -77.01802833333333, "bike_id": "97bcf5c8228ab4b13613cdc9929c3898", "fusion_lat": 0.0, "name": "97bcf5c8228ab4b13613cdc9929c3898", "is_reserved": 0, "rental_uris": {"android": "https://dc.lft.to/lastmile_qr_scan", "ios": "https://dc.lft.to/lastmile_qr_scan"}, "fusion_lon": 0.0}, {"lat": 38.89816716666667, "is_disabled": 0, "type": "electric_scooter", "lon": -77.00579383333333, "bike_id": "83fb6a69376ea2b3985cbb59e93987ed", "fusion_lat": 0.0, "name": "83fb6a69376ea2b3985cbb59e93987ed", "is_reserved": 0, "rental_uris": {"android": "https://dc.lft.to/lastmile_qr_scan", "ios": "https://dc.lft.to/lastmile_qr_scan"}, "fusion_lon": 0.0}, {"lat": 38.87681116666667, "is_disabled": 0, "type": "electric_scooter", "lon": -77.01791483333334, "bike_id": "3191326794d1bcc698d605ee19008a7c", "fusion_lat": 0.0, "name": "3191326794d1bcc698d605ee19008a7c", "is_reserved": 0, "rental_uris": {"android": "https://dc.lft.to/lastmile_qr_scan", "ios": "https://dc.lft.to/lastmile_qr_scan"}, "fusion_lon": 0.0}, {"lat": 38.90959133333333, "is_disabled": 0, "type": "electric_scooter", "lon": -77.04801833333333, "bike_id": "d02fd39144bc55a7fec52b488cab32d5", "fusion_lat": 0.0, "name": "d02fd39144bc55a7fec52b488cab32d5", "is_reserved": 0, "rental_uris": {"android": "https://dc.lft.to/lastmile_qr_scan", "ios": "https://dc.lft.to/lastmile_qr_scan"}, "fusion_lon": 0.0}, {"lat": 38.9121235, "is_disabled": 0, "type": "electric_scooter", "lon": -77.03847816666666, "bike_id": "e2f8f7dab04e95a27967d268db7c1e3e", "fusion_lat": 0.0, "name": "e2f8f7dab04e95a27967d268db7c1e3e", "is_reserved": 0, "rental_uris": {"android": "https://dc.lft.to/lastmile_qr_scan", "ios": "https://dc.lft.to/lastmile_qr_scan"}, "fusion_lon": 0.0}, {"lat": 38.919116, "is_disabled": 0, "type": "electric_scooter", "lon": -77.04629083333333, "bike_id": "c4f13068a988c3892fd786874c889cd3", "fusion_lat": 0.0, "name": "c4f13068a988c3892fd786874c889cd3", "is_reserved": 0, "rental_uris": {"android": "https://dc.lft.to/lastmile_qr_scan", "ios": "https://dc.lft.to/lastmile_qr_scan"}, "fusion_lon": 0.0}, {"lat": 38.904076833333335, "is_disabled": 0, "type": "electric_scooter", "lon": -77.04344266666666, "bike_id": "0e2298e8dc288d6b9ccd02c1e83ac271", "fusion_lat": 0.0, "name": "0e2298e8dc288d6b9ccd02c1e83ac271", "is_reserved": 0, "rental_uris": {"android": "https://dc.lft.to/lastmile_qr_scan", "ios": "https://dc.lft.to/lastmile_qr_scan"}, "fusion_lon": 0.0}, {"lat": 38.89959, "is_disabled": 0, "type": "electric_scooter", "lon": -77.02131433333334, "bike_id": "5d1a5a78ad0be6d23a963505688ed34a", "fusion_lat": 0.0, "name": "5d1a5a78ad0be6d23a963505688ed34a", "is_reserved": 0, "rental_uris": {"android": "https://dc.lft.to/lastmile_qr_scan", "ios": "https://dc.lft.to/lastmile_qr_scan"}, "fusion_lon": 0.0}, {"lat": 38.865219333333336, "is_disabled": 0, "type": "electric_scooter", "lon": -76.99040783333334, "bike_id": "b1377866eeb6e8e2bda2bdc5d32bc8f7", "fusion_lat": 0.0, "name": "b1377866eeb6e8e2bda2bdc5d32bc8f7", "is_reserved": 0, "rental_uris": {"android": "https://dc.lft.to/lastmile_qr_scan", "ios": "https://dc.lft.to/lastmile_qr_scan"}, "fusion_lon": 0.0}, {"lat": 38.86376583333333, "is_disabled": 0, "type": "electric_scooter", "lon": -76.99065716666667, "bike_id": "00fced6fc02c0fea2b1b7959ffa8155f", "fusion_lat": 0.0, "name": "00fced6fc02c0fea2b1b7959ffa8155f", "is_reserved": 0, "rental_uris": {"android": "https://dc.lft.to/lastmile_qr_scan", "ios": "https://dc.lft.to/lastmile_qr_scan"}, "fusion_lon": 0.0}, {"lat": 38.860987333333334, "is_disabled": 0, "type": "electric_scooter", "lon": -76.98378633333333, "bike_id": "63b299b7326079c341d27a5c277967e7", "fusion_lat": 0.0, "name": "63b299b7326079c341d27a5c277967e7", "is_reserved": 0, "rental_uris": {"android": "https://dc.lft.to/lastmile_qr_scan", "ios": "https://dc.lft.to/lastmile_qr_scan"}, "fusion_lon": 0.0}, {"lat": 38.863850666666664, "is_disabled": 0, "type": "electric_scooter", "lon": -76.99246, "bike_id": "104423d58ba7e98224a84b860f1e1e5c", "fusion_lat": 0.0, "name": "104423d58ba7e98224a84b860f1e1e5c", "is_reserved": 0, "rental_uris": {"android": "https://dc.lft.to/lastmile_qr_scan", "ios": "https://dc.lft.to/lastmile_qr_scan"}, "fusion_lon": 0.0}, {"lat": 38.94310383333333, "is_disabled": 0, "type": "electric_scooter", "lon": -77.05933033333334, "bike_id": "8b1381891ce53a29636f88861a5cf93c", "fusion_lat": 0.0, "name": "8b1381891ce53a29636f88861a5cf93c", "is_reserved": 0, "rental_uris": {"android": "https://dc.lft.to/lastmile_qr_scan", "ios": "https://dc.lft.to/lastmile_qr_scan"}, "fusion_lon": 0.0}, {"lat": 38.900144833333336, "is_disabled": 0, "type": "electric_scooter", "lon": -76.99213716666667, "bike_id": "effed51e40dbe4c6a2a90d4fb746143b", "fusion_lat": 0.0, "name": "effed51e40dbe4c6a2a90d4fb746143b", "is_reserved": 0, "rental_uris": {"android": "https://dc.lft.to/lastmile_qr_scan", "ios": "https://dc.lft.to/lastmile_qr_scan"}, "fusion_lon": 0.0}, {"lat": 38.934603333333335, "is_disabled": 0, "type": "electric_scooter", "lon": -77.02737666666667, "bike_id": "325acb2e663093c4d011c637a8d4a507", "fusion_lat": 0.0, "name": "325acb2e663093c4d011c637a8d4a507", "is_reserved": 0, "rental_uris": {"android": "https://dc.lft.to/lastmile_qr_scan", "ios": "https://dc.lft.to/lastmile_qr_scan"}, "fusion_lon": 0.0}, {"lat": 38.97840583333333, "is_disabled": 0, "type": "electric_bike", "lon": -77.02638333333333, "bike_id": "732aca4f58197b7c8900c0627428d182", "fusion_lat": 0.0, "name": "732aca4f58197b7c8900c0627428d182", "is_reserved": 0, "rental_uris": {"android": "https://dc.lft.to/lastmile_qr_scan", "ios": "https://dc.lft.to/lastmile_qr_scan"}, "fusion_lon": 0.0}, {"lat": 38.906384833333334, "is_disabled": 0, "type": "electric_scooter", "lon": -76.97952366666667, "bike_id": "e597ff93f4958555ed728a4d2ea08b16", "fusion_lat": 0.0, "name": "e597ff93f4958555ed728a4d2ea08b16", "is_reserved": 0, "rental_uris": {"android": "https://dc.lft.to/lastmile_qr_scan", "ios": "https://dc.lft.to/lastmile_qr_scan"}, "fusion_lon": 0.0}, {"lat": 38.916980833333334, "is_disabled": 0, "type": "electric_scooter", "lon": -77.02271866666666, "bike_id": "6bcc4ddd6782d073418374697ec6f822", "fusion_lat": 0.0, "name": "6bcc4ddd6782d073418374697ec6f822", "is_reserved": 0, "rental_uris": {"android": "https://dc.lft.to/lastmile_qr_scan", "ios": "https://dc.lft.to/lastmile_qr_scan"}, "fusion_lon": 0.0}, {"lat": 38.9132515, "is_disabled": 0, "type": "electric_scooter", "lon": -77.01501133333333, "bike_id": "0aa8b859ecf61613ee381caa62e1313b", "fusion_lat": 0.0, "name": "0aa8b859ecf61613ee381caa62e1313b", "is_reserved": 0, "rental_uris": {"android": "https://dc.lft.to/lastmile_qr_scan", "ios": "https://dc.lft.to/lastmile_qr_scan"}, "fusion_lon": 0.0}, {"lat": 38.855042833333336, "is_disabled": 0, "type": "electric_bike", "lon": -77.12056433333333, "bike_id": "5f684a0f9e0cdebb40d00819df863c38", "fusion_lat": 0.0, "name": "5f684a0f9e0cdebb40d00819df863c38", "is_reserved": 0, "rental_uris": {"android": "https://dc.lft.to/lastmile_qr_scan", "ios": "https://dc.lft.to/lastmile_qr_scan"}, "fusion_lon": 0.0}, {"lat": 38.832400166666666, "is_disabled": 0, "type": "electric_bike", "lon": -76.946264, "bike_id": "4db288e312e3e32bc4485206b236b951", "fusion_lat": 0.0, "name": "4db288e312e3e32bc4485206b236b951", "is_reserved": 0, "rental_uris": {"android": "https://dc.lft.to/lastmile_qr_scan", "ios": "https://dc.lft.to/lastmile_qr_scan"}, "fusion_lon": 0.0}, {"lat": 38.91711433333333, "is_disabled": 0, "type": "electric_scooter", "lon": -77.03218616666666, "bike_id": "d1ceb2c7d83340327e0137bd9dd4e01b", "fusion_lat": 0.0, "name": "d1ceb2c7d83340327e0137bd9dd4e01b", "is_reserved": 0, "rental_uris": {"android": "https://dc.lft.to/lastmile_qr_scan", "ios": "https://dc.lft.to/lastmile_qr_scan"}, "fusion_lon": 0.0}, {"lat": 38.9245025, "is_disabled": 0, "type": "electric_scooter", "lon": -77.020305, "bike_id": "bd46b0b75d90704ce5648c0cc2e50274", "fusion_lat": 0.0, "name": "bd46b0b75d90704ce5648c0cc2e50274", "is_reserved": 0, "rental_uris": {"android": "https://dc.lft.to/lastmile_qr_scan", "ios": "https://dc.lft.to/lastmile_qr_scan"}, "fusion_lon": 0.0}, {"lat": 38.90721716666667, "is_disabled": 0, "type": "electric_scooter", "lon": -77.02543716666666, "bike_id": "b50523041dd8ccaef77b398fabe72bea", "fusion_lat": 0.0, "name": "b50523041dd8ccaef77b398fabe72bea", "is_reserved": 0, "rental_uris": {"android": "https://dc.lft.to/lastmile_qr_scan", "ios": "https://dc.lft.to/lastmile_qr_scan"}, "fusion_lon": 0.0}, {"lat": 38.91817966666667, "is_disabled": 0, "type": "electric_scooter", "lon": -77.034525, "bike_id": "e5380c383259f663f3b446bd9325f45a", "fusion_lat": 0.0, "name": "e5380c383259f663f3b446bd9325f45a", "is_reserved": 0, "rental_uris": {"android": "https://dc.lft.to/lastmile_qr_scan", "ios": "https://dc.lft.to/lastmile_qr_scan"}, "fusion_lon": 0.0}, {"lat": 38.91268266666667, "is_disabled": 0, "type": "electric_scooter", "lon": -77.03867866666667, "bike_id": "d7eaafd9c80ab9f3ef0da135e6783e94", "fusion_lat": 0.0, "name": "d7eaafd9c80ab9f3ef0da135e6783e94", "is_reserved": 0, "rental_uris": {"android": "https://dc.lft.to/lastmile_qr_scan", "ios": "https://dc.lft.to/lastmile_qr_scan"}, "fusion_lon": 0.0}, {"lat": 38.89506433333333, "is_disabled": 0, "type": "electric_scooter", "lon": -77.02287133333333, "bike_id": "943cf5428bd296b5e7a2946409f04ea9", "fusion_lat": 0.0, "name": "943cf5428bd296b5e7a2946409f04ea9", "is_reserved": 0, "rental_uris": {"android": "https://dc.lft.to/lastmile_qr_scan", "ios": "https://dc.lft.to/lastmile_qr_scan"}, "fusion_lon": 0.0}, {"lat": 38.925841166666665, "is_disabled": 0, "type": "electric_scooter", "lon": -77.02763316666666, "bike_id": "e887fec170424d5f6b9390ce2f3baee3", "fusion_lat": 0.0, "name": "e887fec170424d5f6b9390ce2f3baee3", "is_reserved": 0, "rental_uris": {"android": "https://dc.lft.to/lastmile_qr_scan", "ios": "https://dc.lft.to/lastmile_qr_scan"}, "fusion_lon": 0.0}, {"lat": 38.90720533333333, "is_disabled": 0, "type": "electric_bike", "lon": -77.00117633333333, "bike_id": "239a99cdcf782ea4252cd56effb1d80e", "fusion_lat": 0.0, "name": "239a99cdcf782ea4252cd56effb1d80e", "is_reserved": 0, "rental_uris": {"android": "https://dc.lft.to/lastmile_qr_scan", "ios": "https://dc.lft.to/lastmile_qr_scan"}, "fusion_lon": 0.0}, {"lat": 38.930756833333334, "is_disabled": 0, "type": "electric_scooter", "lon": -77.0166315, "bike_id": "6ea4160913e62a422ee0d142631af2d0", "fusion_lat": 0.0, "name": "6ea4160913e62a422ee0d142631af2d0", "is_reserved": 0, "rental_uris": {"android": "https://dc.lft.to/lastmile_qr_scan", "ios": "https://dc.lft.to/lastmile_qr_scan"}, "fusion_lon": 0.0}, {"lat": 38.8968275, "is_disabled": 0, "type": "electric_scooter", "lon": -76.93610916666667, "bike_id": "5a6d957bd834188d4ac076111448ac25", "fusion_lat": 0.0, "name": "5a6d957bd834188d4ac076111448ac25", "is_reserved": 0, "rental_uris": {"android": "https://dc.lft.to/lastmile_qr_scan", "ios": "https://dc.lft.to/lastmile_qr_scan"}, "fusion_lon": 0.0}, {"lat": 38.916120666666664, "is_disabled": 0, "type": "electric_scooter", "lon": -77.03185116666667, "bike_id": "76a425819c5984fb745e83c780ee2587", "fusion_lat": 0.0, "name": "76a425819c5984fb745e83c780ee2587", "is_reserved": 0, "rental_uris": {"android": "https://dc.lft.to/lastmile_qr_scan", "ios": "https://dc.lft.to/lastmile_qr_scan"}, "fusion_lon": 0.0}, {"lat": 38.887197, "is_disabled": 0, "type": "electric_scooter", "lon": -76.954773, "bike_id": "e8c4aceb58586931b37ef3f7ebbd5069", "fusion_lat": 0.0, "name": "e8c4aceb58586931b37ef3f7ebbd5069", "is_reserved": 0, "rental_uris": {"android": "https://dc.lft.to/lastmile_qr_scan", "ios": "https://dc.lft.to/lastmile_qr_scan"}, "fusion_lon": 0.0}, {"lat": 38.908348, "is_disabled": 0, "type": "electric_scooter", "lon": -76.99968983333333, "bike_id": "434255ed0bf4772d30e852d06dfb5f0f", "fusion_lat": 0.0, "name": "434255ed0bf4772d30e852d06dfb5f0f", "is_reserved": 0, "rental_uris": {"android": "https://dc.lft.to/lastmile_qr_scan", "ios": "https://dc.lft.to/lastmile_qr_scan"}, "fusion_lon": 0.0}, {"lat": 38.90653866666667, "is_disabled": 0, "type": "electric_scooter", "lon": -77.03853633333334, "bike_id": "ecc46b05853af14c49c508ee42909aef", "fusion_lat": 0.0, "name": "ecc46b05853af14c49c508ee42909aef", "is_reserved": 0, "rental_uris": {"android": "https://dc.lft.to/lastmile_qr_scan", "ios": "https://dc.lft.to/lastmile_qr_scan"}, "fusion_lon": 0.0}, {"lat": 38.90271833333333, "is_disabled": 0, "type": "electric_scooter", "lon": -77.04603516666667, "bike_id": "6e8e3517015c56865397dd9190f94681", "fusion_lat": 0.0, "name": "6e8e3517015c56865397dd9190f94681", "is_reserved": 0, "rental_uris": {"android": "https://dc.lft.to/lastmile_qr_scan", "ios": "https://dc.lft.to/lastmile_qr_scan"}, "fusion_lon": 0.0}, {"lat": 38.90967, "is_disabled": 0, "type": "electric_scooter", "lon": -77.04523733333333, "bike_id": "796e0b289f5b2d612fde509017943604", "fusion_lat": 0.0, "name": "796e0b289f5b2d612fde509017943604", "is_reserved": 0, "rental_uris": {"android": "https://dc.lft.to/lastmile_qr_scan", "ios": "https://dc.lft.to/lastmile_qr_scan"}, "fusion_lon": 0.0}, {"lat": 38.99622733333333, "is_disabled": 0, "type": "electric_scooter", "lon": -77.031915, "bike_id": "624ffdb2fe64abad52b4016fce730898", "fusion_lat": 0.0, "name": "624ffdb2fe64abad52b4016fce730898", "is_reserved": 0, "rental_uris": {"android": "https://dc.lft.to/lastmile_qr_scan", "ios": "https://dc.lft.to/lastmile_qr_scan"}, "fusion_lon": 0.0}, {"lat": 38.86402433333333, "is_disabled": 0, "type": "electric_bike", "lon": -76.97429, "bike_id": "ccf0bb8557893dba759f3e7343dfa241", "fusion_lat": 0.0, "name": "ccf0bb8557893dba759f3e7343dfa241", "is_reserved": 0, "rental_uris": {"android": "https://dc.lft.to/lastmile_qr_scan", "ios": "https://dc.lft.to/lastmile_qr_scan"}, "fusion_lon": 0.0}, {"lat": 38.907224, "is_disabled": 0, "type": "electric_scooter", "lon": -76.99828766666667, "bike_id": "5e49d9dd1f9e1f6161533aee243fcd05", "fusion_lat": 0.0, "name": "5e49d9dd1f9e1f6161533aee243fcd05", "is_reserved": 0, "rental_uris": {"android": "https://dc.lft.to/lastmile_qr_scan", "ios": "https://dc.lft.to/lastmile_qr_scan"}, "fusion_lon": 0.0}, {"lat": 38.93310666666667, "is_disabled": 0, "type": "electric_scooter", "lon": -77.03456783333333, "bike_id": "c80f48e3b582d301a7ae756009853f3b", "fusion_lat": 0.0, "name": "c80f48e3b582d301a7ae756009853f3b", "is_reserved": 0, "rental_uris": {"android": "https://dc.lft.to/lastmile_qr_scan", "ios": "https://dc.lft.to/lastmile_qr_scan"}, "fusion_lon": 0.0}, {"lat": 38.894069333333334, "is_disabled": 0, "type": "electric_scooter", "lon": -76.95663133333333, "bike_id": "813305829dcaf3e4fecb4e09c67200f5", "fusion_lat": 0.0, "name": "813305829dcaf3e4fecb4e09c67200f5", "is_reserved": 0, "rental_uris": {"android": "https://dc.lft.to/lastmile_qr_scan", "ios": "https://dc.lft.to/lastmile_qr_scan"}, "fusion_lon": 0.0}, {"lat": 38.913325, "is_disabled": 0, "type": "electric_scooter", "lon": -77.04815766666667, "bike_id": "9183bac71b648e0071ff2836dc8294cb", "fusion_lat": 0.0, "name": "9183bac71b648e0071ff2836dc8294cb", "is_reserved": 0, "rental_uris": {"android": "https://dc.lft.to/lastmile_qr_scan", "ios": "https://dc.lft.to/lastmile_qr_scan"}, "fusion_lon": 0.0}, {"lat": 38.912196333333334, "is_disabled": 0, "type": "electric_scooter", "lon": -77.02188483333333, "bike_id": "21f95a4fa8b7c2d6d79bb54da527c0ec", "fusion_lat": 0.0, "name": "21f95a4fa8b7c2d6d79bb54da527c0ec", "is_reserved": 0, "rental_uris": {"android": "https://dc.lft.to/lastmile_qr_scan", "ios": "https://dc.lft.to/lastmile_qr_scan"}, "fusion_lon": 0.0}, {"lat": 38.897482333333336, "is_disabled": 0, "type": "electric_scooter", "lon": -77.045332, "bike_id": "76af9656963a7edc61116c2ffbaea5de", "fusion_lat": 0.0, "name": "76af9656963a7edc61116c2ffbaea5de", "is_reserved": 0, "rental_uris": {"android": "https://dc.lft.to/lastmile_qr_scan", "ios": "https://dc.lft.to/lastmile_qr_scan"}, "fusion_lon": 0.0}, {"lat": 38.9054555, "is_disabled": 0, "type": "electric_scooter", "lon": -76.98647, "bike_id": "8a8990d45227a3ae3492ff7ef3e5d18d", "fusion_lat": 0.0, "name": "8a8990d45227a3ae3492ff7ef3e5d18d", "is_reserved": 0, "rental_uris": {"android": "https://dc.lft.to/lastmile_qr_scan", "ios": "https://dc.lft.to/lastmile_qr_scan"}, "fusion_lon": 0.0}, {"lat": 38.9067675, "is_disabled": 0, "type": "electric_scooter", "lon": -77.02701783333333, "bike_id": "4940c46f49e53bbbb8032588458312b8", "fusion_lat": 0.0, "name": "4940c46f49e53bbbb8032588458312b8", "is_reserved": 0, "rental_uris": {"android": "https://dc.lft.to/lastmile_qr_scan", "ios": "https://dc.lft.to/lastmile_qr_scan"}, "fusion_lon": 0.0}, {"lat": 38.873422833333336, "is_disabled": 0, "type": "electric_scooter", "lon": -76.99165266666667, "bike_id": "90aec2d1690fb3d9acb663a1e845dc51", "fusion_lat": 0.0, "name": "90aec2d1690fb3d9acb663a1e845dc51", "is_reserved": 0, "rental_uris": {"android": "https://dc.lft.to/lastmile_qr_scan", "ios": "https://dc.lft.to/lastmile_qr_scan"}, "fusion_lon": 0.0}, {"lat": 38.89743416666666, "is_disabled": 0, "type": "electric_scooter", "lon": -77.00854616666666, "bike_id": "e88cdb29549680a679787f54020e1fbf", "fusion_lat": 0.0, "name": "e88cdb29549680a679787f54020e1fbf", "is_reserved": 0, "rental_uris": {"android": "https://dc.lft.to/lastmile_qr_scan", "ios": "https://dc.lft.to/lastmile_qr_scan"}, "fusion_lon": 0.0}, {"lat": 38.897253, "is_disabled": 0, "type": "electric_scooter", "lon": -77.03252416666666, "bike_id": "0a2cad609b39e2e55426b4ed71748a7e", "fusion_lat": 0.0, "name": "0a2cad609b39e2e55426b4ed71748a7e", "is_reserved": 0, "rental_uris": {"android": "https://dc.lft.to/lastmile_qr_scan", "ios": "https://dc.lft.to/lastmile_qr_scan"}, "fusion_lon": 0.0}, {"lat": 38.899994166666666, "is_disabled": 0, "type": "electric_scooter", "lon": -76.988008, "bike_id": "7d85dd51e3c761d485695bae9a6ebb88", "fusion_lat": 0.0, "name": "7d85dd51e3c761d485695bae9a6ebb88", "is_reserved": 0, "rental_uris": {"android": "https://dc.lft.to/lastmile_qr_scan", "ios": "https://dc.lft.to/lastmile_qr_scan"}, "fusion_lon": 0.0}, {"lat": 38.904083666666665, "is_disabled": 0, "type": "electric_scooter", "lon": -77.02076616666666, "bike_id": "c0434814ba7fdbe55b194e7645edf052", "fusion_lat": 0.0, "name": "c0434814ba7fdbe55b194e7645edf052", "is_reserved": 0, "rental_uris": {"android": "https://dc.lft.to/lastmile_qr_scan", "ios": "https://dc.lft.to/lastmile_qr_scan"}, "fusion_lon": 0.0}, {"lat": 38.89905066666667, "is_disabled": 0, "type": "electric_scooter", "lon": -76.93357916666666, "bike_id": "33d346d67e082316c6906318fe34f714", "fusion_lat": 0.0, "name": "33d346d67e082316c6906318fe34f714", "is_reserved": 0, "rental_uris": {"android": "https://dc.lft.to/lastmile_qr_scan", "ios": "https://dc.lft.to/lastmile_qr_scan"}, "fusion_lon": 0.0}, {"lat": 38.89264416666666, "is_disabled": 0, "type": "electric_scooter", "lon": -76.94157016666666, "bike_id": "6b973e6422f79573d6e7f9e840eedaa5", "fusion_lat": 0.0, "name": "6b973e6422f79573d6e7f9e840eedaa5", "is_reserved": 0, "rental_uris": {"android": "https://dc.lft.to/lastmile_qr_scan", "ios": "https://dc.lft.to/lastmile_qr_scan"}, "fusion_lon": 0.0}, {"lat": 38.897895, "is_disabled": 0, "type": "electric_scooter", "lon": -77.03231266666667, "bike_id": "c821d8685f2c9409064e843cd77032f0", "fusion_lat": 0.0, "name": "c821d8685f2c9409064e843cd77032f0", "is_reserved": 0, "rental_uris": {"android": "https://dc.lft.to/lastmile_qr_scan", "ios": "https://dc.lft.to/lastmile_qr_scan"}, "fusion_lon": 0.0}, {"lat": 38.91690283333333, "is_disabled": 0, "type": "electric_scooter", "lon": -77.04337266666667, "bike_id": "64df479e29d6a731e8db77b3eea1500c", "fusion_lat": 0.0, "name": "64df479e29d6a731e8db77b3eea1500c", "is_reserved": 0, "rental_uris": {"android": "https://dc.lft.to/lastmile_qr_scan", "ios": "https://dc.lft.to/lastmile_qr_scan"}, "fusion_lon": 0.0}, {"lat": 38.88524366666667, "is_disabled": 0, "type": "electric_scooter", "lon": -77.03346433333333, "bike_id": "fac283475ef97584b4330e58b0e113e0", "fusion_lat": 0.0, "name": "fac283475ef97584b4330e58b0e113e0", "is_reserved": 0, "rental_uris": {"android": "https://dc.lft.to/lastmile_qr_scan", "ios": "https://dc.lft.to/lastmile_qr_scan"}, "fusion_lon": 0.0}, {"lat": 38.858074, "is_disabled": 0, "type": "electric_scooter", "lon": -76.98992516666667, "bike_id": "33e24032664a4e5fab97a6da580faa5c", "fusion_lat": 0.0, "name": "33e24032664a4e5fab97a6da580faa5c", "is_reserved": 0, "rental_uris": {"android": "https://dc.lft.to/lastmile_qr_scan", "ios": "https://dc.lft.to/lastmile_qr_scan"}, "fusion_lon": 0.0}, {"lat": 38.91610716666667, "is_disabled": 0, "type": "electric_scooter", "lon": -77.04873566666667, "bike_id": "f76cee2a467e89c93b96ab5c3c47b26c", "fusion_lat": 0.0, "name": "f76cee2a467e89c93b96ab5c3c47b26c", "is_reserved": 0, "rental_uris": {"android": "https://dc.lft.to/lastmile_qr_scan", "ios": "https://dc.lft.to/lastmile_qr_scan"}, "fusion_lon": 0.0}, {"lat": 38.939923, "is_disabled": 0, "type": "electric_scooter", "lon": -77.0717265, "bike_id": "2bd0a61dbf0ed01403a82497c117f43e", "fusion_lat": 0.0, "name": "2bd0a61dbf0ed01403a82497c117f43e", "is_reserved": 0, "rental_uris": {"android": "https://dc.lft.to/lastmile_qr_scan", "ios": "https://dc.lft.to/lastmile_qr_scan"}, "fusion_lon": 0.0}, {"lat": 38.91108416666667, "is_disabled": 0, "type": "electric_scooter", "lon": -77.0433135, "bike_id": "27bb4f5098f265bd0c4d3cc547a371a3", "fusion_lat": 0.0, "name": "27bb4f5098f265bd0c4d3cc547a371a3", "is_reserved": 0, "rental_uris": {"android": "https://dc.lft.to/lastmile_qr_scan", "ios": "https://dc.lft.to/lastmile_qr_scan"}, "fusion_lon": 0.0}, {"lat": 38.928809333333334, "is_disabled": 0, "type": "electric_bike", "lon": -77.03698916666667, "bike_id": "df3a348fc61a9ca8810ad5d83e3db10c", "fusion_lat": 0.0, "name": "df3a348fc61a9ca8810ad5d83e3db10c", "is_reserved": 0, "rental_uris": {"android": "https://dc.lft.to/lastmile_qr_scan", "ios": "https://dc.lft.to/lastmile_qr_scan"}, "fusion_lon": 0.0}, {"lat": 38.91995716666667, "is_disabled": 0, "type": "electric_scooter", "lon": -76.97302683333334, "bike_id": "e4afc50d1723cb015048692534c1ba46", "fusion_lat": 0.0, "name": "e4afc50d1723cb015048692534c1ba46", "is_reserved": 0, "rental_uris": {"android": "https://dc.lft.to/lastmile_qr_scan", "ios": "https://dc.lft.to/lastmile_qr_scan"}, "fusion_lon": 0.0}, {"lat": 38.916002, "is_disabled": 0, "type": "electric_scooter", "lon": -77.02385583333333, "bike_id": "8d16cdaa093c048d6ffde3506371b9c7", "fusion_lat": 0.0, "name": "8d16cdaa093c048d6ffde3506371b9c7", "is_reserved": 0, "rental_uris": {"android": "https://dc.lft.to/lastmile_qr_scan", "ios": "https://dc.lft.to/lastmile_qr_scan"}, "fusion_lon": 0.0}, {"lat": 38.92430433333333, "is_disabled": 0, "type": "electric_scooter", "lon": -77.05174683333334, "bike_id": "c98c0c8a4492a19e0daabb460010c8dc", "fusion_lat": 0.0, "name": "c98c0c8a4492a19e0daabb460010c8dc", "is_reserved": 0, "rental_uris": {"android": "https://dc.lft.to/lastmile_qr_scan", "ios": "https://dc.lft.to/lastmile_qr_scan"}, "fusion_lon": 0.0}, {"lat": 38.90869883333333, "is_disabled": 0, "type": "electric_scooter", "lon": -77.04659333333333, "bike_id": "52d1b785e8dead1fcebc81ee2e887039", "fusion_lat": 0.0, "name": "52d1b785e8dead1fcebc81ee2e887039", "is_reserved": 0, "rental_uris": {"android": "https://dc.lft.to/lastmile_qr_scan", "ios": "https://dc.lft.to/lastmile_qr_scan"}, "fusion_lon": 0.0}, {"lat": 38.96560866666667, "is_disabled": 0, "type": "electric_bike", "lon": -77.0229665, "bike_id": "44e475109338a5f01fdcc7278e9bf714", "fusion_lat": 0.0, "name": "44e475109338a5f01fdcc7278e9bf714", "is_reserved": 0, "rental_uris": {"android": "https://dc.lft.to/lastmile_qr_scan", "ios": "https://dc.lft.to/lastmile_qr_scan"}, "fusion_lon": 0.0}, {"lat": 38.905591666666666, "is_disabled": 0, "type": "electric_scooter", "lon": -77.028009, "bike_id": "3ab6e2ebd21ffee2fd1db7957a727be7", "fusion_lat": 0.0, "name": "3ab6e2ebd21ffee2fd1db7957a727be7", "is_reserved": 0, "rental_uris": {"android": "https://dc.lft.to/lastmile_qr_scan", "ios": "https://dc.lft.to/lastmile_qr_scan"}, "fusion_lon": 0.0}, {"lat": 38.90917533333333, "is_disabled": 0, "type": "electric_scooter", "lon": -77.03641616666667, "bike_id": "bf91ecc8033d352c0e38df6a15e30bb6", "fusion_lat": 0.0, "name": "bf91ecc8033d352c0e38df6a15e30bb6", "is_reserved": 0, "rental_uris": {"android": "https://dc.lft.to/lastmile_qr_scan", "ios": "https://dc.lft.to/lastmile_qr_scan"}, "fusion_lon": 0.0}, {"lat": 38.86653233333333, "is_disabled": 0, "type": "electric_scooter", "lon": -76.98087883333334, "bike_id": "42b5f8e1694b171150aff8c9b55e1e59", "fusion_lat": 0.0, "name": "42b5f8e1694b171150aff8c9b55e1e59", "is_reserved": 0, "rental_uris": {"android": "https://dc.lft.to/lastmile_qr_scan", "ios": "https://dc.lft.to/lastmile_qr_scan"}, "fusion_lon": 0.0}, {"lat": 39.05202416666667, "is_disabled": 0, "type": "electric_bike", "lon": -77.109214, "bike_id": "22c08bb55da08d11a12c5f0544558080", "fusion_lat": 0.0, "name": "22c08bb55da08d11a12c5f0544558080", "is_reserved": 0, "rental_uris": {"android": "https://dc.lft.to/lastmile_qr_scan", "ios": "https://dc.lft.to/lastmile_qr_scan"}, "fusion_lon": 0.0}, {"lat": 38.9156705, "is_disabled": 0, "type": "electric_scooter", "lon": -77.0324155, "bike_id": "65aea0cbcff2ee8e32bfb793daa059b2", "fusion_lat": 0.0, "name": "65aea0cbcff2ee8e32bfb793daa059b2", "is_reserved": 0, "rental_uris": {"android": "https://dc.lft.to/lastmile_qr_scan", "ios": "https://dc.lft.to/lastmile_qr_scan"}, "fusion_lon": 0.0}, {"lat": 38.900815, "is_disabled": 0, "type": "electric_scooter", "lon": -77.02599633333334, "bike_id": "7446b7eab15138b22e80db29d8575bb2", "fusion_lat": 0.0, "name": "7446b7eab15138b22e80db29d8575bb2", "is_reserved": 0, "rental_uris": {"android": "https://dc.lft.to/lastmile_qr_scan", "ios": "https://dc.lft.to/lastmile_qr_scan"}, "fusion_lon": 0.0}, {"lat": 38.91788833333333, "is_disabled": 0, "type": "electric_scooter", "lon": -77.02305933333334, "bike_id": "bf9f94bb6506a3309286f56143c8bae6", "fusion_lat": 0.0, "name": "bf9f94bb6506a3309286f56143c8bae6", "is_reserved": 0, "rental_uris": {"android": "https://dc.lft.to/lastmile_qr_scan", "ios": "https://dc.lft.to/lastmile_qr_scan"}, "fusion_lon": 0.0}, {"lat": 38.91973, "is_disabled": 0, "type": "electric_scooter", "lon": -77.01355033333333, "bike_id": "9aade21f6583936bcfd0da239e0b8fe8", "fusion_lat": 0.0, "name": "9aade21f6583936bcfd0da239e0b8fe8", "is_reserved": 0, "rental_uris": {"android": "https://dc.lft.to/lastmile_qr_scan", "ios": "https://dc.lft.to/lastmile_qr_scan"}, "fusion_lon": 0.0}, {"lat": 38.91751033333333, "is_disabled": 0, "type": "electric_scooter", "lon": -77.0366015, "bike_id": "95b5d213b7c9195080ebddc66d8a6325", "fusion_lat": 0.0, "name": "95b5d213b7c9195080ebddc66d8a6325", "is_reserved": 0, "rental_uris": {"android": "https://dc.lft.to/lastmile_qr_scan", "ios": "https://dc.lft.to/lastmile_qr_scan"}, "fusion_lon": 0.0}, {"lat": 38.892204166666666, "is_disabled": 0, "type": "electric_scooter", "lon": -77.04362116666667, "bike_id": "8f51357f09a9ade5f593f9317ca21cf8", "fusion_lat": 0.0, "name": "8f51357f09a9ade5f593f9317ca21cf8", "is_reserved": 0, "rental_uris": {"android": "https://dc.lft.to/lastmile_qr_scan", "ios": "https://dc.lft.to/lastmile_qr_scan"}, "fusion_lon": 0.0}, {"lat": 38.9294925, "is_disabled": 0, "type": "electric_scooter", "lon": -77.0189125, "bike_id": "f1246486366b3c8a2e66215df69bb253", "fusion_lat": 0.0, "name": "f1246486366b3c8a2e66215df69bb253", "is_reserved": 0, "rental_uris": {"android": "https://dc.lft.to/lastmile_qr_scan", "ios": "https://dc.lft.to/lastmile_qr_scan"}, "fusion_lon": 0.0}, {"lat": 38.907181, "is_disabled": 0, "type": "electric_scooter", "lon": -77.0343, "bike_id": "5d9ab943e92775cc50e9cc9ca489051d", "fusion_lat": 0.0, "name": "5d9ab943e92775cc50e9cc9ca489051d", "is_reserved": 0, "rental_uris": {"android": "https://dc.lft.to/lastmile_qr_scan", "ios": "https://dc.lft.to/lastmile_qr_scan"}, "fusion_lon": 0.0}, {"lat": 38.90950083333333, "is_disabled": 0, "type": "electric_scooter", "lon": -77.0479375, "bike_id": "968af5c41cb660b9c4b84cca91cf2e31", "fusion_lat": 0.0, "name": "968af5c41cb660b9c4b84cca91cf2e31", "is_reserved": 0, "rental_uris": {"android": "https://dc.lft.to/lastmile_qr_scan", "ios": "https://dc.lft.to/lastmile_qr_scan"}, "fusion_lon": 0.0}, {"lat": 38.903846333333334, "is_disabled": 0, "type": "electric_scooter", "lon": -77.05403066666666, "bike_id": "dde26084baca14400bd2c9d40abd6e01", "fusion_lat": 0.0, "name": "dde26084baca14400bd2c9d40abd6e01", "is_reserved": 0, "rental_uris": {"android": "https://dc.lft.to/lastmile_qr_scan", "ios": "https://dc.lft.to/lastmile_qr_scan"}, "fusion_lon": 0.0}, {"lat": 38.951396333333335, "is_disabled": 0, "type": "electric_scooter", "lon": -77.01335183333333, "bike_id": "c906d7e7630d6fa61e0ec8086692f799", "fusion_lat": 0.0, "name": "c906d7e7630d6fa61e0ec8086692f799", "is_reserved": 0, "rental_uris": {"android": "https://dc.lft.to/lastmile_qr_scan", "ios": "https://dc.lft.to/lastmile_qr_scan"}, "fusion_lon": 0.0}, {"lat": 38.91789583333333, "is_disabled": 0, "type": "electric_scooter", "lon": -77.040763, "bike_id": "794a10155219116f53f1ae2f8c5dadee", "fusion_lat": 0.0, "name": "794a10155219116f53f1ae2f8c5dadee", "is_reserved": 0, "rental_uris": {"android": "https://dc.lft.to/lastmile_qr_scan", "ios": "https://dc.lft.to/lastmile_qr_scan"}, "fusion_lon": 0.0}, {"lat": 38.901365, "is_disabled": 0, "type": "electric_scooter", "lon": -76.99746966666666, "bike_id": "e927a64a01d516506765e102593be5a7", "fusion_lat": 0.0, "name": "e927a64a01d516506765e102593be5a7", "is_reserved": 0, "rental_uris": {"android": "https://dc.lft.to/lastmile_qr_scan", "ios": "https://dc.lft.to/lastmile_qr_scan"}, "fusion_lon": 0.0}, {"lat": 38.915597166666664, "is_disabled": 0, "type": "electric_scooter", "lon": -77.04873816666667, "bike_id": "97531b047f103d655709562c92e1d62a", "fusion_lat": 0.0, "name": "97531b047f103d655709562c92e1d62a", "is_reserved": 0, "rental_uris": {"android": "https://dc.lft.to/lastmile_qr_scan", "ios": "https://dc.lft.to/lastmile_qr_scan"}, "fusion_lon": 0.0}, {"lat": 38.903111333333335, "is_disabled": 0, "type": "electric_scooter", "lon": -76.9780505, "bike_id": "a6cdb266b38ad715a43e4ed8e46eb270", "fusion_lat": 0.0, "name": "a6cdb266b38ad715a43e4ed8e46eb270", "is_reserved": 0, "rental_uris": {"android": "https://dc.lft.to/lastmile_qr_scan", "ios": "https://dc.lft.to/lastmile_qr_scan"}, "fusion_lon": 0.0}, {"lat": 38.907169833333334, "is_disabled": 0, "type": "electric_scooter", "lon": -77.047554, "bike_id": "910b34a6740c170bbf6d2aa1a185b8ba", "fusion_lat": 0.0, "name": "910b34a6740c170bbf6d2aa1a185b8ba", "is_reserved": 0, "rental_uris": {"android": "https://dc.lft.to/lastmile_qr_scan", "ios": "https://dc.lft.to/lastmile_qr_scan"}, "fusion_lon": 0.0}, {"lat": 38.906571, "is_disabled": 0, "type": "electric_scooter", "lon": -77.02507666666666, "bike_id": "0caa339a5618fd549b2fd30beff35153", "fusion_lat": 0.0, "name": "0caa339a5618fd549b2fd30beff35153", "is_reserved": 0, "rental_uris": {"android": "https://dc.lft.to/lastmile_qr_scan", "ios": "https://dc.lft.to/lastmile_qr_scan"}, "fusion_lon": 0.0}, {"lat": 38.90218383333333, "is_disabled": 0, "type": "electric_scooter", "lon": -77.0217725, "bike_id": "103949f82967b738e81b0475ccfb474d", "fusion_lat": 0.0, "name": "103949f82967b738e81b0475ccfb474d", "is_reserved": 0, "rental_uris": {"android": "https://dc.lft.to/lastmile_qr_scan", "ios": "https://dc.lft.to/lastmile_qr_scan"}, "fusion_lon": 0.0}, {"lat": 38.88505266666667, "is_disabled": 0, "type": "electric_scooter", "lon": -77.01556716666667, "bike_id": "4e1d094b3e7c131b2c814dfd86b25d9b", "fusion_lat": 0.0, "name": "4e1d094b3e7c131b2c814dfd86b25d9b", "is_reserved": 0, "rental_uris": {"android": "https://dc.lft.to/lastmile_qr_scan", "ios": "https://dc.lft.to/lastmile_qr_scan"}, "fusion_lon": 0.0}, {"lat": 38.9709285, "is_disabled": 0, "type": "electric_bike", "lon": -77.06970716666666, "bike_id": "fb1735a511dab3412344c835d3bd14ef", "fusion_lat": 0.0, "name": "fb1735a511dab3412344c835d3bd14ef", "is_reserved": 0, "rental_uris": {"android": "https://dc.lft.to/lastmile_qr_scan", "ios": "https://dc.lft.to/lastmile_qr_scan"}, "fusion_lon": 0.0}, {"lat": 38.91330816666667, "is_disabled": 0, "type": "electric_scooter", "lon": -77.03127816666667, "bike_id": "44866876f79e0eddb081ff898c32ae4d", "fusion_lat": 0.0, "name": "44866876f79e0eddb081ff898c32ae4d", "is_reserved": 0, "rental_uris": {"android": "https://dc.lft.to/lastmile_qr_scan", "ios": "https://dc.lft.to/lastmile_qr_scan"}, "fusion_lon": 0.0}, {"lat": 38.894985166666665, "is_disabled": 0, "type": "electric_scooter", "lon": -77.02204716666667, "bike_id": "665cbfec8b07053eb622560a5dbfbdc0", "fusion_lat": 0.0, "name": "665cbfec8b07053eb622560a5dbfbdc0", "is_reserved": 0, "rental_uris": {"android": "https://dc.lft.to/lastmile_qr_scan", "ios": "https://dc.lft.to/lastmile_qr_scan"}, "fusion_lon": 0.0}, {"lat": 38.926104333333335, "is_disabled": 0, "type": "electric_scooter", "lon": -77.00445016666667, "bike_id": "465cfef14acdc040c0dea7f6b874fb64", "fusion_lat": 0.0, "name": "465cfef14acdc040c0dea7f6b874fb64", "is_reserved": 0, "rental_uris": {"android": "https://dc.lft.to/lastmile_qr_scan", "ios": "https://dc.lft.to/lastmile_qr_scan"}, "fusion_lon": 0.0}, {"lat": 38.925566833333335, "is_disabled": 0, "type": "electric_scooter", "lon": -77.033096, "bike_id": "3aebb35e25ca0998bcdeb500f8cbd184", "fusion_lat": 0.0, "name": "3aebb35e25ca0998bcdeb500f8cbd184", "is_reserved": 0, "rental_uris": {"android": "https://dc.lft.to/lastmile_qr_scan", "ios": "https://dc.lft.to/lastmile_qr_scan"}, "fusion_lon": 0.0}, {"lat": 38.89875833333333, "is_disabled": 0, "type": "electric_scooter", "lon": -76.931854, "bike_id": "e2e951508b2243878abe57f6de472b7d", "fusion_lat": 0.0, "name": "e2e951508b2243878abe57f6de472b7d", "is_reserved": 0, "rental_uris": {"android": "https://dc.lft.to/lastmile_qr_scan", "ios": "https://dc.lft.to/lastmile_qr_scan"}, "fusion_lon": 0.0}, {"lat": 38.91880033333333, "is_disabled": 0, "type": "electric_scooter", "lon": -77.047297, "bike_id": "7ae65e09ed35aedbdf0a7f8d491cd327", "fusion_lat": 0.0, "name": "7ae65e09ed35aedbdf0a7f8d491cd327", "is_reserved": 0, "rental_uris": {"android": "https://dc.lft.to/lastmile_qr_scan", "ios": "https://dc.lft.to/lastmile_qr_scan"}, "fusion_lon": 0.0}, {"lat": 38.92210683333333, "is_disabled": 0, "type": "electric_scooter", "lon": -77.0401825, "bike_id": "ce264aeb5338ed05b636f3667909d9dd", "fusion_lat": 0.0, "name": "ce264aeb5338ed05b636f3667909d9dd", "is_reserved": 0, "rental_uris": {"android": "https://dc.lft.to/lastmile_qr_scan", "ios": "https://dc.lft.to/lastmile_qr_scan"}, "fusion_lon": 0.0}, {"lat": 38.86715516666667, "is_disabled": 0, "type": "electric_scooter", "lon": -76.98726583333334, "bike_id": "df7b5c37221d58c36a4f2363babada96", "fusion_lat": 0.0, "name": "df7b5c37221d58c36a4f2363babada96", "is_reserved": 0, "rental_uris": {"android": "https://dc.lft.to/lastmile_qr_scan", "ios": "https://dc.lft.to/lastmile_qr_scan"}, "fusion_lon": 0.0}, {"lat": 38.895978666666664, "is_disabled": 0, "type": "electric_scooter", "lon": -77.01229983333333, "bike_id": "bbe8720e76e5e83aaa5ec9be1ecea2ea", "fusion_lat": 0.0, "name": "bbe8720e76e5e83aaa5ec9be1ecea2ea", "is_reserved": 0, "rental_uris": {"android": "https://dc.lft.to/lastmile_qr_scan", "ios": "https://dc.lft.to/lastmile_qr_scan"}, "fusion_lon": 0.0}, {"lat": 38.915225666666664, "is_disabled": 0, "type": "electric_scooter", "lon": -77.03848266666667, "bike_id": "a7267338fc85f3c9ab3d53ef0f5f6a90", "fusion_lat": 0.0, "name": "a7267338fc85f3c9ab3d53ef0f5f6a90", "is_reserved": 0, "rental_uris": {"android": "https://dc.lft.to/lastmile_qr_scan", "ios": "https://dc.lft.to/lastmile_qr_scan"}, "fusion_lon": 0.0}, {"lat": 38.90864283333333, "is_disabled": 0, "type": "electric_scooter", "lon": -77.04660733333333, "bike_id": "93f13e346e8bb0a666a3450c4681936d", "fusion_lat": 0.0, "name": "93f13e346e8bb0a666a3450c4681936d", "is_reserved": 0, "rental_uris": {"android": "https://dc.lft.to/lastmile_qr_scan", "ios": "https://dc.lft.to/lastmile_qr_scan"}, "fusion_lon": 0.0}, {"lat": 38.900262, "is_disabled": 0, "type": "electric_scooter", "lon": -76.996581, "bike_id": "de533c5935c765d75e196d3591a50fe3", "fusion_lat": 0.0, "name": "de533c5935c765d75e196d3591a50fe3", "is_reserved": 0, "rental_uris": {"android": "https://dc.lft.to/lastmile_qr_scan", "ios": "https://dc.lft.to/lastmile_qr_scan"}, "fusion_lon": 0.0}, {"lat": 38.92401916666667, "is_disabled": 0, "type": "electric_scooter", "lon": -77.02546433333333, "bike_id": "a7a70f36e1ee5444f723984175c44ea1", "fusion_lat": 0.0, "name": "a7a70f36e1ee5444f723984175c44ea1", "is_reserved": 0, "rental_uris": {"android": "https://dc.lft.to/lastmile_qr_scan", "ios": "https://dc.lft.to/lastmile_qr_scan"}, "fusion_lon": 0.0}, {"lat": 38.935682, "is_disabled": 0, "type": "electric_scooter", "lon": -77.0587805, "bike_id": "b88f36d471b37d9764dc412138646e47", "fusion_lat": 0.0, "name": "b88f36d471b37d9764dc412138646e47", "is_reserved": 0, "rental_uris": {"android": "https://dc.lft.to/lastmile_qr_scan", "ios": "https://dc.lft.to/lastmile_qr_scan"}, "fusion_lon": 0.0}, {"lat": 38.90863933333333, "is_disabled": 0, "type": "electric_bike", "lon": -76.940106, "bike_id": "fd35813554a45aef3f3f3f06b2a6131b", "fusion_lat": 0.0, "name": "fd35813554a45aef3f3f3f06b2a6131b", "is_reserved": 0, "rental_uris": {"android": "https://dc.lft.to/lastmile_qr_scan", "ios": "https://dc.lft.to/lastmile_qr_scan"}, "fusion_lon": 0.0}, {"lat": 38.916615166666666, "is_disabled": 0, "type": "electric_bike", "lon": -77.04724016666667, "bike_id": "0e5dec9da978e29eef51375672bb95f3", "fusion_lat": 0.0, "name": "0e5dec9da978e29eef51375672bb95f3", "is_reserved": 0, "rental_uris": {"android": "https://dc.lft.to/lastmile_qr_scan", "ios": "https://dc.lft.to/lastmile_qr_scan"}, "fusion_lon": 0.0}, {"lat": 38.92154716666667, "is_disabled": 0, "type": "electric_scooter", "lon": -77.03358733333333, "bike_id": "9ccc8a2ee141ecf7f04c32967c889af3", "fusion_lat": 0.0, "name": "9ccc8a2ee141ecf7f04c32967c889af3", "is_reserved": 0, "rental_uris": {"android": "https://dc.lft.to/lastmile_qr_scan", "ios": "https://dc.lft.to/lastmile_qr_scan"}, "fusion_lon": 0.0}, {"lat": 38.9364895, "is_disabled": 0, "type": "electric_scooter", "lon": -77.0368145, "bike_id": "a9f3414f84ef5476bb7dd7c72b3ebea3", "fusion_lat": 0.0, "name": "a9f3414f84ef5476bb7dd7c72b3ebea3", "is_reserved": 0, "rental_uris": {"android": "https://dc.lft.to/lastmile_qr_scan", "ios": "https://dc.lft.to/lastmile_qr_scan"}, "fusion_lon": 0.0}, {"lat": 38.914190833333336, "is_disabled": 0, "type": "electric_scooter", "lon": -77.03178566666666, "bike_id": "2bacf5e89c49d6b71d66bc421b9ec064", "fusion_lat": 0.0, "name": "2bacf5e89c49d6b71d66bc421b9ec064", "is_reserved": 0, "rental_uris": {"android": "https://dc.lft.to/lastmile_qr_scan", "ios": "https://dc.lft.to/lastmile_qr_scan"}, "fusion_lon": 0.0}, {"lat": 38.890444, "is_disabled": 0, "type": "electric_scooter", "lon": -76.94082266666666, "bike_id": "723c910dbb62f3e42581a76b035b4a1f", "fusion_lat": 0.0, "name": "723c910dbb62f3e42581a76b035b4a1f", "is_reserved": 0, "rental_uris": {"android": "https://dc.lft.to/lastmile_qr_scan", "ios": "https://dc.lft.to/lastmile_qr_scan"}, "fusion_lon": 0.0}, {"lat": 38.9291165, "is_disabled": 0, "type": "electric_scooter", "lon": -77.03178916666667, "bike_id": "6e9381c56711c84c3ba278282ea5b164", "fusion_lat": 0.0, "name": "6e9381c56711c84c3ba278282ea5b164", "is_reserved": 0, "rental_uris": {"android": "https://dc.lft.to/lastmile_qr_scan", "ios": "https://dc.lft.to/lastmile_qr_scan"}, "fusion_lon": 0.0}, {"lat": 38.89282, "is_disabled": 0, "type": "electric_scooter", "lon": -77.0503355, "bike_id": "52149ddf331822fae1ac4b572e06bb39", "fusion_lat": 0.0, "name": "52149ddf331822fae1ac4b572e06bb39", "is_reserved": 0, "rental_uris": {"android": "https://dc.lft.to/lastmile_qr_scan", "ios": "https://dc.lft.to/lastmile_qr_scan"}, "fusion_lon": 0.0}, {"lat": 38.900024333333334, "is_disabled": 0, "type": "electric_scooter", "lon": -77.0523685, "bike_id": "73c7f803f9e38835880e32adb4d191a5", "fusion_lat": 0.0, "name": "73c7f803f9e38835880e32adb4d191a5", "is_reserved": 0, "rental_uris": {"android": "https://dc.lft.to/lastmile_qr_scan", "ios": "https://dc.lft.to/lastmile_qr_scan"}, "fusion_lon": 0.0}, {"lat": 38.85851483333333, "is_disabled": 0, "type": "electric_bike", "lon": -77.09755666666666, "bike_id": "43e431abfa44c129136a23a72c3d14cb", "fusion_lat": 0.0, "name": "43e431abfa44c129136a23a72c3d14cb", "is_reserved": 0, "rental_uris": {"android": "https://dc.lft.to/lastmile_qr_scan", "ios": "https://dc.lft.to/lastmile_qr_scan"}, "fusion_lon": 0.0}, {"lat": 38.958964333333334, "is_disabled": 0, "type": "electric_bike", "lon": -76.92490833333333, "bike_id": "96347f0d76c827781f3a9cd078fad946", "fusion_lat": 0.0, "name": "96347f0d76c827781f3a9cd078fad946", "is_reserved": 0, "rental_uris": {"android": "https://dc.lft.to/lastmile_qr_scan", "ios": "https://dc.lft.to/lastmile_qr_scan"}, "fusion_lon": 0.0}, {"lat": 38.91414566666667, "is_disabled": 0, "type": "electric_scooter", "lon": -77.0223575, "bike_id": "4224d156be3061abb1ba51786e824e77", "fusion_lat": 0.0, "name": "4224d156be3061abb1ba51786e824e77", "is_reserved": 0, "rental_uris": {"android": "https://dc.lft.to/lastmile_qr_scan", "ios": "https://dc.lft.to/lastmile_qr_scan"}, "fusion_lon": 0.0}, {"lat": 38.89732, "is_disabled": 0, "type": "electric_scooter", "lon": -77.03185383333333, "bike_id": "4fa645412be2d3040d08f84b69c9b21a", "fusion_lat": 0.0, "name": "4fa645412be2d3040d08f84b69c9b21a", "is_reserved": 0, "rental_uris": {"android": "https://dc.lft.to/lastmile_qr_scan", "ios": "https://dc.lft.to/lastmile_qr_scan"}, "fusion_lon": 0.0}, {"lat": 38.9580545, "is_disabled": 0, "type": "electric_scooter", "lon": -77.03162566666667, "bike_id": "1a34d90b19157b39e7b9c70c4fc602a6", "fusion_lat": 0.0, "name": "1a34d90b19157b39e7b9c70c4fc602a6", "is_reserved": 0, "rental_uris": {"android": "https://dc.lft.to/lastmile_qr_scan", "ios": "https://dc.lft.to/lastmile_qr_scan"}, "fusion_lon": 0.0}, {"lat": 38.864518, "is_disabled": 0, "type": "electric_bike", "lon": -76.94540533333333, "bike_id": "cee9decde1513c6b0b67e09343a3bd04", "fusion_lat": 0.0, "name": "cee9decde1513c6b0b67e09343a3bd04", "is_reserved": 0, "rental_uris": {"android": "https://dc.lft.to/lastmile_qr_scan", "ios": "https://dc.lft.to/lastmile_qr_scan"}, "fusion_lon": 0.0}, {"lat": 38.87143533333333, "is_disabled": 0, "type": "electric_bike", "lon": -76.93703333333333, "bike_id": "dc10ac1956c974d58dc055c14c8c3166", "fusion_lat": 0.0, "name": "dc10ac1956c974d58dc055c14c8c3166", "is_reserved": 0, "rental_uris": {"android": "https://dc.lft.to/lastmile_qr_scan", "ios": "https://dc.lft.to/lastmile_qr_scan"}, "fusion_lon": 0.0}, {"lat": 38.90270366666667, "is_disabled": 0, "type": "electric_scooter", "lon": -77.03370033333333, "bike_id": "c56ecc459b45adc65e90eca8c1abd6c0", "fusion_lat": 0.0, "name": "c56ecc459b45adc65e90eca8c1abd6c0", "is_reserved": 0, "rental_uris": {"android": "https://dc.lft.to/lastmile_qr_scan", "ios": "https://dc.lft.to/lastmile_qr_scan"}, "fusion_lon": 0.0}, {"lat": 38.85451183333333, "is_disabled": 0, "type": "electric_scooter", "lon": -76.98573233333333, "bike_id": "2dc7b910c94f1489381b93a05780964f", "fusion_lat": 0.0, "name": "2dc7b910c94f1489381b93a05780964f", "is_reserved": 0, "rental_uris": {"android": "https://dc.lft.to/lastmile_qr_scan", "ios": "https://dc.lft.to/lastmile_qr_scan"}, "fusion_lon": 0.0}, {"lat": 38.9183325, "is_disabled": 0, "type": "electric_scooter", "lon": -77.03185966666666, "bike_id": "a2454ac3b92d5342916f21f484934867", "fusion_lat": 0.0, "name": "a2454ac3b92d5342916f21f484934867", "is_reserved": 0, "rental_uris": {"android": "https://dc.lft.to/lastmile_qr_scan", "ios": "https://dc.lft.to/lastmile_qr_scan"}, "fusion_lon": 0.0}, {"lat": 38.90208616666666, "is_disabled": 0, "type": "electric_scooter", "lon": -77.02371583333333, "bike_id": "3a0510d44f7bda5f7c086f349cf1dc13", "fusion_lat": 0.0, "name": "3a0510d44f7bda5f7c086f349cf1dc13", "is_reserved": 0, "rental_uris": {"android": "https://dc.lft.to/lastmile_qr_scan", "ios": "https://dc.lft.to/lastmile_qr_scan"}, "fusion_lon": 0.0}, {"lat": 38.9078565, "is_disabled": 0, "type": "electric_scooter", "lon": -77.0228765, "bike_id": "8bd7dcc1950b340f084d8d85b8898b49", "fusion_lat": 0.0, "name": "8bd7dcc1950b340f084d8d85b8898b49", "is_reserved": 0, "rental_uris": {"android": "https://dc.lft.to/lastmile_qr_scan", "ios": "https://dc.lft.to/lastmile_qr_scan"}, "fusion_lon": 0.0}, {"lat": 38.88970466666667, "is_disabled": 0, "type": "electric_scooter", "lon": -76.9793705, "bike_id": "092e6c7daae614bd85412c9ba1a15bae", "fusion_lat": 0.0, "name": "092e6c7daae614bd85412c9ba1a15bae", "is_reserved": 0, "rental_uris": {"android": "https://dc.lft.to/lastmile_qr_scan", "ios": "https://dc.lft.to/lastmile_qr_scan"}, "fusion_lon": 0.0}, {"lat": 38.91407933333333, "is_disabled": 0, "type": "electric_scooter", "lon": -77.02933166666666, "bike_id": "9da3eb4fdee73a6de61669c40e34faf0", "fusion_lat": 0.0, "name": "9da3eb4fdee73a6de61669c40e34faf0", "is_reserved": 0, "rental_uris": {"android": "https://dc.lft.to/lastmile_qr_scan", "ios": "https://dc.lft.to/lastmile_qr_scan"}, "fusion_lon": 0.0}, {"lat": 38.91610516666667, "is_disabled": 0, "type": "electric_scooter", "lon": -77.0295765, "bike_id": "f6ec25d0033e3621a347b0a0288b5008", "fusion_lat": 0.0, "name": "f6ec25d0033e3621a347b0a0288b5008", "is_reserved": 0, "rental_uris": {"android": "https://dc.lft.to/lastmile_qr_scan", "ios": "https://dc.lft.to/lastmile_qr_scan"}, "fusion_lon": 0.0}, {"lat": 38.9103115, "is_disabled": 0, "type": "electric_scooter", "lon": -76.99807866666667, "bike_id": "a6574cbb6c2d9c5693132845cf2889cb", "fusion_lat": 0.0, "name": "a6574cbb6c2d9c5693132845cf2889cb", "is_reserved": 0, "rental_uris": {"android": "https://dc.lft.to/lastmile_qr_scan", "ios": "https://dc.lft.to/lastmile_qr_scan"}, "fusion_lon": 0.0}, {"lat": 38.929723333333335, "is_disabled": 0, "type": "electric_scooter", "lon": -77.0128655, "bike_id": "2b80efca17509e6c39a2fc184d44f8e4", "fusion_lat": 0.0, "name": "2b80efca17509e6c39a2fc184d44f8e4", "is_reserved": 0, "rental_uris": {"android": "https://dc.lft.to/lastmile_qr_scan", "ios": "https://dc.lft.to/lastmile_qr_scan"}, "fusion_lon": 0.0}, {"lat": 38.91708716666667, "is_disabled": 0, "type": "electric_scooter", "lon": -77.00115683333334, "bike_id": "085bd728aa71b8ceb7af7a102a09778d", "fusion_lat": 0.0, "name": "085bd728aa71b8ceb7af7a102a09778d", "is_reserved": 0, "rental_uris": {"android": "https://dc.lft.to/lastmile_qr_scan", "ios": "https://dc.lft.to/lastmile_qr_scan"}, "fusion_lon": 0.0}, {"lat": 38.952865833333334, "is_disabled": 0, "type": "electric_bike", "lon": -76.94595966666667, "bike_id": "5c9e75f113f53575fdaddad784263b01", "fusion_lat": 0.0, "name": "5c9e75f113f53575fdaddad784263b01", "is_reserved": 0, "rental_uris": {"android": "https://dc.lft.to/lastmile_qr_scan", "ios": "https://dc.lft.to/lastmile_qr_scan"}, "fusion_lon": 0.0}, {"lat": 38.89558666666667, "is_disabled": 0, "type": "electric_scooter", "lon": -76.9307855, "bike_id": "98c286c586405858661ae4d9570f3231", "fusion_lat": 0.0, "name": "98c286c586405858661ae4d9570f3231", "is_reserved": 0, "rental_uris": {"android": "https://dc.lft.to/lastmile_qr_scan", "ios": "https://dc.lft.to/lastmile_qr_scan"}, "fusion_lon": 0.0}, {"lat": 38.898704333333335, "is_disabled": 0, "type": "electric_scooter", "lon": -77.023855, "bike_id": "0dc50510ef332eefd425c9af1a2bf8b2", "fusion_lat": 0.0, "name": "0dc50510ef332eefd425c9af1a2bf8b2", "is_reserved": 0, "rental_uris": {"android": "https://dc.lft.to/lastmile_qr_scan", "ios": "https://dc.lft.to/lastmile_qr_scan"}, "fusion_lon": 0.0}, {"lat": 38.926548333333336, "is_disabled": 0, "type": "electric_scooter", "lon": -77.024325, "bike_id": "686de91c400203cbca4a23106cd5e10e", "fusion_lat": 0.0, "name": "686de91c400203cbca4a23106cd5e10e", "is_reserved": 0, "rental_uris": {"android": "https://dc.lft.to/lastmile_qr_scan", "ios": "https://dc.lft.to/lastmile_qr_scan"}, "fusion_lon": 0.0}, {"lat": 38.920366333333334, "is_disabled": 0, "type": "electric_scooter", "lon": -77.03878016666667, "bike_id": "02aa490541f9e7f2a46a7aeb16021963", "fusion_lat": 0.0, "name": "02aa490541f9e7f2a46a7aeb16021963", "is_reserved": 0, "rental_uris": {"android": "https://dc.lft.to/lastmile_qr_scan", "ios": "https://dc.lft.to/lastmile_qr_scan"}, "fusion_lon": 0.0}, {"lat": 38.93941733333333, "is_disabled": 0, "type": "electric_scooter", "lon": -77.03670783333334, "bike_id": "dc1fe2b42ce9ead81293c57ecb145760", "fusion_lat": 0.0, "name": "dc1fe2b42ce9ead81293c57ecb145760", "is_reserved": 0, "rental_uris": {"android": "https://dc.lft.to/lastmile_qr_scan", "ios": "https://dc.lft.to/lastmile_qr_scan"}, "fusion_lon": 0.0}, {"lat": 38.9396355, "is_disabled": 0, "type": "electric_bike", "lon": -77.36091566666667, "bike_id": "437e42728664160312d3c553989c10d3", "fusion_lat": 0.0, "name": "437e42728664160312d3c553989c10d3", "is_reserved": 0, "rental_uris": {"android": "https://dc.lft.to/lastmile_qr_scan", "ios": "https://dc.lft.to/lastmile_qr_scan"}, "fusion_lon": 0.0}, {"lat": 38.899726333333334, "is_disabled": 0, "type": "electric_scooter", "lon": -77.05702116666667, "bike_id": "885f2f4bba8e9ea81979a6d46fbde5e8", "fusion_lat": 0.0, "name": "885f2f4bba8e9ea81979a6d46fbde5e8", "is_reserved": 0, "rental_uris": {"android": "https://dc.lft.to/lastmile_qr_scan", "ios": "https://dc.lft.to/lastmile_qr_scan"}, "fusion_lon": 0.0}, {"lat": 38.927624333333334, "is_disabled": 0, "type": "electric_scooter", "lon": -77.03204383333333, "bike_id": "ef89b6f5fdd9ba21a18326bb56494acd", "fusion_lat": 0.0, "name": "ef89b6f5fdd9ba21a18326bb56494acd", "is_reserved": 0, "rental_uris": {"android": "https://dc.lft.to/lastmile_qr_scan", "ios": "https://dc.lft.to/lastmile_qr_scan"}, "fusion_lon": 0.0}, {"lat": 38.9065765, "is_disabled": 0, "type": "electric_scooter", "lon": -77.03451483333333, "bike_id": "87643bbfa41faeff2d88f48149a6979a", "fusion_lat": 0.0, "name": "87643bbfa41faeff2d88f48149a6979a", "is_reserved": 0, "rental_uris": {"android": "https://dc.lft.to/lastmile_qr_scan", "ios": "https://dc.lft.to/lastmile_qr_scan"}, "fusion_lon": 0.0}, {"lat": 38.906930333333335, "is_disabled": 0, "type": "electric_scooter", "lon": -76.99948216666667, "bike_id": "e7aefdbb9d333b33ec0304db1b7a6f09", "fusion_lat": 0.0, "name": "e7aefdbb9d333b33ec0304db1b7a6f09", "is_reserved": 0, "rental_uris": {"android": "https://dc.lft.to/lastmile_qr_scan", "ios": "https://dc.lft.to/lastmile_qr_scan"}, "fusion_lon": 0.0}, {"lat": 38.914326833333334, "is_disabled": 0, "type": "electric_scooter", "lon": -77.01697533333333, "bike_id": "393987a66ac2aa52c4bedaa2a14bdd07", "fusion_lat": 0.0, "name": "393987a66ac2aa52c4bedaa2a14bdd07", "is_reserved": 0, "rental_uris": {"android": "https://dc.lft.to/lastmile_qr_scan", "ios": "https://dc.lft.to/lastmile_qr_scan"}, "fusion_lon": 0.0}, {"lat": 38.973302833333335, "is_disabled": 0, "type": "electric_bike", "lon": -77.02149233333333, "bike_id": "ed908df6875cf27e93c913942a51d0fe", "fusion_lat": 0.0, "name": "ed908df6875cf27e93c913942a51d0fe", "is_reserved": 0, "rental_uris": {"android": "https://dc.lft.to/lastmile_qr_scan", "ios": "https://dc.lft.to/lastmile_qr_scan"}, "fusion_lon": 0.0}, {"lat": 38.881269833333334, "is_disabled": 0, "type": "electric_scooter", "lon": -77.00101033333333, "bike_id": "dfff97b9cc59505328f9a4c4cd0f171c", "fusion_lat": 0.0, "name": "dfff97b9cc59505328f9a4c4cd0f171c", "is_reserved": 0, "rental_uris": {"android": "https://dc.lft.to/lastmile_qr_scan", "ios": "https://dc.lft.to/lastmile_qr_scan"}, "fusion_lon": 0.0}, {"lat": 38.927897, "is_disabled": 0, "type": "electric_scooter", "lon": -77.02605216666667, "bike_id": "14654c67fee7665a630aa1b0679e54fa", "fusion_lat": 0.0, "name": "14654c67fee7665a630aa1b0679e54fa", "is_reserved": 0, "rental_uris": {"android": "https://dc.lft.to/lastmile_qr_scan", "ios": "https://dc.lft.to/lastmile_qr_scan"}, "fusion_lon": 0.0}, {"lat": 38.9244, "is_disabled": 0, "type": "electric_scooter", "lon": -77.0340315, "bike_id": "59f6629c22d1dc7c0c31c64c98659c0e", "fusion_lat": 0.0, "name": "59f6629c22d1dc7c0c31c64c98659c0e", "is_reserved": 0, "rental_uris": {"android": "https://dc.lft.to/lastmile_qr_scan", "ios": "https://dc.lft.to/lastmile_qr_scan"}, "fusion_lon": 0.0}, {"lat": 38.90267516666667, "is_disabled": 0, "type": "electric_scooter", "lon": -77.03360783333333, "bike_id": "0c071a525c5b76615cdeab20462956e4", "fusion_lat": 0.0, "name": "0c071a525c5b76615cdeab20462956e4", "is_reserved": 0, "rental_uris": {"android": "https://dc.lft.to/lastmile_qr_scan", "ios": "https://dc.lft.to/lastmile_qr_scan"}, "fusion_lon": 0.0}, {"lat": 38.91335683333333, "is_disabled": 0, "type": "electric_scooter", "lon": -77.0399975, "bike_id": "53d4ab421839b03405143ca0990a2e57", "fusion_lat": 0.0, "name": "53d4ab421839b03405143ca0990a2e57", "is_reserved": 0, "rental_uris": {"android": "https://dc.lft.to/lastmile_qr_scan", "ios": "https://dc.lft.to/lastmile_qr_scan"}, "fusion_lon": 0.0}, {"lat": 38.911841833333334, "is_disabled": 0, "type": "electric_scooter", "lon": -77.0383385, "bike_id": "5ed5ee5da258f81ebd6c6a8a130eb428", "fusion_lat": 0.0, "name": "5ed5ee5da258f81ebd6c6a8a130eb428", "is_reserved": 0, "rental_uris": {"android": "https://dc.lft.to/lastmile_qr_scan", "ios": "https://dc.lft.to/lastmile_qr_scan"}, "fusion_lon": 0.0}, {"lat": 38.897700666666665, "is_disabled": 0, "type": "electric_scooter", "lon": -77.03202066666667, "bike_id": "52a148ca338ed255ea883bd9916c2652", "fusion_lat": 0.0, "name": "52a148ca338ed255ea883bd9916c2652", "is_reserved": 0, "rental_uris": {"android": "https://dc.lft.to/lastmile_qr_scan", "ios": "https://dc.lft.to/lastmile_qr_scan"}, "fusion_lon": 0.0}, {"lat": 38.9366335, "is_disabled": 0, "type": "electric_bike", "lon": -76.95218, "bike_id": "add5ad70817cb95819a0950567e55369", "fusion_lat": 0.0, "name": "add5ad70817cb95819a0950567e55369", "is_reserved": 0, "rental_uris": {"android": "https://dc.lft.to/lastmile_qr_scan", "ios": "https://dc.lft.to/lastmile_qr_scan"}, "fusion_lon": 0.0}, {"lat": 38.8442745, "is_disabled": 0, "type": "electric_scooter", "lon": -76.99777766666666, "bike_id": "e823391167635a399a771c3c5b680f32", "fusion_lat": 0.0, "name": "e823391167635a399a771c3c5b680f32", "is_reserved": 0, "rental_uris": {"android": "https://dc.lft.to/lastmile_qr_scan", "ios": "https://dc.lft.to/lastmile_qr_scan"}, "fusion_lon": 0.0}, {"lat": 39.03434883333333, "is_disabled": 0, "type": "electric_bike", "lon": -77.0428045, "bike_id": "9673f242c9f3c3de24e4ae39424fc3e9", "fusion_lat": 0.0, "name": "9673f242c9f3c3de24e4ae39424fc3e9", "is_reserved": 0, "rental_uris": {"android": "https://dc.lft.to/lastmile_qr_scan", "ios": "https://dc.lft.to/lastmile_qr_scan"}, "fusion_lon": 0.0}, {"lat": 38.93478283333334, "is_disabled": 0, "type": "electric_scooter", "lon": -77.03609883333333, "bike_id": "771575157004a72d4a6d08aea7948096", "fusion_lat": 0.0, "name": "771575157004a72d4a6d08aea7948096", "is_reserved": 0, "rental_uris": {"android": "https://dc.lft.to/lastmile_qr_scan", "ios": "https://dc.lft.to/lastmile_qr_scan"}, "fusion_lon": 0.0}, {"lat": 38.90397633333333, "is_disabled": 0, "type": "electric_scooter", "lon": -77.0485765, "bike_id": "8d3232d998ed731cd49ec8eea210416f", "fusion_lat": 0.0, "name": "8d3232d998ed731cd49ec8eea210416f", "is_reserved": 0, "rental_uris": {"android": "https://dc.lft.to/lastmile_qr_scan", "ios": "https://dc.lft.to/lastmile_qr_scan"}, "fusion_lon": 0.0}, {"lat": 38.880984166666664, "is_disabled": 0, "type": "electric_scooter", "lon": -76.99247, "bike_id": "3c4499ebf3698d59a56ca6185a0dbe86", "fusion_lat": 0.0, "name": "3c4499ebf3698d59a56ca6185a0dbe86", "is_reserved": 0, "rental_uris": {"android": "https://dc.lft.to/lastmile_qr_scan", "ios": "https://dc.lft.to/lastmile_qr_scan"}, "fusion_lon": 0.0}, {"lat": 38.88747016666667, "is_disabled": 0, "type": "electric_scooter", "lon": -77.02830466666667, "bike_id": "66d0a3fe18260ab1d1f9b22cce253945", "fusion_lat": 0.0, "name": "66d0a3fe18260ab1d1f9b22cce253945", "is_reserved": 0, "rental_uris": {"android": "https://dc.lft.to/lastmile_qr_scan", "ios": "https://dc.lft.to/lastmile_qr_scan"}, "fusion_lon": 0.0}, {"lat": 38.85643366666667, "is_disabled": 0, "type": "electric_bike", "lon": -77.112555, "bike_id": "5ca5313b1f6bb43c189913050cb5cabb", "fusion_lat": 0.0, "name": "5ca5313b1f6bb43c189913050cb5cabb", "is_reserved": 0, "rental_uris": {"android": "https://dc.lft.to/lastmile_qr_scan", "ios": "https://dc.lft.to/lastmile_qr_scan"}, "fusion_lon": 0.0}, {"lat": 38.883864333333335, "is_disabled": 0, "type": "electric_scooter", "lon": -77.02428133333333, "bike_id": "ff6f3170816210f07b67e42de826d181", "fusion_lat": 0.0, "name": "ff6f3170816210f07b67e42de826d181", "is_reserved": 0, "rental_uris": {"android": "https://dc.lft.to/lastmile_qr_scan", "ios": "https://dc.lft.to/lastmile_qr_scan"}, "fusion_lon": 0.0}, {"lat": 38.87725666666667, "is_disabled": 0, "type": "electric_scooter", "lon": -77.0170115, "bike_id": "819e4a111c1be1b65c55c19d0dacf78e", "fusion_lat": 0.0, "name": "819e4a111c1be1b65c55c19d0dacf78e", "is_reserved": 0, "rental_uris": {"android": "https://dc.lft.to/lastmile_qr_scan", "ios": "https://dc.lft.to/lastmile_qr_scan"}, "fusion_lon": 0.0}, {"lat": 38.929839, "is_disabled": 0, "type": "electric_scooter", "lon": -77.0383245, "bike_id": "ea7c71f5d6e1fbc4d81592115ca9e1fe", "fusion_lat": 0.0, "name": "ea7c71f5d6e1fbc4d81592115ca9e1fe", "is_reserved": 0, "rental_uris": {"android": "https://dc.lft.to/lastmile_qr_scan", "ios": "https://dc.lft.to/lastmile_qr_scan"}, "fusion_lon": 0.0}, {"lat": 38.882698166666664, "is_disabled": 0, "type": "electric_scooter", "lon": -76.988267, "bike_id": "ab377161a079cf08ae8fd8904f51cecb", "fusion_lat": 0.0, "name": "ab377161a079cf08ae8fd8904f51cecb", "is_reserved": 0, "rental_uris": {"android": "https://dc.lft.to/lastmile_qr_scan", "ios": "https://dc.lft.to/lastmile_qr_scan"}, "fusion_lon": 0.0}, {"lat": 38.9103605, "is_disabled": 0, "type": "electric_scooter", "lon": -77.0411205, "bike_id": "3e2319b7af0dfc925673d6a7efce7a58", "fusion_lat": 0.0, "name": "3e2319b7af0dfc925673d6a7efce7a58", "is_reserved": 0, "rental_uris": {"android": "https://dc.lft.to/lastmile_qr_scan", "ios": "https://dc.lft.to/lastmile_qr_scan"}, "fusion_lon": 0.0}, {"lat": 38.93611833333333, "is_disabled": 0, "type": "electric_scooter", "lon": -77.05629716666667, "bike_id": "202b180efeedabc0051459268cdbc1f1", "fusion_lat": 0.0, "name": "202b180efeedabc0051459268cdbc1f1", "is_reserved": 0, "rental_uris": {"android": "https://dc.lft.to/lastmile_qr_scan", "ios": "https://dc.lft.to/lastmile_qr_scan"}, "fusion_lon": 0.0}, {"lat": 38.91070533333333, "is_disabled": 0, "type": "electric_scooter", "lon": -77.02919683333333, "bike_id": "60aff0d17c4d9a4bafc15d991c8202f5", "fusion_lat": 0.0, "name": "60aff0d17c4d9a4bafc15d991c8202f5", "is_reserved": 0, "rental_uris": {"android": "https://dc.lft.to/lastmile_qr_scan", "ios": "https://dc.lft.to/lastmile_qr_scan"}, "fusion_lon": 0.0}, {"lat": 38.903647166666666, "is_disabled": 0, "type": "electric_scooter", "lon": -77.0409265, "bike_id": "8fbd82b775b516e4b10bbfbb023c334b", "fusion_lat": 0.0, "name": "8fbd82b775b516e4b10bbfbb023c334b", "is_reserved": 0, "rental_uris": {"android": "https://dc.lft.to/lastmile_qr_scan", "ios": "https://dc.lft.to/lastmile_qr_scan"}, "fusion_lon": 0.0}, {"lat": 38.905120833333335, "is_disabled": 0, "type": "electric_scooter", "lon": -77.04481583333333, "bike_id": "40f2db8ed58158a0ac4d39055aadfaf4", "fusion_lat": 0.0, "name": "40f2db8ed58158a0ac4d39055aadfaf4", "is_reserved": 0, "rental_uris": {"android": "https://dc.lft.to/lastmile_qr_scan", "ios": "https://dc.lft.to/lastmile_qr_scan"}, "fusion_lon": 0.0}, {"lat": 38.917079333333334, "is_disabled": 0, "type": "electric_scooter", "lon": -77.040291, "bike_id": "ecb281bc51c8eac59e886729aa309717", "fusion_lat": 0.0, "name": "ecb281bc51c8eac59e886729aa309717", "is_reserved": 0, "rental_uris": {"android": "https://dc.lft.to/lastmile_qr_scan", "ios": "https://dc.lft.to/lastmile_qr_scan"}, "fusion_lon": 0.0}, {"lat": 38.9190875, "is_disabled": 0, "type": "electric_scooter", "lon": -77.03185883333333, "bike_id": "0eda111fcb87336ef396ff7af2989399", "fusion_lat": 0.0, "name": "0eda111fcb87336ef396ff7af2989399", "is_reserved": 0, "rental_uris": {"android": "https://dc.lft.to/lastmile_qr_scan", "ios": "https://dc.lft.to/lastmile_qr_scan"}, "fusion_lon": 0.0}, {"lat": 38.9073025, "is_disabled": 0, "type": "electric_scooter", "lon": -77.023739, "bike_id": "a4fa9830c92e3d6511d3f8fb9bbba94e", "fusion_lat": 0.0, "name": "a4fa9830c92e3d6511d3f8fb9bbba94e", "is_reserved": 0, "rental_uris": {"android": "https://dc.lft.to/lastmile_qr_scan", "ios": "https://dc.lft.to/lastmile_qr_scan"}, "fusion_lon": 0.0}, {"lat": 38.93328616666667, "is_disabled": 0, "type": "electric_scooter", "lon": -77.05722366666667, "bike_id": "3de1f60f06d2a893b812705c6fb5d8c9", "fusion_lat": 0.0, "name": "3de1f60f06d2a893b812705c6fb5d8c9", "is_reserved": 0, "rental_uris": {"android": "https://dc.lft.to/lastmile_qr_scan", "ios": "https://dc.lft.to/lastmile_qr_scan"}, "fusion_lon": 0.0}, {"lat": 38.911856666666665, "is_disabled": 0, "type": "electric_scooter", "lon": -77.03858633333333, "bike_id": "b3e5b86a3b3d68cad8a7c75cbecb0ef5", "fusion_lat": 0.0, "name": "b3e5b86a3b3d68cad8a7c75cbecb0ef5", "is_reserved": 0, "rental_uris": {"android": "https://dc.lft.to/lastmile_qr_scan", "ios": "https://dc.lft.to/lastmile_qr_scan"}, "fusion_lon": 0.0}, {"lat": 38.9213195, "is_disabled": 0, "type": "electric_scooter", "lon": -77.04006033333333, "bike_id": "d66e5f7a54929eb6664d2b7df54ba22b", "fusion_lat": 0.0, "name": "d66e5f7a54929eb6664d2b7df54ba22b", "is_reserved": 0, "rental_uris": {"android": "https://dc.lft.to/lastmile_qr_scan", "ios": "https://dc.lft.to/lastmile_qr_scan"}, "fusion_lon": 0.0}, {"lat": 38.93193183333333, "is_disabled": 0, "type": "electric_scooter", "lon": -77.02832816666667, "bike_id": "5941191c0640b16c0ed94241de6ccbe4", "fusion_lat": 0.0, "name": "5941191c0640b16c0ed94241de6ccbe4", "is_reserved": 0, "rental_uris": {"android": "https://dc.lft.to/lastmile_qr_scan", "ios": "https://dc.lft.to/lastmile_qr_scan"}, "fusion_lon": 0.0}, {"lat": 38.916940833333335, "is_disabled": 0, "type": "electric_scooter", "lon": -77.029535, "bike_id": "9633d04c7f8689ac7d2528e54ff05e73", "fusion_lat": 0.0, "name": "9633d04c7f8689ac7d2528e54ff05e73", "is_reserved": 0, "rental_uris": {"android": "https://dc.lft.to/lastmile_qr_scan", "ios": "https://dc.lft.to/lastmile_qr_scan"}, "fusion_lon": 0.0}, {"lat": 38.91916583333333, "is_disabled": 0, "type": "electric_scooter", "lon": -77.03390516666667, "bike_id": "e99e45dd88676e736391d1c16fcdf95a", "fusion_lat": 0.0, "name": "e99e45dd88676e736391d1c16fcdf95a", "is_reserved": 0, "rental_uris": {"android": "https://dc.lft.to/lastmile_qr_scan", "ios": "https://dc.lft.to/lastmile_qr_scan"}, "fusion_lon": 0.0},