{"data": {"bikes": [{"lon": -77.02599383333333, "is_disabled": 0, "lat": 38.897536, "fusion_lat": 0.0, "is_reserved": 0, "rental_uris": {"ios": "https://dc.lft.to/lastmile_qr_scan", "android": "https://dc.lft.to/lastmile_qr_scan"}, "fusion_lon": 0.0, "type": "electric_scooter", "bike_id": "b96772655798ae81ad48ece04327c9c2", "name": "b96772655798ae81ad48ece04327c9c2"}, {"lon": -77.00603433333333, "is_disabled": 0, "lat": 38.875960166666665, "fusion_lat": 0.0, "is_reserved": 0, "rental_uris": {"ios": "https://dc.lft.to/lastmile_qr_scan", "android": "https://dc.lft.to/lastmile_qr_scan"}, "fusion_lon": 0.0, "type": "electric_scooter", "bike_id": "e3c674bb67c59846491f1a8361f333a1", "name": "e3c674bb67c59846491f1a8361f333a1"}, {"lon": -77.03223816666667, "is_disabled": 0, "lat": 38.907157, "fusion_lat": 0.0, "is_reserved": 0, "rental_uris": {"ios": "https://dc.lft.to/lastmile_qr_scan", "android": "https://dc.lft.to/lastmile_qr_scan"}, "fusion_lon": 0.0, "type": "electric_scooter", "bike_id": "c995ba1c105940e2bef00cecb1f9ebff", "name": "c995ba1c105940e2bef00cecb1f9ebff"}, {"lon": -77.02224366666667, "is_disabled": 0, "lat": 38.892216166666664, "fusion_lat": 0.0, "is_reserved": 0, "rental_uris": {"ios": "https://dc.lft.to/lastmile_qr_scan", "android": "https://dc.lft.to/lastmile_qr_scan"}, "fusion_lon": 0.0, "type": "electric_scooter", "bike_id": "9159944f9936ad017fbea3ca47749e93", "name": "9159944f9936ad017fbea3ca47749e93"}, {"lon": -77.03824333333333, "is_disabled": 0, "lat": 38.9313075, "fusion_lat": 0.0, "is_reserved": 0, "rental_uris": {"ios": "https://dc.lft.to/lastmile_qr_scan", "android": "https://dc.lft.to/lastmile_qr_scan"}, "fusion_lon": 0.0, "type": "electric_scooter", "bike_id": "3359695d25ca9681c55b0099b4e9a37a", "name": "3359695d25ca9681c55b0099b4e9a37a"}, {"lon": -77.01361883333334, "is_disabled": 0, "lat": 38.87118133333333, "fusion_lat": 0.0, "is_reserved": 0, "rental_uris": {"ios": "https://dc.lft.to/lastmile_qr_scan", "android": "https://dc.lft.to/lastmile_qr_scan"}, "fusion_lon": 0.0, "type": "electric_scooter", "bike_id": "66563ed0733aac424305a72b5063ee23", "name": "66563ed0733aac424305a72b5063ee23"}, {"lon": -77.06265, "is_disabled": 0, "lat": 38.90572083333333, "fusion_lat": 0.0, "is_reserved": 0, "rental_uris": {"ios": "https://dc.lft.to/lastmile_qr_scan", "android": "https://dc.lft.to/lastmile_qr_scan"}, "fusion_lon": 0.0, "type": "electric_scooter", "bike_id": "bc74b91e1d7c58c7fc80901bd30153fe", "name": "bc74b91e1d7c58c7fc80901bd30153fe"}, {"lon": -77.0340205, "is_disabled": 0, "lat": 38.912630166666666, "fusion_lat": 0.0, "is_reserved": 0, "rental_uris": {"ios": "https://dc.lft.to/lastmile_qr_scan", "android": "https://dc.lft.to/lastmile_qr_scan"}, "fusion_lon": 0.0, "type": "electric_scooter", "bike_id": "49538c376807529f37262ecef81e9f26", "name": "49538c376807529f37262ecef81e9f26"}, {"lon": -77.03210316666667, "is_disabled": 0, "lat": 38.91698183333333, "fusion_lat": 0.0, "is_reserved": 0, "rental_uris": {"ios": "https://dc.lft.to/lastmile_qr_scan", "android": "https://dc.lft.to/lastmile_qr_scan"}, "fusion_lon": 0.0, "type": "electric_scooter", "bike_id": "56aa30096a99db67bbffaa002d269117", "name": "56aa30096a99db67bbffaa002d269117"}, {"lon": -77.0282965, "is_disabled": 0, "lat": 38.893785333333334, "fusion_lat": 0.0, "is_reserved": 0, "rental_uris": {"ios": "https://dc.lft.to/lastmile_qr_scan", "android": "https://dc.lft.to/lastmile_qr_scan"}, "fusion_lon": 0.0, "type": "electric_scooter", "bike_id": "eec2d9c4298e37d9441b0fe414f8edb0", "name": "eec2d9c4298e37d9441b0fe414f8edb0"}, {"lon": -77.0095555, "is_disabled": 0, "lat": 38.906566, "fusion_lat": 0.0, "is_reserved": 0, "rental_uris": {"ios": "https://dc.lft.to/lastmile_qr_scan", "android": "https://dc.lft.to/lastmile_qr_scan"}, "fusion_lon": 0.0, "type": "electric_scooter", "bike_id": "c712fb7b1a0a6128af8d469ec0c7e47e", "name": "c712fb7b1a0a6128af8d469ec0c7e47e"}, {"lon": -77.03840866666667, "is_disabled": 0, "lat": 38.94189266666667, "fusion_lat": 0.0, "is_reserved": 0, "rental_uris": {"ios": "https://dc.lft.to/lastmile_qr_scan", "android": "https://dc.lft.to/lastmile_qr_scan"}, "fusion_lon": 0.0, "type": "electric_scooter", "bike_id": "eb6c7d2b959cdabb3a2a91f47fb74179", "name": "eb6c7d2b959cdabb3a2a91f47fb74179"}, {"lon": -77.02829733333333, "is_disabled": 0, "lat": 38.88655216666667, "fusion_lat": 0.0, "is_reserved": 0, "rental_uris": {"ios": "https://dc.lft.to/lastmile_qr_scan", "android": "https://dc.lft.to/lastmile_qr_scan"}, "fusion_lon": 0.0, "type": "electric_scooter", "bike_id": "9af23cfbc0b77539be162e26c850e80a", "name": "9af23cfbc0b77539be162e26c850e80a"}, {"lon": -77.02292633333333, "is_disabled": 0, "lat": 38.896992166666664, "fusion_lat": 0.0, "is_reserved": 0, "rental_uris": {"ios": "https://dc.lft.to/lastmile_qr_scan", "android": "https://dc.lft.to/lastmile_qr_scan"}, "fusion_lon": 0.0, "type": "electric_scooter", "bike_id": "bb53c34f9a09f0fa5d99c477b84d78b6", "name": "bb53c34f9a09f0fa5d99c477b84d78b6"}, {"lon": -76.98569883333333, "is_disabled": 0, "lat": 38.866847666666665, "fusion_lat": 0.0, "is_reserved": 0, "rental_uris": {"ios": "https://dc.lft.to/lastmile_qr_scan", "android": "https://dc.lft.to/lastmile_qr_scan"}, "fusion_lon": 0.0, "type": "electric_scooter", "bike_id": "8ba449834b56083a27f638d94594ab73", "name": "8ba449834b56083a27f638d94594ab73"}, {"lon": -77.01372666666667, "is_disabled": 0, "lat": 38.8864345, "fusion_lat": 0.0, "is_reserved": 0, "rental_uris": {"ios": "https://dc.lft.to/lastmile_qr_scan", "android": "https://dc.lft.to/lastmile_qr_scan"}, "fusion_lon": 0.0, "type": "electric_scooter", "bike_id": "2290ede201541be679e554755a0748c2", "name": "2290ede201541be679e554755a0748c2"}, {"lon": -76.9813155, "is_disabled": 0, "lat": 38.870712166666664, "fusion_lat": 0.0, "is_reserved": 0, "rental_uris": {"ios": "https://dc.lft.to/lastmile_qr_scan", "android": "https://dc.lft.to/lastmile_qr_scan"}, "fusion_lon": 0.0, "type": "electric_scooter", "bike_id": "0e0868ca49740952e8ec67c486ffce92", "name": "0e0868ca49740952e8ec67c486ffce92"}, {"lon": -77.02890483333333, "is_disabled": 0, "lat": 38.901404166666666, "fusion_lat": 0.0, "is_reserved": 0, "rental_uris": {"ios": "https://dc.lft.to/lastmile_qr_scan", "android": "https://dc.lft.to/lastmile_qr_scan"}, "fusion_lon": 0.0, "type": "electric_scooter", "bike_id": "f7024eca3c55c9e7ba8c3e961cc36136", "name": "f7024eca3c55c9e7ba8c3e961cc36136"}, {"lon": -77.00646933333333, "is_disabled": 0, "lat": 38.899997166666665, "fusion_lat": 0.0, "is_reserved": 0, "rental_uris": {"ios": "https://dc.lft.to/lastmile_qr_scan", "android": "https://dc.lft.to/lastmile_qr_scan"}, "fusion_lon": 0.0, "type": "electric_scooter", "bike_id": "67891ec654ce7c53fa5aa21dc5fe09fd", "name": "67891ec654ce7c53fa5aa21dc5fe09fd"}, {"lon": -76.98925833333334, "is_disabled": 0, "lat": 38.85811966666667, "fusion_lat": 0.0, "is_reserved": 0, "rental_uris": {"ios": "https://dc.lft.to/lastmile_qr_scan", "android": "https://dc.lft.to/lastmile_qr_scan"}, "fusion_lon": 0.0, "type": "electric_scooter", "bike_id": "99a42b003dbb5121b5584a029769bff8", "name": "99a42b003dbb5121b5584a029769bff8"}, {"lon": -77.023867, "is_disabled": 0, "lat": 38.90229933333333, "fusion_lat": 0.0, "is_reserved": 0, "rental_uris": {"ios": "https://dc.lft.to/lastmile_qr_scan", "android": "https://dc.lft.to/lastmile_qr_scan"}, "fusion_lon": 0.0, "type": "electric_scooter", "bike_id": "7f7826b8b3d3b279246acd2953554bb6", "name": "7f7826b8b3d3b279246acd2953554bb6"}, {"lon": -77.04267216666666, "is_disabled": 0, "lat": 38.908625666666666, "fusion_lat": 0.0, "is_reserved": 0, "rental_uris": {"ios": "https://dc.lft.to/lastmile_qr_scan", "android": "https://dc.lft.to/lastmile_qr_scan"}, "fusion_lon": 0.0, "type": "electric_scooter", "bike_id": "20320fdace222344d8c3cd071f1bb670", "name": "20320fdace222344d8c3cd071f1bb670"}, {"lon": -77.0476555, "is_disabled": 0, "lat": 38.917585333333335, "fusion_lat": 0.0, "is_reserved": 0, "rental_uris": {"ios": "https://dc.lft.to/lastmile_qr_scan", "android": "https://dc.lft.to/lastmile_qr_scan"}, "fusion_lon": 0.0, "type": "electric_scooter", "bike_id": "4baf75e559583e4e593c6755272c8643", "name": "4baf75e559583e4e593c6755272c8643"}, {"lon": -77.01487933333334, "is_disabled": 0, "lat": 38.892195666666666, "fusion_lat": 0.0, "is_reserved": 0, "rental_uris": {"ios": "https://dc.lft.to/lastmile_qr_scan", "android": "https://dc.lft.to/lastmile_qr_scan"}, "fusion_lon": 0.0, "type": "electric_scooter", "bike_id": "f610e5ed59bd2087e3962ee00899ac5f", "name": "f610e5ed59bd2087e3962ee00899ac5f"}, {"lon": -76.980331, "is_disabled": 0, "lat": 38.90788833333333, "fusion_lat": 0.0, "is_reserved": 0, "rental_uris": {"ios": "https://dc.lft.to/lastmile_qr_scan", "android": "https://dc.lft.to/lastmile_qr_scan"}, "fusion_lon": 0.0, "type": "electric_scooter", "bike_id": "a5fdf976b3261069b113d718af97f0bd", "name": "a5fdf976b3261069b113d718af97f0bd"}, {"lon": -77.03201683333333, "is_disabled": 0, "lat": 38.89763116666666, "fusion_lat": 0.0, "is_reserved": 0, "rental_uris": {"ios": "https://dc.lft.to/lastmile_qr_scan", "android": "https://dc.lft.to/lastmile_qr_scan"}, "fusion_lon": 0.0, "type": "electric_scooter", "bike_id": "e80798db9e4bbe459b491f10914c9df0", "name": "e80798db9e4bbe459b491f10914c9df0"}, {"lon": -77.0231425, "is_disabled": 0, "lat": 38.91785383333333, "fusion_lat": 0.0, "is_reserved": 0, "rental_uris": {"ios": "https://dc.lft.to/lastmile_qr_scan", "android": "https://dc.lft.to/lastmile_qr_scan"}, "fusion_lon": 0.0, "type": "electric_scooter", "bike_id": "9d2fd1bf575c8d804e607df677c75306", "name": "9d2fd1bf575c8d804e607df677c75306"}, {"lon": -77.02455, "is_disabled": 0, "lat": 38.9482815, "fusion_lat": 0.0, "is_reserved": 0, "rental_uris": {"ios": "https://dc.lft.to/lastmile_qr_scan", "android": "https://dc.lft.to/lastmile_qr_scan"}, "fusion_lon": 0.0, "type": "electric_scooter", "bike_id": "cff6d553586124fd5bdface66275033d", "name": "cff6d553586124fd5bdface66275033d"}, {"lon": -77.02714866666666, "is_disabled": 0, "lat": 38.907195333333334, "fusion_lat": 0.0, "is_reserved": 0, "rental_uris": {"ios": "https://dc.lft.to/lastmile_qr_scan", "android": "https://dc.lft.to/lastmile_qr_scan"}, "fusion_lon": 0.0, "type": "electric_scooter", "bike_id": "e538836fe47f6bb629564a62995840e7", "name": "e538836fe47f6bb629564a62995840e7"}, {"lon": -77.05905216666666, "is_disabled": 0, "lat": 38.9014395, "fusion_lat": 0.0, "is_reserved": 0, "rental_uris": {"ios": "https://dc.lft.to/lastmile_qr_scan", "android": "https://dc.lft.to/lastmile_qr_scan"}, "fusion_lon": 0.0, "type": "electric_scooter", "bike_id": "940fa4a320496b66c1392df19d603807", "name": "940fa4a320496b66c1392df19d603807"}, {"lon": -76.94249116666667, "is_disabled": 0, "lat": 38.89746816666667, "fusion_lat": 0.0, "is_reserved": 0, "rental_uris": {"ios": "https://dc.lft.to/lastmile_qr_scan", "android": "https://dc.lft.to/lastmile_qr_scan"}, "fusion_lon": 0.0, "type": "electric_bike", "bike_id": "3399cf12d6717c8f86948023eb84cb7a", "name": "3399cf12d6717c8f86948023eb84cb7a"}, {"lon": -77.013283, "is_disabled": 0, "lat": 38.929594333333334, "fusion_lat": 0.0, "is_reserved": 0, "rental_uris": {"ios": "https://dc.lft.to/lastmile_qr_scan", "android": "https://dc.lft.to/lastmile_qr_scan"}, "fusion_lon": 0.0, "type": "electric_bike", "bike_id": "8f9effb89e8926ec9324b003095f4eb1", "name": "8f9effb89e8926ec9324b003095f4eb1"}, {"lon": -77.0418465, "is_disabled": 0, "lat": 38.90626, "fusion_lat": 0.0, "is_reserved": 0, "rental_uris": {"ios": "https://dc.lft.to/lastmile_qr_scan", "android": "https://dc.lft.to/lastmile_qr_scan"}, "fusion_lon": 0.0, "type": "electric_scooter", "bike_id": "554c2c31825f9401c7c5ed51c8d0a14e", "name": "554c2c31825f9401c7c5ed51c8d0a14e"}, {"lon": -76.98718316666667, "is_disabled": 0, "lat": 38.86628066666667, "fusion_lat": 0.0, "is_reserved": 0, "rental_uris": {"ios": "https://dc.lft.to/lastmile_qr_scan", "android": "https://dc.lft.to/lastmile_qr_scan"}, "fusion_lon": 0.0, "type": "electric_scooter", "bike_id": "d217692e7df955e24910feb1fecfbb1d", "name": "d217692e7df955e24910feb1fecfbb1d"}, {"lon": -77.04844533333333, "is_disabled": 0, "lat": 38.91639133333334, "fusion_lat": 0.0, "is_reserved": 0, "rental_uris": {"ios": "https://dc.lft.to/lastmile_qr_scan", "android": "https://dc.lft.to/lastmile_qr_scan"}, "fusion_lon": 0.0, "type": "electric_scooter", "bike_id": "a954af4a62487dc9776f7bb39e1b9b90", "name": "a954af4a62487dc9776f7bb39e1b9b90"}, {"lon": -77.02410433333333, "is_disabled": 0, "lat": 38.905831666666664, "fusion_lat": 0.0, "is_reserved": 0, "rental_uris": {"ios": "https://dc.lft.to/lastmile_qr_scan", "android": "https://dc.lft.to/lastmile_qr_scan"}, "fusion_lon": 0.0, "type": "electric_scooter", "bike_id": "2aa18078aefecb2103db31d62674f3c5", "name": "2aa18078aefecb2103db31d62674f3c5"}, {"lon": -77.05084466666666, "is_disabled": 0, "lat": 38.923437166666666, "fusion_lat": 0.0, "is_reserved": 0, "rental_uris": {"ios": "https://dc.lft.to/lastmile_qr_scan", "android": "https://dc.lft.to/lastmile_qr_scan"}, "fusion_lon": 0.0, "type": "electric_scooter", "bike_id": "d5f01e8361f4b602a7e324bd622d323b", "name": "d5f01e8361f4b602a7e324bd622d323b"}, {"lon": -77.006251, "is_disabled": 0, "lat": 38.871744166666666, "fusion_lat": 0.0, "is_reserved": 0, "rental_uris": {"ios": "https://dc.lft.to/lastmile_qr_scan", "android": "https://dc.lft.to/lastmile_qr_scan"}, "fusion_lon": 0.0, "type": "electric_scooter", "bike_id": "5c257f9751c25d4e84c8410c3215b492", "name": "5c257f9751c25d4e84c8410c3215b492"}, {"lon": -77.03383583333333, "is_disabled": 0, "lat": 38.921547333333336, "fusion_lat": 0.0, "is_reserved": 0, "rental_uris": {"ios": "https://dc.lft.to/lastmile_qr_scan", "android": "https://dc.lft.to/lastmile_qr_scan"}, "fusion_lon": 0.0, "type": "electric_scooter", "bike_id": "346c6f7ec2de6e5a77dcda0dcdb2708d", "name": "346c6f7ec2de6e5a77dcda0dcdb2708d"}, {"lon": -77.03763533333333, "is_disabled": 0, "lat": 38.923272, "fusion_lat": 0.0, "is_reserved": 0, "rental_uris": {"ios": "https://dc.lft.to/lastmile_qr_scan", "android": "https://dc.lft.to/lastmile_qr_scan"}, "fusion_lon": 0.0, "type": "electric_scooter", "bike_id": "947382a7765107df554a495fa3c5cdf2", "name": "947382a7765107df554a495fa3c5cdf2"}, {"lon": -77.02407483333333, "is_disabled": 0, "lat": 38.91401583333333, "fusion_lat": 0.0, "is_reserved": 0, "rental_uris": {"ios": "https://dc.lft.to/lastmile_qr_scan", "android": "https://dc.lft.to/lastmile_qr_scan"}, "fusion_lon": 0.0, "type": "electric_scooter", "bike_id": "54b4c4e443d009435dddc3b8e7952a49", "name": "54b4c4e443d009435dddc3b8e7952a49"}, {"lon": -77.04146083333333, "is_disabled": 0, "lat": 38.9168985, "fusion_lat": 0.0, "is_reserved": 0, "rental_uris": {"ios": "https://dc.lft.to/lastmile_qr_scan", "android": "https://dc.lft.to/lastmile_qr_scan"}, "fusion_lon": 0.0, "type": "electric_scooter", "bike_id": "b03ec82a222f2f4e2fc61de18d024459", "name": "b03ec82a222f2f4e2fc61de18d024459"}, {"lon": -77.02750083333333, "is_disabled": 0, "lat": 38.9170475, "fusion_lat": 0.0, "is_reserved": 0, "rental_uris": {"ios": "https://dc.lft.to/lastmile_qr_scan", "android": "https://dc.lft.to/lastmile_qr_scan"}, "fusion_lon": 0.0, "type": "electric_scooter", "bike_id": "942c6d09d2ac2927300ab69524bb0bd8", "name": "942c6d09d2ac2927300ab69524bb0bd8"}, {"lon": -76.951877, "is_disabled": 0, "lat": 38.89133733333333, "fusion_lat": 0.0, "is_reserved": 0, "rental_uris": {"ios": "https://dc.lft.to/lastmile_qr_scan", "android": "https://dc.lft.to/lastmile_qr_scan"}, "fusion_lon": 0.0, "type": "electric_scooter", "bike_id": "87242b4e5d6691b60896f75f8af140c2", "name": "87242b4e5d6691b60896f75f8af140c2"}, {"lon": -77.04300116666667, "is_disabled": 0, "lat": 38.90661983333333, "fusion_lat": 0.0, "is_reserved": 0, "rental_uris": {"ios": "https://dc.lft.to/lastmile_qr_scan", "android": "https://dc.lft.to/lastmile_qr_scan"}, "fusion_lon": 0.0, "type": "electric_scooter", "bike_id": "76c25f5b12daf63fe0a5206ef24adba7", "name": "76c25f5b12daf63fe0a5206ef24adba7"}, {"lon": -77.02391916666667, "is_disabled": 0, "lat": 38.91141283333333, "fusion_lat": 0.0, "is_reserved": 0, "rental_uris": {"ios": "https://dc.lft.to/lastmile_qr_scan", "android": "https://dc.lft.to/lastmile_qr_scan"}, "fusion_lon": 0.0, "type": "electric_scooter", "bike_id": "c79b5d9499dd63c3cfb702834399f73b", "name": "c79b5d9499dd63c3cfb702834399f73b"}, {"lon": -77.02498533333333, "is_disabled": 0, "lat": 38.9210615, "fusion_lat": 0.0, "is_reserved": 0, "rental_uris": {"ios": "https://dc.lft.to/lastmile_qr_scan", "android": "https://dc.lft.to/lastmile_qr_scan"}, "fusion_lon": 0.0, "type": "electric_scooter", "bike_id": "6f1efe79684a642b6a75ebc82dc34daa", "name": "6f1efe79684a642b6a75ebc82dc34daa"}, {"lon": -77.018906, "is_disabled": 0, "lat": 38.9399405, "fusion_lat": 0.0, "is_reserved": 0, "rental_uris": {"ios": "https://dc.lft.to/lastmile_qr_scan", "android": "https://dc.lft.to/lastmile_qr_scan"}, "fusion_lon": 0.0, "type": "electric_scooter", "bike_id": "27ad60273ebb8bfcced6a783c55e7454", "name": "27ad60273ebb8bfcced6a783c55e7454"}, {"lon": -77.007215, "is_disabled": 0, "lat": 38.87928983333333, "fusion_lat": 0.0, "is_reserved": 0, "rental_uris": {"ios": "https://dc.lft.to/lastmile_qr_scan", "android": "https://dc.lft.to/lastmile_qr_scan"}, "fusion_lon": 0.0, "type": "electric_scooter", "bike_id": "38426424b14101a1e9679e7103206beb", "name": "38426424b14101a1e9679e7103206beb"}, {"lon": -77.04454533333333, "is_disabled": 0, "lat": 38.89731833333333, "fusion_lat": 0.0, "is_reserved": 0, "rental_uris": {"ios": "https://dc.lft.to/lastmile_qr_scan", "android": "https://dc.lft.to/lastmile_qr_scan"}, "fusion_lon": 0.0, "type": "electric_scooter", "bike_id": "f358da75f515d5f3890258b1db303a32", "name": "f358da75f515d5f3890258b1db303a32"}, {"lon": -76.98237433333334, "is_disabled": 0, "lat": 38.908949666666665, "fusion_lat": 0.0, "is_reserved": 0, "rental_uris": {"ios": "https://dc.lft.to/lastmile_qr_scan", "android": "https://dc.lft.to/lastmile_qr_scan"}, "fusion_lon": 0.0, "type": "electric_scooter", "bike_id": "18f498bee4cee86770e4131689342ff0", "name": "18f498bee4cee86770e4131689342ff0"}, {"lon": -77.00053433333333, "is_disabled": 0, "lat": 38.9002745, "fusion_lat": 0.0, "is_reserved": 0, "rental_uris": {"ios": "https://dc.lft.to/lastmile_qr_scan", "android": "https://dc.lft.to/lastmile_qr_scan"}, "fusion_lon": 0.0, "type": "electric_scooter", "bike_id": "7709b6c9a94a0d07c4ec0f2158ac220c", "name": "7709b6c9a94a0d07c4ec0f2158ac220c"}, {"lon": -77.00734733333333, "is_disabled": 0, "lat": 38.9038815, "fusion_lat": 0.0, "is_reserved": 0, "rental_uris": {"ios": "https://dc.lft.to/lastmile_qr_scan", "android": "https://dc.lft.to/lastmile_qr_scan"}, "fusion_lon": 0.0, "type": "electric_scooter", "bike_id": "93011273844993391f85f7f9fcd0a605", "name": "93011273844993391f85f7f9fcd0a605"}, {"lon": -77.02394116666666, "is_disabled": 0, "lat": 38.898469666666664, "fusion_lat": 0.0, "is_reserved": 0, "rental_uris": {"ios": "https://dc.lft.to/lastmile_qr_scan", "android": "https://dc.lft.to/lastmile_qr_scan"}, "fusion_lon": 0.0, "type": "electric_scooter", "bike_id": "5f348414c1fcbe3a7008fe55ce843867", "name": "5f348414c1fcbe3a7008fe55ce843867"}, {"lon": -77.040069, "is_disabled": 0, "lat": 38.92239333333333, "fusion_lat": 0.0, "is_reserved": 0, "rental_uris": {"ios": "https://dc.lft.to/lastmile_qr_scan", "android": "https://dc.lft.to/lastmile_qr_scan"}, "fusion_lon": 0.0, "type": "electric_scooter", "bike_id": "e2b9d0f1c1679f61eba5c39971375368", "name": "e2b9d0f1c1679f61eba5c39971375368"}, {"lon": -77.02695983333334, "is_disabled": 0, "lat": 38.897212333333336, "fusion_lat": 0.0, "is_reserved": 0, "rental_uris": {"ios": "https://dc.lft.to/lastmile_qr_scan", "android": "https://dc.lft.to/lastmile_qr_scan"}, "fusion_lon": 0.0, "type": "electric_scooter", "bike_id": "3917b5a3362e26acbeb7c3c5e57c3a11", "name": "3917b5a3362e26acbeb7c3c5e57c3a11"}, {"lon": -77.0002275, "is_disabled": 0, "lat": 38.90786416666667, "fusion_lat": 0.0, "is_reserved": 0, "rental_uris": {"ios": "https://dc.lft.to/lastmile_qr_scan", "android": "https://dc.lft.to/lastmile_qr_scan"}, "fusion_lon": 0.0, "type": "electric_scooter", "bike_id": "c711a71eeaf34f52305ce6f5eef409e4", "name": "c711a71eeaf34f52305ce6f5eef409e4"}, {"lon": -77.0706285, "is_disabled": 0, "lat": 38.89628316666666, "fusion_lat": 0.0, "is_reserved": 0, "rental_uris": {"ios": "https://dc.lft.to/lastmile_qr_scan", "android": "https://dc.lft.to/lastmile_qr_scan"}, "fusion_lon": 0.0, "type": "electric_scooter", "bike_id": "701f1d80fb0618d2f6a282a2f178fb04", "name": "701f1d80fb0618d2f6a282a2f178fb04"}, {"lon": -77.02276916666666, "is_disabled": 0, "lat": 38.926693, "fusion_lat": 0.0, "is_reserved": 0, "rental_uris": {"ios": "https://dc.lft.to/lastmile_qr_scan", "android": "https://dc.lft.to/lastmile_qr_scan"}, "fusion_lon": 0.0, "type": "electric_scooter", "bike_id": "85268077420dfca4c11352bd6e81d7c5", "name": "85268077420dfca4c11352bd6e81d7c5"}, {"lon": -77.03922416666667, "is_disabled": 0, "lat": 38.928798666666665, "fusion_lat": 0.0, "is_reserved": 0, "rental_uris": {"ios": "https://dc.lft.to/lastmile_qr_scan", "android": "https://dc.lft.to/lastmile_qr_scan"}, "fusion_lon": 0.0, "type": "electric_scooter", "bike_id": "0d28b52aa47af976112f28f374a8f080", "name": "0d28b52aa47af976112f28f374a8f080"}, {"lon": -77.03135, "is_disabled": 0, "lat": 38.92372, "fusion_lat": 0.0, "is_reserved": 0, "rental_uris": {"ios": "https://dc.lft.to/lastmile_qr_scan", "android": "https://dc.lft.to/lastmile_qr_scan"}, "fusion_lon": 0.0, "type": "electric_scooter", "bike_id": "e485db0740178678b20078580005a8f5", "name": "e485db0740178678b20078580005a8f5"}, {"lon": -77.0328855, "is_disabled": 0, "lat": 38.919843666666665, "fusion_lat": 0.0, "is_reserved": 0, "rental_uris": {"ios": "https://dc.lft.to/lastmile_qr_scan", "android": "https://dc.lft.to/lastmile_qr_scan"}, "fusion_lon": 0.0, "type": "electric_scooter", "bike_id": "a2269924e12e07d7a88651302a093a5e", "name": "a2269924e12e07d7a88651302a093a5e"}, {"lon": -77.08934816666667, "is_disabled": 0, "lat": 38.887815833333335, "fusion_lat": 0.0, "is_reserved": 0, "rental_uris": {"ios": "https://dc.lft.to/lastmile_qr_scan", "android": "https://dc.lft.to/lastmile_qr_scan"}, "fusion_lon": 0.0, "type": "electric_bike", "bike_id": "5f6f61b8392fa0c40a90d4ab443be9f2", "name": "5f6f61b8392fa0c40a90d4ab443be9f2"}, {"lon": -77.00574483333334, "is_disabled": 0, "lat": 38.875725333333335, "fusion_lat": 0.0, "is_reserved": 0, "rental_uris": {"ios": "https://dc.lft.to/lastmile_qr_scan", "android": "https://dc.lft.to/lastmile_qr_scan"}, "fusion_lon": 0.0, "type": "electric_scooter", "bike_id": "942e97ed65d9bee1c93564fd743c366d", "name": "942e97ed65d9bee1c93564fd743c366d"}, {"lon": -76.987156, "is_disabled": 0, "lat": 38.86628983333333, "fusion_lat": 0.0, "is_reserved": 0, "rental_uris": {"ios": "https://dc.lft.to/lastmile_qr_scan", "android": "https://dc.lft.to/lastmile_qr_scan"}, "fusion_lon": 0.0, "type": "electric_scooter", "bike_id": "43f32b5c584a72c3f839618d7b4912ad", "name": "43f32b5c584a72c3f839618d7b4912ad"}, {"lon": -77.04054233333333, "is_disabled": 0, "lat": 38.928897, "fusion_lat": 0.0, "is_reserved": 0, "rental_uris": {"ios": "https://dc.lft.to/lastmile_qr_scan", "android": "https://dc.lft.to/lastmile_qr_scan"}, "fusion_lon": 0.0, "type": "electric_scooter", "bike_id": "55a71a538b71e2fda919f53b39c6a59e", "name": "55a71a538b71e2fda919f53b39c6a59e"}, {"lon": -77.027308, "is_disabled": 0, "lat": 38.9096105, "fusion_lat": 0.0, "is_reserved": 0, "rental_uris": {"ios": "https://dc.lft.to/lastmile_qr_scan", "android": "https://dc.lft.to/lastmile_qr_scan"}, "fusion_lon": 0.0, "type": "electric_scooter", "bike_id": "b65fddc1b88b50445b2a977fcfdc91b2", "name": "b65fddc1b88b50445b2a977fcfdc91b2"}, {"lon": -77.03829166666667, "is_disabled": 0, "lat": 38.90777216666667, "fusion_lat": 0.0, "is_reserved": 0, "rental_uris": {"ios": "https://dc.lft.to/lastmile_qr_scan", "android": "https://dc.lft.to/lastmile_qr_scan"}, "fusion_lon": 0.0, "type": "electric_scooter", "bike_id": "f5137f230e8c3d1a2dc836979181a4e9", "name": "f5137f230e8c3d1a2dc836979181a4e9"}, {"lon": -77.00063083333333, "is_disabled": 0, "lat": 38.908285666666664, "fusion_lat": 0.0, "is_reserved": 0, "rental_uris": {"ios": "https://dc.lft.to/lastmile_qr_scan", "android": "https://dc.lft.to/lastmile_qr_scan"}, "fusion_lon": 0.0, "type": "electric_scooter", "bike_id": "a213da06c5970d0ca80de9ae367dae51", "name": "a213da06c5970d0ca80de9ae367dae51"}, {"lon": -77.011078, "is_disabled": 0, "lat": 38.90781716666667, "fusion_lat": 0.0, "is_reserved": 0, "rental_uris": {"ios": "https://dc.lft.to/lastmile_qr_scan", "android": "https://dc.lft.to/lastmile_qr_scan"}, "fusion_lon": 0.0, "type": "electric_scooter", "bike_id": "89e2886473651df27af9ca2fba9def0d", "name": "89e2886473651df27af9ca2fba9def0d"}, {"lon": -76.95591033333334, "is_disabled": 0, "lat": 38.8876945, "fusion_lat": 0.0, "is_reserved": 0, "rental_uris": {"ios": "https://dc.lft.to/lastmile_qr_scan", "android": "https://dc.lft.to/lastmile_qr_scan"}, "fusion_lon": 0.0, "type": "electric_scooter", "bike_id": "a7cd543af65920873fed67d857abf44d", "name": "a7cd543af65920873fed67d857abf44d"}, {"lon": -77.02511, "is_disabled": 0, "lat": 38.996827833333334, "fusion_lat": 0.0, "is_reserved": 0, "rental_uris": {"ios": "https://dc.lft.to/lastmile_qr_scan", "android": "https://dc.lft.to/lastmile_qr_scan"}, "fusion_lon": 0.0, "type": "electric_bike", "bike_id": "40913d4ae42757c8358bbed4a96d3792", "name": "40913d4ae42757c8358bbed4a96d3792"}, {"lon": -77.03664966666666, "is_disabled": 0, "lat": 38.902673, "fusion_lat": 0.0, "is_reserved": 0, "rental_uris": {"ios": "https://dc.lft.to/lastmile_qr_scan", "android": "https://dc.lft.to/lastmile_qr_scan"}, "fusion_lon": 0.0, "type": "electric_scooter", "bike_id": "17cc0897684a156aad8c10a12c45c755", "name": "17cc0897684a156aad8c10a12c45c755"}, {"lon": -76.98535366666667, "is_disabled": 0, "lat": 38.866714, "fusion_lat": 0.0, "is_reserved": 0, "rental_uris": {"ios": "https://dc.lft.to/lastmile_qr_scan", "android": "https://dc.lft.to/lastmile_qr_scan"}, "fusion_lon": 0.0, "type": "electric_scooter", "bike_id": "78684f14cb19729d676001b9d0d59b28", "name": "78684f14cb19729d676001b9d0d59b28"}, {"lon": -77.0506365, "is_disabled": 0, "lat": 38.905353833333336, "fusion_lat": 0.0, "is_reserved": 0, "rental_uris": {"ios": "https://dc.lft.to/lastmile_qr_scan", "android": "https://dc.lft.to/lastmile_qr_scan"}, "fusion_lon": 0.0, "type": "electric_scooter", "bike_id": "bb15193b416e7c3858598270592dd3cb", "name": "bb15193b416e7c3858598270592dd3cb"}, {"lon": -76.93072633333334, "is_disabled": 0, "lat": 38.901656, "fusion_lat": 0.0, "is_reserved": 0, "rental_uris": {"ios": "https://dc.lft.to/lastmile_qr_scan", "android": "https://dc.lft.to/lastmile_qr_scan"}, "fusion_lon": 0.0, "type": "electric_scooter", "bike_id": "836ad90f44463c1964bf2fedf9a83b8f", "name": "836ad90f44463c1964bf2fedf9a83b8f"}, {"lon": -77.02392783333333, "is_disabled": 0, "lat": 38.92076383333333, "fusion_lat": 0.0, "is_reserved": 0, "rental_uris": {"ios": "https://dc.lft.to/lastmile_qr_scan", "android": "https://dc.lft.to/lastmile_qr_scan"}, "fusion_lon": 0.0, "type": "electric_scooter", "bike_id": "45972f3e0de354b501542ae30fc6bbcc", "name": "45972f3e0de354b501542ae30fc6bbcc"}, {"lon": -77.02169616666667, "is_disabled": 0, "lat": 38.913084833333336, "fusion_lat": 0.0, "is_reserved": 0, "rental_uris": {"ios": "https://dc.lft.to/lastmile_qr_scan", "android": "https://dc.lft.to/lastmile_qr_scan"}, "fusion_lon": 0.0, "type": "electric_scooter", "bike_id": "aeb62644e7c351a8014e92dd6e478d7e", "name": "aeb62644e7c351a8014e92dd6e478d7e"}, {"lon": -77.06657966666667, "is_disabled": 0, "lat": 38.95072616666667, "fusion_lat": 0.0, "is_reserved": 0, "rental_uris": {"ios": "https://dc.lft.to/lastmile_qr_scan", "android": "https://dc.lft.to/lastmile_qr_scan"}, "fusion_lon": 0.0, "type": "electric_bike", "bike_id": "6e5b4128833455cdcf99e94b2c751d51", "name": "6e5b4128833455cdcf99e94b2c751d51"}, {"lon": -76.9956635, "is_disabled": 0, "lat": 38.94012166666667, "fusion_lat": 0.0, "is_reserved": 0, "rental_uris": {"ios": "https://dc.lft.to/lastmile_qr_scan", "android": "https://dc.lft.to/lastmile_qr_scan"}, "fusion_lon": 0.0, "type": "electric_bike", "bike_id": "8f089d7c6f8d11e4e94ae69f5f0b5c85", "name": "8f089d7c6f8d11e4e94ae69f5f0b5c85"}, {"lon": -77.0612455, "is_disabled": 0, "lat": 38.943555333333336, "fusion_lat": 0.0, "is_reserved": 0, "rental_uris": {"ios": "https://dc.lft.to/lastmile_qr_scan", "android": "https://dc.lft.to/lastmile_qr_scan"}, "fusion_lon": 0.0, "type": "electric_scooter", "bike_id": "d4ba5c43c45614138db26b86c5775103", "name": "d4ba5c43c45614138db26b86c5775103"}, {"lon": -77.0629345, "is_disabled": 0, "lat": 38.905674, "fusion_lat": 0.0, "is_reserved": 0, "rental_uris": {"ios": "https://dc.lft.to/lastmile_qr_scan", "android": "https://dc.lft.to/lastmile_qr_scan"}, "fusion_lon": 0.0, "type": "electric_scooter", "bike_id": "af39e747af6f13214057ae28745dca3a", "name": "af39e747af6f13214057ae28745dca3a"}, {"lon": -77.04337866666667, "is_disabled": 0, "lat": 38.907284833333335, "fusion_lat": 0.0, "is_reserved": 0, "rental_uris": {"ios": "https://dc.lft.to/lastmile_qr_scan", "android": "https://dc.lft.to/lastmile_qr_scan"}, "fusion_lon": 0.0, "type": "electric_scooter", "bike_id": "80a4299c1951d047006a7b4841c1aa7d", "name": "80a4299c1951d047006a7b4841c1aa7d"}, {"lon": -77.05679116666667, "is_disabled": 0, "lat": 38.95162833333333, "fusion_lat": 0.0, "is_reserved": 0, "rental_uris": {"ios": "https://dc.lft.to/lastmile_qr_scan", "android": "https://dc.lft.to/lastmile_qr_scan"}, "fusion_lon": 0.0, "type": "electric_scooter", "bike_id": "709c3b4ecab561b202a47976ee594ee5", "name": "709c3b4ecab561b202a47976ee594ee5"}, {"lon": -77.024481, "is_disabled": 0, "lat": 38.9384835, "fusion_lat": 0.0, "is_reserved": 0, "rental_uris": {"ios": "https://dc.lft.to/lastmile_qr_scan", "android": "https://dc.lft.to/lastmile_qr_scan"}, "fusion_lon": 0.0, "type": "electric_scooter", "bike_id": "f35158fbd4ed1420da7cedf5dce8d7f8", "name": "f35158fbd4ed1420da7cedf5dce8d7f8"}, {"lon": -77.23264533333334, "is_disabled": 0, "lat": 38.87258383333333, "fusion_lat": 0.0, "is_reserved": 0, "rental_uris": {"ios": "https://dc.lft.to/lastmile_qr_scan", "android": "https://dc.lft.to/lastmile_qr_scan"}, "fusion_lon": 0.0, "type": "electric_bike", "bike_id": "364ff6f1bd8a578daded1728ca6b3c8d", "name": "364ff6f1bd8a578daded1728ca6b3c8d"}, {"lon": -77.03648566666666, "is_disabled": 0, "lat": 38.91786333333334, "fusion_lat": 0.0, "is_reserved": 0, "rental_uris": {"ios": "https://dc.lft.to/lastmile_qr_scan", "android": "https://dc.lft.to/lastmile_qr_scan"}, "fusion_lon": 0.0, "type": "electric_scooter", "bike_id": "1ec215d4cb4ffb5c5a4fad4bce91f1ae", "name": "1ec215d4cb4ffb5c5a4fad4bce91f1ae"}, {"lon": -77.03864166666666, "is_disabled": 0, "lat": 38.9071085, "fusion_lat": 0.0, "is_reserved": 0, "rental_uris": {"ios": "https://dc.lft.to/lastmile_qr_scan", "android": "https://dc.lft.to/lastmile_qr_scan"}, "fusion_lon": 0.0, "type": "electric_scooter", "bike_id": "ca3e9744f685418ec5c4bcbc6ad5e9fd", "name": "ca3e9744f685418ec5c4bcbc6ad5e9fd"}, {"lon": -77.01170616666667, "is_disabled": 0, "lat": 38.89621666666667, "fusion_lat": 0.0, "is_reserved": 0, "rental_uris": {"ios": "https://dc.lft.to/lastmile_qr_scan", "android": "https://dc.lft.to/lastmile_qr_scan"}, "fusion_lon": 0.0, "type": "electric_scooter", "bike_id": "ef751292727d2e4bffcf27e564bf2bfc", "name": "ef751292727d2e4bffcf27e564bf2bfc"}, {"lon": -77.02784133333333, "is_disabled": 0, "lat": 38.927800166666664, "fusion_lat": 0.0, "is_reserved": 0, "rental_uris": {"ios": "https://dc.lft.to/lastmile_qr_scan", "android": "https://dc.lft.to/lastmile_qr_scan"}, "fusion_lon": 0.0, "type": "electric_scooter", "bike_id": "b001d64b2b98d96406560bcabab007a9", "name": "b001d64b2b98d96406560bcabab007a9"}, {"lon": -77.050658, "is_disabled": 0, "lat": 38.90547633333333, "fusion_lat": 0.0, "is_reserved": 0, "rental_uris": {"ios": "https://dc.lft.to/lastmile_qr_scan", "android": "https://dc.lft.to/lastmile_qr_scan"}, "fusion_lon": 0.0, "type": "electric_scooter", "bike_id": "bd24868b0c5303ade6e33abc5b36cbd7", "name": "bd24868b0c5303ade6e33abc5b36cbd7"}, {"lon": -77.04820133333334, "is_disabled": 0, "lat": 38.90970383333333, "fusion_lat": 0.0, "is_reserved": 0, "rental_uris": {"ios": "https://dc.lft.to/lastmile_qr_scan", "android": "https://dc.lft.to/lastmile_qr_scan"}, "fusion_lon": 0.0, "type": "electric_scooter", "bike_id": "d6104fb091b6f3dfa4740d5d81f83b35", "name": "d6104fb091b6f3dfa4740d5d81f83b35"}, {"lon": -77.01850483333334, "is_disabled": 0, "lat": 38.9096935, "fusion_lat": 0.0, "is_reserved": 0, "rental_uris": {"ios": "https://dc.lft.to/lastmile_qr_scan", "android": "https://dc.lft.to/lastmile_qr_scan"}, "fusion_lon": 0.0, "type": "electric_scooter", "bike_id": "96f69ea53daf8ae1c4dfd59123133128", "name": "96f69ea53daf8ae1c4dfd59123133128"}, {"lon": -76.98882116666667, "is_disabled": 0, "lat": 38.866511, "fusion_lat": 0.0, "is_reserved": 0, "rental_uris": {"ios": "https://dc.lft.to/lastmile_qr_scan", "android": "https://dc.lft.to/lastmile_qr_scan"}, "fusion_lon": 0.0, "type": "electric_scooter", "bike_id": "081a005bf2e64b748297e66cd23dd99c", "name": "081a005bf2e64b748297e66cd23dd99c"}, {"lon": -77.02313266666667, "is_disabled": 0, "lat": 38.917849833333335, "fusion_lat": 0.0, "is_reserved": 0, "rental_uris": {"ios": "https://dc.lft.to/lastmile_qr_scan", "android": "https://dc.lft.to/lastmile_qr_scan"}, "fusion_lon": 0.0, "type": "electric_scooter", "bike_id": "d92fa0b94d7e2529d9e672c2e89468e4", "name": "d92fa0b94d7e2529d9e672c2e89468e4"}, {"lon": -77.2289135, "is_disabled": 0, "lat": 38.90958783333333, "fusion_lat": 0.0, "is_reserved": 0, "rental_uris": {"ios": "https://dc.lft.to/lastmile_qr_scan", "android": "https://dc.lft.to/lastmile_qr_scan"}, "fusion_lon": 0.0, "type": "electric_bike", "bike_id": "0d38fb09983e1f94aef30c94540826f6", "name": "0d38fb09983e1f94aef30c94540826f6"}, {"lon": -77.00786666666667, "is_disabled": 0, "lat": 38.87943033333333, "fusion_lat": 0.0, "is_reserved": 0, "rental_uris": {"ios": "https://dc.lft.to/lastmile_qr_scan", "android": "https://dc.lft.to/lastmile_qr_scan"}, "fusion_lon": 0.0, "type": "electric_scooter", "bike_id": "08ed78d51533ae6854398f6a69b457fe", "name": "08ed78d51533ae6854398f6a69b457fe"}, {"lon": -77.03936833333333, "is_disabled": 0, "lat": 38.89858183333333, "fusion_lat": 0.0, "is_reserved": 0, "rental_uris": {"ios": "https://dc.lft.to/lastmile_qr_scan", "android": "https://dc.lft.to/lastmile_qr_scan"}, "fusion_lon": 0.0, "type": "electric_scooter", "bike_id": "c0e51f600de21df754b2e6b3743c7441", "name": "c0e51f600de21df754b2e6b3743c7441"}, {"lon": -77.07467933333334, "is_disabled": 0, "lat": 38.919148, "fusion_lat": 0.0, "is_reserved": 0, "rental_uris": {"ios": "https://dc.lft.to/lastmile_qr_scan", "android": "https://dc.lft.to/lastmile_qr_scan"}, "fusion_lon": 0.0, "type": "electric_scooter", "bike_id": "a5544cac16480fbea4a586e90fc2659c", "name": "a5544cac16480fbea4a586e90fc2659c"}, {"lon": -76.98174916666666, "is_disabled": 0, "lat": 38.86965566666667, "fusion_lat": 0.0, "is_reserved": 0, "rental_uris": {"ios": "https://dc.lft.to/lastmile_qr_scan", "android": "https://dc.lft.to/lastmile_qr_scan"}, "fusion_lon": 0.0, "type": "electric_scooter", "bike_id": "f903b7ef454ac2a9d1e4b03e771bc1c6", "name": "f903b7ef454ac2a9d1e4b03e771bc1c6"}, {"lon": -77.03332283333333, "is_disabled": 0, "lat": 38.8984245, "fusion_lat": 0.0, "is_reserved": 0, "rental_uris": {"ios": "https://dc.lft.to/lastmile_qr_scan", "android": "https://dc.lft.to/lastmile_qr_scan"}, "fusion_lon": 0.0, "type": "electric_scooter", "bike_id": "2904aa49a7f803300620d42f109daaac", "name": "2904aa49a7f803300620d42f109daaac"}, {"lon": -77.04116066666667, "is_disabled": 0, "lat": 38.9106935, "fusion_lat": 0.0, "is_reserved": 0, "rental_uris": {"ios": "https://dc.lft.to/lastmile_qr_scan", "android": "https://dc.lft.to/lastmile_qr_scan"}, "fusion_lon": 0.0, "type": "electric_scooter", "bike_id": "85eb4edfe9269ddaf5f44b9d9251a8dd", "name": "85eb4edfe9269ddaf5f44b9d9251a8dd"}, {"lon": -77.03424616666666, "is_disabled": 0, "lat": 38.928636833333336, "fusion_lat": 0.0, "is_reserved": 0, "rental_uris": {"ios": "https://dc.lft.to/lastmile_qr_scan", "android": "https://dc.lft.to/lastmile_qr_scan"}, "fusion_lon": 0.0, "type": "electric_scooter", "bike_id": "7541316c6475d40cddfc91cc505b4d26", "name": "7541316c6475d40cddfc91cc505b4d26"}, {"lon": -76.97840333333333, "is_disabled": 0, "lat": 38.89854033333334, "fusion_lat": 0.0, "is_reserved": 0, "rental_uris": {"ios": "https://dc.lft.to/lastmile_qr_scan", "android": "https://dc.lft.to/lastmile_qr_scan"}, "fusion_lon": 0.0, "type": "electric_scooter", "bike_id": "f5b6fe78d7cfb14481ec300cee36f8cc", "name": "f5b6fe78d7cfb14481ec300cee36f8cc"}, {"lon": -77.0229765, "is_disabled": 0, "lat": 38.91610083333333, "fusion_lat": 0.0, "is_reserved": 0, "rental_uris": {"ios": "https://dc.lft.to/lastmile_qr_scan", "android": "https://dc.lft.to/lastmile_qr_scan"}, "fusion_lon": 0.0, "type": "electric_scooter", "bike_id": "0ed94fdf626d5e6ccef8f75460d39737", "name": "0ed94fdf626d5e6ccef8f75460d39737"}, {"lon": -77.0357955, "is_disabled": 0, "lat": 38.94246183333333, "fusion_lat": 0.0, "is_reserved": 0, "rental_uris": {"ios": "https://dc.lft.to/lastmile_qr_scan", "android": "https://dc.lft.to/lastmile_qr_scan"}, "fusion_lon": 0.0, "type": "electric_scooter", "bike_id": "ecb382e5b55c1652fff18fa2aff8df95", "name": "ecb382e5b55c1652fff18fa2aff8df95"}, {"lon": -77.03450833333333, "is_disabled": 0, "lat": 38.90578133333333, "fusion_lat": 0.0, "is_reserved": 0, "rental_uris": {"ios": "https://dc.lft.to/lastmile_qr_scan", "android": "https://dc.lft.to/lastmile_qr_scan"}, "fusion_lon": 0.0, "type": "electric_scooter", "bike_id": "8ba157a5b5e4c3ef4726c85844128aa0", "name": "8ba157a5b5e4c3ef4726c85844128aa0"}, {"lon": -77.03903816666667, "is_disabled": 0, "lat": 38.92415, "fusion_lat": 0.0, "is_reserved": 0, "rental_uris": {"ios": "https://dc.lft.to/lastmile_qr_scan", "android": "https://dc.lft.to/lastmile_qr_scan"}, "fusion_lon": 0.0, "type": "electric_scooter", "bike_id": "e74be2d31a9e3120eb6c6b3faff44227", "name": "e74be2d31a9e3120eb6c6b3faff44227"}, {"lon": -76.95758733333334, "is_disabled": 0, "lat": 38.88434566666667, "fusion_lat": 0.0, "is_reserved": 0, "rental_uris": {"ios": "https://dc.lft.to/lastmile_qr_scan", "android": "https://dc.lft.to/lastmile_qr_scan"}, "fusion_lon": 0.0, "type": "electric_scooter", "bike_id": "15e3d8559f01aacec9a037facf460660", "name": "15e3d8559f01aacec9a037facf460660"}, {"lon": -77.03820333333333, "is_disabled": 0, "lat": 38.906746166666665, "fusion_lat": 0.0, "is_reserved": 0, "rental_uris": {"ios": "https://dc.lft.to/lastmile_qr_scan", "android": "https://dc.lft.to/lastmile_qr_scan"}, "fusion_lon": 0.0, "type": "electric_scooter", "bike_id": "c6c4786ff62960c5c64cb38b9e153d8b", "name": "c6c4786ff62960c5c64cb38b9e153d8b"}, {"lon": -77.033376, "is_disabled": 0, "lat": 38.920627833333334, "fusion_lat": 0.0, "is_reserved": 0, "rental_uris": {"ios": "https://dc.lft.to/lastmile_qr_scan", "android": "https://dc.lft.to/lastmile_qr_scan"}, "fusion_lon": 0.0, "type": "electric_scooter", "bike_id": "7fc97a3771e8799884d4671e9598995a", "name": "7fc97a3771e8799884d4671e9598995a"}, {"lon": -77.038698, "is_disabled": 0, "lat": 38.92158516666667, "fusion_lat": 0.0, "is_reserved": 0, "rental_uris": {"ios": "https://dc.lft.to/lastmile_qr_scan", "android": "https://dc.lft.to/lastmile_qr_scan"}, "fusion_lon": 0.0, "type": "electric_scooter", "bike_id": "9b0106964ddaae20ca8ea4bb98172668", "name": "9b0106964ddaae20ca8ea4bb98172668"}, {"lon": -77.05742583333334, "is_disabled": 0, "lat": 38.933878, "fusion_lat": 0.0, "is_reserved": 0, "rental_uris": {"ios": "https://dc.lft.to/lastmile_qr_scan", "android": "https://dc.lft.to/lastmile_qr_scan"}, "fusion_lon": 0.0, "type": "electric_scooter", "bike_id": "81f63f3328aa97f77e3158881cfa9e8e", "name": "81f63f3328aa97f77e3158881cfa9e8e"}, {"lon": -77.01990266666667, "is_disabled": 0, "lat": 38.91554, "fusion_lat": 0.0, "is_reserved": 0, "rental_uris": {"ios": "https://dc.lft.to/lastmile_qr_scan", "android": "https://dc.lft.to/lastmile_qr_scan"}, "fusion_lon": 0.0, "type": "electric_scooter", "bike_id": "414040b2161352fff2ae3c29bc3cd624", "name": "414040b2161352fff2ae3c29bc3cd624"}, {"lon": -77.0246865, "is_disabled": 0, "lat": 38.8975135, "fusion_lat": 0.0, "is_reserved": 0, "rental_uris": {"ios": "https://dc.lft.to/lastmile_qr_scan", "android": "https://dc.lft.to/lastmile_qr_scan"}, "fusion_lon": 0.0, "type": "electric_scooter", "bike_id": "761b7cbc8441e030a95d1c2ec42e6b63", "name": "761b7cbc8441e030a95d1c2ec42e6b63"}, {"lon": -77.04085433333333, "is_disabled": 0, "lat": 38.90488233333333, "fusion_lat": 0.0, "is_reserved": 0, "rental_uris": {"ios": "https://dc.lft.to/lastmile_qr_scan", "android": "https://dc.lft.to/lastmile_qr_scan"}, "fusion_lon": 0.0, "type": "electric_scooter", "bike_id": "9ccedeee0ca28d7aa7b23e104b7bc784", "name": "9ccedeee0ca28d7aa7b23e104b7bc784"}, {"lon": -77.0239275, "is_disabled": 0, "lat": 38.91924916666667, "fusion_lat": 0.0, "is_reserved": 0, "rental_uris": {"ios": "https://dc.lft.to/lastmile_qr_scan", "android": "https://dc.lft.to/lastmile_qr_scan"}, "fusion_lon": 0.0, "type": "electric_scooter", "bike_id": "a147d5e20bfded315ed2a4b2ce02df82", "name": "a147d5e20bfded315ed2a4b2ce02df82"}, {"lon": -77.02718883333333, "is_disabled": 0, "lat": 38.927672666666666, "fusion_lat": 0.0, "is_reserved": 0, "rental_uris": {"ios": "https://dc.lft.to/lastmile_qr_scan", "android": "https://dc.lft.to/lastmile_qr_scan"}, "fusion_lon": 0.0, "type": "electric_scooter", "bike_id": "84ef82f5f90fb84abbd77667c7aa5cd6", "name": "84ef82f5f90fb84abbd77667c7aa5cd6"}, {"lon": -77.06842366666666, "is_disabled": 0, "lat": 38.917313166666666, "fusion_lat": 0.0, "is_reserved": 0, "rental_uris": {"ios": "https://dc.lft.to/lastmile_qr_scan", "android": "https://dc.lft.to/lastmile_qr_scan"}, "fusion_lon": 0.0, "type": "electric_scooter", "bike_id": "c4b31ea3fd91c8a13429c071d9bb3fd6", "name": "c4b31ea3fd91c8a13429c071d9bb3fd6"}, {"lon": -77.0414015, "is_disabled": 0, "lat": 38.90714166666667, "fusion_lat": 0.0, "is_reserved": 0, "rental_uris": {"ios": "https://dc.lft.to/lastmile_qr_scan", "android": "https://dc.lft.to/lastmile_qr_scan"}, "fusion_lon": 0.0, "type": "electric_scooter", "bike_id": "6c23c08b41b21f872f02ef1c3af8f924", "name": "6c23c08b41b21f872f02ef1c3af8f924"}, {"lon": -77.04447483333334, "is_disabled": 0, "lat": 38.91551833333333, "fusion_lat": 0.0, "is_reserved": 0, "rental_uris": {"ios": "https://dc.lft.to/lastmile_qr_scan", "android": "https://dc.lft.to/lastmile_qr_scan"}, "fusion_lon": 0.0, "type": "electric_scooter", "bike_id": "cbbb62d8c9cb766010b713224ddd3db2", "name": "cbbb62d8c9cb766010b713224ddd3db2"}, {"lon": -76.99008366666666, "is_disabled": 0, "lat": 38.865070333333335, "fusion_lat": 0.0, "is_reserved": 0, "rental_uris": {"ios": "https://dc.lft.to/lastmile_qr_scan", "android": "https://dc.lft.to/lastmile_qr_scan"}, "fusion_lon": 0.0, "type": "electric_scooter", "bike_id": "3162080a00005231bb6f6ae5c15bdc4e", "name": "3162080a00005231bb6f6ae5c15bdc4e"}, {"lon": -77.01761383333333, "is_disabled": 0, "lat": 38.88374016666667, "fusion_lat": 0.0, "is_reserved": 0, "rental_uris": {"ios": "https://dc.lft.to/lastmile_qr_scan", "android": "https://dc.lft.to/lastmile_qr_scan"}, "fusion_lon": 0.0, "type": "electric_scooter", "bike_id": "45eb15ea7e84d178850bb55fe5a46331", "name": "45eb15ea7e84d178850bb55fe5a46331"}, {"lon": -77.039423, "is_disabled": 0, "lat": 38.914145, "fusion_lat": 0.0, "is_reserved": 0, "rental_uris": {"ios": "https://dc.lft.to/lastmile_qr_scan", "android": "https://dc.lft.to/lastmile_qr_scan"}, "fusion_lon": 0.0, "type": "electric_scooter", "bike_id": "f5fcfb24de94a443a78269748ec62cfa", "name": "f5fcfb24de94a443a78269748ec62cfa"}, {"lon": -77.02384216666667, "is_disabled": 0, "lat": 38.9198405, "fusion_lat": 0.0, "is_reserved": 0, "rental_uris": {"ios": "https://dc.lft.to/lastmile_qr_scan", "android": "https://dc.lft.to/lastmile_qr_scan"}, "fusion_lon": 0.0, "type": "electric_scooter", "bike_id": "e96991611ff7f57156a6c75a1a8561e4", "name": "e96991611ff7f57156a6c75a1a8561e4"}, {"lon": -76.985648, "is_disabled": 0, "lat": 38.86683216666667, "fusion_lat": 0.0, "is_reserved": 0, "rental_uris": {"ios": "https://dc.lft.to/lastmile_qr_scan", "android": "https://dc.lft.to/lastmile_qr_scan"}, "fusion_lon": 0.0, "type": "electric_scooter", "bike_id": "6484b623c9bc23c9c128d5fb35e02b4c", "name": "6484b623c9bc23c9c128d5fb35e02b4c"}, {"lon": -77.0277945, "is_disabled": 0, "lat": 38.92769533333333, "fusion_lat": 0.0, "is_reserved": 0, "rental_uris": {"ios": "https://dc.lft.to/lastmile_qr_scan", "android": "https://dc.lft.to/lastmile_qr_scan"}, "fusion_lon": 0.0, "type": "electric_scooter", "bike_id": "019d078ff2455700a2ee024137c739b0", "name": "019d078ff2455700a2ee024137c739b0"}, {"lon": -77.02210866666667, "is_disabled": 0, "lat": 38.910401, "fusion_lat": 0.0, "is_reserved": 0, "rental_uris": {"ios": "https://dc.lft.to/lastmile_qr_scan", "android": "https://dc.lft.to/lastmile_qr_scan"}, "fusion_lon": 0.0, "type": "electric_scooter", "bike_id": "f53dccccdcebeb90301326a6f14081b3", "name": "f53dccccdcebeb90301326a6f14081b3"}, {"lon": -77.05026583333333, "is_disabled": 0, "lat": 38.92371833333333, "fusion_lat": 0.0, "is_reserved": 0, "rental_uris": {"ios": "https://dc.lft.to/lastmile_qr_scan", "android": "https://dc.lft.to/lastmile_qr_scan"}, "fusion_lon": 0.0, "type": "electric_scooter", "bike_id": "fbc4a9baa70725f7bbee7722ced7ef46", "name": "fbc4a9baa70725f7bbee7722ced7ef46"}, {"lon": -76.9814505, "is_disabled": 0, "lat": 38.90565083333333, "fusion_lat": 0.0, "is_reserved": 0, "rental_uris": {"ios": "https://dc.lft.to/lastmile_qr_scan", "android": "https://dc.lft.to/lastmile_qr_scan"}, "fusion_lon": 0.0, "type": "electric_scooter", "bike_id": "ca1b3be5a0141596e6ca354a83d7316f", "name": "ca1b3be5a0141596e6ca354a83d7316f"}, {"lon": -77.02463416666667, "is_disabled": 0, "lat": 38.930994, "fusion_lat": 0.0, "is_reserved": 0, "rental_uris": {"ios": "https://dc.lft.to/lastmile_qr_scan", "android": "https://dc.lft.to/lastmile_qr_scan"}, "fusion_lon": 0.0, "type": "electric_scooter", "bike_id": "b6785ce0cbb9c05cad04179e88cbbd2f", "name": "b6785ce0cbb9c05cad04179e88cbbd2f"}, {"lon": -77.0217745, "is_disabled": 0, "lat": 38.90188583333333, "fusion_lat": 0.0, "is_reserved": 0, "rental_uris": {"ios": "https://dc.lft.to/lastmile_qr_scan", "android": "https://dc.lft.to/lastmile_qr_scan"}, "fusion_lon": 0.0, "type": "electric_scooter", "bike_id": "e4a549263c79dfba36db6fb80b67280a", "name": "e4a549263c79dfba36db6fb80b67280a"}, {"lon": -77.04211733333334, "is_disabled": 0, "lat": 38.92317883333333, "fusion_lat": 0.0, "is_reserved": 0, "rental_uris": {"ios": "https://dc.lft.to/lastmile_qr_scan", "android": "https://dc.lft.to/lastmile_qr_scan"}, "fusion_lon": 0.0, "type": "electric_scooter", "bike_id": "4526c876121eb3c06e0cc364585c3ecb", "name": "4526c876121eb3c06e0cc364585c3ecb"}, {"lon": -77.01213483333333, "is_disabled": 0, "lat": 38.919819833333335, "fusion_lat": 0.0, "is_reserved": 0, "rental_uris": {"ios": "https://dc.lft.to/lastmile_qr_scan", "android": "https://dc.lft.to/lastmile_qr_scan"}, "fusion_lon": 0.0, "type": "electric_scooter", "bike_id": "072ba5277d3064c51cfb9c227baabb72", "name": "072ba5277d3064c51cfb9c227baabb72"}, {"lon": -77.02954716666666, "is_disabled": 0, "lat": 38.922953, "fusion_lat": 0.0, "is_reserved": 0, "rental_uris": {"ios": "https://dc.lft.to/lastmile_qr_scan", "android": "https://dc.lft.to/lastmile_qr_scan"}, "fusion_lon": 0.0, "type": "electric_scooter", "bike_id": "02baff58e2558598826993e0afc6d79a", "name": "02baff58e2558598826993e0afc6d79a"}, {"lon": -77.02403433333333, "is_disabled": 0, "lat": 38.9057905, "fusion_lat": 0.0, "is_reserved": 0, "rental_uris": {"ios": "https://dc.lft.to/lastmile_qr_scan", "android": "https://dc.lft.to/lastmile_qr_scan"}, "fusion_lon": 0.0, "type": "electric_scooter", "bike_id": "188a228efde2aefea062fcd1a4feb70a", "name": "188a228efde2aefea062fcd1a4feb70a"}, {"lon": -77.04365916666667, "is_disabled": 0, "lat": 38.91114016666667, "fusion_lat": 0.0, "is_reserved": 0, "rental_uris": {"ios": "https://dc.lft.to/lastmile_qr_scan", "android": "https://dc.lft.to/lastmile_qr_scan"}, "fusion_lon": 0.0, "type": "electric_scooter", "bike_id": "5dff885e60ab414261cb2747fb571ee0", "name": "5dff885e60ab414261cb2747fb571ee0"}, {"lon": -77.032277, "is_disabled": 0, "lat": 38.919374, "fusion_lat": 0.0, "is_reserved": 0, "rental_uris": {"ios": "https://dc.lft.to/lastmile_qr_scan", "android": "https://dc.lft.to/lastmile_qr_scan"}, "fusion_lon": 0.0, "type": "electric_scooter", "bike_id": "d6e5b00a000972a6d91cbf7e7be3fdb7", "name": "d6e5b00a000972a6d91cbf7e7be3fdb7"}, {"lon": -76.99808433333334, "is_disabled": 0, "lat": 38.81998333333333, "fusion_lat": 0.0, "is_reserved": 0, "rental_uris": {"ios": "https://dc.lft.to/lastmile_qr_scan", "android": "https://dc.lft.to/lastmile_qr_scan"}, "fusion_lon": 0.0, "type": "electric_bike", "bike_id": "95b009bbc01dbfb3b79164e108e55d63", "name": "95b009bbc01dbfb3b79164e108e55d63"}, {"lon": -77.03215233333333, "is_disabled": 0, "lat": 38.892331166666665, "fusion_lat": 0.0, "is_reserved": 0, "rental_uris": {"ios": "https://dc.lft.to/lastmile_qr_scan", "android": "https://dc.lft.to/lastmile_qr_scan"}, "fusion_lon": 0.0, "type": "electric_scooter", "bike_id": "bc0ae87986355f780441dcbb52199e0d", "name": "bc0ae87986355f780441dcbb52199e0d"}, {"lon": -77.03209066666666, "is_disabled": 0, "lat": 38.892353666666665, "fusion_lat": 0.0, "is_reserved": 0, "rental_uris": {"ios": "https://dc.lft.to/lastmile_qr_scan", "android": "https://dc.lft.to/lastmile_qr_scan"}, "fusion_lon": 0.0, "type": "electric_scooter", "bike_id": "cb93eb2a3efbe58baf8793c45a7de010", "name": "cb93eb2a3efbe58baf8793c45a7de010"}, {"lon": -77.02540883333333, "is_disabled": 0, "lat": 38.9056625, "fusion_lat": 0.0, "is_reserved": 0, "rental_uris": {"ios": "https://dc.lft.to/lastmile_qr_scan", "android": "https://dc.lft.to/lastmile_qr_scan"}, "fusion_lon": 0.0, "type": "electric_scooter", "bike_id": "e4b303a9efae0a92d977d3217797a57b", "name": "e4b303a9efae0a92d977d3217797a57b"}, {"lon": -77.01485233333334, "is_disabled": 0, "lat": 38.92682666666666, "fusion_lat": 0.0, "is_reserved": 0, "rental_uris": {"ios": "https://dc.lft.to/lastmile_qr_scan", "android": "https://dc.lft.to/lastmile_qr_scan"}, "fusion_lon": 0.0, "type": "electric_scooter", "bike_id": "aa3a70fc36a2eb62b4b04a39fe4f04d2", "name": "aa3a70fc36a2eb62b4b04a39fe4f04d2"}, {"lon": -77.03219216666666, "is_disabled": 0, "lat": 38.92072783333333, "fusion_lat": 0.0, "is_reserved": 0, "rental_uris": {"ios": "https://dc.lft.to/lastmile_qr_scan", "android": "https://dc.lft.to/lastmile_qr_scan"}, "fusion_lon": 0.0, "type": "electric_scooter", "bike_id": "6a9594c96fbdc70e9d6df69ead296bc0", "name": "6a9594c96fbdc70e9d6df69ead296bc0"}, {"lon": -77.0249685, "is_disabled": 0, "lat": 38.9418435, "fusion_lat": 0.0, "is_reserved": 0, "rental_uris": {"ios": "https://dc.lft.to/lastmile_qr_scan", "android": "https://dc.lft.to/lastmile_qr_scan"}, "fusion_lon": 0.0, "type": "electric_scooter", "bike_id": "129c541b3213ab6bad3b3ad67b1e003d", "name": "129c541b3213ab6bad3b3ad67b1e003d"}, {"lon": -76.99545383333333, "is_disabled": 0, "lat": 38.831586333333334, "fusion_lat": 0.0, "is_reserved": 0, "rental_uris": {"ios": "https://dc.lft.to/lastmile_qr_scan", "android": "https://dc.lft.to/lastmile_qr_scan"}, "fusion_lon": 0.0, "type": "electric_bike", "bike_id": "ca331d60b1877032c93ce2896e468f83", "name": "ca331d60b1877032c93ce2896e468f83"}, {"lon": -76.94961433333333, "is_disabled": 0, "lat": 38.894735833333336, "fusion_lat": 0.0, "is_reserved": 0, "rental_uris": {"ios": "https://dc.lft.to/lastmile_qr_scan", "android": "https://dc.lft.to/lastmile_qr_scan"}, "fusion_lon": 0.0, "type": "electric_scooter", "bike_id": "dc6f7b3231120fda632bcacea1577273", "name": "dc6f7b3231120fda632bcacea1577273"}, {"lon": -77.05044883333333, "is_disabled": 0, "lat": 38.9019275, "fusion_lat": 0.0, "is_reserved": 0, "rental_uris": {"ios": "https://dc.lft.to/lastmile_qr_scan", "android": "https://dc.lft.to/lastmile_qr_scan"}, "fusion_lon": 0.0, "type": "electric_scooter", "bike_id": "f6ae6d18b599e1d1dc0a038ab5adee0a", "name": "f6ae6d18b599e1d1dc0a038ab5adee0a"}, {"lon": -77.03281966666667, "is_disabled": 0, "lat": 38.932530666666665, "fusion_lat": 0.0, "is_reserved": 0, "rental_uris": {"ios": "https://dc.lft.to/lastmile_qr_scan", "android": "https://dc.lft.to/lastmile_qr_scan"}, "fusion_lon": 0.0, "type": "electric_scooter", "bike_id": "61104d2dbcc560694e15ac212ec0cd14", "name": "61104d2dbcc560694e15ac212ec0cd14"}, {"lon": -77.0378795, "is_disabled": 0, "lat": 38.92469416666667, "fusion_lat": 0.0, "is_reserved": 0, "rental_uris": {"ios": "https://dc.lft.to/lastmile_qr_scan", "android": "https://dc.lft.to/lastmile_qr_scan"}, "fusion_lon": 0.0, "type": "electric_bike", "bike_id": "04d67bded0d89cf436110ae3909f2a53", "name": "04d67bded0d89cf436110ae3909f2a53"}, {"lon": -76.98567, "is_disabled": 0, "lat": 38.90818816666667, "fusion_lat": 0.0, "is_reserved": 0, "rental_uris": {"ios": "https://dc.lft.to/lastmile_qr_scan", "android": "https://dc.lft.to/lastmile_qr_scan"}, "fusion_lon": 0.0, "type": "electric_scooter", "bike_id": "22acd071861a9faaecb896946bd746b8", "name": "22acd071861a9faaecb896946bd746b8"}, {"lon": -77.1502135, "is_disabled": 0, "lat": 39.0578455, "fusion_lat": 0.0, "is_reserved": 0, "rental_uris": {"ios": "https://dc.lft.to/lastmile_qr_scan", "android": "https://dc.lft.to/lastmile_qr_scan"}, "fusion_lon": 0.0, "type": "electric_bike", "bike_id": "6764657b6128015e8dc606bb69ffdc57", "name": "6764657b6128015e8dc606bb69ffdc57"}, {"lon": -76.98244866666667, "is_disabled": 0, "lat": 38.871194833333334, "fusion_lat": 0.0, "is_reserved": 0, "rental_uris": {"ios": "https://dc.lft.to/lastmile_qr_scan", "android": "https://dc.lft.to/lastmile_qr_scan"}, "fusion_lon": 0.0, "type": "electric_scooter", "bike_id": "fb17de56d6c30c2208e99d37ad5048e9", "name": "fb17de56d6c30c2208e99d37ad5048e9"}, {"lon": -77.00344583333333, "is_disabled": 0, "lat": 38.89533383333333, "fusion_lat": 0.0, "is_reserved": 0, "rental_uris": {"ios": "https://dc.lft.to/lastmile_qr_scan", "android": "https://dc.lft.to/lastmile_qr_scan"}, "fusion_lon": 0.0, "type": "electric_scooter", "bike_id": "1edf4c4e383b374642c9f15c428eecc5", "name": "1edf4c4e383b374642c9f15c428eecc5"}, {"lon": -76.99188316666667, "is_disabled": 0, "lat": 38.858351166666665, "fusion_lat": 0.0, "is_reserved": 0, "rental_uris": {"ios": "https://dc.lft.to/lastmile_qr_scan", "android": "https://dc.lft.to/lastmile_qr_scan"}, "fusion_lon": 0.0, "type": "electric_scooter", "bike_id": "82df0bd1b1c8afa2e5ab217c2a6213b8", "name": "82df0bd1b1c8afa2e5ab217c2a6213b8"}, {"lon": -77.03390916666666, "is_disabled": 0, "lat": 38.923455, "fusion_lat": 0.0, "is_reserved": 0, "rental_uris": {"ios": "https://dc.lft.to/lastmile_qr_scan", "android": "https://dc.lft.to/lastmile_qr_scan"}, "fusion_lon": 0.0, "type": "electric_scooter", "bike_id": "a9459f7c6a57ac3ca39e7c97d48c7ae2", "name": "a9459f7c6a57ac3ca39e7c97d48c7ae2"}, {"lon": -77.03991516666666, "is_disabled": 0, "lat": 38.903104166666665, "fusion_lat": 0.0, "is_reserved": 0, "rental_uris": {"ios": "https://dc.lft.to/lastmile_qr_scan", "android": "https://dc.lft.to/lastmile_qr_scan"}, "fusion_lon": 0.0, "type": "electric_scooter", "bike_id": "bc5b859ef39b2153ecde639b7882cc57", "name": "bc5b859ef39b2153ecde639b7882cc57"}, {"lon": -77.01749433333333, "is_disabled": 0, "lat": 38.91707733333333, "fusion_lat": 0.0, "is_reserved": 0, "rental_uris": {"ios": "https://dc.lft.to/lastmile_qr_scan", "android": "https://dc.lft.to/lastmile_qr_scan"}, "fusion_lon": 0.0, "type": "electric_scooter", "bike_id": "d43ed2a996caf1a232e70296a4da71b0", "name": "d43ed2a996caf1a232e70296a4da71b0"}, {"lon": -76.98142316666667, "is_disabled": 0, "lat": 38.89750083333333, "fusion_lat": 0.0, "is_reserved": 0, "rental_uris": {"ios": "https://dc.lft.to/lastmile_qr_scan", "android": "https://dc.lft.to/lastmile_qr_scan"}, "fusion_lon": 0.0, "type": "electric_scooter", "bike_id": "29f906eeb370400d01b06000d45b65e0", "name": "29f906eeb370400d01b06000d45b65e0"}, {"lon": -77.08862, "is_disabled": 0, "lat": 38.916393666666664, "fusion_lat": 0.0, "is_reserved": 0, "rental_uris": {"ios": "https://dc.lft.to/lastmile_qr_scan", "android": "https://dc.lft.to/lastmile_qr_scan"}, "fusion_lon": 0.0, "type": "electric_scooter", "bike_id": "193d044c19acc9a8e4bd1bb9cff5ba9f", "name": "193d044c19acc9a8e4bd1bb9cff5ba9f"}, {"lon": -77.00399633333333, "is_disabled": 0, "lat": 38.921352, "fusion_lat": 0.0, "is_reserved": 0, "rental_uris": {"ios": "https://dc.lft.to/lastmile_qr_scan", "android": "https://dc.lft.to/lastmile_qr_scan"}, "fusion_lon": 0.0, "type": "electric_scooter", "bike_id": "6a84ba0e26a691c3245d3da51cf08171", "name": "6a84ba0e26a691c3245d3da51cf08171"}, {"lon": -76.95948716666666, "is_disabled": 0, "lat": 38.86190216666667, "fusion_lat": 0.0, "is_reserved": 0, "rental_uris": {"ios": "https://dc.lft.to/lastmile_qr_scan", "android": "https://dc.lft.to/lastmile_qr_scan"}, "fusion_lon": 0.0, "type": "electric_scooter", "bike_id": "a816c420ebd535d80655652bd56fecff", "name": "a816c420ebd535d80655652bd56fecff"}, {"lon": -77.04460516666667, "is_disabled": 0, "lat": 38.91544116666667, "fusion_lat": 0.0, "is_reserved": 0, "rental_uris": {"ios": "https://dc.lft.to/lastmile_qr_scan", "android": "https://dc.lft.to/lastmile_qr_scan"}, "fusion_lon": 0.0, "type": "electric_scooter", "bike_id": "8d5eaa9fda2c97f26b90b262794076cb", "name": "8d5eaa9fda2c97f26b90b262794076cb"}, {"lon": -77.0222745, "is_disabled": 0, "lat": 38.896363, "fusion_lat": 0.0, "is_reserved": 0, "rental_uris": {"ios": "https://dc.lft.to/lastmile_qr_scan", "android": "https://dc.lft.to/lastmile_qr_scan"}, "fusion_lon": 0.0, "type": "electric_scooter", "bike_id": "43b6934159d4444d2962c5763d6ab57a", "name": "43b6934159d4444d2962c5763d6ab57a"}, {"lon": -76.96504183333333, "is_disabled": 0, "lat": 38.876488333333334, "fusion_lat": 0.0, "is_reserved": 0, "rental_uris": {"ios": "https://dc.lft.to/lastmile_qr_scan", "android": "https://dc.lft.to/lastmile_qr_scan"}, "fusion_lon": 0.0, "type": "electric_scooter", "bike_id": "4673ac5bcd92f07cabaad18965046ee8", "name": "4673ac5bcd92f07cabaad18965046ee8"}, {"lon": -77.02156133333334, "is_disabled": 0, "lat": 38.92465116666666, "fusion_lat": 0.0, "is_reserved": 0, "rental_uris": {"ios": "https://dc.lft.to/lastmile_qr_scan", "android": "https://dc.lft.to/lastmile_qr_scan"}, "fusion_lon": 0.0, "type": "electric_scooter", "bike_id": "d189a48c706662f608982f72b4baa953", "name": "d189a48c706662f608982f72b4baa953"}, {"lon": -77.129381, "is_disabled": 0, "lat": 38.865214333333334, "fusion_lat": 0.0, "is_reserved": 0, "rental_uris": {"ios": "https://dc.lft.to/lastmile_qr_scan", "android": "https://dc.lft.to/lastmile_qr_scan"}, "fusion_lon": 0.0, "type": "electric_bike", "bike_id": "b784c8dad2f907b8a8747edf346df46e", "name": "b784c8dad2f907b8a8747edf346df46e"}, {"lon": -77.0312855, "is_disabled": 0, "lat": 38.916244666666664, "fusion_lat": 0.0, "is_reserved": 0, "rental_uris": {"ios": "https://dc.lft.to/lastmile_qr_scan", "android": "https://dc.lft.to/lastmile_qr_scan"}, "fusion_lon": 0.0, "type": "electric_scooter", "bike_id": "51418dae15cc290de07f625fa8700dff", "name": "51418dae15cc290de07f625fa8700dff"}, {"lon": -76.98634516666667, "is_disabled": 0, "lat": 38.910135333333336, "fusion_lat": 0.0, "is_reserved": 0, "rental_uris": {"ios": "https://dc.lft.to/lastmile_qr_scan", "android": "https://dc.lft.to/lastmile_qr_scan"}, "fusion_lon": 0.0, "type": "electric_scooter", "bike_id": "44501b47cbd64642298a0f9de773e1fe", "name": "44501b47cbd64642298a0f9de773e1fe"}, {"lon": -77.02210366666667, "is_disabled": 0, "lat": 38.88686083333333, "fusion_lat": 0.0, "is_reserved": 0, "rental_uris": {"ios": "https://dc.lft.to/lastmile_qr_scan", "android": "https://dc.lft.to/lastmile_qr_scan"}, "fusion_lon": 0.0, "type": "electric_scooter", "bike_id": "74c76ffd04568e30ead6b8c66cc00bbc", "name": "74c76ffd04568e30ead6b8c66cc00bbc"}, {"lon": -77.04497933333333, "is_disabled": 0, "lat": 38.8994895, "fusion_lat": 0.0, "is_reserved": 0, "rental_uris": {"ios": "https://dc.lft.to/lastmile_qr_scan", "android": "https://dc.lft.to/lastmile_qr_scan"}, "fusion_lon": 0.0, "type": "electric_scooter", "bike_id": "aaf3bf98c8d4323fef8aed3d4906060b", "name": "aaf3bf98c8d4323fef8aed3d4906060b"}, {"lon": -77.041473, "is_disabled": 0, "lat": 38.907323, "fusion_lat": 0.0, "is_reserved": 0, "rental_uris": {"ios": "https://dc.lft.to/lastmile_qr_scan", "android": "https://dc.lft.to/lastmile_qr_scan"}, "fusion_lon": 0.0, "type": "electric_scooter", "bike_id": "e413c545554050ed68d208b7c0fe5486", "name": "e413c545554050ed68d208b7c0fe5486"}, {"lon": -77.04647316666667, "is_disabled": 0, "lat": 38.90378716666667, "fusion_lat": 0.0, "is_reserved": 0, "rental_uris": {"ios": "https://dc.lft.to/lastmile_qr_scan", "android": "https://dc.lft.to/lastmile_qr_scan"}, "fusion_lon": 0.0, "type": "electric_scooter", "bike_id": "40b9c11e45704dfc158b206c168cf080", "name": "40b9c11e45704dfc158b206c168cf080"}, {"lon": -77.00337516666667, "is_disabled": 0, "lat": 38.89527, "fusion_lat": 0.0, "is_reserved": 0, "rental_uris": {"ios": "https://dc.lft.to/lastmile_qr_scan", "android": "https://dc.lft.to/lastmile_qr_scan"}, "fusion_lon": 0.0, "type": "electric_scooter", "bike_id": "571e0ba5b808766e25ca04855b951a49", "name": "571e0ba5b808766e25ca04855b951a49"}, {"lon": -77.01991716666667, "is_disabled": 0, "lat": 38.9399285, "fusion_lat": 0.0, "is_reserved": 0, "rental_uris": {"ios": "https://dc.lft.to/lastmile_qr_scan", "android": "https://dc.lft.to/lastmile_qr_scan"}, "fusion_lon": 0.0, "type": "electric_scooter", "bike_id": "5fc9850a59f3cfea8c027ad540575e7c", "name": "5fc9850a59f3cfea8c027ad540575e7c"}, {"lon": -77.00795116666667, "is_disabled": 0, "lat": 38.949203833333335, "fusion_lat": 0.0, "is_reserved": 0, "rental_uris": {"ios": "https://dc.lft.to/lastmile_qr_scan", "android": "https://dc.lft.to/lastmile_qr_scan"}, "fusion_lon": 0.0, "type": "electric_scooter", "bike_id": "1de6c00799a74d3db08517e32857c1f8", "name": "1de6c00799a74d3db08517e32857c1f8"}, {"lon": -76.98909983333333, "is_disabled": 0, "lat": 38.8662785, "fusion_lat": 0.0, "is_reserved": 0, "rental_uris": {"ios": "https://dc.lft.to/lastmile_qr_scan", "android": "https://dc.lft.to/lastmile_qr_scan"}, "fusion_lon": 0.0, "type": "electric_scooter", "bike_id": "8726bbd2e9582f49170441c80a3314f9", "name": "8726bbd2e9582f49170441c80a3314f9"}, {"lon": -77.00127583333334, "is_disabled": 0, "lat": 38.87500766666667, "fusion_lat": 0.0, "is_reserved": 0, "rental_uris": {"ios": "https://dc.lft.to/lastmile_qr_scan", "android": "https://dc.lft.to/lastmile_qr_scan"}, "fusion_lon": 0.0, "type": "electric_scooter", "bike_id": "8e4417b9a2660e92cc17f5e732a2ee37", "name": "8e4417b9a2660e92cc17f5e732a2ee37"}, {"lon": -77.00119, "is_disabled": 0, "lat": 38.925384666666666, "fusion_lat": 0.0, "is_reserved": 0, "rental_uris": {"ios": "https://dc.lft.to/lastmile_qr_scan", "android": "https://dc.lft.to/lastmile_qr_scan"}, "fusion_lon": 0.0, "type": "electric_bike", "bike_id": "1e91152663aa7f3396a5bdcdd8f3f713", "name": "1e91152663aa7f3396a5bdcdd8f3f713"}, {"lon": -77.026386, "is_disabled": 0, "lat": 38.910694166666666, "fusion_lat": 0.0, "is_reserved": 0, "rental_uris": {"ios": "https://dc.lft.to/lastmile_qr_scan", "android": "https://dc.lft.to/lastmile_qr_scan"}, "fusion_lon": 0.0, "type": "electric_scooter", "bike_id": "8fa9f4cd7f54703c28a3526bfa8dd05b", "name": "8fa9f4cd7f54703c28a3526bfa8dd05b"}, {"lon": -77.055662, "is_disabled": 0, "lat": 38.803952333333335, "fusion_lat": 0.0, "is_reserved": 0, "rental_uris": {"ios": "https://dc.lft.to/lastmile_qr_scan", "android": "https://dc.lft.to/lastmile_qr_scan"}, "fusion_lon": 0.0, "type": "electric_bike", "bike_id": "e088077208b622d90129975cd6d804ce", "name": "e088077208b622d90129975cd6d804ce"}, {"lon": -77.036581, "is_disabled": 0, "lat": 38.92384833333333, "fusion_lat": 0.0, "is_reserved": 0, "rental_uris": {"ios": "https://dc.lft.to/lastmile_qr_scan", "android": "https://dc.lft.to/lastmile_qr_scan"}, "fusion_lon": 0.0, "type": "electric_scooter", "bike_id": "57be4205c14294cb8b4935d9b27b5eab", "name": "57be4205c14294cb8b4935d9b27b5eab"}, {"lon": -77.022794, "is_disabled": 0, "lat": 38.895169333333335, "fusion_lat": 0.0, "is_reserved": 0, "rental_uris": {"ios": "https://dc.lft.to/lastmile_qr_scan", "android": "https://dc.lft.to/lastmile_qr_scan"}, "fusion_lon": 0.0, "type": "electric_scooter", "bike_id": "7abe7e705fba6efa76271b071c7f3f98", "name": "7abe7e705fba6efa76271b071c7f3f98"}, {"lon": -77.0053115, "is_disabled": 0, "lat": 38.877213, "fusion_lat": 0.0, "is_reserved": 0, "rental_uris": {"ios": "https://dc.lft.to/lastmile_qr_scan", "android": "https://dc.lft.to/lastmile_qr_scan"}, "fusion_lon": 0.0, "type": "electric_scooter", "bike_id": "f86b3e915ae0d25ed08e26283c385d61", "name": "f86b3e915ae0d25ed08e26283c385d61"}, {"lon": -76.94862016666667, "is_disabled": 0, "lat": 38.894807666666665, "fusion_lat": 0.0, "is_reserved": 0, "rental_uris": {"ios": "https://dc.lft.to/lastmile_qr_scan", "android": "https://dc.lft.to/lastmile_qr_scan"}, "fusion_lon": 0.0, "type": "electric_scooter", "bike_id": "069b8280ee9d7ae1183c84f04be9ac82", "name": "069b8280ee9d7ae1183c84f04be9ac82"}, {"lon": -77.0772335, "is_disabled": 0, "lat": 38.925264, "fusion_lat": 0.0, "is_reserved": 0, "rental_uris": {"ios": "https://dc.lft.to/lastmile_qr_scan", "android": "https://dc.lft.to/lastmile_qr_scan"}, "fusion_lon": 0.0, "type": "electric_scooter", "bike_id": "a8f0c9aeb7c25ba8fca9ec9654b00f1c", "name": "a8f0c9aeb7c25ba8fca9ec9654b00f1c"}, {"lon": -76.97611866666666, "is_disabled": 0, "lat": 38.94016216666667, "fusion_lat": 0.0, "is_reserved": 0, "rental_uris": {"ios": "https://dc.lft.to/lastmile_qr_scan", "android": "https://dc.lft.to/lastmile_qr_scan"}, "fusion_lon": 0.0, "type": "electric_scooter", "bike_id": "0959e9afadfb2a52530dda1d1e50f702", "name": "0959e9afadfb2a52530dda1d1e50f702"}, {"lon": -77.01120116666667, "is_disabled": 0, "lat": 38.89491983333333, "fusion_lat": 0.0, "is_reserved": 0, "rental_uris": {"ios": "https://dc.lft.to/lastmile_qr_scan", "android": "https://dc.lft.to/lastmile_qr_scan"}, "fusion_lon": 0.0, "type": "electric_scooter", "bike_id": "0e48b4911df312407125b73a3dad7aeb", "name": "0e48b4911df312407125b73a3dad7aeb"}, {"lon": -77.05005, "is_disabled": 0, "lat": 38.8922865, "fusion_lat": 0.0, "is_reserved": 0, "rental_uris": {"ios": "https://dc.lft.to/lastmile_qr_scan", "android": "https://dc.lft.to/lastmile_qr_scan"}, "fusion_lon": 0.0, "type": "electric_scooter", "bike_id": "4667ef691746c294263f44365680839b", "name": "4667ef691746c294263f44365680839b"}, {"lon": -77.02182516666667, "is_disabled": 0, "lat": 38.909780166666664, "fusion_lat": 0.0, "is_reserved": 0, "rental_uris": {"ios": "https://dc.lft.to/lastmile_qr_scan", "android": "https://dc.lft.to/lastmile_qr_scan"}, "fusion_lon": 0.0, "type": "electric_scooter", "bike_id": "602b238467bdf5dd3932a0f2ee066415", "name": "602b238467bdf5dd3932a0f2ee066415"}, {"lon": -77.03219016666667, "is_disabled": 0, "lat": 38.917133166666666, "fusion_lat": 0.0, "is_reserved": 0, "rental_uris": {"ios": "https://dc.lft.to/lastmile_qr_scan", "android": "https://dc.lft.to/lastmile_qr_scan"}, "fusion_lon": 0.0, "type": "electric_scooter", "bike_id": "1aac21b1cb3233a6a680977ede48c6be", "name": "1aac21b1cb3233a6a680977ede48c6be"}, {"lon": -77.04127716666666, "is_disabled": 0, "lat": 38.917070333333335, "fusion_lat": 0.0, "is_reserved": 0, "rental_uris": {"ios": "https://dc.lft.to/lastmile_qr_scan", "android": "https://dc.lft.to/lastmile_qr_scan"}, "fusion_lon": 0.0, "type": "electric_scooter", "bike_id": "71c38b5bb9238d1ae85a044ff92f63df", "name": "71c38b5bb9238d1ae85a044ff92f63df"}, {"lon": -77.0334815, "is_disabled": 0, "lat": 38.8923935, "fusion_lat": 0.0, "is_reserved": 0, "rental_uris": {"ios": "https://dc.lft.to/lastmile_qr_scan", "android": "https://dc.lft.to/lastmile_qr_scan"}, "fusion_lon": 0.0, "type": "electric_scooter", "bike_id": "c2fa1d1a3aa5d8b791cb20fb22f3f6db", "name": "c2fa1d1a3aa5d8b791cb20fb22f3f6db"}, {"lon": -77.0344695, "is_disabled": 0, "lat": 38.913289666666664, "fusion_lat": 0.0, "is_reserved": 0, "rental_uris": {"ios": "https://dc.lft.to/lastmile_qr_scan", "android": "https://dc.lft.to/lastmile_qr_scan"}, "fusion_lon": 0.0, "type": "electric_scooter", "bike_id": "17b7c88cea9139e40a823d39e0aa0fd4", "name": "17b7c88cea9139e40a823d39e0aa0fd4"}, {"lon": -76.99479416666667, "is_disabled": 0, "lat": 38.86215766666667, "fusion_lat": 0.0, "is_reserved": 0, "rental_uris": {"ios": "https://dc.lft.to/lastmile_qr_scan", "android": "https://dc.lft.to/lastmile_qr_scan"}, "fusion_lon": 0.0, "type": "electric_scooter", "bike_id": "d2f12f93bd3fa48ab7b9201c6df207f1", "name": "d2f12f93bd3fa48ab7b9201c6df207f1"}, {"lon": -77.01730716666667, "is_disabled": 0, "lat": 38.878136166666664, "fusion_lat": 0.0, "is_reserved": 0, "rental_uris": {"ios": "https://dc.lft.to/lastmile_qr_scan", "android": "https://dc.lft.to/lastmile_qr_scan"}, "fusion_lon": 0.0, "type": "electric_scooter", "bike_id": "453d843b142dd4f213372f996f3de4ee", "name": "453d843b142dd4f213372f996f3de4ee"}, {"lon": -77.03441883333333, "is_disabled": 0, "lat": 38.905759833333335, "fusion_lat": 0.0, "is_reserved": 0, "rental_uris": {"ios": "https://dc.lft.to/lastmile_qr_scan", "android": "https://dc.lft.to/lastmile_qr_scan"}, "fusion_lon": 0.0, "type": "electric_scooter", "bike_id": "e9a03e30163115cd925eee6d08898bf4", "name": "e9a03e30163115cd925eee6d08898bf4"}, {"lon": -77.06071633333333, "is_disabled": 0, "lat": 38.90686916666667, "fusion_lat": 0.0, "is_reserved": 0, "rental_uris": {"ios": "https://dc.lft.to/lastmile_qr_scan", "android": "https://dc.lft.to/lastmile_qr_scan"}, "fusion_lon": 0.0, "type": "electric_scooter", "bike_id": "94131466db8c80b8580d3d51bc2451ff", "name": "94131466db8c80b8580d3d51bc2451ff"}, {"lon": -77.00234583333334, "is_disabled": 0, "lat": 38.8748965, "fusion_lat": 0.0, "is_reserved": 0, "rental_uris": {"ios": "https://dc.lft.to/lastmile_qr_scan", "android": "https://dc.lft.to/lastmile_qr_scan"}, "fusion_lon": 0.0, "type": "electric_scooter", "bike_id": "3c6e27a662ab49417ccdb58587cca0ca", "name": "3c6e27a662ab49417ccdb58587cca0ca"}, {"lon": -77.02592983333334, "is_disabled": 0, "lat": 38.9110345, "fusion_lat": 0.0, "is_reserved": 0, "rental_uris": {"ios": "https://dc.lft.to/lastmile_qr_scan", "android": "https://dc.lft.to/lastmile_qr_scan"}, "fusion_lon": 0.0, "type": "electric_scooter", "bike_id": "3cb35adeab126ba6921372f96aeed723", "name": "3cb35adeab126ba6921372f96aeed723"}, {"lon": -77.035695, "is_disabled": 0, "lat": 38.92709116666666, "fusion_lat": 0.0, "is_reserved": 0, "rental_uris": {"ios": "https://dc.lft.to/lastmile_qr_scan", "android": "https://dc.lft.to/lastmile_qr_scan"}, "fusion_lon": 0.0, "type": "electric_scooter", "bike_id": "afba17bb7fb75e7d49ad36830d997517", "name": "afba17bb7fb75e7d49ad36830d997517"}, {"lon": -77.03635333333334, "is_disabled": 0, "lat": 38.906774166666665, "fusion_lat": 0.0, "is_reserved": 0, "rental_uris": {"ios": "https://dc.lft.to/lastmile_qr_scan", "android": "https://dc.lft.to/lastmile_qr_scan"}, "fusion_lon": 0.0, "type": "electric_scooter", "bike_id": "ebf8012eb988e495bb87341ccc6094d3", "name": "ebf8012eb988e495bb87341ccc6094d3"}, {"lon": -77.117748, "is_disabled": 0, "lat": 38.8316275, "fusion_lat": 0.0, "is_reserved": 0, "rental_uris": {"ios": "https://dc.lft.to/lastmile_qr_scan", "android": "https://dc.lft.to/lastmile_qr_scan"}, "fusion_lon": 0.0, "type": "electric_bike", "bike_id": "8c3afd657b9fb7e25a4691f4e4fbc25a", "name": "8c3afd657b9fb7e25a4691f4e4fbc25a"}, {"lon": -77.044999, "is_disabled": 0, "lat": 38.892441166666664, "fusion_lat": 0.0, "is_reserved": 0, "rental_uris": {"ios": "https://dc.lft.to/lastmile_qr_scan", "android": "https://dc.lft.to/lastmile_qr_scan"}, "fusion_lon": 0.0, "type": "electric_scooter", "bike_id": "d5deed5973d9f25837e78eaa747cd559", "name": "d5deed5973d9f25837e78eaa747cd559"}, {"lon": -76.99375066666667, "is_disabled": 0, "lat": 38.99102633333333, "fusion_lat": 0.0, "is_reserved": 0, "rental_uris": {"ios": "https://dc.lft.to/lastmile_qr_scan", "android": "https://dc.lft.to/lastmile_qr_scan"}, "fusion_lon": 0.0, "type": "electric_bike", "bike_id": "2bc51cf5e4775807234451bd47ae15e0", "name": "2bc51cf5e4775807234451bd47ae15e0"}, {"lon": -76.981792, "is_disabled": 0, "lat": 38.91681233333333, "fusion_lat": 0.0, "is_reserved": 0, "rental_uris": {"ios": "https://dc.lft.to/lastmile_qr_scan", "android": "https://dc.lft.to/lastmile_qr_scan"}, "fusion_lon": 0.0, "type": "electric_scooter", "bike_id": "5aa99a6e9ded7665c460b9cda5bdddfd", "name": "5aa99a6e9ded7665c460b9cda5bdddfd"}, {"lon": -77.01758083333333, "is_disabled": 0, "lat": 38.903495166666666, "fusion_lat": 0.0, "is_reserved": 0, "rental_uris": {"ios": "https://dc.lft.to/lastmile_qr_scan", "android": "https://dc.lft.to/lastmile_qr_scan"}, "fusion_lon": 0.0, "type": "electric_scooter", "bike_id": "a7fb69a41869f56f4cebea8e05b2f987", "name": "a7fb69a41869f56f4cebea8e05b2f987"}, {"lon": -76.9717105, "is_disabled": 0, "lat": 38.87814566666667, "fusion_lat": 0.0, "is_reserved": 0, "rental_uris": {"ios": "https://dc.lft.to/lastmile_qr_scan", "android": "https://dc.lft.to/lastmile_qr_scan"}, "fusion_lon": 0.0, "type": "electric_scooter", "bike_id": "7950e04285023fb295b49133451c2458", "name": "7950e04285023fb295b49133451c2458"}, {"lon": -77.03659116666667, "is_disabled": 0, "lat": 38.91723133333333, "fusion_lat": 0.0, "is_reserved": 0, "rental_uris": {"ios": "https://dc.lft.to/lastmile_qr_scan", "android": "https://dc.lft.to/lastmile_qr_scan"}, "fusion_lon": 0.0, "type": "electric_scooter", "bike_id": "a9527e633052a8daa86f938658fabfc8", "name": "a9527e633052a8daa86f938658fabfc8"}, {"lon": -77.02994583333333, "is_disabled": 0, "lat": 38.90742266666667, "fusion_lat": 0.0, "is_reserved": 0, "rental_uris": {"ios": "https://dc.lft.to/lastmile_qr_scan", "android": "https://dc.lft.to/lastmile_qr_scan"}, "fusion_lon": 0.0, "type": "electric_scooter", "bike_id": "243fcea144324dc57b3c3c5885a51699", "name": "243fcea144324dc57b3c3c5885a51699"}, {"lon": -77.03785266666667, "is_disabled": 0, "lat": 38.926281, "fusion_lat": 0.0, "is_reserved": 0, "rental_uris": {"ios": "https://dc.lft.to/lastmile_qr_scan", "android": "https://dc.lft.to/lastmile_qr_scan"}, "fusion_lon": 0.0, "type": "electric_scooter", "bike_id": "9539b2e4d5e1059874c95225565b8f3a", "name": "9539b2e4d5e1059874c95225565b8f3a"}, {"lon": -77.02482133333334, "is_disabled": 0, "lat": 38.91899183333334, "fusion_lat": 0.0, "is_reserved": 0, "rental_uris": {"ios": "https://dc.lft.to/lastmile_qr_scan", "android": "https://dc.lft.to/lastmile_qr_scan"}, "fusion_lon": 0.0, "type": "electric_scooter", "bike_id": "1647540755d399ef2b7f47067fb340da", "name": "1647540755d399ef2b7f47067fb340da"}, {"lon": -77.00726716666667, "is_disabled": 0, "lat": 38.884958166666664, "fusion_lat": 0.0, "is_reserved": 0, "rental_uris": {"ios": "https://dc.lft.to/lastmile_qr_scan", "android": "https://dc.lft.to/lastmile_qr_scan"}, "fusion_lon": 0.0, "type": "electric_scooter", "bike_id": "9e61d3186a531dbd4269b12d15a22bf7", "name": "9e61d3186a531dbd4269b12d15a22bf7"}, {"lon": -77.0333005, "is_disabled": 0, "lat": 38.89845483333333, "fusion_lat": 0.0, "is_reserved": 0, "rental_uris": {"ios": "https://dc.lft.to/lastmile_qr_scan", "android": "https://dc.lft.to/lastmile_qr_scan"}, "fusion_lon": 0.0, "type": "electric_scooter", "bike_id": "244cfe5c47c7849dc4bfd7dd14daaa03", "name": "244cfe5c47c7849dc4bfd7dd14daaa03"}, {"lon": -77.03288966666666, "is_disabled": 0, "lat": 38.922823, "fusion_lat": 0.0, "is_reserved": 0, "rental_uris": {"ios": "https://dc.lft.to/lastmile_qr_scan", "android": "https://dc.lft.to/lastmile_qr_scan"}, "fusion_lon": 0.0, "type": "electric_scooter", "bike_id": "1c2a3b2515e300183dfca74150394019", "name": "1c2a3b2515e300183dfca74150394019"}, {"lon": -77.20139083333333, "is_disabled": 0, "lat": 38.92214833333333, "fusion_lat": 0.0, "is_reserved": 0, "rental_uris": {"ios": "https://dc.lft.to/lastmile_qr_scan", "android": "https://dc.lft.to/lastmile_qr_scan"}, "fusion_lon": 0.0, "type": "electric_bike", "bike_id": "7a4dcc38e1ab12a2d4fba5e1af112044", "name": "7a4dcc38e1ab12a2d4fba5e1af112044"}, {"lon": -77.0914375, "is_disabled": 0, "lat": 38.8614915, "fusion_lat": 0.0, "is_reserved": 0, "rental_uris": {"ios": "https://dc.lft.to/lastmile_qr_scan", "android": "https://dc.lft.to/lastmile_qr_scan"}, "fusion_lon": 0.0, "type": "electric_bike", "bike_id": "33211ff478aa2d88f36bc7c39419c302", "name": "33211ff478aa2d88f36bc7c39419c302"}, {"lon": -77.0258355, "is_disabled": 0, "lat": 38.94209633333333, "fusion_lat": 0.0, "is_reserved": 0, "rental_uris": {"ios": "https://dc.lft.to/lastmile_qr_scan", "android": "https://dc.lft.to/lastmile_qr_scan"}, "fusion_lon": 0.0, "type": "electric_scooter", "bike_id": "8998fdc17d912c99cb04af1959f34634", "name": "8998fdc17d912c99cb04af1959f34634"}, {"lon": -77.0222125, "is_disabled": 0, "lat": 38.91568766666666, "fusion_lat": 0.0, "is_reserved": 0, "rental_uris": {"ios": "https://dc.lft.to/lastmile_qr_scan", "android": "https://dc.lft.to/lastmile_qr_scan"}, "fusion_lon": 0.0, "type": "electric_scooter", "bike_id": "98e82ef7875d6636cf76285b408c0341", "name": "98e82ef7875d6636cf76285b408c0341"}, {"lon": -77.04756233333333, "is_disabled": 0, "lat": 38.918726, "fusion_lat": 0.0, "is_reserved": 0, "rental_uris": {"ios": "https://dc.lft.to/lastmile_qr_scan", "android": "https://dc.lft.to/lastmile_qr_scan"}, "fusion_lon": 0.0, "type": "electric_scooter", "bike_id": "a75687b21566f02f4239e5c39825a9ba", "name": "a75687b21566f02f4239e5c39825a9ba"}, {"lon": -77.04674233333333, "is_disabled": 0, "lat": 38.893299, "fusion_lat": 0.0, "is_reserved": 0, "rental_uris": {"ios": "https://dc.lft.to/lastmile_qr_scan", "android": "https://dc.lft.to/lastmile_qr_scan"}, "fusion_lon": 0.0, "type": "electric_scooter", "bike_id": "a5e396c04e43a1b9d15bc8954cecd1d1", "name": "a5e396c04e43a1b9d15bc8954cecd1d1"}, {"lon": -77.05742816666667, "is_disabled": 0, "lat": 38.933901, "fusion_lat": 0.0, "is_reserved": 0, "rental_uris": {"ios": "https://dc.lft.to/lastmile_qr_scan", "android": "https://dc.lft.to/lastmile_qr_scan"}, "fusion_lon": 0.0, "type": "electric_scooter", "bike_id": "a51bd95beb9b3e20f2de6887165a727a", "name": "a51bd95beb9b3e20f2de6887165a727a"}, {"lon": -77.03154716666667, "is_disabled": 0, "lat": 38.964405666666664, "fusion_lat": 0.0, "is_reserved": 0, "rental_uris": {"ios": "https://dc.lft.to/lastmile_qr_scan", "android": "https://dc.lft.to/lastmile_qr_scan"}, "fusion_lon": 0.0, "type": "electric_bike", "bike_id": "5686a1e7fc902e86d4aafb2759fdf0c8", "name": "5686a1e7fc902e86d4aafb2759fdf0c8"}, {"lon": -77.02402166666667, "is_disabled": 0, "lat": 38.91759616666667, "fusion_lat": 0.0, "is_reserved": 0, "rental_uris": {"ios": "https://dc.lft.to/lastmile_qr_scan", "android": "https://dc.lft.to/lastmile_qr_scan"}, "fusion_lon": 0.0, "type": "electric_scooter", "bike_id": "5705bed0fdd6fd1197620b8bc5fe43dc", "name": "5705bed0fdd6fd1197620b8bc5fe43dc"}, {"lon": -76.97097666666667, "is_disabled": 0, "lat": 38.8706195, "fusion_lat": 0.0, "is_reserved": 0, "rental_uris": {"ios": "https://dc.lft.to/lastmile_qr_scan", "android": "https://dc.lft.to/lastmile_qr_scan"}, "fusion_lon": 0.0, "type": "electric_scooter", "bike_id": "7345030e92b0696f00dcc9cf6a482257", "name": "7345030e92b0696f00dcc9cf6a482257"}, {"lon": -76.94638083333334, "is_disabled": 0, "lat": 38.89868216666667, "fusion_lat": 0.0, "is_reserved": 0, "rental_uris": {"ios": "https://dc.lft.to/lastmile_qr_scan", "android": "https://dc.lft.to/lastmile_qr_scan"}, "fusion_lon": 0.0, "type": "electric_scooter", "bike_id": "c08559f2448f2cb77fe6aae45ad00ada", "name": "c08559f2448f2cb77fe6aae45ad00ada"}, {"lon": -77.02234566666667, "is_disabled": 0, "lat": 38.93474416666667, "fusion_lat": 0.0, "is_reserved": 0, "rental_uris": {"ios": "https://dc.lft.to/lastmile_qr_scan", "android": "https://dc.lft.to/lastmile_qr_scan"}, "fusion_lon": 0.0, "type": "electric_scooter", "bike_id": "314756beba687ee04e0d262ca5b6672d", "name": "314756beba687ee04e0d262ca5b6672d"}, {"lon": -77.00607816666667, "is_disabled": 0, "lat": 38.87179716666667, "fusion_lat": 0.0, "is_reserved": 0, "rental_uris": {"ios": "https://dc.lft.to/lastmile_qr_scan", "android": "https://dc.lft.to/lastmile_qr_scan"}, "fusion_lon": 0.0, "type": "electric_scooter", "bike_id": "4ba7c216ef9325ffd835b677ab94c0a5", "name": "4ba7c216ef9325ffd835b677ab94c0a5"}, {"lon": -77.005818, "is_disabled": 0, "lat": 38.902672833333334, "fusion_lat": 0.0, "is_reserved": 0, "rental_uris": {"ios": "https://dc.lft.to/lastmile_qr_scan", "android": "https://dc.lft.to/lastmile_qr_scan"}, "fusion_lon": 0.0, "type": "electric_scooter", "bike_id": "c4c1e652edf6c4ab1c016d76b9c97e20", "name": "c4c1e652edf6c4ab1c016d76b9c97e20"}, {"lon": -77.00825133333333, "is_disabled": 0, "lat": 38.877033833333336, "fusion_lat": 0.0, "is_reserved": 0, "rental_uris": {"ios": "https://dc.lft.to/lastmile_qr_scan", "android": "https://dc.lft.to/lastmile_qr_scan"}, "fusion_lon": 0.0, "type": "electric_scooter", "bike_id": "2170df56fee712d8d6b26f0da9d53c8e", "name": "2170df56fee712d8d6b26f0da9d53c8e"}, {"lon": -77.0996095, "is_disabled": 0, "lat": 38.857935, "fusion_lat": 0.0, "is_reserved": 0, "rental_uris": {"ios": "https://dc.lft.to/lastmile_qr_scan", "android": "https://dc.lft.to/lastmile_qr_scan"}, "fusion_lon": 0.0, "type": "electric_bike", "bike_id": "eb7a0bf548de0c7a5bd7ecb6889c65b1", "name": "eb7a0bf548de0c7a5bd7ecb6889c65b1"}, {"lon": -77.02836016666667, "is_disabled": 0, "lat": 38.89373166666667, "fusion_lat": 0.0, "is_reserved": 0, "rental_uris": {"ios": "https://dc.lft.to/lastmile_qr_scan", "android": "https://dc.lft.to/lastmile_qr_scan"}, "fusion_lon": 0.0, "type": "electric_scooter", "bike_id": "3061199ffd9cde52cab04babc405890d", "name": "3061199ffd9cde52cab04babc405890d"}, {"lon": -76.952468, "is_disabled": 0, "lat": 38.906947333333335, "fusion_lat": 0.0, "is_reserved": 0, "rental_uris": {"ios": "https://dc.lft.to/lastmile_qr_scan", "android": "https://dc.lft.to/lastmile_qr_scan"}, "fusion_lon": 0.0, "type": "electric_bike", "bike_id": "ae0f0779c75ff1927e26987d07b5b5af", "name": "ae0f0779c75ff1927e26987d07b5b5af"}, {"lon": -77.02380783333334, "is_disabled": 0, "lat": 38.9096045, "fusion_lat": 0.0, "is_reserved": 0, "rental_uris": {"ios": "https://dc.lft.to/lastmile_qr_scan", "android": "https://dc.lft.to/lastmile_qr_scan"}, "fusion_lon": 0.0, "type": "electric_scooter", "bike_id": "f5d7c6b13ad9e7d85e5834fc81dcf005", "name": "f5d7c6b13ad9e7d85e5834fc81dcf005"}, {"lon": -77.11791483333333, "is_disabled": 0, "lat": 39.054986, "fusion_lat": 0.0, "is_reserved": 0, "rental_uris": {"ios": "https://dc.lft.to/lastmile_qr_scan", "android": "https://dc.lft.to/lastmile_qr_scan"}, "fusion_lon": 0.0, "type": "electric_bike", "bike_id": "d4c19a9b3514affcea5c522e922baaa8", "name": "d4c19a9b3514affcea5c522e922baaa8"}, {"lon": -77.02512016666667, "is_disabled": 0, "lat": 38.941702166666666, "fusion_lat": 0.0, "is_reserved": 0, "rental_uris": {"ios": "https://dc.lft.to/lastmile_qr_scan", "android": "https://dc.lft.to/lastmile_qr_scan"}, "fusion_lon": 0.0, "type": "electric_bike", "bike_id": "a3a0bd54c2cc7c3bc218aa4a384e0d82", "name": "a3a0bd54c2cc7c3bc218aa4a384e0d82"}, {"lon": -77.00682483333334, "is_disabled": 0, "lat": 38.8717235, "fusion_lat": 0.0, "is_reserved": 0, "rental_uris": {"ios": "https://dc.lft.to/lastmile_qr_scan", "android": "https://dc.lft.to/lastmile_qr_scan"}, "fusion_lon": 0.0, "type": "electric_scooter", "bike_id": "aa76c32622cb3b1a74271c9c10aa7411", "name": "aa76c32622cb3b1a74271c9c10aa7411"}, {"lon": -77.01142233333333, "is_disabled": 0, "lat": 38.906445166666664, "fusion_lat": 0.0, "is_reserved": 0, "rental_uris": {"ios": "https://dc.lft.to/lastmile_qr_scan", "android": "https://dc.lft.to/lastmile_qr_scan"}, "fusion_lon": 0.0, "type": "electric_scooter", "bike_id": "3dd217d6964597dc73fa6b967f76ef91", "name": "3dd217d6964597dc73fa6b967f76ef91"}, {"lon": -77.03545233333334, "is_disabled": 0, "lat": 38.91272516666667, "fusion_lat": 0.0, "is_reserved": 0, "rental_uris": {"ios": "https://dc.lft.to/lastmile_qr_scan", "android": "https://dc.lft.to/lastmile_qr_scan"}, "fusion_lon": 0.0, "type": "electric_scooter", "bike_id": "9dd7aa7ff236b38d25d4a8abeae406ab", "name": "9dd7aa7ff236b38d25d4a8abeae406ab"}, {"lon": -77.02389066666667, "is_disabled": 0, "lat": 38.9068855, "fusion_lat": 0.0, "is_reserved": 0, "rental_uris": {"ios": "https://dc.lft.to/lastmile_qr_scan", "android": "https://dc.lft.to/lastmile_qr_scan"}, "fusion_lon": 0.0, "type": "electric_scooter", "bike_id": "deb5dc90f6535ea83eb764901eef20b0", "name": "deb5dc90f6535ea83eb764901eef20b0"}, {"lon": -76.99497916666667, "is_disabled": 0, "lat": 38.86246966666667, "fusion_lat": 0.0, "is_reserved": 0, "rental_uris": {"ios": "https://dc.lft.to/lastmile_qr_scan", "android": "https://dc.lft.to/lastmile_qr_scan"}, "fusion_lon": 0.0, "type": "electric_scooter", "bike_id": "fe7f11e84e6531dd89c93212487c7691", "name": "fe7f11e84e6531dd89c93212487c7691"}, {"lon": -77.03450683333334, "is_disabled": 0, "lat": 38.907295500000004, "fusion_lat": 0.0, "is_reserved": 0, "rental_uris": {"ios": "https://dc.lft.to/lastmile_qr_scan", "android": "https://dc.lft.to/lastmile_qr_scan"}, "fusion_lon": 0.0, "type": "electric_scooter", "bike_id": "89ed540f9e8edbd695f4e6b40c3fc89b", "name": "89ed540f9e8edbd695f4e6b40c3fc89b"}, {"lon": -77.005876, "is_disabled": 0, "lat": 38.9060285, "fusion_lat": 0.0, "is_reserved": 0, "rental_uris": {"ios": "https://dc.lft.to/lastmile_qr_scan", "android": "https://dc.lft.to/lastmile_qr_scan"}, "fusion_lon": 0.0, "type": "electric_scooter", "bike_id": "b6b816fa1e319fa7e42662ae92de8eb8", "name": "b6b816fa1e319fa7e42662ae92de8eb8"}, {"lon": -77.00572833333334, "is_disabled": 0, "lat": 38.90567016666667, "fusion_lat": 0.0, "is_reserved": 0, "rental_uris": {"ios": "https://dc.lft.to/lastmile_qr_scan", "android": "https://dc.lft.to/lastmile_qr_scan"}, "fusion_lon": 0.0, "type": "electric_scooter", "bike_id": "10ce39c5ee57233db7b9ac3b0a1a755e", "name": "10ce39c5ee57233db7b9ac3b0a1a755e"}, {"lon": -77.06204816666667, "is_disabled": 0, "lat": 38.933493666666664, "fusion_lat": 0.0, "is_reserved": 0, "rental_uris": {"ios": "https://dc.lft.to/lastmile_qr_scan", "android": "https://dc.lft.to/lastmile_qr_scan"}, "fusion_lon": 0.0, "type": "electric_scooter", "bike_id": "36fc35b4ec52ccb4e07370234f76df18", "name": "36fc35b4ec52ccb4e07370234f76df18"}, {"lon": -77.03674983333333, "is_disabled": 0, "lat": 38.922697166666666, "fusion_lat": 0.0, "is_reserved": 0, "rental_uris": {"ios": "https://dc.lft.to/lastmile_qr_scan", "android": "https://dc.lft.to/lastmile_qr_scan"}, "fusion_lon": 0.0, "type": "electric_scooter", "bike_id": "72dda42f6b37f6a518f9cc11727c49f3", "name": "72dda42f6b37f6a518f9cc11727c49f3"}, {"lon": -77.0394155, "is_disabled": 0, "lat": 38.909646333333335, "fusion_lat": 0.0, "is_reserved": 0, "rental_uris": {"ios": "https://dc.lft.to/lastmile_qr_scan", "android": "https://dc.lft.to/lastmile_qr_scan"}, "fusion_lon": 0.0, "type": "electric_scooter", "bike_id": "b3ee019e681ba942314bbe12da0fbaaf", "name": "b3ee019e681ba942314bbe12da0fbaaf"}, {"lon": -77.024091, "is_disabled": 0, "lat": 38.9097095, "fusion_lat": 0.0, "is_reserved": 0, "rental_uris": {"ios": "https://dc.lft.to/lastmile_qr_scan", "android": "https://dc.lft.to/lastmile_qr_scan"}, "fusion_lon": 0.0, "type": "electric_scooter", "bike_id": "29f676aa6cf9c25e22bd33be8ad2cdc4", "name": "29f676aa6cf9c25e22bd33be8ad2cdc4"}, {"lon": -77.02490833333333, "is_disabled": 0, "lat": 38.94181116666667, "fusion_lat": 0.0, "is_reserved": 0, "rental_uris": {"ios": "https://dc.lft.to/lastmile_qr_scan", "android": "https://dc.lft.to/lastmile_qr_scan"}, "fusion_lon": 0.0, "type": "electric_scooter", "bike_id": "e4743601455398b8558c087e9230aab4", "name": "e4743601455398b8558c087e9230aab4"}, {"lon": -77.02162533333333, "is_disabled": 0, "lat": 38.92511733333333, "fusion_lat": 0.0, "is_reserved": 0, "rental_uris": {"ios": "https://dc.lft.to/lastmile_qr_scan", "android": "https://dc.lft.to/lastmile_qr_scan"}, "fusion_lon": 0.0, "type": "electric_scooter", "bike_id": "aa9ae81cc88194613c7e99f5280dd440", "name": "aa9ae81cc88194613c7e99f5280dd440"}, {"lon": -76.98574216666667, "is_disabled": 0, "lat": 38.866877, "fusion_lat": 0.0, "is_reserved": 0, "rental_uris": {"ios": "https://dc.lft.to/lastmile_qr_scan", "android": "https://dc.lft.to/lastmile_qr_scan"}, "fusion_lon": 0.0, "type": "electric_scooter", "bike_id": "f811b251c5ba947064000e5613b6894d", "name": "f811b251c5ba947064000e5613b6894d"}, {"lon": -76.94825983333334, "is_disabled": 0, "lat": 38.88412566666667, "fusion_lat": 0.0, "is_reserved": 0, "rental_uris": {"ios": "https://dc.lft.to/lastmile_qr_scan", "android": "https://dc.lft.to/lastmile_qr_scan"}, "fusion_lon": 0.0, "type": "electric_scooter", "bike_id": "1649d2c03a4194dab374182cbfa99c34", "name": "1649d2c03a4194dab374182cbfa99c34"}, {"lon": -77.03490383333333, "is_disabled": 0, "lat": 38.92354, "fusion_lat": 0.0, "is_reserved": 0, "rental_uris": {"ios": "https://dc.lft.to/lastmile_qr_scan", "android": "https://dc.lft.to/lastmile_qr_scan"}, "fusion_lon": 0.0, "type": "electric_scooter", "bike_id": "e05cea7b5be6937648846ac7f6bbd729", "name": "e05cea7b5be6937648846ac7f6bbd729"}, {"lon": -77.05743, "is_disabled": 0, "lat": 38.933967333333335, "fusion_lat": 0.0, "is_reserved": 0, "rental_uris": {"ios": "https://dc.lft.to/lastmile_qr_scan", "android": "https://dc.lft.to/lastmile_qr_scan"}, "fusion_lon": 0.0, "type": "electric_scooter", "bike_id": "f9ebe7214f293b5b25c4fc63ec7ad73c", "name": "f9ebe7214f293b5b25c4fc63ec7ad73c"}, {"lon": -77.029904, "is_disabled": 0, "lat": 38.897544333333336, "fusion_lat": 0.0, "is_reserved": 0, "rental_uris": {"ios": "https://dc.lft.to/lastmile_qr_scan", "android": "https://dc.lft.to/lastmile_qr_scan"}, "fusion_lon": 0.0, "type": "electric_scooter", "bike_id": "943220cb2a6eb47b1edf8ec4b04f86e3", "name": "943220cb2a6eb47b1edf8ec4b04f86e3"}, {"lon": -77.022002, "is_disabled": 0, "lat": 38.91129266666667, "fusion_lat": 0.0, "is_reserved": 0, "rental_uris": {"ios": "https://dc.lft.to/lastmile_qr_scan", "android": "https://dc.lft.to/lastmile_qr_scan"}, "fusion_lon": 0.0, "type": "electric_scooter", "bike_id": "05902e20ee12c95c01b7aa4a875956ff", "name": "05902e20ee12c95c01b7aa4a875956ff"}, {"lon": -77.0258565, "is_disabled": 0, "lat": 38.89624283333333, "fusion_lat": 0.0, "is_reserved": 0, "rental_uris": {"ios": "https://dc.lft.to/lastmile_qr_scan", "android": "https://dc.lft.to/lastmile_qr_scan"}, "fusion_lon": 0.0, "type": "electric_scooter", "bike_id": "0b4e1c152f08149ee6d433a6bc99aebd", "name": "0b4e1c152f08149ee6d433a6bc99aebd"}, {"lon": -77.02828466666666, "is_disabled": 0, "lat": 38.8936205, "fusion_lat": 0.0, "is_reserved": 0, "rental_uris": {"ios": "https://dc.lft.to/lastmile_qr_scan", "android": "https://dc.lft.to/lastmile_qr_scan"}, "fusion_lon": 0.0, "type": "electric_scooter", "bike_id": "caeb6f6ff9b5a50980c31fabc5e67802", "name": "caeb6f6ff9b5a50980c31fabc5e67802"}, {"lon": -77.01950733333334, "is_disabled": 0, "lat": 38.9241875, "fusion_lat": 0.0, "is_reserved": 0, "rental_uris": {"ios": "https://dc.lft.to/lastmile_qr_scan", "android": "https://dc.lft.to/lastmile_qr_scan"}, "fusion_lon": 0.0, "type": "electric_scooter", "bike_id": "967bf486850090ffe46e8edc5635dc2b", "name": "967bf486850090ffe46e8edc5635dc2b"}, {"lon": -77.03638316666667, "is_disabled": 0, "lat": 38.931468833333334, "fusion_lat": 0.0, "is_reserved": 0, "rental_uris": {"ios": "https://dc.lft.to/lastmile_qr_scan", "android": "https://dc.lft.to/lastmile_qr_scan"}, "fusion_lon": 0.0, "type": "electric_scooter", "bike_id": "6933da31360c78ceee7a4ff664191f04", "name": "6933da31360c78ceee7a4ff664191f04"}, {"lon": -77.01387966666667, "is_disabled": 0, "lat": 38.919123, "fusion_lat": 0.0, "is_reserved": 0, "rental_uris": {"ios": "https://dc.lft.to/lastmile_qr_scan", "android": "https://dc.lft.to/lastmile_qr_scan"}, "fusion_lon": 0.0, "type": "electric_scooter", "bike_id": "5a61bfeb0a3886ad83debaa3e62eeea9", "name": "5a61bfeb0a3886ad83debaa3e62eeea9"}, {"lon": -77.0429365, "is_disabled": 0, "lat": 38.830986833333334, "fusion_lat": 0.0, "is_reserved": 0, "rental_uris": {"ios": "https://dc.lft.to/lastmile_qr_scan", "android": "https://dc.lft.to/lastmile_qr_scan"}, "fusion_lon": 0.0, "type": "electric_bike", "bike_id": "746c6402fe6d1df3b84d1096a2038d28", "name": "746c6402fe6d1df3b84d1096a2038d28"}, {"lon": -77.02380583333333, "is_disabled": 0, "lat": 38.891971, "fusion_lat": 0.0, "is_reserved": 0, "rental_uris": {"ios": "https://dc.lft.to/lastmile_qr_scan", "android": "https://dc.lft.to/lastmile_qr_scan"}, "fusion_lon": 0.0, "type": "electric_scooter", "bike_id": "03d0674fd6a37a362d310e865a57cec3", "name": "03d0674fd6a37a362d310e865a57cec3"}, {"lon": -77.0241125, "is_disabled": 0, "lat": 38.90582533333333, "fusion_lat": 0.0, "is_reserved": 0, "rental_uris": {"ios": "https://dc.lft.to/lastmile_qr_scan", "android": "https://dc.lft.to/lastmile_qr_scan"}, "fusion_lon": 0.0, "type": "electric_scooter", "bike_id": "67429cd413943b630b08f0eed6ddda63", "name": "67429cd413943b630b08f0eed6ddda63"}, {"lon": -77.032085, "is_disabled": 0, "lat": 38.90942966666667, "fusion_lat": 0.0, "is_reserved": 0, "rental_uris": {"ios": "https://dc.lft.to/lastmile_qr_scan", "android": "https://dc.lft.to/lastmile_qr_scan"}, "fusion_lon": 0.0, "type": "electric_scooter", "bike_id": "9f645170a6f50a3c9aa0790373a20256", "name": "9f645170a6f50a3c9aa0790373a20256"}, {"lon": -76.93613533333334, "is_disabled": 0, "lat": 38.97077066666667, "fusion_lat": 0.0, "is_reserved": 0, "rental_uris": {"ios": "https://dc.lft.to/lastmile_qr_scan", "android": "https://dc.lft.to/lastmile_qr_scan"}, "fusion_lon": 0.0, "type": "electric_bike", "bike_id": "5d3cdcc5227021e77fbae2884f002c50", "name": "5d3cdcc5227021e77fbae2884f002c50"}, {"lon": -76.98712533333334, "is_disabled": 0, "lat": 38.867023333333336, "fusion_lat": 0.0, "is_reserved": 0, "rental_uris": {"ios": "https://dc.lft.to/lastmile_qr_scan", "android": "https://dc.lft.to/lastmile_qr_scan"}, "fusion_lon": 0.0, "type": "electric_scooter", "bike_id": "a3e1d04ddb99995edfd31b59230956e6", "name": "a3e1d04ddb99995edfd31b59230956e6"}, {"lon": -77.01144766666667, "is_disabled": 0, "lat": 38.911056333333335, "fusion_lat": 0.0, "is_reserved": 0, "rental_uris": {"ios": "https://dc.lft.to/lastmile_qr_scan", "android": "https://dc.lft.to/lastmile_qr_scan"}, "fusion_lon": 0.0, "type": "electric_scooter", "bike_id": "3966c9350d6f7aa91c8486b01e982d17", "name": "3966c9350d6f7aa91c8486b01e982d17"}, {"lon": -77.0412005, "is_disabled": 0, "lat": 38.905893166666665, "fusion_lat": 0.0, "is_reserved": 0, "rental_uris": {"ios": "https://dc.lft.to/lastmile_qr_scan", "android": "https://dc.lft.to/lastmile_qr_scan"}, "fusion_lon": 0.0, "type": "electric_scooter", "bike_id": "2e57977563c14b9bbe97783c6c3496f3", "name": "2e57977563c14b9bbe97783c6c3496f3"}, {"lon": -77.03785183333333, "is_disabled": 0, "lat": 38.939682833333336, "fusion_lat": 0.0, "is_reserved": 0, "rental_uris": {"ios": "https://dc.lft.to/lastmile_qr_scan", "android": "https://dc.lft.to/lastmile_qr_scan"}, "fusion_lon": 0.0, "type": "electric_bike", "bike_id": "72cd059e5cab41a4baf3de3150f2b6ea", "name": "72cd059e5cab41a4baf3de3150f2b6ea"}, {"lon": -76.93477, "is_disabled": 0, "lat": 38.901862333333334, "fusion_lat": 0.0, "is_reserved": 0, "rental_uris": {"ios": "https://dc.lft.to/lastmile_qr_scan", "android": "https://dc.lft.to/lastmile_qr_scan"}, "fusion_lon": 0.0, "type": "electric_scooter", "bike_id": "bcdbf4c19376446cf1093a9e29b54b05", "name": "bcdbf4c19376446cf1093a9e29b54b05"}, {"lon": -77.04565183333334, "is_disabled": 0, "lat": 38.91478983333333, "fusion_lat": 0.0, "is_reserved": 0, "rental_uris": {"ios": "https://dc.lft.to/lastmile_qr_scan", "android": "https://dc.lft.to/lastmile_qr_scan"}, "fusion_lon": 0.0, "type": "electric_scooter", "bike_id": "cde9756631cb8fff6d0e027074340b6d", "name": "cde9756631cb8fff6d0e027074340b6d"}, {"lon": -76.980589, "is_disabled": 0, "lat": 38.90162516666667, "fusion_lat": 0.0, "is_reserved": 0, "rental_uris": {"ios": "https://dc.lft.to/lastmile_qr_scan", "android": "https://dc.lft.to/lastmile_qr_scan"}, "fusion_lon": 0.0, "type": "electric_scooter", "bike_id": "eebbf9a948b375f1bd6b2ddb871f002e", "name": "eebbf9a948b375f1bd6b2ddb871f002e"}, {"lon": -77.03155183333334, "is_disabled": 0, "lat": 38.92792333333333, "fusion_lat": 0.0, "is_reserved": 0, "rental_uris": {"ios": "https://dc.lft.to/lastmile_qr_scan", "android": "https://dc.lft.to/lastmile_qr_scan"}, "fusion_lon": 0.0, "type": "electric_scooter", "bike_id": "2c684ba2769f34f60c38ed0598cbca17", "name": "2c684ba2769f34f60c38ed0598cbca17"}, {"lon": -77.00039233333334, "is_disabled": 0, "lat": 38.90762633333333, "fusion_lat": 0.0, "is_reserved": 0, "rental_uris": {"ios": "https://dc.lft.to/lastmile_qr_scan", "android": "https://dc.lft.to/lastmile_qr_scan"}, "fusion_lon": 0.0, "type": "electric_scooter", "bike_id": "6bd054d3752133cb4891cfd5158a2279", "name": "6bd054d3752133cb4891cfd5158a2279"}, {"lon": -76.9542995, "is_disabled": 0, "lat": 38.885462833333335, "fusion_lat": 0.0, "is_reserved": 0, "rental_uris": {"ios": "https://dc.lft.to/lastmile_qr_scan", "android": "https://dc.lft.to/lastmile_qr_scan"}, "fusion_lon": 0.0, "type": "electric_bike", "bike_id": "e79d52f7758fa18849d3a808c25390f3", "name": "e79d52f7758fa18849d3a808c25390f3"}, {"lon": -77.11832383333333, "is_disabled": 0, "lat": 38.8593695, "fusion_lat": 0.0, "is_reserved": 0, "rental_uris": {"ios": "https://dc.lft.to/lastmile_qr_scan", "android": "https://dc.lft.to/lastmile_qr_scan"}, "fusion_lon": 0.0, "type": "electric_bike", "bike_id": "bcdd31982a316ce72fabfd6e73758593", "name": "bcdd31982a316ce72fabfd6e73758593"}, {"lon": -76.97616183333334, "is_disabled": 0, "lat": 38.892907, "fusion_lat": 0.0, "is_reserved": 0, "rental_uris": {"ios": "https://dc.lft.to/lastmile_qr_scan", "android": "https://dc.lft.to/lastmile_qr_scan"}, "fusion_lon": 0.0, "type": "electric_bike", "bike_id": "1be1a879c6f248a7556b8f44d5416264", "name": "1be1a879c6f248a7556b8f44d5416264"}, {"lon": -77.00928683333333, "is_disabled": 0, "lat": 38.91927833333333, "fusion_lat": 0.0, "is_reserved": 0, "rental_uris": {"ios": "https://dc.lft.to/lastmile_qr_scan", "android": "https://dc.lft.to/lastmile_qr_scan"}, "fusion_lon": 0.0, "type": "electric_scooter", "bike_id": "cef551353bda63f4c9ff4f2a06fd58c2", "name": "cef551353bda63f4c9ff4f2a06fd58c2"}, {"lon": -76.99970933333333, "is_disabled": 0, "lat": 38.875124, "fusion_lat": 0.0, "is_reserved": 0, "rental_uris": {"ios": "https://dc.lft.to/lastmile_qr_scan", "android": "https://dc.lft.to/lastmile_qr_scan"}, "fusion_lon": 0.0, "type": "electric_scooter", "bike_id": "72a69ddc5e069afba91ac550947e784e", "name": "72a69ddc5e069afba91ac550947e784e"}, {"lon": -76.9820675, "is_disabled": 0, "lat": 38.90201233333333, "fusion_lat": 0.0, "is_reserved": 0, "rental_uris": {"ios": "https://dc.lft.to/lastmile_qr_scan", "android": "https://dc.lft.to/lastmile_qr_scan"}, "fusion_lon": 0.0, "type": "electric_scooter", "bike_id": "d5da3998953fbeb339d9105cca2b7400", "name": "d5da3998953fbeb339d9105cca2b7400"}, {"lon": -77.03354833333333, "is_disabled": 0, "lat": 38.924483333333335, "fusion_lat": 0.0, "is_reserved": 0, "rental_uris": {"ios": "https://dc.lft.to/lastmile_qr_scan", "android": "https://dc.lft.to/lastmile_qr_scan"}, "fusion_lon": 0.0, "type": "electric_scooter", "bike_id": "6cba0a91f6d1fe95afbb3dcda76de694", "name": "6cba0a91f6d1fe95afbb3dcda76de694"},