{"data": {"bikes": [{"is_disabled": 0, "is_reserved": 0, "fusion_lat": 0.0, "lat": 38.92053966666667, "fusion_lon": 0.0, "rental_uris": {"ios": "https://dc.lft.to/lastmile_qr_scan", "android": "https://dc.lft.to/lastmile_qr_scan"}, "lon": -77.02437533333334, "bike_id": "34a87391c7e58b6d06a082e28aff9b8d", "type": "electric_scooter", "name": "34a87391c7e58b6d06a082e28aff9b8d"}, {"is_disabled": 0, "is_reserved": 0, "fusion_lat": 0.0, "lat": 38.876569833333335, "fusion_lon": 0.0, "rental_uris": {"ios": "https://dc.lft.to/lastmile_qr_scan", "android": "https://dc.lft.to/lastmile_qr_scan"}, "lon": -77.007925, "bike_id": "dd68c16c0cbf0ca531c0dfd7952f311d", "type": "electric_scooter", "name": "dd68c16c0cbf0ca531c0dfd7952f311d"}, {"is_disabled": 0, "is_reserved": 0, "fusion_lat": 0.0, "lat": 38.89730133333333, "fusion_lon": 0.0, "rental_uris": {"ios": "https://dc.lft.to/lastmile_qr_scan", "android": "https://dc.lft.to/lastmile_qr_scan"}, "lon": -77.04367816666667, "bike_id": "c513e027d1e072ad94d3b744be0aedc6", "type": "electric_scooter", "name": "c513e027d1e072ad94d3b744be0aedc6"}, {"is_disabled": 0, "is_reserved": 0, "fusion_lat": 0.0, "lat": 38.930115666666666, "fusion_lon": 0.0, "rental_uris": {"ios": "https://dc.lft.to/lastmile_qr_scan", "android": "https://dc.lft.to/lastmile_qr_scan"}, "lon": -77.02402533333333, "bike_id": "18b66e0fb65f62acc65f2b7f02c39986", "type": "electric_scooter", "name": "18b66e0fb65f62acc65f2b7f02c39986"}, {"is_disabled": 0, "is_reserved": 0, "fusion_lat": 0.0, "lat": 38.898296333333334, "fusion_lon": 0.0, "rental_uris": {"ios": "https://dc.lft.to/lastmile_qr_scan", "android": "https://dc.lft.to/lastmile_qr_scan"}, "lon": -77.0248735, "bike_id": "1da1a1c05ec5ade5c90986751b20cec1", "type": "electric_scooter", "name": "1da1a1c05ec5ade5c90986751b20cec1"}, {"is_disabled": 0, "is_reserved": 0, "fusion_lat": 0.0, "lat": 38.9126765, "fusion_lon": 0.0, "rental_uris": {"ios": "https://dc.lft.to/lastmile_qr_scan", "android": "https://dc.lft.to/lastmile_qr_scan"}, "lon": -77.02255766666667, "bike_id": "3a50c4ee7da902c5d050f84082158641", "type": "electric_scooter", "name": "3a50c4ee7da902c5d050f84082158641"}, {"is_disabled": 0, "is_reserved": 0, "fusion_lat": 0.0, "lat": 38.892193, "fusion_lon": 0.0, "rental_uris": {"ios": "https://dc.lft.to/lastmile_qr_scan", "android": "https://dc.lft.to/lastmile_qr_scan"}, "lon": -77.024193, "bike_id": "3542af99ccf6f1b7e620b9134045ac8c", "type": "electric_scooter", "name": "3542af99ccf6f1b7e620b9134045ac8c"}, {"is_disabled": 0, "is_reserved": 0, "fusion_lat": 0.0, "lat": 38.899673166666666, "fusion_lon": 0.0, "rental_uris": {"ios": "https://dc.lft.to/lastmile_qr_scan", "android": "https://dc.lft.to/lastmile_qr_scan"}, "lon": -77.05490766666667, "bike_id": "b78ca0b7f674dfa17345c3461798f3b6", "type": "electric_scooter", "name": "b78ca0b7f674dfa17345c3461798f3b6"}, {"is_disabled": 0, "is_reserved": 0, "fusion_lat": 0.0, "lat": 38.89242083333333, "fusion_lon": 0.0, "rental_uris": {"ios": "https://dc.lft.to/lastmile_qr_scan", "android": "https://dc.lft.to/lastmile_qr_scan"}, "lon": -77.03191533333333, "bike_id": "3d0d22a8349646edb682f71da6fe23ba", "type": "electric_scooter", "name": "3d0d22a8349646edb682f71da6fe23ba"}, {"is_disabled": 0, "is_reserved": 0, "fusion_lat": 0.0, "lat": 38.90192833333333, "fusion_lon": 0.0, "rental_uris": {"ios": "https://dc.lft.to/lastmile_qr_scan", "android": "https://dc.lft.to/lastmile_qr_scan"}, "lon": -77.05092316666666, "bike_id": "9416278501769827c36d16685ee1e0c4", "type": "electric_scooter", "name": "9416278501769827c36d16685ee1e0c4"}, {"is_disabled": 0, "is_reserved": 0, "fusion_lat": 0.0, "lat": 38.91574933333333, "fusion_lon": 0.0, "rental_uris": {"ios": "https://dc.lft.to/lastmile_qr_scan", "android": "https://dc.lft.to/lastmile_qr_scan"}, "lon": -77.06770616666667, "bike_id": "ec35b5da2e3987599005e2dd8c82220e", "type": "electric_scooter", "name": "ec35b5da2e3987599005e2dd8c82220e"}, {"is_disabled": 0, "is_reserved": 0, "fusion_lat": 0.0, "lat": 38.94723033333333, "fusion_lon": 0.0, "rental_uris": {"ios": "https://dc.lft.to/lastmile_qr_scan", "android": "https://dc.lft.to/lastmile_qr_scan"}, "lon": -77.02353233333334, "bike_id": "b3f73b1230f79f124d1454520fa4879a", "type": "electric_scooter", "name": "b3f73b1230f79f124d1454520fa4879a"}, {"is_disabled": 0, "is_reserved": 0, "fusion_lat": 0.0, "lat": 38.925497666666665, "fusion_lon": 0.0, "rental_uris": {"ios": "https://dc.lft.to/lastmile_qr_scan", "android": "https://dc.lft.to/lastmile_qr_scan"}, "lon": -77.02274616666666, "bike_id": "73006556052cafdc2151e89b20e296b8", "type": "electric_scooter", "name": "73006556052cafdc2151e89b20e296b8"}, {"is_disabled": 0, "is_reserved": 0, "fusion_lat": 0.0, "lat": 38.91785216666667, "fusion_lon": 0.0, "rental_uris": {"ios": "https://dc.lft.to/lastmile_qr_scan", "android": "https://dc.lft.to/lastmile_qr_scan"}, "lon": -77.0247145, "bike_id": "bff14476c49e12d4e0f095b9df93762a", "type": "electric_scooter", "name": "bff14476c49e12d4e0f095b9df93762a"}, {"is_disabled": 0, "is_reserved": 0, "fusion_lat": 0.0, "lat": 38.90221616666667, "fusion_lon": 0.0, "rental_uris": {"ios": "https://dc.lft.to/lastmile_qr_scan", "android": "https://dc.lft.to/lastmile_qr_scan"}, "lon": -77.02373933333334, "bike_id": "c1389fdda988712f64f5ed7f87acdd84", "type": "electric_scooter", "name": "c1389fdda988712f64f5ed7f87acdd84"}, {"is_disabled": 0, "is_reserved": 0, "fusion_lat": 0.0, "lat": 38.90955966666667, "fusion_lon": 0.0, "rental_uris": {"ios": "https://dc.lft.to/lastmile_qr_scan", "android": "https://dc.lft.to/lastmile_qr_scan"}, "lon": -77.0231385, "bike_id": "0c3a2bd5d9d7778a7525d22a9d5c5aa5", "type": "electric_scooter", "name": "0c3a2bd5d9d7778a7525d22a9d5c5aa5"}, {"is_disabled": 0, "is_reserved": 0, "fusion_lat": 0.0, "lat": 38.9265695, "fusion_lon": 0.0, "rental_uris": {"ios": "https://dc.lft.to/lastmile_qr_scan", "android": "https://dc.lft.to/lastmile_qr_scan"}, "lon": -77.0243495, "bike_id": "2d8a21355128c28e72e3f6ffe9e4f0cb", "type": "electric_scooter", "name": "2d8a21355128c28e72e3f6ffe9e4f0cb"}, {"is_disabled": 0, "is_reserved": 0, "fusion_lat": 0.0, "lat": 38.919645833333334, "fusion_lon": 0.0, "rental_uris": {"ios": "https://dc.lft.to/lastmile_qr_scan", "android": "https://dc.lft.to/lastmile_qr_scan"}, "lon": -77.01901166666667, "bike_id": "70f4a940841427eec81801663253d27c", "type": "electric_scooter", "name": "70f4a940841427eec81801663253d27c"}, {"is_disabled": 0, "is_reserved": 0, "fusion_lat": 0.0, "lat": 38.92222816666666, "fusion_lon": 0.0, "rental_uris": {"ios": "https://dc.lft.to/lastmile_qr_scan", "android": "https://dc.lft.to/lastmile_qr_scan"}, "lon": -77.03899116666666, "bike_id": "4167aceb97d65c5486d730bc5247ab51", "type": "electric_scooter", "name": "4167aceb97d65c5486d730bc5247ab51"}, {"is_disabled": 0, "is_reserved": 0, "fusion_lat": 0.0, "lat": 38.914379833333335, "fusion_lon": 0.0, "rental_uris": {"ios": "https://dc.lft.to/lastmile_qr_scan", "android": "https://dc.lft.to/lastmile_qr_scan"}, "lon": -76.9843095, "bike_id": "23c1a89849afc965d4444305713febec", "type": "electric_scooter", "name": "23c1a89849afc965d4444305713febec"}, {"is_disabled": 0, "is_reserved": 0, "fusion_lat": 0.0, "lat": 38.87899433333333, "fusion_lon": 0.0, "rental_uris": {"ios": "https://dc.lft.to/lastmile_qr_scan", "android": "https://dc.lft.to/lastmile_qr_scan"}, "lon": -76.9352965, "bike_id": "4509087ad2a0411e852b06f5959865f3", "type": "electric_scooter", "name": "4509087ad2a0411e852b06f5959865f3"}, {"is_disabled": 0, "is_reserved": 0, "fusion_lat": 0.0, "lat": 38.91134616666667, "fusion_lon": 0.0, "rental_uris": {"ios": "https://dc.lft.to/lastmile_qr_scan", "android": "https://dc.lft.to/lastmile_qr_scan"}, "lon": -77.03211266666666, "bike_id": "186394e727559c0dfa3dda6549b54316", "type": "electric_scooter", "name": "186394e727559c0dfa3dda6549b54316"}, {"is_disabled": 0, "is_reserved": 0, "fusion_lat": 0.0, "lat": 38.91473, "fusion_lon": 0.0, "rental_uris": {"ios": "https://dc.lft.to/lastmile_qr_scan", "android": "https://dc.lft.to/lastmile_qr_scan"}, "lon": -77.031941, "bike_id": "b43f66e4ac91fee802ff3def77636c7a", "type": "electric_scooter", "name": "b43f66e4ac91fee802ff3def77636c7a"}, {"is_disabled": 0, "is_reserved": 0, "fusion_lat": 0.0, "lat": 38.89514233333333, "fusion_lon": 0.0, "rental_uris": {"ios": "https://dc.lft.to/lastmile_qr_scan", "android": "https://dc.lft.to/lastmile_qr_scan"}, "lon": -77.0229895, "bike_id": "2dd608a96e6cdb2fe6f8dfa452262c2b", "type": "electric_scooter", "name": "2dd608a96e6cdb2fe6f8dfa452262c2b"}, {"is_disabled": 0, "is_reserved": 0, "fusion_lat": 0.0, "lat": 38.8961135, "fusion_lon": 0.0, "rental_uris": {"ios": "https://dc.lft.to/lastmile_qr_scan", "android": "https://dc.lft.to/lastmile_qr_scan"}, "lon": -77.02648933333333, "bike_id": "f37911e5b261d0d2c785864e9b7870c3", "type": "electric_scooter", "name": "f37911e5b261d0d2c785864e9b7870c3"}, {"is_disabled": 0, "is_reserved": 0, "fusion_lat": 0.0, "lat": 38.8649765, "fusion_lon": 0.0, "rental_uris": {"ios": "https://dc.lft.to/lastmile_qr_scan", "android": "https://dc.lft.to/lastmile_qr_scan"}, "lon": -76.9698715, "bike_id": "b5d7b0faf3ba80c4d538ae7908be19d2", "type": "electric_bike", "name": "b5d7b0faf3ba80c4d538ae7908be19d2"}, {"is_disabled": 0, "is_reserved": 0, "fusion_lat": 0.0, "lat": 38.921311833333334, "fusion_lon": 0.0, "rental_uris": {"ios": "https://dc.lft.to/lastmile_qr_scan", "android": "https://dc.lft.to/lastmile_qr_scan"}, "lon": -77.01794366666667, "bike_id": "fbffb4836bfc3461aa9786bf6e56db10", "type": "electric_scooter", "name": "fbffb4836bfc3461aa9786bf6e56db10"}, {"is_disabled": 0, "is_reserved": 0, "fusion_lat": 0.0, "lat": 38.927374666666665, "fusion_lon": 0.0, "rental_uris": {"ios": "https://dc.lft.to/lastmile_qr_scan", "android": "https://dc.lft.to/lastmile_qr_scan"}, "lon": -77.02313516666666, "bike_id": "db2273984655125fa9a831eb8195c116", "type": "electric_scooter", "name": "db2273984655125fa9a831eb8195c116"}, {"is_disabled": 0, "is_reserved": 0, "fusion_lat": 0.0, "lat": 38.927213, "fusion_lon": 0.0, "rental_uris": {"ios": "https://dc.lft.to/lastmile_qr_scan", "android": "https://dc.lft.to/lastmile_qr_scan"}, "lon": -77.05143433333333, "bike_id": "a67475723fca32ebdacc49cac4139a93", "type": "electric_scooter", "name": "a67475723fca32ebdacc49cac4139a93"}, {"is_disabled": 0, "is_reserved": 0, "fusion_lat": 0.0, "lat": 38.9209315, "fusion_lon": 0.0, "rental_uris": {"ios": "https://dc.lft.to/lastmile_qr_scan", "android": "https://dc.lft.to/lastmile_qr_scan"}, "lon": -77.0232025, "bike_id": "db3c7ff20b2fdd564ae14eea23d0e530", "type": "electric_scooter", "name": "db3c7ff20b2fdd564ae14eea23d0e530"}, {"is_disabled": 0, "is_reserved": 0, "fusion_lat": 0.0, "lat": 38.855169833333335, "fusion_lon": 0.0, "rental_uris": {"ios": "https://dc.lft.to/lastmile_qr_scan", "android": "https://dc.lft.to/lastmile_qr_scan"}, "lon": -77.10155116666667, "bike_id": "8f1cd5a29489ad154544b93619901320", "type": "electric_bike", "name": "8f1cd5a29489ad154544b93619901320"}, {"is_disabled": 0, "is_reserved": 0, "fusion_lat": 0.0, "lat": 38.898821, "fusion_lon": 0.0, "rental_uris": {"ios": "https://dc.lft.to/lastmile_qr_scan", "android": "https://dc.lft.to/lastmile_qr_scan"}, "lon": -76.93178416666666, "bike_id": "209a3fe682818629fcd6a668b84bfcfb", "type": "electric_scooter", "name": "209a3fe682818629fcd6a668b84bfcfb"}, {"is_disabled": 0, "is_reserved": 0, "fusion_lat": 0.0, "lat": 38.892446, "fusion_lon": 0.0, "rental_uris": {"ios": "https://dc.lft.to/lastmile_qr_scan", "android": "https://dc.lft.to/lastmile_qr_scan"}, "lon": -77.03957466666667, "bike_id": "3539d66c58d81527392e240fc72e7607", "type": "electric_scooter", "name": "3539d66c58d81527392e240fc72e7607"}, {"is_disabled": 0, "is_reserved": 0, "fusion_lat": 0.0, "lat": 38.89274, "fusion_lon": 0.0, "rental_uris": {"ios": "https://dc.lft.to/lastmile_qr_scan", "android": "https://dc.lft.to/lastmile_qr_scan"}, "lon": -77.04655516666666, "bike_id": "97829cbb32536f3e173db81e8bf305a3", "type": "electric_scooter", "name": "97829cbb32536f3e173db81e8bf305a3"}, {"is_disabled": 0, "is_reserved": 0, "fusion_lat": 0.0, "lat": 38.86967, "fusion_lon": 0.0, "rental_uris": {"ios": "https://dc.lft.to/lastmile_qr_scan", "android": "https://dc.lft.to/lastmile_qr_scan"}, "lon": -77.01377716666667, "bike_id": "4d41f858a745037ceef4387cd848a2e0", "type": "electric_scooter", "name": "4d41f858a745037ceef4387cd848a2e0"}, {"is_disabled": 0, "is_reserved": 0, "fusion_lat": 0.0, "lat": 38.910593166666665, "fusion_lon": 0.0, "rental_uris": {"ios": "https://dc.lft.to/lastmile_qr_scan", "android": "https://dc.lft.to/lastmile_qr_scan"}, "lon": -77.0529075, "bike_id": "6c48dfbb909e89941bce8c6b893df85d", "type": "electric_bike", "name": "6c48dfbb909e89941bce8c6b893df85d"}, {"is_disabled": 0, "is_reserved": 0, "fusion_lat": 0.0, "lat": 38.95920566666667, "fusion_lon": 0.0, "rental_uris": {"ios": "https://dc.lft.to/lastmile_qr_scan", "android": "https://dc.lft.to/lastmile_qr_scan"}, "lon": -76.92523566666667, "bike_id": "2c2b81c60146146569c9423c30242156", "type": "electric_bike", "name": "2c2b81c60146146569c9423c30242156"}, {"is_disabled": 0, "is_reserved": 0, "fusion_lat": 0.0, "lat": 38.86372983333333, "fusion_lon": 0.0, "rental_uris": {"ios": "https://dc.lft.to/lastmile_qr_scan", "android": "https://dc.lft.to/lastmile_qr_scan"}, "lon": -77.01369866666667, "bike_id": "c82dea8937a861847bf44ed3efc7725e", "type": "electric_scooter", "name": "c82dea8937a861847bf44ed3efc7725e"}, {"is_disabled": 0, "is_reserved": 0, "fusion_lat": 0.0, "lat": 38.907270833333335, "fusion_lon": 0.0, "rental_uris": {"ios": "https://dc.lft.to/lastmile_qr_scan", "android": "https://dc.lft.to/lastmile_qr_scan"}, "lon": -77.0243685, "bike_id": "6c2e2923aca05f180afab5e7364540a7", "type": "electric_scooter", "name": "6c2e2923aca05f180afab5e7364540a7"}, {"is_disabled": 0, "is_reserved": 0, "fusion_lat": 0.0, "lat": 38.895124, "fusion_lon": 0.0, "rental_uris": {"ios": "https://dc.lft.to/lastmile_qr_scan", "android": "https://dc.lft.to/lastmile_qr_scan"}, "lon": -77.02295283333333, "bike_id": "ca092d6407c6c6c664f85db60c34e488", "type": "electric_scooter", "name": "ca092d6407c6c6c664f85db60c34e488"}, {"is_disabled": 0, "is_reserved": 0, "fusion_lat": 0.0, "lat": 38.905340333333335, "fusion_lon": 0.0, "rental_uris": {"ios": "https://dc.lft.to/lastmile_qr_scan", "android": "https://dc.lft.to/lastmile_qr_scan"}, "lon": -77.0652835, "bike_id": "663991c5522ac2167d4051cd0d650c9f", "type": "electric_scooter", "name": "663991c5522ac2167d4051cd0d650c9f"}, {"is_disabled": 0, "is_reserved": 0, "fusion_lat": 0.0, "lat": 38.8965195, "fusion_lon": 0.0, "rental_uris": {"ios": "https://dc.lft.to/lastmile_qr_scan", "android": "https://dc.lft.to/lastmile_qr_scan"}, "lon": -77.02590916666666, "bike_id": "98d8e1a2b37a27ac2b7920f532854325", "type": "electric_scooter", "name": "98d8e1a2b37a27ac2b7920f532854325"}, {"is_disabled": 0, "is_reserved": 0, "fusion_lat": 0.0, "lat": 38.896629833333336, "fusion_lon": 0.0, "rental_uris": {"ios": "https://dc.lft.to/lastmile_qr_scan", "android": "https://dc.lft.to/lastmile_qr_scan"}, "lon": -77.0322955, "bike_id": "71dd2741a0e0177672cd35864d2aef15", "type": "electric_scooter", "name": "71dd2741a0e0177672cd35864d2aef15"}, {"is_disabled": 0, "is_reserved": 0, "fusion_lat": 0.0, "lat": 38.90268616666667, "fusion_lon": 0.0, "rental_uris": {"ios": "https://dc.lft.to/lastmile_qr_scan", "android": "https://dc.lft.to/lastmile_qr_scan"}, "lon": -77.05195666666667, "bike_id": "7efe5c1feff4bc87b957e7900b04adef", "type": "electric_scooter", "name": "7efe5c1feff4bc87b957e7900b04adef"}, {"is_disabled": 0, "is_reserved": 0, "fusion_lat": 0.0, "lat": 38.91106416666667, "fusion_lon": 0.0, "rental_uris": {"ios": "https://dc.lft.to/lastmile_qr_scan", "android": "https://dc.lft.to/lastmile_qr_scan"}, "lon": -77.0319455, "bike_id": "5382330130d4cfdb93a52b8520daccea", "type": "electric_scooter", "name": "5382330130d4cfdb93a52b8520daccea"}, {"is_disabled": 0, "is_reserved": 0, "fusion_lat": 0.0, "lat": 38.8564245, "fusion_lon": 0.0, "rental_uris": {"ios": "https://dc.lft.to/lastmile_qr_scan", "android": "https://dc.lft.to/lastmile_qr_scan"}, "lon": -77.06833566666667, "bike_id": "dbde9f9b25d7e80c5aecdb31f3544783", "type": "electric_bike", "name": "dbde9f9b25d7e80c5aecdb31f3544783"}, {"is_disabled": 0, "is_reserved": 0, "fusion_lat": 0.0, "lat": 38.90077433333333, "fusion_lon": 0.0, "rental_uris": {"ios": "https://dc.lft.to/lastmile_qr_scan", "android": "https://dc.lft.to/lastmile_qr_scan"}, "lon": -77.038294, "bike_id": "3eb3641f53c6ede67ed697c9e3a3f1f6", "type": "electric_scooter", "name": "3eb3641f53c6ede67ed697c9e3a3f1f6"}, {"is_disabled": 0, "is_reserved": 0, "fusion_lat": 0.0, "lat": 38.86564833333333, "fusion_lon": 0.0, "rental_uris": {"ios": "https://dc.lft.to/lastmile_qr_scan", "android": "https://dc.lft.to/lastmile_qr_scan"}, "lon": -76.9747325, "bike_id": "6c18236214c861019689d02b26696253", "type": "electric_bike", "name": "6c18236214c861019689d02b26696253"}, {"is_disabled": 0, "is_reserved": 0, "fusion_lat": 0.0, "lat": 38.824287166666664, "fusion_lon": 0.0, "rental_uris": {"ios": "https://dc.lft.to/lastmile_qr_scan", "android": "https://dc.lft.to/lastmile_qr_scan"}, "lon": -77.12043716666666, "bike_id": "dddfb1e48b0da558a49c68828b8a70a3", "type": "electric_bike", "name": "dddfb1e48b0da558a49c68828b8a70a3"}, {"is_disabled": 0, "is_reserved": 0, "fusion_lat": 0.0, "lat": 38.897595, "fusion_lon": 0.0, "rental_uris": {"ios": "https://dc.lft.to/lastmile_qr_scan", "android": "https://dc.lft.to/lastmile_qr_scan"}, "lon": -77.02720483333333, "bike_id": "bb77ef04d2605128213556d8f15f842d", "type": "electric_scooter", "name": "bb77ef04d2605128213556d8f15f842d"}, {"is_disabled": 0, "is_reserved": 0, "fusion_lat": 0.0, "lat": 38.917077, "fusion_lon": 0.0, "rental_uris": {"ios": "https://dc.lft.to/lastmile_qr_scan", "android": "https://dc.lft.to/lastmile_qr_scan"}, "lon": -77.0284705, "bike_id": "56ca0c87306ac57c82911f158c34774e", "type": "electric_scooter", "name": "56ca0c87306ac57c82911f158c34774e"}, {"is_disabled": 0, "is_reserved": 0, "fusion_lat": 0.0, "lat": 38.88221566666667, "fusion_lon": 0.0, "rental_uris": {"ios": "https://dc.lft.to/lastmile_qr_scan", "android": "https://dc.lft.to/lastmile_qr_scan"}, "lon": -76.9973685, "bike_id": "8b2e44aa3492756874981b0a18ed104a", "type": "electric_scooter", "name": "8b2e44aa3492756874981b0a18ed104a"}, {"is_disabled": 0, "is_reserved": 0, "fusion_lat": 0.0, "lat": 38.915566166666665, "fusion_lon": 0.0, "rental_uris": {"ios": "https://dc.lft.to/lastmile_qr_scan", "android": "https://dc.lft.to/lastmile_qr_scan"}, "lon": -77.02035433333333, "bike_id": "567379ffa610ef3ad84efc15f8c9c429", "type": "electric_scooter", "name": "567379ffa610ef3ad84efc15f8c9c429"}, {"is_disabled": 0, "is_reserved": 0, "fusion_lat": 0.0, "lat": 38.9205515, "fusion_lon": 0.0, "rental_uris": {"ios": "https://dc.lft.to/lastmile_qr_scan", "android": "https://dc.lft.to/lastmile_qr_scan"}, "lon": -77.03332183333333, "bike_id": "0650f343e3c617c520f8e7371b847e56", "type": "electric_scooter", "name": "0650f343e3c617c520f8e7371b847e56"}, {"is_disabled": 0, "is_reserved": 0, "fusion_lat": 0.0, "lat": 38.89175133333333, "fusion_lon": 0.0, "rental_uris": {"ios": "https://dc.lft.to/lastmile_qr_scan", "android": "https://dc.lft.to/lastmile_qr_scan"}, "lon": -77.01559983333334, "bike_id": "7d7dc718580df2fa1f9cf280cc0f2253", "type": "electric_scooter", "name": "7d7dc718580df2fa1f9cf280cc0f2253"}, {"is_disabled": 0, "is_reserved": 0, "fusion_lat": 0.0, "lat": 38.895468666666666, "fusion_lon": 0.0, "rental_uris": {"ios": "https://dc.lft.to/lastmile_qr_scan", "android": "https://dc.lft.to/lastmile_qr_scan"}, "lon": -77.01636216666667, "bike_id": "a6547c80b59c944fbc0ebcbecd731b9d", "type": "electric_scooter", "name": "a6547c80b59c944fbc0ebcbecd731b9d"}, {"is_disabled": 0, "is_reserved": 0, "fusion_lat": 0.0, "lat": 38.89172383333333, "fusion_lon": 0.0, "rental_uris": {"ios": "https://dc.lft.to/lastmile_qr_scan", "android": "https://dc.lft.to/lastmile_qr_scan"}, "lon": -77.01552316666667, "bike_id": "66f6720491ae7785b1cc32b674b3aedd", "type": "electric_scooter", "name": "66f6720491ae7785b1cc32b674b3aedd"}, {"is_disabled": 0, "is_reserved": 0, "fusion_lat": 0.0, "lat": 38.918536, "fusion_lon": 0.0, "rental_uris": {"ios": "https://dc.lft.to/lastmile_qr_scan", "android": "https://dc.lft.to/lastmile_qr_scan"}, "lon": -77.02456783333334, "bike_id": "d480845ce7b930972ce47141798413b4", "type": "electric_scooter", "name": "d480845ce7b930972ce47141798413b4"}, {"is_disabled": 0, "is_reserved": 0, "fusion_lat": 0.0, "lat": 38.897685333333335, "fusion_lon": 0.0, "rental_uris": {"ios": "https://dc.lft.to/lastmile_qr_scan", "android": "https://dc.lft.to/lastmile_qr_scan"}, "lon": -76.976773, "bike_id": "7c09d45281dd3038f9eb358e0233adff", "type": "electric_scooter", "name": "7c09d45281dd3038f9eb358e0233adff"}, {"is_disabled": 0, "is_reserved": 0, "fusion_lat": 0.0, "lat": 38.907694, "fusion_lon": 0.0, "rental_uris": {"ios": "https://dc.lft.to/lastmile_qr_scan", "android": "https://dc.lft.to/lastmile_qr_scan"}, "lon": -76.9992215, "bike_id": "07897ea01f4e415ff57922192e7ed646", "type": "electric_scooter", "name": "07897ea01f4e415ff57922192e7ed646"}, {"is_disabled": 0, "is_reserved": 0, "fusion_lat": 0.0, "lat": 38.918809333333336, "fusion_lon": 0.0, "rental_uris": {"ios": "https://dc.lft.to/lastmile_qr_scan", "android": "https://dc.lft.to/lastmile_qr_scan"}, "lon": -77.03207066666667, "bike_id": "b5e6f763c1bc1c46b1b74f05ffbc6a88", "type": "electric_scooter", "name": "b5e6f763c1bc1c46b1b74f05ffbc6a88"}, {"is_disabled": 0, "is_reserved": 0, "fusion_lat": 0.0, "lat": 38.86956033333333, "fusion_lon": 0.0, "rental_uris": {"ios": "https://dc.lft.to/lastmile_qr_scan", "android": "https://dc.lft.to/lastmile_qr_scan"}, "lon": -77.01269183333334, "bike_id": "34af96c9b19e1c0e21a185604ed0648a", "type": "electric_bike", "name": "34af96c9b19e1c0e21a185604ed0648a"}, {"is_disabled": 0, "is_reserved": 0, "fusion_lat": 0.0, "lat": 39.042364166666665, "fusion_lon": 0.0, "rental_uris": {"ios": "https://dc.lft.to/lastmile_qr_scan", "android": "https://dc.lft.to/lastmile_qr_scan"}, "lon": -76.99730783333334, "bike_id": "9c7d02dc28fc45998b6e70ce492e2159", "type": "electric_bike", "name": "9c7d02dc28fc45998b6e70ce492e2159"}, {"is_disabled": 0, "is_reserved": 0, "fusion_lat": 0.0, "lat": 38.883731833333336, "fusion_lon": 0.0, "rental_uris": {"ios": "https://dc.lft.to/lastmile_qr_scan", "android": "https://dc.lft.to/lastmile_qr_scan"}, "lon": -76.99517766666666, "bike_id": "853bbf1eb170ae8bdc973621f79b757d", "type": "electric_scooter", "name": "853bbf1eb170ae8bdc973621f79b757d"}, {"is_disabled": 0, "is_reserved": 0, "fusion_lat": 0.0, "lat": 38.950700166666664, "fusion_lon": 0.0, "rental_uris": {"ios": "https://dc.lft.to/lastmile_qr_scan", "android": "https://dc.lft.to/lastmile_qr_scan"}, "lon": -76.9960335, "bike_id": "a8d4708f46f520224fd2b363b00928ef", "type": "electric_bike", "name": "a8d4708f46f520224fd2b363b00928ef"}, {"is_disabled": 0, "is_reserved": 0, "fusion_lat": 0.0, "lat": 38.9119565, "fusion_lon": 0.0, "rental_uris": {"ios": "https://dc.lft.to/lastmile_qr_scan", "android": "https://dc.lft.to/lastmile_qr_scan"}, "lon": -77.004422, "bike_id": "b983382d501aec074ca92acf3e9f0897", "type": "electric_scooter", "name": "b983382d501aec074ca92acf3e9f0897"}, {"is_disabled": 0, "is_reserved": 0, "fusion_lat": 0.0, "lat": 38.919662, "fusion_lon": 0.0, "rental_uris": {"ios": "https://dc.lft.to/lastmile_qr_scan", "android": "https://dc.lft.to/lastmile_qr_scan"}, "lon": -77.02503716666666, "bike_id": "da378bb249fc4006219058b51bf94971", "type": "electric_scooter", "name": "da378bb249fc4006219058b51bf94971"}, {"is_disabled": 0, "is_reserved": 0, "fusion_lat": 0.0, "lat": 38.91280866666666, "fusion_lon": 0.0, "rental_uris": {"ios": "https://dc.lft.to/lastmile_qr_scan", "android": "https://dc.lft.to/lastmile_qr_scan"}, "lon": -77.0466725, "bike_id": "6b7f1d83aa614a19dc2a331323ebf06e", "type": "electric_scooter", "name": "6b7f1d83aa614a19dc2a331323ebf06e"}, {"is_disabled": 0, "is_reserved": 0, "fusion_lat": 0.0, "lat": 38.86237883333333, "fusion_lon": 0.0, "rental_uris": {"ios": "https://dc.lft.to/lastmile_qr_scan", "android": "https://dc.lft.to/lastmile_qr_scan"}, "lon": -76.99512433333334, "bike_id": "cbd9835796ff15ee5f559c1fe6149dc5", "type": "electric_scooter", "name": "cbd9835796ff15ee5f559c1fe6149dc5"}, {"is_disabled": 0, "is_reserved": 0, "fusion_lat": 0.0, "lat": 38.905144666666665, "fusion_lon": 0.0, "rental_uris": {"ios": "https://dc.lft.to/lastmile_qr_scan", "android": "https://dc.lft.to/lastmile_qr_scan"}, "lon": -77.06739516666667, "bike_id": "7f7189ad569bad52406007342c24227d", "type": "electric_scooter", "name": "7f7189ad569bad52406007342c24227d"}, {"is_disabled": 0, "is_reserved": 0, "fusion_lat": 0.0, "lat": 38.91881883333333, "fusion_lon": 0.0, "rental_uris": {"ios": "https://dc.lft.to/lastmile_qr_scan", "android": "https://dc.lft.to/lastmile_qr_scan"}, "lon": -77.03222083333333, "bike_id": "1935a93824e15fd1034245018b29548d", "type": "electric_scooter", "name": "1935a93824e15fd1034245018b29548d"}, {"is_disabled": 0, "is_reserved": 0, "fusion_lat": 0.0, "lat": 38.896828666666664, "fusion_lon": 0.0, "rental_uris": {"ios": "https://dc.lft.to/lastmile_qr_scan", "android": "https://dc.lft.to/lastmile_qr_scan"}, "lon": -77.005528, "bike_id": "aa97887c45e8bf941c0668a1e3d2a1d3", "type": "electric_scooter", "name": "aa97887c45e8bf941c0668a1e3d2a1d3"}, {"is_disabled": 0, "is_reserved": 0, "fusion_lat": 0.0, "lat": 38.99852533333333, "fusion_lon": 0.0, "rental_uris": {"ios": "https://dc.lft.to/lastmile_qr_scan", "android": "https://dc.lft.to/lastmile_qr_scan"}, "lon": -77.0024885, "bike_id": "2387a9d0783540ab1ccb47fdbbdbcc82", "type": "electric_bike", "name": "2387a9d0783540ab1ccb47fdbbdbcc82"}, {"is_disabled": 0, "is_reserved": 0, "fusion_lat": 0.0, "lat": 38.935546333333335, "fusion_lon": 0.0, "rental_uris": {"ios": "https://dc.lft.to/lastmile_qr_scan", "android": "https://dc.lft.to/lastmile_qr_scan"}, "lon": -77.0770825, "bike_id": "9048265e1b7599027136b11cf686fa97", "type": "electric_scooter", "name": "9048265e1b7599027136b11cf686fa97"}, {"is_disabled": 0, "is_reserved": 0, "fusion_lat": 0.0, "lat": 38.938573833333336, "fusion_lon": 0.0, "rental_uris": {"ios": "https://dc.lft.to/lastmile_qr_scan", "android": "https://dc.lft.to/lastmile_qr_scan"}, "lon": -76.99434416666666, "bike_id": "f9b9bb6cff10228e42b04d924a58e726", "type": "electric_scooter", "name": "f9b9bb6cff10228e42b04d924a58e726"}, {"is_disabled": 0, "is_reserved": 0, "fusion_lat": 0.0, "lat": 38.89234733333333, "fusion_lon": 0.0, "rental_uris": {"ios": "https://dc.lft.to/lastmile_qr_scan", "android": "https://dc.lft.to/lastmile_qr_scan"}, "lon": -77.0319585, "bike_id": "fd652f2c739b5b0340f59a4aa7bc885f", "type": "electric_scooter", "name": "fd652f2c739b5b0340f59a4aa7bc885f"}, {"is_disabled": 0, "is_reserved": 0, "fusion_lat": 0.0, "lat": 38.9244585, "fusion_lon": 0.0, "rental_uris": {"ios": "https://dc.lft.to/lastmile_qr_scan", "android": "https://dc.lft.to/lastmile_qr_scan"}, "lon": -77.04396066666666, "bike_id": "55b5f825215f99c9da97de2c9c8f9f9c", "type": "electric_scooter", "name": "55b5f825215f99c9da97de2c9c8f9f9c"}, {"is_disabled": 0, "is_reserved": 0, "fusion_lat": 0.0, "lat": 38.917073, "fusion_lon": 0.0, "rental_uris": {"ios": "https://dc.lft.to/lastmile_qr_scan", "android": "https://dc.lft.to/lastmile_qr_scan"}, "lon": -77.04174033333334, "bike_id": "cef196b20ac60dedb5d1bcc1ca6cc447", "type": "electric_scooter", "name": "cef196b20ac60dedb5d1bcc1ca6cc447"}, {"is_disabled": 0, "is_reserved": 0, "fusion_lat": 0.0, "lat": 38.967814833333335, "fusion_lon": 0.0, "rental_uris": {"ios": "https://dc.lft.to/lastmile_qr_scan", "android": "https://dc.lft.to/lastmile_qr_scan"}, "lon": -76.99646516666667, "bike_id": "6880fefe842aa017622d47163157c781", "type": "electric_bike", "name": "6880fefe842aa017622d47163157c781"}, {"is_disabled": 0, "is_reserved": 0, "fusion_lat": 0.0, "lat": 38.914842166666666, "fusion_lon": 0.0, "rental_uris": {"ios": "https://dc.lft.to/lastmile_qr_scan", "android": "https://dc.lft.to/lastmile_qr_scan"}, "lon": -77.0453355, "bike_id": "ebffc9844eaa7b9b1c12ccfa002c1263", "type": "electric_scooter", "name": "ebffc9844eaa7b9b1c12ccfa002c1263"}, {"is_disabled": 0, "is_reserved": 0, "fusion_lat": 0.0, "lat": 38.8920185, "fusion_lon": 0.0, "rental_uris": {"ios": "https://dc.lft.to/lastmile_qr_scan", "android": "https://dc.lft.to/lastmile_qr_scan"}, "lon": -77.045497, "bike_id": "16cb58ac7dd2165bb57ad97cdb37f5e6", "type": "electric_scooter", "name": "16cb58ac7dd2165bb57ad97cdb37f5e6"}, {"is_disabled": 0, "is_reserved": 0, "fusion_lat": 0.0, "lat": 38.93231266666667, "fusion_lon": 0.0, "rental_uris": {"ios": "https://dc.lft.to/lastmile_qr_scan", "android": "https://dc.lft.to/lastmile_qr_scan"}, "lon": -77.0335825, "bike_id": "40fef97840d63cc207a6e4b33baa24b9", "type": "electric_scooter", "name": "40fef97840d63cc207a6e4b33baa24b9"}, {"is_disabled": 0, "is_reserved": 0, "fusion_lat": 0.0, "lat": 38.910733666666665, "fusion_lon": 0.0, "rental_uris": {"ios": "https://dc.lft.to/lastmile_qr_scan", "android": "https://dc.lft.to/lastmile_qr_scan"}, "lon": -77.0219165, "bike_id": "2791142c8932f922f1db5ad931f8631f", "type": "electric_scooter", "name": "2791142c8932f922f1db5ad931f8631f"}, {"is_disabled": 0, "is_reserved": 0, "fusion_lat": 0.0, "lat": 38.91118183333333, "fusion_lon": 0.0, "rental_uris": {"ios": "https://dc.lft.to/lastmile_qr_scan", "android": "https://dc.lft.to/lastmile_qr_scan"}, "lon": -76.99741083333333, "bike_id": "1c8865e69af3337edf6af35ba7bf6ba1", "type": "electric_scooter", "name": "1c8865e69af3337edf6af35ba7bf6ba1"}, {"is_disabled": 0, "is_reserved": 0, "fusion_lat": 0.0, "lat": 38.907036833333336, "fusion_lon": 0.0, "rental_uris": {"ios": "https://dc.lft.to/lastmile_qr_scan", "android": "https://dc.lft.to/lastmile_qr_scan"}, "lon": -76.98690583333334, "bike_id": "a06c5d043ef2e77b25af657d96c1a0e1", "type": "electric_scooter", "name": "a06c5d043ef2e77b25af657d96c1a0e1"}, {"is_disabled": 0, "is_reserved": 0, "fusion_lat": 0.0, "lat": 38.916683666666664, "fusion_lon": 0.0, "rental_uris": {"ios": "https://dc.lft.to/lastmile_qr_scan", "android": "https://dc.lft.to/lastmile_qr_scan"}, "lon": -77.03849083333333, "bike_id": "b69687d20b1fa0286bf9bfaa12882a85", "type": "electric_scooter", "name": "b69687d20b1fa0286bf9bfaa12882a85"}, {"is_disabled": 0, "is_reserved": 0, "fusion_lat": 0.0, "lat": 38.91647783333333, "fusion_lon": 0.0, "rental_uris": {"ios": "https://dc.lft.to/lastmile_qr_scan", "android": "https://dc.lft.to/lastmile_qr_scan"}, "lon": -77.02181783333333, "bike_id": "d54ff51acf4e0d4376738a4c14c5d35c", "type": "electric_scooter", "name": "d54ff51acf4e0d4376738a4c14c5d35c"}, {"is_disabled": 0, "is_reserved": 0, "fusion_lat": 0.0, "lat": 38.93192716666667, "fusion_lon": 0.0, "rental_uris": {"ios": "https://dc.lft.to/lastmile_qr_scan", "android": "https://dc.lft.to/lastmile_qr_scan"}, "lon": -77.01868183333333, "bike_id": "06b006cc2a3e7d89a3d8d95528b6bcba", "type": "electric_scooter", "name": "06b006cc2a3e7d89a3d8d95528b6bcba"}, {"is_disabled": 0, "is_reserved": 0, "fusion_lat": 0.0, "lat": 38.890882166666664, "fusion_lon": 0.0, "rental_uris": {"ios": "https://dc.lft.to/lastmile_qr_scan", "android": "https://dc.lft.to/lastmile_qr_scan"}, "lon": -76.95466983333333, "bike_id": "182f8928d1a7d98ca67d160f4c958cc7", "type": "electric_bike", "name": "182f8928d1a7d98ca67d160f4c958cc7"}, {"is_disabled": 0, "is_reserved": 0, "fusion_lat": 0.0, "lat": 38.93542633333333, "fusion_lon": 0.0, "rental_uris": {"ios": "https://dc.lft.to/lastmile_qr_scan", "android": "https://dc.lft.to/lastmile_qr_scan"}, "lon": -76.98357833333333, "bike_id": "63267d16b6aa3fb9dd8663e692283a92", "type": "electric_bike", "name": "63267d16b6aa3fb9dd8663e692283a92"}, {"is_disabled": 0, "is_reserved": 0, "fusion_lat": 0.0, "lat": 38.93061766666667, "fusion_lon": 0.0, "rental_uris": {"ios": "https://dc.lft.to/lastmile_qr_scan", "android": "https://dc.lft.to/lastmile_qr_scan"}, "lon": -76.9732945, "bike_id": "fe68d5bebe5491264b749acd866fc0e7", "type": "electric_scooter", "name": "fe68d5bebe5491264b749acd866fc0e7"}, {"is_disabled": 0, "is_reserved": 0, "fusion_lat": 0.0, "lat": 38.921461, "fusion_lon": 0.0, "rental_uris": {"ios": "https://dc.lft.to/lastmile_qr_scan", "android": "https://dc.lft.to/lastmile_qr_scan"}, "lon": -77.03503483333333, "bike_id": "a3fa4a7877ebcf3fb7875bd5aa86f9f1", "type": "electric_scooter", "name": "a3fa4a7877ebcf3fb7875bd5aa86f9f1"}, {"is_disabled": 0, "is_reserved": 0, "fusion_lat": 0.0, "lat": 38.95635866666667, "fusion_lon": 0.0, "rental_uris": {"ios": "https://dc.lft.to/lastmile_qr_scan", "android": "https://dc.lft.to/lastmile_qr_scan"}, "lon": -77.036332, "bike_id": "3a5df134eac7915d065097942ccb8f4a", "type": "electric_scooter", "name": "3a5df134eac7915d065097942ccb8f4a"}, {"is_disabled": 0, "is_reserved": 0, "fusion_lat": 0.0, "lat": 38.93276683333333, "fusion_lon": 0.0, "rental_uris": {"ios": "https://dc.lft.to/lastmile_qr_scan", "android": "https://dc.lft.to/lastmile_qr_scan"}, "lon": -77.02095216666666, "bike_id": "c32237273f43bab8db7759011c3aecd6", "type": "electric_scooter", "name": "c32237273f43bab8db7759011c3aecd6"}, {"is_disabled": 0, "is_reserved": 0, "fusion_lat": 0.0, "lat": 38.889715333333335, "fusion_lon": 0.0, "rental_uris": {"ios": "https://dc.lft.to/lastmile_qr_scan", "android": "https://dc.lft.to/lastmile_qr_scan"}, "lon": -76.98036616666667, "bike_id": "19d24d354f22c988b195ad31c0b3af2a", "type": "electric_scooter", "name": "19d24d354f22c988b195ad31c0b3af2a"}, {"is_disabled": 0, "is_reserved": 0, "fusion_lat": 0.0, "lat": 38.9112235, "fusion_lon": 0.0, "rental_uris": {"ios": "https://dc.lft.to/lastmile_qr_scan", "android": "https://dc.lft.to/lastmile_qr_scan"}, "lon": -77.03836016666666, "bike_id": "3595376b148350b4c5a19062a936bf06", "type": "electric_scooter", "name": "3595376b148350b4c5a19062a936bf06"}, {"is_disabled": 0, "is_reserved": 0, "fusion_lat": 0.0, "lat": 38.890898, "fusion_lon": 0.0, "rental_uris": {"ios": "https://dc.lft.to/lastmile_qr_scan", "android": "https://dc.lft.to/lastmile_qr_scan"}, "lon": -77.04864833333333, "bike_id": "517cb5a6eb16b43473aec46c1ee902ea", "type": "electric_scooter", "name": "517cb5a6eb16b43473aec46c1ee902ea"}, {"is_disabled": 0, "is_reserved": 0, "fusion_lat": 0.0, "lat": 38.88486783333333, "fusion_lon": 0.0, "rental_uris": {"ios": "https://dc.lft.to/lastmile_qr_scan", "android": "https://dc.lft.to/lastmile_qr_scan"}, "lon": -77.03477033333333, "bike_id": "38026f599a2967e16ca5c5c7af544437", "type": "electric_scooter", "name": "38026f599a2967e16ca5c5c7af544437"}, {"is_disabled": 0, "is_reserved": 0, "fusion_lat": 0.0, "lat": 38.84677333333333, "fusion_lon": 0.0, "rental_uris": {"ios": "https://dc.lft.to/lastmile_qr_scan", "android": "https://dc.lft.to/lastmile_qr_scan"}, "lon": -77.1393125, "bike_id": "fb76edc6ee1dbca811e5d0c83cc83c51", "type": "electric_bike", "name": "fb76edc6ee1dbca811e5d0c83cc83c51"}, {"is_disabled": 0, "is_reserved": 0, "fusion_lat": 0.0, "lat": 38.915588, "fusion_lon": 0.0, "rental_uris": {"ios": "https://dc.lft.to/lastmile_qr_scan", "android": "https://dc.lft.to/lastmile_qr_scan"}, "lon": -77.05099, "bike_id": "bf3c038647a2497f51321d76fc98388b", "type": "electric_scooter", "name": "bf3c038647a2497f51321d76fc98388b"}, {"is_disabled": 0, "is_reserved": 0, "fusion_lat": 0.0, "lat": 38.9112925, "fusion_lon": 0.0, "rental_uris": {"ios": "https://dc.lft.to/lastmile_qr_scan", "android": "https://dc.lft.to/lastmile_qr_scan"}, "lon": -77.02195933333333, "bike_id": "61323fbf1ff9b0d58b404972b7c83048", "type": "electric_scooter", "name": "61323fbf1ff9b0d58b404972b7c83048"}, {"is_disabled": 0, "is_reserved": 0, "fusion_lat": 0.0, "lat": 38.9150375, "fusion_lon": 0.0, "rental_uris": {"ios": "https://dc.lft.to/lastmile_qr_scan", "android": "https://dc.lft.to/lastmile_qr_scan"}, "lon": -77.01913933333333, "bike_id": "ddb524d25583868b39acb1b910c17bfe", "type": "electric_scooter", "name": "ddb524d25583868b39acb1b910c17bfe"}, {"is_disabled": 0, "is_reserved": 0, "fusion_lat": 0.0, "lat": 38.902659, "fusion_lon": 0.0, "rental_uris": {"ios": "https://dc.lft.to/lastmile_qr_scan", "android": "https://dc.lft.to/lastmile_qr_scan"}, "lon": -77.03965766666667, "bike_id": "56db1b85716dc37d9868a6a520a1b011", "type": "electric_scooter", "name": "56db1b85716dc37d9868a6a520a1b011"}, {"is_disabled": 0, "is_reserved": 0, "fusion_lat": 0.0, "lat": 38.89621433333333, "fusion_lon": 0.0, "rental_uris": {"ios": "https://dc.lft.to/lastmile_qr_scan", "android": "https://dc.lft.to/lastmile_qr_scan"}, "lon": -76.9075275, "bike_id": "0daab3bd00bd532a596c1355e88dcbb1", "type": "electric_bike", "name": "0daab3bd00bd532a596c1355e88dcbb1"}, {"is_disabled": 0, "is_reserved": 0, "fusion_lat": 0.0, "lat": 38.876637833333334, "fusion_lon": 0.0, "rental_uris": {"ios": "https://dc.lft.to/lastmile_qr_scan", "android": "https://dc.lft.to/lastmile_qr_scan"}, "lon": -76.996268, "bike_id": "2b9e82e6e6f734fc24d3a0f83b1d22ec", "type": "electric_scooter", "name": "2b9e82e6e6f734fc24d3a0f83b1d22ec"}, {"is_disabled": 0, "is_reserved": 0, "fusion_lat": 0.0, "lat": 38.91485016666667, "fusion_lon": 0.0, "rental_uris": {"ios": "https://dc.lft.to/lastmile_qr_scan", "android": "https://dc.lft.to/lastmile_qr_scan"}, "lon": -77.0218365, "bike_id": "bfe3051519484895e084a5fbf7232f7f", "type": "electric_scooter", "name": "bfe3051519484895e084a5fbf7232f7f"}, {"is_disabled": 0, "is_reserved": 0, "fusion_lat": 0.0, "lat": 38.931963, "fusion_lon": 0.0, "rental_uris": {"ios": "https://dc.lft.to/lastmile_qr_scan", "android": "https://dc.lft.to/lastmile_qr_scan"}, "lon": -77.02353716666667, "bike_id": "70fb0b95eaf5dd52c2e8d609cb50fa68", "type": "electric_scooter", "name": "70fb0b95eaf5dd52c2e8d609cb50fa68"}, {"is_disabled": 0, "is_reserved": 0, "fusion_lat": 0.0, "lat": 38.9106075, "fusion_lon": 0.0, "rental_uris": {"ios": "https://dc.lft.to/lastmile_qr_scan", "android": "https://dc.lft.to/lastmile_qr_scan"}, "lon": -77.0552, "bike_id": "d20d3a085afd5dbbb92329c6cfb9e210", "type": "electric_scooter", "name": "d20d3a085afd5dbbb92329c6cfb9e210"}, {"is_disabled": 0, "is_reserved": 0, "fusion_lat": 0.0, "lat": 38.956872833333335, "fusion_lon": 0.0, "rental_uris": {"ios": "https://dc.lft.to/lastmile_qr_scan", "android": "https://dc.lft.to/lastmile_qr_scan"}, "lon": -77.02231816666666, "bike_id": "007d55e94432fa7c151224f7e014e5df", "type": "electric_scooter", "name": "007d55e94432fa7c151224f7e014e5df"}, {"is_disabled": 0, "is_reserved": 0, "fusion_lat": 0.0, "lat": 38.957511833333335, "fusion_lon": 0.0, "rental_uris": {"ios": "https://dc.lft.to/lastmile_qr_scan", "android": "https://dc.lft.to/lastmile_qr_scan"}, "lon": -77.02212016666667, "bike_id": "2408b579df779a90c4e23911b8a77b79", "type": "electric_scooter", "name": "2408b579df779a90c4e23911b8a77b79"}, {"is_disabled": 0, "is_reserved": 0, "fusion_lat": 0.0, "lat": 38.90717266666667, "fusion_lon": 0.0, "rental_uris": {"ios": "https://dc.lft.to/lastmile_qr_scan", "android": "https://dc.lft.to/lastmile_qr_scan"}, "lon": -77.031686, "bike_id": "729a92b8e25f46ad00cf7095883b23c7", "type": "electric_scooter", "name": "729a92b8e25f46ad00cf7095883b23c7"}, {"is_disabled": 0, "is_reserved": 0, "fusion_lat": 0.0, "lat": 38.908440666666664, "fusion_lon": 0.0, "rental_uris": {"ios": "https://dc.lft.to/lastmile_qr_scan", "android": "https://dc.lft.to/lastmile_qr_scan"}, "lon": -76.93445616666666, "bike_id": "8b18e281c59da4cbd75c17c2dc81480c", "type": "electric_scooter", "name": "8b18e281c59da4cbd75c17c2dc81480c"}, {"is_disabled": 0, "is_reserved": 0, "fusion_lat": 0.0, "lat": 38.92744783333333, "fusion_lon": 0.0, "rental_uris": {"ios": "https://dc.lft.to/lastmile_qr_scan", "android": "https://dc.lft.to/lastmile_qr_scan"}, "lon": -77.03305033333334, "bike_id": "0b10410eb7eaba898e7ce4d0fe6a0c7a", "type": "electric_scooter", "name": "0b10410eb7eaba898e7ce4d0fe6a0c7a"}, {"is_disabled": 0, "is_reserved": 0, "fusion_lat": 0.0, "lat": 38.9679785, "fusion_lon": 0.0, "rental_uris": {"ios": "https://dc.lft.to/lastmile_qr_scan", "android": "https://dc.lft.to/lastmile_qr_scan"}, "lon": -77.02432466666667, "bike_id": "2cd2f7df8da85f125619e4e46be69212", "type": "electric_scooter", "name": "2cd2f7df8da85f125619e4e46be69212"}, {"is_disabled": 0, "is_reserved": 0, "fusion_lat": 0.0, "lat": 38.89537766666667, "fusion_lon": 0.0, "rental_uris": {"ios": "https://dc.lft.to/lastmile_qr_scan", "android": "https://dc.lft.to/lastmile_qr_scan"}, "lon": -77.01111583333333, "bike_id": "84722cbfbca0422e950baaed1919c1f9", "type": "electric_scooter", "name": "84722cbfbca0422e950baaed1919c1f9"}, {"is_disabled": 0, "is_reserved": 0, "fusion_lat": 0.0, "lat": 38.923836666666666, "fusion_lon": 0.0, "rental_uris": {"ios": "https://dc.lft.to/lastmile_qr_scan", "android": "https://dc.lft.to/lastmile_qr_scan"}, "lon": -77.03102816666667, "bike_id": "1cd44274763639cfb1aa443e5e0a49f8", "type": "electric_scooter", "name": "1cd44274763639cfb1aa443e5e0a49f8"}, {"is_disabled": 0, "is_reserved": 0, "fusion_lat": 0.0, "lat": 38.90268966666667, "fusion_lon": 0.0, "rental_uris": {"ios": "https://dc.lft.to/lastmile_qr_scan", "android": "https://dc.lft.to/lastmile_qr_scan"}, "lon": -77.01547483333333, "bike_id": "5e1d885a69da30fc7287305305bfb5d9", "type": "electric_scooter", "name": "5e1d885a69da30fc7287305305bfb5d9"}, {"is_disabled": 0, "is_reserved": 0, "fusion_lat": 0.0, "lat": 38.92745016666667, "fusion_lon": 0.0, "rental_uris": {"ios": "https://dc.lft.to/lastmile_qr_scan", "android": "https://dc.lft.to/lastmile_qr_scan"}, "lon": -77.03302066666667, "bike_id": "84b4bdeb843376c31debbe450891210c", "type": "electric_scooter", "name": "84b4bdeb843376c31debbe450891210c"}, {"is_disabled": 0, "is_reserved": 0, "fusion_lat": 0.0, "lat": 38.909665833333335, "fusion_lon": 0.0, "rental_uris": {"ios": "https://dc.lft.to/lastmile_qr_scan", "android": "https://dc.lft.to/lastmile_qr_scan"}, "lon": -77.03421766666666, "bike_id": "0c7f0392954c1436bc457f704613b551", "type": "electric_scooter", "name": "0c7f0392954c1436bc457f704613b551"}, {"is_disabled": 0, "is_reserved": 0, "fusion_lat": 0.0, "lat": 38.919966333333335, "fusion_lon": 0.0, "rental_uris": {"ios": "https://dc.lft.to/lastmile_qr_scan", "android": "https://dc.lft.to/lastmile_qr_scan"}, "lon": -77.0217505, "bike_id": "f7aa5dcd94ad77d161e88aca48c6510a", "type": "electric_scooter", "name": "f7aa5dcd94ad77d161e88aca48c6510a"}, {"is_disabled": 0, "is_reserved": 0, "fusion_lat": 0.0, "lat": 38.869791166666666, "fusion_lon": 0.0, "rental_uris": {"ios": "https://dc.lft.to/lastmile_qr_scan", "android": "https://dc.lft.to/lastmile_qr_scan"}, "lon": -77.01356566666666, "bike_id": "c2d45491c03e1fbc4fdb78973cf1a3de", "type": "electric_scooter", "name": "c2d45491c03e1fbc4fdb78973cf1a3de"}, {"is_disabled": 0, "is_reserved": 0, "fusion_lat": 0.0, "lat": 38.95314333333334, "fusion_lon": 0.0, "rental_uris": {"ios": "https://dc.lft.to/lastmile_qr_scan", "android": "https://dc.lft.to/lastmile_qr_scan"}, "lon": -76.99463983333334, "bike_id": "65d2faa5907e129036cae080e9fd3419", "type": "electric_scooter", "name": "65d2faa5907e129036cae080e9fd3419"}, {"is_disabled": 0, "is_reserved": 0, "fusion_lat": 0.0, "lat": 38.896110166666666, "fusion_lon": 0.0, "rental_uris": {"ios": "https://dc.lft.to/lastmile_qr_scan", "android": "https://dc.lft.to/lastmile_qr_scan"}, "lon": -77.02658183333334, "bike_id": "fd81ac7f9743d0f98b0a5be1c32af657", "type": "electric_scooter", "name": "fd81ac7f9743d0f98b0a5be1c32af657"}, {"is_disabled": 0, "is_reserved": 0, "fusion_lat": 0.0, "lat": 38.91989083333333, "fusion_lon": 0.0, "rental_uris": {"ios": "https://dc.lft.to/lastmile_qr_scan", "android": "https://dc.lft.to/lastmile_qr_scan"}, "lon": -77.025147, "bike_id": "500ac3b5b2934713281c24b69ca28ba0", "type": "electric_scooter", "name": "500ac3b5b2934713281c24b69ca28ba0"}, {"is_disabled": 0, "is_reserved": 0, "fusion_lat": 0.0, "lat": 38.900823, "fusion_lon": 0.0, "rental_uris": {"ios": "https://dc.lft.to/lastmile_qr_scan", "android": "https://dc.lft.to/lastmile_qr_scan"}, "lon": -77.04956633333333, "bike_id": "c62827928b4a08489af5352c00bfacb9", "type": "electric_scooter", "name": "c62827928b4a08489af5352c00bfacb9"}, {"is_disabled": 0, "is_reserved": 0, "fusion_lat": 0.0, "lat": 38.89993883333333, "fusion_lon": 0.0, "rental_uris": {"ios": "https://dc.lft.to/lastmile_qr_scan", "android": "https://dc.lft.to/lastmile_qr_scan"}, "lon": -77.009356, "bike_id": "8c396efd472392c07b8f1658de1878ac", "type": "electric_scooter", "name": "8c396efd472392c07b8f1658de1878ac"}, {"is_disabled": 0, "is_reserved": 0, "fusion_lat": 0.0, "lat": 38.93701216666667, "fusion_lon": 0.0, "rental_uris": {"ios": "https://dc.lft.to/lastmile_qr_scan", "android": "https://dc.lft.to/lastmile_qr_scan"}, "lon": -77.05603383333333, "bike_id": "ef7afafde57fc7a41997b35b9bdf43b0", "type": "electric_scooter", "name": "ef7afafde57fc7a41997b35b9bdf43b0"}, {"is_disabled": 0, "is_reserved": 0, "fusion_lat": 0.0, "lat": 38.91812916666667, "fusion_lon": 0.0, "rental_uris": {"ios": "https://dc.lft.to/lastmile_qr_scan", "android": "https://dc.lft.to/lastmile_qr_scan"}, "lon": -77.03983133333334, "bike_id": "f5fd0a879dd108d66f8af3eca7608171", "type": "electric_scooter", "name": "f5fd0a879dd108d66f8af3eca7608171"}, {"is_disabled": 0, "is_reserved": 0, "fusion_lat": 0.0, "lat": 38.866765, "fusion_lon": 0.0, "rental_uris": {"ios": "https://dc.lft.to/lastmile_qr_scan", "android": "https://dc.lft.to/lastmile_qr_scan"}, "lon": -77.01020616666666, "bike_id": "5be0bcf30de200b719e5c8800f36d62f", "type": "electric_scooter", "name": "5be0bcf30de200b719e5c8800f36d62f"}, {"is_disabled": 0, "is_reserved": 0, "fusion_lat": 0.0, "lat": 38.92745333333333, "fusion_lon": 0.0, "rental_uris": {"ios": "https://dc.lft.to/lastmile_qr_scan", "android": "https://dc.lft.to/lastmile_qr_scan"}, "lon": -77.03304366666667, "bike_id": "48d73298af40092123b8d36714298da6", "type": "electric_scooter", "name": "48d73298af40092123b8d36714298da6"}, {"is_disabled": 0, "is_reserved": 0, "fusion_lat": 0.0, "lat": 38.88877266666667, "fusion_lon": 0.0, "rental_uris": {"ios": "https://dc.lft.to/lastmile_qr_scan", "android": "https://dc.lft.to/lastmile_qr_scan"}, "lon": -76.990402, "bike_id": "c1c96bed91b853664fa9ae27441e9799", "type": "electric_scooter", "name": "c1c96bed91b853664fa9ae27441e9799"}, {"is_disabled": 0, "is_reserved": 0, "fusion_lat": 0.0, "lat": 38.871856, "fusion_lon": 0.0, "rental_uris": {"ios": "https://dc.lft.to/lastmile_qr_scan", "android": "https://dc.lft.to/lastmile_qr_scan"}, "lon": -77.00586383333334, "bike_id": "4ba46f80a0668a4b677405b31fdd16ec", "type": "electric_scooter", "name": "4ba46f80a0668a4b677405b31fdd16ec"}, {"is_disabled": 0, "is_reserved": 0, "fusion_lat": 0.0, "lat": 38.885254333333336, "fusion_lon": 0.0, "rental_uris": {"ios": "https://dc.lft.to/lastmile_qr_scan", "android": "https://dc.lft.to/lastmile_qr_scan"}, "lon": -76.99800583333334, "bike_id": "8fa8e54034ea7f0d2b8e5d79b73c720c", "type": "electric_scooter", "name": "8fa8e54034ea7f0d2b8e5d79b73c720c"}, {"is_disabled": 0, "is_reserved": 0, "fusion_lat": 0.0, "lat": 38.89365733333333, "fusion_lon": 0.0, "rental_uris": {"ios": "https://dc.lft.to/lastmile_qr_scan", "android": "https://dc.lft.to/lastmile_qr_scan"}, "lon": -76.94111466666666, "bike_id": "c07f88cbf9320216434df44d9198c795", "type": "electric_scooter", "name": "c07f88cbf9320216434df44d9198c795"}, {"is_disabled": 0, "is_reserved": 0, "fusion_lat": 0.0, "lat": 38.92008516666667, "fusion_lon": 0.0, "rental_uris": {"ios": "https://dc.lft.to/lastmile_qr_scan", "android": "https://dc.lft.to/lastmile_qr_scan"}, "lon": -77.04170516666667, "bike_id": "34ebb12cb362383228c8a6800c40796d", "type": "electric_scooter", "name": "34ebb12cb362383228c8a6800c40796d"}, {"is_disabled": 0, "is_reserved": 0, "fusion_lat": 0.0, "lat": 38.99988783333333, "fusion_lon": 0.0, "rental_uris": {"ios": "https://dc.lft.to/lastmile_qr_scan", "android": "https://dc.lft.to/lastmile_qr_scan"}, "lon": -76.92494183333334, "bike_id": "392c564d49d7cdf9d72b27ade012deb4", "type": "electric_bike", "name": "392c564d49d7cdf9d72b27ade012deb4"}, {"is_disabled": 0, "is_reserved": 0, "fusion_lat": 0.0, "lat": 38.80740516666667, "fusion_lon": 0.0, "rental_uris": {"ios": "https://dc.lft.to/lastmile_qr_scan", "android": "https://dc.lft.to/lastmile_qr_scan"}, "lon": -77.09690566666667, "bike_id": "0ddd847efd0dc15b95bcbfc21db0a1aa", "type": "electric_bike", "name": "0ddd847efd0dc15b95bcbfc21db0a1aa"}, {"is_disabled": 0, "is_reserved": 0, "fusion_lat": 0.0, "lat": 38.87188116666667, "fusion_lon": 0.0, "rental_uris": {"ios": "https://dc.lft.to/lastmile_qr_scan", "android": "https://dc.lft.to/lastmile_qr_scan"}, "lon": -77.2341025, "bike_id": "4bd3b76ae1f25bab36395254fe280f08", "type": "electric_bike", "name": "4bd3b76ae1f25bab36395254fe280f08"}, {"is_disabled": 0, "is_reserved": 0, "fusion_lat": 0.0, "lat": 38.924132666666665, "fusion_lon": 0.0, "rental_uris": {"ios": "https://dc.lft.to/lastmile_qr_scan", "android": "https://dc.lft.to/lastmile_qr_scan"}, "lon": -77.02716333333333, "bike_id": "663fef77997b7f226e9c5743a5ec9659", "type": "electric_scooter", "name": "663fef77997b7f226e9c5743a5ec9659"}, {"is_disabled": 0, "is_reserved": 0, "fusion_lat": 0.0, "lat": 38.9508445, "fusion_lon": 0.0, "rental_uris": {"ios": "https://dc.lft.to/lastmile_qr_scan", "android": "https://dc.lft.to/lastmile_qr_scan"}, "lon": -77.012558, "bike_id": "8d88035fa6c3082b82d9c550c0d1c76c", "type": "electric_bike", "name": "8d88035fa6c3082b82d9c550c0d1c76c"}, {"is_disabled": 0, "is_reserved": 0, "fusion_lat": 0.0, "lat": 38.89248, "fusion_lon": 0.0, "rental_uris": {"ios": "https://dc.lft.to/lastmile_qr_scan", "android": "https://dc.lft.to/lastmile_qr_scan"}, "lon": -77.03225716666667, "bike_id": "bc5f751a3ab7c0ddf5772ecbd5cf7d48", "type": "electric_scooter", "name": "bc5f751a3ab7c0ddf5772ecbd5cf7d48"}, {"is_disabled": 0, "is_reserved": 0, "fusion_lat": 0.0, "lat": 38.84286733333333, "fusion_lon": 0.0, "rental_uris": {"ios": "https://dc.lft.to/lastmile_qr_scan", "android": "https://dc.lft.to/lastmile_qr_scan"}, "lon": -77.06377, "bike_id": "884e41e2c736a891487f71a80a4e5d45", "type": "electric_bike", "name": "884e41e2c736a891487f71a80a4e5d45"}, {"is_disabled": 0, "is_reserved": 0, "fusion_lat": 0.0, "lat": 38.91063583333333, "fusion_lon": 0.0, "rental_uris": {"ios": "https://dc.lft.to/lastmile_qr_scan", "android": "https://dc.lft.to/lastmile_qr_scan"}, "lon": -77.01988566666667, "bike_id": "bfe201c00a8300e0ba0ea8d30a12c5eb", "type": "electric_scooter", "name": "bfe201c00a8300e0ba0ea8d30a12c5eb"}, {"is_disabled": 0, "is_reserved": 0, "fusion_lat": 0.0, "lat": 38.9759715, "fusion_lon": 0.0, "rental_uris": {"ios": "https://dc.lft.to/lastmile_qr_scan", "android": "https://dc.lft.to/lastmile_qr_scan"}, "lon": -77.01865183333334, "bike_id": "c3124c89d7376aaba9b0fde3761c57ca", "type": "electric_scooter", "name": "c3124c89d7376aaba9b0fde3761c57ca"}, {"is_disabled": 0, "is_reserved": 0, "fusion_lat": 0.0, "lat": 38.908623, "fusion_lon": 0.0, "rental_uris": {"ios": "https://dc.lft.to/lastmile_qr_scan", "android": "https://dc.lft.to/lastmile_qr_scan"}, "lon": -77.05484216666666, "bike_id": "097d4da313ede4ce52abf73dc68a2e4e", "type": "electric_bike", "name": "097d4da313ede4ce52abf73dc68a2e4e"}, {"is_disabled": 0, "is_reserved": 0, "fusion_lat": 0.0, "lat": 38.89741516666667, "fusion_lon": 0.0, "rental_uris": {"ios": "https://dc.lft.to/lastmile_qr_scan", "android": "https://dc.lft.to/lastmile_qr_scan"}, "lon": -77.04556216666667, "bike_id": "5282272f5316f615b2453aff9e5a2193", "type": "electric_scooter", "name": "5282272f5316f615b2453aff9e5a2193"}, {"is_disabled": 0, "is_reserved": 0, "fusion_lat": 0.0, "lat": 38.98720133333333, "fusion_lon": 0.0, "rental_uris": {"ios": "https://dc.lft.to/lastmile_qr_scan", "android": "https://dc.lft.to/lastmile_qr_scan"}, "lon": -77.03765716666666, "bike_id": "35a071be4a91412a84c7e453228eac5d", "type": "electric_bike", "name": "35a071be4a91412a84c7e453228eac5d"}, {"is_disabled": 0, "is_reserved": 0, "fusion_lat": 0.0, "lat": 38.930153, "fusion_lon": 0.0, "rental_uris": {"ios": "https://dc.lft.to/lastmile_qr_scan", "android": "https://dc.lft.to/lastmile_qr_scan"}, "lon": -77.02331566666666, "bike_id": "7f0a0a7549de1d8d204880d6007849ed", "type": "electric_scooter", "name": "7f0a0a7549de1d8d204880d6007849ed"}, {"is_disabled": 0, "is_reserved": 0, "fusion_lat": 0.0, "lat": 38.909079166666665, "fusion_lon": 0.0, "rental_uris": {"ios": "https://dc.lft.to/lastmile_qr_scan", "android": "https://dc.lft.to/lastmile_qr_scan"}, "lon": -77.03400166666667, "bike_id": "b6e7aa2964f93b3a06a8468eb9bce580", "type": "electric_scooter", "name": "b6e7aa2964f93b3a06a8468eb9bce580"}, {"is_disabled": 0, "is_reserved": 0, "fusion_lat": 0.0, "lat": 38.883743333333335, "fusion_lon": 0.0, "rental_uris": {"ios": "https://dc.lft.to/lastmile_qr_scan", "android": "https://dc.lft.to/lastmile_qr_scan"}, "lon": -76.99519616666667, "bike_id": "8d8d608a88f210c2dbb43ef4897a95c4", "type": "electric_scooter", "name": "8d8d608a88f210c2dbb43ef4897a95c4"}, {"is_disabled": 0, "is_reserved": 0, "fusion_lat": 0.0, "lat": 38.8899245, "fusion_lon": 0.0, "rental_uris": {"ios": "https://dc.lft.to/lastmile_qr_scan", "android": "https://dc.lft.to/lastmile_qr_scan"}, "lon": -77.00339266666667, "bike_id": "56e564a33ac98ea5f68ec3c2cc06f2ac", "type": "electric_scooter", "name": "56e564a33ac98ea5f68ec3c2cc06f2ac"}, {"is_disabled": 0, "is_reserved": 0, "fusion_lat": 0.0, "lat": 38.899680333333336, "fusion_lon": 0.0, "rental_uris": {"ios": "https://dc.lft.to/lastmile_qr_scan", "android": "https://dc.lft.to/lastmile_qr_scan"}, "lon": -76.93767366666667, "bike_id": "247f5740d82ff4cc435906c518b23c39", "type": "electric_scooter", "name": "247f5740d82ff4cc435906c518b23c39"}, {"is_disabled": 0, "is_reserved": 0, "fusion_lat": 0.0, "lat": 38.920535666666666, "fusion_lon": 0.0, "rental_uris": {"ios": "https://dc.lft.to/lastmile_qr_scan", "android": "https://dc.lft.to/lastmile_qr_scan"}, "lon": -77.04181533333333, "bike_id": "9c0de9579d31a0b02bce6369a3024741", "type": "electric_scooter", "name": "9c0de9579d31a0b02bce6369a3024741"}, {"is_disabled": 0, "is_reserved": 0, "fusion_lat": 0.0, "lat": 38.8922535, "fusion_lon": 0.0, "rental_uris": {"ios": "https://dc.lft.to/lastmile_qr_scan", "android": "https://dc.lft.to/lastmile_qr_scan"}, "lon": -77.02347833333333, "bike_id": "11b466e9f4a9583286467c4c5c446dbc", "type": "electric_scooter", "name": "11b466e9f4a9583286467c4c5c446dbc"}, {"is_disabled": 0, "is_reserved": 0, "fusion_lat": 0.0, "lat": 38.91788666666667, "fusion_lon": 0.0, "rental_uris": {"ios": "https://dc.lft.to/lastmile_qr_scan", "android": "https://dc.lft.to/lastmile_qr_scan"}, "lon": -77.04668566666666, "bike_id": "51ad0c0a223c62a11b596bf13c3777b3", "type": "electric_scooter", "name": "51ad0c0a223c62a11b596bf13c3777b3"}, {"is_disabled": 0, "is_reserved": 0, "fusion_lat": 0.0, "lat": 38.830538, "fusion_lon": 0.0, "rental_uris": {"ios": "https://dc.lft.to/lastmile_qr_scan", "android": "https://dc.lft.to/lastmile_qr_scan"}, "lon": -77.0082305, "bike_id": "d87c9bc753d53b39567b5cac71832503", "type": "electric_bike", "name": "d87c9bc753d53b39567b5cac71832503"}, {"is_disabled": 0, "is_reserved": 0, "fusion_lat": 0.0, "lat": 38.89283966666667, "fusion_lon": 0.0, "rental_uris": {"ios": "https://dc.lft.to/lastmile_qr_scan", "android": "https://dc.lft.to/lastmile_qr_scan"}, "lon": -77.05045816666667, "bike_id": "ff3a6545a1ee8d8ddf7fbf5979b72cb7", "type": "electric_scooter", "name": "ff3a6545a1ee8d8ddf7fbf5979b72cb7"}, {"is_disabled": 0, "is_reserved": 0, "fusion_lat": 0.0, "lat": 38.904872166666664, "fusion_lon": 0.0, "rental_uris": {"ios": "https://dc.lft.to/lastmile_qr_scan", "android": "https://dc.lft.to/lastmile_qr_scan"}, "lon": -77.0092465, "bike_id": "bfd1ff88ae6c55abc1d66f084205724d", "type": "electric_scooter", "name": "bfd1ff88ae6c55abc1d66f084205724d"}, {"is_disabled": 0, "is_reserved": 0, "fusion_lat": 0.0, "lat": 38.923667333333334, "fusion_lon": 0.0, "rental_uris": {"ios": "https://dc.lft.to/lastmile_qr_scan", "android": "https://dc.lft.to/lastmile_qr_scan"}, "lon": -77.01921066666667, "bike_id": "60691630d45d83950e9939b8c4af8bb3", "type": "electric_scooter", "name": "60691630d45d83950e9939b8c4af8bb3"}, {"is_disabled": 0, "is_reserved": 0, "fusion_lat": 0.0, "lat": 38.90947533333333, "fusion_lon": 0.0, "rental_uris": {"ios": "https://dc.lft.to/lastmile_qr_scan", "android": "https://dc.lft.to/lastmile_qr_scan"}, "lon": -77.03180966666666, "bike_id": "33fb0ffb849b75b30109feefb47a938c", "type": "electric_scooter", "name": "33fb0ffb849b75b30109feefb47a938c"}, {"is_disabled": 0, "is_reserved": 0, "fusion_lat": 0.0, "lat": 38.919517666666664, "fusion_lon": 0.0, "rental_uris": {"ios": "https://dc.lft.to/lastmile_qr_scan", "android": "https://dc.lft.to/lastmile_qr_scan"}, "lon": -77.0139655, "bike_id": "fa26de4d1f88bc1a0479ea351727c71e", "type": "electric_scooter", "name": "fa26de4d1f88bc1a0479ea351727c71e"}, {"is_disabled": 0, "is_reserved": 0, "fusion_lat": 0.0, "lat": 38.92911183333333, "fusion_lon": 0.0, "rental_uris": {"ios": "https://dc.lft.to/lastmile_qr_scan", "android": "https://dc.lft.to/lastmile_qr_scan"}, "lon": -77.05988, "bike_id": "7c73daf18fa2658556b7999240e2d537", "type": "electric_scooter", "name": "7c73daf18fa2658556b7999240e2d537"}, {"is_disabled": 0, "is_reserved": 0, "fusion_lat": 0.0, "lat": 38.919824166666665, "fusion_lon": 0.0, "rental_uris": {"ios": "https://dc.lft.to/lastmile_qr_scan", "android": "https://dc.lft.to/lastmile_qr_scan"}, "lon": -77.03327033333333, "bike_id": "6ce0226665bec43f454a245f1ed514ad", "type": "electric_scooter", "name": "6ce0226665bec43f454a245f1ed514ad"}, {"is_disabled": 0, "is_reserved": 0, "fusion_lat": 0.0, "lat": 38.926709833333334, "fusion_lon": 0.0, "rental_uris": {"ios": "https://dc.lft.to/lastmile_qr_scan", "android": "https://dc.lft.to/lastmile_qr_scan"}, "lon": -77.0227545, "bike_id": "025b9a1752b0e9e9bbf55c24d1ff1f1b", "type": "electric_scooter", "name": "025b9a1752b0e9e9bbf55c24d1ff1f1b"}, {"is_disabled": 0, "is_reserved": 0, "fusion_lat": 0.0, "lat": 38.89196, "fusion_lon": 0.0, "rental_uris": {"ios": "https://dc.lft.to/lastmile_qr_scan", "android": "https://dc.lft.to/lastmile_qr_scan"}, "lon": -77.0222815, "bike_id": "a092dea203631dfe0892bc0177e24028", "type": "electric_scooter", "name": "a092dea203631dfe0892bc0177e24028"}, {"is_disabled": 0, "is_reserved": 0, "fusion_lat": 0.0, "lat": 38.919152, "fusion_lon": 0.0, "rental_uris": {"ios": "https://dc.lft.to/lastmile_qr_scan", "android": "https://dc.lft.to/lastmile_qr_scan"}, "lon": -77.02539516666667, "bike_id": "d3c45a146d49df8082a3d18bca90ba68", "type": "electric_scooter", "name": "d3c45a146d49df8082a3d18bca90ba68"}, {"is_disabled": 0, "is_reserved": 0, "fusion_lat": 0.0, "lat": 38.88379483333333, "fusion_lon": 0.0, "rental_uris": {"ios": "https://dc.lft.to/lastmile_qr_scan", "android": "https://dc.lft.to/lastmile_qr_scan"}, "lon": -77.03056983333333, "bike_id": "95c8dac4a672c7be635a49b0c8f32188", "type": "electric_scooter", "name": "95c8dac4a672c7be635a49b0c8f32188"}, {"is_disabled": 0, "is_reserved": 0, "fusion_lat": 0.0, "lat": 38.9156895, "fusion_lon": 0.0, "rental_uris": {"ios": "https://dc.lft.to/lastmile_qr_scan", "android": "https://dc.lft.to/lastmile_qr_scan"}, "lon": -77.0216115, "bike_id": "4798f9fdb811ee4331bee17b2f1f19b3", "type": "electric_scooter", "name": "4798f9fdb811ee4331bee17b2f1f19b3"}, {"is_disabled": 0, "is_reserved": 0, "fusion_lat": 0.0, "lat": 39.0229415, "fusion_lon": 0.0, "rental_uris": {"ios": "https://dc.lft.to/lastmile_qr_scan", "android": "https://dc.lft.to/lastmile_qr_scan"}, "lon": -77.02105833333333, "bike_id": "df470bd54c53b9895f46c00432decf33", "type": "electric_bike", "name": "df470bd54c53b9895f46c00432decf33"}, {"is_disabled": 0, "is_reserved": 0, "fusion_lat": 0.0, "lat": 38.90849016666667, "fusion_lon": 0.0, "rental_uris": {"ios": "https://dc.lft.to/lastmile_qr_scan", "android": "https://dc.lft.to/lastmile_qr_scan"}, "lon": -76.99794983333334, "bike_id": "8d2ae32b5e5b13f4d6ee8c1666d182d6", "type": "electric_scooter", "name": "8d2ae32b5e5b13f4d6ee8c1666d182d6"}, {"is_disabled": 0, "is_reserved": 0, "fusion_lat": 0.0, "lat": 38.89823883333333, "fusion_lon": 0.0, "rental_uris": {"ios": "https://dc.lft.to/lastmile_qr_scan", "android": "https://dc.lft.to/lastmile_qr_scan"}, "lon": -77.02938716666667, "bike_id": "5db27f0059aee4674d0e6e48375f884e", "type": "electric_scooter", "name": "5db27f0059aee4674d0e6e48375f884e"}, {"is_disabled": 0, "is_reserved": 0, "fusion_lat": 0.0, "lat": 38.974801, "fusion_lon": 0.0, "rental_uris": {"ios": "https://dc.lft.to/lastmile_qr_scan", "android": "https://dc.lft.to/lastmile_qr_scan"}, "lon": -76.986684, "bike_id": "9bb4c42a28af1b6bd9b6b3c79a9c0c11", "type": "electric_bike", "name": "9bb4c42a28af1b6bd9b6b3c79a9c0c11"}, {"is_disabled": 0, "is_reserved": 0, "fusion_lat": 0.0, "lat": 38.90265333333333, "fusion_lon": 0.0, "rental_uris": {"ios": "https://dc.lft.to/lastmile_qr_scan", "android": "https://dc.lft.to/lastmile_qr_scan"}, "lon": -77.02658733333334, "bike_id": "2b20957d339c88d1dc879e79fc2c5974", "type": "electric_scooter", "name": "2b20957d339c88d1dc879e79fc2c5974"}, {"is_disabled": 0, "is_reserved": 0, "fusion_lat": 0.0, "lat": 38.88714816666667, "fusion_lon": 0.0, "rental_uris": {"ios": "https://dc.lft.to/lastmile_qr_scan", "android": "https://dc.lft.to/lastmile_qr_scan"}, "lon": -76.996103, "bike_id": "a5466e664c95ecc443883906a9dfcd92", "type": "electric_scooter", "name": "a5466e664c95ecc443883906a9dfcd92"}, {"is_disabled": 0, "is_reserved": 0, "fusion_lat": 0.0, "lat": 38.84628383333333, "fusion_lon": 0.0, "rental_uris": {"ios": "https://dc.lft.to/lastmile_qr_scan", "android": "https://dc.lft.to/lastmile_qr_scan"}, "lon": -76.96902, "bike_id": "41c5e998f8bfad3a24d7efc64b242e62", "type": "electric_bike", "name": "41c5e998f8bfad3a24d7efc64b242e62"}, {"is_disabled": 0, "is_reserved": 0, "fusion_lat": 0.0, "lat": 38.83492916666667, "fusion_lon": 0.0, "rental_uris": {"ios": "https://dc.lft.to/lastmile_qr_scan", "android": "https://dc.lft.to/lastmile_qr_scan"}, "lon": -77.00438433333333, "bike_id": "d28bd7a41457da5fc7753a42ee06d701", "type": "electric_bike", "name": "d28bd7a41457da5fc7753a42ee06d701"}, {"is_disabled": 0, "is_reserved": 0, "fusion_lat": 0.0, "lat": 38.905014333333334, "fusion_lon": 0.0, "rental_uris": {"ios": "https://dc.lft.to/lastmile_qr_scan", "android": "https://dc.lft.to/lastmile_qr_scan"}, "lon": -77.05693516666666, "bike_id": "b33a6e00f456967737d212cbf5b23d49", "type": "electric_bike", "name": "b33a6e00f456967737d212cbf5b23d49"}, {"is_disabled": 0, "is_reserved": 0, "fusion_lat": 0.0, "lat": 38.9051685, "fusion_lon": 0.0, "rental_uris": {"ios": "https://dc.lft.to/lastmile_qr_scan", "android": "https://dc.lft.to/lastmile_qr_scan"}, "lon": -77.04080983333333, "bike_id": "eaa81a2b818978f5e28300fa9c8435f9", "type": "electric_scooter", "name": "eaa81a2b818978f5e28300fa9c8435f9"}, {"is_disabled": 0, "is_reserved": 0, "fusion_lat": 0.0, "lat": 38.89238666666667, "fusion_lon": 0.0, "rental_uris": {"ios": "https://dc.lft.to/lastmile_qr_scan", "android": "https://dc.lft.to/lastmile_qr_scan"}, "lon": -77.031297, "bike_id": "b1b0460302a8e7e27cf95c478c9fde0c", "type": "electric_scooter", "name": "b1b0460302a8e7e27cf95c478c9fde0c"}, {"is_disabled": 0, "is_reserved": 0, "fusion_lat": 0.0, "lat": 38.9308055, "fusion_lon": 0.0, "rental_uris": {"ios": "https://dc.lft.to/lastmile_qr_scan", "android": "https://dc.lft.to/lastmile_qr_scan"}, "lon": -77.0280675, "bike_id": "7b9b55f4bf700bcef66a5d3db1896a76", "type": "electric_scooter", "name": "7b9b55f4bf700bcef66a5d3db1896a76"}, {"is_disabled": 0, "is_reserved": 0, "fusion_lat": 0.0, "lat": 38.901283166666666, "fusion_lon": 0.0, "rental_uris": {"ios": "https://dc.lft.to/lastmile_qr_scan", "android": "https://dc.lft.to/lastmile_qr_scan"}, "lon": -77.002826, "bike_id": "115e3c99b9d5955d92eb2b3e0027f317", "type": "electric_scooter", "name": "115e3c99b9d5955d92eb2b3e0027f317"}, {"is_disabled": 0, "is_reserved": 0, "fusion_lat": 0.0, "lat": 38.9243115, "fusion_lon": 0.0, "rental_uris": {"ios": "https://dc.lft.to/lastmile_qr_scan", "android": "https://dc.lft.to/lastmile_qr_scan"}, "lon": -77.029854, "bike_id": "f895e29d3efb473ee2e90689d0d97294", "type": "electric_scooter", "name": "f895e29d3efb473ee2e90689d0d97294"}, {"is_disabled": 0, "is_reserved": 0, "fusion_lat": 0.0, "lat": 38.9047455, "fusion_lon": 0.0, "rental_uris": {"ios": "https://dc.lft.to/lastmile_qr_scan", "android": "https://dc.lft.to/lastmile_qr_scan"}, "lon": -77.04846566666667, "bike_id": "b377f6ef7cbb2cfbf12b31a9923cc250", "type": "electric_scooter", "name": "b377f6ef7cbb2cfbf12b31a9923cc250"}, {"is_disabled": 0, "is_reserved": 0, "fusion_lat": 0.0, "lat": 38.925533, "fusion_lon": 0.0, "rental_uris": {"ios": "https://dc.lft.to/lastmile_qr_scan", "android": "https://dc.lft.to/lastmile_qr_scan"}, "lon": -77.03798033333334, "bike_id": "7d42ab0d3372638a678bd0fe99514bcf", "type": "electric_scooter", "name": "7d42ab0d3372638a678bd0fe99514bcf"}, {"is_disabled": 0, "is_reserved": 0, "fusion_lat": 0.0, "lat": 38.8552335, "fusion_lon": 0.0, "rental_uris": {"ios": "https://dc.lft.to/lastmile_qr_scan", "android": "https://dc.lft.to/lastmile_qr_scan"}, "lon": -76.99180166666666, "bike_id": "f860ecf9bfc3c00a004cbd3ad85dd26f", "type": "electric_scooter", "name": "f860ecf9bfc3c00a004cbd3ad85dd26f"}, {"is_disabled": 0, "is_reserved": 0, "fusion_lat": 0.0, "lat": 38.884872333333334, "fusion_lon": 0.0, "rental_uris": {"ios": "https://dc.lft.to/lastmile_qr_scan", "android": "https://dc.lft.to/lastmile_qr_scan"}, "lon": -77.034787, "bike_id": "1f7a26ff6ed4716fd418d4c3a57828ea", "type": "electric_scooter", "name": "1f7a26ff6ed4716fd418d4c3a57828ea"}, {"is_disabled": 0, "is_reserved": 0, "fusion_lat": 0.0, "lat": 38.898224666666664, "fusion_lon": 0.0, "rental_uris": {"ios": "https://dc.lft.to/lastmile_qr_scan", "android": "https://dc.lft.to/lastmile_qr_scan"}, "lon": -77.02932066666666, "bike_id": "6315588e4af1a79cbd607c6e2a3cdebc", "type": "electric_scooter", "name": "6315588e4af1a79cbd607c6e2a3cdebc"}, {"is_disabled": 0, "is_reserved": 0, "fusion_lat": 0.0, "lat": 38.91686716666667, "fusion_lon": 0.0, "rental_uris": {"ios": "https://dc.lft.to/lastmile_qr_scan", "android": "https://dc.lft.to/lastmile_qr_scan"}, "lon": -77.02717866666667, "bike_id": "0bc8457143fbdf6b67402ad887e8c1bd", "type": "electric_scooter", "name": "0bc8457143fbdf6b67402ad887e8c1bd"}, {"is_disabled": 0, "is_reserved": 0, "fusion_lat": 0.0, "lat": 38.910998, "fusion_lon": 0.0, "rental_uris": {"ios": "https://dc.lft.to/lastmile_qr_scan", "android": "https://dc.lft.to/lastmile_qr_scan"}, "lon": -77.03201666666666, "bike_id": "94dd8a6283e33edfa46b32d4df20896f", "type": "electric_scooter", "name": "94dd8a6283e33edfa46b32d4df20896f"}, {"is_disabled": 0, "is_reserved": 0, "fusion_lat": 0.0, "lat": 38.904796833333336, "fusion_lon": 0.0, "rental_uris": {"ios": "https://dc.lft.to/lastmile_qr_scan", "android": "https://dc.lft.to/lastmile_qr_scan"}, "lon": -76.95067433333334, "bike_id": "a67a962631176a57f9ad381abd2ec212", "type": "electric_scooter", "name": "a67a962631176a57f9ad381abd2ec212"}, {"is_disabled": 0, "is_reserved": 0, "fusion_lat": 0.0, "lat": 38.97156966666667, "fusion_lon": 0.0, "rental_uris": {"ios": "https://dc.lft.to/lastmile_qr_scan", "android": "https://dc.lft.to/lastmile_qr_scan"}, "lon": -76.98363016666667, "bike_id": "66ec056b24dbd16af9935410e7f1df33", "type": "electric_bike", "name": "66ec056b24dbd16af9935410e7f1df33"}, {"is_disabled": 0, "is_reserved": 0, "fusion_lat": 0.0, "lat": 38.890237166666665, "fusion_lon": 0.0, "rental_uris": {"ios": "https://dc.lft.to/lastmile_qr_scan", "android": "https://dc.lft.to/lastmile_qr_scan"}, "lon": -76.93733733333333, "bike_id": "bc47e4c9ccad1cc561c44b8bab317d45", "type": "electric_scooter", "name": "bc47e4c9ccad1cc561c44b8bab317d45"}, {"is_disabled": 0, "is_reserved": 0, "fusion_lat": 0.0, "lat": 38.897053666666665, "fusion_lon": 0.0, "rental_uris": {"ios": "https://dc.lft.to/lastmile_qr_scan", "android": "https://dc.lft.to/lastmile_qr_scan"}, "lon": -76.939135, "bike_id": "074360abf4bfd405bbb40ebccb31cc2a", "type": "electric_scooter", "name": "074360abf4bfd405bbb40ebccb31cc2a"}, {"is_disabled": 0, "is_reserved": 0, "fusion_lat": 0.0, "lat": 38.91153333333333, "fusion_lon": 0.0, "rental_uris": {"ios": "https://dc.lft.to/lastmile_qr_scan", "android": "https://dc.lft.to/lastmile_qr_scan"}, "lon": -77.0109365, "bike_id": "375da090177973ef29018e732b278655", "type": "electric_scooter", "name": "375da090177973ef29018e732b278655"}, {"is_disabled": 0, "is_reserved": 0, "fusion_lat": 0.0, "lat": 38.926536166666665, "fusion_lon": 0.0, "rental_uris": {"ios": "https://dc.lft.to/lastmile_qr_scan", "android": "https://dc.lft.to/lastmile_qr_scan"}, "lon": -77.090243, "bike_id": "3122f23cf09e4c318e099a3496612a6f", "type": "electric_bike", "name": "3122f23cf09e4c318e099a3496612a6f"}, {"is_disabled": 0, "is_reserved": 0, "fusion_lat": 0.0, "lat": 38.93936166666667, "fusion_lon": 0.0, "rental_uris": {"ios": "https://dc.lft.to/lastmile_qr_scan", "android": "https://dc.lft.to/lastmile_qr_scan"}, "lon": -77.02583633333333, "bike_id": "7c9eeb783fd2051b7f00bd0e391c07dd", "type": "electric_scooter", "name": "7c9eeb783fd2051b7f00bd0e391c07dd"}, {"is_disabled": 0, "is_reserved": 0, "fusion_lat": 0.0, "lat": 38.9107535, "fusion_lon": 0.0, "rental_uris": {"ios": "https://dc.lft.to/lastmile_qr_scan", "android": "https://dc.lft.to/lastmile_qr_scan"}, "lon": -77.03723883333333, "bike_id": "da650b9e6fb3750f0205e5ac01977164", "type": "electric_scooter", "name": "da650b9e6fb3750f0205e5ac01977164"}, {"is_disabled": 0, "is_reserved": 0, "fusion_lat": 0.0, "lat": 38.90323433333333, "fusion_lon": 0.0, "rental_uris": {"ios": "https://dc.lft.to/lastmile_qr_scan", "android": "https://dc.lft.to/lastmile_qr_scan"}, "lon": -76.97541083333333, "bike_id": "128f76b8bc10b15e1e9ed64965ee32f3", "type": "electric_scooter", "name": "128f76b8bc10b15e1e9ed64965ee32f3"}, {"is_disabled": 0, "is_reserved": 0, "fusion_lat": 0.0, "lat": 38.917157833333334, "fusion_lon": 0.0, "rental_uris": {"ios": "https://dc.lft.to/lastmile_qr_scan", "android": "https://dc.lft.to/lastmile_qr_scan"}, "lon": -77.0417425, "bike_id": "4693598f0fbb58c1d8cede376a552377", "type": "electric_scooter", "name": "4693598f0fbb58c1d8cede376a552377"}, {"is_disabled": 0, "is_reserved": 0, "fusion_lat": 0.0, "lat": 38.89567983333333, "fusion_lon": 0.0, "rental_uris": {"ios": "https://dc.lft.to/lastmile_qr_scan", "android": "https://dc.lft.to/lastmile_qr_scan"}, "lon": -77.12734866666666, "bike_id": "429154ee2c9fb4086b0b0137e9f99059", "type": "electric_bike", "name": "429154ee2c9fb4086b0b0137e9f99059"}, {"is_disabled": 0, "is_reserved": 0, "fusion_lat": 0.0, "lat": 38.90906183333333, "fusion_lon": 0.0, "rental_uris": {"ios": "https://dc.lft.to/lastmile_qr_scan", "android": "https://dc.lft.to/lastmile_qr_scan"}, "lon": -77.023019, "bike_id": "5f7d63a647e4883900439462eee8292f", "type": "electric_scooter", "name": "5f7d63a647e4883900439462eee8292f"}, {"is_disabled": 0, "is_reserved": 0, "fusion_lat": 0.0, "lat": 38.916861, "fusion_lon": 0.0, "rental_uris": {"ios": "https://dc.lft.to/lastmile_qr_scan", "android": "https://dc.lft.to/lastmile_qr_scan"}, "lon": -77.028024, "bike_id": "ff50488f5a4dd9907ec4e2871eb677a4", "type": "electric_scooter", "name": "ff50488f5a4dd9907ec4e2871eb677a4"}, {"is_disabled": 0, "is_reserved": 0, "fusion_lat": 0.0, "lat": 38.871735666666666, "fusion_lon": 0.0, "rental_uris": {"ios": "https://dc.lft.to/lastmile_qr_scan", "android": "https://dc.lft.to/lastmile_qr_scan"}, "lon": -77.0063, "bike_id": "1585ef4e3d7364f00ea8351ddf4a94aa", "type": "electric_scooter", "name": "1585ef4e3d7364f00ea8351ddf4a94aa"}, {"is_disabled": 0, "is_reserved": 0, "fusion_lat": 0.0, "lat": 38.90159933333333, "fusion_lon": 0.0, "rental_uris": {"ios": "https://dc.lft.to/lastmile_qr_scan", "android": "https://dc.lft.to/lastmile_qr_scan"}, "lon": -77.03217633333334, "bike_id": "18af6a79153d0b8fba9d885be219addc", "type": "electric_scooter", "name": "18af6a79153d0b8fba9d885be219addc"}, {"is_disabled": 0, "is_reserved": 0, "fusion_lat": 0.0, "lat": 38.916944, "fusion_lon": 0.0, "rental_uris": {"ios": "https://dc.lft.to/lastmile_qr_scan", "android": "https://dc.lft.to/lastmile_qr_scan"}, "lon": -77.02519216666667, "bike_id": "a868df6f25d2d27f690049514b4e0541", "type": "electric_scooter", "name": "a868df6f25d2d27f690049514b4e0541"}, {"is_disabled": 0, "is_reserved": 0, "fusion_lat": 0.0, "lat": 38.91858, "fusion_lon": 0.0, "rental_uris": {"ios": "https://dc.lft.to/lastmile_qr_scan", "android": "https://dc.lft.to/lastmile_qr_scan"}, "lon": -76.96089, "bike_id": "9dbafb8df8597861bb068f1d3eec0269", "type": "electric_scooter", "name": "9dbafb8df8597861bb068f1d3eec0269"}, {"is_disabled": 0, "is_reserved": 0, "fusion_lat": 0.0, "lat": 38.9095145, "fusion_lon": 0.0, "rental_uris": {"ios": "https://dc.lft.to/lastmile_qr_scan", "android": "https://dc.lft.to/lastmile_qr_scan"}, "lon": -77.03184783333333, "bike_id": "3443975ddb16bbc49f76e65edd0ee664", "type": "electric_scooter", "name": "3443975ddb16bbc49f76e65edd0ee664"}, {"is_disabled": 0, "is_reserved": 0, "fusion_lat": 0.0, "lat": 38.909749, "fusion_lon": 0.0, "rental_uris": {"ios": "https://dc.lft.to/lastmile_qr_scan", "android": "https://dc.lft.to/lastmile_qr_scan"}, "lon": -77.04832166666667, "bike_id": "255d48eaa7c1ca168de17794751685ce", "type": "electric_scooter", "name": "255d48eaa7c1ca168de17794751685ce"}, {"is_disabled": 0, "is_reserved": 0, "fusion_lat": 0.0, "lat": 38.8901095, "fusion_lon": 0.0, "rental_uris": {"ios": "https://dc.lft.to/lastmile_qr_scan", "android": "https://dc.lft.to/lastmile_qr_scan"}, "lon": -76.9374065, "bike_id": "c9ef1647544a3008b5c96f5414b211e4", "type": "electric_scooter", "name": "c9ef1647544a3008b5c96f5414b211e4"}, {"is_disabled": 0, "is_reserved": 0, "fusion_lat": 0.0, "lat": 38.8940965, "fusion_lon": 0.0, "rental_uris": {"ios": "https://dc.lft.to/lastmile_qr_scan", "android": "https://dc.lft.to/lastmile_qr_scan"}, "lon": -77.0337635, "bike_id": "680f256ba078fa2ea3ce848a3a1d1335", "type": "electric_scooter", "name": "680f256ba078fa2ea3ce848a3a1d1335"}, {"is_disabled": 0, "is_reserved": 0, "fusion_lat": 0.0, "lat": 38.900058333333334, "fusion_lon": 0.0, "rental_uris": {"ios": "https://dc.lft.to/lastmile_qr_scan", "android": "https://dc.lft.to/lastmile_qr_scan"}, "lon": -77.027235, "bike_id": "bb024e51b61ff02ac61155433a0f6222", "type": "electric_scooter", "name": "bb024e51b61ff02ac61155433a0f6222"}, {"is_disabled": 0, "is_reserved": 0, "fusion_lat": 0.0, "lat": 38.90258033333333, "fusion_lon": 0.0, "rental_uris": {"ios": "https://dc.lft.to/lastmile_qr_scan", "android": "https://dc.lft.to/lastmile_qr_scan"}, "lon": -76.97709933333333, "bike_id": "c57327a2c820ded96a3a59703efb9c54", "type": "electric_scooter", "name": "c57327a2c820ded96a3a59703efb9c54"}, {"is_disabled": 0, "is_reserved": 0, "fusion_lat": 0.0, "lat": 38.92014916666667, "fusion_lon": 0.0, "rental_uris": {"ios": "https://dc.lft.to/lastmile_qr_scan", "android": "https://dc.lft.to/lastmile_qr_scan"}, "lon": -77.021887, "bike_id": "32e5cd51bc444824edc4ca9022df1177", "type": "electric_scooter", "name": "32e5cd51bc444824edc4ca9022df1177"}, {"is_disabled": 0, "is_reserved": 0, "fusion_lat": 0.0, "lat": 38.944981, "fusion_lon": 0.0, "rental_uris": {"ios": "https://dc.lft.to/lastmile_qr_scan", "android": "https://dc.lft.to/lastmile_qr_scan"}, "lon": -77.0326575, "bike_id": "dc44fbb46d75daf1bb4d07be2ec2b0d0", "type": "electric_scooter", "name": "dc44fbb46d75daf1bb4d07be2ec2b0d0"}, {"is_disabled": 0, "is_reserved": 0, "fusion_lat": 0.0, "lat": 38.9306345, "fusion_lon": 0.0, "rental_uris": {"ios": "https://dc.lft.to/lastmile_qr_scan", "android": "https://dc.lft.to/lastmile_qr_scan"}, "lon": -77.0393705, "bike_id": "c6f9a572937855562ebff8c7595541f9", "type": "electric_scooter", "name": "c6f9a572937855562ebff8c7595541f9"}, {"is_disabled": 0, "is_reserved": 0, "fusion_lat": 0.0, "lat": 38.915856833333336, "fusion_lon": 0.0, "rental_uris": {"ios": "https://dc.lft.to/lastmile_qr_scan", "android": "https://dc.lft.to/lastmile_qr_scan"}, "lon": -77.01879466666666, "bike_id": "13bec551738faa329b483cc08f7c2526", "type": "electric_scooter", "name": "13bec551738faa329b483cc08f7c2526"}, {"is_disabled": 0, "is_reserved": 0, "fusion_lat": 0.0, "lat": 38.925056, "fusion_lon": 0.0, "rental_uris": {"ios": "https://dc.lft.to/lastmile_qr_scan", "android": "https://dc.lft.to/lastmile_qr_scan"}, "lon": -77.02441983333334, "bike_id": "acb56bdebb2f269b0125db1314112dd6", "type": "electric_scooter", "name": "acb56bdebb2f269b0125db1314112dd6"}, {"is_disabled": 0, "is_reserved": 0, "fusion_lat": 0.0, "lat": 38.8794585, "fusion_lon": 0.0, "rental_uris": {"ios": "https://dc.lft.to/lastmile_qr_scan", "android": "https://dc.lft.to/lastmile_qr_scan"}, "lon": -77.00857533333334, "bike_id": "3fd42cb71085d4bceff54c9bcf71259b", "type": "electric_bike", "name": "3fd42cb71085d4bceff54c9bcf71259b"}, {"is_disabled": 0, "is_reserved": 0, "fusion_lat": 0.0, "lat": 38.952449333333334, "fusion_lon": 0.0, "rental_uris": {"ios": "https://dc.lft.to/lastmile_qr_scan", "android": "https://dc.lft.to/lastmile_qr_scan"}, "lon": -76.98249416666667, "bike_id": "a015fe59e3737beacdcd8908e74b8eba", "type": "electric_bike", "name": "a015fe59e3737beacdcd8908e74b8eba"}, {"is_disabled": 0, "is_reserved": 0, "fusion_lat": 0.0, "lat": 38.92694916666667, "fusion_lon": 0.0, "rental_uris": {"ios": "https://dc.lft.to/lastmile_qr_scan", "android": "https://dc.lft.to/lastmile_qr_scan"}, "lon": -76.99788233333334, "bike_id": "c4bcd2f70493ae2a3f72f5ef6e4f8371", "type": "electric_scooter", "name": "c4bcd2f70493ae2a3f72f5ef6e4f8371"}, {"is_disabled": 0, "is_reserved": 0, "fusion_lat": 0.0, "lat": 38.900715, "fusion_lon": 0.0, "rental_uris": {"ios": "https://dc.lft.to/lastmile_qr_scan", "android": "https://dc.lft.to/lastmile_qr_scan"}, "lon": -76.9497265, "bike_id": "5b2622324bdd17ef9db7eebbaa0ce47c", "type": "electric_scooter", "name": "5b2622324bdd17ef9db7eebbaa0ce47c"}, {"is_disabled": 0, "is_reserved": 0, "fusion_lat": 0.0, "lat": 38.86891516666667, "fusion_lon": 0.0, "rental_uris": {"ios": "https://dc.lft.to/lastmile_qr_scan", "android": "https://dc.lft.to/lastmile_qr_scan"}, "lon": -76.98997966666667, "bike_id": "46dd93d5968086b6aa9195a00ba4d4a5", "type": "electric_scooter", "name": "46dd93d5968086b6aa9195a00ba4d4a5"}, {"is_disabled": 0, "is_reserved": 0, "fusion_lat": 0.0, "lat": 38.89608033333333, "fusion_lon": 0.0, "rental_uris": {"ios": "https://dc.lft.to/lastmile_qr_scan", "android": "https://dc.lft.to/lastmile_qr_scan"}, "lon": -76.98319666666667, "bike_id": "3990a52fb7889619b7271b7471c1e206", "type": "electric_scooter", "name": "3990a52fb7889619b7271b7471c1e206"}, {"is_disabled": 0, "is_reserved": 0, "fusion_lat": 0.0, "lat": 38.918458666666666, "fusion_lon": 0.0, "rental_uris": {"ios": "https://dc.lft.to/lastmile_qr_scan", "android": "https://dc.lft.to/lastmile_qr_scan"}, "lon": -77.032008, "bike_id": "f8f56e5ec1c26d427303017e5f828072", "type": "electric_scooter", "name": "f8f56e5ec1c26d427303017e5f828072"}, {"is_disabled": 0, "is_reserved": 0, "fusion_lat": 0.0, "lat": 38.869790333333334, "fusion_lon": 0.0, "rental_uris": {"ios": "https://dc.lft.to/lastmile_qr_scan", "android": "https://dc.lft.to/lastmile_qr_scan"}, "lon": -77.01369083333333, "bike_id": "8b02d2fd150bf9e497c146269ba014f6", "type": "electric_scooter", "name": "8b02d2fd150bf9e497c146269ba014f6"}, {"is_disabled": 0, "is_reserved": 0, "fusion_lat": 0.0, "lat": 38.91576716666667, "fusion_lon": 0.0, "rental_uris": {"ios": "https://dc.lft.to/lastmile_qr_scan", "android": "https://dc.lft.to/lastmile_qr_scan"}, "lon": -77.0503285, "bike_id": "33c8317ca6972995418d09e3d125f449", "type": "electric_scooter", "name": "33c8317ca6972995418d09e3d125f449"}, {"is_disabled": 0, "is_reserved": 0, "fusion_lat": 0.0, "lat": 38.912654333333336, "fusion_lon": 0.0, "rental_uris": {"ios": "https://dc.lft.to/lastmile_qr_scan", "android": "https://dc.lft.to/lastmile_qr_scan"}, "lon": -77.03302066666667, "bike_id": "1750cd48849c429b5c984f5d64259545", "type": "electric_scooter", "name": "1750cd48849c429b5c984f5d64259545"}, {"is_disabled": 0, "is_reserved": 0, "fusion_lat": 0.0, "lat": 38.907663666666664, "fusion_lon": 0.0, "rental_uris": {"ios": "https://dc.lft.to/lastmile_qr_scan", "android": "https://dc.lft.to/lastmile_qr_scan"}, "lon": -77.02401266666666, "bike_id": "52cd58166b4a6ee3dade1333c23e4863", "type": "electric_scooter", "name": "52cd58166b4a6ee3dade1333c23e4863"}, {"is_disabled": 0, "is_reserved": 0, "fusion_lat": 0.0, "lat": 38.9035835, "fusion_lon": 0.0, "rental_uris": {"ios": "https://dc.lft.to/lastmile_qr_scan", "android": "https://dc.lft.to/lastmile_qr_scan"}, "lon": -77.0600745, "bike_id": "807149566e771a230aa62db7e9f02166", "type": "electric_scooter", "name": "807149566e771a230aa62db7e9f02166"}, {"is_disabled": 0, "is_reserved": 0, "fusion_lat": 0.0, "lat": 38.842640833333334, "fusion_lon": 0.0, "rental_uris": {"ios": "https://dc.lft.to/lastmile_qr_scan", "android": "https://dc.lft.to/lastmile_qr_scan"}, "lon": -76.98848183333334, "bike_id": "5bac5033f48f94aa5f2ea321e661686b", "type": "electric_scooter", "name": "5bac5033f48f94aa5f2ea321e661686b"}, {"is_disabled": 0, "is_reserved": 0, "fusion_lat": 0.0, "lat": 38.879178, "fusion_lon": 0.0, "rental_uris": {"ios": "https://dc.lft.to/lastmile_qr_scan", "android": "https://dc.lft.to/lastmile_qr_scan"}, "lon": -76.995059, "bike_id": "3dfc9d9c72d36f5b0acbc91b9d35f55d", "type": "electric_scooter", "name": "3dfc9d9c72d36f5b0acbc91b9d35f55d"}, {"is_disabled": 0, "is_reserved": 0, "fusion_lat": 0.0, "lat": 38.892255666666664, "fusion_lon": 0.0, "rental_uris": {"ios": "https://dc.lft.to/lastmile_qr_scan", "android": "https://dc.lft.to/lastmile_qr_scan"}, "lon": -77.046835, "bike_id": "53cf9b5f7473fed268405fc13c98c98e", "type": "electric_scooter", "name": "53cf9b5f7473fed268405fc13c98c98e"}, {"is_disabled": 0, "is_reserved": 0, "fusion_lat": 0.0, "lat": 38.90224416666667, "fusion_lon": 0.0, "rental_uris": {"ios": "https://dc.lft.to/lastmile_qr_scan", "android": "https://dc.lft.to/lastmile_qr_scan"}, "lon": -77.023807, "bike_id": "2d5ac73686fbaed7592d86f31905d3af", "type": "electric_scooter", "name": "2d5ac73686fbaed7592d86f31905d3af"}, {"is_disabled": 0, "is_reserved": 0, "fusion_lat": 0.0, "lat": 38.904439333333336, "fusion_lon": 0.0, "rental_uris": {"ios": "https://dc.lft.to/lastmile_qr_scan", "android": "https://dc.lft.to/lastmile_qr_scan"}, "lon": -76.9730875, "bike_id": "bb6361533472a45fb00db9ab79542592", "type": "electric_scooter", "name": "bb6361533472a45fb00db9ab79542592"}, {"is_disabled": 0, "is_reserved": 0, "fusion_lat": 0.0, "lat": 38.96355466666667, "fusion_lon": 0.0, "rental_uris": {"ios": "https://dc.lft.to/lastmile_qr_scan", "android": "https://dc.lft.to/lastmile_qr_scan"}, "lon": -77.0344125, "bike_id": "25bdc5497df7bac72b71ee54196461f5", "type": "electric_scooter", "name": "25bdc5497df7bac72b71ee54196461f5"}, {"is_disabled": 0, "is_reserved": 0, "fusion_lat": 0.0, "lat": 38.905307666666666, "fusion_lon": 0.0, "rental_uris": {"ios": "https://dc.lft.to/lastmile_qr_scan", "android": "https://dc.lft.to/lastmile_qr_scan"}, "lon": -77.05937466666667, "bike_id": "48ec615e92094304bfa3b269812507b9", "type": "electric_scooter", "name": "48ec615e92094304bfa3b269812507b9"}, {"is_disabled": 0, "is_reserved": 0, "fusion_lat": 0.0, "lat": 38.93768333333333, "fusion_lon": 0.0, "rental_uris": {"ios": "https://dc.lft.to/lastmile_qr_scan", "android": "https://dc.lft.to/lastmile_qr_scan"}, "lon": -77.02478083333334, "bike_id": "1c7374cf35d7689f6aa96fa115cc33c3", "type": "electric_scooter", "name": "1c7374cf35d7689f6aa96fa115cc33c3"}, {"is_disabled": 0, "is_reserved": 0, "fusion_lat": 0.0, "lat": 38.911648, "fusion_lon": 0.0, "rental_uris": {"ios": "https://dc.lft.to/lastmile_qr_scan", "android": "https://dc.lft.to/lastmile_qr_scan"}, "lon": -77.02202733333333, "bike_id": "61b9d81eb731cf3a60108d36271ff62e", "type": "electric_scooter", "name": "61b9d81eb731cf3a60108d36271ff62e"}, {"is_disabled": 0, "is_reserved": 0, "fusion_lat": 0.0, "lat": 38.941403333333334, "fusion_lon": 0.0, "rental_uris": {"ios": "https://dc.lft.to/lastmile_qr_scan", "android": "https://dc.lft.to/lastmile_qr_scan"}, "lon": -77.02319216666666, "bike_id": "2e2c34395ca9925092b470f2d145f9f0", "type": "electric_scooter", "name": "2e2c34395ca9925092b470f2d145f9f0"}, {"is_disabled": 0, "is_reserved": 0, "fusion_lat": 0.0, "lat": 38.93792783333333, "fusion_lon": 0.0, "rental_uris": {"ios": "https://dc.lft.to/lastmile_qr_scan", "android": "https://dc.lft.to/lastmile_qr_scan"}, "lon": -77.02977933333334, "bike_id": "118192c0f5ae0a46a27433f66ae7874a", "type": "electric_scooter", "name": "118192c0f5ae0a46a27433f66ae7874a"}, {"is_disabled": 0, "is_reserved": 0, "fusion_lat": 0.0, "lat": 38.89959233333333, "fusion_lon": 0.0, "rental_uris": {"ios": "https://dc.lft.to/lastmile_qr_scan", "android": "https://dc.lft.to/lastmile_qr_scan"}, "lon": -77.05101533333334, "bike_id": "fe2c0c08a45b03582546463ea20ecffa", "type": "electric_scooter", "name": "fe2c0c08a45b03582546463ea20ecffa"}, {"is_disabled": 0, "is_reserved": 0, "fusion_lat": 0.0, "lat": 38.92286683333333, "fusion_lon": 0.0, "rental_uris": {"ios": "https://dc.lft.to/lastmile_qr_scan", "android": "https://dc.lft.to/lastmile_qr_scan"}, "lon": -77.02963633333333, "bike_id": "711630e124189486dbcd7e09be3ecc5d", "type": "electric_scooter", "name": "711630e124189486dbcd7e09be3ecc5d"}, {"is_disabled": 0, "is_reserved": 0, "fusion_lat": 0.0, "lat": 38.95218333333333, "fusion_lon": 0.0, "rental_uris": {"ios": "https://dc.lft.to/lastmile_qr_scan", "android": "https://dc.lft.to/lastmile_qr_scan"}, "lon": -77.08867366666666, "bike_id": "361f7ac439def076d7d470885490cc6b", "type": "electric_scooter", "name": "361f7ac439def076d7d470885490cc6b"}, {"is_disabled": 0, "is_reserved": 0, "fusion_lat": 0.0, "lat": 38.90455083333333, "fusion_lon": 0.0, "rental_uris": {"ios": "https://dc.lft.to/lastmile_qr_scan", "android": "https://dc.lft.to/lastmile_qr_scan"}, "lon": -77.043253, "bike_id": "7650f36d71a8b8d7e4bff78805be7418", "type": "electric_scooter", "name": "7650f36d71a8b8d7e4bff78805be7418"}, {"is_disabled": 0, "is_reserved": 0, "fusion_lat": 0.0, "lat": 38.892489166666664, "fusion_lon": 0.0, "rental_uris": {"ios": "https://dc.lft.to/lastmile_qr_scan", "android": "https://dc.lft.to/lastmile_qr_scan"}, "lon": -77.0395915, "bike_id": "c859257a29e27c9d8a1bd10f75f159bf", "type": "electric_scooter", "name": "c859257a29e27c9d8a1bd10f75f159bf"}, {"is_disabled": 0, "is_reserved": 0, "fusion_lat": 0.0, "lat": 38.842736333333335, "fusion_lon": 0.0, "rental_uris": {"ios": "https://dc.lft.to/lastmile_qr_scan", "android": "https://dc.lft.to/lastmile_qr_scan"}, "lon": -76.98845033333333, "bike_id": "207b4c508fd0e0b1910f1c18132efcd6", "type": "electric_scooter", "name": "207b4c508fd0e0b1910f1c18132efcd6"}, {"is_disabled": 0, "is_reserved": 0, "fusion_lat": 0.0, "lat": 38.911617, "fusion_lon": 0.0, "rental_uris": {"ios": "https://dc.lft.to/lastmile_qr_scan", "android": "https://dc.lft.to/lastmile_qr_scan"}, "lon": -77.02201666666667, "bike_id": "bc2c5f6186a428b9d4052c0b9a58ab60", "type": "electric_scooter", "name": "bc2c5f6186a428b9d4052c0b9a58ab60"}, {"is_disabled": 0, "is_reserved": 0, "fusion_lat": 0.0, "lat": 38.92314783333333, "fusion_lon": 0.0, "rental_uris": {"ios": "https://dc.lft.to/lastmile_qr_scan", "android": "https://dc.lft.to/lastmile_qr_scan"}, "lon": -77.02905616666666, "bike_id": "12e72235ada7d7e52bb2baee4d7717fe", "type": "electric_scooter", "name": "12e72235ada7d7e52bb2baee4d7717fe"}, {"is_disabled": 0, "is_reserved": 0, "fusion_lat": 0.0, "lat": 38.93198616666667, "fusion_lon": 0.0, "rental_uris": {"ios": "https://dc.lft.to/lastmile_qr_scan", "android": "https://dc.lft.to/lastmile_qr_scan"}, "lon": -77.0238635, "bike_id": "22adefb455fd4669a36ac4139c859719", "type": "electric_scooter", "name": "22adefb455fd4669a36ac4139c859719"}, {"is_disabled": 0, "is_reserved": 0, "fusion_lat": 0.0, "lat": 38.8829905, "fusion_lon": 0.0, "rental_uris": {"ios": "https://dc.lft.to/lastmile_qr_scan", "android": "https://dc.lft.to/lastmile_qr_scan"}, "lon": -76.93488166666667, "bike_id": "e2a34de46d2adc11e611d9c665c8d356", "type": "electric_scooter", "name": "e2a34de46d2adc11e611d9c665c8d356"}, {"is_disabled": 0, "is_reserved": 0, "fusion_lat": 0.0, "lat": 38.94653233333333, "fusion_lon": 0.0, "rental_uris": {"ios": "https://dc.lft.to/lastmile_qr_scan", "android": "https://dc.lft.to/lastmile_qr_scan"}, "lon": -77.064782, "bike_id": "e3ddccfe481de51f19463afd405704da", "type": "electric_scooter", "name": "e3ddccfe481de51f19463afd405704da"}, {"is_disabled": 0, "is_reserved": 0, "fusion_lat": 0.0, "lat": 38.906488833333334, "fusion_lon": 0.0, "rental_uris": {"ios": "https://dc.lft.to/lastmile_qr_scan", "android": "https://dc.lft.to/lastmile_qr_scan"}, "lon": -77.04536533333334, "bike_id": "33b32d8d91033c090a462c56398389ad", "type": "electric_scooter", "name": "33b32d8d91033c090a462c56398389ad"}, {"is_disabled": 0, "is_reserved": 0, "fusion_lat": 0.0, "lat": 38.852461166666664, "fusion_lon": 0.0, "rental_uris": {"ios": "https://dc.lft.to/lastmile_qr_scan", "android": "https://dc.lft.to/lastmile_qr_scan"}, "lon": -77.11409283333333, "bike_id": "5e702d22cc59f728f6da1d344eb906e8", "type": "electric_bike", "name": "5e702d22cc59f728f6da1d344eb906e8"}, {"is_disabled": 0, "is_reserved": 0, "fusion_lat": 0.0, "lat": 38.90149683333333, "fusion_lon": 0.0, "rental_uris": {"ios": "https://dc.lft.to/lastmile_qr_scan", "android": "https://dc.lft.to/lastmile_qr_scan"}, "lon": -76.9298945, "bike_id": "b01869dbe1edecaaea3ec05688ad5170", "type": "electric_scooter", "name": "b01869dbe1edecaaea3ec05688ad5170"}, {"is_disabled": 0, "is_reserved": 0, "fusion_lat": 0.0, "lat": 38.8967645, "fusion_lon": 0.0, "rental_uris": {"ios": "https://dc.lft.to/lastmile_qr_scan", "android": "https://dc.lft.to/lastmile_qr_scan"}, "lon": -77.0488345, "bike_id": "dc52e4cd314973d4220773e0bd374f2e", "type": "electric_scooter", "name": "dc52e4cd314973d4220773e0bd374f2e"}, {"is_disabled": 0, "is_reserved": 0, "fusion_lat": 0.0, "lat": 38.923367999999996, "fusion_lon": 0.0, "rental_uris": {"ios": "https://dc.lft.to/lastmile_qr_scan", "android": "https://dc.lft.to/lastmile_qr_scan"}, "lon": -77.05681433333334, "bike_id": "0777aa4a6e1e1c414bc3025b9b93d027", "type": "electric_scooter", "name": "0777aa4a6e1e1c414bc3025b9b93d027"}, {"is_disabled": 0, "is_reserved": 0, "fusion_lat": 0.0, "lat": 38.921086333333335, "fusion_lon": 0.0, "rental_uris": {"ios": "https://dc.lft.to/lastmile_qr_scan", "android": "https://dc.lft.to/lastmile_qr_scan"}, "lon": -77.0417685, "bike_id": "4d6aa0e721e09e86224400fb63b6bdbe", "type": "electric_scooter", "name": "4d6aa0e721e09e86224400fb63b6bdbe"}, {"is_disabled": 0, "is_reserved": 0, "fusion_lat": 0.0, "lat": 38.931957833333335, "fusion_lon": 0.0, "rental_uris": {"ios": "https://dc.lft.to/lastmile_qr_scan", "android": "https://dc.lft.to/lastmile_qr_scan"}, "lon": -77.03452783333333, "bike_id": "fc83316285d23fda092e8c89fd5e7430", "type": "electric_scooter", "name": "fc83316285d23fda092e8c89fd5e7430"}, {"is_disabled": 0, "is_reserved": 0, "fusion_lat": 0.0, "lat": 38.87633, "fusion_lon": 0.0, "rental_uris": {"ios": "https://dc.lft.to/lastmile_qr_scan", "android": "https://dc.lft.to/lastmile_qr_scan"}, "lon": -77.0095525, "bike_id": "a8fba87ce586a5df5125ca2c3f19efff", "type": "electric_scooter", "name": "a8fba87ce586a5df5125ca2c3f19efff"}, {"is_disabled": 0, "is_reserved": 0, "fusion_lat": 0.0, "lat": 38.91058966666667, "fusion_lon": 0.0, "rental_uris": {"ios": "https://dc.lft.to/lastmile_qr_scan", "android": "https://dc.lft.to/lastmile_qr_scan"}, "lon": -77.02305566666666, "bike_id": "94eaa75b56c0590ce3983a5cec727e43", "type": "electric_scooter", "name": "94eaa75b56c0590ce3983a5cec727e43"}, {"is_disabled": 0, "is_reserved": 0, "fusion_lat": 0.0, "lat": 38.893904, "fusion_lon": 0.0, "rental_uris": {"ios": "https://dc.lft.to/lastmile_qr_scan", "android": "https://dc.lft.to/lastmile_qr_scan"}, "lon": -77.04656416666667, "bike_id": "4511e539868203e4112148c9d694d88d", "type": "electric_scooter", "name": "4511e539868203e4112148c9d694d88d"}, {"is_disabled": 0, "is_reserved": 0, "fusion_lat": 0.0, "lat": 38.9086165, "fusion_lon": 0.0, "rental_uris": {"ios": "https://dc.lft.to/lastmile_qr_scan", "android": "https://dc.lft.to/lastmile_qr_scan"}, "lon": -77.0460075, "bike_id": "ea3fad321b28bc61f274e3b719ddb1df", "type": "electric_scooter", "name": "ea3fad321b28bc61f274e3b719ddb1df"}, {"is_disabled": 0, "is_reserved": 0, "fusion_lat": 0.0, "lat": 38.914047833333335, "fusion_lon": 0.0, "rental_uris": {"ios": "https://dc.lft.to/lastmile_qr_scan", "android": "https://dc.lft.to/lastmile_qr_scan"}, "lon": -77.03217033333334, "bike_id": "d85fdb7a5cebaff14d2ff813df963e8c", "type": "electric_scooter", "name": "d85fdb7a5cebaff14d2ff813df963e8c"}, {"is_disabled": 0, "is_reserved": 0, "fusion_lat": 0.0, "lat": 38.897467, "fusion_lon": 0.0, "rental_uris": {"ios": "https://dc.lft.to/lastmile_qr_scan", "android": "https://dc.lft.to/lastmile_qr_scan"}, "lon": -77.02126633333333, "bike_id": "d8418e04adc0e614964f16548d735d60", "type": "electric_scooter", "name": "d8418e04adc0e614964f16548d735d60"}, {"is_disabled": 0, "is_reserved": 0, "fusion_lat": 0.0, "lat": 38.932309333333336, "fusion_lon": 0.0, "rental_uris": {"ios": "https://dc.lft.to/lastmile_qr_scan", "android": "https://dc.lft.to/lastmile_qr_scan"}, "lon": -76.9970805, "bike_id": "c1e0639a7df70e1d254a33aeed43ae4f", "type": "electric_scooter", "name": "c1e0639a7df70e1d254a33aeed43ae4f"}, {"is_disabled": 0, "is_reserved": 0, "fusion_lat": 0.0, "lat": 38.915475, "fusion_lon": 0.0, "rental_uris": {"ios": "https://dc.lft.to/lastmile_qr_scan", "android": "https://dc.lft.to/lastmile_qr_scan"}, "lon": -77.04627866666667, "bike_id": "62e71fa1ed013558542ac4b08149efc5", "type": "electric_scooter", "name": "62e71fa1ed013558542ac4b08149efc5"}, {"is_disabled": 0, "is_reserved": 0, "fusion_lat": 0.0, "lat": 38.974786333333334, "fusion_lon": 0.0, "rental_uris": {"ios": "https://dc.lft.to/lastmile_qr_scan", "android": "https://dc.lft.to/lastmile_qr_scan"}, "lon": -77.0148865, "bike_id": "ea6d15c2d03d6edcc1065fa0bb98921e", "type": "electric_scooter", "name": "ea6d15c2d03d6edcc1065fa0bb98921e"}, {"is_disabled": 0, "is_reserved": 0, "fusion_lat": 0.0, "lat": 38.906711333333334, "fusion_lon": 0.0, "rental_uris": {"ios": "https://dc.lft.to/lastmile_qr_scan", "android": "https://dc.lft.to/lastmile_qr_scan"}, "lon": -77.0004105, "bike_id": "a686d5be352b6d34aff7f1d3eb31ccc0", "type": "electric_scooter", "name": "a686d5be352b6d34aff7f1d3eb31ccc0"}, {"is_disabled": 0, "is_reserved": 0, "fusion_lat": 0.0, "lat": 38.89488166666667, "fusion_lon": 0.0, "rental_uris": {"ios": "https://dc.lft.to/lastmile_qr_scan", "android": "https://dc.lft.to/lastmile_qr_scan"}, "lon": -76.97877683333333, "bike_id": "a52d61833f54dbbeefbb3c52ad557578", "type": "electric_scooter", "name": "a52d61833f54dbbeefbb3c52ad557578"}, {"is_disabled": 0, "is_reserved": 0, "fusion_lat": 0.0, "lat": 38.87174666666667, "fusion_lon": 0.0, "rental_uris": {"ios": "https://dc.lft.to/lastmile_qr_scan", "android": "https://dc.lft.to/lastmile_qr_scan"}, "lon": -77.0055125, "bike_id": "11cd589f793bfd2b9335121ad3a52218", "type": "electric_scooter", "name": "11cd589f793bfd2b9335121ad3a52218"}, {"is_disabled": 0, "is_reserved": 0, "fusion_lat": 0.0, "lat": 38.92014016666667, "fusion_lon": 0.0, "rental_uris": {"ios": "https://dc.lft.to/lastmile_qr_scan", "android": "https://dc.lft.to/lastmile_qr_scan"}, "lon": -77.04172966666667, "bike_id": "6f457b784a6c8a2d77d0a43ec7a38a72", "type": "electric_scooter", "name": "6f457b784a6c8a2d77d0a43ec7a38a72"}, {"is_disabled": 0, "is_reserved": 0, "fusion_lat": 0.0, "lat": 38.83868233333333, "fusion_lon": 0.0, "rental_uris": {"ios": "https://dc.lft.to/lastmile_qr_scan", "android": "https://dc.lft.to/lastmile_qr_scan"}, "lon": -76.996927, "bike_id": "7dd37418516c68c3fb37a38c6a36b1b8", "type": "electric_bike", "name": "7dd37418516c68c3fb37a38c6a36b1b8"}, {"is_disabled": 0, "is_reserved": 0, "fusion_lat": 0.0, "lat": 38.912069, "fusion_lon": 0.0, "rental_uris": {"ios": "https://dc.lft.to/lastmile_qr_scan", "android": "https://dc.lft.to/lastmile_qr_scan"}, "lon": -77.00836016666666, "bike_id": "b0fb2d2c344e89116f66042eb9bae5b2", "type": "electric_scooter", "name": "b0fb2d2c344e89116f66042eb9bae5b2"}, {"is_disabled": 0, "is_reserved": 0, "fusion_lat": 0.0, "lat": 38.9170975, "fusion_lon": 0.0, "rental_uris": {"ios": "https://dc.lft.to/lastmile_qr_scan", "android": "https://dc.lft.to/lastmile_qr_scan"}, "lon": -77.03118366666666, "bike_id": "61d0598c242967e8713cdd3d9ad9b773", "type": "electric_scooter", "name": "61d0598c242967e8713cdd3d9ad9b773"}, {"is_disabled": 0, "is_reserved": 0, "fusion_lat": 0.0, "lat": 38.90223133333333, "fusion_lon": 0.0, "rental_uris": {"ios": "https://dc.lft.to/lastmile_qr_scan", "android": "https://dc.lft.to/lastmile_qr_scan"}, "lon": -76.931742, "bike_id": "2380f78847f0583e777f948ee74daf1e", "type": "electric_bike", "name": "2380f78847f0583e777f948ee74daf1e"}, {"is_disabled": 0, "is_reserved": 0, "fusion_lat": 0.0, "lat": 38.923229, "fusion_lon": 0.0, "rental_uris": {"ios": "https://dc.lft.to/lastmile_qr_scan", "android": "https://dc.lft.to/lastmile_qr_scan"}, "lon": -77.03924, "bike_id": "2fc93d9104f51a848bc5b447aa79d041", "type": "electric_scooter", "name": "2fc93d9104f51a848bc5b447aa79d041"}, {"is_disabled": 0, "is_reserved": 0, "fusion_lat": 0.0, "lat": 38.898008833333336, "fusion_lon": 0.0, "rental_uris": {"ios": "https://dc.lft.to/lastmile_qr_scan", "android": "https://dc.lft.to/lastmile_qr_scan"}, "lon": -76.97168816666667, "bike_id": "a0681f1f408c2bbd5740b38380ce71d7", "type": "electric_scooter", "name": "a0681f1f408c2bbd5740b38380ce71d7"}, {"is_disabled": 0, "is_reserved": 0, "fusion_lat": 0.0, "lat": 38.879982, "fusion_lon": 0.0, "rental_uris": {"ios": "https://dc.lft.to/lastmile_qr_scan", "android": "https://dc.lft.to/lastmile_qr_scan"}, "lon": -77.03737183333334, "bike_id": "7352f4d939ff6cf42dcf3ac243850f0a", "type": "electric_scooter", "name": "7352f4d939ff6cf42dcf3ac243850f0a"}, {"is_disabled": 0, "is_reserved": 0, "fusion_lat": 0.0, "lat": 38.92087266666667, "fusion_lon": 0.0, "rental_uris": {"ios": "https://dc.lft.to/lastmile_qr_scan", "android": "https://dc.lft.to/lastmile_qr_scan"}, "lon": -77.01798533333333, "bike_id": "684457149ac8fb8941ea5b673f779e69", "type": "electric_scooter", "name": "684457149ac8fb8941ea5b673f779e69"}, {"is_disabled": 0, "is_reserved": 0, "fusion_lat": 0.0, "lat": 38.89200366666667, "fusion_lon": 0.0, "rental_uris": {"ios": "https://dc.lft.to/lastmile_qr_scan", "android": "https://dc.lft.to/lastmile_qr_scan"}, "lon": -77.04545, "bike_id": "ee3b27929ddec4637bb302f6655554fd", "type": "electric_scooter", "name": "ee3b27929ddec4637bb302f6655554fd"}, {"is_disabled": 0, "is_reserved": 0, "fusion_lat": 0.0, "lat": 38.876403833333335, "fusion_lon": 0.0, "rental_uris": {"ios": "https://dc.lft.to/lastmile_qr_scan", "android": "https://dc.lft.to/lastmile_qr_scan"}, "lon": -76.99296833333334, "bike_id": "345b56d35a001c32acd8c191f38a62db", "type": "electric_scooter", "name": "345b56d35a001c32acd8c191f38a62db"}, {"is_disabled": 0, "is_reserved": 0, "fusion_lat": 0.0, "lat": 38.9230145, "fusion_lon": 0.0, "rental_uris": {"ios": "https://dc.lft.to/lastmile_qr_scan", "android": "https://dc.lft.to/lastmile_qr_scan"}, "lon": -77.03522266666667, "bike_id": "3279f27b00ed4c1c3834e04573572529", "type": "electric_scooter", "name": "3279f27b00ed4c1c3834e04573572529"}, {"is_disabled": 0, "is_reserved": 0, "fusion_lat": 0.0, "lat": 38.906478166666666, "fusion_lon": 0.0, "rental_uris": {"ios": "https://dc.lft.to/lastmile_qr_scan", "android": "https://dc.lft.to/lastmile_qr_scan"},