{"data": {"bikes": [{"is_disabled": 0, "fusion_lat": 0.0, "lat": 38.91876633333333, "type": "electric_scooter", "lon": -77.02601566666667, "is_reserved": 0, "fusion_lon": 0.0, "bike_id": "3a3af143fe8de03e4f22855e29cea802", "name": "3a3af143fe8de03e4f22855e29cea802", "rental_uris": {"ios": "https://dc.lft.to/lastmile_qr_scan", "android": "https://dc.lft.to/lastmile_qr_scan"}}, {"is_disabled": 0, "fusion_lat": 0.0, "lat": 38.89609183333334, "type": "electric_scooter", "lon": -76.95587516666667, "is_reserved": 0, "fusion_lon": 0.0, "bike_id": "b7188ce9348bf30a74d742ab8e2e8e58", "name": "b7188ce9348bf30a74d742ab8e2e8e58", "rental_uris": {"ios": "https://dc.lft.to/lastmile_qr_scan", "android": "https://dc.lft.to/lastmile_qr_scan"}}, {"is_disabled": 0, "fusion_lat": 0.0, "lat": 38.89559466666667, "type": "electric_bike", "lon": -77.12730333333333, "is_reserved": 0, "fusion_lon": 0.0, "bike_id": "123b1e037128d417ab5fabd403fea527", "name": "123b1e037128d417ab5fabd403fea527", "rental_uris": {"ios": "https://dc.lft.to/lastmile_qr_scan", "android": "https://dc.lft.to/lastmile_qr_scan"}}, {"is_disabled": 0, "fusion_lat": 0.0, "lat": 38.905544666666664, "type": "electric_scooter", "lon": -77.03483083333333, "is_reserved": 0, "fusion_lon": 0.0, "bike_id": "39f57026aa2c41c315b782a287d42205", "name": "39f57026aa2c41c315b782a287d42205", "rental_uris": {"ios": "https://dc.lft.to/lastmile_qr_scan", "android": "https://dc.lft.to/lastmile_qr_scan"}}, {"is_disabled": 0, "fusion_lat": 0.0, "lat": 38.91411633333333, "type": "electric_scooter", "lon": -77.01957716666666, "is_reserved": 0, "fusion_lon": 0.0, "bike_id": "2f43aa0fde61798538e09223a3930c0a", "name": "2f43aa0fde61798538e09223a3930c0a", "rental_uris": {"ios": "https://dc.lft.to/lastmile_qr_scan", "android": "https://dc.lft.to/lastmile_qr_scan"}}, {"is_disabled": 0, "fusion_lat": 0.0, "lat": 38.923205333333335, "type": "electric_scooter", "lon": -77.03958916666667, "is_reserved": 0, "fusion_lon": 0.0, "bike_id": "69a0afb51624b8989ba7cbb317cf2df4", "name": "69a0afb51624b8989ba7cbb317cf2df4", "rental_uris": {"ios": "https://dc.lft.to/lastmile_qr_scan", "android": "https://dc.lft.to/lastmile_qr_scan"}}, {"is_disabled": 0, "fusion_lat": 0.0, "lat": 38.90713866666667, "type": "electric_scooter", "lon": -77.02955266666666, "is_reserved": 0, "fusion_lon": 0.0, "bike_id": "59adadc415ed02061a5872e826c57cca", "name": "59adadc415ed02061a5872e826c57cca", "rental_uris": {"ios": "https://dc.lft.to/lastmile_qr_scan", "android": "https://dc.lft.to/lastmile_qr_scan"}}, {"is_disabled": 0, "fusion_lat": 0.0, "lat": 38.9037855, "type": "electric_scooter", "lon": -77.04471516666666, "is_reserved": 0, "fusion_lon": 0.0, "bike_id": "7e815dabcb6d3a57adf99b5f4fa122e2", "name": "7e815dabcb6d3a57adf99b5f4fa122e2", "rental_uris": {"ios": "https://dc.lft.to/lastmile_qr_scan", "android": "https://dc.lft.to/lastmile_qr_scan"}}, {"is_disabled": 0, "fusion_lat": 0.0, "lat": 38.896095, "type": "electric_scooter", "lon": -77.04412333333333, "is_reserved": 0, "fusion_lon": 0.0, "bike_id": "de8dafb2e9794fbf41a76dd88e21f4ca", "name": "de8dafb2e9794fbf41a76dd88e21f4ca", "rental_uris": {"ios": "https://dc.lft.to/lastmile_qr_scan", "android": "https://dc.lft.to/lastmile_qr_scan"}}, {"is_disabled": 0, "fusion_lat": 0.0, "lat": 38.91102816666667, "type": "electric_scooter", "lon": -77.002175, "is_reserved": 0, "fusion_lon": 0.0, "bike_id": "8591f8f6fe66d2aed9eab58033a25562", "name": "8591f8f6fe66d2aed9eab58033a25562", "rental_uris": {"ios": "https://dc.lft.to/lastmile_qr_scan", "android": "https://dc.lft.to/lastmile_qr_scan"}}, {"is_disabled": 0, "fusion_lat": 0.0, "lat": 38.9025545, "type": "electric_scooter", "lon": -77.01761483333334, "is_reserved": 0, "fusion_lon": 0.0, "bike_id": "3384c18fe027d981fa07866b7415aac9", "name": "3384c18fe027d981fa07866b7415aac9", "rental_uris": {"ios": "https://dc.lft.to/lastmile_qr_scan", "android": "https://dc.lft.to/lastmile_qr_scan"}}, {"is_disabled": 0, "fusion_lat": 0.0, "lat": 38.92146, "type": "electric_scooter", "lon": -77.04221983333333, "is_reserved": 0, "fusion_lon": 0.0, "bike_id": "f2d347fa009dadaf8df8dc211274d9fc", "name": "f2d347fa009dadaf8df8dc211274d9fc", "rental_uris": {"ios": "https://dc.lft.to/lastmile_qr_scan", "android": "https://dc.lft.to/lastmile_qr_scan"}}, {"is_disabled": 0, "fusion_lat": 0.0, "lat": 38.93093416666667, "type": "electric_scooter", "lon": -77.02511083333333, "is_reserved": 0, "fusion_lon": 0.0, "bike_id": "6fbd2080efc51045e5e3dd2581948c5f", "name": "6fbd2080efc51045e5e3dd2581948c5f", "rental_uris": {"ios": "https://dc.lft.to/lastmile_qr_scan", "android": "https://dc.lft.to/lastmile_qr_scan"}}, {"is_disabled": 0, "fusion_lat": 0.0, "lat": 38.91887233333333, "type": "electric_scooter", "lon": -77.0390595, "is_reserved": 0, "fusion_lon": 0.0, "bike_id": "1f09a854c4352aef76432a3b26876530", "name": "1f09a854c4352aef76432a3b26876530", "rental_uris": {"ios": "https://dc.lft.to/lastmile_qr_scan", "android": "https://dc.lft.to/lastmile_qr_scan"}}, {"is_disabled": 0, "fusion_lat": 0.0, "lat": 38.921496, "type": "electric_scooter", "lon": -77.02427616666667, "is_reserved": 0, "fusion_lon": 0.0, "bike_id": "81d3bf2622398bb9bf6d0c32fa360921", "name": "81d3bf2622398bb9bf6d0c32fa360921", "rental_uris": {"ios": "https://dc.lft.to/lastmile_qr_scan", "android": "https://dc.lft.to/lastmile_qr_scan"}}, {"is_disabled": 0, "fusion_lat": 0.0, "lat": 38.89698333333333, "type": "electric_scooter", "lon": -77.02672933333334, "is_reserved": 0, "fusion_lon": 0.0, "bike_id": "cd82d4377e10ab637d49991626ced9bb", "name": "cd82d4377e10ab637d49991626ced9bb", "rental_uris": {"ios": "https://dc.lft.to/lastmile_qr_scan", "android": "https://dc.lft.to/lastmile_qr_scan"}}, {"is_disabled": 0, "fusion_lat": 0.0, "lat": 38.9027685, "type": "electric_scooter", "lon": -77.03842016666667, "is_reserved": 0, "fusion_lon": 0.0, "bike_id": "c85ecbccf28ef886462237cf8d53eeca", "name": "c85ecbccf28ef886462237cf8d53eeca", "rental_uris": {"ios": "https://dc.lft.to/lastmile_qr_scan", "android": "https://dc.lft.to/lastmile_qr_scan"}}, {"is_disabled": 0, "fusion_lat": 0.0, "lat": 38.892205833333335, "type": "electric_scooter", "lon": -77.022239, "is_reserved": 0, "fusion_lon": 0.0, "bike_id": "2d6f409c64693934e42591952223b3b3", "name": "2d6f409c64693934e42591952223b3b3", "rental_uris": {"ios": "https://dc.lft.to/lastmile_qr_scan", "android": "https://dc.lft.to/lastmile_qr_scan"}}, {"is_disabled": 0, "fusion_lat": 0.0, "lat": 38.885021, "type": "electric_scooter", "lon": -77.00568983333334, "is_reserved": 0, "fusion_lon": 0.0, "bike_id": "2cfd5c24d286645824f71fedf6fa8510", "name": "2cfd5c24d286645824f71fedf6fa8510", "rental_uris": {"ios": "https://dc.lft.to/lastmile_qr_scan", "android": "https://dc.lft.to/lastmile_qr_scan"}}, {"is_disabled": 0, "fusion_lat": 0.0, "lat": 38.92716766666667, "type": "electric_scooter", "lon": -77.0397975, "is_reserved": 0, "fusion_lon": 0.0, "bike_id": "2bba1ae8550479f7dd558a00d375123d", "name": "2bba1ae8550479f7dd558a00d375123d", "rental_uris": {"ios": "https://dc.lft.to/lastmile_qr_scan", "android": "https://dc.lft.to/lastmile_qr_scan"}}, {"is_disabled": 0, "fusion_lat": 0.0, "lat": 38.893441333333335, "type": "electric_scooter", "lon": -76.9492775, "is_reserved": 0, "fusion_lon": 0.0, "bike_id": "90d89eb8f5c578cef381b86f5948b468", "name": "90d89eb8f5c578cef381b86f5948b468", "rental_uris": {"ios": "https://dc.lft.to/lastmile_qr_scan", "android": "https://dc.lft.to/lastmile_qr_scan"}}, {"is_disabled": 0, "fusion_lat": 0.0, "lat": 38.88119983333333, "type": "electric_scooter", "lon": -77.00100533333334, "is_reserved": 0, "fusion_lon": 0.0, "bike_id": "e5ea49dc621fc1e541361a4ca8032da1", "name": "e5ea49dc621fc1e541361a4ca8032da1", "rental_uris": {"ios": "https://dc.lft.to/lastmile_qr_scan", "android": "https://dc.lft.to/lastmile_qr_scan"}}, {"is_disabled": 0, "fusion_lat": 0.0, "lat": 38.9194665, "type": "electric_scooter", "lon": -77.041507, "is_reserved": 0, "fusion_lon": 0.0, "bike_id": "55e991d93d8eeb228e65c3ca28533b4c", "name": "55e991d93d8eeb228e65c3ca28533b4c", "rental_uris": {"ios": "https://dc.lft.to/lastmile_qr_scan", "android": "https://dc.lft.to/lastmile_qr_scan"}}, {"is_disabled": 0, "fusion_lat": 0.0, "lat": 38.917745, "type": "electric_scooter", "lon": -77.052551, "is_reserved": 0, "fusion_lon": 0.0, "bike_id": "3e9dfa69d4b707e922236f68a09cec36", "name": "3e9dfa69d4b707e922236f68a09cec36", "rental_uris": {"ios": "https://dc.lft.to/lastmile_qr_scan", "android": "https://dc.lft.to/lastmile_qr_scan"}}, {"is_disabled": 0, "fusion_lat": 0.0, "lat": 38.873747333333334, "type": "electric_bike", "lon": -77.11804166666667, "is_reserved": 0, "fusion_lon": 0.0, "bike_id": "1478ac7b3c07ca404679c37247b8c20a", "name": "1478ac7b3c07ca404679c37247b8c20a", "rental_uris": {"ios": "https://dc.lft.to/lastmile_qr_scan", "android": "https://dc.lft.to/lastmile_qr_scan"}}, {"is_disabled": 0, "fusion_lat": 0.0, "lat": 38.965523166666664, "type": "electric_bike", "lon": -77.02300716666667, "is_reserved": 0, "fusion_lon": 0.0, "bike_id": "cc5101e2fd0cf47c8053cd1d581b77f2", "name": "cc5101e2fd0cf47c8053cd1d581b77f2", "rental_uris": {"ios": "https://dc.lft.to/lastmile_qr_scan", "android": "https://dc.lft.to/lastmile_qr_scan"}}, {"is_disabled": 0, "fusion_lat": 0.0, "lat": 38.94431383333333, "type": "electric_scooter", "lon": -76.992076, "is_reserved": 0, "fusion_lon": 0.0, "bike_id": "e83def93df2bf6dc01521ef2a538f4b4", "name": "e83def93df2bf6dc01521ef2a538f4b4", "rental_uris": {"ios": "https://dc.lft.to/lastmile_qr_scan", "android": "https://dc.lft.to/lastmile_qr_scan"}}, {"is_disabled": 0, "fusion_lat": 0.0, "lat": 38.906038833333334, "type": "electric_scooter", "lon": -77.0410995, "is_reserved": 0, "fusion_lon": 0.0, "bike_id": "258ccc035381cf679b2cc42368cf97ec", "name": "258ccc035381cf679b2cc42368cf97ec", "rental_uris": {"ios": "https://dc.lft.to/lastmile_qr_scan", "android": "https://dc.lft.to/lastmile_qr_scan"}}, {"is_disabled": 0, "fusion_lat": 0.0, "lat": 38.89501116666667, "type": "electric_scooter", "lon": -77.02291366666667, "is_reserved": 0, "fusion_lon": 0.0, "bike_id": "8f4346005952a92d4c884c2eb70bc667", "name": "8f4346005952a92d4c884c2eb70bc667", "rental_uris": {"ios": "https://dc.lft.to/lastmile_qr_scan", "android": "https://dc.lft.to/lastmile_qr_scan"}}, {"is_disabled": 0, "fusion_lat": 0.0, "lat": 38.934730333333334, "type": "electric_scooter", "lon": -77.01937366666667, "is_reserved": 0, "fusion_lon": 0.0, "bike_id": "fc9f19fbaba00ecc3ba2b041865aa907", "name": "fc9f19fbaba00ecc3ba2b041865aa907", "rental_uris": {"ios": "https://dc.lft.to/lastmile_qr_scan", "android": "https://dc.lft.to/lastmile_qr_scan"}}, {"is_disabled": 0, "fusion_lat": 0.0, "lat": 38.916815166666666, "type": "electric_scooter", "lon": -77.02941433333334, "is_reserved": 0, "fusion_lon": 0.0, "bike_id": "d80e6e2b86e9937b84108586218ad134", "name": "d80e6e2b86e9937b84108586218ad134", "rental_uris": {"ios": "https://dc.lft.to/lastmile_qr_scan", "android": "https://dc.lft.to/lastmile_qr_scan"}}, {"is_disabled": 0, "fusion_lat": 0.0, "lat": 38.9004375, "type": "electric_scooter", "lon": -77.00753233333333, "is_reserved": 0, "fusion_lon": 0.0, "bike_id": "a5b11b5ad51c62bf32374d47dc50e1ff", "name": "a5b11b5ad51c62bf32374d47dc50e1ff", "rental_uris": {"ios": "https://dc.lft.to/lastmile_qr_scan", "android": "https://dc.lft.to/lastmile_qr_scan"}}, {"is_disabled": 0, "fusion_lat": 0.0, "lat": 38.89408916666667, "type": "electric_scooter", "lon": -76.95669366666667, "is_reserved": 0, "fusion_lon": 0.0, "bike_id": "4d44b06b357eb42d424248501f7d4256", "name": "4d44b06b357eb42d424248501f7d4256", "rental_uris": {"ios": "https://dc.lft.to/lastmile_qr_scan", "android": "https://dc.lft.to/lastmile_qr_scan"}}, {"is_disabled": 0, "fusion_lat": 0.0, "lat": 38.921368333333334, "type": "electric_scooter", "lon": -77.0180025, "is_reserved": 0, "fusion_lon": 0.0, "bike_id": "c2336a0fddbba3f772889b0cda9e6443", "name": "c2336a0fddbba3f772889b0cda9e6443", "rental_uris": {"ios": "https://dc.lft.to/lastmile_qr_scan", "android": "https://dc.lft.to/lastmile_qr_scan"}}, {"is_disabled": 0, "fusion_lat": 0.0, "lat": 38.852236, "type": "electric_bike", "lon": -77.12959433333333, "is_reserved": 0, "fusion_lon": 0.0, "bike_id": "f263d14c7b9f77d5b74e47d492fcf262", "name": "f263d14c7b9f77d5b74e47d492fcf262", "rental_uris": {"ios": "https://dc.lft.to/lastmile_qr_scan", "android": "https://dc.lft.to/lastmile_qr_scan"}}, {"is_disabled": 0, "fusion_lat": 0.0, "lat": 38.9859555, "type": "electric_bike", "lon": -77.03754483333333, "is_reserved": 0, "fusion_lon": 0.0, "bike_id": "b5f5d06e824b1160bb0d910faa81425b", "name": "b5f5d06e824b1160bb0d910faa81425b", "rental_uris": {"ios": "https://dc.lft.to/lastmile_qr_scan", "android": "https://dc.lft.to/lastmile_qr_scan"}}, {"is_disabled": 0, "fusion_lat": 0.0, "lat": 38.865937333333335, "type": "electric_bike", "lon": -76.9323365, "is_reserved": 0, "fusion_lon": 0.0, "bike_id": "221a0a2b4de8bfad4fe9354e3446d0e3", "name": "221a0a2b4de8bfad4fe9354e3446d0e3", "rental_uris": {"ios": "https://dc.lft.to/lastmile_qr_scan", "android": "https://dc.lft.to/lastmile_qr_scan"}}, {"is_disabled": 0, "fusion_lat": 0.0, "lat": 38.9154685, "type": "electric_scooter", "lon": -77.038478, "is_reserved": 0, "fusion_lon": 0.0, "bike_id": "983d3168bf2cd395fac0656b4b4b5356", "name": "983d3168bf2cd395fac0656b4b4b5356", "rental_uris": {"ios": "https://dc.lft.to/lastmile_qr_scan", "android": "https://dc.lft.to/lastmile_qr_scan"}}, {"is_disabled": 0, "fusion_lat": 0.0, "lat": 38.91632, "type": "electric_scooter", "lon": -77.0320815, "is_reserved": 0, "fusion_lon": 0.0, "bike_id": "90b2beba05bc349fd9a346d085aa30a4", "name": "90b2beba05bc349fd9a346d085aa30a4", "rental_uris": {"ios": "https://dc.lft.to/lastmile_qr_scan", "android": "https://dc.lft.to/lastmile_qr_scan"}}, {"is_disabled": 0, "fusion_lat": 0.0, "lat": 38.92792416666666, "type": "electric_scooter", "lon": -77.0315155, "is_reserved": 0, "fusion_lon": 0.0, "bike_id": "a74bf56d8c8da5e7c8bf1ec1c0aee76a", "name": "a74bf56d8c8da5e7c8bf1ec1c0aee76a", "rental_uris": {"ios": "https://dc.lft.to/lastmile_qr_scan", "android": "https://dc.lft.to/lastmile_qr_scan"}}, {"is_disabled": 0, "fusion_lat": 0.0, "lat": 38.92291383333333, "type": "electric_scooter", "lon": -77.0421825, "is_reserved": 0, "fusion_lon": 0.0, "bike_id": "78db9ecff977fa623c4d7f22ec21c6ed", "name": "78db9ecff977fa623c4d7f22ec21c6ed", "rental_uris": {"ios": "https://dc.lft.to/lastmile_qr_scan", "android": "https://dc.lft.to/lastmile_qr_scan"}}, {"is_disabled": 0, "fusion_lat": 0.0, "lat": 38.91274166666667, "type": "electric_scooter", "lon": -77.03873166666666, "is_reserved": 0, "fusion_lon": 0.0, "bike_id": "0143bd53d307891971330efff3173395", "name": "0143bd53d307891971330efff3173395", "rental_uris": {"ios": "https://dc.lft.to/lastmile_qr_scan", "android": "https://dc.lft.to/lastmile_qr_scan"}}, {"is_disabled": 0, "fusion_lat": 0.0, "lat": 38.942738166666665, "type": "electric_scooter", "lon": -77.03260133333333, "is_reserved": 0, "fusion_lon": 0.0, "bike_id": "d36df8000b5441c0fea344c82e74eccb", "name": "d36df8000b5441c0fea344c82e74eccb", "rental_uris": {"ios": "https://dc.lft.to/lastmile_qr_scan", "android": "https://dc.lft.to/lastmile_qr_scan"}}, {"is_disabled": 0, "fusion_lat": 0.0, "lat": 38.90280083333333, "type": "electric_scooter", "lon": -77.04082616666666, "is_reserved": 0, "fusion_lon": 0.0, "bike_id": "a0e621eb178e69941c575c7c9580d19d", "name": "a0e621eb178e69941c575c7c9580d19d", "rental_uris": {"ios": "https://dc.lft.to/lastmile_qr_scan", "android": "https://dc.lft.to/lastmile_qr_scan"}}, {"is_disabled": 0, "fusion_lat": 0.0, "lat": 38.90040316666666, "type": "electric_scooter", "lon": -76.98837483333334, "is_reserved": 0, "fusion_lon": 0.0, "bike_id": "a974a0fec773bbeb127e6f52a89a3aff", "name": "a974a0fec773bbeb127e6f52a89a3aff", "rental_uris": {"ios": "https://dc.lft.to/lastmile_qr_scan", "android": "https://dc.lft.to/lastmile_qr_scan"}}, {"is_disabled": 0, "fusion_lat": 0.0, "lat": 38.91108716666667, "type": "electric_scooter", "lon": -77.0450325, "is_reserved": 0, "fusion_lon": 0.0, "bike_id": "248ce9c4452faf6743e2751723775835", "name": "248ce9c4452faf6743e2751723775835", "rental_uris": {"ios": "https://dc.lft.to/lastmile_qr_scan", "android": "https://dc.lft.to/lastmile_qr_scan"}}, {"is_disabled": 0, "fusion_lat": 0.0, "lat": 38.892278833333336, "type": "electric_scooter", "lon": -77.04659516666666, "is_reserved": 0, "fusion_lon": 0.0, "bike_id": "cb1868d9952d55bbe6ce3e6f5fbd280c", "name": "cb1868d9952d55bbe6ce3e6f5fbd280c", "rental_uris": {"ios": "https://dc.lft.to/lastmile_qr_scan", "android": "https://dc.lft.to/lastmile_qr_scan"}}, {"is_disabled": 0, "fusion_lat": 0.0, "lat": 38.9217035, "type": "electric_scooter", "lon": -77.051382, "is_reserved": 0, "fusion_lon": 0.0, "bike_id": "cead00117130d4d421a818c1531335d0", "name": "cead00117130d4d421a818c1531335d0", "rental_uris": {"ios": "https://dc.lft.to/lastmile_qr_scan", "android": "https://dc.lft.to/lastmile_qr_scan"}}, {"is_disabled": 0, "fusion_lat": 0.0, "lat": 38.98460583333333, "type": "electric_bike", "lon": -76.95529166666667, "is_reserved": 0, "fusion_lon": 0.0, "bike_id": "c4ff14ebd3e5e5aea31cd8e0d9f53b6d", "name": "c4ff14ebd3e5e5aea31cd8e0d9f53b6d", "rental_uris": {"ios": "https://dc.lft.to/lastmile_qr_scan", "android": "https://dc.lft.to/lastmile_qr_scan"}}, {"is_disabled": 0, "fusion_lat": 0.0, "lat": 38.88449333333333, "type": "electric_scooter", "lon": -76.950986, "is_reserved": 0, "fusion_lon": 0.0, "bike_id": "ee931e52a54b42b14dde82b101af5eb4", "name": "ee931e52a54b42b14dde82b101af5eb4", "rental_uris": {"ios": "https://dc.lft.to/lastmile_qr_scan", "android": "https://dc.lft.to/lastmile_qr_scan"}}, {"is_disabled": 0, "fusion_lat": 0.0, "lat": 38.896862, "type": "electric_scooter", "lon": -76.996293, "is_reserved": 0, "fusion_lon": 0.0, "bike_id": "d6f57583cfbd967d17720bc6c701979f", "name": "d6f57583cfbd967d17720bc6c701979f", "rental_uris": {"ios": "https://dc.lft.to/lastmile_qr_scan", "android": "https://dc.lft.to/lastmile_qr_scan"}}, {"is_disabled": 0, "fusion_lat": 0.0, "lat": 38.880433333333336, "type": "electric_scooter", "lon": -76.98633916666667, "is_reserved": 0, "fusion_lon": 0.0, "bike_id": "569e983c82581d6f7671f9a2d1a6bd2a", "name": "569e983c82581d6f7671f9a2d1a6bd2a", "rental_uris": {"ios": "https://dc.lft.to/lastmile_qr_scan", "android": "https://dc.lft.to/lastmile_qr_scan"}}, {"is_disabled": 0, "fusion_lat": 0.0, "lat": 38.89216833333333, "type": "electric_scooter", "lon": -77.0419735, "is_reserved": 0, "fusion_lon": 0.0, "bike_id": "d86e7eeb177a0f8fde89994bb9209efe", "name": "d86e7eeb177a0f8fde89994bb9209efe", "rental_uris": {"ios": "https://dc.lft.to/lastmile_qr_scan", "android": "https://dc.lft.to/lastmile_qr_scan"}}, {"is_disabled": 0, "fusion_lat": 0.0, "lat": 38.9288265, "type": "electric_scooter", "lon": -77.01379866666667, "is_reserved": 0, "fusion_lon": 0.0, "bike_id": "1836b3d3dd412eac96368988cbd1285b", "name": "1836b3d3dd412eac96368988cbd1285b", "rental_uris": {"ios": "https://dc.lft.to/lastmile_qr_scan", "android": "https://dc.lft.to/lastmile_qr_scan"}}, {"is_disabled": 0, "fusion_lat": 0.0, "lat": 38.9155955, "type": "electric_scooter", "lon": -77.03037166666667, "is_reserved": 0, "fusion_lon": 0.0, "bike_id": "07d8c3bb6011368e718d2623ccdf19cb", "name": "07d8c3bb6011368e718d2623ccdf19cb", "rental_uris": {"ios": "https://dc.lft.to/lastmile_qr_scan", "android": "https://dc.lft.to/lastmile_qr_scan"}}, {"is_disabled": 0, "fusion_lat": 0.0, "lat": 38.89607816666667, "type": "electric_scooter", "lon": -77.009302, "is_reserved": 0, "fusion_lon": 0.0, "bike_id": "a848a191ef91cd4a05c7eab1da450e23", "name": "a848a191ef91cd4a05c7eab1da450e23", "rental_uris": {"ios": "https://dc.lft.to/lastmile_qr_scan", "android": "https://dc.lft.to/lastmile_qr_scan"}}, {"is_disabled": 0, "fusion_lat": 0.0, "lat": 38.90714783333333, "type": "electric_scooter", "lon": -77.02978083333333, "is_reserved": 0, "fusion_lon": 0.0, "bike_id": "2853f73459a6f0934398a3699f3b50fa", "name": "2853f73459a6f0934398a3699f3b50fa", "rental_uris": {"ios": "https://dc.lft.to/lastmile_qr_scan", "android": "https://dc.lft.to/lastmile_qr_scan"}}, {"is_disabled": 0, "fusion_lat": 0.0, "lat": 38.899179, "type": "electric_scooter", "lon": -76.93379133333333, "is_reserved": 0, "fusion_lon": 0.0, "bike_id": "4e3a65f001f74a1152c69d2321a26ace", "name": "4e3a65f001f74a1152c69d2321a26ace", "rental_uris": {"ios": "https://dc.lft.to/lastmile_qr_scan", "android": "https://dc.lft.to/lastmile_qr_scan"}}, {"is_disabled": 0, "fusion_lat": 0.0, "lat": 38.895050499999996, "type": "electric_scooter", "lon": -77.02308833333333, "is_reserved": 0, "fusion_lon": 0.0, "bike_id": "64e7db63048bcebf9a6f25dbd0295b03", "name": "64e7db63048bcebf9a6f25dbd0295b03", "rental_uris": {"ios": "https://dc.lft.to/lastmile_qr_scan", "android": "https://dc.lft.to/lastmile_qr_scan"}}, {"is_disabled": 0, "fusion_lat": 0.0, "lat": 38.87079883333333, "type": "electric_bike", "lon": -77.012026, "is_reserved": 0, "fusion_lon": 0.0, "bike_id": "4af05e82859e4ebc8d939ba3ec889485", "name": "4af05e82859e4ebc8d939ba3ec889485", "rental_uris": {"ios": "https://dc.lft.to/lastmile_qr_scan", "android": "https://dc.lft.to/lastmile_qr_scan"}}, {"is_disabled": 0, "fusion_lat": 0.0, "lat": 38.917629, "type": "electric_scooter", "lon": -77.03664516666667, "is_reserved": 0, "fusion_lon": 0.0, "bike_id": "82073869190e76d25ed5783d0fe8e294", "name": "82073869190e76d25ed5783d0fe8e294", "rental_uris": {"ios": "https://dc.lft.to/lastmile_qr_scan", "android": "https://dc.lft.to/lastmile_qr_scan"}}, {"is_disabled": 0, "fusion_lat": 0.0, "lat": 38.92232533333333, "type": "electric_scooter", "lon": -77.0309655, "is_reserved": 0, "fusion_lon": 0.0, "bike_id": "0f859a05628bb1ca3a721aacc1d031df", "name": "0f859a05628bb1ca3a721aacc1d031df", "rental_uris": {"ios": "https://dc.lft.to/lastmile_qr_scan", "android": "https://dc.lft.to/lastmile_qr_scan"}}, {"is_disabled": 0, "fusion_lat": 0.0, "lat": 38.91878366666667, "type": "electric_scooter", "lon": -77.03509, "is_reserved": 0, "fusion_lon": 0.0, "bike_id": "758ab0d7428bb573c9a3f2d58cf6bc6a", "name": "758ab0d7428bb573c9a3f2d58cf6bc6a", "rental_uris": {"ios": "https://dc.lft.to/lastmile_qr_scan", "android": "https://dc.lft.to/lastmile_qr_scan"}}, {"is_disabled": 0, "fusion_lat": 0.0, "lat": 38.80743433333333, "type": "electric_bike", "lon": -77.0942675, "is_reserved": 0, "fusion_lon": 0.0, "bike_id": "b6e92d2096f13cddc34773fe22413147", "name": "b6e92d2096f13cddc34773fe22413147", "rental_uris": {"ios": "https://dc.lft.to/lastmile_qr_scan", "android": "https://dc.lft.to/lastmile_qr_scan"}}, {"is_disabled": 0, "fusion_lat": 0.0, "lat": 38.94825566666667, "type": "electric_scooter", "lon": -77.02421683333333, "is_reserved": 0, "fusion_lon": 0.0, "bike_id": "7c9922a83ced503cedde1d8325eb68ff", "name": "7c9922a83ced503cedde1d8325eb68ff", "rental_uris": {"ios": "https://dc.lft.to/lastmile_qr_scan", "android": "https://dc.lft.to/lastmile_qr_scan"}}, {"is_disabled": 0, "fusion_lat": 0.0, "lat": 38.9253675, "type": "electric_scooter", "lon": -77.04086966666667, "is_reserved": 0, "fusion_lon": 0.0, "bike_id": "f1d751aca5c64bda4b64938f0e6cf4aa", "name": "f1d751aca5c64bda4b64938f0e6cf4aa", "rental_uris": {"ios": "https://dc.lft.to/lastmile_qr_scan", "android": "https://dc.lft.to/lastmile_qr_scan"}}, {"is_disabled": 0, "fusion_lat": 0.0, "lat": 38.88722766666667, "type": "electric_scooter", "lon": -77.032157, "is_reserved": 0, "fusion_lon": 0.0, "bike_id": "662e5988dbc3595e02b174fe5d3c222d", "name": "662e5988dbc3595e02b174fe5d3c222d", "rental_uris": {"ios": "https://dc.lft.to/lastmile_qr_scan", "android": "https://dc.lft.to/lastmile_qr_scan"}}, {"is_disabled": 0, "fusion_lat": 0.0, "lat": 38.92914416666667, "type": "electric_bike", "lon": -77.023846, "is_reserved": 0, "fusion_lon": 0.0, "bike_id": "3b6b920bf2dccdf8f4812de2f0605acc", "name": "3b6b920bf2dccdf8f4812de2f0605acc", "rental_uris": {"ios": "https://dc.lft.to/lastmile_qr_scan", "android": "https://dc.lft.to/lastmile_qr_scan"}}, {"is_disabled": 0, "fusion_lat": 0.0, "lat": 38.90611916666667, "type": "electric_scooter", "lon": -77.06516766666667, "is_reserved": 0, "fusion_lon": 0.0, "bike_id": "7378cc31617c63a76966a72b749909f3", "name": "7378cc31617c63a76966a72b749909f3", "rental_uris": {"ios": "https://dc.lft.to/lastmile_qr_scan", "android": "https://dc.lft.to/lastmile_qr_scan"}}, {"is_disabled": 0, "fusion_lat": 0.0, "lat": 38.929990333333336, "type": "electric_scooter", "lon": -77.04440733333334, "is_reserved": 0, "fusion_lon": 0.0, "bike_id": "b25658d77c5681ffaa4ba54dfa8d8ffe", "name": "b25658d77c5681ffaa4ba54dfa8d8ffe", "rental_uris": {"ios": "https://dc.lft.to/lastmile_qr_scan", "android": "https://dc.lft.to/lastmile_qr_scan"}}, {"is_disabled": 0, "fusion_lat": 0.0, "lat": 38.90147866666667, "type": "electric_scooter", "lon": -77.04990283333333, "is_reserved": 0, "fusion_lon": 0.0, "bike_id": "2dec6cc6cb82f09b89829fcf7cd980c5", "name": "2dec6cc6cb82f09b89829fcf7cd980c5", "rental_uris": {"ios": "https://dc.lft.to/lastmile_qr_scan", "android": "https://dc.lft.to/lastmile_qr_scan"}}, {"is_disabled": 0, "fusion_lat": 0.0, "lat": 38.91058016666667, "type": "electric_scooter", "lon": -77.0458605, "is_reserved": 0, "fusion_lon": 0.0, "bike_id": "b20d107019060afe070f7b45d3baacbc", "name": "b20d107019060afe070f7b45d3baacbc", "rental_uris": {"ios": "https://dc.lft.to/lastmile_qr_scan", "android": "https://dc.lft.to/lastmile_qr_scan"}}, {"is_disabled": 0, "fusion_lat": 0.0, "lat": 38.919626666666666, "type": "electric_scooter", "lon": -77.04153583333333, "is_reserved": 0, "fusion_lon": 0.0, "bike_id": "908eeac6eee5cfcf57f9f90111bda342", "name": "908eeac6eee5cfcf57f9f90111bda342", "rental_uris": {"ios": "https://dc.lft.to/lastmile_qr_scan", "android": "https://dc.lft.to/lastmile_qr_scan"}}, {"is_disabled": 0, "fusion_lat": 0.0, "lat": 38.898746, "type": "electric_scooter", "lon": -76.9316135, "is_reserved": 0, "fusion_lon": 0.0, "bike_id": "fc30b9f5bc85e5b27029039bc7aef399", "name": "fc30b9f5bc85e5b27029039bc7aef399", "rental_uris": {"ios": "https://dc.lft.to/lastmile_qr_scan", "android": "https://dc.lft.to/lastmile_qr_scan"}}, {"is_disabled": 0, "fusion_lat": 0.0, "lat": 38.931479, "type": "electric_scooter", "lon": -77.030948, "is_reserved": 0, "fusion_lon": 0.0, "bike_id": "a90025b02c5c79bbafd4aeb95f9454cf", "name": "a90025b02c5c79bbafd4aeb95f9454cf", "rental_uris": {"ios": "https://dc.lft.to/lastmile_qr_scan", "android": "https://dc.lft.to/lastmile_qr_scan"}}, {"is_disabled": 0, "fusion_lat": 0.0, "lat": 38.93416833333333, "type": "electric_scooter", "lon": -77.044143, "is_reserved": 0, "fusion_lon": 0.0, "bike_id": "86607b968fb5900a0c3ad1d3eea5789f", "name": "86607b968fb5900a0c3ad1d3eea5789f", "rental_uris": {"ios": "https://dc.lft.to/lastmile_qr_scan", "android": "https://dc.lft.to/lastmile_qr_scan"}}, {"is_disabled": 0, "fusion_lat": 0.0, "lat": 38.928527, "type": "electric_bike", "lon": -77.10677816666667, "is_reserved": 0, "fusion_lon": 0.0, "bike_id": "ef672f84487577510537fcf3f9413ec2", "name": "ef672f84487577510537fcf3f9413ec2", "rental_uris": {"ios": "https://dc.lft.to/lastmile_qr_scan", "android": "https://dc.lft.to/lastmile_qr_scan"}}, {"is_disabled": 0, "fusion_lat": 0.0, "lat": 38.924547833333335, "type": "electric_scooter", "lon": -77.03279833333333, "is_reserved": 0, "fusion_lon": 0.0, "bike_id": "8d39ce7ca6bd116b95866896af80d866", "name": "8d39ce7ca6bd116b95866896af80d866", "rental_uris": {"ios": "https://dc.lft.to/lastmile_qr_scan", "android": "https://dc.lft.to/lastmile_qr_scan"}}, {"is_disabled": 0, "fusion_lat": 0.0, "lat": 38.917064333333336, "type": "electric_scooter", "lon": -77.03418066666667, "is_reserved": 0, "fusion_lon": 0.0, "bike_id": "b5306f64b87e0a2e6a9262dcf9f87e7d", "name": "b5306f64b87e0a2e6a9262dcf9f87e7d", "rental_uris": {"ios": "https://dc.lft.to/lastmile_qr_scan", "android": "https://dc.lft.to/lastmile_qr_scan"}}, {"is_disabled": 0, "fusion_lat": 0.0, "lat": 38.9375625, "type": "electric_scooter", "lon": -77.03139633333333, "is_reserved": 0, "fusion_lon": 0.0, "bike_id": "2b8dec87fa1c9a129311fe629c6901bd", "name": "2b8dec87fa1c9a129311fe629c6901bd", "rental_uris": {"ios": "https://dc.lft.to/lastmile_qr_scan", "android": "https://dc.lft.to/lastmile_qr_scan"}}, {"is_disabled": 0, "fusion_lat": 0.0, "lat": 38.9097465, "type": "electric_scooter", "lon": -77.04413683333334, "is_reserved": 0, "fusion_lon": 0.0, "bike_id": "8edad9aa6596c16da78bf4d0b698663c", "name": "8edad9aa6596c16da78bf4d0b698663c", "rental_uris": {"ios": "https://dc.lft.to/lastmile_qr_scan", "android": "https://dc.lft.to/lastmile_qr_scan"}}, {"is_disabled": 0, "fusion_lat": 0.0, "lat": 38.95881883333333, "type": "electric_bike", "lon": -76.92482616666666, "is_reserved": 0, "fusion_lon": 0.0, "bike_id": "cde80a721a9c8f9ec3d5a1457eec6116", "name": "cde80a721a9c8f9ec3d5a1457eec6116", "rental_uris": {"ios": "https://dc.lft.to/lastmile_qr_scan", "android": "https://dc.lft.to/lastmile_qr_scan"}}, {"is_disabled": 0, "fusion_lat": 0.0, "lat": 38.90272433333333, "type": "electric_scooter", "lon": -77.0531695, "is_reserved": 0, "fusion_lon": 0.0, "bike_id": "c9c7311ff91312bac81d06b2bbe036d9", "name": "c9c7311ff91312bac81d06b2bbe036d9", "rental_uris": {"ios": "https://dc.lft.to/lastmile_qr_scan", "android": "https://dc.lft.to/lastmile_qr_scan"}}, {"is_disabled": 0, "fusion_lat": 0.0, "lat": 38.8953105, "type": "electric_scooter", "lon": -77.04863583333334, "is_reserved": 0, "fusion_lon": 0.0, "bike_id": "e205be02fc4fe34073ad83d4ca82a913", "name": "e205be02fc4fe34073ad83d4ca82a913", "rental_uris": {"ios": "https://dc.lft.to/lastmile_qr_scan", "android": "https://dc.lft.to/lastmile_qr_scan"}}, {"is_disabled": 0, "fusion_lat": 0.0, "lat": 38.905621333333336, "type": "electric_scooter", "lon": -76.9814565, "is_reserved": 0, "fusion_lon": 0.0, "bike_id": "cc77f610e7c28fd815d2b5775b0a3fd6", "name": "cc77f610e7c28fd815d2b5775b0a3fd6", "rental_uris": {"ios": "https://dc.lft.to/lastmile_qr_scan", "android": "https://dc.lft.to/lastmile_qr_scan"}}, {"is_disabled": 0, "fusion_lat": 0.0, "lat": 38.91032116666667, "type": "electric_scooter", "lon": -77.043911, "is_reserved": 0, "fusion_lon": 0.0, "bike_id": "79de76fe1d7894e7546c473adf59c3f7", "name": "79de76fe1d7894e7546c473adf59c3f7", "rental_uris": {"ios": "https://dc.lft.to/lastmile_qr_scan", "android": "https://dc.lft.to/lastmile_qr_scan"}}, {"is_disabled": 0, "fusion_lat": 0.0, "lat": 38.905566, "type": "electric_scooter", "lon": -77.04358716666667, "is_reserved": 0, "fusion_lon": 0.0, "bike_id": "b47335b9048654ed367399ab00c31501", "name": "b47335b9048654ed367399ab00c31501", "rental_uris": {"ios": "https://dc.lft.to/lastmile_qr_scan", "android": "https://dc.lft.to/lastmile_qr_scan"}}, {"is_disabled": 0, "fusion_lat": 0.0, "lat": 38.930475333333334, "type": "electric_scooter", "lon": -77.0323135, "is_reserved": 0, "fusion_lon": 0.0, "bike_id": "c4c38ec5dc50de3564bdd5359580a7d7", "name": "c4c38ec5dc50de3564bdd5359580a7d7", "rental_uris": {"ios": "https://dc.lft.to/lastmile_qr_scan", "android": "https://dc.lft.to/lastmile_qr_scan"}}, {"is_disabled": 0, "fusion_lat": 0.0, "lat": 38.89040133333334, "type": "electric_scooter", "lon": -76.94079183333334, "is_reserved": 0, "fusion_lon": 0.0, "bike_id": "d22e725bb1b7ba7fe3f0bc2139312df1", "name": "d22e725bb1b7ba7fe3f0bc2139312df1", "rental_uris": {"ios": "https://dc.lft.to/lastmile_qr_scan", "android": "https://dc.lft.to/lastmile_qr_scan"}}, {"is_disabled": 0, "fusion_lat": 0.0, "lat": 38.87548066666667, "type": "electric_scooter", "lon": -76.96494, "is_reserved": 0, "fusion_lon": 0.0, "bike_id": "22c05df920ebbc5924fce9251a551021", "name": "22c05df920ebbc5924fce9251a551021", "rental_uris": {"ios": "https://dc.lft.to/lastmile_qr_scan", "android": "https://dc.lft.to/lastmile_qr_scan"}}, {"is_disabled": 0, "fusion_lat": 0.0, "lat": 38.907981, "type": "electric_scooter", "lon": -77.03484016666667, "is_reserved": 0, "fusion_lon": 0.0, "bike_id": "875266ccf0bf43b7f0843ca3627e823a", "name": "875266ccf0bf43b7f0843ca3627e823a", "rental_uris": {"ios": "https://dc.lft.to/lastmile_qr_scan", "android": "https://dc.lft.to/lastmile_qr_scan"}}, {"is_disabled": 0, "fusion_lat": 0.0, "lat": 38.915863, "type": "electric_scooter", "lon": -77.04524966666666, "is_reserved": 0, "fusion_lon": 0.0, "bike_id": "18fc3343649e827ebe2957d135cdd7e3", "name": "18fc3343649e827ebe2957d135cdd7e3", "rental_uris": {"ios": "https://dc.lft.to/lastmile_qr_scan", "android": "https://dc.lft.to/lastmile_qr_scan"}}, {"is_disabled": 0, "fusion_lat": 0.0, "lat": 38.902911, "type": "electric_scooter", "lon": -77.017559, "is_reserved": 0, "fusion_lon": 0.0, "bike_id": "9efbdc02565da14d8abc6eb63592b30f", "name": "9efbdc02565da14d8abc6eb63592b30f", "rental_uris": {"ios": "https://dc.lft.to/lastmile_qr_scan", "android": "https://dc.lft.to/lastmile_qr_scan"}}, {"is_disabled": 0, "fusion_lat": 0.0, "lat": 38.906679833333335, "type": "electric_scooter", "lon": -76.98786316666667, "is_reserved": 0, "fusion_lon": 0.0, "bike_id": "c59f3b5ae6e87153790c62a4309a491c", "name": "c59f3b5ae6e87153790c62a4309a491c", "rental_uris": {"ios": "https://dc.lft.to/lastmile_qr_scan", "android": "https://dc.lft.to/lastmile_qr_scan"}}, {"is_disabled": 0, "fusion_lat": 0.0, "lat": 38.92465766666667, "type": "electric_scooter", "lon": -77.03784216666666, "is_reserved": 0, "fusion_lon": 0.0, "bike_id": "c2a0ffc7cdb318bddf86a9e7d16ac023", "name": "c2a0ffc7cdb318bddf86a9e7d16ac023", "rental_uris": {"ios": "https://dc.lft.to/lastmile_qr_scan", "android": "https://dc.lft.to/lastmile_qr_scan"}}, {"is_disabled": 0, "fusion_lat": 0.0, "lat": 38.8999715, "type": "electric_scooter", "lon": -77.05230633333333, "is_reserved": 0, "fusion_lon": 0.0, "bike_id": "a4faa5dbaa8e781199aa0c9c80b4f2d6", "name": "a4faa5dbaa8e781199aa0c9c80b4f2d6", "rental_uris": {"ios": "https://dc.lft.to/lastmile_qr_scan", "android": "https://dc.lft.to/lastmile_qr_scan"}}, {"is_disabled": 0, "fusion_lat": 0.0, "lat": 38.899131, "type": "electric_scooter", "lon": -76.93380833333333, "is_reserved": 0, "fusion_lon": 0.0, "bike_id": "86c29a153888e17c58542dc28a9e276c", "name": "86c29a153888e17c58542dc28a9e276c", "rental_uris": {"ios": "https://dc.lft.to/lastmile_qr_scan", "android": "https://dc.lft.to/lastmile_qr_scan"}}, {"is_disabled": 0, "fusion_lat": 0.0, "lat": 38.84290766666667, "type": "electric_scooter", "lon": -76.999511, "is_reserved": 0, "fusion_lon": 0.0, "bike_id": "dd25f05fc29b4c64293cb8a2036e5801", "name": "dd25f05fc29b4c64293cb8a2036e5801", "rental_uris": {"ios": "https://dc.lft.to/lastmile_qr_scan", "android": "https://dc.lft.to/lastmile_qr_scan"}}, {"is_disabled": 0, "fusion_lat": 0.0, "lat": 38.957779, "type": "electric_scooter", "lon": -77.02471083333333, "is_reserved": 0, "fusion_lon": 0.0, "bike_id": "3e5762b53f2358346c15c64b9ccbe28a", "name": "3e5762b53f2358346c15c64b9ccbe28a", "rental_uris": {"ios": "https://dc.lft.to/lastmile_qr_scan", "android": "https://dc.lft.to/lastmile_qr_scan"}}, {"is_disabled": 0, "fusion_lat": 0.0, "lat": 38.95553566666667, "type": "electric_bike", "lon": -76.935449, "is_reserved": 0, "fusion_lon": 0.0, "bike_id": "b02ae0fa8ebf36a9d99a213d89d0cd63", "name": "b02ae0fa8ebf36a9d99a213d89d0cd63", "rental_uris": {"ios": "https://dc.lft.to/lastmile_qr_scan", "android": "https://dc.lft.to/lastmile_qr_scan"}}, {"is_disabled": 0, "fusion_lat": 0.0, "lat": 38.921186166666665, "type": "electric_scooter", "lon": -77.0442325, "is_reserved": 0, "fusion_lon": 0.0, "bike_id": "d4c861c24754d2ddae8ae6d6c1ee6fef", "name": "d4c861c24754d2ddae8ae6d6c1ee6fef", "rental_uris": {"ios": "https://dc.lft.to/lastmile_qr_scan", "android": "https://dc.lft.to/lastmile_qr_scan"}}, {"is_disabled": 0, "fusion_lat": 0.0, "lat": 38.86342766666667, "type": "electric_scooter", "lon": -76.99002066666667, "is_reserved": 0, "fusion_lon": 0.0, "bike_id": "5aa2d6835b076e80513db8bec8b656de", "name": "5aa2d6835b076e80513db8bec8b656de", "rental_uris": {"ios": "https://dc.lft.to/lastmile_qr_scan", "android": "https://dc.lft.to/lastmile_qr_scan"}}, {"is_disabled": 0, "fusion_lat": 0.0, "lat": 38.89825, "type": "electric_scooter", "lon": -77.03311, "is_reserved": 0, "fusion_lon": 0.0, "bike_id": "f177a5a91e412c16d116ba1051f94ca0", "name": "f177a5a91e412c16d116ba1051f94ca0", "rental_uris": {"ios": "https://dc.lft.to/lastmile_qr_scan", "android": "https://dc.lft.to/lastmile_qr_scan"}}, {"is_disabled": 0, "fusion_lat": 0.0, "lat": 38.92788866666667, "type": "electric_scooter", "lon": -77.02729816666667, "is_reserved": 0, "fusion_lon": 0.0, "bike_id": "2564c1efc43d3b8cb889f3c7539d9ecd", "name": "2564c1efc43d3b8cb889f3c7539d9ecd", "rental_uris": {"ios": "https://dc.lft.to/lastmile_qr_scan", "android": "https://dc.lft.to/lastmile_qr_scan"}}, {"is_disabled": 0, "fusion_lat": 0.0, "lat": 38.907241666666664, "type": "electric_scooter", "lon": -77.02507783333333, "is_reserved": 0, "fusion_lon": 0.0, "bike_id": "72eb225b4c27fb38b2fc7d030d7b6183", "name": "72eb225b4c27fb38b2fc7d030d7b6183", "rental_uris": {"ios": "https://dc.lft.to/lastmile_qr_scan", "android": "https://dc.lft.to/lastmile_qr_scan"}}, {"is_disabled": 0, "fusion_lat": 0.0, "lat": 38.903276166666664, "type": "electric_scooter", "lon": -77.066037, "is_reserved": 0, "fusion_lon": 0.0, "bike_id": "42eebe1b5ce3d600e4f6938f3506fb77", "name": "42eebe1b5ce3d600e4f6938f3506fb77", "rental_uris": {"ios": "https://dc.lft.to/lastmile_qr_scan", "android": "https://dc.lft.to/lastmile_qr_scan"}}, {"is_disabled": 0, "fusion_lat": 0.0, "lat": 38.905489333333335, "type": "electric_scooter", "lon": -77.04653716666667, "is_reserved": 0, "fusion_lon": 0.0, "bike_id": "3b7937e06c4d350bcdc6dcc3eaee22bb", "name": "3b7937e06c4d350bcdc6dcc3eaee22bb", "rental_uris": {"ios": "https://dc.lft.to/lastmile_qr_scan", "android": "https://dc.lft.to/lastmile_qr_scan"}}, {"is_disabled": 0, "fusion_lat": 0.0, "lat": 38.90497766666667, "type": "electric_scooter", "lon": -77.0628715, "is_reserved": 0, "fusion_lon": 0.0, "bike_id": "64625c6c779da012c13071df3f20b46f", "name": "64625c6c779da012c13071df3f20b46f", "rental_uris": {"ios": "https://dc.lft.to/lastmile_qr_scan", "android": "https://dc.lft.to/lastmile_qr_scan"}}, {"is_disabled": 0, "fusion_lat": 0.0, "lat": 38.89775366666667, "type": "electric_scooter", "lon": -76.9772675, "is_reserved": 0, "fusion_lon": 0.0, "bike_id": "aa729748bc8ac091cfaec265e33902f0", "name": "aa729748bc8ac091cfaec265e33902f0", "rental_uris": {"ios": "https://dc.lft.to/lastmile_qr_scan", "android": "https://dc.lft.to/lastmile_qr_scan"}}, {"is_disabled": 0, "fusion_lat": 0.0, "lat": 38.8924655, "type": "electric_bike", "lon": -76.98544783333334, "is_reserved": 0, "fusion_lon": 0.0, "bike_id": "ac5135f17bd0230c8279bfcae08467c3", "name": "ac5135f17bd0230c8279bfcae08467c3", "rental_uris": {"ios": "https://dc.lft.to/lastmile_qr_scan", "android": "https://dc.lft.to/lastmile_qr_scan"}}, {"is_disabled": 0, "fusion_lat": 0.0, "lat": 38.88705316666667, "type": "electric_scooter", "lon": -77.00152733333333, "is_reserved": 0, "fusion_lon": 0.0, "bike_id": "452a93ca54e835a420d769a51be86cb6", "name": "452a93ca54e835a420d769a51be86cb6", "rental_uris": {"ios": "https://dc.lft.to/lastmile_qr_scan", "android": "https://dc.lft.to/lastmile_qr_scan"}}, {"is_disabled": 0, "fusion_lat": 0.0, "lat": 38.921814, "type": "electric_scooter", "lon": -77.04242583333334, "is_reserved": 0, "fusion_lon": 0.0, "bike_id": "6744b5adda32f6c56d07240fb49e2208", "name": "6744b5adda32f6c56d07240fb49e2208", "rental_uris": {"ios": "https://dc.lft.to/lastmile_qr_scan", "android": "https://dc.lft.to/lastmile_qr_scan"}}, {"is_disabled": 0, "fusion_lat": 0.0, "lat": 38.89464916666667, "type": "electric_scooter", "lon": -76.9937165, "is_reserved": 0, "fusion_lon": 0.0, "bike_id": "8254ac720b2a5de549463048741387e9", "name": "8254ac720b2a5de549463048741387e9", "rental_uris": {"ios": "https://dc.lft.to/lastmile_qr_scan", "android": "https://dc.lft.to/lastmile_qr_scan"}}, {"is_disabled": 0, "fusion_lat": 0.0, "lat": 38.92310283333333, "type": "electric_scooter", "lon": -77.0212325, "is_reserved": 0, "fusion_lon": 0.0, "bike_id": "70f4dce4d8a28be2be701de7d4098609", "name": "70f4dce4d8a28be2be701de7d4098609", "rental_uris": {"ios": "https://dc.lft.to/lastmile_qr_scan", "android": "https://dc.lft.to/lastmile_qr_scan"}}, {"is_disabled": 0, "fusion_lat": 0.0, "lat": 38.91544833333333, "type": "electric_scooter", "lon": -77.0350875, "is_reserved": 0, "fusion_lon": 0.0, "bike_id": "e67d84cfd44e35ffa9cacc66fe3f4c50", "name": "e67d84cfd44e35ffa9cacc66fe3f4c50", "rental_uris": {"ios": "https://dc.lft.to/lastmile_qr_scan", "android": "https://dc.lft.to/lastmile_qr_scan"}}, {"is_disabled": 0, "fusion_lat": 0.0, "lat": 38.91718183333333, "type": "electric_scooter", "lon": -77.02903916666666, "is_reserved": 0, "fusion_lon": 0.0, "bike_id": "7f632ffd45635b625b138e02ad0cd516", "name": "7f632ffd45635b625b138e02ad0cd516", "rental_uris": {"ios": "https://dc.lft.to/lastmile_qr_scan", "android": "https://dc.lft.to/lastmile_qr_scan"}}, {"is_disabled": 0, "fusion_lat": 0.0, "lat": 38.931631, "type": "electric_scooter", "lon": -77.036317, "is_reserved": 0, "fusion_lon": 0.0, "bike_id": "6d7e140ac2688f93cfe65a53d99d5107", "name": "6d7e140ac2688f93cfe65a53d99d5107", "rental_uris": {"ios": "https://dc.lft.to/lastmile_qr_scan", "android": "https://dc.lft.to/lastmile_qr_scan"}}, {"is_disabled": 0, "fusion_lat": 0.0, "lat": 38.923301, "type": "electric_scooter", "lon": -77.03906616666667, "is_reserved": 0, "fusion_lon": 0.0, "bike_id": "bfe844c1dd546da012f6292bf7c635e3", "name": "bfe844c1dd546da012f6292bf7c635e3", "rental_uris": {"ios": "https://dc.lft.to/lastmile_qr_scan", "android": "https://dc.lft.to/lastmile_qr_scan"}}, {"is_disabled": 0, "fusion_lat": 0.0, "lat": 38.907194, "type": "electric_scooter", "lon": -77.0333125, "is_reserved": 0, "fusion_lon": 0.0, "bike_id": "e02a244b1a2ede18d74bec37db3bd224", "name": "e02a244b1a2ede18d74bec37db3bd224", "rental_uris": {"ios": "https://dc.lft.to/lastmile_qr_scan", "android": "https://dc.lft.to/lastmile_qr_scan"}}, {"is_disabled": 0, "fusion_lat": 0.0, "lat": 39.03049, "type": "electric_bike", "lon": -77.09480866666667, "is_reserved": 0, "fusion_lon": 0.0, "bike_id": "05718c0eb180e37c1ef672645d91db04", "name": "05718c0eb180e37c1ef672645d91db04", "rental_uris": {"ios": "https://dc.lft.to/lastmile_qr_scan", "android": "https://dc.lft.to/lastmile_qr_scan"}}, {"is_disabled": 0, "fusion_lat": 0.0, "lat": 38.90352383333333, "type": "electric_scooter", "lon": -77.044792, "is_reserved": 0, "fusion_lon": 0.0, "bike_id": "3429370c2b442836a3e806b336dd5dff", "name": "3429370c2b442836a3e806b336dd5dff", "rental_uris": {"ios": "https://dc.lft.to/lastmile_qr_scan", "android": "https://dc.lft.to/lastmile_qr_scan"}}, {"is_disabled": 0, "fusion_lat": 0.0, "lat": 38.9156125, "type": "electric_scooter", "lon": -77.02076766666667, "is_reserved": 0, "fusion_lon": 0.0, "bike_id": "45856aecb1d8ac6756d717cd284e7287", "name": "45856aecb1d8ac6756d717cd284e7287", "rental_uris": {"ios": "https://dc.lft.to/lastmile_qr_scan", "android": "https://dc.lft.to/lastmile_qr_scan"}}, {"is_disabled": 0, "fusion_lat": 0.0, "lat": 38.9170475, "type": "electric_scooter", "lon": -77.00714516666666, "is_reserved": 0, "fusion_lon": 0.0, "bike_id": "11413d6ebb062ebc4bf1b6ce0f92eefc", "name": "11413d6ebb062ebc4bf1b6ce0f92eefc", "rental_uris": {"ios": "https://dc.lft.to/lastmile_qr_scan", "android": "https://dc.lft.to/lastmile_qr_scan"}}, {"is_disabled": 0, "fusion_lat": 0.0, "lat": 38.92385933333333, "type": "electric_scooter", "lon": -77.00070233333334, "is_reserved": 0, "fusion_lon": 0.0, "bike_id": "9a2cdab85bbda6fec54f9489c65c7a5d", "name": "9a2cdab85bbda6fec54f9489c65c7a5d", "rental_uris": {"ios": "https://dc.lft.to/lastmile_qr_scan", "android": "https://dc.lft.to/lastmile_qr_scan"}}, {"is_disabled": 0, "fusion_lat": 0.0, "lat": 38.90570733333333, "type": "electric_scooter", "lon": -77.02991316666666, "is_reserved": 0, "fusion_lon": 0.0, "bike_id": "81bc1605bd8d0c6a2251d56c025fca89", "name": "81bc1605bd8d0c6a2251d56c025fca89", "rental_uris": {"ios": "https://dc.lft.to/lastmile_qr_scan", "android": "https://dc.lft.to/lastmile_qr_scan"}}, {"is_disabled": 0, "fusion_lat": 0.0, "lat": 38.923722833333336, "type": "electric_scooter", "lon": -77.01912583333333, "is_reserved": 0, "fusion_lon": 0.0, "bike_id": "8bc024a937651f5109e460a43e22e811", "name": "8bc024a937651f5109e460a43e22e811", "rental_uris": {"ios": "https://dc.lft.to/lastmile_qr_scan", "android": "https://dc.lft.to/lastmile_qr_scan"}}, {"is_disabled": 0, "fusion_lat": 0.0, "lat": 38.9492575, "type": "electric_scooter", "lon": -77.01937583333333, "is_reserved": 0, "fusion_lon": 0.0, "bike_id": "9224e9709cac0c63091286b4d0e10708", "name": "9224e9709cac0c63091286b4d0e10708", "rental_uris": {"ios": "https://dc.lft.to/lastmile_qr_scan", "android": "https://dc.lft.to/lastmile_qr_scan"}}, {"is_disabled": 0, "fusion_lat": 0.0, "lat": 38.93086183333333, "type": "electric_scooter", "lon": -77.07800683333333, "is_reserved": 0, "fusion_lon": 0.0, "bike_id": "3e7be87f3f03c171daee12115d91ba14", "name": "3e7be87f3f03c171daee12115d91ba14", "rental_uris": {"ios": "https://dc.lft.to/lastmile_qr_scan", "android": "https://dc.lft.to/lastmile_qr_scan"}}, {"is_disabled": 0, "fusion_lat": 0.0, "lat": 38.92735416666667, "type": "electric_bike", "lon": -76.99369833333333, "is_reserved": 0, "fusion_lon": 0.0, "bike_id": "ec08b3b5fcb2922fdccb992104c362ed", "name": "ec08b3b5fcb2922fdccb992104c362ed", "rental_uris": {"ios": "https://dc.lft.to/lastmile_qr_scan", "android": "https://dc.lft.to/lastmile_qr_scan"}}, {"is_disabled": 0, "fusion_lat": 0.0, "lat": 38.898475833333336, "type": "electric_scooter", "lon": -77.03963183333333, "is_reserved": 0, "fusion_lon": 0.0, "bike_id": "90bf09a3c6aab854bda3bc2162466884", "name": "90bf09a3c6aab854bda3bc2162466884", "rental_uris": {"ios": "https://dc.lft.to/lastmile_qr_scan", "android": "https://dc.lft.to/lastmile_qr_scan"}}, {"is_disabled": 0, "fusion_lat": 0.0, "lat": 38.86451533333333, "type": "electric_bike", "lon": -76.94544183333333, "is_reserved": 0, "fusion_lon": 0.0, "bike_id": "dd802f847978de8428a5f7b935099abf", "name": "dd802f847978de8428a5f7b935099abf", "rental_uris": {"ios": "https://dc.lft.to/lastmile_qr_scan", "android": "https://dc.lft.to/lastmile_qr_scan"}}, {"is_disabled": 0, "fusion_lat": 0.0, "lat": 38.956364, "type": "electric_scooter", "lon": -77.0330295, "is_reserved": 0, "fusion_lon": 0.0, "bike_id": "57e60f63f0f277e6a67bb78f7f1f4161", "name": "57e60f63f0f277e6a67bb78f7f1f4161", "rental_uris": {"ios": "https://dc.lft.to/lastmile_qr_scan", "android": "https://dc.lft.to/lastmile_qr_scan"}}, {"is_disabled": 0, "fusion_lat": 0.0, "lat": 38.871402, "type": "electric_bike", "lon": -76.93703783333333, "is_reserved": 0, "fusion_lon": 0.0, "bike_id": "abde82d27fcb21091a027e09fb02dc23", "name": "abde82d27fcb21091a027e09fb02dc23", "rental_uris": {"ios": "https://dc.lft.to/lastmile_qr_scan", "android": "https://dc.lft.to/lastmile_qr_scan"}}, {"is_disabled": 0, "fusion_lat": 0.0, "lat": 38.9166465, "type": "electric_scooter", "lon": -77.04163033333333, "is_reserved": 0, "fusion_lon": 0.0, "bike_id": "68712ba4311225d2a734bbac27c421e3", "name": "68712ba4311225d2a734bbac27c421e3", "rental_uris": {"ios": "https://dc.lft.to/lastmile_qr_scan", "android": "https://dc.lft.to/lastmile_qr_scan"}}, {"is_disabled": 0, "fusion_lat": 0.0, "lat": 38.89800283333334, "type": "electric_scooter", "lon": -76.99165033333334, "is_reserved": 0, "fusion_lon": 0.0, "bike_id": "9084d2cbcae64d471f1cdc6e8e9013e9", "name": "9084d2cbcae64d471f1cdc6e8e9013e9", "rental_uris": {"ios": "https://dc.lft.to/lastmile_qr_scan", "android": "https://dc.lft.to/lastmile_qr_scan"}}, {"is_disabled": 0, "fusion_lat": 0.0, "lat": 38.81979916666667, "type": "electric_bike", "lon": -76.99815216666667, "is_reserved": 0, "fusion_lon": 0.0, "bike_id": "191f2e6ae18494ab16dc40ce6016a65f", "name": "191f2e6ae18494ab16dc40ce6016a65f", "rental_uris": {"ios": "https://dc.lft.to/lastmile_qr_scan", "android": "https://dc.lft.to/lastmile_qr_scan"}}, {"is_disabled": 0, "fusion_lat": 0.0, "lat": 38.94145866666667, "type": "electric_scooter", "lon": -77.029798, "is_reserved": 0, "fusion_lon": 0.0, "bike_id": "91802f14019fa471ca0ba0a6f075ef63", "name": "91802f14019fa471ca0ba0a6f075ef63", "rental_uris": {"ios": "https://dc.lft.to/lastmile_qr_scan", "android": "https://dc.lft.to/lastmile_qr_scan"}}, {"is_disabled": 0, "fusion_lat": 0.0, "lat": 38.92767583333333, "type": "electric_scooter", "lon": -77.02711866666667, "is_reserved": 0, "fusion_lon": 0.0, "bike_id": "85e640aae427de5e9ecd2891807a454c", "name": "85e640aae427de5e9ecd2891807a454c", "rental_uris": {"ios": "https://dc.lft.to/lastmile_qr_scan", "android": "https://dc.lft.to/lastmile_qr_scan"}}, {"is_disabled": 0, "fusion_lat": 0.0, "lat": 38.89903616666667, "type": "electric_scooter", "lon": -77.03326483333333, "is_reserved": 0, "fusion_lon": 0.0, "bike_id": "da6fe300d50ab8b6c5905d4050dcf4fa", "name": "da6fe300d50ab8b6c5905d4050dcf4fa", "rental_uris": {"ios": "https://dc.lft.to/lastmile_qr_scan", "android": "https://dc.lft.to/lastmile_qr_scan"}}, {"is_disabled": 0, "fusion_lat": 0.0, "lat": 38.89225733333333, "type": "electric_scooter", "lon": -77.0464045, "is_reserved": 0, "fusion_lon": 0.0, "bike_id": "bf449cc18eded250e23cfeee89ecd6d7", "name": "bf449cc18eded250e23cfeee89ecd6d7", "rental_uris": {"ios": "https://dc.lft.to/lastmile_qr_scan", "android": "https://dc.lft.to/lastmile_qr_scan"}}, {"is_disabled": 0, "fusion_lat": 0.0, "lat": 38.893641833333334, "type": "electric_scooter", "lon": -76.949695, "is_reserved": 0, "fusion_lon": 0.0, "bike_id": "fdaf08cf5e31007c9e323c7ce115f127", "name": "fdaf08cf5e31007c9e323c7ce115f127", "rental_uris": {"ios": "https://dc.lft.to/lastmile_qr_scan", "android": "https://dc.lft.to/lastmile_qr_scan"}}, {"is_disabled": 0, "fusion_lat": 0.0, "lat": 38.929077, "type": "electric_scooter", "lon": -77.03183466666667, "is_reserved": 0, "fusion_lon": 0.0, "bike_id": "5ff24936e9f976bc275c37d3b9a03dd6", "name": "5ff24936e9f976bc275c37d3b9a03dd6", "rental_uris": {"ios": "https://dc.lft.to/lastmile_qr_scan", "android": "https://dc.lft.to/lastmile_qr_scan"}}, {"is_disabled": 0, "fusion_lat": 0.0, "lat": 38.9284145, "type": "electric_scooter", "lon": -77.054348, "is_reserved": 0, "fusion_lon": 0.0, "bike_id": "f1b90950757b79f6ca73dcb7db1e98aa", "name": "f1b90950757b79f6ca73dcb7db1e98aa", "rental_uris": {"ios": "https://dc.lft.to/lastmile_qr_scan", "android": "https://dc.lft.to/lastmile_qr_scan"}}, {"is_disabled": 0, "fusion_lat": 0.0, "lat": 38.93239066666667, "type": "electric_scooter", "lon": -77.03280733333334, "is_reserved": 0, "fusion_lon": 0.0, "bike_id": "7664a6bd275e800e9a6658a255f4218f", "name": "7664a6bd275e800e9a6658a255f4218f", "rental_uris": {"ios": "https://dc.lft.to/lastmile_qr_scan", "android": "https://dc.lft.to/lastmile_qr_scan"}}, {"is_disabled": 0, "fusion_lat": 0.0, "lat": 38.93285483333333, "type": "electric_scooter", "lon": -77.0398105, "is_reserved": 0, "fusion_lon": 0.0, "bike_id": "020a3d3b1f33fc67fc4eb50685f1c2c6", "name": "020a3d3b1f33fc67fc4eb50685f1c2c6", "rental_uris": {"ios": "https://dc.lft.to/lastmile_qr_scan", "android": "https://dc.lft.to/lastmile_qr_scan"}}, {"is_disabled": 0, "fusion_lat": 0.0, "lat": 38.90976883333333, "type": "electric_scooter", "lon": -77.0404865, "is_reserved": 0, "fusion_lon": 0.0, "bike_id": "559be674ee0493a618498a7715314e22", "name": "559be674ee0493a618498a7715314e22", "rental_uris": {"ios": "https://dc.lft.to/lastmile_qr_scan", "android": "https://dc.lft.to/lastmile_qr_scan"}}, {"is_disabled": 0, "fusion_lat": 0.0, "lat": 38.871861333333335, "type": "electric_bike", "lon": -77.0840745, "is_reserved": 0, "fusion_lon": 0.0, "bike_id": "1af76958b4da14a33495a667a4b97ad1", "name": "1af76958b4da14a33495a667a4b97ad1", "rental_uris": {"ios": "https://dc.lft.to/lastmile_qr_scan", "android": "https://dc.lft.to/lastmile_qr_scan"}}, {"is_disabled": 0, "fusion_lat": 0.0, "lat": 38.91097216666667, "type": "electric_scooter", "lon": -77.048377, "is_reserved": 0, "fusion_lon": 0.0, "bike_id": "ff0ae014b48d7ff707b220c36c34cba4", "name": "ff0ae014b48d7ff707b220c36c34cba4", "rental_uris": {"ios": "https://dc.lft.to/lastmile_qr_scan", "android": "https://dc.lft.to/lastmile_qr_scan"}}, {"is_disabled": 0, "fusion_lat": 0.0, "lat": 38.898339666666665, "type": "electric_scooter", "lon": -77.03338716666667, "is_reserved": 0, "fusion_lon": 0.0, "bike_id": "8e5b1e0081ae13cefc5b2d079bc9e691", "name": "8e5b1e0081ae13cefc5b2d079bc9e691", "rental_uris": {"ios": "https://dc.lft.to/lastmile_qr_scan", "android": "https://dc.lft.to/lastmile_qr_scan"}}, {"is_disabled": 0, "fusion_lat": 0.0, "lat": 38.89625866666667, "type": "electric_scooter", "lon": -76.9985415, "is_reserved": 0, "fusion_lon": 0.0, "bike_id": "0a8a66970ca859c3633e86b52ec2e2b4", "name": "0a8a66970ca859c3633e86b52ec2e2b4", "rental_uris": {"ios": "https://dc.lft.to/lastmile_qr_scan", "android": "https://dc.lft.to/lastmile_qr_scan"}}, {"is_disabled": 0, "fusion_lat": 0.0, "lat": 38.89501516666667, "type": "electric_scooter", "lon": -77.02295933333333, "is_reserved": 0, "fusion_lon": 0.0, "bike_id": "1c140168f968a41866de781545f481f9", "name": "1c140168f968a41866de781545f481f9", "rental_uris": {"ios": "https://dc.lft.to/lastmile_qr_scan", "android": "https://dc.lft.to/lastmile_qr_scan"}}, {"is_disabled": 0, "fusion_lat": 0.0, "lat": 38.905717333333335, "type": "electric_scooter", "lon": -77.03079333333334, "is_reserved": 0, "fusion_lon": 0.0, "bike_id": "7f72f43964dd6d94bf30d2e40e562285", "name": "7f72f43964dd6d94bf30d2e40e562285", "rental_uris": {"ios": "https://dc.lft.to/lastmile_qr_scan", "android": "https://dc.lft.to/lastmile_qr_scan"}}, {"is_disabled": 0, "fusion_lat": 0.0, "lat": 38.892222, "type": "electric_scooter", "lon": -77.0463885, "is_reserved": 0, "fusion_lon": 0.0, "bike_id": "5f2a2ed0cd6f64cc2cc9718dcd292ade", "name": "5f2a2ed0cd6f64cc2cc9718dcd292ade", "rental_uris": {"ios": "https://dc.lft.to/lastmile_qr_scan", "android": "https://dc.lft.to/lastmile_qr_scan"}}, {"is_disabled": 0, "fusion_lat": 0.0, "lat": 38.92716133333333, "type": "electric_scooter", "lon": -77.02083166666667, "is_reserved": 0, "fusion_lon": 0.0, "bike_id": "a0a6b5c08c820402da50ab18953ade90", "name": "a0a6b5c08c820402da50ab18953ade90", "rental_uris": {"ios": "https://dc.lft.to/lastmile_qr_scan", "android": "https://dc.lft.to/lastmile_qr_scan"}}, {"is_disabled": 0, "fusion_lat": 0.0, "lat": 38.869057833333336, "type": "electric_bike", "lon": -77.13177066666667, "is_reserved": 0, "fusion_lon": 0.0, "bike_id": "a80584ec10a0e6d5a6b7fdedd07d985e", "name": "a80584ec10a0e6d5a6b7fdedd07d985e", "rental_uris": {"ios": "https://dc.lft.to/lastmile_qr_scan", "android": "https://dc.lft.to/lastmile_qr_scan"}}, {"is_disabled": 0, "fusion_lat": 0.0, "lat": 38.9324395, "type": "electric_scooter", "lon": -77.03111483333333, "is_reserved": 0, "fusion_lon": 0.0, "bike_id": "743f82bc0b17aa989ce5eb7bfd921bd7", "name": "743f82bc0b17aa989ce5eb7bfd921bd7", "rental_uris": {"ios": "https://dc.lft.to/lastmile_qr_scan", "android": "https://dc.lft.to/lastmile_qr_scan"}}, {"is_disabled": 0, "fusion_lat": 0.0, "lat": 38.9300605, "type": "electric_scooter", "lon": -77.0208855, "is_reserved": 0, "fusion_lon": 0.0, "bike_id": "3ae5feb1d78a0df0dfd2acd11c9ca49e", "name": "3ae5feb1d78a0df0dfd2acd11c9ca49e", "rental_uris": {"ios": "https://dc.lft.to/lastmile_qr_scan", "android": "https://dc.lft.to/lastmile_qr_scan"}}, {"is_disabled": 0, "fusion_lat": 0.0, "lat": 38.89822733333333, "type": "electric_scooter", "lon": -77.03185666666667, "is_reserved": 0, "fusion_lon": 0.0, "bike_id": "3e2b38a1fa86d239b52d16ffdbca93cd", "name": "3e2b38a1fa86d239b52d16ffdbca93cd", "rental_uris": {"ios": "https://dc.lft.to/lastmile_qr_scan", "android": "https://dc.lft.to/lastmile_qr_scan"}}, {"is_disabled": 0, "fusion_lat": 0.0, "lat": 38.910361333333334, "type": "electric_scooter", "lon": -77.01007433333334, "is_reserved": 0, "fusion_lon": 0.0, "bike_id": "e2e562e73674235dbff460b0bd5d2f10", "name": "e2e562e73674235dbff460b0bd5d2f10", "rental_uris": {"ios": "https://dc.lft.to/lastmile_qr_scan", "android": "https://dc.lft.to/lastmile_qr_scan"}}, {"is_disabled": 0, "fusion_lat": 0.0, "lat": 38.87884366666667, "type": "electric_scooter", "lon": -77.005421, "is_reserved": 0, "fusion_lon": 0.0, "bike_id": "6787ca7de3d42e1ee50c998a9e6b51b0", "name": "6787ca7de3d42e1ee50c998a9e6b51b0", "rental_uris": {"ios": "https://dc.lft.to/lastmile_qr_scan", "android": "https://dc.lft.to/lastmile_qr_scan"}}, {"is_disabled": 0, "fusion_lat": 0.0, "lat": 38.88495233333333, "type": "electric_scooter", "lon": -77.00717716666666, "is_reserved": 0, "fusion_lon": 0.0, "bike_id": "eb24e14f8d2f7b9bfc48bb1e134bcf17", "name": "eb24e14f8d2f7b9bfc48bb1e134bcf17", "rental_uris": {"ios": "https://dc.lft.to/lastmile_qr_scan", "android": "https://dc.lft.to/lastmile_qr_scan"}}, {"is_disabled": 0, "fusion_lat": 0.0, "lat": 38.8699595, "type": "electric_bike", "lon": -76.95986233333333, "is_reserved": 0, "fusion_lon": 0.0, "bike_id": "553bc4fcbe6ce6b17f9ff16eb0bb01ef", "name": "553bc4fcbe6ce6b17f9ff16eb0bb01ef", "rental_uris": {"ios": "https://dc.lft.to/lastmile_qr_scan", "android": "https://dc.lft.to/lastmile_qr_scan"}}, {"is_disabled": 0, "fusion_lat": 0.0, "lat": 38.881902833333335, "type": "electric_scooter", "lon": -77.02086483333333, "is_reserved": 0, "fusion_lon": 0.0, "bike_id": "92ac9aa09ea6ef52d599f4c9addd209f", "name": "92ac9aa09ea6ef52d599f4c9addd209f", "rental_uris": {"ios": "https://dc.lft.to/lastmile_qr_scan", "android": "https://dc.lft.to/lastmile_qr_scan"}}, {"is_disabled": 0, "fusion_lat": 0.0, "lat": 38.932378166666666, "type": "electric_scooter", "lon": -77.0328275, "is_reserved": 0, "fusion_lon": 0.0, "bike_id": "d7a6a2b71443944833d688ab85dca303", "name": "d7a6a2b71443944833d688ab85dca303", "rental_uris": {"ios": "https://dc.lft.to/lastmile_qr_scan", "android": "https://dc.lft.to/lastmile_qr_scan"}}, {"is_disabled": 0, "fusion_lat": 0.0, "lat": 38.86246, "type": "electric_scooter", "lon": -76.99503983333334, "is_reserved": 0, "fusion_lon": 0.0, "bike_id": "6a760f6e5403eaa6d24d3100d809391a", "name": "6a760f6e5403eaa6d24d3100d809391a", "rental_uris": {"ios": "https://dc.lft.to/lastmile_qr_scan", "android": "https://dc.lft.to/lastmile_qr_scan"}}, {"is_disabled": 0, "fusion_lat": 0.0, "lat": 38.94166466666667, "type": "electric_scooter", "lon": -77.02535, "is_reserved": 0, "fusion_lon": 0.0, "bike_id": "e4e7c9070501937dd54707112c82d959", "name": "e4e7c9070501937dd54707112c82d959", "rental_uris": {"ios": "https://dc.lft.to/lastmile_qr_scan", "android": "https://dc.lft.to/lastmile_qr_scan"}}, {"is_disabled": 0, "fusion_lat": 0.0, "lat": 38.897404333333334, "type": "electric_scooter", "lon": -77.04684, "is_reserved": 0, "fusion_lon": 0.0, "bike_id": "62592cc29ead87fcd1f845b78c33bb47", "name": "62592cc29ead87fcd1f845b78c33bb47", "rental_uris": {"ios": "https://dc.lft.to/lastmile_qr_scan", "android": "https://dc.lft.to/lastmile_qr_scan"}}, {"is_disabled": 0, "fusion_lat": 0.0, "lat": 38.92097533333333, "type": "electric_scooter", "lon": -77.02514233333333, "is_reserved": 0, "fusion_lon": 0.0, "bike_id": "62ca66ae36ec10530502f0b45d5ff853", "name": "62ca66ae36ec10530502f0b45d5ff853", "rental_uris": {"ios": "https://dc.lft.to/lastmile_qr_scan", "android": "https://dc.lft.to/lastmile_qr_scan"}}, {"is_disabled": 0, "fusion_lat": 0.0, "lat": 38.80620033333334, "type": "electric_bike", "lon": -77.0634995, "is_reserved": 0, "fusion_lon": 0.0, "bike_id": "e4224260c9025f0903ce563f3e93310f", "name": "e4224260c9025f0903ce563f3e93310f", "rental_uris": {"ios": "https://dc.lft.to/lastmile_qr_scan", "android": "https://dc.lft.to/lastmile_qr_scan"}}, {"is_disabled": 0, "fusion_lat": 0.0, "lat": 38.90781666666667, "type": "electric_scooter", "lon": -77.036566, "is_reserved": 0, "fusion_lon": 0.0, "bike_id": "05b032d39ff4fcad9a9568299c57c777", "name": "05b032d39ff4fcad9a9568299c57c777", "rental_uris": {"ios": "https://dc.lft.to/lastmile_qr_scan", "android": "https://dc.lft.to/lastmile_qr_scan"}}, {"is_disabled": 0, "fusion_lat": 0.0, "lat": 38.9247375, "type": "electric_scooter", "lon": -77.02632033333333, "is_reserved": 0, "fusion_lon": 0.0, "bike_id": "17a2456e78ea9af727f60962bd88060a", "name": "17a2456e78ea9af727f60962bd88060a", "rental_uris": {"ios": "https://dc.lft.to/lastmile_qr_scan", "android": "https://dc.lft.to/lastmile_qr_scan"}}, {"is_disabled": 0, "fusion_lat": 0.0, "lat": 38.98504233333333, "type": "electric_bike", "lon": -76.98209433333334, "is_reserved": 0, "fusion_lon": 0.0, "bike_id": "5da7e0c5abe3ac1fec21de6972df4e46", "name": "5da7e0c5abe3ac1fec21de6972df4e46", "rental_uris": {"ios": "https://dc.lft.to/lastmile_qr_scan", "android": "https://dc.lft.to/lastmile_qr_scan"}}, {"is_disabled": 0, "fusion_lat": 0.0, "lat": 38.90028, "type": "electric_scooter", "lon": -76.9986575, "is_reserved": 0, "fusion_lon": 0.0, "bike_id": "d37061d26dbc9ae0e0d86400074401b7", "name": "d37061d26dbc9ae0e0d86400074401b7", "rental_uris": {"ios": "https://dc.lft.to/lastmile_qr_scan", "android": "https://dc.lft.to/lastmile_qr_scan"}}, {"is_disabled": 0, "fusion_lat": 0.0, "lat": 38.924804333333334, "type": "electric_scooter", "lon": -77.027237, "is_reserved": 0, "fusion_lon": 0.0, "bike_id": "61412ece1199858f531032c6492119bf", "name": "61412ece1199858f531032c6492119bf", "rental_uris": {"ios": "https://dc.lft.to/lastmile_qr_scan", "android": "https://dc.lft.to/lastmile_qr_scan"}}, {"is_disabled": 0, "fusion_lat": 0.0, "lat": 38.87731, "type": "electric_bike", "lon": -77.11852266666666, "is_reserved": 0, "fusion_lon": 0.0, "bike_id": "02b505a8390e3c8b2fb77ceabeb9e5e3", "name": "02b505a8390e3c8b2fb77ceabeb9e5e3", "rental_uris": {"ios": "https://dc.lft.to/lastmile_qr_scan", "android": "https://dc.lft.to/lastmile_qr_scan"}}, {"is_disabled": 0, "fusion_lat": 0.0, "lat": 38.951866833333334, "type": "electric_bike", "lon": -76.935436, "is_reserved": 0, "fusion_lon": 0.0, "bike_id": "250cfaca26a6927842155763fb44292e", "name": "250cfaca26a6927842155763fb44292e", "rental_uris": {"ios": "https://dc.lft.to/lastmile_qr_scan", "android": "https://dc.lft.to/lastmile_qr_scan"}}, {"is_disabled": 0, "fusion_lat": 0.0, "lat": 38.928599, "type": "electric_scooter", "lon": -77.028798, "is_reserved": 0, "fusion_lon": 0.0, "bike_id": "f09916691e056f29877d6365e2f8f6e3", "name": "f09916691e056f29877d6365e2f8f6e3", "rental_uris": {"ios": "https://dc.lft.to/lastmile_qr_scan", "android": "https://dc.lft.to/lastmile_qr_scan"}}, {"is_disabled": 0, "fusion_lat": 0.0, "lat": 38.917908, "type": "electric_scooter", "lon": -77.02314666666666, "is_reserved": 0, "fusion_lon": 0.0, "bike_id": "95d3fe2da58b186574beff09993577f6", "name": "95d3fe2da58b186574beff09993577f6", "rental_uris": {"ios": "https://dc.lft.to/lastmile_qr_scan", "android": "https://dc.lft.to/lastmile_qr_scan"}}, {"is_disabled": 0, "fusion_lat": 0.0, "lat": 38.90254066666667, "type": "electric_scooter", "lon": -77.01850583333334, "is_reserved": 0, "fusion_lon": 0.0, "bike_id": "2e659ab2895eeef04f642d7d26dd9fa9", "name": "2e659ab2895eeef04f642d7d26dd9fa9", "rental_uris": {"ios": "https://dc.lft.to/lastmile_qr_scan", "android": "https://dc.lft.to/lastmile_qr_scan"}}, {"is_disabled": 0, "fusion_lat": 0.0, "lat": 38.912681166666665, "type": "electric_scooter", "lon": -77.03629616666667, "is_reserved": 0, "fusion_lon": 0.0, "bike_id": "4ce19a79dd12f8a8851be0dbcf0b37f1", "name": "4ce19a79dd12f8a8851be0dbcf0b37f1", "rental_uris": {"ios": "https://dc.lft.to/lastmile_qr_scan", "android": "https://dc.lft.to/lastmile_qr_scan"}}, {"is_disabled": 0, "fusion_lat": 0.0, "lat": 38.87116983333333, "type": "electric_scooter", "lon": -77.01070966666667, "is_reserved": 0, "fusion_lon": 0.0, "bike_id": "948682f6eb07045f1986f411a04789f9", "name": "948682f6eb07045f1986f411a04789f9", "rental_uris": {"ios": "https://dc.lft.to/lastmile_qr_scan", "android": "https://dc.lft.to/lastmile_qr_scan"}}, {"is_disabled": 0, "fusion_lat": 0.0, "lat": 38.915470166666665, "type": "electric_scooter", "lon": -77.03839866666667, "is_reserved": 0, "fusion_lon": 0.0, "bike_id": "a8e95468a5805216896a7a5937feede2", "name": "a8e95468a5805216896a7a5937feede2", "rental_uris": {"ios": "https://dc.lft.to/lastmile_qr_scan", "android": "https://dc.lft.to/lastmile_qr_scan"}}, {"is_disabled": 0, "fusion_lat": 0.0, "lat": 38.8636085, "type": "electric_scooter", "lon": -76.9904185, "is_reserved": 0, "fusion_lon": 0.0, "bike_id": "10c46ab2ac09861beda118c3df4beffd", "name": "10c46ab2ac09861beda118c3df4beffd", "rental_uris": {"ios": "https://dc.lft.to/lastmile_qr_scan", "android": "https://dc.lft.to/lastmile_qr_scan"}}, {"is_disabled": 0, "fusion_lat": 0.0, "lat": 38.9451185, "type": "electric_bike", "lon": -77.00672133333333, "is_reserved": 0, "fusion_lon": 0.0, "bike_id": "0ad128b14867ea6b4303a8ee878e6f2b", "name": "0ad128b14867ea6b4303a8ee878e6f2b", "rental_uris": {"ios": "https://dc.lft.to/lastmile_qr_scan", "android": "https://dc.lft.to/lastmile_qr_scan"}}, {"is_disabled": 0, "fusion_lat": 0.0, "lat": 38.90843733333333, "type": "electric_scooter", "lon": -77.0852965, "is_reserved": 0, "fusion_lon": 0.0, "bike_id": "08ecb8b625ba6b8e27eb3ec9e63169ee", "name": "08ecb8b625ba6b8e27eb3ec9e63169ee", "rental_uris": {"ios": "https://dc.lft.to/lastmile_qr_scan", "android": "https://dc.lft.to/lastmile_qr_scan"}}, {"is_disabled": 0, "fusion_lat": 0.0, "lat": 38.917177833333334, "type": "electric_scooter", "lon": -77.03839766666667, "is_reserved": 0, "fusion_lon": 0.0, "bike_id": "79f2e07bdff88275095bffb75ae255c3", "name": "79f2e07bdff88275095bffb75ae255c3", "rental_uris": {"ios": "https://dc.lft.to/lastmile_qr_scan", "android": "https://dc.lft.to/lastmile_qr_scan"}}, {"is_disabled": 0, "fusion_lat": 0.0, "lat": 38.96600683333333, "type": "electric_bike", "lon": -76.98334716666666, "is_reserved": 0, "fusion_lon": 0.0, "bike_id": "80236b61c8a3f04ee793132d9836d509", "name": "80236b61c8a3f04ee793132d9836d509", "rental_uris": {"ios": "https://dc.lft.to/lastmile_qr_scan", "android": "https://dc.lft.to/lastmile_qr_scan"}}, {"is_disabled": 0, "fusion_lat": 0.0, "lat": 38.9213825, "type": "electric_scooter", "lon": -77.04231666666666, "is_reserved": 0, "fusion_lon": 0.0, "bike_id": "8a7cb6a6e7a750b9d9d2eadd17b80367", "name": "8a7cb6a6e7a750b9d9d2eadd17b80367", "rental_uris": {"ios": "https://dc.lft.to/lastmile_qr_scan", "android": "https://dc.lft.to/lastmile_qr_scan"}}, {"is_disabled": 0, "fusion_lat": 0.0, "lat": 38.933108, "type": "electric_scooter", "lon": -77.0292125, "is_reserved": 0, "fusion_lon": 0.0, "bike_id": "cfb198e865db18db8b7b58904b81c3b2", "name": "cfb198e865db18db8b7b58904b81c3b2", "rental_uris": {"ios": "https://dc.lft.to/lastmile_qr_scan", "android": "https://dc.lft.to/lastmile_qr_scan"}}, {"is_disabled": 0, "fusion_lat": 0.0, "lat": 38.938251666666666, "type": "electric_scooter", "lon": -77.06177183333334, "is_reserved": 0, "fusion_lon": 0.0, "bike_id": "301f9b50bfd2c210f97dccb3f0a32965", "name": "301f9b50bfd2c210f97dccb3f0a32965", "rental_uris": {"ios": "https://dc.lft.to/lastmile_qr_scan", "android": "https://dc.lft.to/lastmile_qr_scan"}}, {"is_disabled": 0, "fusion_lat": 0.0, "lat": 38.898377333333336, "type": "electric_scooter", "lon": -76.93104566666666, "is_reserved": 0, "fusion_lon": 0.0, "bike_id": "d085fae44e2c2512d2c5a1b7d84171ab", "name": "d085fae44e2c2512d2c5a1b7d84171ab", "rental_uris": {"ios": "https://dc.lft.to/lastmile_qr_scan", "android": "https://dc.lft.to/lastmile_qr_scan"}}, {"is_disabled": 0, "fusion_lat": 0.0, "lat": 38.9270195, "type": "electric_scooter", "lon": -77.023258, "is_reserved": 0, "fusion_lon": 0.0, "bike_id": "c9476d9c6b590a6f88d5362e97ea26ae", "name": "c9476d9c6b590a6f88d5362e97ea26ae", "rental_uris": {"ios": "https://dc.lft.to/lastmile_qr_scan", "android": "https://dc.lft.to/lastmile_qr_scan"}}, {"is_disabled": 0, "fusion_lat": 0.0, "lat": 38.90062433333333, "type": "electric_scooter", "lon": -77.04588966666667, "is_reserved": 0, "fusion_lon": 0.0, "bike_id": "2ab06533d4da48bb3c1fdb8497b882ea", "name": "2ab06533d4da48bb3c1fdb8497b882ea", "rental_uris": {"ios": "https://dc.lft.to/lastmile_qr_scan", "android": "https://dc.lft.to/lastmile_qr_scan"}}, {"is_disabled": 0, "fusion_lat": 0.0, "lat": 38.92519866666667, "type": "electric_scooter", "lon": -77.04131716666667, "is_reserved": 0, "fusion_lon": 0.0, "bike_id": "fa9a9a5367acfc262de1299d7fe49d47", "name": "fa9a9a5367acfc262de1299d7fe49d47", "rental_uris": {"ios": "https://dc.lft.to/lastmile_qr_scan", "android": "https://dc.lft.to/lastmile_qr_scan"}}, {"is_disabled": 0, "fusion_lat": 0.0, "lat": 38.906023833333336, "type": "electric_scooter", "lon": -77.0589935, "is_reserved": 0, "fusion_lon": 0.0, "bike_id": "76f27e43227f7ead8586588238c6306e", "name": "76f27e43227f7ead8586588238c6306e", "rental_uris": {"ios": "https://dc.lft.to/lastmile_qr_scan", "android": "https://dc.lft.to/lastmile_qr_scan"}}, {"is_disabled": 0, "fusion_lat": 0.0, "lat": 38.900941, "type": "electric_scooter", "lon": -77.04380066666667, "is_reserved": 0, "fusion_lon": 0.0, "bike_id": "cba3de47e6d335833548afeb76ea8699", "name": "cba3de47e6d335833548afeb76ea8699", "rental_uris": {"ios": "https://dc.lft.to/lastmile_qr_scan", "android": "https://dc.lft.to/lastmile_qr_scan"}}, {"is_disabled": 0, "fusion_lat": 0.0, "lat": 38.9057745, "type": "electric_bike", "lon": -77.00317866666667, "is_reserved": 0, "fusion_lon": 0.0, "bike_id": "abff3c9337fd4460e4e911328e27d511", "name": "abff3c9337fd4460e4e911328e27d511", "rental_uris": {"ios": "https://dc.lft.to/lastmile_qr_scan", "android": "https://dc.lft.to/lastmile_qr_scan"}}, {"is_disabled": 0, "fusion_lat": 0.0, "lat": 38.90516083333333, "type": "electric_scooter", "lon": -77.06871383333333, "is_reserved": 0, "fusion_lon": 0.0, "bike_id": "ddb0e196c5d93104a163ef005ea56e17", "name": "ddb0e196c5d93104a163ef005ea56e17", "rental_uris": {"ios": "https://dc.lft.to/lastmile_qr_scan", "android": "https://dc.lft.to/lastmile_qr_scan"}}, {"is_disabled": 0, "fusion_lat": 0.0, "lat": 38.89837083333333, "type": "electric_scooter", "lon": -77.03335183333333, "is_reserved": 0, "fusion_lon": 0.0, "bike_id": "42f03166387623cd5915b238a263ee42", "name": "42f03166387623cd5915b238a263ee42", "rental_uris": {"ios": "https://dc.lft.to/lastmile_qr_scan", "android": "https://dc.lft.to/lastmile_qr_scan"}}, {"is_disabled": 0, "fusion_lat": 0.0, "lat": 38.91242883333334, "type": "electric_scooter", "lon": -77.0162055, "is_reserved": 0, "fusion_lon": 0.0, "bike_id": "60c9b7a11b465288d6c5be319f170aa3", "name": "60c9b7a11b465288d6c5be319f170aa3", "rental_uris": {"ios": "https://dc.lft.to/lastmile_qr_scan", "android": "https://dc.lft.to/lastmile_qr_scan"}}, {"is_disabled": 0, "fusion_lat": 0.0, "lat": 38.9275715, "type": "electric_scooter", "lon": -77.00590483333333, "is_reserved": 0, "fusion_lon": 0.0, "bike_id": "d0b151cd763c79318aefb2f0db49a043", "name": "d0b151cd763c79318aefb2f0db49a043", "rental_uris": {"ios": "https://dc.lft.to/lastmile_qr_scan", "android": "https://dc.lft.to/lastmile_qr_scan"}}, {"is_disabled": 0, "fusion_lat": 0.0, "lat": 38.933235333333336, "type": "electric_scooter", "lon": -77.0293395, "is_reserved": 0, "fusion_lon": 0.0, "bike_id": "92bb1f839f400571ac45055a96bf1c9e", "name": "92bb1f839f400571ac45055a96bf1c9e", "rental_uris": {"ios": "https://dc.lft.to/lastmile_qr_scan", "android": "https://dc.lft.to/lastmile_qr_scan"}}, {"is_disabled": 0, "fusion_lat": 0.0, "lat": 38.907202166666664, "type": "electric_scooter", "lon": -77.02330066666667, "is_reserved": 0, "fusion_lon": 0.0, "bike_id": "8bf0c6d2628331dfe706209f79c347a3", "name": "8bf0c6d2628331dfe706209f79c347a3", "rental_uris": {"ios": "https://dc.lft.to/lastmile_qr_scan", "android": "https://dc.lft.to/lastmile_qr_scan"}}, {"is_disabled": 0, "fusion_lat": 0.0, "lat": 38.9059015, "type": "electric_scooter", "lon": -77.03978966666666, "is_reserved": 0, "fusion_lon": 0.0, "bike_id": "5ab104de52285a1cd52752ca9cd51504", "name": "5ab104de52285a1cd52752ca9cd51504", "rental_uris": {"ios": "https://dc.lft.to/lastmile_qr_scan", "android": "https://dc.lft.to/lastmile_qr_scan"}}, {"is_disabled": 0, "fusion_lat": 0.0, "lat": 38.919793166666665, "type": "electric_scooter", "lon": -77.04173016666667, "is_reserved": 0, "fusion_lon": 0.0, "bike_id": "54ba346f65a1f0dcc52f70a18a5904f4", "name": "54ba346f65a1f0dcc52f70a18a5904f4", "rental_uris": {"ios": "https://dc.lft.to/lastmile_qr_scan", "android": "https://dc.lft.to/lastmile_qr_scan"}}, {"is_disabled": 0, "fusion_lat": 0.0, "lat": 38.924801, "type": "electric_scooter", "lon": -77.0272325, "is_reserved": 0, "fusion_lon": 0.0, "bike_id": "850ff97ad1b700ff41f1f1d2be68eb2b", "name": "850ff97ad1b700ff41f1f1d2be68eb2b", "rental_uris": {"ios": "https://dc.lft.to/lastmile_qr_scan", "android": "https://dc.lft.to/lastmile_qr_scan"}}, {"is_disabled": 0, "fusion_lat": 0.0, "lat": 38.89730866666667, "type": "electric_scooter", "lon": -77.031504, "is_reserved": 0, "fusion_lon": 0.0, "bike_id": "a42fe01517473e828549f3fcbdbaa5ff", "name": "a42fe01517473e828549f3fcbdbaa5ff", "rental_uris": {"ios": "https://dc.lft.to/lastmile_qr_scan", "android": "https://dc.lft.to/lastmile_qr_scan"}}, {"is_disabled": 0, "fusion_lat": 0.0, "lat": 38.9247465, "type": "electric_scooter", "lon": -77.025527, "is_reserved": 0, "fusion_lon": 0.0, "bike_id": "ff74088c9f3e84a9f8c2296a9f78edd2", "name": "ff74088c9f3e84a9f8c2296a9f78edd2", "rental_uris": {"ios": "https://dc.lft.to/lastmile_qr_scan", "android": "https://dc.lft.to/lastmile_qr_scan"}}, {"is_disabled": 0, "fusion_lat": 0.0, "lat": 38.8784125, "type": "electric_scooter", "lon": -77.022686, "is_reserved": 0, "fusion_lon": 0.0, "bike_id": "3d65ffdf7aa1693194c9b0038c43fd0a", "name": "3d65ffdf7aa1693194c9b0038c43fd0a", "rental_uris": {"ios": "https://dc.lft.to/lastmile_qr_scan", "android": "https://dc.lft.to/lastmile_qr_scan"}}, {"is_disabled": 0, "fusion_lat": 0.0, "lat": 38.91547383333333, "type": "electric_scooter", "lon": -77.04173566666667, "is_reserved": 0, "fusion_lon": 0.0, "bike_id": "25dc50b9e682ac0221d1edea24f1ebcd", "name": "25dc50b9e682ac0221d1edea24f1ebcd", "rental_uris": {"ios": "https://dc.lft.to/lastmile_qr_scan", "android": "https://dc.lft.to/lastmile_qr_scan"}}, {"is_disabled": 0, "fusion_lat": 0.0, "lat": 38.903533333333336, "type": "electric_scooter", "lon": -77.04471416666667, "is_reserved": 0, "fusion_lon": 0.0, "bike_id": "3d2f9fe439650068ec47b1f3258e3448", "name": "3d2f9fe439650068ec47b1f3258e3448", "rental_uris": {"ios": "https://dc.lft.to/lastmile_qr_scan", "android": "https://dc.lft.to/lastmile_qr_scan"}}, {"is_disabled": 0, "fusion_lat": 0.0, "lat": 38.898849166666665, "type": "electric_scooter", "lon": -76.9317835, "is_reserved": 0, "fusion_lon": 0.0, "bike_id": "7446be83cdfdfb91e025280026cf71e7", "name": "7446be83cdfdfb91e025280026cf71e7", "rental_uris": {"ios": "https://dc.lft.to/lastmile_qr_scan", "android": "https://dc.lft.to/lastmile_qr_scan"}}, {"is_disabled": 0, "fusion_lat": 0.0, "lat": 38.927451, "type": "electric_scooter", "lon": -77.02541166666667, "is_reserved": 0, "fusion_lon": 0.0, "bike_id": "5ee5356ecd2248667a0719a066e71348", "name": "5ee5356ecd2248667a0719a066e71348", "rental_uris": {"ios": "https://dc.lft.to/lastmile_qr_scan", "android": "https://dc.lft.to/lastmile_qr_scan"}}, {"is_disabled": 0, "fusion_lat": 0.0, "lat": 38.957347666666664, "type": "electric_scooter", "lon": -77.02391316666667, "is_reserved": 0, "fusion_lon": 0.0, "bike_id": "9473f3e7ebf040d6ede8e28ef9279f1a", "name": "9473f3e7ebf040d6ede8e28ef9279f1a", "rental_uris": {"ios": "https://dc.lft.to/lastmile_qr_scan", "android": "https://dc.lft.to/lastmile_qr_scan"}}, {"is_disabled": 0, "fusion_lat": 0.0, "lat": 38.90040916666667, "type": "electric_scooter", "lon": -77.01722716666667, "is_reserved": 0, "fusion_lon": 0.0, "bike_id": "92552bfa8adcf76ba6ea78c76653f72f", "name": "92552bfa8adcf76ba6ea78c76653f72f", "rental_uris": {"ios": "https://dc.lft.to/lastmile_qr_scan", "android": "https://dc.lft.to/lastmile_qr_scan"}}, {"is_disabled": 0, "fusion_lat": 0.0, "lat": 38.89818566666667, "type": "electric_scooter", "lon": -77.03354883333333, "is_reserved": 0, "fusion_lon": 0.0, "bike_id": "c9f82d12a66f8099048aa239c3002611", "name": "c9f82d12a66f8099048aa239c3002611", "rental_uris": {"ios": "https://dc.lft.to/lastmile_qr_scan", "android": "https://dc.lft.to/lastmile_qr_scan"}}, {"is_disabled": 0, "fusion_lat": 0.0, "lat": 38.921633666666665, "type": "electric_scooter", "lon": -76.99466266666667, "is_reserved": 0, "fusion_lon": 0.0, "bike_id": "71732a10057a2f01c28449ae07fdb983", "name": "71732a10057a2f01c28449ae07fdb983", "rental_uris": {"ios": "https://dc.lft.to/lastmile_qr_scan", "android": "https://dc.lft.to/lastmile_qr_scan"}}, {"is_disabled": 0, "fusion_lat": 0.0, "lat": 38.885888333333334, "type": "electric_scooter", "lon": -77.00064583333334, "is_reserved": 0, "fusion_lon": 0.0, "bike_id": "19d95b59ba8b4841a4ab81779de25a8e", "name": "19d95b59ba8b4841a4ab81779de25a8e", "rental_uris": {"ios": "https://dc.lft.to/lastmile_qr_scan", "android": "https://dc.lft.to/lastmile_qr_scan"}}, {"is_disabled": 0, "fusion_lat": 0.0, "lat": 38.912576, "type": "electric_scooter", "lon": -77.042274, "is_reserved": 0, "fusion_lon": 0.0, "bike_id": "00df73644898e95a389c4843ccd7676e", "name": "00df73644898e95a389c4843ccd7676e", "rental_uris": {"ios": "https://dc.lft.to/lastmile_qr_scan", "android": "https://dc.lft.to/lastmile_qr_scan"}}, {"is_disabled": 0, "fusion_lat": 0.0, "lat": 38.9138155, "type": "electric_scooter", "lon": -77.01709216666667, "is_reserved": 0, "fusion_lon": 0.0, "bike_id": "7198bf9220a10bf6c33310f831a64e93", "name": "7198bf9220a10bf6c33310f831a64e93", "rental_uris": {"ios": "https://dc.lft.to/lastmile_qr_scan", "android": "https://dc.lft.to/lastmile_qr_scan"}}, {"is_disabled": 0, "fusion_lat": 0.0, "lat": 38.900756333333334, "type": "electric_bike", "lon": -77.04483016666667, "is_reserved": 0, "fusion_lon": 0.0, "bike_id": "b4c936de38992a9505c905c5b6a3348a", "name": "b4c936de38992a9505c905c5b6a3348a", "rental_uris": {"ios": "https://dc.lft.to/lastmile_qr_scan", "android": "https://dc.lft.to/lastmile_qr_scan"}}, {"is_disabled": 0, "fusion_lat": 0.0, "lat": 38.918074, "type": "electric_scooter", "lon": -77.03729516666667, "is_reserved": 0, "fusion_lon": 0.0, "bike_id": "a56b188b8b6308d96e169dd6866f6edd", "name": "a56b188b8b6308d96e169dd6866f6edd", "rental_uris": {"ios": "https://dc.lft.to/lastmile_qr_scan", "android": "https://dc.lft.to/lastmile_qr_scan"}}, {"is_disabled": 0, "fusion_lat": 0.0, "lat": 38.93512716666667, "type": "electric_scooter", "lon": -77.02401266666666, "is_reserved": 0, "fusion_lon": 0.0, "bike_id": "55d0c84efc1abdbf6e49630c62fbe20d", "name": "55d0c84efc1abdbf6e49630c62fbe20d", "rental_uris": {"ios": "https://dc.lft.to/lastmile_qr_scan", "android": "https://dc.lft.to/lastmile_qr_scan"}}, {"is_disabled": 0, "fusion_lat": 0.0, "lat": 38.90260883333333, "type": "electric_scooter", "lon": -77.0344025, "is_reserved": 0, "fusion_lon": 0.0, "bike_id": "d61442f3d470d846a3b3b2d042c88517", "name": "d61442f3d470d846a3b3b2d042c88517", "rental_uris": {"ios": "https://dc.lft.to/lastmile_qr_scan", "android": "https://dc.lft.to/lastmile_qr_scan"}}, {"is_disabled": 0, "fusion_lat": 0.0, "lat": 38.927188, "type": "electric_scooter", "lon": -77.041984, "is_reserved": 0, "fusion_lon": 0.0, "bike_id": "d4161377a04fda0196365be366a793c4", "name": "d4161377a04fda0196365be366a793c4", "rental_uris": {"ios": "https://dc.lft.to/lastmile_qr_scan", "android": "https://dc.lft.to/lastmile_qr_scan"}}, {"is_disabled": 0, "fusion_lat": 0.0, "lat": 38.95484916666667, "type": "electric_scooter", "lon": -77.06566866666667, "is_reserved": 0, "fusion_lon": 0.0, "bike_id": "7507cb1d0755102ad8f0f5785e28f7e0", "name": "7507cb1d0755102ad8f0f5785e28f7e0", "rental_uris": {"ios": "https://dc.lft.to/lastmile_qr_scan", "android": "https://dc.lft.to/lastmile_qr_scan"}}, {"is_disabled": 0, "fusion_lat": 0.0, "lat": 38.92224516666667, "type": "electric_scooter", "lon": -77.04395133333334, "is_reserved": 0, "fusion_lon": 0.0, "bike_id": "cc15bbbe64253512253e7fe11e5e6ba0", "name": "cc15bbbe64253512253e7fe11e5e6ba0", "rental_uris": {"ios": "https://dc.lft.to/lastmile_qr_scan", "android": "https://dc.lft.to/lastmile_qr_scan"}}, {"is_disabled": 0, "fusion_lat": 0.0, "lat": 38.9030135, "type": "electric_scooter", "lon": -77.017695, "is_reserved": 0, "fusion_lon": 0.0, "bike_id": "803d57fab69119787fed2455ac12c8b5", "name": "803d57fab69119787fed2455ac12c8b5", "rental_uris": {"ios": "https://dc.lft.to/lastmile_qr_scan", "android": "https://dc.lft.to/lastmile_qr_scan"}}, {"is_disabled": 0, "fusion_lat": 0.0, "lat": 38.9053885, "type": "electric_scooter", "lon": -77.0504215, "is_reserved": 0, "fusion_lon": 0.0, "bike_id": "94f88601ca3de6704752c7f5c1d007c3", "name": "94f88601ca3de6704752c7f5c1d007c3", "rental_uris": {"ios": "https://dc.lft.to/lastmile_qr_scan", "android": "https://dc.lft.to/lastmile_qr_scan"}}, {"is_disabled": 0, "fusion_lat": 0.0, "lat": 38.872812333333336, "type": "electric_scooter", "lon": -77.01632566666666, "is_reserved": 0, "fusion_lon": 0.0, "bike_id": "0f99ff93ad8e3e3bc7ba8c7862c0ff7d", "name": "0f99ff93ad8e3e3bc7ba8c7862c0ff7d", "rental_uris": {"ios": "https://dc.lft.to/lastmile_qr_scan", "android": "https://dc.lft.to/lastmile_qr_scan"}}, {"is_disabled": 0, "fusion_lat": 0.0, "lat": 38.866537, "type": "electric_scooter", "lon": -76.98885916666667, "is_reserved": 0, "fusion_lon": 0.0, "bike_id": "d41b2f1833e502c402e130c17575cd01", "name": "d41b2f1833e502c402e130c17575cd01", "rental_uris": {"ios": "https://dc.lft.to/lastmile_qr_scan", "android": "https://dc.lft.to/lastmile_qr_scan"}}, {"is_disabled": 0, "fusion_lat": 0.0, "lat": 38.93402716666667, "type": "electric_scooter", "lon": -77.0412795, "is_reserved": 0, "fusion_lon": 0.0, "bike_id": "4c3dc78df920ee5fff2bfb3ce1c28fd4", "name": "4c3dc78df920ee5fff2bfb3ce1c28fd4", "rental_uris": {"ios": "https://dc.lft.to/lastmile_qr_scan", "android": "https://dc.lft.to/lastmile_qr_scan"}}, {"is_disabled": 0, "fusion_lat": 0.0, "lat": 38.86536533333334, "type": "electric_scooter", "lon": -76.9870845, "is_reserved": 0, "fusion_lon": 0.0, "bike_id": "19772fe881bff101db36750c7bb1dd36", "name": "19772fe881bff101db36750c7bb1dd36", "rental_uris": {"ios": "https://dc.lft.to/lastmile_qr_scan", "android": "https://dc.lft.to/lastmile_qr_scan"}}, {"is_disabled": 0, "fusion_lat": 0.0, "lat": 38.896072833333335, "type": "electric_bike", "lon": -76.977986, "is_reserved": 0, "fusion_lon": 0.0, "bike_id": "f8b608de70f709740bf3b316ba04cfd0", "name": "f8b608de70f709740bf3b316ba04cfd0", "rental_uris": {"ios": "https://dc.lft.to/lastmile_qr_scan", "android": "https://dc.lft.to/lastmile_qr_scan"}}, {"is_disabled": 0, "fusion_lat": 0.0, "lat": 38.902136, "type": "electric_scooter", "lon": -76.94596966666667, "is_reserved": 0, "fusion_lon": 0.0, "bike_id": "956a0ab01e6e7c59ae34e462cb8d435c", "name": "956a0ab01e6e7c59ae34e462cb8d435c", "rental_uris": {"ios": "https://dc.lft.to/lastmile_qr_scan", "android": "https://dc.lft.to/lastmile_qr_scan"}}, {"is_disabled": 0, "fusion_lat": 0.0, "lat": 38.90966783333333, "type": "electric_scooter", "lon": -77.03588116666667, "is_reserved": 0, "fusion_lon": 0.0, "bike_id": "ce2693417b2566aa9505d39ab34a189b", "name": "ce2693417b2566aa9505d39ab34a189b", "rental_uris": {"ios": "https://dc.lft.to/lastmile_qr_scan", "android": "https://dc.lft.to/lastmile_qr_scan"}}, {"is_disabled": 0, "fusion_lat": 0.0, "lat": 38.9494185, "type": "electric_scooter", "lon": -77.01617, "is_reserved": 0, "fusion_lon": 0.0, "bike_id": "614f1868a810d2e5249b7798f12814b2", "name": "614f1868a810d2e5249b7798f12814b2", "rental_uris": {"ios": "https://dc.lft.to/lastmile_qr_scan", "android": "https://dc.lft.to/lastmile_qr_scan"}}, {"is_disabled": 0, "fusion_lat": 0.0, "lat": 38.91828916666667, "type": "electric_scooter", "lon": -77.03640916666667, "is_reserved": 0, "fusion_lon": 0.0, "bike_id": "321d01ba4570c0fa2e671585d751eaf7", "name": "321d01ba4570c0fa2e671585d751eaf7", "rental_uris": {"ios": "https://dc.lft.to/lastmile_qr_scan", "android": "https://dc.lft.to/lastmile_qr_scan"}}, {"is_disabled": 0, "fusion_lat": 0.0, "lat": 38.915683666666666, "type": "electric_scooter", "lon": -77.04692666666666, "is_reserved": 0, "fusion_lon": 0.0, "bike_id": "858303edec388aeb7f286a42455fb49d", "name": "858303edec388aeb7f286a42455fb49d", "rental_uris": {"ios": "https://dc.lft.to/lastmile_qr_scan", "android": "https://dc.lft.to/lastmile_qr_scan"}}, {"is_disabled": 0, "fusion_lat": 0.0, "lat": 38.95878783333333, "type": "electric_bike", "lon": -77.01038566666666, "is_reserved": 0, "fusion_lon": 0.0, "bike_id": "bab79266df0c0f7a0dc275a01a248745", "name": "bab79266df0c0f7a0dc275a01a248745", "rental_uris": {"ios": "https://dc.lft.to/lastmile_qr_scan", "android": "https://dc.lft.to/lastmile_qr_scan"}}, {"is_disabled": 0, "fusion_lat": 0.0, "lat": 38.92908533333333, "type": "electric_scooter", "lon": -77.03303866666667, "is_reserved": 0, "fusion_lon": 0.0, "bike_id": "00df99fd52a42cd684d909b35568f7c0", "name": "00df99fd52a42cd684d909b35568f7c0", "rental_uris": {"ios": "https://dc.lft.to/lastmile_qr_scan", "android": "https://dc.lft.to/lastmile_qr_scan"}}, {"is_disabled": 0, "fusion_lat": 0.0, "lat": 38.96172116666666, "type": "electric_bike", "lon": -76.99592183333333, "is_reserved": 0, "fusion_lon": 0.0, "bike_id": "b5e17304fe1175ae547ddd355fbc525f", "name": "b5e17304fe1175ae547ddd355fbc525f", "rental_uris": {"ios": "https://dc.lft.to/lastmile_qr_scan", "android": "https://dc.lft.to/lastmile_qr_scan"}}, {"is_disabled": 0, "fusion_lat": 0.0, "lat": 38.92423333333333, "type": "electric_bike", "lon": -77.045724, "is_reserved": 0, "fusion_lon": 0.0, "bike_id": "bb699f63ab6fd85937b05ba57601df40", "name": "bb699f63ab6fd85937b05ba57601df40", "rental_uris": {"ios": "https://dc.lft.to/lastmile_qr_scan", "android": "https://dc.lft.to/lastmile_qr_scan"}}, {"is_disabled": 0, "fusion_lat": 0.0, "lat": 38.91954466666667, "type": "electric_bike", "lon": -76.9727035, "is_reserved": 0, "fusion_lon": 0.0, "bike_id": "c3e3610a5ac4e955aabaf3d26330b14d", "name": "c3e3610a5ac4e955aabaf3d26330b14d", "rental_uris": {"ios": "https://dc.lft.to/lastmile_qr_scan", "android": "https://dc.lft.to/lastmile_qr_scan"}}, {"is_disabled": 0, "fusion_lat": 0.0, "lat": 38.924726, "type": "electric_scooter", "lon": -77.03912816666667, "is_reserved": 0, "fusion_lon": 0.0, "bike_id": "04586f712938358c182902ce48ebe78a", "name": "04586f712938358c182902ce48ebe78a", "rental_uris": {"ios": "https://dc.lft.to/lastmile_qr_scan", "android": "https://dc.lft.to/lastmile_qr_scan"}}, {"is_disabled": 0, "fusion_lat": 0.0, "lat": 38.860940166666666, "type": "electric_scooter", "lon": -76.98376933333333, "is_reserved": 0, "fusion_lon": 0.0, "bike_id": "8fe10c90d3969d72f888ff817549b133", "name": "8fe10c90d3969d72f888ff817549b133", "rental_uris": {"ios": "https://dc.lft.to/lastmile_qr_scan", "android": "https://dc.lft.to/lastmile_qr_scan"}}, {"is_disabled": 0, "fusion_lat": 0.0, "lat": 38.896256666666666, "type": "electric_scooter", "lon": -77.00923616666667, "is_reserved": 0, "fusion_lon": 0.0, "bike_id": "dfb384ad11cf00eee5afc6ef2896a7c0", "name": "dfb384ad11cf00eee5afc6ef2896a7c0", "rental_uris": {"ios": "https://dc.lft.to/lastmile_qr_scan", "android": "https://dc.lft.to/lastmile_qr_scan"}}, {"is_disabled": 0, "fusion_lat": 0.0, "lat": 38.921091, "type": "electric_scooter", "lon": -77.01824833333333, "is_reserved": 0, "fusion_lon": 0.0, "bike_id": "3f71af8cb37c4ce392bb91c50d74dbd4", "name": "3f71af8cb37c4ce392bb91c50d74dbd4", "rental_uris": {"ios": "https://dc.lft.to/lastmile_qr_scan", "android": "https://dc.lft.to/lastmile_qr_scan"}}, {"is_disabled": 0, "fusion_lat": 0.0, "lat": 38.907421, "type": "electric_scooter", "lon": -77.0427945, "is_reserved": 0, "fusion_lon": 0.0, "bike_id": "29ef3aa03df46d3900abcebfb22e50b0", "name": "29ef3aa03df46d3900abcebfb22e50b0", "rental_uris": {"ios": "https://dc.lft.to/lastmile_qr_scan", "android": "https://dc.lft.to/lastmile_qr_scan"}}, {"is_disabled": 0, "fusion_lat": 0.0, "lat": 38.958766, "type": "electric_bike", "lon": -76.9705175, "is_reserved": 0, "fusion_lon": 0.0, "bike_id": "72b3895c9c1d86d6ae185089ad16b59d", "name": "72b3895c9c1d86d6ae185089ad16b59d", "rental_uris": {"ios": "https://dc.lft.to/lastmile_qr_scan", "android": "https://dc.lft.to/lastmile_qr_scan"}}, {"is_disabled": 0, "fusion_lat": 0.0, "lat": 38.907003833333334, "type": "electric_scooter", "lon": -77.04403016666667, "is_reserved": 0, "fusion_lon": 0.0, "bike_id": "bd46508a8ed35cf1dc41ef06c7551c8b", "name": "bd46508a8ed35cf1dc41ef06c7551c8b", "rental_uris": {"ios": "https://dc.lft.to/lastmile_qr_scan", "android": "https://dc.lft.to/lastmile_qr_scan"}}, {"is_disabled": 0, "fusion_lat": 0.0, "lat": 38.90609583333333, "type": "electric_scooter", "lon": -77.05862266666666, "is_reserved": 0, "fusion_lon": 0.0, "bike_id": "a2b57c1766e347ecc21aae527d2bd6da", "name": "a2b57c1766e347ecc21aae527d2bd6da", "rental_uris": {"ios": "https://dc.lft.to/lastmile_qr_scan", "android": "https://dc.lft.to/lastmile_qr_scan"}}, {"is_disabled": 0, "fusion_lat": 0.0, "lat": 38.917693666666665, "type": "electric_scooter", "lon": -77.04168083333333, "is_reserved": 0, "fusion_lon": 0.0, "bike_id": "4856918ac482337257a84aa63c3303be", "name": "4856918ac482337257a84aa63c3303be", "rental_uris": {"ios": "https://dc.lft.to/lastmile_qr_scan", "android": "https://dc.lft.to/lastmile_qr_scan"}}, {"is_disabled": 0, "fusion_lat": 0.0, "lat": 38.8800295, "type": "electric_bike", "lon": -76.91600166666667, "is_reserved": 0, "fusion_lon": 0.0, "bike_id": "0042bc924cc2a011c919e4b83ff27674", "name": "0042bc924cc2a011c919e4b83ff27674", "rental_uris": {"ios": "https://dc.lft.to/lastmile_qr_scan", "android": "https://dc.lft.to/lastmile_qr_scan"}}, {"is_disabled": 0, "fusion_lat": 0.0, "lat": 38.908953333333336, "type": "electric_scooter", "lon": -77.08625383333333, "is_reserved": 0, "fusion_lon": 0.0, "bike_id": "8ab9323dfa202b09594ccbf5afec2477", "name": "8ab9323dfa202b09594ccbf5afec2477", "rental_uris": {"ios": "https://dc.lft.to/lastmile_qr_scan", "android": "https://dc.lft.to/lastmile_qr_scan"}}, {"is_disabled": 0, "fusion_lat": 0.0, "lat": 38.8921855, "type": "electric_scooter", "lon": -77.032111, "is_reserved": 0, "fusion_lon": 0.0, "bike_id": "cba2c1ffdfe96a3c360a997c809f1acf", "name": "cba2c1ffdfe96a3c360a997c809f1acf", "rental_uris": {"ios": "https://dc.lft.to/lastmile_qr_scan", "android": "https://dc.lft.to/lastmile_qr_scan"}}, {"is_disabled": 0, "fusion_lat": 0.0, "lat": 38.897417, "type": "electric_scooter", "lon": -77.00749016666667, "is_reserved": 0, "fusion_lon": 0.0, "bike_id": "9ecfc6a3c64d3cef4307697cd4ca982c", "name": "9ecfc6a3c64d3cef4307697cd4ca982c", "rental_uris": {"ios": "https://dc.lft.to/lastmile_qr_scan", "android": "https://dc.lft.to/lastmile_qr_scan"}}, {"is_disabled": 0, "fusion_lat": 0.0, "lat": 38.917443166666665, "type": "electric_scooter", "lon": -77.01097683333333, "is_reserved": 0, "fusion_lon": 0.0, "bike_id": "916584b1081e1fcc82e13f5a39b11ab0", "name": "916584b1081e1fcc82e13f5a39b11ab0", "rental_uris": {"ios": "https://dc.lft.to/lastmile_qr_scan", "android": "https://dc.lft.to/lastmile_qr_scan"}}, {"is_disabled": 0, "fusion_lat": 0.0, "lat": 38.914446, "type": "electric_scooter", "lon": -77.03845766666667, "is_reserved": 0, "fusion_lon": 0.0, "bike_id": "52f50a5f7be0813b55f98870155a34a2", "name": "52f50a5f7be0813b55f98870155a34a2", "rental_uris": {"ios": "https://dc.lft.to/lastmile_qr_scan", "android": "https://dc.lft.to/lastmile_qr_scan"}}, {"is_disabled": 0, "fusion_lat": 0.0, "lat": 38.88421916666667, "type": "electric_bike", "lon": -76.98083883333334, "is_reserved": 0, "fusion_lon": 0.0, "bike_id": "0d2dfc9aa3130bc79bb2246cb78c92a9", "name": "0d2dfc9aa3130bc79bb2246cb78c92a9", "rental_uris": {"ios": "https://dc.lft.to/lastmile_qr_scan", "android": "https://dc.lft.to/lastmile_qr_scan"}}, {"is_disabled": 0, "fusion_lat": 0.0, "lat": 38.935363833333334, "type": "electric_scooter", "lon": -77.02349033333333, "is_reserved": 0, "fusion_lon": 0.0, "bike_id": "c38ded6ba5fc75f123fff698b27f463d", "name": "c38ded6ba5fc75f123fff698b27f463d", "rental_uris": {"ios": "https://dc.lft.to/lastmile_qr_scan", "android": "https://dc.lft.to/lastmile_qr_scan"}}, {"is_disabled": 0, "fusion_lat": 0.0, "lat": 38.937606833333334, "type": "electric_scooter", "lon": -77.02117883333334, "is_reserved": 0, "fusion_lon": 0.0, "bike_id": "8e2a8789497a6f51d1d75e01277f49c8", "name": "8e2a8789497a6f51d1d75e01277f49c8", "rental_uris": {"ios": "https://dc.lft.to/lastmile_qr_scan", "android": "https://dc.lft.to/lastmile_qr_scan"}}, {"is_disabled": 0, "fusion_lat": 0.0, "lat": 38.91952, "type": "electric_scooter", "lon": -77.0321025, "is_reserved": 0, "fusion_lon": 0.0, "bike_id": "f39385eb9e91474dad17945e79b21fd2", "name": "f39385eb9e91474dad17945e79b21fd2", "rental_uris": {"ios": "https://dc.lft.to/lastmile_qr_scan", "android": "https://dc.lft.to/lastmile_qr_scan"}}, {"is_disabled": 0, "fusion_lat": 0.0, "lat": 38.90801533333333, "type": "electric_scooter", "lon": -77.04499166666666, "is_reserved": 0, "fusion_lon": 0.0, "bike_id": "f563042b8dc80a5abe06e755c911814a", "name": "f563042b8dc80a5abe06e755c911814a", "rental_uris": {"ios": "https://dc.lft.to/lastmile_qr_scan", "android": "https://dc.lft.to/lastmile_qr_scan"}}, {"is_disabled": 0, "fusion_lat": 0.0, "lat": 38.9263915, "type": "electric_scooter", "lon": -77.01340966666666, "is_reserved": 0, "fusion_lon": 0.0, "bike_id": "fab37ca2fcedc42182b695750c30cd2e", "name": "fab37ca2fcedc42182b695750c30cd2e", "rental_uris": {"ios": "https://dc.lft.to/lastmile_qr_scan", "android": "https://dc.lft.to/lastmile_qr_scan"}}, {"is_disabled": 0, "fusion_lat": 0.0, "lat": 38.95268083333333, "type": "electric_bike", "lon": -77.069823, "is_reserved": 0, "fusion_lon": 0.0, "bike_id": "e1d09b103bfaf3479590a34decb50ecf", "name": "e1d09b103bfaf3479590a34decb50ecf", "rental_uris": {"ios": "https://dc.lft.to/lastmile_qr_scan", "android": "https://dc.lft.to/lastmile_qr_scan"}}, {"is_disabled": 0, "fusion_lat": 0.0, "lat": 38.926033833333335, "type": "electric_scooter", "lon": -77.0569165, "is_reserved": 0, "fusion_lon": 0.0, "bike_id": "84a090cd19e7fa985caa17f9fdf2b9c2", "name": "84a090cd19e7fa985caa17f9fdf2b9c2", "rental_uris": {"ios": "https://dc.lft.to/lastmile_qr_scan", "android": "https://dc.lft.to/lastmile_qr_scan"}}, {"is_disabled": 0, "fusion_lat": 0.0, "lat": 38.899006, "type": "electric_scooter", "lon": -77.00725483333333, "is_reserved": 0, "fusion_lon": 0.0, "bike_id": "9d771311286516b6ba4f21b87c4f0054", "name": "9d771311286516b6ba4f21b87c4f0054", "rental_uris": {"ios": "https://dc.lft.to/lastmile_qr_scan", "android": "https://dc.lft.to/lastmile_qr_scan"}}, {"is_disabled": 0, "fusion_lat": 0.0, "lat": 38.82083733333333, "type": "electric_bike", "lon": -77.0536625, "is_reserved": 0, "fusion_lon": 0.0, "bike_id": "6c0f120a96572c9b64e61dd6df70e43b", "name": "6c0f120a96572c9b64e61dd6df70e43b", "rental_uris": {"ios": "https://dc.lft.to/lastmile_qr_scan", "android": "https://dc.lft.to/lastmile_qr_scan"}}, {"is_disabled": 0, "fusion_lat": 0.0, "lat": 38.918216, "type": "electric_scooter", "lon": -77.03526, "is_reserved": 0, "fusion_lon": 0.0, "bike_id": "66a42b88ae9b22981738445b8843238d", "name": "66a42b88ae9b22981738445b8843238d", "rental_uris": {"ios": "https://dc.lft.to/lastmile_qr_scan", "android": "https://dc.lft.to/lastmile_qr_scan"}}, {"is_disabled": 0, "fusion_lat": 0.0, "lat": 38.923245666666666, "type": "electric_scooter", "lon": -77.038953, "is_reserved": 0, "fusion_lon": 0.0, "bike_id": "05cbbee98aec99660fd166c09c84728d", "name": "05cbbee98aec99660fd166c09c84728d", "rental_uris": {"ios": "https://dc.lft.to/lastmile_qr_scan", "android": "https://dc.lft.to/lastmile_qr_scan"}}, {"is_disabled": 0, "fusion_lat": 0.0, "lat": 38.9508415, "type": "electric_scooter", "lon": -77.02832466666666, "is_reserved": 0, "fusion_lon": 0.0, "bike_id": "59cd05898eda5d186ef8ced4801771be", "name": "59cd05898eda5d186ef8ced4801771be", "rental_uris": {"ios": "https://dc.lft.to/lastmile_qr_scan", "android": "https://dc.lft.to/lastmile_qr_scan"}}, {"is_disabled": 0, "fusion_lat": 0.0, "lat": 38.90972166666667, "type": "electric_scooter", "lon": -77.03870483333333, "is_reserved": 0, "fusion_lon": 0.0, "bike_id": "3f1325180fe00d9eb91522088c1174fa", "name": "3f1325180fe00d9eb91522088c1174fa", "rental_uris": {"ios": "https://dc.lft.to/lastmile_qr_scan", "android": "https://dc.lft.to/lastmile_qr_scan"}}, {"is_disabled": 0, "fusion_lat": 0.0, "lat": 38.940882333333334, "type": "electric_scooter", "lon": -77.02722, "is_reserved": 0, "fusion_lon": 0.0, "bike_id": "a5db8210f03dfb927f76da93b8a0739d", "name": "a5db8210f03dfb927f76da93b8a0739d", "rental_uris": {"ios": "https://dc.lft.to/lastmile_qr_scan", "android": "https://dc.lft.to/lastmile_qr_scan"}}, {"is_disabled": 0, "fusion_lat": 0.0, "lat": 38.91961583333333, "type": "electric_scooter", "lon": -77.03211866666666, "is_reserved": 0, "fusion_lon": 0.0, "bike_id": "a8e2dd7afc1a186743801720b87e1cb2", "name": "a8e2dd7afc1a186743801720b87e1cb2", "rental_uris": {"ios": "https://dc.lft.to/lastmile_qr_scan", "android": "https://dc.lft.to/lastmile_qr_scan"}}, {"is_disabled": 0, "fusion_lat": 0.0, "lat": 38.906661166666666, "type": "electric_scooter", "lon": -77.0271265, "is_reserved": 0, "fusion_lon": 0.0, "bike_id": "2ad9c490fd31ce13237f2e175da1da8b", "name": "2ad9c490fd31ce13237f2e175da1da8b", "rental_uris": {"ios": "https://dc.lft.to/lastmile_qr_scan", "android": "https://dc.lft.to/lastmile_qr_scan"}}, {"is_disabled": 0, "fusion_lat": 0.0, "lat": 38.919230166666665, "type": "electric_scooter", "lon": -77.034164, "is_reserved": 0, "fusion_lon": 0.0, "bike_id": "7f9325adbd9338896c59d9eb2e7a53b8", "name": "7f9325adbd9338896c59d9eb2e7a53b8", "rental_uris": {"ios": "https://dc.lft.to/lastmile_qr_scan", "android": "https://dc.lft.to/lastmile_qr_scan"}}, {"is_disabled": 0, "fusion_lat": 0.0, "lat": 38.83982816666666, "type": "electric_bike", "lon": -77.00574533333334, "is_reserved": 0, "fusion_lon": 0.0, "bike_id": "f53fee951a7d27670f69c58fbb5584be", "name": "f53fee951a7d27670f69c58fbb5584be", "rental_uris": {"ios": "https://dc.lft.to/lastmile_qr_scan", "android": "https://dc.lft.to/lastmile_qr_scan"}}, {"is_disabled": 0, "fusion_lat": 0.0, "lat": 38.8813105, "type": "electric_bike", "lon": -76.98095183333334, "is_reserved": 0, "fusion_lon": 0.0, "bike_id": "528a4b26087a895edd150702536ce501", "name": "528a4b26087a895edd150702536ce501", "rental_uris": {"ios": "https://dc.lft.to/lastmile_qr_scan", "android": "https://dc.lft.to/lastmile_qr_scan"}}, {"is_disabled": 0, "fusion_lat": 0.0, "lat": 38.898982, "type": "electric_scooter", "lon": -76.9330775, "is_reserved": 0, "fusion_lon": 0.0, "bike_id": "30fcae42786144ae976c76a5e741fd8d", "name": "30fcae42786144ae976c76a5e741fd8d", "rental_uris": {"ios": "https://dc.lft.to/lastmile_qr_scan", "android": "https://dc.lft.to/lastmile_qr_scan"}}, {"is_disabled": 0, "fusion_lat": 0.0, "lat": 38.9156665, "type": "electric_scooter", "lon": -77.01200316666667, "is_reserved": 0, "fusion_lon": 0.0, "bike_id": "3b3b32b22e8ad3dc14cf84279581f07e", "name": "3b3b32b22e8ad3dc14cf84279581f07e", "rental_uris": {"ios": "https://dc.lft.to/lastmile_qr_scan", "android": "https://dc.lft.to/lastmile_qr_scan"}}, {"is_disabled": 0, "fusion_lat": 0.0, "lat": 38.919750666666665, "type": "electric_scooter", "lon": -77.04177133333333, "is_reserved": 0, "fusion_lon": 0.0, "bike_id": "6501b63e73d8181ed25ec9fc8f2330ef", "name": "6501b63e73d8181ed25ec9fc8f2330ef", "rental_uris": {"ios": "https://dc.lft.to/lastmile_qr_scan", "android": "https://dc.lft.to/lastmile_qr_scan"}},