{"data": {"bikes": [{"lat": 38.923732, "is_disabled": 0, "lon": -77.019148, "is_reserved": 0, "fusion_lon": 0.0, "fusion_lat": 0.0, "name": "37cd1b8fd6cb880c788f19e0a3f09ebd", "type": "electric_scooter", "rental_uris": {"ios": "https://dc.lft.to/lastmile_qr_scan", "android": "https://dc.lft.to/lastmile_qr_scan"}, "bike_id": "37cd1b8fd6cb880c788f19e0a3f09ebd"}, {"lat": 38.901827, "is_disabled": 0, "lon": -77.02407316666667, "is_reserved": 0, "fusion_lon": 0.0, "fusion_lat": 0.0, "name": "58640b3dca69d0c4ce2c2e593ea6c622", "type": "electric_scooter", "rental_uris": {"ios": "https://dc.lft.to/lastmile_qr_scan", "android": "https://dc.lft.to/lastmile_qr_scan"}, "bike_id": "58640b3dca69d0c4ce2c2e593ea6c622"}, {"lat": 38.8974325, "is_disabled": 0, "lon": -77.02159983333334, "is_reserved": 0, "fusion_lon": 0.0, "fusion_lat": 0.0, "name": "1ce02ed265aa8f0b7a26b1e8bcb82df4", "type": "electric_scooter", "rental_uris": {"ios": "https://dc.lft.to/lastmile_qr_scan", "android": "https://dc.lft.to/lastmile_qr_scan"}, "bike_id": "1ce02ed265aa8f0b7a26b1e8bcb82df4"}, {"lat": 38.922990666666664, "is_disabled": 0, "lon": -76.99384766666667, "is_reserved": 0, "fusion_lon": 0.0, "fusion_lat": 0.0, "name": "956c8e6776d8048698f03e9bbef38699", "type": "electric_scooter", "rental_uris": {"ios": "https://dc.lft.to/lastmile_qr_scan", "android": "https://dc.lft.to/lastmile_qr_scan"}, "bike_id": "956c8e6776d8048698f03e9bbef38699"}, {"lat": 38.83068183333334, "is_disabled": 0, "lon": -77.0408265, "is_reserved": 0, "fusion_lon": 0.0, "fusion_lat": 0.0, "name": "33ac9f4ef921c48c3a2cb40f870c254f", "type": "electric_bike", "rental_uris": {"ios": "https://dc.lft.to/lastmile_qr_scan", "android": "https://dc.lft.to/lastmile_qr_scan"}, "bike_id": "33ac9f4ef921c48c3a2cb40f870c254f"}, {"lat": 38.90263683333333, "is_disabled": 0, "lon": -77.03452616666667, "is_reserved": 0, "fusion_lon": 0.0, "fusion_lat": 0.0, "name": "f660e9961fd8b95fb2e0e85199aeb2a4", "type": "electric_scooter", "rental_uris": {"ios": "https://dc.lft.to/lastmile_qr_scan", "android": "https://dc.lft.to/lastmile_qr_scan"}, "bike_id": "f660e9961fd8b95fb2e0e85199aeb2a4"}, {"lat": 38.90176316666667, "is_disabled": 0, "lon": -77.02490833333333, "is_reserved": 0, "fusion_lon": 0.0, "fusion_lat": 0.0, "name": "b4cef878e90a32df8e23283482b1317a", "type": "electric_scooter", "rental_uris": {"ios": "https://dc.lft.to/lastmile_qr_scan", "android": "https://dc.lft.to/lastmile_qr_scan"}, "bike_id": "b4cef878e90a32df8e23283482b1317a"}, {"lat": 38.891996666666664, "is_disabled": 0, "lon": -77.02553933333333, "is_reserved": 0, "fusion_lon": 0.0, "fusion_lat": 0.0, "name": "9b0ee14ab1c8df3875a54269f73afb71", "type": "electric_scooter", "rental_uris": {"ios": "https://dc.lft.to/lastmile_qr_scan", "android": "https://dc.lft.to/lastmile_qr_scan"}, "bike_id": "9b0ee14ab1c8df3875a54269f73afb71"}, {"lat": 38.903731666666665, "is_disabled": 0, "lon": -76.98719433333333, "is_reserved": 0, "fusion_lon": 0.0, "fusion_lat": 0.0, "name": "6fcd54dec411b19ec7dd30f22c377ba7", "type": "electric_scooter", "rental_uris": {"ios": "https://dc.lft.to/lastmile_qr_scan", "android": "https://dc.lft.to/lastmile_qr_scan"}, "bike_id": "6fcd54dec411b19ec7dd30f22c377ba7"}, {"lat": 38.89729483333333, "is_disabled": 0, "lon": -77.04881783333333, "is_reserved": 0, "fusion_lon": 0.0, "fusion_lat": 0.0, "name": "ce683a86902b379004c47b8df7ca9707", "type": "electric_scooter", "rental_uris": {"ios": "https://dc.lft.to/lastmile_qr_scan", "android": "https://dc.lft.to/lastmile_qr_scan"}, "bike_id": "ce683a86902b379004c47b8df7ca9707"}, {"lat": 38.9259625, "is_disabled": 0, "lon": -77.03741416666666, "is_reserved": 0, "fusion_lon": 0.0, "fusion_lat": 0.0, "name": "7b3ca01a9c42a1521629861134685a69", "type": "electric_scooter", "rental_uris": {"ios": "https://dc.lft.to/lastmile_qr_scan", "android": "https://dc.lft.to/lastmile_qr_scan"}, "bike_id": "7b3ca01a9c42a1521629861134685a69"}, {"lat": 38.89812933333333, "is_disabled": 0, "lon": -77.04361733333333, "is_reserved": 0, "fusion_lon": 0.0, "fusion_lat": 0.0, "name": "dd45a387dd1442006e7408e64bb5c117", "type": "electric_scooter", "rental_uris": {"ios": "https://dc.lft.to/lastmile_qr_scan", "android": "https://dc.lft.to/lastmile_qr_scan"}, "bike_id": "dd45a387dd1442006e7408e64bb5c117"}, {"lat": 38.896167, "is_disabled": 0, "lon": -77.0297085, "is_reserved": 0, "fusion_lon": 0.0, "fusion_lat": 0.0, "name": "8baa9ee6d66ac75bedb20a1cb5db3861", "type": "electric_scooter", "rental_uris": {"ios": "https://dc.lft.to/lastmile_qr_scan", "android": "https://dc.lft.to/lastmile_qr_scan"}, "bike_id": "8baa9ee6d66ac75bedb20a1cb5db3861"}, {"lat": 38.916624666666664, "is_disabled": 0, "lon": -77.0438345, "is_reserved": 0, "fusion_lon": 0.0, "fusion_lat": 0.0, "name": "929dbf2cfa8593bbf199a068dd2fbe88", "type": "electric_scooter", "rental_uris": {"ios": "https://dc.lft.to/lastmile_qr_scan", "android": "https://dc.lft.to/lastmile_qr_scan"}, "bike_id": "929dbf2cfa8593bbf199a068dd2fbe88"}, {"lat": 38.8873085, "is_disabled": 0, "lon": -77.025803, "is_reserved": 0, "fusion_lon": 0.0, "fusion_lat": 0.0, "name": "5b9480a7757088eef71d04b285306d3e", "type": "electric_scooter", "rental_uris": {"ios": "https://dc.lft.to/lastmile_qr_scan", "android": "https://dc.lft.to/lastmile_qr_scan"}, "bike_id": "5b9480a7757088eef71d04b285306d3e"}, {"lat": 38.90195416666667, "is_disabled": 0, "lon": -77.021687, "is_reserved": 0, "fusion_lon": 0.0, "fusion_lat": 0.0, "name": "0a698feb3068bc115a9f0b4ed1cdfeb3", "type": "electric_scooter", "rental_uris": {"ios": "https://dc.lft.to/lastmile_qr_scan", "android": "https://dc.lft.to/lastmile_qr_scan"}, "bike_id": "0a698feb3068bc115a9f0b4ed1cdfeb3"}, {"lat": 38.918935833333336, "is_disabled": 0, "lon": -77.031326, "is_reserved": 0, "fusion_lon": 0.0, "fusion_lat": 0.0, "name": "f50e658a138b2ddbb4474b0e2c23a791", "type": "electric_scooter", "rental_uris": {"ios": "https://dc.lft.to/lastmile_qr_scan", "android": "https://dc.lft.to/lastmile_qr_scan"}, "bike_id": "f50e658a138b2ddbb4474b0e2c23a791"}, {"lat": 38.92366416666667, "is_disabled": 0, "lon": -77.05044416666667, "is_reserved": 0, "fusion_lon": 0.0, "fusion_lat": 0.0, "name": "a6ba46ef055fca4796a8e544a5364faa", "type": "electric_scooter", "rental_uris": {"ios": "https://dc.lft.to/lastmile_qr_scan", "android": "https://dc.lft.to/lastmile_qr_scan"}, "bike_id": "a6ba46ef055fca4796a8e544a5364faa"}, {"lat": 38.900488333333335, "is_disabled": 0, "lon": -77.01778966666667, "is_reserved": 0, "fusion_lon": 0.0, "fusion_lat": 0.0, "name": "884eaf436db29b8af735949dac5baf48", "type": "electric_scooter", "rental_uris": {"ios": "https://dc.lft.to/lastmile_qr_scan", "android": "https://dc.lft.to/lastmile_qr_scan"}, "bike_id": "884eaf436db29b8af735949dac5baf48"}, {"lat": 38.88494466666667, "is_disabled": 0, "lon": -76.9960865, "is_reserved": 0, "fusion_lon": 0.0, "fusion_lat": 0.0, "name": "8b8df3a78f38e529b6279bddd9e96e93", "type": "electric_scooter", "rental_uris": {"ios": "https://dc.lft.to/lastmile_qr_scan", "android": "https://dc.lft.to/lastmile_qr_scan"}, "bike_id": "8b8df3a78f38e529b6279bddd9e96e93"}, {"lat": 38.95615083333333, "is_disabled": 0, "lon": -77.02762016666667, "is_reserved": 0, "fusion_lon": 0.0, "fusion_lat": 0.0, "name": "74ce5da75fb7ff49b714d0cfe1e96ea7", "type": "electric_scooter", "rental_uris": {"ios": "https://dc.lft.to/lastmile_qr_scan", "android": "https://dc.lft.to/lastmile_qr_scan"}, "bike_id": "74ce5da75fb7ff49b714d0cfe1e96ea7"}, {"lat": 38.90276166666666, "is_disabled": 0, "lon": -77.02097233333333, "is_reserved": 0, "fusion_lon": 0.0, "fusion_lat": 0.0, "name": "a9c15e3f1b7514fdeedcf2b92cf7a223", "type": "electric_scooter", "rental_uris": {"ios": "https://dc.lft.to/lastmile_qr_scan", "android": "https://dc.lft.to/lastmile_qr_scan"}, "bike_id": "a9c15e3f1b7514fdeedcf2b92cf7a223"}, {"lat": 38.90907266666667, "is_disabled": 0, "lon": -77.04379666666667, "is_reserved": 0, "fusion_lon": 0.0, "fusion_lat": 0.0, "name": "cde0b4a100b392ff781ece648cc26dde", "type": "electric_scooter", "rental_uris": {"ios": "https://dc.lft.to/lastmile_qr_scan", "android": "https://dc.lft.to/lastmile_qr_scan"}, "bike_id": "cde0b4a100b392ff781ece648cc26dde"}, {"lat": 38.87291283333333, "is_disabled": 0, "lon": -77.017051, "is_reserved": 0, "fusion_lon": 0.0, "fusion_lat": 0.0, "name": "33ec19c2f4cda78a460bd5d3a28b66d4", "type": "electric_scooter", "rental_uris": {"ios": "https://dc.lft.to/lastmile_qr_scan", "android": "https://dc.lft.to/lastmile_qr_scan"}, "bike_id": "33ec19c2f4cda78a460bd5d3a28b66d4"}, {"lat": 38.885987, "is_disabled": 0, "lon": -76.9251335, "is_reserved": 0, "fusion_lon": 0.0, "fusion_lat": 0.0, "name": "52fd0f5058ff6bf1154abb202e29e3b4", "type": "electric_scooter", "rental_uris": {"ios": "https://dc.lft.to/lastmile_qr_scan", "android": "https://dc.lft.to/lastmile_qr_scan"}, "bike_id": "52fd0f5058ff6bf1154abb202e29e3b4"}, {"lat": 38.92478, "is_disabled": 0, "lon": -77.02691483333334, "is_reserved": 0, "fusion_lon": 0.0, "fusion_lat": 0.0, "name": "4896d3aed009eeb5304569bdbf4ed6a5", "type": "electric_scooter", "rental_uris": {"ios": "https://dc.lft.to/lastmile_qr_scan", "android": "https://dc.lft.to/lastmile_qr_scan"}, "bike_id": "4896d3aed009eeb5304569bdbf4ed6a5"}, {"lat": 38.9161385, "is_disabled": 0, "lon": -77.04166616666667, "is_reserved": 0, "fusion_lon": 0.0, "fusion_lat": 0.0, "name": "70962aa40ea2b5297d6dc64a932b00b9", "type": "electric_scooter", "rental_uris": {"ios": "https://dc.lft.to/lastmile_qr_scan", "android": "https://dc.lft.to/lastmile_qr_scan"}, "bike_id": "70962aa40ea2b5297d6dc64a932b00b9"}, {"lat": 38.87899633333333, "is_disabled": 0, "lon": -77.00804583333333, "is_reserved": 0, "fusion_lon": 0.0, "fusion_lat": 0.0, "name": "2f0c830358a046c16dde2c082ce348a5", "type": "electric_scooter", "rental_uris": {"ios": "https://dc.lft.to/lastmile_qr_scan", "android": "https://dc.lft.to/lastmile_qr_scan"}, "bike_id": "2f0c830358a046c16dde2c082ce348a5"}, {"lat": 38.93274383333333, "is_disabled": 0, "lon": -77.02087733333333, "is_reserved": 0, "fusion_lon": 0.0, "fusion_lat": 0.0, "name": "adf785d13572de7faa6667e6649921d4", "type": "electric_scooter", "rental_uris": {"ios": "https://dc.lft.to/lastmile_qr_scan", "android": "https://dc.lft.to/lastmile_qr_scan"}, "bike_id": "adf785d13572de7faa6667e6649921d4"}, {"lat": 38.934631833333334, "is_disabled": 0, "lon": -76.98874133333334, "is_reserved": 0, "fusion_lon": 0.0, "fusion_lat": 0.0, "name": "10038373bf6ce3b8907ba24987469027", "type": "electric_scooter", "rental_uris": {"ios": "https://dc.lft.to/lastmile_qr_scan", "android": "https://dc.lft.to/lastmile_qr_scan"}, "bike_id": "10038373bf6ce3b8907ba24987469027"}, {"lat": 38.92120883333333, "is_disabled": 0, "lon": -77.0121425, "is_reserved": 0, "fusion_lon": 0.0, "fusion_lat": 0.0, "name": "212c50e2eca2bcdda368fb7881600fff", "type": "electric_scooter", "rental_uris": {"ios": "https://dc.lft.to/lastmile_qr_scan", "android": "https://dc.lft.to/lastmile_qr_scan"}, "bike_id": "212c50e2eca2bcdda368fb7881600fff"}, {"lat": 38.90575533333333, "is_disabled": 0, "lon": -77.04234916666667, "is_reserved": 0, "fusion_lon": 0.0, "fusion_lat": 0.0, "name": "8bfabcb1cf2b103509d8e0226eec3b25", "type": "electric_scooter", "rental_uris": {"ios": "https://dc.lft.to/lastmile_qr_scan", "android": "https://dc.lft.to/lastmile_qr_scan"}, "bike_id": "8bfabcb1cf2b103509d8e0226eec3b25"}, {"lat": 38.906572833333335, "is_disabled": 0, "lon": -77.0219465, "is_reserved": 0, "fusion_lon": 0.0, "fusion_lat": 0.0, "name": "7a4b04c3f0334bf5d77c6c29abf684ce", "type": "electric_scooter", "rental_uris": {"ios": "https://dc.lft.to/lastmile_qr_scan", "android": "https://dc.lft.to/lastmile_qr_scan"}, "bike_id": "7a4b04c3f0334bf5d77c6c29abf684ce"}, {"lat": 38.9085365, "is_disabled": 0, "lon": -76.9997985, "is_reserved": 0, "fusion_lon": 0.0, "fusion_lat": 0.0, "name": "44752bda6d7d1e38ed39217b3d8122cf", "type": "electric_scooter", "rental_uris": {"ios": "https://dc.lft.to/lastmile_qr_scan", "android": "https://dc.lft.to/lastmile_qr_scan"}, "bike_id": "44752bda6d7d1e38ed39217b3d8122cf"}, {"lat": 38.90145116666667, "is_disabled": 0, "lon": -77.03991833333333, "is_reserved": 0, "fusion_lon": 0.0, "fusion_lat": 0.0, "name": "d82c1a34dcb99e07f0212b03e6e9e362", "type": "electric_scooter", "rental_uris": {"ios": "https://dc.lft.to/lastmile_qr_scan", "android": "https://dc.lft.to/lastmile_qr_scan"}, "bike_id": "d82c1a34dcb99e07f0212b03e6e9e362"}, {"lat": 38.881101, "is_disabled": 0, "lon": -77.02655866666667, "is_reserved": 0, "fusion_lon": 0.0, "fusion_lat": 0.0, "name": "cbc07791a810de539749f54a2454fae5", "type": "electric_scooter", "rental_uris": {"ios": "https://dc.lft.to/lastmile_qr_scan", "android": "https://dc.lft.to/lastmile_qr_scan"}, "bike_id": "cbc07791a810de539749f54a2454fae5"}, {"lat": 38.89624333333333, "is_disabled": 0, "lon": -77.02237983333333, "is_reserved": 0, "fusion_lon": 0.0, "fusion_lat": 0.0, "name": "6f36370903ebb0cb34e096534fac499e", "type": "electric_scooter", "rental_uris": {"ios": "https://dc.lft.to/lastmile_qr_scan", "android": "https://dc.lft.to/lastmile_qr_scan"}, "bike_id": "6f36370903ebb0cb34e096534fac499e"}, {"lat": 38.902578166666665, "is_disabled": 0, "lon": -77.02809216666667, "is_reserved": 0, "fusion_lon": 0.0, "fusion_lat": 0.0, "name": "3f00a13dca01dbac83f1a1c29d8658b0", "type": "electric_scooter", "rental_uris": {"ios": "https://dc.lft.to/lastmile_qr_scan", "android": "https://dc.lft.to/lastmile_qr_scan"}, "bike_id": "3f00a13dca01dbac83f1a1c29d8658b0"}, {"lat": 38.892442, "is_disabled": 0, "lon": -76.92367716666666, "is_reserved": 0, "fusion_lon": 0.0, "fusion_lat": 0.0, "name": "18e1274bc4c420e839b2bd4de3fc99fe", "type": "electric_scooter", "rental_uris": {"ios": "https://dc.lft.to/lastmile_qr_scan", "android": "https://dc.lft.to/lastmile_qr_scan"}, "bike_id": "18e1274bc4c420e839b2bd4de3fc99fe"}, {"lat": 38.91419366666667, "is_disabled": 0, "lon": -77.04600116666667, "is_reserved": 0, "fusion_lon": 0.0, "fusion_lat": 0.0, "name": "70759f4245fad51f5c55f6eb2fde5f97", "type": "electric_scooter", "rental_uris": {"ios": "https://dc.lft.to/lastmile_qr_scan", "android": "https://dc.lft.to/lastmile_qr_scan"}, "bike_id": "70759f4245fad51f5c55f6eb2fde5f97"}, {"lat": 38.9181495, "is_disabled": 0, "lon": -77.0247725, "is_reserved": 0, "fusion_lon": 0.0, "fusion_lat": 0.0, "name": "25daf4f09cc67c743843ac3f4ff623df", "type": "electric_scooter", "rental_uris": {"ios": "https://dc.lft.to/lastmile_qr_scan", "android": "https://dc.lft.to/lastmile_qr_scan"}, "bike_id": "25daf4f09cc67c743843ac3f4ff623df"}, {"lat": 38.9002275, "is_disabled": 0, "lon": -76.9879935, "is_reserved": 0, "fusion_lon": 0.0, "fusion_lat": 0.0, "name": "f35e71073292f7c92a0e39663f3670fa", "type": "electric_scooter", "rental_uris": {"ios": "https://dc.lft.to/lastmile_qr_scan", "android": "https://dc.lft.to/lastmile_qr_scan"}, "bike_id": "f35e71073292f7c92a0e39663f3670fa"}, {"lat": 38.90535066666666, "is_disabled": 0, "lon": -77.04814683333333, "is_reserved": 0, "fusion_lon": 0.0, "fusion_lat": 0.0, "name": "59d0cb9499b4066407cb10b9393c875e", "type": "electric_scooter", "rental_uris": {"ios": "https://dc.lft.to/lastmile_qr_scan", "android": "https://dc.lft.to/lastmile_qr_scan"}, "bike_id": "59d0cb9499b4066407cb10b9393c875e"}, {"lat": 38.92255566666667, "is_disabled": 0, "lon": -77.01949033333334, "is_reserved": 0, "fusion_lon": 0.0, "fusion_lat": 0.0, "name": "81753486b1d045181f1d6c728a71afd3", "type": "electric_scooter", "rental_uris": {"ios": "https://dc.lft.to/lastmile_qr_scan", "android": "https://dc.lft.to/lastmile_qr_scan"}, "bike_id": "81753486b1d045181f1d6c728a71afd3"}, {"lat": 38.904101833333335, "is_disabled": 0, "lon": -77.0465555, "is_reserved": 0, "fusion_lon": 0.0, "fusion_lat": 0.0, "name": "2aea3907499ed441507f91b6b7390ab7", "type": "electric_scooter", "rental_uris": {"ios": "https://dc.lft.to/lastmile_qr_scan", "android": "https://dc.lft.to/lastmile_qr_scan"}, "bike_id": "2aea3907499ed441507f91b6b7390ab7"}, {"lat": 38.9192615, "is_disabled": 0, "lon": -77.03178033333333, "is_reserved": 0, "fusion_lon": 0.0, "fusion_lat": 0.0, "name": "92579a32caf5ea0d8b47a92ee1659f80", "type": "electric_scooter", "rental_uris": {"ios": "https://dc.lft.to/lastmile_qr_scan", "android": "https://dc.lft.to/lastmile_qr_scan"}, "bike_id": "92579a32caf5ea0d8b47a92ee1659f80"}, {"lat": 38.8506435, "is_disabled": 0, "lon": -76.958285, "is_reserved": 0, "fusion_lon": 0.0, "fusion_lat": 0.0, "name": "ea8c60a11bcb9287b7d4ed0550a22041", "type": "electric_bike", "rental_uris": {"ios": "https://dc.lft.to/lastmile_qr_scan", "android": "https://dc.lft.to/lastmile_qr_scan"}, "bike_id": "ea8c60a11bcb9287b7d4ed0550a22041"}, {"lat": 38.876152166666664, "is_disabled": 0, "lon": -77.02079333333333, "is_reserved": 0, "fusion_lon": 0.0, "fusion_lat": 0.0, "name": "7e1bab5dce06d1e347224fa292a8448d", "type": "electric_scooter", "rental_uris": {"ios": "https://dc.lft.to/lastmile_qr_scan", "android": "https://dc.lft.to/lastmile_qr_scan"}, "bike_id": "7e1bab5dce06d1e347224fa292a8448d"}, {"lat": 38.8789475, "is_disabled": 0, "lon": -77.01389133333333, "is_reserved": 0, "fusion_lon": 0.0, "fusion_lat": 0.0, "name": "8756b2b01717dc766c3f2974d7063f74", "type": "electric_scooter", "rental_uris": {"ios": "https://dc.lft.to/lastmile_qr_scan", "android": "https://dc.lft.to/lastmile_qr_scan"}, "bike_id": "8756b2b01717dc766c3f2974d7063f74"}, {"lat": 38.88431533333333, "is_disabled": 0, "lon": -77.00139666666666, "is_reserved": 0, "fusion_lon": 0.0, "fusion_lat": 0.0, "name": "d0cfeb353d38271773023376971ffdd4", "type": "electric_scooter", "rental_uris": {"ios": "https://dc.lft.to/lastmile_qr_scan", "android": "https://dc.lft.to/lastmile_qr_scan"}, "bike_id": "d0cfeb353d38271773023376971ffdd4"}, {"lat": 38.89735683333333, "is_disabled": 0, "lon": -77.03380983333334, "is_reserved": 0, "fusion_lon": 0.0, "fusion_lat": 0.0, "name": "cbe1e166d403ba4933562973b048edee", "type": "electric_scooter", "rental_uris": {"ios": "https://dc.lft.to/lastmile_qr_scan", "android": "https://dc.lft.to/lastmile_qr_scan"}, "bike_id": "cbe1e166d403ba4933562973b048edee"}, {"lat": 38.88375883333333, "is_disabled": 0, "lon": -76.99517033333333, "is_reserved": 0, "fusion_lon": 0.0, "fusion_lat": 0.0, "name": "1df3ce2b41f24fca6fff7a2930365432", "type": "electric_scooter", "rental_uris": {"ios": "https://dc.lft.to/lastmile_qr_scan", "android": "https://dc.lft.to/lastmile_qr_scan"}, "bike_id": "1df3ce2b41f24fca6fff7a2930365432"}, {"lat": 38.91009916666667, "is_disabled": 0, "lon": -77.04009683333334, "is_reserved": 0, "fusion_lon": 0.0, "fusion_lat": 0.0, "name": "aa9fd6cc159ba25f45db589da7954c57", "type": "electric_scooter", "rental_uris": {"ios": "https://dc.lft.to/lastmile_qr_scan", "android": "https://dc.lft.to/lastmile_qr_scan"}, "bike_id": "aa9fd6cc159ba25f45db589da7954c57"}, {"lat": 38.905135666666666, "is_disabled": 0, "lon": -77.0434405, "is_reserved": 0, "fusion_lon": 0.0, "fusion_lat": 0.0, "name": "2ff0038f7fef80801c673fb5e46fa12d", "type": "electric_scooter", "rental_uris": {"ios": "https://dc.lft.to/lastmile_qr_scan", "android": "https://dc.lft.to/lastmile_qr_scan"}, "bike_id": "2ff0038f7fef80801c673fb5e46fa12d"}, {"lat": 38.881343, "is_disabled": 0, "lon": -77.01660266666667, "is_reserved": 0, "fusion_lon": 0.0, "fusion_lat": 0.0, "name": "8aa6fc2cba8d56b89ead6ebb6cceb78d", "type": "electric_scooter", "rental_uris": {"ios": "https://dc.lft.to/lastmile_qr_scan", "android": "https://dc.lft.to/lastmile_qr_scan"}, "bike_id": "8aa6fc2cba8d56b89ead6ebb6cceb78d"}, {"lat": 38.883754333333336, "is_disabled": 0, "lon": -76.99519916666667, "is_reserved": 0, "fusion_lon": 0.0, "fusion_lat": 0.0, "name": "4bd95e00d07e188fe87fb93dc2c953f5", "type": "electric_scooter", "rental_uris": {"ios": "https://dc.lft.to/lastmile_qr_scan", "android": "https://dc.lft.to/lastmile_qr_scan"}, "bike_id": "4bd95e00d07e188fe87fb93dc2c953f5"}, {"lat": 38.938284, "is_disabled": 0, "lon": -76.98616133333333, "is_reserved": 0, "fusion_lon": 0.0, "fusion_lat": 0.0, "name": "591d02cc9ecb774cfcd7f98149d59e24", "type": "electric_scooter", "rental_uris": {"ios": "https://dc.lft.to/lastmile_qr_scan", "android": "https://dc.lft.to/lastmile_qr_scan"}, "bike_id": "591d02cc9ecb774cfcd7f98149d59e24"}, {"lat": 38.92322983333333, "is_disabled": 0, "lon": -77.02807616666666, "is_reserved": 0, "fusion_lon": 0.0, "fusion_lat": 0.0, "name": "d6f7bd190b17eac3e6cc0f323113c2a5", "type": "electric_scooter", "rental_uris": {"ios": "https://dc.lft.to/lastmile_qr_scan", "android": "https://dc.lft.to/lastmile_qr_scan"}, "bike_id": "d6f7bd190b17eac3e6cc0f323113c2a5"}, {"lat": 38.87963166666667, "is_disabled": 0, "lon": -76.98746233333334, "is_reserved": 0, "fusion_lon": 0.0, "fusion_lat": 0.0, "name": "d315000022800be7d569de104769946d", "type": "electric_scooter", "rental_uris": {"ios": "https://dc.lft.to/lastmile_qr_scan", "android": "https://dc.lft.to/lastmile_qr_scan"}, "bike_id": "d315000022800be7d569de104769946d"}, {"lat": 38.935748, "is_disabled": 0, "lon": -77.03355166666667, "is_reserved": 0, "fusion_lon": 0.0, "fusion_lat": 0.0, "name": "8ad93a6eecdb439659db75a03b26e463", "type": "electric_scooter", "rental_uris": {"ios": "https://dc.lft.to/lastmile_qr_scan", "android": "https://dc.lft.to/lastmile_qr_scan"}, "bike_id": "8ad93a6eecdb439659db75a03b26e463"}, {"lat": 38.899769, "is_disabled": 0, "lon": -77.02500816666667, "is_reserved": 0, "fusion_lon": 0.0, "fusion_lat": 0.0, "name": "846c192528184ba77d6156804f92d7fe", "type": "electric_scooter", "rental_uris": {"ios": "https://dc.lft.to/lastmile_qr_scan", "android": "https://dc.lft.to/lastmile_qr_scan"}, "bike_id": "846c192528184ba77d6156804f92d7fe"}, {"lat": 38.90585983333333, "is_disabled": 0, "lon": -77.00593583333334, "is_reserved": 0, "fusion_lon": 0.0, "fusion_lat": 0.0, "name": "6609b6164db718c1ef3bf42cc601a179", "type": "electric_scooter", "rental_uris": {"ios": "https://dc.lft.to/lastmile_qr_scan", "android": "https://dc.lft.to/lastmile_qr_scan"}, "bike_id": "6609b6164db718c1ef3bf42cc601a179"}, {"lat": 38.9059205, "is_disabled": 0, "lon": -77.051279, "is_reserved": 0, "fusion_lon": 0.0, "fusion_lat": 0.0, "name": "da635e6e3dcb3a905ee3f1c820d990c0", "type": "electric_scooter", "rental_uris": {"ios": "https://dc.lft.to/lastmile_qr_scan", "android": "https://dc.lft.to/lastmile_qr_scan"}, "bike_id": "da635e6e3dcb3a905ee3f1c820d990c0"}, {"lat": 38.915637, "is_disabled": 0, "lon": -77.0680275, "is_reserved": 0, "fusion_lon": 0.0, "fusion_lat": 0.0, "name": "d619e0b1421414c42c67ca4691e9f27c", "type": "electric_scooter", "rental_uris": {"ios": "https://dc.lft.to/lastmile_qr_scan", "android": "https://dc.lft.to/lastmile_qr_scan"}, "bike_id": "d619e0b1421414c42c67ca4691e9f27c"}, {"lat": 38.901031833333334, "is_disabled": 0, "lon": -77.0339365, "is_reserved": 0, "fusion_lon": 0.0, "fusion_lat": 0.0, "name": "f318a499fc758968f69d632040a0dc60", "type": "electric_scooter", "rental_uris": {"ios": "https://dc.lft.to/lastmile_qr_scan", "android": "https://dc.lft.to/lastmile_qr_scan"}, "bike_id": "f318a499fc758968f69d632040a0dc60"}, {"lat": 38.91690366666667, "is_disabled": 0, "lon": -77.03850133333333, "is_reserved": 0, "fusion_lon": 0.0, "fusion_lat": 0.0, "name": "697ac30385bbfd284edb6221424b1eae", "type": "electric_scooter", "rental_uris": {"ios": "https://dc.lft.to/lastmile_qr_scan", "android": "https://dc.lft.to/lastmile_qr_scan"}, "bike_id": "697ac30385bbfd284edb6221424b1eae"}, {"lat": 38.8947255, "is_disabled": 0, "lon": -77.02005116666666, "is_reserved": 0, "fusion_lon": 0.0, "fusion_lat": 0.0, "name": "bb1d8c1760b68ae6c89ab174d1f9ef12", "type": "electric_scooter", "rental_uris": {"ios": "https://dc.lft.to/lastmile_qr_scan", "android": "https://dc.lft.to/lastmile_qr_scan"}, "bike_id": "bb1d8c1760b68ae6c89ab174d1f9ef12"}, {"lat": 38.856476, "is_disabled": 0, "lon": -77.08530016666667, "is_reserved": 0, "fusion_lon": 0.0, "fusion_lat": 0.0, "name": "0171e29dded8900d9336d353c1b2b43d", "type": "electric_bike", "rental_uris": {"ios": "https://dc.lft.to/lastmile_qr_scan", "android": "https://dc.lft.to/lastmile_qr_scan"}, "bike_id": "0171e29dded8900d9336d353c1b2b43d"}, {"lat": 38.934286666666665, "is_disabled": 0, "lon": -77.0400105, "is_reserved": 0, "fusion_lon": 0.0, "fusion_lat": 0.0, "name": "5e3a3693742db3a7015fb2687d5686e0", "type": "electric_scooter", "rental_uris": {"ios": "https://dc.lft.to/lastmile_qr_scan", "android": "https://dc.lft.to/lastmile_qr_scan"}, "bike_id": "5e3a3693742db3a7015fb2687d5686e0"}, {"lat": 38.901506833333336, "is_disabled": 0, "lon": -77.05326916666667, "is_reserved": 0, "fusion_lon": 0.0, "fusion_lat": 0.0, "name": "dd437d8e1721198e40ae6b349b393099", "type": "electric_scooter", "rental_uris": {"ios": "https://dc.lft.to/lastmile_qr_scan", "android": "https://dc.lft.to/lastmile_qr_scan"}, "bike_id": "dd437d8e1721198e40ae6b349b393099"}, {"lat": 38.90260033333333, "is_disabled": 0, "lon": -77.03458733333333, "is_reserved": 0, "fusion_lon": 0.0, "fusion_lat": 0.0, "name": "3c686ad2de11cbd59ca88cf2affbe46a", "type": "electric_scooter", "rental_uris": {"ios": "https://dc.lft.to/lastmile_qr_scan", "android": "https://dc.lft.to/lastmile_qr_scan"}, "bike_id": "3c686ad2de11cbd59ca88cf2affbe46a"}, {"lat": 38.898692833333335, "is_disabled": 0, "lon": -77.03318066666667, "is_reserved": 0, "fusion_lon": 0.0, "fusion_lat": 0.0, "name": "b6984bec7dfc2b6f5a8c8034c3bb3231", "type": "electric_scooter", "rental_uris": {"ios": "https://dc.lft.to/lastmile_qr_scan", "android": "https://dc.lft.to/lastmile_qr_scan"}, "bike_id": "b6984bec7dfc2b6f5a8c8034c3bb3231"}, {"lat": 38.9122965, "is_disabled": 0, "lon": -77.04487183333333, "is_reserved": 0, "fusion_lon": 0.0, "fusion_lat": 0.0, "name": "e0636cab1ec1c22abc80f2a2a094893c", "type": "electric_scooter", "rental_uris": {"ios": "https://dc.lft.to/lastmile_qr_scan", "android": "https://dc.lft.to/lastmile_qr_scan"}, "bike_id": "e0636cab1ec1c22abc80f2a2a094893c"}, {"lat": 38.883512833333334, "is_disabled": 0, "lon": -76.93633466666667, "is_reserved": 0, "fusion_lon": 0.0, "fusion_lat": 0.0, "name": "1e53bc594ae9325c6d3d9f24b5dfb23a", "type": "electric_scooter", "rental_uris": {"ios": "https://dc.lft.to/lastmile_qr_scan", "android": "https://dc.lft.to/lastmile_qr_scan"}, "bike_id": "1e53bc594ae9325c6d3d9f24b5dfb23a"}, {"lat": 38.991047, "is_disabled": 0, "lon": -76.993699, "is_reserved": 0, "fusion_lon": 0.0, "fusion_lat": 0.0, "name": "4a058e911b1b341c3414a8b4e502d95b", "type": "electric_bike", "rental_uris": {"ios": "https://dc.lft.to/lastmile_qr_scan", "android": "https://dc.lft.to/lastmile_qr_scan"}, "bike_id": "4a058e911b1b341c3414a8b4e502d95b"}, {"lat": 38.89837083333333, "is_disabled": 0, "lon": -77.033298, "is_reserved": 0, "fusion_lon": 0.0, "fusion_lat": 0.0, "name": "5e2f955cb89e9cce624cbc2cee1a8e8f", "type": "electric_scooter", "rental_uris": {"ios": "https://dc.lft.to/lastmile_qr_scan", "android": "https://dc.lft.to/lastmile_qr_scan"}, "bike_id": "5e2f955cb89e9cce624cbc2cee1a8e8f"}, {"lat": 38.892195, "is_disabled": 0, "lon": -77.04326266666666, "is_reserved": 0, "fusion_lon": 0.0, "fusion_lat": 0.0, "name": "514359a8b4d076090812a80f70f4431d", "type": "electric_scooter", "rental_uris": {"ios": "https://dc.lft.to/lastmile_qr_scan", "android": "https://dc.lft.to/lastmile_qr_scan"}, "bike_id": "514359a8b4d076090812a80f70f4431d"}, {"lat": 38.92277166666667, "is_disabled": 0, "lon": -76.99766933333333, "is_reserved": 0, "fusion_lon": 0.0, "fusion_lat": 0.0, "name": "f97b638cba54bff252aa3e7441f2071c", "type": "electric_scooter", "rental_uris": {"ios": "https://dc.lft.to/lastmile_qr_scan", "android": "https://dc.lft.to/lastmile_qr_scan"}, "bike_id": "f97b638cba54bff252aa3e7441f2071c"}, {"lat": 38.90268416666667, "is_disabled": 0, "lon": -77.03834616666667, "is_reserved": 0, "fusion_lon": 0.0, "fusion_lat": 0.0, "name": "382ec3975d9f91271e68ec8699a970f3", "type": "electric_scooter", "rental_uris": {"ios": "https://dc.lft.to/lastmile_qr_scan", "android": "https://dc.lft.to/lastmile_qr_scan"}, "bike_id": "382ec3975d9f91271e68ec8699a970f3"}, {"lat": 38.899557, "is_disabled": 0, "lon": -77.03377016666667, "is_reserved": 0, "fusion_lon": 0.0, "fusion_lat": 0.0, "name": "0f6a487d2bf3956377be16f0ce204563", "type": "electric_scooter", "rental_uris": {"ios": "https://dc.lft.to/lastmile_qr_scan", "android": "https://dc.lft.to/lastmile_qr_scan"}, "bike_id": "0f6a487d2bf3956377be16f0ce204563"}, {"lat": 38.92239383333333, "is_disabled": 0, "lon": -77.02086333333334, "is_reserved": 0, "fusion_lon": 0.0, "fusion_lat": 0.0, "name": "66699bafc7ec1b97e0f42c43f064cceb", "type": "electric_scooter", "rental_uris": {"ios": "https://dc.lft.to/lastmile_qr_scan", "android": "https://dc.lft.to/lastmile_qr_scan"}, "bike_id": "66699bafc7ec1b97e0f42c43f064cceb"}, {"lat": 38.89993883333333, "is_disabled": 0, "lon": -77.04232783333333, "is_reserved": 0, "fusion_lon": 0.0, "fusion_lat": 0.0, "name": "592fde66ce12b9ef94e3c82333d0a14f", "type": "electric_scooter", "rental_uris": {"ios": "https://dc.lft.to/lastmile_qr_scan", "android": "https://dc.lft.to/lastmile_qr_scan"}, "bike_id": "592fde66ce12b9ef94e3c82333d0a14f"}, {"lat": 38.91600066666667, "is_disabled": 0, "lon": -77.0402055, "is_reserved": 0, "fusion_lon": 0.0, "fusion_lat": 0.0, "name": "88fc9b9753aa12f7bc319be3175e44db", "type": "electric_scooter", "rental_uris": {"ios": "https://dc.lft.to/lastmile_qr_scan", "android": "https://dc.lft.to/lastmile_qr_scan"}, "bike_id": "88fc9b9753aa12f7bc319be3175e44db"}, {"lat": 38.924428, "is_disabled": 0, "lon": -77.042482, "is_reserved": 0, "fusion_lon": 0.0, "fusion_lat": 0.0, "name": "3744a50ca188f69150ee2c4d78989906", "type": "electric_scooter", "rental_uris": {"ios": "https://dc.lft.to/lastmile_qr_scan", "android": "https://dc.lft.to/lastmile_qr_scan"}, "bike_id": "3744a50ca188f69150ee2c4d78989906"}, {"lat": 38.929148166666664, "is_disabled": 0, "lon": -77.01871933333334, "is_reserved": 0, "fusion_lon": 0.0, "fusion_lat": 0.0, "name": "99c2fa4a4b393fb4632b6a409a1998b4", "type": "electric_scooter", "rental_uris": {"ios": "https://dc.lft.to/lastmile_qr_scan", "android": "https://dc.lft.to/lastmile_qr_scan"}, "bike_id": "99c2fa4a4b393fb4632b6a409a1998b4"}, {"lat": 38.89957483333333, "is_disabled": 0, "lon": -77.04685433333333, "is_reserved": 0, "fusion_lon": 0.0, "fusion_lat": 0.0, "name": "3189d9d966161f8695c217b169c43796", "type": "electric_scooter", "rental_uris": {"ios": "https://dc.lft.to/lastmile_qr_scan", "android": "https://dc.lft.to/lastmile_qr_scan"}, "bike_id": "3189d9d966161f8695c217b169c43796"}, {"lat": 38.923744, "is_disabled": 0, "lon": -77.02127583333333, "is_reserved": 0, "fusion_lon": 0.0, "fusion_lat": 0.0, "name": "b596824627a96f700b586505fcb61ab1", "type": "electric_scooter", "rental_uris": {"ios": "https://dc.lft.to/lastmile_qr_scan", "android": "https://dc.lft.to/lastmile_qr_scan"}, "bike_id": "b596824627a96f700b586505fcb61ab1"}, {"lat": 38.90233883333333, "is_disabled": 0, "lon": -77.02814116666667, "is_reserved": 0, "fusion_lon": 0.0, "fusion_lat": 0.0, "name": "4c01df047501d78c8a83ab8681fbecd8", "type": "electric_scooter", "rental_uris": {"ios": "https://dc.lft.to/lastmile_qr_scan", "android": "https://dc.lft.to/lastmile_qr_scan"}, "bike_id": "4c01df047501d78c8a83ab8681fbecd8"}, {"lat": 38.92006633333333, "is_disabled": 0, "lon": -77.02403716666667, "is_reserved": 0, "fusion_lon": 0.0, "fusion_lat": 0.0, "name": "f422a15b2b911a88f8b2d2101f5e6655", "type": "electric_scooter", "rental_uris": {"ios": "https://dc.lft.to/lastmile_qr_scan", "android": "https://dc.lft.to/lastmile_qr_scan"}, "bike_id": "f422a15b2b911a88f8b2d2101f5e6655"}, {"lat": 38.9193675, "is_disabled": 0, "lon": -77.07052266666666, "is_reserved": 0, "fusion_lon": 0.0, "fusion_lat": 0.0, "name": "a335f38fb523b7899cbd7a6b0c40bd69", "type": "electric_scooter", "rental_uris": {"ios": "https://dc.lft.to/lastmile_qr_scan", "android": "https://dc.lft.to/lastmile_qr_scan"}, "bike_id": "a335f38fb523b7899cbd7a6b0c40bd69"}, {"lat": 38.88676533333334, "is_disabled": 0, "lon": -77.01376816666667, "is_reserved": 0, "fusion_lon": 0.0, "fusion_lat": 0.0, "name": "78e6bc26ce9c646516d0d5e1ef662829", "type": "electric_scooter", "rental_uris": {"ios": "https://dc.lft.to/lastmile_qr_scan", "android": "https://dc.lft.to/lastmile_qr_scan"}, "bike_id": "78e6bc26ce9c646516d0d5e1ef662829"}, {"lat": 39.06219316666667, "is_disabled": 0, "lon": -77.1291885, "is_reserved": 0, "fusion_lon": 0.0, "fusion_lat": 0.0, "name": "d06e2115446b7ecbcf52372461d8e1a4", "type": "electric_bike", "rental_uris": {"ios": "https://dc.lft.to/lastmile_qr_scan", "android": "https://dc.lft.to/lastmile_qr_scan"}, "bike_id": "d06e2115446b7ecbcf52372461d8e1a4"}, {"lat": 38.90969833333333, "is_disabled": 0, "lon": -77.046509, "is_reserved": 0, "fusion_lon": 0.0, "fusion_lat": 0.0, "name": "7ce99252a5b4ab17c0a0ad92edf2d2a4", "type": "electric_scooter", "rental_uris": {"ios": "https://dc.lft.to/lastmile_qr_scan", "android": "https://dc.lft.to/lastmile_qr_scan"}, "bike_id": "7ce99252a5b4ab17c0a0ad92edf2d2a4"}, {"lat": 38.855859, "is_disabled": 0, "lon": -76.9743135, "is_reserved": 0, "fusion_lon": 0.0, "fusion_lat": 0.0, "name": "ab758008d5ec2ae7c91326d0a626bb2d", "type": "electric_bike", "rental_uris": {"ios": "https://dc.lft.to/lastmile_qr_scan", "android": "https://dc.lft.to/lastmile_qr_scan"}, "bike_id": "ab758008d5ec2ae7c91326d0a626bb2d"}, {"lat": 38.90469483333333, "is_disabled": 0, "lon": -77.034334, "is_reserved": 0, "fusion_lon": 0.0, "fusion_lat": 0.0, "name": "3a62ea8f1d84a814d91dc9a053d1d293", "type": "electric_scooter", "rental_uris": {"ios": "https://dc.lft.to/lastmile_qr_scan", "android": "https://dc.lft.to/lastmile_qr_scan"}, "bike_id": "3a62ea8f1d84a814d91dc9a053d1d293"}, {"lat": 38.90653233333333, "is_disabled": 0, "lon": -77.02535, "is_reserved": 0, "fusion_lon": 0.0, "fusion_lat": 0.0, "name": "9da76f02f90fe1071418d2aec0f896a4", "type": "electric_scooter", "rental_uris": {"ios": "https://dc.lft.to/lastmile_qr_scan", "android": "https://dc.lft.to/lastmile_qr_scan"}, "bike_id": "9da76f02f90fe1071418d2aec0f896a4"}, {"lat": 38.9025225, "is_disabled": 0, "lon": -77.0384295, "is_reserved": 0, "fusion_lon": 0.0, "fusion_lat": 0.0, "name": "11213b87ef26eeb5f0fd60d7e88e33a4", "type": "electric_scooter", "rental_uris": {"ios": "https://dc.lft.to/lastmile_qr_scan", "android": "https://dc.lft.to/lastmile_qr_scan"}, "bike_id": "11213b87ef26eeb5f0fd60d7e88e33a4"}, {"lat": 38.903523166666666, "is_disabled": 0, "lon": -77.04521066666666, "is_reserved": 0, "fusion_lon": 0.0, "fusion_lat": 0.0, "name": "c0bd1b8049394b46699ec7796b437ae2", "type": "electric_scooter", "rental_uris": {"ios": "https://dc.lft.to/lastmile_qr_scan", "android": "https://dc.lft.to/lastmile_qr_scan"}, "bike_id": "c0bd1b8049394b46699ec7796b437ae2"}, {"lat": 38.912747, "is_disabled": 0, "lon": -77.0224895, "is_reserved": 0, "fusion_lon": 0.0, "fusion_lat": 0.0, "name": "6a624ed29e8ee5fc5e69b4f68dc20224", "type": "electric_scooter", "rental_uris": {"ios": "https://dc.lft.to/lastmile_qr_scan", "android": "https://dc.lft.to/lastmile_qr_scan"}, "bike_id": "6a624ed29e8ee5fc5e69b4f68dc20224"}, {"lat": 38.897298666666664, "is_disabled": 0, "lon": -77.0320105, "is_reserved": 0, "fusion_lon": 0.0, "fusion_lat": 0.0, "name": "f2c3faa53eb1ad11baaad25303aeaa16", "type": "electric_scooter", "rental_uris": {"ios": "https://dc.lft.to/lastmile_qr_scan", "android": "https://dc.lft.to/lastmile_qr_scan"}, "bike_id": "f2c3faa53eb1ad11baaad25303aeaa16"}, {"lat": 38.8005155, "is_disabled": 0, "lon": -77.12840633333333, "is_reserved": 0, "fusion_lon": 0.0, "fusion_lat": 0.0, "name": "7487aa5743de1bde84032b09122a689e", "type": "electric_bike", "rental_uris": {"ios": "https://dc.lft.to/lastmile_qr_scan", "android": "https://dc.lft.to/lastmile_qr_scan"}, "bike_id": "7487aa5743de1bde84032b09122a689e"}, {"lat": 38.92495433333333, "is_disabled": 0, "lon": -77.03928383333333, "is_reserved": 0, "fusion_lon": 0.0, "fusion_lat": 0.0, "name": "7d30edb1a1b63ab80897e36cbe6c8b4d", "type": "electric_scooter", "rental_uris": {"ios": "https://dc.lft.to/lastmile_qr_scan", "android": "https://dc.lft.to/lastmile_qr_scan"}, "bike_id": "7d30edb1a1b63ab80897e36cbe6c8b4d"}, {"lat": 38.9233065, "is_disabled": 0, "lon": -77.019604, "is_reserved": 0, "fusion_lon": 0.0, "fusion_lat": 0.0, "name": "b41312105e685d439ec4da81fec48f88", "type": "electric_scooter", "rental_uris": {"ios": "https://dc.lft.to/lastmile_qr_scan", "android": "https://dc.lft.to/lastmile_qr_scan"}, "bike_id": "b41312105e685d439ec4da81fec48f88"}, {"lat": 38.952453, "is_disabled": 0, "lon": -77.0079415, "is_reserved": 0, "fusion_lon": 0.0, "fusion_lat": 0.0, "name": "b5b7340f756aadda7ea7d2bef223bf40", "type": "electric_scooter", "rental_uris": {"ios": "https://dc.lft.to/lastmile_qr_scan", "android": "https://dc.lft.to/lastmile_qr_scan"}, "bike_id": "b5b7340f756aadda7ea7d2bef223bf40"}, {"lat": 38.924758, "is_disabled": 0, "lon": -77.02231966666666, "is_reserved": 0, "fusion_lon": 0.0, "fusion_lat": 0.0, "name": "d216378f61bdad9db5fc4c89ead874e6", "type": "electric_scooter", "rental_uris": {"ios": "https://dc.lft.to/lastmile_qr_scan", "android": "https://dc.lft.to/lastmile_qr_scan"}, "bike_id": "d216378f61bdad9db5fc4c89ead874e6"}, {"lat": 38.79984683333333, "is_disabled": 0, "lon": -77.12978266666667, "is_reserved": 0, "fusion_lon": 0.0, "fusion_lat": 0.0, "name": "8a0c7d6b47a2dbe79b8a44c795a8604e", "type": "electric_bike", "rental_uris": {"ios": "https://dc.lft.to/lastmile_qr_scan", "android": "https://dc.lft.to/lastmile_qr_scan"}, "bike_id": "8a0c7d6b47a2dbe79b8a44c795a8604e"}, {"lat": 38.8850665, "is_disabled": 0, "lon": -77.01115916666667, "is_reserved": 0, "fusion_lon": 0.0, "fusion_lat": 0.0, "name": "a4346ff4fbb318b99f8311486d595137", "type": "electric_scooter", "rental_uris": {"ios": "https://dc.lft.to/lastmile_qr_scan", "android": "https://dc.lft.to/lastmile_qr_scan"}, "bike_id": "a4346ff4fbb318b99f8311486d595137"}, {"lat": 38.912605166666665, "is_disabled": 0, "lon": -77.04553433333334, "is_reserved": 0, "fusion_lon": 0.0, "fusion_lat": 0.0, "name": "8ea7a4bf693f10c875382dc8537807a8", "type": "electric_scooter", "rental_uris": {"ios": "https://dc.lft.to/lastmile_qr_scan", "android": "https://dc.lft.to/lastmile_qr_scan"}, "bike_id": "8ea7a4bf693f10c875382dc8537807a8"}, {"lat": 38.92192033333333, "is_disabled": 0, "lon": -77.04246083333334, "is_reserved": 0, "fusion_lon": 0.0, "fusion_lat": 0.0, "name": "7f82b5f4df1d8015305f6586587d7cea", "type": "electric_scooter", "rental_uris": {"ios": "https://dc.lft.to/lastmile_qr_scan", "android": "https://dc.lft.to/lastmile_qr_scan"}, "bike_id": "7f82b5f4df1d8015305f6586587d7cea"}, {"lat": 38.921635, "is_disabled": 0, "lon": -77.02084483333333, "is_reserved": 0, "fusion_lon": 0.0, "fusion_lat": 0.0, "name": "36412de485d168865676cf9d6c896d2b", "type": "electric_scooter", "rental_uris": {"ios": "https://dc.lft.to/lastmile_qr_scan", "android": "https://dc.lft.to/lastmile_qr_scan"}, "bike_id": "36412de485d168865676cf9d6c896d2b"}, {"lat": 38.920425, "is_disabled": 0, "lon": -77.01679483333334, "is_reserved": 0, "fusion_lon": 0.0, "fusion_lat": 0.0, "name": "ca7bb478a92774db4063660c1f392535", "type": "electric_scooter", "rental_uris": {"ios": "https://dc.lft.to/lastmile_qr_scan", "android": "https://dc.lft.to/lastmile_qr_scan"}, "bike_id": "ca7bb478a92774db4063660c1f392535"}, {"lat": 38.934769833333334, "is_disabled": 0, "lon": -77.07276083333333, "is_reserved": 0, "fusion_lon": 0.0, "fusion_lat": 0.0, "name": "7843e6f262a381d6faa9a21ba13da128", "type": "electric_scooter", "rental_uris": {"ios": "https://dc.lft.to/lastmile_qr_scan", "android": "https://dc.lft.to/lastmile_qr_scan"}, "bike_id": "7843e6f262a381d6faa9a21ba13da128"}, {"lat": 38.9202965, "is_disabled": 0, "lon": -76.97809566666666, "is_reserved": 0, "fusion_lon": 0.0, "fusion_lat": 0.0, "name": "4cf9a89b25328150856dff254c1d4c1c", "type": "electric_scooter", "rental_uris": {"ios": "https://dc.lft.to/lastmile_qr_scan", "android": "https://dc.lft.to/lastmile_qr_scan"}, "bike_id": "4cf9a89b25328150856dff254c1d4c1c"}, {"lat": 38.90855966666667, "is_disabled": 0, "lon": -77.04477966666667, "is_reserved": 0, "fusion_lon": 0.0, "fusion_lat": 0.0, "name": "3c860b8d07b83885d148d76ec79ad7ef", "type": "electric_scooter", "rental_uris": {"ios": "https://dc.lft.to/lastmile_qr_scan", "android": "https://dc.lft.to/lastmile_qr_scan"}, "bike_id": "3c860b8d07b83885d148d76ec79ad7ef"}, {"lat": 38.9244025, "is_disabled": 0, "lon": -77.02034416666666, "is_reserved": 0, "fusion_lon": 0.0, "fusion_lat": 0.0, "name": "e2310d5bcfbe57a9814cfc5f0dcf7d1e", "type": "electric_scooter", "rental_uris": {"ios": "https://dc.lft.to/lastmile_qr_scan", "android": "https://dc.lft.to/lastmile_qr_scan"}, "bike_id": "e2310d5bcfbe57a9814cfc5f0dcf7d1e"}, {"lat": 38.9169355, "is_disabled": 0, "lon": -77.03910433333333, "is_reserved": 0, "fusion_lon": 0.0, "fusion_lat": 0.0, "name": "af3db1f396c7ba99234f653614153fae", "type": "electric_scooter", "rental_uris": {"ios": "https://dc.lft.to/lastmile_qr_scan", "android": "https://dc.lft.to/lastmile_qr_scan"}, "bike_id": "af3db1f396c7ba99234f653614153fae"}, {"lat": 38.884184, "is_disabled": 0, "lon": -77.0278815, "is_reserved": 0, "fusion_lon": 0.0, "fusion_lat": 0.0, "name": "5a73e51f21ce538bd31a977a89ec887a", "type": "electric_scooter", "rental_uris": {"ios": "https://dc.lft.to/lastmile_qr_scan", "android": "https://dc.lft.to/lastmile_qr_scan"}, "bike_id": "5a73e51f21ce538bd31a977a89ec887a"}, {"lat": 38.94316416666667, "is_disabled": 0, "lon": -77.05929866666666, "is_reserved": 0, "fusion_lon": 0.0, "fusion_lat": 0.0, "name": "0eb801dfa9515654a015b28506beb1a3", "type": "electric_scooter", "rental_uris": {"ios": "https://dc.lft.to/lastmile_qr_scan", "android": "https://dc.lft.to/lastmile_qr_scan"}, "bike_id": "0eb801dfa9515654a015b28506beb1a3"}, {"lat": 38.85765816666667, "is_disabled": 0, "lon": -76.98764633333333, "is_reserved": 0, "fusion_lon": 0.0, "fusion_lat": 0.0, "name": "19d7c2b44557869a9b3cf15df3e6c525", "type": "electric_bike", "rental_uris": {"ios": "https://dc.lft.to/lastmile_qr_scan", "android": "https://dc.lft.to/lastmile_qr_scan"}, "bike_id": "19d7c2b44557869a9b3cf15df3e6c525"}, {"lat": 38.926130666666666, "is_disabled": 0, "lon": -77.021657, "is_reserved": 0, "fusion_lon": 0.0, "fusion_lat": 0.0, "name": "619cda40627282f1808bb5387a94b061", "type": "electric_scooter", "rental_uris": {"ios": "https://dc.lft.to/lastmile_qr_scan", "android": "https://dc.lft.to/lastmile_qr_scan"}, "bike_id": "619cda40627282f1808bb5387a94b061"}, {"lat": 38.9296955, "is_disabled": 0, "lon": -77.028255, "is_reserved": 0, "fusion_lon": 0.0, "fusion_lat": 0.0, "name": "ff608aca67245929a57a5d932852cc4a", "type": "electric_scooter", "rental_uris": {"ios": "https://dc.lft.to/lastmile_qr_scan", "android": "https://dc.lft.to/lastmile_qr_scan"}, "bike_id": "ff608aca67245929a57a5d932852cc4a"}, {"lat": 38.961653166666665, "is_disabled": 0, "lon": -77.0323135, "is_reserved": 0, "fusion_lon": 0.0, "fusion_lat": 0.0, "name": "c3252688ed97b4fd7cf0d8a080225ebf", "type": "electric_bike", "rental_uris": {"ios": "https://dc.lft.to/lastmile_qr_scan", "android": "https://dc.lft.to/lastmile_qr_scan"}, "bike_id": "c3252688ed97b4fd7cf0d8a080225ebf"}, {"lat": 38.904088, "is_disabled": 0, "lon": -76.97337133333333, "is_reserved": 0, "fusion_lon": 0.0, "fusion_lat": 0.0, "name": "408a43b34bfa48a3d53c7ffe2cb0b9b6", "type": "electric_scooter", "rental_uris": {"ios": "https://dc.lft.to/lastmile_qr_scan", "android": "https://dc.lft.to/lastmile_qr_scan"}, "bike_id": "408a43b34bfa48a3d53c7ffe2cb0b9b6"}, {"lat": 38.900335, "is_disabled": 0, "lon": -77.00906366666666, "is_reserved": 0, "fusion_lon": 0.0, "fusion_lat": 0.0, "name": "1ca4faff2a7760d93ba7a18ecfe1892d", "type": "electric_scooter", "rental_uris": {"ios": "https://dc.lft.to/lastmile_qr_scan", "android": "https://dc.lft.to/lastmile_qr_scan"}, "bike_id": "1ca4faff2a7760d93ba7a18ecfe1892d"}, {"lat": 38.997875666666665, "is_disabled": 0, "lon": -77.00754716666667, "is_reserved": 0, "fusion_lon": 0.0, "fusion_lat": 0.0, "name": "ef27fed8b8c89831a080a51763c80d70", "type": "electric_bike", "rental_uris": {"ios": "https://dc.lft.to/lastmile_qr_scan", "android": "https://dc.lft.to/lastmile_qr_scan"}, "bike_id": "ef27fed8b8c89831a080a51763c80d70"}, {"lat": 38.89872416666667, "is_disabled": 0, "lon": -77.0402845, "is_reserved": 0, "fusion_lon": 0.0, "fusion_lat": 0.0, "name": "504deaa984c5ee3142e7c88d78b70c60", "type": "electric_scooter", "rental_uris": {"ios": "https://dc.lft.to/lastmile_qr_scan", "android": "https://dc.lft.to/lastmile_qr_scan"}, "bike_id": "504deaa984c5ee3142e7c88d78b70c60"}, {"lat": 38.91405483333333, "is_disabled": 0, "lon": -77.028972, "is_reserved": 0, "fusion_lon": 0.0, "fusion_lat": 0.0, "name": "35910f5ca6d542cc5d9a1ac0608c651c", "type": "electric_scooter", "rental_uris": {"ios": "https://dc.lft.to/lastmile_qr_scan", "android": "https://dc.lft.to/lastmile_qr_scan"}, "bike_id": "35910f5ca6d542cc5d9a1ac0608c651c"}, {"lat": 38.896302666666664, "is_disabled": 0, "lon": -77.02665866666666, "is_reserved": 0, "fusion_lon": 0.0, "fusion_lat": 0.0, "name": "a6fc726bfca5496186e7f15e845ec0b9", "type": "electric_scooter", "rental_uris": {"ios": "https://dc.lft.to/lastmile_qr_scan", "android": "https://dc.lft.to/lastmile_qr_scan"}, "bike_id": "a6fc726bfca5496186e7f15e845ec0b9"}, {"lat": 38.876841, "is_disabled": 0, "lon": -77.01675016666667, "is_reserved": 0, "fusion_lon": 0.0, "fusion_lat": 0.0, "name": "e1fec0b09c5e2d940dd9da8cd955ec5d", "type": "electric_scooter", "rental_uris": {"ios": "https://dc.lft.to/lastmile_qr_scan", "android": "https://dc.lft.to/lastmile_qr_scan"}, "bike_id": "e1fec0b09c5e2d940dd9da8cd955ec5d"}, {"lat": 38.884679, "is_disabled": 0, "lon": -76.952514, "is_reserved": 0, "fusion_lon": 0.0, "fusion_lat": 0.0, "name": "1ca4267b27e8e119e987c4442736b41c", "type": "electric_bike", "rental_uris": {"ios": "https://dc.lft.to/lastmile_qr_scan", "android": "https://dc.lft.to/lastmile_qr_scan"}, "bike_id": "1ca4267b27e8e119e987c4442736b41c"}, {"lat": 38.961271333333336, "is_disabled": 0, "lon": -77.03273733333333, "is_reserved": 0, "fusion_lon": 0.0, "fusion_lat": 0.0, "name": "568475aea3680d04199837e056e73499", "type": "electric_bike", "rental_uris": {"ios": "https://dc.lft.to/lastmile_qr_scan", "android": "https://dc.lft.to/lastmile_qr_scan"}, "bike_id": "568475aea3680d04199837e056e73499"}, {"lat": 38.92135183333333, "is_disabled": 0, "lon": -77.02870533333333, "is_reserved": 0, "fusion_lon": 0.0, "fusion_lat": 0.0, "name": "04e1f16be49c127e6547ec20869534df", "type": "electric_bike", "rental_uris": {"ios": "https://dc.lft.to/lastmile_qr_scan", "android": "https://dc.lft.to/lastmile_qr_scan"}, "bike_id": "04e1f16be49c127e6547ec20869534df"}, {"lat": 38.9148545, "is_disabled": 0, "lon": -77.0390835, "is_reserved": 0, "fusion_lon": 0.0, "fusion_lat": 0.0, "name": "c7a699f0a2feb41d623c6f4a6e8a241b", "type": "electric_scooter", "rental_uris": {"ios": "https://dc.lft.to/lastmile_qr_scan", "android": "https://dc.lft.to/lastmile_qr_scan"}, "bike_id": "c7a699f0a2feb41d623c6f4a6e8a241b"}, {"lat": 38.9090425, "is_disabled": 0, "lon": -77.089977, "is_reserved": 0, "fusion_lon": 0.0, "fusion_lat": 0.0, "name": "87770fd26bb9b397f4ddcaa86fd218f9", "type": "electric_bike", "rental_uris": {"ios": "https://dc.lft.to/lastmile_qr_scan", "android": "https://dc.lft.to/lastmile_qr_scan"}, "bike_id": "87770fd26bb9b397f4ddcaa86fd218f9"}, {"lat": 38.91012033333333, "is_disabled": 0, "lon": -76.993881, "is_reserved": 0, "fusion_lon": 0.0, "fusion_lat": 0.0, "name": "e2646b9c98196cd78a4aab9da7d70d36", "type": "electric_scooter", "rental_uris": {"ios": "https://dc.lft.to/lastmile_qr_scan", "android": "https://dc.lft.to/lastmile_qr_scan"}, "bike_id": "e2646b9c98196cd78a4aab9da7d70d36"}, {"lat": 38.922347, "is_disabled": 0, "lon": -77.04442216666666, "is_reserved": 0, "fusion_lon": 0.0, "fusion_lat": 0.0, "name": "e6cf62d0e536874178e7829f887ca2ee", "type": "electric_scooter", "rental_uris": {"ios": "https://dc.lft.to/lastmile_qr_scan", "android": "https://dc.lft.to/lastmile_qr_scan"}, "bike_id": "e6cf62d0e536874178e7829f887ca2ee"}, {"lat": 38.886486, "is_disabled": 0, "lon": -77.02249333333333, "is_reserved": 0, "fusion_lon": 0.0, "fusion_lat": 0.0, "name": "424db7af5a951d651a8f349cf4e7faa6", "type": "electric_bike", "rental_uris": {"ios": "https://dc.lft.to/lastmile_qr_scan", "android": "https://dc.lft.to/lastmile_qr_scan"}, "bike_id": "424db7af5a951d651a8f349cf4e7faa6"}, {"lat": 38.936023, "is_disabled": 0, "lon": -77.03185116666667, "is_reserved": 0, "fusion_lon": 0.0, "fusion_lat": 0.0, "name": "11b080a10dcdf93bb8acf8e996c4f48c", "type": "electric_scooter", "rental_uris": {"ios": "https://dc.lft.to/lastmile_qr_scan", "android": "https://dc.lft.to/lastmile_qr_scan"}, "bike_id": "11b080a10dcdf93bb8acf8e996c4f48c"}, {"lat": 38.91966016666667, "is_disabled": 0, "lon": -77.03851866666666, "is_reserved": 0, "fusion_lon": 0.0, "fusion_lat": 0.0, "name": "df7b50bca77e54f440061f5d83d8c843", "type": "electric_scooter", "rental_uris": {"ios": "https://dc.lft.to/lastmile_qr_scan", "android": "https://dc.lft.to/lastmile_qr_scan"}, "bike_id": "df7b50bca77e54f440061f5d83d8c843"}, {"lat": 38.920191333333335, "is_disabled": 0, "lon": -77.0713545, "is_reserved": 0, "fusion_lon": 0.0, "fusion_lat": 0.0, "name": "3ef26cf35c507d41668e3e2ee2586b0f", "type": "electric_scooter", "rental_uris": {"ios": "https://dc.lft.to/lastmile_qr_scan", "android": "https://dc.lft.to/lastmile_qr_scan"}, "bike_id": "3ef26cf35c507d41668e3e2ee2586b0f"}, {"lat": 38.898447833333336, "is_disabled": 0, "lon": -76.94255733333334, "is_reserved": 0, "fusion_lon": 0.0, "fusion_lat": 0.0, "name": "f571ee93ad99831d217b05c7d678bf51", "type": "electric_scooter", "rental_uris": {"ios": "https://dc.lft.to/lastmile_qr_scan", "android": "https://dc.lft.to/lastmile_qr_scan"}, "bike_id": "f571ee93ad99831d217b05c7d678bf51"}, {"lat": 38.96219816666667, "is_disabled": 0, "lon": -77.02786783333333, "is_reserved": 0, "fusion_lon": 0.0, "fusion_lat": 0.0, "name": "5959a8053781327ab7ef23747a6b8b7b", "type": "electric_scooter", "rental_uris": {"ios": "https://dc.lft.to/lastmile_qr_scan", "android": "https://dc.lft.to/lastmile_qr_scan"}, "bike_id": "5959a8053781327ab7ef23747a6b8b7b"}, {"lat": 38.91882833333333, "is_disabled": 0, "lon": -77.03495566666666, "is_reserved": 0, "fusion_lon": 0.0, "fusion_lat": 0.0, "name": "85286a4905581a4ac6eb63ee9e5265d1", "type": "electric_scooter", "rental_uris": {"ios": "https://dc.lft.to/lastmile_qr_scan", "android": "https://dc.lft.to/lastmile_qr_scan"}, "bike_id": "85286a4905581a4ac6eb63ee9e5265d1"}, {"lat": 38.922566833333335, "is_disabled": 0, "lon": -77.0413815, "is_reserved": 0, "fusion_lon": 0.0, "fusion_lat": 0.0, "name": "b9b2b46579caa40277293f6afea96e59", "type": "electric_scooter", "rental_uris": {"ios": "https://dc.lft.to/lastmile_qr_scan", "android": "https://dc.lft.to/lastmile_qr_scan"}, "bike_id": "b9b2b46579caa40277293f6afea96e59"}, {"lat": 38.886002833333336, "is_disabled": 0, "lon": -77.01735716666667, "is_reserved": 0, "fusion_lon": 0.0, "fusion_lat": 0.0, "name": "3f9f5434f08edfb228f9872190bebece", "type": "electric_scooter", "rental_uris": {"ios": "https://dc.lft.to/lastmile_qr_scan", "android": "https://dc.lft.to/lastmile_qr_scan"}, "bike_id": "3f9f5434f08edfb228f9872190bebece"}, {"lat": 38.9247435, "is_disabled": 0, "lon": -77.02672833333334, "is_reserved": 0, "fusion_lon": 0.0, "fusion_lat": 0.0, "name": "22d42d7a2b223b5e492b55c44386ee33", "type": "electric_scooter", "rental_uris": {"ios": "https://dc.lft.to/lastmile_qr_scan", "android": "https://dc.lft.to/lastmile_qr_scan"}, "bike_id": "22d42d7a2b223b5e492b55c44386ee33"}, {"lat": 38.974961666666665, "is_disabled": 0, "lon": -77.017171, "is_reserved": 0, "fusion_lon": 0.0, "fusion_lat": 0.0, "name": "43683eba4aff2a0f6c9d25b984eef061", "type": "electric_scooter", "rental_uris": {"ios": "https://dc.lft.to/lastmile_qr_scan", "android": "https://dc.lft.to/lastmile_qr_scan"}, "bike_id": "43683eba4aff2a0f6c9d25b984eef061"}, {"lat": 38.916939666666664, "is_disabled": 0, "lon": -77.03569116666667, "is_reserved": 0, "fusion_lon": 0.0, "fusion_lat": 0.0, "name": "a55c8e91ad8cfa48a5c59ee7a8ea4d41", "type": "electric_scooter", "rental_uris": {"ios": "https://dc.lft.to/lastmile_qr_scan", "android": "https://dc.lft.to/lastmile_qr_scan"}, "bike_id": "a55c8e91ad8cfa48a5c59ee7a8ea4d41"}, {"lat": 38.927467166666666, "is_disabled": 0, "lon": -76.990728, "is_reserved": 0, "fusion_lon": 0.0, "fusion_lat": 0.0, "name": "53120273d6efa2a71000882c53510c4f", "type": "electric_scooter", "rental_uris": {"ios": "https://dc.lft.to/lastmile_qr_scan", "android": "https://dc.lft.to/lastmile_qr_scan"}, "bike_id": "53120273d6efa2a71000882c53510c4f"}, {"lat": 38.89883433333333, "is_disabled": 0, "lon": -77.03277216666666, "is_reserved": 0, "fusion_lon": 0.0, "fusion_lat": 0.0, "name": "359a0c96ed7a6d1c44254b920deda03b", "type": "electric_scooter", "rental_uris": {"ios": "https://dc.lft.to/lastmile_qr_scan", "android": "https://dc.lft.to/lastmile_qr_scan"}, "bike_id": "359a0c96ed7a6d1c44254b920deda03b"}, {"lat": 38.9165385, "is_disabled": 0, "lon": -77.02882283333334, "is_reserved": 0, "fusion_lon": 0.0, "fusion_lat": 0.0, "name": "c47cd52fbe2b74b3e48fe6049b1dcd8a", "type": "electric_scooter", "rental_uris": {"ios": "https://dc.lft.to/lastmile_qr_scan", "android": "https://dc.lft.to/lastmile_qr_scan"}, "bike_id": "c47cd52fbe2b74b3e48fe6049b1dcd8a"}, {"lat": 38.909600166666664, "is_disabled": 0, "lon": -77.01277466666667, "is_reserved": 0, "fusion_lon": 0.0, "fusion_lat": 0.0, "name": "baba712eb8710c68643620f7a27c0025", "type": "electric_scooter", "rental_uris": {"ios": "https://dc.lft.to/lastmile_qr_scan", "android": "https://dc.lft.to/lastmile_qr_scan"}, "bike_id": "baba712eb8710c68643620f7a27c0025"}, {"lat": 38.9055635, "is_disabled": 0, "lon": -77.01979433333334, "is_reserved": 0, "fusion_lon": 0.0, "fusion_lat": 0.0, "name": "c8bc4469f3cdca6a477066e609db3944", "type": "electric_scooter", "rental_uris": {"ios": "https://dc.lft.to/lastmile_qr_scan", "android": "https://dc.lft.to/lastmile_qr_scan"}, "bike_id": "c8bc4469f3cdca6a477066e609db3944"}, {"lat": 38.918543166666666, "is_disabled": 0, "lon": -76.965452, "is_reserved": 0, "fusion_lon": 0.0, "fusion_lat": 0.0, "name": "3a181c410a73f0fe1685c02f5fbd1ade", "type": "electric_scooter", "rental_uris": {"ios": "https://dc.lft.to/lastmile_qr_scan", "android": "https://dc.lft.to/lastmile_qr_scan"}, "bike_id": "3a181c410a73f0fe1685c02f5fbd1ade"}, {"lat": 38.90257283333333, "is_disabled": 0, "lon": -76.99516583333333, "is_reserved": 0, "fusion_lon": 0.0, "fusion_lat": 0.0, "name": "829afbef683359203ccad5a26c0b0218", "type": "electric_scooter", "rental_uris": {"ios": "https://dc.lft.to/lastmile_qr_scan", "android": "https://dc.lft.to/lastmile_qr_scan"}, "bike_id": "829afbef683359203ccad5a26c0b0218"}, {"lat": 38.89421016666667, "is_disabled": 0, "lon": -77.05598916666666, "is_reserved": 0, "fusion_lon": 0.0, "fusion_lat": 0.0, "name": "32f5a619982e5dfabe54e42c2b66fcfc", "type": "electric_scooter", "rental_uris": {"ios": "https://dc.lft.to/lastmile_qr_scan", "android": "https://dc.lft.to/lastmile_qr_scan"}, "bike_id": "32f5a619982e5dfabe54e42c2b66fcfc"}, {"lat": 38.88122033333333, "is_disabled": 0, "lon": -77.01342183333334, "is_reserved": 0, "fusion_lon": 0.0, "fusion_lat": 0.0, "name": "6e0c46c8956e2112f133aa8a7ec446fb", "type": "electric_scooter", "rental_uris": {"ios": "https://dc.lft.to/lastmile_qr_scan", "android": "https://dc.lft.to/lastmile_qr_scan"}, "bike_id": "6e0c46c8956e2112f133aa8a7ec446fb"}, {"lat": 38.89840133333333, "is_disabled": 0, "lon": -77.04241566666667, "is_reserved": 0, "fusion_lon": 0.0, "fusion_lat": 0.0, "name": "0a9e0e5b9f017aced07c011869352de7", "type": "electric_scooter", "rental_uris": {"ios": "https://dc.lft.to/lastmile_qr_scan", "android": "https://dc.lft.to/lastmile_qr_scan"}, "bike_id": "0a9e0e5b9f017aced07c011869352de7"}, {"lat": 38.90233383333333, "is_disabled": 0, "lon": -77.046428, "is_reserved": 0, "fusion_lon": 0.0, "fusion_lat": 0.0, "name": "2f4e5b93c0fc5e32f27e7c1bfe802c06", "type": "electric_scooter", "rental_uris": {"ios": "https://dc.lft.to/lastmile_qr_scan", "android": "https://dc.lft.to/lastmile_qr_scan"}, "bike_id": "2f4e5b93c0fc5e32f27e7c1bfe802c06"}, {"lat": 38.89936616666667, "is_disabled": 0, "lon": -77.04331216666667, "is_reserved": 0, "fusion_lon": 0.0, "fusion_lat": 0.0, "name": "8aaddedc3967428c8b9b8d1f532b7ef3", "type": "electric_scooter", "rental_uris": {"ios": "https://dc.lft.to/lastmile_qr_scan", "android": "https://dc.lft.to/lastmile_qr_scan"}, "bike_id": "8aaddedc3967428c8b9b8d1f532b7ef3"}, {"lat": 38.8941395, "is_disabled": 0, "lon": -77.0214025, "is_reserved": 0, "fusion_lon": 0.0, "fusion_lat": 0.0, "name": "80b2f6c4404ffbb17dbbde6509f4bb35", "type": "electric_scooter", "rental_uris": {"ios": "https://dc.lft.to/lastmile_qr_scan", "android": "https://dc.lft.to/lastmile_qr_scan"}, "bike_id": "80b2f6c4404ffbb17dbbde6509f4bb35"}, {"lat": 38.9306565, "is_disabled": 0, "lon": -77.03825066666667, "is_reserved": 0, "fusion_lon": 0.0, "fusion_lat": 0.0, "name": "382d2873e6f00a2dc8c4fc00cf4a90e1", "type": "electric_scooter", "rental_uris": {"ios": "https://dc.lft.to/lastmile_qr_scan", "android": "https://dc.lft.to/lastmile_qr_scan"}, "bike_id": "382d2873e6f00a2dc8c4fc00cf4a90e1"}, {"lat": 38.908691166666664, "is_disabled": 0, "lon": -77.07096783333333, "is_reserved": 0, "fusion_lon": 0.0, "fusion_lat": 0.0, "name": "b9ab673297bf5f572657d6fc137849ac", "type": "electric_scooter", "rental_uris": {"ios": "https://dc.lft.to/lastmile_qr_scan", "android": "https://dc.lft.to/lastmile_qr_scan"}, "bike_id": "b9ab673297bf5f572657d6fc137849ac"}, {"lat": 38.91808133333333, "is_disabled": 0, "lon": -77.033184, "is_reserved": 0, "fusion_lon": 0.0, "fusion_lat": 0.0, "name": "ffa14f1df5f972358da438f923f5a02f", "type": "electric_scooter", "rental_uris": {"ios": "https://dc.lft.to/lastmile_qr_scan", "android": "https://dc.lft.to/lastmile_qr_scan"}, "bike_id": "ffa14f1df5f972358da438f923f5a02f"}, {"lat": 38.90728416666666, "is_disabled": 0, "lon": -77.00705316666667, "is_reserved": 0, "fusion_lon": 0.0, "fusion_lat": 0.0, "name": "e723a4f0297d1397c867b1e363e3d168", "type": "electric_scooter", "rental_uris": {"ios": "https://dc.lft.to/lastmile_qr_scan", "android": "https://dc.lft.to/lastmile_qr_scan"}, "bike_id": "e723a4f0297d1397c867b1e363e3d168"}, {"lat": 38.90564, "is_disabled": 0, "lon": -77.02109633333333, "is_reserved": 0, "fusion_lon": 0.0, "fusion_lat": 0.0, "name": "e432ce784f2fa646a9c70e1169b89eb4", "type": "electric_scooter", "rental_uris": {"ios": "https://dc.lft.to/lastmile_qr_scan", "android": "https://dc.lft.to/lastmile_qr_scan"}, "bike_id": "e432ce784f2fa646a9c70e1169b89eb4"}, {"lat": 38.88598916666667, "is_disabled": 0, "lon": -77.03111166666666, "is_reserved": 0, "fusion_lon": 0.0, "fusion_lat": 0.0, "name": "2ed29cdfaab548352da789cc6277edb9", "type": "electric_scooter", "rental_uris": {"ios": "https://dc.lft.to/lastmile_qr_scan", "android": "https://dc.lft.to/lastmile_qr_scan"}, "bike_id": "2ed29cdfaab548352da789cc6277edb9"}, {"lat": 38.898345666666664, "is_disabled": 0, "lon": -77.0196175, "is_reserved": 0, "fusion_lon": 0.0, "fusion_lat": 0.0, "name": "4e6ffc66e5758d0cc56da062eade59ba", "type": "electric_scooter", "rental_uris": {"ios": "https://dc.lft.to/lastmile_qr_scan", "android": "https://dc.lft.to/lastmile_qr_scan"}, "bike_id": "4e6ffc66e5758d0cc56da062eade59ba"}, {"lat": 38.9168955, "is_disabled": 0, "lon": -77.038523, "is_reserved": 0, "fusion_lon": 0.0, "fusion_lat": 0.0, "name": "4d9ba8385e548a1fe7ae1ffa828bb4ea", "type": "electric_scooter", "rental_uris": {"ios": "https://dc.lft.to/lastmile_qr_scan", "android": "https://dc.lft.to/lastmile_qr_scan"}, "bike_id": "4d9ba8385e548a1fe7ae1ffa828bb4ea"}, {"lat": 38.910188833333336, "is_disabled": 0, "lon": -77.0444175, "is_reserved": 0, "fusion_lon": 0.0, "fusion_lat": 0.0, "name": "28e2312ec9e55afbf95e0b3d98584440", "type": "electric_scooter", "rental_uris": {"ios": "https://dc.lft.to/lastmile_qr_scan", "android": "https://dc.lft.to/lastmile_qr_scan"}, "bike_id": "28e2312ec9e55afbf95e0b3d98584440"}, {"lat": 38.90026783333333, "is_disabled": 0, "lon": -76.98579916666667, "is_reserved": 0, "fusion_lon": 0.0, "fusion_lat": 0.0, "name": "436cadbb118ee2cc969f7a285e8ae010", "type": "electric_scooter", "rental_uris": {"ios": "https://dc.lft.to/lastmile_qr_scan", "android": "https://dc.lft.to/lastmile_qr_scan"}, "bike_id": "436cadbb118ee2cc969f7a285e8ae010"}, {"lat": 38.898510333333334, "is_disabled": 0, "lon": -77.01381433333333, "is_reserved": 0, "fusion_lon": 0.0, "fusion_lat": 0.0, "name": "5e15432fa4ebdb0663b29faa1a18f1b4", "type": "electric_scooter", "rental_uris": {"ios": "https://dc.lft.to/lastmile_qr_scan", "android": "https://dc.lft.to/lastmile_qr_scan"}, "bike_id": "5e15432fa4ebdb0663b29faa1a18f1b4"}, {"lat": 38.91043666666667, "is_disabled": 0, "lon": -76.99746266666666, "is_reserved": 0, "fusion_lon": 0.0, "fusion_lat": 0.0, "name": "fd9b8a8e274f955bdace46bbf95d4861", "type": "electric_scooter", "rental_uris": {"ios": "https://dc.lft.to/lastmile_qr_scan", "android": "https://dc.lft.to/lastmile_qr_scan"}, "bike_id": "fd9b8a8e274f955bdace46bbf95d4861"}, {"lat": 38.9076315, "is_disabled": 0, "lon": -77.07191733333333, "is_reserved": 0, "fusion_lon": 0.0, "fusion_lat": 0.0, "name": "f5e7c08c2656dc543e548e6d84a9f0f9", "type": "electric_scooter", "rental_uris": {"ios": "https://dc.lft.to/lastmile_qr_scan", "android": "https://dc.lft.to/lastmile_qr_scan"}, "bike_id": "f5e7c08c2656dc543e548e6d84a9f0f9"}, {"lat": 38.90509133333333, "is_disabled": 0, "lon": -77.0419735, "is_reserved": 0, "fusion_lon": 0.0, "fusion_lat": 0.0, "name": "f89a85d6e1498e755c7ffdc6cce6318e", "type": "electric_scooter", "rental_uris": {"ios": "https://dc.lft.to/lastmile_qr_scan", "android": "https://dc.lft.to/lastmile_qr_scan"}, "bike_id": "f89a85d6e1498e755c7ffdc6cce6318e"}, {"lat": 38.9006295, "is_disabled": 0, "lon": -77.04748533333333, "is_reserved": 0, "fusion_lon": 0.0, "fusion_lat": 0.0, "name": "b7ed130ad65386350ab0794ed52dbaf9", "type": "electric_scooter", "rental_uris": {"ios": "https://dc.lft.to/lastmile_qr_scan", "android": "https://dc.lft.to/lastmile_qr_scan"}, "bike_id": "b7ed130ad65386350ab0794ed52dbaf9"}, {"lat": 38.928887833333334, "is_disabled": 0, "lon": -77.03304166666666, "is_reserved": 0, "fusion_lon": 0.0, "fusion_lat": 0.0, "name": "66472aa46f15285045c7dfb4578a7fcf", "type": "electric_scooter", "rental_uris": {"ios": "https://dc.lft.to/lastmile_qr_scan", "android": "https://dc.lft.to/lastmile_qr_scan"}, "bike_id": "66472aa46f15285045c7dfb4578a7fcf"}, {"lat": 38.887464333333334, "is_disabled": 0, "lon": -77.02134083333333, "is_reserved": 0, "fusion_lon": 0.0, "fusion_lat": 0.0, "name": "ec2d47b3b00f935fa1043a118a741551", "type": "electric_scooter", "rental_uris": {"ios": "https://dc.lft.to/lastmile_qr_scan", "android": "https://dc.lft.to/lastmile_qr_scan"}, "bike_id": "ec2d47b3b00f935fa1043a118a741551"}, {"lat": 38.90604016666666, "is_disabled": 0, "lon": -77.021114, "is_reserved": 0, "fusion_lon": 0.0, "fusion_lat": 0.0, "name": "5706803ba1a08d55904749c4248bca1f", "type": "electric_scooter", "rental_uris": {"ios": "https://dc.lft.to/lastmile_qr_scan", "android": "https://dc.lft.to/lastmile_qr_scan"}, "bike_id": "5706803ba1a08d55904749c4248bca1f"}, {"lat": 38.90398833333333, "is_disabled": 0, "lon": -77.04341716666667, "is_reserved": 0, "fusion_lon": 0.0, "fusion_lat": 0.0, "name": "3863eadb05e8af20d852c6f7b5ffc9fd", "type": "electric_scooter", "rental_uris": {"ios": "https://dc.lft.to/lastmile_qr_scan", "android": "https://dc.lft.to/lastmile_qr_scan"}, "bike_id": "3863eadb05e8af20d852c6f7b5ffc9fd"}, {"lat": 38.91282266666666, "is_disabled": 0, "lon": -77.02305866666667, "is_reserved": 0, "fusion_lon": 0.0, "fusion_lat": 0.0, "name": "21092edc152507bacb8be06fd58eef0f", "type": "electric_scooter", "rental_uris": {"ios": "https://dc.lft.to/lastmile_qr_scan", "android": "https://dc.lft.to/lastmile_qr_scan"}, "bike_id": "21092edc152507bacb8be06fd58eef0f"}, {"lat": 38.900208166666665, "is_disabled": 0, "lon": -77.0447645, "is_reserved": 0, "fusion_lon": 0.0, "fusion_lat": 0.0, "name": "01f8e0edf8442e149d792e9d862de0e0", "type": "electric_scooter", "rental_uris": {"ios": "https://dc.lft.to/lastmile_qr_scan", "android": "https://dc.lft.to/lastmile_qr_scan"}, "bike_id": "01f8e0edf8442e149d792e9d862de0e0"}, {"lat": 38.90135, "is_disabled": 0, "lon": -77.04389566666667, "is_reserved": 0, "fusion_lon": 0.0, "fusion_lat": 0.0, "name": "7176a82b5c8f1ee4ae560e5c6ff05398", "type": "electric_scooter", "rental_uris": {"ios": "https://dc.lft.to/lastmile_qr_scan", "android": "https://dc.lft.to/lastmile_qr_scan"}, "bike_id": "7176a82b5c8f1ee4ae560e5c6ff05398"}, {"lat": 38.9344855, "is_disabled": 0, "lon": -77.0297415, "is_reserved": 0, "fusion_lon": 0.0, "fusion_lat": 0.0, "name": "60337afe7bf127ab9131a2851524b928", "type": "electric_scooter", "rental_uris": {"ios": "https://dc.lft.to/lastmile_qr_scan", "android": "https://dc.lft.to/lastmile_qr_scan"}, "bike_id": "60337afe7bf127ab9131a2851524b928"}, {"lat": 38.96221966666667, "is_disabled": 0, "lon": -77.02779966666667, "is_reserved": 0, "fusion_lon": 0.0, "fusion_lat": 0.0, "name": "b8c43e2d6eceaaf7a86d2e9c9a264851", "type": "electric_scooter", "rental_uris": {"ios": "https://dc.lft.to/lastmile_qr_scan", "android": "https://dc.lft.to/lastmile_qr_scan"}, "bike_id": "b8c43e2d6eceaaf7a86d2e9c9a264851"}, {"lat": 38.903296166666664, "is_disabled": 0, "lon": -77.03828066666667, "is_reserved": 0, "fusion_lon": 0.0, "fusion_lat": 0.0, "name": "0dc65f01d946620f5fc2e5f6710c34dc", "type": "electric_scooter", "rental_uris": {"ios": "https://dc.lft.to/lastmile_qr_scan", "android": "https://dc.lft.to/lastmile_qr_scan"}, "bike_id": "0dc65f01d946620f5fc2e5f6710c34dc"}, {"lat": 38.923661333333335, "is_disabled": 0, "lon": -77.07232666666667, "is_reserved": 0, "fusion_lon": 0.0, "fusion_lat": 0.0, "name": "8a0b6e58d61088f37dae20d6b1834de1", "type": "electric_scooter", "rental_uris": {"ios": "https://dc.lft.to/lastmile_qr_scan", "android": "https://dc.lft.to/lastmile_qr_scan"}, "bike_id": "8a0b6e58d61088f37dae20d6b1834de1"}, {"lat": 38.892190166666666, "is_disabled": 0, "lon": -77.0450575, "is_reserved": 0, "fusion_lon": 0.0, "fusion_lat": 0.0, "name": "303db0f3f1480b1727f65bd2afb5196f", "type": "electric_scooter", "rental_uris": {"ios": "https://dc.lft.to/lastmile_qr_scan", "android": "https://dc.lft.to/lastmile_qr_scan"}, "bike_id": "303db0f3f1480b1727f65bd2afb5196f"}, {"lat": 38.92904216666667, "is_disabled": 0, "lon": -77.03471816666666, "is_reserved": 0, "fusion_lon": 0.0, "fusion_lat": 0.0, "name": "8c9ee783d2fdaadc137404098f97aea3", "type": "electric_scooter", "rental_uris": {"ios": "https://dc.lft.to/lastmile_qr_scan", "android": "https://dc.lft.to/lastmile_qr_scan"}, "bike_id": "8c9ee783d2fdaadc137404098f97aea3"}, {"lat": 38.8789335, "is_disabled": 0, "lon": -76.93528166666667, "is_reserved": 0, "fusion_lon": 0.0, "fusion_lat": 0.0, "name": "384b96ab6a8918f8f5a78f2069d8cb91", "type": "electric_scooter", "rental_uris": {"ios": "https://dc.lft.to/lastmile_qr_scan", "android": "https://dc.lft.to/lastmile_qr_scan"}, "bike_id": "384b96ab6a8918f8f5a78f2069d8cb91"}, {"lat": 38.917089, "is_disabled": 0, "lon": -77.02966416666666, "is_reserved": 0, "fusion_lon": 0.0, "fusion_lat": 0.0, "name": "1f35738f37d171aed0c254818ea23f8c", "type": "electric_scooter", "rental_uris": {"ios": "https://dc.lft.to/lastmile_qr_scan", "android": "https://dc.lft.to/lastmile_qr_scan"}, "bike_id": "1f35738f37d171aed0c254818ea23f8c"}, {"lat": 38.917077, "is_disabled": 0, "lon": -77.02414666666667, "is_reserved": 0, "fusion_lon": 0.0, "fusion_lat": 0.0, "name": "bdc6108692418018d2939752a39e4c8d", "type": "electric_scooter", "rental_uris": {"ios": "https://dc.lft.to/lastmile_qr_scan", "android": "https://dc.lft.to/lastmile_qr_scan"}, "bike_id": "bdc6108692418018d2939752a39e4c8d"}, {"lat": 38.9058995, "is_disabled": 0, "lon": -76.98544233333334, "is_reserved": 0, "fusion_lon": 0.0, "fusion_lat": 0.0, "name": "7445f6375cfc9999aaf36afc925c1bbb", "type": "electric_scooter", "rental_uris": {"ios": "https://dc.lft.to/lastmile_qr_scan", "android": "https://dc.lft.to/lastmile_qr_scan"}, "bike_id": "7445f6375cfc9999aaf36afc925c1bbb"}, {"lat": 38.919483666666665, "is_disabled": 0, "lon": -77.02497833333334, "is_reserved": 0, "fusion_lon": 0.0, "fusion_lat": 0.0, "name": "d5a875c44f95ce18c0399a80fdb34fa4", "type": "electric_scooter", "rental_uris": {"ios": "https://dc.lft.to/lastmile_qr_scan", "android": "https://dc.lft.to/lastmile_qr_scan"}, "bike_id": "d5a875c44f95ce18c0399a80fdb34fa4"}, {"lat": 38.8985345, "is_disabled": 0, "lon": -77.0073865, "is_reserved": 0, "fusion_lon": 0.0, "fusion_lat": 0.0, "name": "8a092f1b6c718ed4c9af4479855fcfd5", "type": "electric_scooter", "rental_uris": {"ios": "https://dc.lft.to/lastmile_qr_scan", "android": "https://dc.lft.to/lastmile_qr_scan"}, "bike_id": "8a092f1b6c718ed4c9af4479855fcfd5"}, {"lat": 38.9081845, "is_disabled": 0, "lon": -77.03558383333333, "is_reserved": 0, "fusion_lon": 0.0, "fusion_lat": 0.0, "name": "d97f949877bbbaf2860db38ad4c1ea90", "type": "electric_scooter", "rental_uris": {"ios": "https://dc.lft.to/lastmile_qr_scan", "android": "https://dc.lft.to/lastmile_qr_scan"}, "bike_id": "d97f949877bbbaf2860db38ad4c1ea90"}, {"lat": 38.961280333333335, "is_disabled": 0, "lon": -77.02786883333333, "is_reserved": 0, "fusion_lon": 0.0, "fusion_lat": 0.0, "name": "b30a8ab842101cf7772078bcefc02de5", "type": "electric_scooter", "rental_uris": {"ios": "https://dc.lft.to/lastmile_qr_scan", "android": "https://dc.lft.to/lastmile_qr_scan"}, "bike_id": "b30a8ab842101cf7772078bcefc02de5"}, {"lat": 38.82205883333334, "is_disabled": 0, "lon": -76.977048, "is_reserved": 0, "fusion_lon": 0.0, "fusion_lat": 0.0, "name": "b8fd97ebddba684a606d39aa948a4bda", "type": "electric_bike", "rental_uris": {"ios": "https://dc.lft.to/lastmile_qr_scan", "android": "https://dc.lft.to/lastmile_qr_scan"}, "bike_id": "b8fd97ebddba684a606d39aa948a4bda"}, {"lat": 38.92101383333333, "is_disabled": 0, "lon": -77.04372616666667, "is_reserved": 0, "fusion_lon": 0.0, "fusion_lat": 0.0, "name": "76a54994a906c8d3334f2d4149a5fa74", "type": "electric_scooter", "rental_uris": {"ios": "https://dc.lft.to/lastmile_qr_scan", "android": "https://dc.lft.to/lastmile_qr_scan"}, "bike_id": "76a54994a906c8d3334f2d4149a5fa74"}, {"lat": 38.93260883333333, "is_disabled": 0, "lon": -77.06569766666667, "is_reserved": 0, "fusion_lon": 0.0, "fusion_lat": 0.0, "name": "d42be962b3708c3a2c9b9ce6fad802d4", "type": "electric_bike", "rental_uris": {"ios": "https://dc.lft.to/lastmile_qr_scan", "android": "https://dc.lft.to/lastmile_qr_scan"}, "bike_id": "d42be962b3708c3a2c9b9ce6fad802d4"}, {"lat": 38.93031716666667, "is_disabled": 0, "lon": -77.02630983333333, "is_reserved": 0, "fusion_lon": 0.0, "fusion_lat": 0.0, "name": "62a4b0fd350c6afe4f3e9242c89aa53d", "type": "electric_scooter", "rental_uris": {"ios": "https://dc.lft.to/lastmile_qr_scan", "android": "https://dc.lft.to/lastmile_qr_scan"}, "bike_id": "62a4b0fd350c6afe4f3e9242c89aa53d"}, {"lat": 38.897997833333335, "is_disabled": 0, "lon": -77.03184233333333, "is_reserved": 0, "fusion_lon": 0.0, "fusion_lat": 0.0, "name": "1b80fdc8a44db0f6b48b37423f3690c1", "type": "electric_scooter", "rental_uris": {"ios": "https://dc.lft.to/lastmile_qr_scan", "android": "https://dc.lft.to/lastmile_qr_scan"}, "bike_id": "1b80fdc8a44db0f6b48b37423f3690c1"}, {"lat": 38.9275925, "is_disabled": 0, "lon": -77.03660766666667, "is_reserved": 0, "fusion_lon": 0.0, "fusion_lat": 0.0, "name": "526b69cda3eccfcc481ea4fb12f823c7", "type": "electric_scooter", "rental_uris": {"ios": "https://dc.lft.to/lastmile_qr_scan", "android": "https://dc.lft.to/lastmile_qr_scan"}, "bike_id": "526b69cda3eccfcc481ea4fb12f823c7"}, {"lat": 38.9039205, "is_disabled": 0, "lon": -77.04501016666667, "is_reserved": 0, "fusion_lon": 0.0, "fusion_lat": 0.0, "name": "ea6af38fdec83a4d78b92c0f63c6f6d9", "type": "electric_scooter", "rental_uris": {"ios": "https://dc.lft.to/lastmile_qr_scan", "android": "https://dc.lft.to/lastmile_qr_scan"}, "bike_id": "ea6af38fdec83a4d78b92c0f63c6f6d9"}, {"lat": 38.898179666666664, "is_disabled": 0, "lon": -77.04376116666667, "is_reserved": 0, "fusion_lon": 0.0, "fusion_lat": 0.0, "name": "d197d7765f84a5e3651371501a6dfdf7", "type": "electric_scooter", "rental_uris": {"ios": "https://dc.lft.to/lastmile_qr_scan", "android": "https://dc.lft.to/lastmile_qr_scan"}, "bike_id": "d197d7765f84a5e3651371501a6dfdf7"}, {"lat": 38.90358966666667, "is_disabled": 0, "lon": -77.05900233333334, "is_reserved": 0, "fusion_lon": 0.0, "fusion_lat": 0.0, "name": "43c247b6cbf4f9aaca5243e2e9ceb63e", "type": "electric_scooter", "rental_uris": {"ios": "https://dc.lft.to/lastmile_qr_scan", "android": "https://dc.lft.to/lastmile_qr_scan"}, "bike_id": "43c247b6cbf4f9aaca5243e2e9ceb63e"}, {"lat": 38.90375866666667, "is_disabled": 0, "lon": -77.03120266666667, "is_reserved": 0, "fusion_lon": 0.0, "fusion_lat": 0.0, "name": "e2e6737e4d07dd42bb0898d8d240893f", "type": "electric_scooter", "rental_uris": {"ios": "https://dc.lft.to/lastmile_qr_scan", "android": "https://dc.lft.to/lastmile_qr_scan"}, "bike_id": "e2e6737e4d07dd42bb0898d8d240893f"}, {"lat": 38.896224, "is_disabled": 0, "lon": -76.9984715, "is_reserved": 0, "fusion_lon": 0.0, "fusion_lat": 0.0, "name": "29a27778bb645501ea8ff1a95b31b622", "type": "electric_scooter", "rental_uris": {"ios": "https://dc.lft.to/lastmile_qr_scan", "android": "https://dc.lft.to/lastmile_qr_scan"}, "bike_id": "29a27778bb645501ea8ff1a95b31b622"}, {"lat": 38.88379466666667, "is_disabled": 0, "lon": -76.995193, "is_reserved": 0, "fusion_lon": 0.0, "fusion_lat": 0.0, "name": "ace8c3b373ebc0d5140614f09a7d0d58", "type": "electric_scooter", "rental_uris": {"ios": "https://dc.lft.to/lastmile_qr_scan", "android": "https://dc.lft.to/lastmile_qr_scan"}, "bike_id": "ace8c3b373ebc0d5140614f09a7d0d58"}, {"lat": 38.92243633333333, "is_disabled": 0, "lon": -77.038972, "is_reserved": 0, "fusion_lon": 0.0, "fusion_lat": 0.0, "name": "50cceb13fe240926734260835204c843", "type": "electric_scooter", "rental_uris": {"ios": "https://dc.lft.to/lastmile_qr_scan", "android": "https://dc.lft.to/lastmile_qr_scan"}, "bike_id": "50cceb13fe240926734260835204c843"}, {"lat": 38.89831483333333, "is_disabled": 0, "lon": -77.04547133333334, "is_reserved": 0, "fusion_lon": 0.0, "fusion_lat": 0.0, "name": "7a6a26ede1f5fb5f19fb1821d408a59c", "type": "electric_scooter", "rental_uris": {"ios": "https://dc.lft.to/lastmile_qr_scan", "android": "https://dc.lft.to/lastmile_qr_scan"}, "bike_id": "7a6a26ede1f5fb5f19fb1821d408a59c"}, {"lat": 38.90257783333333, "is_disabled": 0, "lon": -77.05205366666667, "is_reserved": 0, "fusion_lon": 0.0, "fusion_lat": 0.0, "name": "d702d4e3ccd2a9c90bcad002394a6e42", "type": "electric_scooter", "rental_uris": {"ios": "https://dc.lft.to/lastmile_qr_scan", "android": "https://dc.lft.to/lastmile_qr_scan"}, "bike_id": "d702d4e3ccd2a9c90bcad002394a6e42"}, {"lat": 38.92657633333334, "is_disabled": 0, "lon": -77.037294, "is_reserved": 0, "fusion_lon": 0.0, "fusion_lat": 0.0, "name": "2def2b1988ba58f863c31605446b9618", "type": "electric_scooter", "rental_uris": {"ios": "https://dc.lft.to/lastmile_qr_scan", "android": "https://dc.lft.to/lastmile_qr_scan"}, "bike_id": "2def2b1988ba58f863c31605446b9618"}, {"lat": 38.914091, "is_disabled": 0, "lon": -77.03413016666667, "is_reserved": 0, "fusion_lon": 0.0, "fusion_lat": 0.0, "name": "6bf9a0e13f694392cadb2e1de8b93c17", "type": "electric_scooter", "rental_uris": {"ios": "https://dc.lft.to/lastmile_qr_scan", "android": "https://dc.lft.to/lastmile_qr_scan"}, "bike_id": "6bf9a0e13f694392cadb2e1de8b93c17"}, {"lat": 38.923018166666665, "is_disabled": 0, "lon": -77.02348316666667, "is_reserved": 0, "fusion_lon": 0.0, "fusion_lat": 0.0, "name": "1822d471972bcd3ed387fb9f74687616", "type": "electric_bike", "rental_uris": {"ios": "https://dc.lft.to/lastmile_qr_scan", "android": "https://dc.lft.to/lastmile_qr_scan"}, "bike_id": "1822d471972bcd3ed387fb9f74687616"}, {"lat": 38.92660083333333, "is_disabled": 0, "lon": -77.02281766666667, "is_reserved": 0, "fusion_lon": 0.0, "fusion_lat": 0.0, "name": "a9d613e5ff5637cd5d8904a1418a66c4", "type": "electric_scooter", "rental_uris": {"ios": "https://dc.lft.to/lastmile_qr_scan", "android": "https://dc.lft.to/lastmile_qr_scan"}, "bike_id": "a9d613e5ff5637cd5d8904a1418a66c4"}, {"lat": 38.83432066666667, "is_disabled": 0, "lon": -77.0038975, "is_reserved": 0, "fusion_lon": 0.0, "fusion_lat": 0.0, "name": "4c72308cdc29fb0f5acc8782d21107c0", "type": "electric_bike", "rental_uris": {"ios": "https://dc.lft.to/lastmile_qr_scan", "android": "https://dc.lft.to/lastmile_qr_scan"}, "bike_id": "4c72308cdc29fb0f5acc8782d21107c0"}, {"lat": 38.923274166666666, "is_disabled": 0, "lon": -77.01963483333333, "is_reserved": 0, "fusion_lon": 0.0, "fusion_lat": 0.0, "name": "598e432ced166fd3bbe2b838cc570192", "type": "electric_scooter", "rental_uris": {"ios": "https://dc.lft.to/lastmile_qr_scan", "android": "https://dc.lft.to/lastmile_qr_scan"}, "bike_id": "598e432ced166fd3bbe2b838cc570192"}, {"lat": 38.8946225, "is_disabled": 0, "lon": -77.02315683333333, "is_reserved": 0, "fusion_lon": 0.0, "fusion_lat": 0.0, "name": "5b46c00e3df308e5c6dcbd8998d5655d", "type": "electric_scooter", "rental_uris": {"ios": "https://dc.lft.to/lastmile_qr_scan", "android": "https://dc.lft.to/lastmile_qr_scan"}, "bike_id": "5b46c00e3df308e5c6dcbd8998d5655d"}, {"lat": 38.923733666666664, "is_disabled": 0, "lon": -77.051571, "is_reserved": 0, "fusion_lon": 0.0, "fusion_lat": 0.0, "name": "1e65c38f997a940f77df35cc86460ccf", "type": "electric_scooter", "rental_uris": {"ios": "https://dc.lft.to/lastmile_qr_scan", "android": "https://dc.lft.to/lastmile_qr_scan"}, "bike_id": "1e65c38f997a940f77df35cc86460ccf"}, {"lat": 38.83101633333333, "is_disabled": 0, "lon": -77.11285383333333, "is_reserved": 0, "fusion_lon": 0.0, "fusion_lat": 0.0, "name": "1e72bfe017af2f2f4d5a2e5d4b4de47b", "type": "electric_bike", "rental_uris": {"ios": "https://dc.lft.to/lastmile_qr_scan", "android": "https://dc.lft.to/lastmile_qr_scan"}, "bike_id": "1e72bfe017af2f2f4d5a2e5d4b4de47b"}, {"lat": 38.90272366666667, "is_disabled": 0, "lon": -77.03837316666667, "is_reserved": 0, "fusion_lon": 0.0, "fusion_lat": 0.0, "name": "c98c002c874a6e81e77250dd02b3d686", "type": "electric_scooter", "rental_uris": {"ios": "https://dc.lft.to/lastmile_qr_scan", "android": "https://dc.lft.to/lastmile_qr_scan"}, "bike_id": "c98c002c874a6e81e77250dd02b3d686"}, {"lat": 38.90141933333334, "is_disabled": 0, "lon": -77.03610233333333, "is_reserved": 0, "fusion_lon": 0.0, "fusion_lat": 0.0, "name": "d325c5f545a9f451e9ba16fac179e42f", "type": "electric_scooter", "rental_uris": {"ios": "https://dc.lft.to/lastmile_qr_scan", "android": "https://dc.lft.to/lastmile_qr_scan"}, "bike_id": "d325c5f545a9f451e9ba16fac179e42f"}, {"lat": 38.958776, "is_disabled": 0, "lon": -77.01038166666666, "is_reserved": 0, "fusion_lon": 0.0, "fusion_lat": 0.0, "name": "4c3e6802740b366f0e45122d4c34096f", "type": "electric_bike", "rental_uris": {"ios": "https://dc.lft.to/lastmile_qr_scan", "android": "https://dc.lft.to/lastmile_qr_scan"}, "bike_id": "4c3e6802740b366f0e45122d4c34096f"}, {"lat": 38.895473, "is_disabled": 0, "lon": -77.0091355, "is_reserved": 0, "fusion_lon": 0.0, "fusion_lat": 0.0, "name": "71ff0e969f7fab308823bb88218b5cab", "type": "electric_scooter", "rental_uris": {"ios": "https://dc.lft.to/lastmile_qr_scan", "android": "https://dc.lft.to/lastmile_qr_scan"}, "bike_id": "71ff0e969f7fab308823bb88218b5cab"}, {"lat": 38.924321666666664, "is_disabled": 0, "lon": -77.04015133333333, "is_reserved": 0, "fusion_lon": 0.0, "fusion_lat": 0.0, "name": "984e31c20fbaaa377965b1e99f1c7e17", "type": "electric_scooter", "rental_uris": {"ios": "https://dc.lft.to/lastmile_qr_scan", "android": "https://dc.lft.to/lastmile_qr_scan"}, "bike_id": "984e31c20fbaaa377965b1e99f1c7e17"}, {"lat": 38.914020666666666, "is_disabled": 0, "lon": -77.03210116666666, "is_reserved": 0, "fusion_lon": 0.0, "fusion_lat": 0.0, "name": "b42983670c7e9ca3c5d839e4cc5254cb", "type": "electric_bike", "rental_uris": {"ios": "https://dc.lft.to/lastmile_qr_scan", "android": "https://dc.lft.to/lastmile_qr_scan"}, "bike_id": "b42983670c7e9ca3c5d839e4cc5254cb"}, {"lat": 38.90774783333333, "is_disabled": 0, "lon": -77.02432233333333, "is_reserved": 0, "fusion_lon": 0.0, "fusion_lat": 0.0, "name": "0b82dd073eb7330d5b44d44add21341a", "type": "electric_scooter", "rental_uris": {"ios": "https://dc.lft.to/lastmile_qr_scan", "android": "https://dc.lft.to/lastmile_qr_scan"}, "bike_id": "0b82dd073eb7330d5b44d44add21341a"}, {"lat": 38.85509016666666, "is_disabled": 0, "lon": -76.9863805, "is_reserved": 0, "fusion_lon": 0.0, "fusion_lat": 0.0, "name": "ebaa741a08dd394d672b4430712d2f19", "type": "electric_scooter", "rental_uris": {"ios": "https://dc.lft.to/lastmile_qr_scan", "android": "https://dc.lft.to/lastmile_qr_scan"}, "bike_id": "ebaa741a08dd394d672b4430712d2f19"}, {"lat": 38.918199666666666, "is_disabled": 0, "lon": -77.031734, "is_reserved": 0, "fusion_lon": 0.0, "fusion_lat": 0.0, "name": "cbaa11fb1b09cc1f7950aa8f2590aed4", "type": "electric_scooter", "rental_uris": {"ios": "https://dc.lft.to/lastmile_qr_scan", "android": "https://dc.lft.to/lastmile_qr_scan"}, "bike_id": "cbaa11fb1b09cc1f7950aa8f2590aed4"}, {"lat": 38.90316966666666, "is_disabled": 0, "lon": -77.01870883333333, "is_reserved": 0, "fusion_lon": 0.0, "fusion_lat": 0.0, "name": "77ea71c82bd5ef3bac2058fb5117bf68", "type": "electric_scooter", "rental_uris": {"ios": "https://dc.lft.to/lastmile_qr_scan", "android": "https://dc.lft.to/lastmile_qr_scan"}, "bike_id": "77ea71c82bd5ef3bac2058fb5117bf68"}, {"lat": 38.877073833333334, "is_disabled": 0, "lon": -77.01766283333333, "is_reserved": 0, "fusion_lon": 0.0, "fusion_lat": 0.0, "name": "c84e04eaaa500653daf10dc784aaa675", "type": "electric_scooter", "rental_uris": {"ios": "https://dc.lft.to/lastmile_qr_scan", "android": "https://dc.lft.to/lastmile_qr_scan"}, "bike_id": "c84e04eaaa500653daf10dc784aaa675"}, {"lat": 38.9268015, "is_disabled": 0, "lon": -77.01576483333334, "is_reserved": 0, "fusion_lon": 0.0, "fusion_lat": 0.0, "name": "3724eb62fe1b070ddd3495c5f1a715ed", "type": "electric_scooter", "rental_uris": {"ios": "https://dc.lft.to/lastmile_qr_scan", "android": "https://dc.lft.to/lastmile_qr_scan"}, "bike_id": "3724eb62fe1b070ddd3495c5f1a715ed"}, {"lat": 38.9137995, "is_disabled": 0, "lon": -77.00909733333333, "is_reserved": 0, "fusion_lon": 0.0, "fusion_lat": 0.0, "name": "b9edda170153469dbba46e7d74302d3f", "type": "electric_scooter", "rental_uris": {"ios": "https://dc.lft.to/lastmile_qr_scan", "android": "https://dc.lft.to/lastmile_qr_scan"}, "bike_id": "b9edda170153469dbba46e7d74302d3f"}, {"lat": 38.895477, "is_disabled": 0, "lon": -76.98237816666666, "is_reserved": 0, "fusion_lon": 0.0, "fusion_lat": 0.0, "name": "4cfbc5cd0371f1a44d6c81b91b01a9c3", "type": "electric_scooter", "rental_uris": {"ios": "https://dc.lft.to/lastmile_qr_scan", "android": "https://dc.lft.to/lastmile_qr_scan"}, "bike_id": "4cfbc5cd0371f1a44d6c81b91b01a9c3"}, {"lat": 38.92038933333333, "is_disabled": 0, "lon": -77.02584683333333, "is_reserved": 0, "fusion_lon": 0.0, "fusion_lat": 0.0, "name": "eee80e47cd5ea7ddcb449b3d890481b8", "type": "electric_scooter", "rental_uris": {"ios": "https://dc.lft.to/lastmile_qr_scan", "android": "https://dc.lft.to/lastmile_qr_scan"}, "bike_id": "eee80e47cd5ea7ddcb449b3d890481b8"}, {"lat": 38.923596333333336, "is_disabled": 0, "lon": -77.050429, "is_reserved": 0, "fusion_lon": 0.0, "fusion_lat": 0.0, "name": "fd5d169e4f0f770db7be485e89a6e0cb", "type": "electric_scooter", "rental_uris": {"ios": "https://dc.lft.to/lastmile_qr_scan", "android": "https://dc.lft.to/lastmile_qr_scan"}, "bike_id": "fd5d169e4f0f770db7be485e89a6e0cb"}, {"lat": 38.918979666666665, "is_disabled": 0, "lon": -77.03457366666666, "is_reserved": 0, "fusion_lon": 0.0, "fusion_lat": 0.0, "name": "408ab20fd700dc636ee131c9fc1536d8", "type": "electric_scooter", "rental_uris": {"ios": "https://dc.lft.to/lastmile_qr_scan", "android": "https://dc.lft.to/lastmile_qr_scan"}, "bike_id": "408ab20fd700dc636ee131c9fc1536d8"}, {"lat": 38.90230566666666, "is_disabled": 0, "lon": -77.043502, "is_reserved": 0, "fusion_lon": 0.0, "fusion_lat": 0.0, "name": "6bdb31f53ac690f2e955424d32aa0386", "type": "electric_scooter", "rental_uris": {"ios": "https://dc.lft.to/lastmile_qr_scan", "android": "https://dc.lft.to/lastmile_qr_scan"}, "bike_id": "6bdb31f53ac690f2e955424d32aa0386"}, {"lat": 38.897253166666665, "is_disabled": 0, "lon": -76.92588166666667, "is_reserved": 0, "fusion_lon": 0.0, "fusion_lat": 0.0, "name": "6ea550e02594db78e8b0c936bdd22d9f", "type": "electric_scooter", "rental_uris": {"ios": "https://dc.lft.to/lastmile_qr_scan", "android": "https://dc.lft.to/lastmile_qr_scan"}, "bike_id": "6ea550e02594db78e8b0c936bdd22d9f"}, {"lat": 38.9265775, "is_disabled": 0, "lon": -77.02602716666667, "is_reserved": 0, "fusion_lon": 0.0, "fusion_lat": 0.0, "name": "5cdb2a4673db37b5a7f7ab9fc40eefac", "type": "electric_scooter", "rental_uris": {"ios": "https://dc.lft.to/lastmile_qr_scan", "android": "https://dc.lft.to/lastmile_qr_scan"}, "bike_id": "5cdb2a4673db37b5a7f7ab9fc40eefac"}, {"lat": 38.94277066666667, "is_disabled": 0, "lon": -77.02927483333333, "is_reserved": 0, "fusion_lon": 0.0, "fusion_lat": 0.0, "name": "34a6595cce2dd0e3841e41095bd12879", "type": "electric_scooter", "rental_uris": {"ios": "https://dc.lft.to/lastmile_qr_scan", "android": "https://dc.lft.to/lastmile_qr_scan"}, "bike_id": "34a6595cce2dd0e3841e41095bd12879"}, {"lat": 38.923239, "is_disabled": 0, "lon": -77.03907866666667, "is_reserved": 0, "fusion_lon": 0.0, "fusion_lat": 0.0, "name": "3890b00f95f4c71fff14368f4816aa3d", "type": "electric_scooter", "rental_uris": {"ios": "https://dc.lft.to/lastmile_qr_scan", "android": "https://dc.lft.to/lastmile_qr_scan"}, "bike_id": "3890b00f95f4c71fff14368f4816aa3d"}, {"lat": 38.944481, "is_disabled": 0, "lon": -77.0234095, "is_reserved": 0, "fusion_lon": 0.0, "fusion_lat": 0.0, "name": "8e9a214394ccfa713755706ff4d8a836", "type": "electric_scooter", "rental_uris": {"ios": "https://dc.lft.to/lastmile_qr_scan", "android": "https://dc.lft.to/lastmile_qr_scan"}, "bike_id": "8e9a214394ccfa713755706ff4d8a836"}, {"lat": 38.90113633333333, "is_disabled": 0, "lon": -77.01785033333333, "is_reserved": 0, "fusion_lon": 0.0, "fusion_lat": 0.0, "name": "a0f5dc5e7ad9db315f6bfec5bb83fbe8", "type": "electric_scooter", "rental_uris": {"ios": "https://dc.lft.to/lastmile_qr_scan", "android": "https://dc.lft.to/lastmile_qr_scan"}, "bike_id": "a0f5dc5e7ad9db315f6bfec5bb83fbe8"}, {"lat": 38.9967065, "is_disabled": 0, "lon": -77.03816133333333, "is_reserved": 0, "fusion_lon": 0.0, "fusion_lat": 0.0, "name": "bff0ecce6b5995996bbdb101875ced42", "type": "electric_bike", "rental_uris": {"ios": "https://dc.lft.to/lastmile_qr_scan", "android": "https://dc.lft.to/lastmile_qr_scan"}, "bike_id": "bff0ecce6b5995996bbdb101875ced42"}, {"lat": 38.92720216666667, "is_disabled": 0, "lon": -77.05988016666667, "is_reserved": 0, "fusion_lon": 0.0, "fusion_lat": 0.0, "name": "7678968cc37f84f283f62c058911a241", "type": "electric_scooter", "rental_uris": {"ios": "https://dc.lft.to/lastmile_qr_scan", "android": "https://dc.lft.to/lastmile_qr_scan"}, "bike_id": "7678968cc37f84f283f62c058911a241"}, {"lat": 38.9351935, "is_disabled": 0, "lon": -77.0541995, "is_reserved": 0, "fusion_lon": 0.0, "fusion_lat": 0.0, "name": "d11fc29804ca53004f397269f54897bd", "type": "electric_bike", "rental_uris": {"ios": "https://dc.lft.to/lastmile_qr_scan", "android": "https://dc.lft.to/lastmile_qr_scan"}, "bike_id": "d11fc29804ca53004f397269f54897bd"}, {"lat": 38.9951125, "is_disabled": 0, "lon": -77.00724016666666, "is_reserved": 0, "fusion_lon": 0.0, "fusion_lat": 0.0, "name": "09884fb74db052260c2ccb661ea07e5f", "type": "electric_bike", "rental_uris": {"ios": "https://dc.lft.to/lastmile_qr_scan", "android": "https://dc.lft.to/lastmile_qr_scan"}, "bike_id": "09884fb74db052260c2ccb661ea07e5f"}, {"lat": 38.91566483333333, "is_disabled": 0, "lon": -77.0318905, "is_reserved": 0, "fusion_lon": 0.0, "fusion_lat": 0.0, "name": "e859843bdcb4f1d8b1f5bdfc6931a308", "type": "electric_scooter", "rental_uris": {"ios": "https://dc.lft.to/lastmile_qr_scan", "android": "https://dc.lft.to/lastmile_qr_scan"}, "bike_id": "e859843bdcb4f1d8b1f5bdfc6931a308"}, {"lat": 38.935364166666666, "is_disabled": 0, "lon": -77.03088216666667, "is_reserved": 0, "fusion_lon": 0.0, "fusion_lat": 0.0, "name": "4d6adf5044f7b13ba5370e27630a1b2c", "type": "electric_scooter", "rental_uris": {"ios": "https://dc.lft.to/lastmile_qr_scan", "android": "https://dc.lft.to/lastmile_qr_scan"}, "bike_id": "4d6adf5044f7b13ba5370e27630a1b2c"}, {"lat": 38.91564066666667, "is_disabled": 0, "lon": -77.00436883333333, "is_reserved": 0, "fusion_lon": 0.0, "fusion_lat": 0.0, "name": "bad783b0d8fb2fd982e72a0820d51e4b", "type": "electric_scooter", "rental_uris": {"ios": "https://dc.lft.to/lastmile_qr_scan", "android": "https://dc.lft.to/lastmile_qr_scan"}, "bike_id": "bad783b0d8fb2fd982e72a0820d51e4b"}, {"lat": 38.900149166666665, "is_disabled": 0, "lon": -77.04650583333333, "is_reserved": 0, "fusion_lon": 0.0, "fusion_lat": 0.0, "name": "7f936283cf873e5a5b7147c6feccf535", "type": "electric_scooter", "rental_uris": {"ios": "https://dc.lft.to/lastmile_qr_scan", "android": "https://dc.lft.to/lastmile_qr_scan"}, "bike_id": "7f936283cf873e5a5b7147c6feccf535"}, {"lat": 38.90119833333333, "is_disabled": 0, "lon": -77.03446, "is_reserved": 0, "fusion_lon": 0.0, "fusion_lat": 0.0, "name": "61b1af084d6e3624a2373f0ea091716d", "type": "electric_scooter", "rental_uris": {"ios": "https://dc.lft.to/lastmile_qr_scan", "android": "https://dc.lft.to/lastmile_qr_scan"}, "bike_id": "61b1af084d6e3624a2373f0ea091716d"}, {"lat": 38.892201, "is_disabled": 0, "lon": -77.02414133333333, "is_reserved": 0, "fusion_lon": 0.0, "fusion_lat": 0.0, "name": "0ba6f80a94cd5f5c307a6a7431cbeffa", "type": "electric_scooter", "rental_uris": {"ios": "https://dc.lft.to/lastmile_qr_scan", "android": "https://dc.lft.to/lastmile_qr_scan"}, "bike_id": "0ba6f80a94cd5f5c307a6a7431cbeffa"}, {"lat": 38.90611333333333, "is_disabled": 0, "lon": -77.00785083333334, "is_reserved": 0, "fusion_lon": 0.0, "fusion_lat": 0.0, "name": "4c3a5efca71ce1acae489a61ceb43272", "type": "electric_scooter", "rental_uris": {"ios": "https://dc.lft.to/lastmile_qr_scan", "android": "https://dc.lft.to/lastmile_qr_scan"}, "bike_id": "4c3a5efca71ce1acae489a61ceb43272"}, {"lat": 38.8975115, "is_disabled": 0, "lon": -77.04492716666667, "is_reserved": 0, "fusion_lon": 0.0, "fusion_lat": 0.0, "name": "781f46e8740dc2f537d8628f5d06cbf6", "type": "electric_scooter", "rental_uris": {"ios": "https://dc.lft.to/lastmile_qr_scan", "android": "https://dc.lft.to/lastmile_qr_scan"}, "bike_id": "781f46e8740dc2f537d8628f5d06cbf6"}, {"lat": 38.88316533333333, "is_disabled": 0, "lon": -77.03004633333333, "is_reserved": 0, "fusion_lon": 0.0, "fusion_lat": 0.0, "name": "a5c1e57a0fdfbf3866a2de6a47240adc", "type": "electric_scooter", "rental_uris": {"ios": "https://dc.lft.to/lastmile_qr_scan", "android": "https://dc.lft.to/lastmile_qr_scan"}, "bike_id": "a5c1e57a0fdfbf3866a2de6a47240adc"}, {"lat": 38.890088, "is_disabled": 0, "lon": -76.998456, "is_reserved": 0, "fusion_lon": 0.0, "fusion_lat": 0.0, "name": "39d28ee699722fff53102f19673c207e", "type": "electric_scooter", "rental_uris": {"ios": "https://dc.lft.to/lastmile_qr_scan", "android": "https://dc.lft.to/lastmile_qr_scan"}, "bike_id": "39d28ee699722fff53102f19673c207e"}, {"lat": 38.914235833333336, "is_disabled": 0, "lon": -77.01731883333333, "is_reserved": 0, "fusion_lon": 0.0, "fusion_lat": 0.0, "name": "f27e05517be0a44aadecaf217a055003", "type": "electric_scooter", "rental_uris": {"ios": "https://dc.lft.to/lastmile_qr_scan", "android": "https://dc.lft.to/lastmile_qr_scan"}, "bike_id": "f27e05517be0a44aadecaf217a055003"}, {"lat": 38.907328166666666, "is_disabled": 0, "lon": -77.00763666666667, "is_reserved": 0, "fusion_lon": 0.0, "fusion_lat": 0.0, "name": "e88888e3bd228af40f8452fe6356260b", "type": "electric_scooter", "rental_uris": {"ios": "https://dc.lft.to/lastmile_qr_scan", "android": "https://dc.lft.to/lastmile_qr_scan"}, "bike_id": "e88888e3bd228af40f8452fe6356260b"}, {"lat": 38.92595383333333, "is_disabled": 0, "lon": -77.04401533333333, "is_reserved": 0, "fusion_lon": 0.0, "fusion_lat": 0.0, "name": "1d75ea352c9b7877d9a601af1bd443f3", "type": "electric_scooter", "rental_uris": {"ios": "https://dc.lft.to/lastmile_qr_scan", "android": "https://dc.lft.to/lastmile_qr_scan"}, "bike_id": "1d75ea352c9b7877d9a601af1bd443f3"}, {"lat": 38.94614333333333, "is_disabled": 0, "lon": -77.080218, "is_reserved": 0, "fusion_lon": 0.0, "fusion_lat": 0.0, "name": "313033116cc74e935a7a6cd648340878", "type": "electric_scooter", "rental_uris": {"ios": "https://dc.lft.to/lastmile_qr_scan", "android": "https://dc.lft.to/lastmile_qr_scan"}, "bike_id": "313033116cc74e935a7a6cd648340878"}, {"lat": 38.90467833333334, "is_disabled": 0, "lon": -77.035649, "is_reserved": 0, "fusion_lon": 0.0, "fusion_lat": 0.0, "name": "c5b1c078ceb423ac34a802452119d12b", "type": "electric_scooter", "rental_uris": {"ios": "https://dc.lft.to/lastmile_qr_scan", "android": "https://dc.lft.to/lastmile_qr_scan"}, "bike_id": "c5b1c078ceb423ac34a802452119d12b"}, {"lat": 38.887463, "is_disabled": 0, "lon": -77.02569283333334, "is_reserved": 0, "fusion_lon": 0.0, "fusion_lat": 0.0, "name": "9c3cce109292cb8f98610969b9b7054a", "type": "electric_scooter", "rental_uris": {"ios": "https://dc.lft.to/lastmile_qr_scan", "android": "https://dc.lft.to/lastmile_qr_scan"}, "bike_id": "9c3cce109292cb8f98610969b9b7054a"}, {"lat": 38.92234366666667, "is_disabled": 0, "lon": -77.03521566666667, "is_reserved": 0, "fusion_lon": 0.0, "fusion_lat": 0.0, "name": "756d79c255d908d8f40ff91ff9e5ab0c", "type": "electric_scooter", "rental_uris": {"ios": "https://dc.lft.to/lastmile_qr_scan", "android": "https://dc.lft.to/lastmile_qr_scan"}, "bike_id": "756d79c255d908d8f40ff91ff9e5ab0c"}, {"lat": 38.8988795, "is_disabled": 0, "lon": -77.04545016666667, "is_reserved": 0, "fusion_lon": 0.0, "fusion_lat": 0.0, "name": "385db06d0338ba57c25412955b1dee7b", "type": "electric_scooter", "rental_uris": {"ios": "https://dc.lft.to/lastmile_qr_scan", "android": "https://dc.lft.to/lastmile_qr_scan"}, "bike_id": "385db06d0338ba57c25412955b1dee7b"}, {"lat": 38.90385066666666, "is_disabled": 0, "lon": -77.03011683333334, "is_reserved": 0, "fusion_lon": 0.0, "fusion_lat": 0.0, "name": "95d3b25239e43b529799bc48515e7109", "type": "electric_scooter", "rental_uris": {"ios": "https://dc.lft.to/lastmile_qr_scan", "android": "https://dc.lft.to/lastmile_qr_scan"}, "bike_id": "95d3b25239e43b529799bc48515e7109"}, {"lat": 38.83816766666666, "is_disabled": 0, "lon": -76.99671866666667, "is_reserved": 0, "fusion_lon": 0.0, "fusion_lat": 0.0, "name": "a05cdb8d78bb0a30dea05c192198bd45", "type": "electric_bike", "rental_uris": {"ios": "https://dc.lft.to/lastmile_qr_scan", "android": "https://dc.lft.to/lastmile_qr_scan"}, "bike_id": "a05cdb8d78bb0a30dea05c192198bd45"}, {"lat": 38.9074635, "is_disabled": 0, "lon": -77.02799733333333, "is_reserved": 0, "fusion_lon": 0.0, "fusion_lat": 0.0, "name": "f478eb008a43d523a58f72637848030c", "type": "electric_scooter", "rental_uris": {"ios": "https://dc.lft.to/lastmile_qr_scan", "android": "https://dc.lft.to/lastmile_qr_scan"}, "bike_id": "f478eb008a43d523a58f72637848030c"}, {"lat": 38.900306, "is_disabled": 0, "lon": -77.04885983333334, "is_reserved": 0, "fusion_lon": 0.0, "fusion_lat": 0.0, "name": "e763f7ba5c847b2ada67f24205b448c4", "type": "electric_scooter", "rental_uris": {"ios": "https://dc.lft.to/lastmile_qr_scan", "android": "https://dc.lft.to/lastmile_qr_scan"}, "bike_id": "e763f7ba5c847b2ada67f24205b448c4"}, {"lat": 38.8949625, "is_disabled": 0, "lon": -76.94878883333334, "is_reserved": 0, "fusion_lon": 0.0, "fusion_lat": 0.0, "name": "1b24fc32e4bbe172417e0e523c3906ce", "type": "electric_scooter", "rental_uris": {"ios": "https://dc.lft.to/lastmile_qr_scan", "android": "https://dc.lft.to/lastmile_qr_scan"}, "bike_id": "1b24fc32e4bbe172417e0e523c3906ce"}, {"lat": 38.871791333333334, "is_disabled": 0, "lon": -77.00629516666666, "is_reserved": 0, "fusion_lon": 0.0, "fusion_lat": 0.0, "name": "ab156ef313b6ae3c700b502a27b1947c", "type": "electric_scooter", "rental_uris": {"ios": "https://dc.lft.to/lastmile_qr_scan", "android": "https://dc.lft.to/lastmile_qr_scan"}, "bike_id": "ab156ef313b6ae3c700b502a27b1947c"}, {"lat": 38.92749, "is_disabled": 0, "lon": -77.03641366666666, "is_reserved": 0, "fusion_lon": 0.0, "fusion_lat": 0.0, "name": "5711ae81bc68cf77f6bc3682b8209087", "type": "electric_bike", "rental_uris": {"ios": "https://dc.lft.to/lastmile_qr_scan", "android": "https://dc.lft.to/lastmile_qr_scan"}, "bike_id": "5711ae81bc68cf77f6bc3682b8209087"}, {"lat": 38.902750833333336, "is_disabled": 0, "lon": -77.03675783333334, "is_reserved": 0, "fusion_lon": 0.0, "fusion_lat": 0.0, "name": "1e7b8679eac670352f3225cb438a1a87", "type": "electric_scooter", "rental_uris": {"ios": "https://dc.lft.to/lastmile_qr_scan", "android": "https://dc.lft.to/lastmile_qr_scan"}, "bike_id": "1e7b8679eac670352f3225cb438a1a87"}, {"lat": 38.9141255, "is_disabled": 0, "lon": -77.01338566666666, "is_reserved": 0, "fusion_lon": 0.0, "fusion_lat": 0.0, "name": "6f5e3e48961723a3d68f7a7a9aa46aa2", "type": "electric_scooter", "rental_uris": {"ios": "https://dc.lft.to/lastmile_qr_scan", "android": "https://dc.lft.to/lastmile_qr_scan"}, "bike_id": "6f5e3e48961723a3d68f7a7a9aa46aa2"}, {"lat": 38.923339166666665, "is_disabled": 0, "lon": -77.0092115, "is_reserved": 0, "fusion_lon": 0.0, "fusion_lat": 0.0, "name": "aa8b761c1ffc0f2190aa56a9a29f8b96", "type": "electric_scooter", "rental_uris": {"ios": "https://dc.lft.to/lastmile_qr_scan", "android": "https://dc.lft.to/lastmile_qr_scan"}, "bike_id": "aa8b761c1ffc0f2190aa56a9a29f8b96"}, {"lat": 38.923645666666665, "is_disabled": 0, "lon": -77.0512995, "is_reserved": 0, "fusion_lon": 0.0, "fusion_lat": 0.0, "name": "6ba849adf3eb16a111d3f511b8cf28b1", "type": "electric_scooter", "rental_uris": {"ios": "https://dc.lft.to/lastmile_qr_scan", "android": "https://dc.lft.to/lastmile_qr_scan"}, "bike_id": "6ba849adf3eb16a111d3f511b8cf28b1"}, {"lat": 38.92842866666667, "is_disabled": 0, "lon": -77.01407033333334, "is_reserved": 0, "fusion_lon": 0.0, "fusion_lat": 0.0, "name": "5f52e6dad61676c5c546742859089418", "type": "electric_scooter", "rental_uris": {"ios": "https://dc.lft.to/lastmile_qr_scan", "android": "https://dc.lft.to/lastmile_qr_scan"}, "bike_id": "5f52e6dad61676c5c546742859089418"}, {"lat": 38.9002265, "is_disabled": 0, "lon": -77.0300975, "is_reserved": 0, "fusion_lon": 0.0, "fusion_lat": 0.0, "name": "1ede27b941c1af8c5c2cd8e57213d9da", "type": "electric_bike", "rental_uris": {"ios": "https://dc.lft.to/lastmile_qr_scan", "android": "https://dc.lft.to/lastmile_qr_scan"}, "bike_id": "1ede27b941c1af8c5c2cd8e57213d9da"}, {"lat": 38.90264966666667, "is_disabled": 0, "lon": -77.0460165, "is_reserved": 0, "fusion_lon": 0.0, "fusion_lat": 0.0, "name": "f244659419e8b0e5a99a357b17a81bc9", "type": "electric_scooter", "rental_uris": {"ios": "https://dc.lft.to/lastmile_qr_scan", "android": "https://dc.lft.to/lastmile_qr_scan"}, "bike_id": "f244659419e8b0e5a99a357b17a81bc9"}, {"lat": 38.905666, "is_disabled": 0, "lon": -77.04289783333333, "is_reserved": 0, "fusion_lon": 0.0, "fusion_lat": 0.0, "name": "ff27caf5399baa48394e3e9eccab97f7", "type": "electric_scooter", "rental_uris": {"ios": "https://dc.lft.to/lastmile_qr_scan", "android": "https://dc.lft.to/lastmile_qr_scan"}, "bike_id": "ff27caf5399baa48394e3e9eccab97f7"},