{"data": {"bikes": [{"lon": -76.92930633333333, "name": "735556d23cfd8e0ca6615ced2a3f6fc2", "is_disabled": 0, "type": "electric_scooter", "is_reserved": 0, "fusion_lon": 0.0, "lat": 38.901013, "rental_uris": {"ios": "https://dc.lft.to/lastmile_qr_scan", "android": "https://dc.lft.to/lastmile_qr_scan"}, "bike_id": "735556d23cfd8e0ca6615ced2a3f6fc2", "fusion_lat": 0.0}, {"lon": -77.00223016666666, "name": "8ec5ac74599fd52226116c19fe22796e", "is_disabled": 0, "type": "electric_scooter", "is_reserved": 0, "fusion_lon": 0.0, "lat": 38.90190883333333, "rental_uris": {"ios": "https://dc.lft.to/lastmile_qr_scan", "android": "https://dc.lft.to/lastmile_qr_scan"}, "bike_id": "8ec5ac74599fd52226116c19fe22796e", "fusion_lat": 0.0}, {"lon": -77.031766, "name": "acfc43728cd55a311355b3b8edacc3fe", "is_disabled": 0, "type": "electric_scooter", "is_reserved": 0, "fusion_lon": 0.0, "lat": 38.911949, "rental_uris": {"ios": "https://dc.lft.to/lastmile_qr_scan", "android": "https://dc.lft.to/lastmile_qr_scan"}, "bike_id": "acfc43728cd55a311355b3b8edacc3fe", "fusion_lat": 0.0}, {"lon": -77.0388855, "name": "8f1a015aa87edc56e54b62d1835b3ec4", "is_disabled": 0, "type": "electric_scooter", "is_reserved": 0, "fusion_lon": 0.0, "lat": 38.92248633333333, "rental_uris": {"ios": "https://dc.lft.to/lastmile_qr_scan", "android": "https://dc.lft.to/lastmile_qr_scan"}, "bike_id": "8f1a015aa87edc56e54b62d1835b3ec4", "fusion_lat": 0.0}, {"lon": -77.03218783333334, "name": "c5cd2fd198829d0d53bf5d8944c600be", "is_disabled": 0, "type": "electric_scooter", "is_reserved": 0, "fusion_lon": 0.0, "lat": 38.91712883333334, "rental_uris": {"ios": "https://dc.lft.to/lastmile_qr_scan", "android": "https://dc.lft.to/lastmile_qr_scan"}, "bike_id": "c5cd2fd198829d0d53bf5d8944c600be", "fusion_lat": 0.0}, {"lon": -76.92653983333334, "name": "12564a8f127a3ecc581d34cdf021e0b1", "is_disabled": 0, "type": "electric_scooter", "is_reserved": 0, "fusion_lon": 0.0, "lat": 38.895484833333335, "rental_uris": {"ios": "https://dc.lft.to/lastmile_qr_scan", "android": "https://dc.lft.to/lastmile_qr_scan"}, "bike_id": "12564a8f127a3ecc581d34cdf021e0b1", "fusion_lat": 0.0}, {"lon": -77.040025, "name": "17d486498b9c4a7603b8086747ac39d3", "is_disabled": 0, "type": "electric_scooter", "is_reserved": 0, "fusion_lon": 0.0, "lat": 38.934274, "rental_uris": {"ios": "https://dc.lft.to/lastmile_qr_scan", "android": "https://dc.lft.to/lastmile_qr_scan"}, "bike_id": "17d486498b9c4a7603b8086747ac39d3", "fusion_lat": 0.0}, {"lon": -77.02351483333334, "name": "a71793e12e69e24977189c25471c7e1f", "is_disabled": 0, "type": "electric_scooter", "is_reserved": 0, "fusion_lon": 0.0, "lat": 38.91776016666667, "rental_uris": {"ios": "https://dc.lft.to/lastmile_qr_scan", "android": "https://dc.lft.to/lastmile_qr_scan"}, "bike_id": "a71793e12e69e24977189c25471c7e1f", "fusion_lat": 0.0}, {"lon": -77.043168, "name": "a8b106dbd8b07988a874cee5d1d20a86", "is_disabled": 0, "type": "electric_scooter", "is_reserved": 0, "fusion_lon": 0.0, "lat": 38.901312, "rental_uris": {"ios": "https://dc.lft.to/lastmile_qr_scan", "android": "https://dc.lft.to/lastmile_qr_scan"}, "bike_id": "a8b106dbd8b07988a874cee5d1d20a86", "fusion_lat": 0.0}, {"lon": -77.09617033333333, "name": "13babdd0341e97a5d66b51bbdc041946", "is_disabled": 0, "type": "electric_bike", "is_reserved": 0, "fusion_lon": 0.0, "lat": 38.97443616666666, "rental_uris": {"ios": "https://dc.lft.to/lastmile_qr_scan", "android": "https://dc.lft.to/lastmile_qr_scan"}, "bike_id": "13babdd0341e97a5d66b51bbdc041946", "fusion_lat": 0.0}, {"lon": -77.027878, "name": "b66ccb5dd51ac5ed3df222e78fe0b44d", "is_disabled": 0, "type": "electric_scooter", "is_reserved": 0, "fusion_lon": 0.0, "lat": 38.92957616666666, "rental_uris": {"ios": "https://dc.lft.to/lastmile_qr_scan", "android": "https://dc.lft.to/lastmile_qr_scan"}, "bike_id": "b66ccb5dd51ac5ed3df222e78fe0b44d", "fusion_lat": 0.0}, {"lon": -77.041924, "name": "1b6fda82b08f6cbcea298408e4a27840", "is_disabled": 0, "type": "electric_scooter", "is_reserved": 0, "fusion_lon": 0.0, "lat": 38.9206795, "rental_uris": {"ios": "https://dc.lft.to/lastmile_qr_scan", "android": "https://dc.lft.to/lastmile_qr_scan"}, "bike_id": "1b6fda82b08f6cbcea298408e4a27840", "fusion_lat": 0.0}, {"lon": -77.01996616666666, "name": "ab3f7e72880aa64db3b562677f1beb61", "is_disabled": 0, "type": "electric_scooter", "is_reserved": 0, "fusion_lon": 0.0, "lat": 38.913654, "rental_uris": {"ios": "https://dc.lft.to/lastmile_qr_scan", "android": "https://dc.lft.to/lastmile_qr_scan"}, "bike_id": "ab3f7e72880aa64db3b562677f1beb61", "fusion_lat": 0.0}, {"lon": -77.0335085, "name": "7fc9152afe0d856303c592c248cd9995", "is_disabled": 0, "type": "electric_scooter", "is_reserved": 0, "fusion_lon": 0.0, "lat": 38.9171275, "rental_uris": {"ios": "https://dc.lft.to/lastmile_qr_scan", "android": "https://dc.lft.to/lastmile_qr_scan"}, "bike_id": "7fc9152afe0d856303c592c248cd9995", "fusion_lat": 0.0}, {"lon": -76.93912516666667, "name": "945d5321897f8649d53902d8a55afd20", "is_disabled": 0, "type": "electric_scooter", "is_reserved": 0, "fusion_lon": 0.0, "lat": 38.89165833333333, "rental_uris": {"ios": "https://dc.lft.to/lastmile_qr_scan", "android": "https://dc.lft.to/lastmile_qr_scan"}, "bike_id": "945d5321897f8649d53902d8a55afd20", "fusion_lat": 0.0}, {"lon": -77.00925366666667, "name": "5e1f99b350951443e026471a2d09465c", "is_disabled": 0, "type": "electric_scooter", "is_reserved": 0, "fusion_lon": 0.0, "lat": 38.91879766666667, "rental_uris": {"ios": "https://dc.lft.to/lastmile_qr_scan", "android": "https://dc.lft.to/lastmile_qr_scan"}, "bike_id": "5e1f99b350951443e026471a2d09465c", "fusion_lat": 0.0}, {"lon": -76.98350383333333, "name": "f7f0d4a4f1b5224a052b8caaf9440770", "is_disabled": 0, "type": "electric_bike", "is_reserved": 0, "fusion_lon": 0.0, "lat": 38.86263266666667, "rental_uris": {"ios": "https://dc.lft.to/lastmile_qr_scan", "android": "https://dc.lft.to/lastmile_qr_scan"}, "bike_id": "f7f0d4a4f1b5224a052b8caaf9440770", "fusion_lat": 0.0}, {"lon": -76.979585, "name": "2da93b0cf5848a9a53e185a066a67244", "is_disabled": 0, "type": "electric_bike", "is_reserved": 0, "fusion_lon": 0.0, "lat": 38.920428666666666, "rental_uris": {"ios": "https://dc.lft.to/lastmile_qr_scan", "android": "https://dc.lft.to/lastmile_qr_scan"}, "bike_id": "2da93b0cf5848a9a53e185a066a67244", "fusion_lat": 0.0}, {"lon": -77.04999766666667, "name": "0beeaf3c84d019ec91698776c9dd6848", "is_disabled": 0, "type": "electric_scooter", "is_reserved": 0, "fusion_lon": 0.0, "lat": 38.89232283333333, "rental_uris": {"ios": "https://dc.lft.to/lastmile_qr_scan", "android": "https://dc.lft.to/lastmile_qr_scan"}, "bike_id": "0beeaf3c84d019ec91698776c9dd6848", "fusion_lat": 0.0}, {"lon": -77.02216233333333, "name": "687ae7eed29892956bfb58e3db13c6f7", "is_disabled": 0, "type": "electric_scooter", "is_reserved": 0, "fusion_lon": 0.0, "lat": 38.924741833333336, "rental_uris": {"ios": "https://dc.lft.to/lastmile_qr_scan", "android": "https://dc.lft.to/lastmile_qr_scan"}, "bike_id": "687ae7eed29892956bfb58e3db13c6f7", "fusion_lat": 0.0}, {"lon": -77.022005, "name": "cccebb26dfa243d237db19292d7ae0a8", "is_disabled": 0, "type": "electric_scooter", "is_reserved": 0, "fusion_lon": 0.0, "lat": 38.92090233333333, "rental_uris": {"ios": "https://dc.lft.to/lastmile_qr_scan", "android": "https://dc.lft.to/lastmile_qr_scan"}, "bike_id": "cccebb26dfa243d237db19292d7ae0a8", "fusion_lat": 0.0}, {"lon": -77.0337505, "name": "f93ff5505025905d95bc4aed9a7a2911", "is_disabled": 0, "type": "electric_scooter", "is_reserved": 0, "fusion_lon": 0.0, "lat": 38.90020616666666, "rental_uris": {"ios": "https://dc.lft.to/lastmile_qr_scan", "android": "https://dc.lft.to/lastmile_qr_scan"}, "bike_id": "f93ff5505025905d95bc4aed9a7a2911", "fusion_lat": 0.0}, {"lon": -76.98453916666666, "name": "35aa7ad08677862c03777547545767a0", "is_disabled": 0, "type": "electric_scooter", "is_reserved": 0, "fusion_lon": 0.0, "lat": 38.89238366666667, "rental_uris": {"ios": "https://dc.lft.to/lastmile_qr_scan", "android": "https://dc.lft.to/lastmile_qr_scan"}, "bike_id": "35aa7ad08677862c03777547545767a0", "fusion_lat": 0.0}, {"lon": -77.03426016666667, "name": "76af7d4a99e1a145be8a20fc3085e6d8", "is_disabled": 0, "type": "electric_scooter", "is_reserved": 0, "fusion_lon": 0.0, "lat": 38.903437333333336, "rental_uris": {"ios": "https://dc.lft.to/lastmile_qr_scan", "android": "https://dc.lft.to/lastmile_qr_scan"}, "bike_id": "76af7d4a99e1a145be8a20fc3085e6d8", "fusion_lat": 0.0}, {"lon": -76.99820016666666, "name": "cb43fa961d8039a5677f2f300a4e7a09", "is_disabled": 0, "type": "electric_scooter", "is_reserved": 0, "fusion_lon": 0.0, "lat": 38.906051833333336, "rental_uris": {"ios": "https://dc.lft.to/lastmile_qr_scan", "android": "https://dc.lft.to/lastmile_qr_scan"}, "bike_id": "cb43fa961d8039a5677f2f300a4e7a09", "fusion_lat": 0.0}, {"lon": -77.01955233333334, "name": "d5726cef98168acd04f8ac69c784a849", "is_disabled": 0, "type": "electric_scooter", "is_reserved": 0, "fusion_lon": 0.0, "lat": 38.92257883333333, "rental_uris": {"ios": "https://dc.lft.to/lastmile_qr_scan", "android": "https://dc.lft.to/lastmile_qr_scan"}, "bike_id": "d5726cef98168acd04f8ac69c784a849", "fusion_lat": 0.0}, {"lon": -77.03657666666666, "name": "e02efe9be80c46c2f0ff077b7f7ead86", "is_disabled": 0, "type": "electric_scooter", "is_reserved": 0, "fusion_lon": 0.0, "lat": 38.92335516666667, "rental_uris": {"ios": "https://dc.lft.to/lastmile_qr_scan", "android": "https://dc.lft.to/lastmile_qr_scan"}, "bike_id": "e02efe9be80c46c2f0ff077b7f7ead86", "fusion_lat": 0.0}, {"lon": -77.04355966666667, "name": "1b3c4c00c638e536513fb97e84498438", "is_disabled": 0, "type": "electric_scooter", "is_reserved": 0, "fusion_lon": 0.0, "lat": 38.92064033333333, "rental_uris": {"ios": "https://dc.lft.to/lastmile_qr_scan", "android": "https://dc.lft.to/lastmile_qr_scan"}, "bike_id": "1b3c4c00c638e536513fb97e84498438", "fusion_lat": 0.0}, {"lon": -77.02513666666667, "name": "fa4824baa7f4a5695d2448686350d9ee", "is_disabled": 0, "type": "electric_scooter", "is_reserved": 0, "fusion_lon": 0.0, "lat": 38.90437716666667, "rental_uris": {"ios": "https://dc.lft.to/lastmile_qr_scan", "android": "https://dc.lft.to/lastmile_qr_scan"}, "bike_id": "fa4824baa7f4a5695d2448686350d9ee", "fusion_lat": 0.0}, {"lon": -77.02014816666667, "name": "ce5ad14cbdcfb0ae00996cf2146c7c8c", "is_disabled": 0, "type": "electric_scooter", "is_reserved": 0, "fusion_lon": 0.0, "lat": 38.8988415, "rental_uris": {"ios": "https://dc.lft.to/lastmile_qr_scan", "android": "https://dc.lft.to/lastmile_qr_scan"}, "bike_id": "ce5ad14cbdcfb0ae00996cf2146c7c8c", "fusion_lat": 0.0}, {"lon": -77.020784, "name": "310c2e00ea52f76c9ba1a4f87289af7e", "is_disabled": 0, "type": "electric_scooter", "is_reserved": 0, "fusion_lon": 0.0, "lat": 38.92294583333333, "rental_uris": {"ios": "https://dc.lft.to/lastmile_qr_scan", "android": "https://dc.lft.to/lastmile_qr_scan"}, "bike_id": "310c2e00ea52f76c9ba1a4f87289af7e", "fusion_lat": 0.0}, {"lon": -77.01952683333333, "name": "7b2fe610ed06e66b4638bf093c5dc2a6", "is_disabled": 0, "type": "electric_scooter", "is_reserved": 0, "fusion_lon": 0.0, "lat": 38.9226845, "rental_uris": {"ios": "https://dc.lft.to/lastmile_qr_scan", "android": "https://dc.lft.to/lastmile_qr_scan"}, "bike_id": "7b2fe610ed06e66b4638bf093c5dc2a6", "fusion_lat": 0.0}, {"lon": -77.04295266666666, "name": "7fcd5156543c9843b6f65750f3902dcd", "is_disabled": 0, "type": "electric_scooter", "is_reserved": 0, "fusion_lon": 0.0, "lat": 38.92263366666667, "rental_uris": {"ios": "https://dc.lft.to/lastmile_qr_scan", "android": "https://dc.lft.to/lastmile_qr_scan"}, "bike_id": "7fcd5156543c9843b6f65750f3902dcd", "fusion_lat": 0.0}, {"lon": -77.03662333333334, "name": "8f90318b1837dbff0640173b32356d18", "is_disabled": 0, "type": "electric_scooter", "is_reserved": 0, "fusion_lon": 0.0, "lat": 38.922874166666666, "rental_uris": {"ios": "https://dc.lft.to/lastmile_qr_scan", "android": "https://dc.lft.to/lastmile_qr_scan"}, "bike_id": "8f90318b1837dbff0640173b32356d18", "fusion_lat": 0.0}, {"lon": -76.9516245, "name": "b2ad06678be0343ccddfe8c06f7ac43f", "is_disabled": 0, "type": "electric_bike", "is_reserved": 0, "fusion_lon": 0.0, "lat": 39.084368166666664, "rental_uris": {"ios": "https://dc.lft.to/lastmile_qr_scan", "android": "https://dc.lft.to/lastmile_qr_scan"}, "bike_id": "b2ad06678be0343ccddfe8c06f7ac43f", "fusion_lat": 0.0}, {"lon": -77.01298116666666, "name": "82b348d6533aa199efae472828a67183", "is_disabled": 0, "type": "electric_bike", "is_reserved": 0, "fusion_lon": 0.0, "lat": 38.881494, "rental_uris": {"ios": "https://dc.lft.to/lastmile_qr_scan", "android": "https://dc.lft.to/lastmile_qr_scan"}, "bike_id": "82b348d6533aa199efae472828a67183", "fusion_lat": 0.0}, {"lon": -77.047957, "name": "12ce96cf2f87098bdac88e30925fd4db", "is_disabled": 0, "type": "electric_scooter", "is_reserved": 0, "fusion_lon": 0.0, "lat": 38.897377166666665, "rental_uris": {"ios": "https://dc.lft.to/lastmile_qr_scan", "android": "https://dc.lft.to/lastmile_qr_scan"}, "bike_id": "12ce96cf2f87098bdac88e30925fd4db", "fusion_lat": 0.0}, {"lon": -76.93591116666667, "name": "6dd9fa698d5a7b16208c169126189e39", "is_disabled": 0, "type": "electric_scooter", "is_reserved": 0, "fusion_lon": 0.0, "lat": 38.909505833333334, "rental_uris": {"ios": "https://dc.lft.to/lastmile_qr_scan", "android": "https://dc.lft.to/lastmile_qr_scan"}, "bike_id": "6dd9fa698d5a7b16208c169126189e39", "fusion_lat": 0.0}, {"lon": -77.0366205, "name": "cdff3398eaf1de9e7bf02176b02b7ac1", "is_disabled": 0, "type": "electric_scooter", "is_reserved": 0, "fusion_lon": 0.0, "lat": 38.9238605, "rental_uris": {"ios": "https://dc.lft.to/lastmile_qr_scan", "android": "https://dc.lft.to/lastmile_qr_scan"}, "bike_id": "cdff3398eaf1de9e7bf02176b02b7ac1", "fusion_lat": 0.0}, {"lon": -77.01225616666666, "name": "cc03d1a2a57d9322314d0cf001ab5175", "is_disabled": 0, "type": "electric_scooter", "is_reserved": 0, "fusion_lon": 0.0, "lat": 38.925173666666666, "rental_uris": {"ios": "https://dc.lft.to/lastmile_qr_scan", "android": "https://dc.lft.to/lastmile_qr_scan"}, "bike_id": "cc03d1a2a57d9322314d0cf001ab5175", "fusion_lat": 0.0}, {"lon": -77.0328375, "name": "362a7ac7907603e1454a71f7fb53bd26", "is_disabled": 0, "type": "electric_scooter", "is_reserved": 0, "fusion_lon": 0.0, "lat": 38.935776, "rental_uris": {"ios": "https://dc.lft.to/lastmile_qr_scan", "android": "https://dc.lft.to/lastmile_qr_scan"}, "bike_id": "362a7ac7907603e1454a71f7fb53bd26", "fusion_lat": 0.0}, {"lon": -76.96544266666666, "name": "238b8a76784585d8b3cfa1f3a2de6af8", "is_disabled": 0, "type": "electric_scooter", "is_reserved": 0, "fusion_lon": 0.0, "lat": 38.878878, "rental_uris": {"ios": "https://dc.lft.to/lastmile_qr_scan", "android": "https://dc.lft.to/lastmile_qr_scan"}, "bike_id": "238b8a76784585d8b3cfa1f3a2de6af8", "fusion_lat": 0.0}, {"lon": -77.005406, "name": "e9dfd28f003ca2a5791cc85ec5ba1ac6", "is_disabled": 0, "type": "electric_scooter", "is_reserved": 0, "fusion_lon": 0.0, "lat": 38.875501, "rental_uris": {"ios": "https://dc.lft.to/lastmile_qr_scan", "android": "https://dc.lft.to/lastmile_qr_scan"}, "bike_id": "e9dfd28f003ca2a5791cc85ec5ba1ac6", "fusion_lat": 0.0}, {"lon": -77.04040683333334, "name": "9d2ef9fc0c5af973e8a50d5ec5e93fd2", "is_disabled": 0, "type": "electric_scooter", "is_reserved": 0, "fusion_lon": 0.0, "lat": 38.9204555, "rental_uris": {"ios": "https://dc.lft.to/lastmile_qr_scan", "android": "https://dc.lft.to/lastmile_qr_scan"}, "bike_id": "9d2ef9fc0c5af973e8a50d5ec5e93fd2", "fusion_lat": 0.0}, {"lon": -77.04405783333333, "name": "d07d539c499ac6b0ade3362160c92a6c", "is_disabled": 0, "type": "electric_scooter", "is_reserved": 0, "fusion_lon": 0.0, "lat": 38.9295815, "rental_uris": {"ios": "https://dc.lft.to/lastmile_qr_scan", "android": "https://dc.lft.to/lastmile_qr_scan"}, "bike_id": "d07d539c499ac6b0ade3362160c92a6c", "fusion_lat": 0.0}, {"lon": -77.0248585, "name": "5fa4886ac1941e7dbef4e1c86e6005d2", "is_disabled": 0, "type": "electric_scooter", "is_reserved": 0, "fusion_lon": 0.0, "lat": 38.91816033333333, "rental_uris": {"ios": "https://dc.lft.to/lastmile_qr_scan", "android": "https://dc.lft.to/lastmile_qr_scan"}, "bike_id": "5fa4886ac1941e7dbef4e1c86e6005d2", "fusion_lat": 0.0}, {"lon": -77.03206416666667, "name": "22aa92e07d85fdb7d8badd39d7407485", "is_disabled": 0, "type": "electric_scooter", "is_reserved": 0, "fusion_lon": 0.0, "lat": 38.916022166666664, "rental_uris": {"ios": "https://dc.lft.to/lastmile_qr_scan", "android": "https://dc.lft.to/lastmile_qr_scan"}, "bike_id": "22aa92e07d85fdb7d8badd39d7407485", "fusion_lat": 0.0}, {"lon": -77.002131, "name": "0cc7a8aa1146431d97e984ac446272c3", "is_disabled": 0, "type": "electric_scooter", "is_reserved": 0, "fusion_lon": 0.0, "lat": 38.9012945, "rental_uris": {"ios": "https://dc.lft.to/lastmile_qr_scan", "android": "https://dc.lft.to/lastmile_qr_scan"}, "bike_id": "0cc7a8aa1146431d97e984ac446272c3", "fusion_lat": 0.0}, {"lon": -77.0273415, "name": "0f16cf4541c6405d180e0532d23f2881", "is_disabled": 0, "type": "electric_scooter", "is_reserved": 0, "fusion_lon": 0.0, "lat": 38.9282145, "rental_uris": {"ios": "https://dc.lft.to/lastmile_qr_scan", "android": "https://dc.lft.to/lastmile_qr_scan"}, "bike_id": "0f16cf4541c6405d180e0532d23f2881", "fusion_lat": 0.0}, {"lon": -76.98817583333333, "name": "cc2282828e4a73a7125ddbdbdf8657f9", "is_disabled": 0, "type": "electric_scooter", "is_reserved": 0, "fusion_lon": 0.0, "lat": 38.89096216666667, "rental_uris": {"ios": "https://dc.lft.to/lastmile_qr_scan", "android": "https://dc.lft.to/lastmile_qr_scan"}, "bike_id": "cc2282828e4a73a7125ddbdbdf8657f9", "fusion_lat": 0.0}, {"lon": -77.04249516666667, "name": "fb7eeba2d8947745d5eda36095314330", "is_disabled": 0, "type": "electric_scooter", "is_reserved": 0, "fusion_lon": 0.0, "lat": 38.90828666666667, "rental_uris": {"ios": "https://dc.lft.to/lastmile_qr_scan", "android": "https://dc.lft.to/lastmile_qr_scan"}, "bike_id": "fb7eeba2d8947745d5eda36095314330", "fusion_lat": 0.0}, {"lon": -77.03553883333333, "name": "7382073fa795f69ea71870fa91a069c4", "is_disabled": 0, "type": "electric_scooter", "is_reserved": 0, "fusion_lon": 0.0, "lat": 38.907680666666664, "rental_uris": {"ios": "https://dc.lft.to/lastmile_qr_scan", "android": "https://dc.lft.to/lastmile_qr_scan"}, "bike_id": "7382073fa795f69ea71870fa91a069c4", "fusion_lat": 0.0}, {"lon": -77.0122165, "name": "8fef3c6f55bc1d64ac83eab3cbd2a09e", "is_disabled": 0, "type": "electric_scooter", "is_reserved": 0, "fusion_lon": 0.0, "lat": 38.913518833333335, "rental_uris": {"ios": "https://dc.lft.to/lastmile_qr_scan", "android": "https://dc.lft.to/lastmile_qr_scan"}, "bike_id": "8fef3c6f55bc1d64ac83eab3cbd2a09e", "fusion_lat": 0.0}, {"lon": -76.99396583333333, "name": "b4c1c750b3a48a7adcb48b09901af7c8", "is_disabled": 0, "type": "electric_scooter", "is_reserved": 0, "fusion_lon": 0.0, "lat": 38.91006, "rental_uris": {"ios": "https://dc.lft.to/lastmile_qr_scan", "android": "https://dc.lft.to/lastmile_qr_scan"}, "bike_id": "b4c1c750b3a48a7adcb48b09901af7c8", "fusion_lat": 0.0}, {"lon": -77.021319, "name": "94419c4e5d9fb41c62358ded9c572bbf", "is_disabled": 0, "type": "electric_scooter", "is_reserved": 0, "fusion_lon": 0.0, "lat": 38.92415733333333, "rental_uris": {"ios": "https://dc.lft.to/lastmile_qr_scan", "android": "https://dc.lft.to/lastmile_qr_scan"}, "bike_id": "94419c4e5d9fb41c62358ded9c572bbf", "fusion_lat": 0.0}, {"lon": -77.02367866666667, "name": "6a7dd42a146f50b43bcab35cfc2bb255", "is_disabled": 0, "type": "electric_scooter", "is_reserved": 0, "fusion_lon": 0.0, "lat": 38.90350816666667, "rental_uris": {"ios": "https://dc.lft.to/lastmile_qr_scan", "android": "https://dc.lft.to/lastmile_qr_scan"}, "bike_id": "6a7dd42a146f50b43bcab35cfc2bb255", "fusion_lat": 0.0}, {"lon": -77.13931716666667, "name": "34ab59430ccbc4beb5c07ebd9333ff20", "is_disabled": 0, "type": "electric_bike", "is_reserved": 0, "fusion_lon": 0.0, "lat": 38.8467715, "rental_uris": {"ios": "https://dc.lft.to/lastmile_qr_scan", "android": "https://dc.lft.to/lastmile_qr_scan"}, "bike_id": "34ab59430ccbc4beb5c07ebd9333ff20", "fusion_lat": 0.0}, {"lon": -76.98560833333333, "name": "e4b0203bd8b39ad3baf82528cf75e1ba", "is_disabled": 0, "type": "electric_scooter", "is_reserved": 0, "fusion_lon": 0.0, "lat": 38.89956566666667, "rental_uris": {"ios": "https://dc.lft.to/lastmile_qr_scan", "android": "https://dc.lft.to/lastmile_qr_scan"}, "bike_id": "e4b0203bd8b39ad3baf82528cf75e1ba", "fusion_lat": 0.0}, {"lon": -77.02593016666667, "name": "9c35c1235b91f22842edeb036403a1d8", "is_disabled": 0, "type": "electric_scooter", "is_reserved": 0, "fusion_lon": 0.0, "lat": 38.90436033333334, "rental_uris": {"ios": "https://dc.lft.to/lastmile_qr_scan", "android": "https://dc.lft.to/lastmile_qr_scan"}, "bike_id": "9c35c1235b91f22842edeb036403a1d8", "fusion_lat": 0.0}, {"lon": -76.99036, "name": "606c5f0de84bf00afac6d3c24a61e5ea", "is_disabled": 0, "type": "electric_scooter", "is_reserved": 0, "fusion_lon": 0.0, "lat": 38.89853816666667, "rental_uris": {"ios": "https://dc.lft.to/lastmile_qr_scan", "android": "https://dc.lft.to/lastmile_qr_scan"}, "bike_id": "606c5f0de84bf00afac6d3c24a61e5ea", "fusion_lat": 0.0}, {"lon": -77.015598, "name": "31c151dc04e60cdda511c8c692ac4e36", "is_disabled": 0, "type": "electric_scooter", "is_reserved": 0, "fusion_lon": 0.0, "lat": 38.893704166666666, "rental_uris": {"ios": "https://dc.lft.to/lastmile_qr_scan", "android": "https://dc.lft.to/lastmile_qr_scan"}, "bike_id": "31c151dc04e60cdda511c8c692ac4e36", "fusion_lat": 0.0}, {"lon": -76.98419133333333, "name": "9061c5f9b53f296ba702413832828f68", "is_disabled": 0, "type": "electric_bike", "is_reserved": 0, "fusion_lon": 0.0, "lat": 38.91001216666667, "rental_uris": {"ios": "https://dc.lft.to/lastmile_qr_scan", "android": "https://dc.lft.to/lastmile_qr_scan"}, "bike_id": "9061c5f9b53f296ba702413832828f68", "fusion_lat": 0.0}, {"lon": -77.0006585, "name": "e0b5f0816200b4d577e02aa67d61b85d", "is_disabled": 0, "type": "electric_scooter", "is_reserved": 0, "fusion_lon": 0.0, "lat": 38.887789, "rental_uris": {"ios": "https://dc.lft.to/lastmile_qr_scan", "android": "https://dc.lft.to/lastmile_qr_scan"}, "bike_id": "e0b5f0816200b4d577e02aa67d61b85d", "fusion_lat": 0.0}, {"lon": -77.0226535, "name": "7acf42e810a084d8a28d32c9e3aaad86", "is_disabled": 0, "type": "electric_scooter", "is_reserved": 0, "fusion_lon": 0.0, "lat": 38.916505, "rental_uris": {"ios": "https://dc.lft.to/lastmile_qr_scan", "android": "https://dc.lft.to/lastmile_qr_scan"}, "bike_id": "7acf42e810a084d8a28d32c9e3aaad86", "fusion_lat": 0.0}, {"lon": -76.99859066666667, "name": "5bfa9f862fe991fbb5ab76f3c7205ed9", "is_disabled": 0, "type": "electric_scooter", "is_reserved": 0, "fusion_lon": 0.0, "lat": 38.902586, "rental_uris": {"ios": "https://dc.lft.to/lastmile_qr_scan", "android": "https://dc.lft.to/lastmile_qr_scan"}, "bike_id": "5bfa9f862fe991fbb5ab76f3c7205ed9", "fusion_lat": 0.0}, {"lon": -77.01822166666666, "name": "f991a06a7c6ef35875840e74809f880f", "is_disabled": 0, "type": "electric_scooter", "is_reserved": 0, "fusion_lon": 0.0, "lat": 38.92135733333333, "rental_uris": {"ios": "https://dc.lft.to/lastmile_qr_scan", "android": "https://dc.lft.to/lastmile_qr_scan"}, "bike_id": "f991a06a7c6ef35875840e74809f880f", "fusion_lat": 0.0}, {"lon": -77.00173116666667, "name": "20eb8eed660db4aa8c4e2119be269297", "is_disabled": 0, "type": "electric_scooter", "is_reserved": 0, "fusion_lon": 0.0, "lat": 38.9407725, "rental_uris": {"ios": "https://dc.lft.to/lastmile_qr_scan", "android": "https://dc.lft.to/lastmile_qr_scan"}, "bike_id": "20eb8eed660db4aa8c4e2119be269297", "fusion_lat": 0.0}, {"lon": -76.98208566666666, "name": "e9d4f706f99b45da935f4f6cb193c7b0", "is_disabled": 0, "type": "electric_bike", "is_reserved": 0, "fusion_lon": 0.0, "lat": 38.985059, "rental_uris": {"ios": "https://dc.lft.to/lastmile_qr_scan", "android": "https://dc.lft.to/lastmile_qr_scan"}, "bike_id": "e9d4f706f99b45da935f4f6cb193c7b0", "fusion_lat": 0.0}, {"lon": -77.02123466666667, "name": "4b8d9cff18f945fa6e1ae664c90bba78", "is_disabled": 0, "type": "electric_scooter", "is_reserved": 0, "fusion_lon": 0.0, "lat": 38.9239635, "rental_uris": {"ios": "https://dc.lft.to/lastmile_qr_scan", "android": "https://dc.lft.to/lastmile_qr_scan"}, "bike_id": "4b8d9cff18f945fa6e1ae664c90bba78", "fusion_lat": 0.0}, {"lon": -77.03041233333333, "name": "67184f31eb6f9fe879946d9533668745", "is_disabled": 0, "type": "electric_scooter", "is_reserved": 0, "fusion_lon": 0.0, "lat": 38.8843105, "rental_uris": {"ios": "https://dc.lft.to/lastmile_qr_scan", "android": "https://dc.lft.to/lastmile_qr_scan"}, "bike_id": "67184f31eb6f9fe879946d9533668745", "fusion_lat": 0.0}, {"lon": -77.01234883333333, "name": "4c2be1df5e6f21bb0f5c99c3595e8df2", "is_disabled": 0, "type": "electric_scooter", "is_reserved": 0, "fusion_lon": 0.0, "lat": 38.900121166666665, "rental_uris": {"ios": "https://dc.lft.to/lastmile_qr_scan", "android": "https://dc.lft.to/lastmile_qr_scan"}, "bike_id": "4c2be1df5e6f21bb0f5c99c3595e8df2", "fusion_lat": 0.0}, {"lon": -77.02159683333333, "name": "b5212da7f7ef75a9230610a2959269bf", "is_disabled": 0, "type": "electric_scooter", "is_reserved": 0, "fusion_lon": 0.0, "lat": 38.92615266666667, "rental_uris": {"ios": "https://dc.lft.to/lastmile_qr_scan", "android": "https://dc.lft.to/lastmile_qr_scan"}, "bike_id": "b5212da7f7ef75a9230610a2959269bf", "fusion_lat": 0.0}, {"lon": -77.0203695, "name": "51ffb8fbb8b912fad6e8ee86839a407c", "is_disabled": 0, "type": "electric_scooter", "is_reserved": 0, "fusion_lon": 0.0, "lat": 38.92470633333333, "rental_uris": {"ios": "https://dc.lft.to/lastmile_qr_scan", "android": "https://dc.lft.to/lastmile_qr_scan"}, "bike_id": "51ffb8fbb8b912fad6e8ee86839a407c", "fusion_lat": 0.0}, {"lon": -77.035234, "name": "80f00927ecd873c316a50de14478c33d", "is_disabled": 0, "type": "electric_scooter", "is_reserved": 0, "fusion_lon": 0.0, "lat": 38.92246183333334, "rental_uris": {"ios": "https://dc.lft.to/lastmile_qr_scan", "android": "https://dc.lft.to/lastmile_qr_scan"}, "bike_id": "80f00927ecd873c316a50de14478c33d", "fusion_lat": 0.0}, {"lon": -76.92446583333333, "name": "8d674b7cfc638be33da2ba1688ae3ca1", "is_disabled": 0, "type": "electric_scooter", "is_reserved": 0, "fusion_lon": 0.0, "lat": 38.885168666666665, "rental_uris": {"ios": "https://dc.lft.to/lastmile_qr_scan", "android": "https://dc.lft.to/lastmile_qr_scan"}, "bike_id": "8d674b7cfc638be33da2ba1688ae3ca1", "fusion_lat": 0.0}, {"lon": -76.97591216666666, "name": "86d5c2b826d2959ea1931766200de2a0", "is_disabled": 0, "type": "electric_scooter", "is_reserved": 0, "fusion_lon": 0.0, "lat": 38.903348, "rental_uris": {"ios": "https://dc.lft.to/lastmile_qr_scan", "android": "https://dc.lft.to/lastmile_qr_scan"}, "bike_id": "86d5c2b826d2959ea1931766200de2a0", "fusion_lat": 0.0}, {"lon": -77.04108566666666, "name": "07ad1c7736c613e51cfabdf8373b6394", "is_disabled": 0, "type": "electric_scooter", "is_reserved": 0, "fusion_lon": 0.0, "lat": 38.89225666666667, "rental_uris": {"ios": "https://dc.lft.to/lastmile_qr_scan", "android": "https://dc.lft.to/lastmile_qr_scan"}, "bike_id": "07ad1c7736c613e51cfabdf8373b6394", "fusion_lat": 0.0}, {"lon": -77.02241883333333, "name": "92fe8e23ed15940276a0b9bfdc62d77d", "is_disabled": 0, "type": "electric_scooter", "is_reserved": 0, "fusion_lon": 0.0, "lat": 38.924359333333335, "rental_uris": {"ios": "https://dc.lft.to/lastmile_qr_scan", "android": "https://dc.lft.to/lastmile_qr_scan"}, "bike_id": "92fe8e23ed15940276a0b9bfdc62d77d", "fusion_lat": 0.0}, {"lon": -77.02178016666667, "name": "bb65839558c0c634a71e366e2b40e059", "is_disabled": 0, "type": "electric_scooter", "is_reserved": 0, "fusion_lon": 0.0, "lat": 38.90135, "rental_uris": {"ios": "https://dc.lft.to/lastmile_qr_scan", "android": "https://dc.lft.to/lastmile_qr_scan"}, "bike_id": "bb65839558c0c634a71e366e2b40e059", "fusion_lat": 0.0}, {"lon": -76.907466, "name": "fa95959e3cec8769afd4a2b5a42a074c", "is_disabled": 0, "type": "electric_bike", "is_reserved": 0, "fusion_lon": 0.0, "lat": 38.8962385, "rental_uris": {"ios": "https://dc.lft.to/lastmile_qr_scan", "android": "https://dc.lft.to/lastmile_qr_scan"}, "bike_id": "fa95959e3cec8769afd4a2b5a42a074c", "fusion_lat": 0.0}, {"lon": -77.04017633333333, "name": "4d8122e9f982598a927689d02f02f9c3", "is_disabled": 0, "type": "electric_scooter", "is_reserved": 0, "fusion_lon": 0.0, "lat": 38.92169116666667, "rental_uris": {"ios": "https://dc.lft.to/lastmile_qr_scan", "android": "https://dc.lft.to/lastmile_qr_scan"}, "bike_id": "4d8122e9f982598a927689d02f02f9c3", "fusion_lat": 0.0}, {"lon": -76.97230633333334, "name": "9f3fbd9abf1ba68c2e4363a44ed8b7eb", "is_disabled": 0, "type": "electric_bike", "is_reserved": 0, "fusion_lon": 0.0, "lat": 38.90042866666667, "rental_uris": {"ios": "https://dc.lft.to/lastmile_qr_scan", "android": "https://dc.lft.to/lastmile_qr_scan"}, "bike_id": "9f3fbd9abf1ba68c2e4363a44ed8b7eb", "fusion_lat": 0.0}, {"lon": -77.02795583333334, "name": "b7163bdc012a2b8602c29e2f86851c7d", "is_disabled": 0, "type": "electric_scooter", "is_reserved": 0, "fusion_lon": 0.0, "lat": 38.9308295, "rental_uris": {"ios": "https://dc.lft.to/lastmile_qr_scan", "android": "https://dc.lft.to/lastmile_qr_scan"}, "bike_id": "b7163bdc012a2b8602c29e2f86851c7d", "fusion_lat": 0.0}, {"lon": -77.023863, "name": "6eeb8a30469a9a97b7902970948e00ba", "is_disabled": 0, "type": "electric_scooter", "is_reserved": 0, "fusion_lon": 0.0, "lat": 38.90219916666667, "rental_uris": {"ios": "https://dc.lft.to/lastmile_qr_scan", "android": "https://dc.lft.to/lastmile_qr_scan"}, "bike_id": "6eeb8a30469a9a97b7902970948e00ba", "fusion_lat": 0.0}, {"lon": -77.0318815, "name": "ae4c9a6a57c2e1deb0781a06b10b8305", "is_disabled": 0, "type": "electric_scooter", "is_reserved": 0, "fusion_lon": 0.0, "lat": 38.91000583333334, "rental_uris": {"ios": "https://dc.lft.to/lastmile_qr_scan", "android": "https://dc.lft.to/lastmile_qr_scan"}, "bike_id": "ae4c9a6a57c2e1deb0781a06b10b8305", "fusion_lat": 0.0}, {"lon": -77.04334516666667, "name": "1a33aa5df0843e9951aa2f81c288d569", "is_disabled": 0, "type": "electric_scooter", "is_reserved": 0, "fusion_lon": 0.0, "lat": 38.924978333333335, "rental_uris": {"ios": "https://dc.lft.to/lastmile_qr_scan", "android": "https://dc.lft.to/lastmile_qr_scan"}, "bike_id": "1a33aa5df0843e9951aa2f81c288d569", "fusion_lat": 0.0}, {"lon": -77.03664683333334, "name": "3bbc8adfaf194bc6dbac19baa7c5159b", "is_disabled": 0, "type": "electric_scooter", "is_reserved": 0, "fusion_lon": 0.0, "lat": 38.92122166666667, "rental_uris": {"ios": "https://dc.lft.to/lastmile_qr_scan", "android": "https://dc.lft.to/lastmile_qr_scan"}, "bike_id": "3bbc8adfaf194bc6dbac19baa7c5159b", "fusion_lat": 0.0}, {"lon": -77.01951633333333, "name": "9aac0528b25e0c77044bf1cdb47babd8", "is_disabled": 0, "type": "electric_scooter", "is_reserved": 0, "fusion_lon": 0.0, "lat": 38.923689333333336, "rental_uris": {"ios": "https://dc.lft.to/lastmile_qr_scan", "android": "https://dc.lft.to/lastmile_qr_scan"}, "bike_id": "9aac0528b25e0c77044bf1cdb47babd8", "fusion_lat": 0.0}, {"lon": -77.032804, "name": "b66cebd38c09443c819cb3c9c0e46138", "is_disabled": 0, "type": "electric_scooter", "is_reserved": 0, "fusion_lon": 0.0, "lat": 38.93252833333333, "rental_uris": {"ios": "https://dc.lft.to/lastmile_qr_scan", "android": "https://dc.lft.to/lastmile_qr_scan"}, "bike_id": "b66cebd38c09443c819cb3c9c0e46138", "fusion_lat": 0.0}, {"lon": -77.03931683333333, "name": "1c86f3875a16a7ac4b71cfdd8f15f730", "is_disabled": 0, "type": "electric_scooter", "is_reserved": 0, "fusion_lon": 0.0, "lat": 38.924956, "rental_uris": {"ios": "https://dc.lft.to/lastmile_qr_scan", "android": "https://dc.lft.to/lastmile_qr_scan"}, "bike_id": "1c86f3875a16a7ac4b71cfdd8f15f730", "fusion_lat": 0.0}, {"lon": -76.98838033333334, "name": "eb74a405066f5af31b3d3358c2664997", "is_disabled": 0, "type": "electric_scooter", "is_reserved": 0, "fusion_lon": 0.0, "lat": 38.93481766666667, "rental_uris": {"ios": "https://dc.lft.to/lastmile_qr_scan", "android": "https://dc.lft.to/lastmile_qr_scan"}, "bike_id": "eb74a405066f5af31b3d3358c2664997", "fusion_lat": 0.0}, {"lon": -77.0266945, "name": "f8d591c36359da17a41b836c70a2c2f9", "is_disabled": 0, "type": "electric_scooter", "is_reserved": 0, "fusion_lon": 0.0, "lat": 38.92173533333333, "rental_uris": {"ios": "https://dc.lft.to/lastmile_qr_scan", "android": "https://dc.lft.to/lastmile_qr_scan"}, "bike_id": "f8d591c36359da17a41b836c70a2c2f9", "fusion_lat": 0.0}, {"lon": -77.002079, "name": "4a15083e444bc8e80fdba57f57e6d84f", "is_disabled": 0, "type": "electric_scooter", "is_reserved": 0, "fusion_lon": 0.0, "lat": 38.900243333333336, "rental_uris": {"ios": "https://dc.lft.to/lastmile_qr_scan", "android": "https://dc.lft.to/lastmile_qr_scan"}, "bike_id": "4a15083e444bc8e80fdba57f57e6d84f", "fusion_lat": 0.0}, {"lon": -77.02441533333334, "name": "46bf1b3f4e7b1aa502a19d25855df9e4", "is_disabled": 0, "type": "electric_scooter", "is_reserved": 0, "fusion_lon": 0.0, "lat": 38.920633333333335, "rental_uris": {"ios": "https://dc.lft.to/lastmile_qr_scan", "android": "https://dc.lft.to/lastmile_qr_scan"}, "bike_id": "46bf1b3f4e7b1aa502a19d25855df9e4", "fusion_lat": 0.0}, {"lon": -77.02537283333334, "name": "ff523bc8931da60908572b56f11aedec", "is_disabled": 0, "type": "electric_scooter", "is_reserved": 0, "fusion_lon": 0.0, "lat": 38.89219533333333, "rental_uris": {"ios": "https://dc.lft.to/lastmile_qr_scan", "android": "https://dc.lft.to/lastmile_qr_scan"}, "bike_id": "ff523bc8931da60908572b56f11aedec", "fusion_lat": 0.0}, {"lon": -77.03219416666667, "name": "54b8efc24dc0cc21373dd6a114986653", "is_disabled": 0, "type": "electric_scooter", "is_reserved": 0, "fusion_lon": 0.0, "lat": 38.89224316666667, "rental_uris": {"ios": "https://dc.lft.to/lastmile_qr_scan", "android": "https://dc.lft.to/lastmile_qr_scan"}, "bike_id": "54b8efc24dc0cc21373dd6a114986653", "fusion_lat": 0.0}, {"lon": -77.01888616666666, "name": "219987f46d71ddadbb44cda48487d7bb", "is_disabled": 0, "type": "electric_scooter", "is_reserved": 0, "fusion_lon": 0.0, "lat": 38.91949683333333, "rental_uris": {"ios": "https://dc.lft.to/lastmile_qr_scan", "android": "https://dc.lft.to/lastmile_qr_scan"}, "bike_id": "219987f46d71ddadbb44cda48487d7bb", "fusion_lat": 0.0}, {"lon": -77.02265783333333, "name": "fe5330a6e05ea00b27f5b8e229897ce9", "is_disabled": 0, "type": "electric_scooter", "is_reserved": 0, "fusion_lon": 0.0, "lat": 38.92659316666666, "rental_uris": {"ios": "https://dc.lft.to/lastmile_qr_scan", "android": "https://dc.lft.to/lastmile_qr_scan"}, "bike_id": "fe5330a6e05ea00b27f5b8e229897ce9", "fusion_lat": 0.0}, {"lon": -76.93938483333334, "name": "a126a2a7b5c3938011e28d3e945b91b7", "is_disabled": 0, "type": "electric_scooter", "is_reserved": 0, "fusion_lon": 0.0, "lat": 38.90862883333333, "rental_uris": {"ios": "https://dc.lft.to/lastmile_qr_scan", "android": "https://dc.lft.to/lastmile_qr_scan"}, "bike_id": "a126a2a7b5c3938011e28d3e945b91b7", "fusion_lat": 0.0}, {"lon": -77.03687683333334, "name": "20e70bb03a3ecea4b169c23ce586865a", "is_disabled": 0, "type": "electric_scooter", "is_reserved": 0, "fusion_lon": 0.0, "lat": 38.92640133333333, "rental_uris": {"ios": "https://dc.lft.to/lastmile_qr_scan", "android": "https://dc.lft.to/lastmile_qr_scan"}, "bike_id": "20e70bb03a3ecea4b169c23ce586865a", "fusion_lat": 0.0}, {"lon": -77.03182633333333, "name": "98b6f75e322fce0c04deaab67def93e5", "is_disabled": 0, "type": "electric_scooter", "is_reserved": 0, "fusion_lon": 0.0, "lat": 38.916241666666664, "rental_uris": {"ios": "https://dc.lft.to/lastmile_qr_scan", "android": "https://dc.lft.to/lastmile_qr_scan"}, "bike_id": "98b6f75e322fce0c04deaab67def93e5", "fusion_lat": 0.0}, {"lon": -77.02896383333334, "name": "90214a0f3229b2ff8b994b7fa466379a", "is_disabled": 0, "type": "electric_bike", "is_reserved": 0, "fusion_lon": 0.0, "lat": 38.94054, "rental_uris": {"ios": "https://dc.lft.to/lastmile_qr_scan", "android": "https://dc.lft.to/lastmile_qr_scan"}, "bike_id": "90214a0f3229b2ff8b994b7fa466379a", "fusion_lat": 0.0}, {"lon": -76.98826333333334, "name": "85108fdec16a0ba49c68670af37f82fe", "is_disabled": 0, "type": "electric_scooter", "is_reserved": 0, "fusion_lon": 0.0, "lat": 38.890753833333335, "rental_uris": {"ios": "https://dc.lft.to/lastmile_qr_scan", "android": "https://dc.lft.to/lastmile_qr_scan"}, "bike_id": "85108fdec16a0ba49c68670af37f82fe", "fusion_lat": 0.0}, {"lon": -77.07129733333333, "name": "13025df0897d0caa8fe6f51e99e3cb2d", "is_disabled": 0, "type": "electric_scooter", "is_reserved": 0, "fusion_lon": 0.0, "lat": 38.92023366666667, "rental_uris": {"ios": "https://dc.lft.to/lastmile_qr_scan", "android": "https://dc.lft.to/lastmile_qr_scan"}, "bike_id": "13025df0897d0caa8fe6f51e99e3cb2d", "fusion_lat": 0.0}, {"lon": -77.0955135, "name": "bf4b73c34f1788602426a244c5134dd2", "is_disabled": 0, "type": "electric_bike", "is_reserved": 0, "fusion_lon": 0.0, "lat": 38.99193733333333, "rental_uris": {"ios": "https://dc.lft.to/lastmile_qr_scan", "android": "https://dc.lft.to/lastmile_qr_scan"}, "bike_id": "bf4b73c34f1788602426a244c5134dd2", "fusion_lat": 0.0}, {"lon": -77.05941483333334, "name": "422707e53e748ee8de12a90bfdccd236", "is_disabled": 0, "type": "electric_scooter", "is_reserved": 0, "fusion_lon": 0.0, "lat": 38.93704983333333, "rental_uris": {"ios": "https://dc.lft.to/lastmile_qr_scan", "android": "https://dc.lft.to/lastmile_qr_scan"}, "bike_id": "422707e53e748ee8de12a90bfdccd236", "fusion_lat": 0.0}, {"lon": -77.03224216666666, "name": "a677a97f307295274371f48a0632e426", "is_disabled": 0, "type": "electric_scooter", "is_reserved": 0, "fusion_lon": 0.0, "lat": 38.89230283333333, "rental_uris": {"ios": "https://dc.lft.to/lastmile_qr_scan", "android": "https://dc.lft.to/lastmile_qr_scan"}, "bike_id": "a677a97f307295274371f48a0632e426", "fusion_lat": 0.0}, {"lon": -77.03295283333334, "name": "5b90f1c2fb6b5a389ebc23570ce3fd1c", "is_disabled": 0, "type": "electric_scooter", "is_reserved": 0, "fusion_lon": 0.0, "lat": 38.956560833333334, "rental_uris": {"ios": "https://dc.lft.to/lastmile_qr_scan", "android": "https://dc.lft.to/lastmile_qr_scan"}, "bike_id": "5b90f1c2fb6b5a389ebc23570ce3fd1c", "fusion_lat": 0.0}, {"lon": -77.08999983333334, "name": "faa69f27c2a3125964b27f3cac71f011", "is_disabled": 0, "type": "electric_bike", "is_reserved": 0, "fusion_lon": 0.0, "lat": 38.90907816666667, "rental_uris": {"ios": "https://dc.lft.to/lastmile_qr_scan", "android": "https://dc.lft.to/lastmile_qr_scan"}, "bike_id": "faa69f27c2a3125964b27f3cac71f011", "fusion_lat": 0.0}, {"lon": -77.01682133333334, "name": "cfd8ec662772ed945cf99412151db582", "is_disabled": 0, "type": "electric_scooter", "is_reserved": 0, "fusion_lon": 0.0, "lat": 38.91085366666667, "rental_uris": {"ios": "https://dc.lft.to/lastmile_qr_scan", "android": "https://dc.lft.to/lastmile_qr_scan"}, "bike_id": "cfd8ec662772ed945cf99412151db582", "fusion_lat": 0.0}, {"lon": -76.95127766666667, "name": "6ba08a271d8b211cc3dad4441133e992", "is_disabled": 0, "type": "electric_bike", "is_reserved": 0, "fusion_lon": 0.0, "lat": 38.95188383333333, "rental_uris": {"ios": "https://dc.lft.to/lastmile_qr_scan", "android": "https://dc.lft.to/lastmile_qr_scan"}, "bike_id": "6ba08a271d8b211cc3dad4441133e992", "fusion_lat": 0.0}, {"lon": -76.99688716666667, "name": "51f9fd9496a55e1ef439e64d1df9fd60", "is_disabled": 0, "type": "electric_bike", "is_reserved": 0, "fusion_lon": 0.0, "lat": 38.83867333333333, "rental_uris": {"ios": "https://dc.lft.to/lastmile_qr_scan", "android": "https://dc.lft.to/lastmile_qr_scan"}, "bike_id": "51f9fd9496a55e1ef439e64d1df9fd60", "fusion_lat": 0.0}, {"lon": -77.02406616666667, "name": "2ad1812279bdcb0db06081c748e94f99", "is_disabled": 0, "type": "electric_scooter", "is_reserved": 0, "fusion_lon": 0.0, "lat": 38.916008166666664, "rental_uris": {"ios": "https://dc.lft.to/lastmile_qr_scan", "android": "https://dc.lft.to/lastmile_qr_scan"}, "bike_id": "2ad1812279bdcb0db06081c748e94f99", "fusion_lat": 0.0}, {"lon": -77.02003783333333, "name": "f19ee4d61a1f98e964c13176aa51940c", "is_disabled": 0, "type": "electric_scooter", "is_reserved": 0, "fusion_lon": 0.0, "lat": 38.9110675, "rental_uris": {"ios": "https://dc.lft.to/lastmile_qr_scan", "android": "https://dc.lft.to/lastmile_qr_scan"}, "bike_id": "f19ee4d61a1f98e964c13176aa51940c", "fusion_lat": 0.0}, {"lon": -77.02238616666666, "name": "a8ba488173624473ab4b49b0faba1d9c", "is_disabled": 0, "type": "electric_scooter", "is_reserved": 0, "fusion_lon": 0.0, "lat": 38.92437366666667, "rental_uris": {"ios": "https://dc.lft.to/lastmile_qr_scan", "android": "https://dc.lft.to/lastmile_qr_scan"}, "bike_id": "a8ba488173624473ab4b49b0faba1d9c", "fusion_lat": 0.0}, {"lon": -77.02200316666666, "name": "058855b22e13430d9a570ffb2a5cd871", "is_disabled": 0, "type": "electric_scooter", "is_reserved": 0, "fusion_lon": 0.0, "lat": 38.92471333333334, "rental_uris": {"ios": "https://dc.lft.to/lastmile_qr_scan", "android": "https://dc.lft.to/lastmile_qr_scan"}, "bike_id": "058855b22e13430d9a570ffb2a5cd871", "fusion_lat": 0.0}, {"lon": -76.97744633333333, "name": "f83f1789b362f979fe761bbf1173916a", "is_disabled": 0, "type": "electric_scooter", "is_reserved": 0, "fusion_lon": 0.0, "lat": 38.9001615, "rental_uris": {"ios": "https://dc.lft.to/lastmile_qr_scan", "android": "https://dc.lft.to/lastmile_qr_scan"}, "bike_id": "f83f1789b362f979fe761bbf1173916a", "fusion_lat": 0.0}, {"lon": -76.993406, "name": "ba9bc3289edf974db9738ab9042fa983", "is_disabled": 0, "type": "electric_scooter", "is_reserved": 0, "fusion_lon": 0.0, "lat": 38.9005725, "rental_uris": {"ios": "https://dc.lft.to/lastmile_qr_scan", "android": "https://dc.lft.to/lastmile_qr_scan"}, "bike_id": "ba9bc3289edf974db9738ab9042fa983", "fusion_lat": 0.0}, {"lon": -77.05474633333333, "name": "a0cc530006534d8b037e6a29bfbef71e", "is_disabled": 0, "type": "electric_scooter", "is_reserved": 0, "fusion_lon": 0.0, "lat": 38.89393033333333, "rental_uris": {"ios": "https://dc.lft.to/lastmile_qr_scan", "android": "https://dc.lft.to/lastmile_qr_scan"}, "bike_id": "a0cc530006534d8b037e6a29bfbef71e", "fusion_lat": 0.0}, {"lon": -77.041957, "name": "f970bf3312e5155ba01f821302d2c719", "is_disabled": 0, "type": "electric_scooter", "is_reserved": 0, "fusion_lon": 0.0, "lat": 38.9062785, "rental_uris": {"ios": "https://dc.lft.to/lastmile_qr_scan", "android": "https://dc.lft.to/lastmile_qr_scan"}, "bike_id": "f970bf3312e5155ba01f821302d2c719", "fusion_lat": 0.0}, {"lon": -76.92503633333334, "name": "590d6478c1e53c581bf3252ef59821e1", "is_disabled": 0, "type": "electric_scooter", "is_reserved": 0, "fusion_lon": 0.0, "lat": 38.8860295, "rental_uris": {"ios": "https://dc.lft.to/lastmile_qr_scan", "android": "https://dc.lft.to/lastmile_qr_scan"}, "bike_id": "590d6478c1e53c581bf3252ef59821e1", "fusion_lat": 0.0}, {"lon": -77.01553583333333, "name": "a617b400b6cc76be732aa80af10a6b78", "is_disabled": 0, "type": "electric_scooter", "is_reserved": 0, "fusion_lon": 0.0, "lat": 38.89218833333334, "rental_uris": {"ios": "https://dc.lft.to/lastmile_qr_scan", "android": "https://dc.lft.to/lastmile_qr_scan"}, "bike_id": "a617b400b6cc76be732aa80af10a6b78", "fusion_lat": 0.0}, {"lon": -77.05703083333333, "name": "4c35a1d84034026db34f515d31b571e9", "is_disabled": 0, "type": "electric_scooter", "is_reserved": 0, "fusion_lon": 0.0, "lat": 38.916745, "rental_uris": {"ios": "https://dc.lft.to/lastmile_qr_scan", "android": "https://dc.lft.to/lastmile_qr_scan"}, "bike_id": "4c35a1d84034026db34f515d31b571e9", "fusion_lat": 0.0}, {"lon": -77.02801316666667, "name": "bebd0af9f7beb20b8b11d0988378d53a", "is_disabled": 0, "type": "electric_scooter", "is_reserved": 0, "fusion_lon": 0.0, "lat": 38.96143083333333, "rental_uris": {"ios": "https://dc.lft.to/lastmile_qr_scan", "android": "https://dc.lft.to/lastmile_qr_scan"}, "bike_id": "bebd0af9f7beb20b8b11d0988378d53a", "fusion_lat": 0.0}, {"lon": -76.93394533333333, "name": "e66302ba1ffb85907f0e52e28ae652b5", "is_disabled": 0, "type": "electric_scooter", "is_reserved": 0, "fusion_lon": 0.0, "lat": 38.899151833333335, "rental_uris": {"ios": "https://dc.lft.to/lastmile_qr_scan", "android": "https://dc.lft.to/lastmile_qr_scan"}, "bike_id": "e66302ba1ffb85907f0e52e28ae652b5", "fusion_lat": 0.0}, {"lon": -77.022966, "name": "c6ffd53d07d56bffce8bffc10ff80fe8", "is_disabled": 0, "type": "electric_scooter", "is_reserved": 0, "fusion_lon": 0.0, "lat": 38.907815666666664, "rental_uris": {"ios": "https://dc.lft.to/lastmile_qr_scan", "android": "https://dc.lft.to/lastmile_qr_scan"}, "bike_id": "c6ffd53d07d56bffce8bffc10ff80fe8", "fusion_lat": 0.0}, {"lon": -76.998585, "name": "4dbb10a70d66636e6e8d557d5490ccc7", "is_disabled": 0, "type": "electric_scooter", "is_reserved": 0, "fusion_lon": 0.0, "lat": 38.900457833333334, "rental_uris": {"ios": "https://dc.lft.to/lastmile_qr_scan", "android": "https://dc.lft.to/lastmile_qr_scan"}, "bike_id": "4dbb10a70d66636e6e8d557d5490ccc7", "fusion_lat": 0.0}, {"lon": -77.0658415, "name": "c95f6b010075f9dea2f0a529e5b39b09", "is_disabled": 0, "type": "electric_scooter", "is_reserved": 0, "fusion_lon": 0.0, "lat": 38.9122535, "rental_uris": {"ios": "https://dc.lft.to/lastmile_qr_scan", "android": "https://dc.lft.to/lastmile_qr_scan"}, "bike_id": "c95f6b010075f9dea2f0a529e5b39b09", "fusion_lat": 0.0}, {"lon": -77.05751033333334, "name": "5e6a1af37091823096d1c2235e749518", "is_disabled": 0, "type": "electric_scooter", "is_reserved": 0, "fusion_lon": 0.0, "lat": 38.92485383333333, "rental_uris": {"ios": "https://dc.lft.to/lastmile_qr_scan", "android": "https://dc.lft.to/lastmile_qr_scan"}, "bike_id": "5e6a1af37091823096d1c2235e749518", "fusion_lat": 0.0}, {"lon": -77.04131016666666, "name": "74144b3dd13be1faff8f00e31421e990", "is_disabled": 0, "type": "electric_scooter", "is_reserved": 0, "fusion_lon": 0.0, "lat": 38.921853, "rental_uris": {"ios": "https://dc.lft.to/lastmile_qr_scan", "android": "https://dc.lft.to/lastmile_qr_scan"}, "bike_id": "74144b3dd13be1faff8f00e31421e990", "fusion_lat": 0.0}, {"lon": -77.010232, "name": "d463b7d4aebaa9952ce4e4eba2067d7a", "is_disabled": 0, "type": "electric_scooter", "is_reserved": 0, "fusion_lon": 0.0, "lat": 38.91418916666667, "rental_uris": {"ios": "https://dc.lft.to/lastmile_qr_scan", "android": "https://dc.lft.to/lastmile_qr_scan"}, "bike_id": "d463b7d4aebaa9952ce4e4eba2067d7a", "fusion_lat": 0.0}, {"lon": -77.01815266666667, "name": "f7d4502485d851b3786365f40eb9aa37", "is_disabled": 0, "type": "electric_scooter", "is_reserved": 0, "fusion_lon": 0.0, "lat": 38.90388266666667, "rental_uris": {"ios": "https://dc.lft.to/lastmile_qr_scan", "android": "https://dc.lft.to/lastmile_qr_scan"}, "bike_id": "f7d4502485d851b3786365f40eb9aa37", "fusion_lat": 0.0}, {"lon": -77.03470783333333, "name": "81ce7174e9eece5c14208cd53a68084e", "is_disabled": 0, "type": "electric_scooter", "is_reserved": 0, "fusion_lon": 0.0, "lat": 38.9157615, "rental_uris": {"ios": "https://dc.lft.to/lastmile_qr_scan", "android": "https://dc.lft.to/lastmile_qr_scan"}, "bike_id": "81ce7174e9eece5c14208cd53a68084e", "fusion_lat": 0.0}, {"lon": -77.0174915, "name": "2ed429b74ef5527591b0c186e62034c6", "is_disabled": 0, "type": "electric_scooter", "is_reserved": 0, "fusion_lon": 0.0, "lat": 38.874903, "rental_uris": {"ios": "https://dc.lft.to/lastmile_qr_scan", "android": "https://dc.lft.to/lastmile_qr_scan"}, "bike_id": "2ed429b74ef5527591b0c186e62034c6", "fusion_lat": 0.0}, {"lon": -77.04857166666666, "name": "d6a8ff67560f104bb135000cf3b0ea82", "is_disabled": 0, "type": "electric_scooter", "is_reserved": 0, "fusion_lon": 0.0, "lat": 38.905451, "rental_uris": {"ios": "https://dc.lft.to/lastmile_qr_scan", "android": "https://dc.lft.to/lastmile_qr_scan"}, "bike_id": "d6a8ff67560f104bb135000cf3b0ea82", "fusion_lat": 0.0}, {"lon": -77.02270133333333, "name": "fda5b590d269c7a3fb69e141ff3ccbf1", "is_disabled": 0, "type": "electric_scooter", "is_reserved": 0, "fusion_lon": 0.0, "lat": 38.897264666666665, "rental_uris": {"ios": "https://dc.lft.to/lastmile_qr_scan", "android": "https://dc.lft.to/lastmile_qr_scan"}, "bike_id": "fda5b590d269c7a3fb69e141ff3ccbf1", "fusion_lat": 0.0}, {"lon": -77.036444, "name": "a01a4c4bb7179346845035047aeae3c5", "is_disabled": 0, "type": "electric_scooter", "is_reserved": 0, "fusion_lon": 0.0, "lat": 38.91874933333333, "rental_uris": {"ios": "https://dc.lft.to/lastmile_qr_scan", "android": "https://dc.lft.to/lastmile_qr_scan"}, "bike_id": "a01a4c4bb7179346845035047aeae3c5", "fusion_lat": 0.0}, {"lon": -77.01157783333333, "name": "f94aee0f03bddeaa0c2f5b25daa37743", "is_disabled": 0, "type": "electric_scooter", "is_reserved": 0, "fusion_lon": 0.0, "lat": 38.91713166666667, "rental_uris": {"ios": "https://dc.lft.to/lastmile_qr_scan", "android": "https://dc.lft.to/lastmile_qr_scan"}, "bike_id": "f94aee0f03bddeaa0c2f5b25daa37743", "fusion_lat": 0.0}, {"lon": -77.04889066666667, "name": "a08f82eee1cda0145098ace0b65d3dd5", "is_disabled": 0, "type": "electric_scooter", "is_reserved": 0, "fusion_lon": 0.0, "lat": 38.89982716666667, "rental_uris": {"ios": "https://dc.lft.to/lastmile_qr_scan", "android": "https://dc.lft.to/lastmile_qr_scan"}, "bike_id": "a08f82eee1cda0145098ace0b65d3dd5", "fusion_lat": 0.0}, {"lon": -77.03416733333333, "name": "765fba8bd93dc4c62073f8d0eee018a8", "is_disabled": 0, "type": "electric_scooter", "is_reserved": 0, "fusion_lon": 0.0, "lat": 38.920471166666665, "rental_uris": {"ios": "https://dc.lft.to/lastmile_qr_scan", "android": "https://dc.lft.to/lastmile_qr_scan"}, "bike_id": "765fba8bd93dc4c62073f8d0eee018a8", "fusion_lat": 0.0}, {"lon": -76.92950833333333, "name": "8aa2718c95c05603b2ba089e099f2738", "is_disabled": 0, "type": "electric_scooter", "is_reserved": 0, "fusion_lon": 0.0, "lat": 38.901824500000004, "rental_uris": {"ios": "https://dc.lft.to/lastmile_qr_scan", "android": "https://dc.lft.to/lastmile_qr_scan"}, "bike_id": "8aa2718c95c05603b2ba089e099f2738", "fusion_lat": 0.0}, {"lon": -77.01994783333333, "name": "444aff37f7408982978642a5628eb71c", "is_disabled": 0, "type": "electric_scooter", "is_reserved": 0, "fusion_lon": 0.0, "lat": 38.885542, "rental_uris": {"ios": "https://dc.lft.to/lastmile_qr_scan", "android": "https://dc.lft.to/lastmile_qr_scan"}, "bike_id": "444aff37f7408982978642a5628eb71c", "fusion_lat": 0.0}, {"lon": -77.02151116666667, "name": "ed741d314d24c3ebebfb618116c5c3ed", "is_disabled": 0, "type": "electric_scooter", "is_reserved": 0, "fusion_lon": 0.0, "lat": 38.92462283333333, "rental_uris": {"ios": "https://dc.lft.to/lastmile_qr_scan", "android": "https://dc.lft.to/lastmile_qr_scan"}, "bike_id": "ed741d314d24c3ebebfb618116c5c3ed", "fusion_lat": 0.0}, {"lon": -77.02794866666666, "name": "ab220568a7dbd59f2e968fb3229ff005", "is_disabled": 0, "type": "electric_scooter", "is_reserved": 0, "fusion_lon": 0.0, "lat": 38.929725166666664, "rental_uris": {"ios": "https://dc.lft.to/lastmile_qr_scan", "android": "https://dc.lft.to/lastmile_qr_scan"}, "bike_id": "ab220568a7dbd59f2e968fb3229ff005", "fusion_lat": 0.0}, {"lon": -77.02459616666667, "name": "20399085f3c8b659066e333875f6cfe1", "is_disabled": 0, "type": "electric_scooter", "is_reserved": 0, "fusion_lon": 0.0, "lat": 38.92387, "rental_uris": {"ios": "https://dc.lft.to/lastmile_qr_scan", "android": "https://dc.lft.to/lastmile_qr_scan"}, "bike_id": "20399085f3c8b659066e333875f6cfe1", "fusion_lat": 0.0}, {"lon": -77.00927033333333, "name": "008e66258de8b1becf7d826005627f33", "is_disabled": 0, "type": "electric_scooter", "is_reserved": 0, "fusion_lon": 0.0, "lat": 38.916956666666664, "rental_uris": {"ios": "https://dc.lft.to/lastmile_qr_scan", "android": "https://dc.lft.to/lastmile_qr_scan"}, "bike_id": "008e66258de8b1becf7d826005627f33", "fusion_lat": 0.0}, {"lon": -77.01110183333333, "name": "d27a970dfc6629beb16d337a41b6934c", "is_disabled": 0, "type": "electric_scooter", "is_reserved": 0, "fusion_lon": 0.0, "lat": 38.89474366666666, "rental_uris": {"ios": "https://dc.lft.to/lastmile_qr_scan", "android": "https://dc.lft.to/lastmile_qr_scan"}, "bike_id": "d27a970dfc6629beb16d337a41b6934c", "fusion_lat": 0.0}, {"lon": -77.043019, "name": "08bca8d4a0e06135666710b802fbbc1c", "is_disabled": 0, "type": "electric_bike", "is_reserved": 0, "fusion_lon": 0.0, "lat": 39.03431583333333, "rental_uris": {"ios": "https://dc.lft.to/lastmile_qr_scan", "android": "https://dc.lft.to/lastmile_qr_scan"}, "bike_id": "08bca8d4a0e06135666710b802fbbc1c", "fusion_lat": 0.0}, {"lon": -77.01745966666667, "name": "24dec9ba94ae99abe349c35e136034be", "is_disabled": 0, "type": "electric_scooter", "is_reserved": 0, "fusion_lon": 0.0, "lat": 38.883374, "rental_uris": {"ios": "https://dc.lft.to/lastmile_qr_scan", "android": "https://dc.lft.to/lastmile_qr_scan"}, "bike_id": "24dec9ba94ae99abe349c35e136034be", "fusion_lat": 0.0}, {"lon": -76.94666733333334, "name": "bfddbb34d8e97c8c18266f1c5e89b44b", "is_disabled": 0, "type": "electric_scooter", "is_reserved": 0, "fusion_lon": 0.0, "lat": 38.898706833333335, "rental_uris": {"ios": "https://dc.lft.to/lastmile_qr_scan", "android": "https://dc.lft.to/lastmile_qr_scan"}, "bike_id": "bfddbb34d8e97c8c18266f1c5e89b44b", "fusion_lat": 0.0}, {"lon": -77.001335, "name": "e4cc842043631f2b97aadba786d2cedc", "is_disabled": 0, "type": "electric_scooter", "is_reserved": 0, "fusion_lon": 0.0, "lat": 38.873818, "rental_uris": {"ios": "https://dc.lft.to/lastmile_qr_scan", "android": "https://dc.lft.to/lastmile_qr_scan"}, "bike_id": "e4cc842043631f2b97aadba786d2cedc", "fusion_lat": 0.0}, {"lon": -77.039581, "name": "89834ad721f81db092bb2aa29b526564", "is_disabled": 0, "type": "electric_scooter", "is_reserved": 0, "fusion_lon": 0.0, "lat": 38.898677, "rental_uris": {"ios": "https://dc.lft.to/lastmile_qr_scan", "android": "https://dc.lft.to/lastmile_qr_scan"}, "bike_id": "89834ad721f81db092bb2aa29b526564", "fusion_lat": 0.0}, {"lon": -77.02135916666667, "name": "a8ff56810fcfbb7f7e5ef41ca010b8d7", "is_disabled": 0, "type": "electric_scooter", "is_reserved": 0, "fusion_lon": 0.0, "lat": 38.92373933333333, "rental_uris": {"ios": "https://dc.lft.to/lastmile_qr_scan", "android": "https://dc.lft.to/lastmile_qr_scan"}, "bike_id": "a8ff56810fcfbb7f7e5ef41ca010b8d7", "fusion_lat": 0.0}, {"lon": -77.028165, "name": "bac9c1ef3c24cef32e1702188190c515", "is_disabled": 0, "type": "electric_scooter", "is_reserved": 0, "fusion_lon": 0.0, "lat": 38.907098, "rental_uris": {"ios": "https://dc.lft.to/lastmile_qr_scan", "android": "https://dc.lft.to/lastmile_qr_scan"}, "bike_id": "bac9c1ef3c24cef32e1702188190c515", "fusion_lat": 0.0}, {"lon": -77.03170333333334, "name": "2a6e8710cf8ee3e59ace34dd580f22a5", "is_disabled": 0, "type": "electric_scooter", "is_reserved": 0, "fusion_lon": 0.0, "lat": 38.88387783333334, "rental_uris": {"ios": "https://dc.lft.to/lastmile_qr_scan", "android": "https://dc.lft.to/lastmile_qr_scan"}, "bike_id": "2a6e8710cf8ee3e59ace34dd580f22a5", "fusion_lat": 0.0}, {"lon": -77.03813583333333, "name": "d5b258634c155068cefc56e1103419a0", "is_disabled": 0, "type": "electric_scooter", "is_reserved": 0, "fusion_lon": 0.0, "lat": 38.92543833333333, "rental_uris": {"ios": "https://dc.lft.to/lastmile_qr_scan", "android": "https://dc.lft.to/lastmile_qr_scan"}, "bike_id": "d5b258634c155068cefc56e1103419a0", "fusion_lat": 0.0}, {"lon": -77.01804666666666, "name": "9b97cb1c65123dfb97d35c7d46299766", "is_disabled": 0, "type": "electric_scooter", "is_reserved": 0, "fusion_lon": 0.0, "lat": 38.914069166666664, "rental_uris": {"ios": "https://dc.lft.to/lastmile_qr_scan", "android": "https://dc.lft.to/lastmile_qr_scan"}, "bike_id": "9b97cb1c65123dfb97d35c7d46299766", "fusion_lat": 0.0}, {"lon": -77.025081, "name": "1eb8b0c84a5606a22324f1791a1b4ea2", "is_disabled": 0, "type": "electric_scooter", "is_reserved": 0, "fusion_lon": 0.0, "lat": 38.91711683333333, "rental_uris": {"ios": "https://dc.lft.to/lastmile_qr_scan", "android": "https://dc.lft.to/lastmile_qr_scan"}, "bike_id": "1eb8b0c84a5606a22324f1791a1b4ea2", "fusion_lat": 0.0}, {"lon": -76.995624, "name": "0fd850ab8a9a9cae79d0ef60420233db", "is_disabled": 0, "type": "electric_scooter", "is_reserved": 0, "fusion_lon": 0.0, "lat": 38.95071466666667, "rental_uris": {"ios": "https://dc.lft.to/lastmile_qr_scan", "android": "https://dc.lft.to/lastmile_qr_scan"}, "bike_id": "0fd850ab8a9a9cae79d0ef60420233db", "fusion_lat": 0.0}, {"lon": -77.03255266666666, "name": "7734d8ff51238852bed394d67fd723b1", "is_disabled": 0, "type": "electric_scooter", "is_reserved": 0, "fusion_lon": 0.0, "lat": 38.90283983333333, "rental_uris": {"ios": "https://dc.lft.to/lastmile_qr_scan", "android": "https://dc.lft.to/lastmile_qr_scan"}, "bike_id": "7734d8ff51238852bed394d67fd723b1", "fusion_lat": 0.0}, {"lon": -77.05067566666666, "name": "5c7d9006e8d6c55e0acb1ae5dfd5129c", "is_disabled": 0, "type": "electric_scooter", "is_reserved": 0, "fusion_lon": 0.0, "lat": 38.900706166666666, "rental_uris": {"ios": "https://dc.lft.to/lastmile_qr_scan", "android": "https://dc.lft.to/lastmile_qr_scan"}, "bike_id": "5c7d9006e8d6c55e0acb1ae5dfd5129c", "fusion_lat": 0.0}, {"lon": -77.00882366666667, "name": "cbaf0a2ed2f10161c16367ae0689effe", "is_disabled": 0, "type": "electric_scooter", "is_reserved": 0, "fusion_lon": 0.0, "lat": 38.90980966666667, "rental_uris": {"ios": "https://dc.lft.to/lastmile_qr_scan", "android": "https://dc.lft.to/lastmile_qr_scan"}, "bike_id": "cbaf0a2ed2f10161c16367ae0689effe", "fusion_lat": 0.0}, {"lon": -76.92631983333334, "name": "2759bf89fefe0fa618b12c78cc244539", "is_disabled": 0, "type": "electric_scooter", "is_reserved": 0, "fusion_lon": 0.0, "lat": 38.88619833333333, "rental_uris": {"ios": "https://dc.lft.to/lastmile_qr_scan", "android": "https://dc.lft.to/lastmile_qr_scan"}, "bike_id": "2759bf89fefe0fa618b12c78cc244539", "fusion_lat": 0.0}, {"lon": -76.99853383333334, "name": "aebf307f855006f761ffaedcbc640145", "is_disabled": 0, "type": "electric_scooter", "is_reserved": 0, "fusion_lon": 0.0, "lat": 38.90125366666667, "rental_uris": {"ios": "https://dc.lft.to/lastmile_qr_scan", "android": "https://dc.lft.to/lastmile_qr_scan"}, "bike_id": "aebf307f855006f761ffaedcbc640145", "fusion_lat": 0.0}, {"lon": -77.00979583333333, "name": "cdf466e49917e6957b40040a1b8ffa96", "is_disabled": 0, "type": "electric_scooter", "is_reserved": 0, "fusion_lon": 0.0, "lat": 38.91411433333333, "rental_uris": {"ios": "https://dc.lft.to/lastmile_qr_scan", "android": "https://dc.lft.to/lastmile_qr_scan"}, "bike_id": "cdf466e49917e6957b40040a1b8ffa96", "fusion_lat": 0.0}, {"lon": -77.02320383333333, "name": "27a8a02dc47a3c8cbf10cf633c15af3b", "is_disabled": 0, "type": "electric_scooter", "is_reserved": 0, "fusion_lon": 0.0, "lat": 38.939917333333334, "rental_uris": {"ios": "https://dc.lft.to/lastmile_qr_scan", "android": "https://dc.lft.to/lastmile_qr_scan"}, "bike_id": "27a8a02dc47a3c8cbf10cf633c15af3b", "fusion_lat": 0.0}, {"lon": -77.03377666666667, "name": "7f2409a55279521e6ec6833bb3abf816", "is_disabled": 0, "type": "electric_scooter", "is_reserved": 0, "fusion_lon": 0.0, "lat": 38.924720666666666, "rental_uris": {"ios": "https://dc.lft.to/lastmile_qr_scan", "android": "https://dc.lft.to/lastmile_qr_scan"}, "bike_id": "7f2409a55279521e6ec6833bb3abf816", "fusion_lat": 0.0}, {"lon": -77.06595883333334, "name": "d3dcaea96aa841261d463a2068b032e5", "is_disabled": 0, "type": "electric_scooter", "is_reserved": 0, "fusion_lon": 0.0, "lat": 38.91227116666666, "rental_uris": {"ios": "https://dc.lft.to/lastmile_qr_scan", "android": "https://dc.lft.to/lastmile_qr_scan"}, "bike_id": "d3dcaea96aa841261d463a2068b032e5", "fusion_lat": 0.0}, {"lon": -77.06704033333334, "name": "80670b719f94746c95d106eb1ca71b8b", "is_disabled": 0, "type": "electric_scooter", "is_reserved": 0, "fusion_lon": 0.0, "lat": 38.914217666666666, "rental_uris": {"ios": "https://dc.lft.to/lastmile_qr_scan", "android": "https://dc.lft.to/lastmile_qr_scan"}, "bike_id": "80670b719f94746c95d106eb1ca71b8b", "fusion_lat": 0.0}, {"lon": -77.07547716666667, "name": "bbf48183d10bf0ff528a6fbe42391c3a", "is_disabled": 0, "type": "electric_scooter", "is_reserved": 0, "fusion_lon": 0.0, "lat": 38.915425666666664, "rental_uris": {"ios": "https://dc.lft.to/lastmile_qr_scan", "android": "https://dc.lft.to/lastmile_qr_scan"}, "bike_id": "bbf48183d10bf0ff528a6fbe42391c3a", "fusion_lat": 0.0}, {"lon": -77.01746833333333, "name": "54b5fffb6917c83cd73e749549e88e70", "is_disabled": 0, "type": "electric_scooter", "is_reserved": 0, "fusion_lon": 0.0, "lat": 38.88061166666667, "rental_uris": {"ios": "https://dc.lft.to/lastmile_qr_scan", "android": "https://dc.lft.to/lastmile_qr_scan"}, "bike_id": "54b5fffb6917c83cd73e749549e88e70", "fusion_lat": 0.0}, {"lon": -77.03384666666666, "name": "0a4774a2dbed25a8f35f7ce3fac60fcc", "is_disabled": 0, "type": "electric_scooter", "is_reserved": 0, "fusion_lon": 0.0, "lat": 38.90985666666667, "rental_uris": {"ios": "https://dc.lft.to/lastmile_qr_scan", "android": "https://dc.lft.to/lastmile_qr_scan"}, "bike_id": "0a4774a2dbed25a8f35f7ce3fac60fcc", "fusion_lat": 0.0}, {"lon": -77.01778166666666, "name": "ebb2fa41150a8fa4807b544d24547f8c", "is_disabled": 0, "type": "electric_scooter", "is_reserved": 0, "fusion_lon": 0.0, "lat": 38.920525833333336, "rental_uris": {"ios": "https://dc.lft.to/lastmile_qr_scan", "android": "https://dc.lft.to/lastmile_qr_scan"}, "bike_id": "ebb2fa41150a8fa4807b544d24547f8c", "fusion_lat": 0.0}, {"lon": -77.01972583333334, "name": "c721e8ec7353cb7570d2d06245979a1f", "is_disabled": 0, "type": "electric_scooter", "is_reserved": 0, "fusion_lon": 0.0, "lat": 38.885703666666664, "rental_uris": {"ios": "https://dc.lft.to/lastmile_qr_scan", "android": "https://dc.lft.to/lastmile_qr_scan"}, "bike_id": "c721e8ec7353cb7570d2d06245979a1f", "fusion_lat": 0.0}, {"lon": -76.91803983333334, "name": "340e5bde4dd61173aed3ee5f4e89fe33", "is_disabled": 0, "type": "electric_bike", "is_reserved": 0, "fusion_lon": 0.0, "lat": 39.0000505, "rental_uris": {"ios": "https://dc.lft.to/lastmile_qr_scan", "android": "https://dc.lft.to/lastmile_qr_scan"}, "bike_id": "340e5bde4dd61173aed3ee5f4e89fe33", "fusion_lat": 0.0}, {"lon": -77.02424283333333, "name": "7be1bf793ff878bb04f242a43ec6f1a4", "is_disabled": 0, "type": "electric_scooter", "is_reserved": 0, "fusion_lon": 0.0, "lat": 38.92075583333333, "rental_uris": {"ios": "https://dc.lft.to/lastmile_qr_scan", "android": "https://dc.lft.to/lastmile_qr_scan"}, "bike_id": "7be1bf793ff878bb04f242a43ec6f1a4", "fusion_lat": 0.0}, {"lon": -77.0944465, "name": "a531c7d7f8e71b9a14c9a71f30dc37ea", "is_disabled": 0, "type": "electric_bike", "is_reserved": 0, "fusion_lon": 0.0, "lat": 38.894276, "rental_uris": {"ios": "https://dc.lft.to/lastmile_qr_scan", "android": "https://dc.lft.to/lastmile_qr_scan"}, "bike_id": "a531c7d7f8e71b9a14c9a71f30dc37ea", "fusion_lat": 0.0}, {"lon": -76.9864445, "name": "05db24daa9d06bef6b8369e0378d7dde", "is_disabled": 0, "type": "electric_bike", "is_reserved": 0, "fusion_lon": 0.0, "lat": 38.974791833333335, "rental_uris": {"ios": "https://dc.lft.to/lastmile_qr_scan", "android": "https://dc.lft.to/lastmile_qr_scan"}, "bike_id": "05db24daa9d06bef6b8369e0378d7dde", "fusion_lat": 0.0}, {"lon": -77.06052283333334, "name": "65c850f1d3cc95e6b85655213c7228ab", "is_disabled": 0, "type": "electric_scooter", "is_reserved": 0, "fusion_lon": 0.0, "lat": 38.93933466666667, "rental_uris": {"ios": "https://dc.lft.to/lastmile_qr_scan", "android": "https://dc.lft.to/lastmile_qr_scan"}, "bike_id": "65c850f1d3cc95e6b85655213c7228ab", "fusion_lat": 0.0}, {"lon": -77.02303266666667, "name": "9bff3664db8295c6e2541897b44044f7", "is_disabled": 0, "type": "electric_scooter", "is_reserved": 0, "fusion_lon": 0.0, "lat": 38.918304666666664, "rental_uris": {"ios": "https://dc.lft.to/lastmile_qr_scan", "android": "https://dc.lft.to/lastmile_qr_scan"}, "bike_id": "9bff3664db8295c6e2541897b44044f7", "fusion_lat": 0.0}, {"lon": -77.024473, "name": "c56ea691b5becb9de9c79fd1d87b38da", "is_disabled": 0, "type": "electric_scooter", "is_reserved": 0, "fusion_lon": 0.0, "lat": 38.894196666666666, "rental_uris": {"ios": "https://dc.lft.to/lastmile_qr_scan", "android": "https://dc.lft.to/lastmile_qr_scan"}, "bike_id": "c56ea691b5becb9de9c79fd1d87b38da", "fusion_lat": 0.0}, {"lon": -76.98691666666667, "name": "e8a3a11e01ec73e7fcbec492a0c171b7", "is_disabled": 0, "type": "electric_bike", "is_reserved": 0, "fusion_lon": 0.0, "lat": 38.944783, "rental_uris": {"ios": "https://dc.lft.to/lastmile_qr_scan", "android": "https://dc.lft.to/lastmile_qr_scan"}, "bike_id": "e8a3a11e01ec73e7fcbec492a0c171b7", "fusion_lat": 0.0}, {"lon": -76.99905, "name": "49ec3f015db4001307f028d64af56cb0", "is_disabled": 0, "type": "electric_scooter", "is_reserved": 0, "fusion_lon": 0.0, "lat": 38.89099983333333, "rental_uris": {"ios": "https://dc.lft.to/lastmile_qr_scan", "android": "https://dc.lft.to/lastmile_qr_scan"}, "bike_id": "49ec3f015db4001307f028d64af56cb0", "fusion_lat": 0.0}, {"lon": -77.02085483333333, "name": "1116e5d5ba023041daaeb2d823b64833", "is_disabled": 0, "type": "electric_scooter", "is_reserved": 0, "fusion_lon": 0.0, "lat": 38.921443833333335, "rental_uris": {"ios": "https://dc.lft.to/lastmile_qr_scan", "android": "https://dc.lft.to/lastmile_qr_scan"}, "bike_id": "1116e5d5ba023041daaeb2d823b64833", "fusion_lat": 0.0}, {"lon": -77.0210995, "name": "1f4a2e56182e5c893ee64c825ad990ce", "is_disabled": 0, "type": "electric_bike", "is_reserved": 0, "fusion_lon": 0.0, "lat": 39.02299566666667, "rental_uris": {"ios": "https://dc.lft.to/lastmile_qr_scan", "android": "https://dc.lft.to/lastmile_qr_scan"}, "bike_id": "1f4a2e56182e5c893ee64c825ad990ce", "fusion_lat": 0.0}, {"lon": -77.0234545, "name": "10388dab19192de103379e6a815e594c", "is_disabled": 0, "type": "electric_scooter", "is_reserved": 0, "fusion_lon": 0.0, "lat": 38.91779483333333, "rental_uris": {"ios": "https://dc.lft.to/lastmile_qr_scan", "android": "https://dc.lft.to/lastmile_qr_scan"}, "bike_id": "10388dab19192de103379e6a815e594c", "fusion_lat": 0.0}, {"lon": -77.03426666666667, "name": "931e6706da71c09737e5ed1fcff1438f", "is_disabled": 0, "type": "electric_scooter", "is_reserved": 0, "fusion_lon": 0.0, "lat": 38.90266483333333, "rental_uris": {"ios": "https://dc.lft.to/lastmile_qr_scan", "android": "https://dc.lft.to/lastmile_qr_scan"}, "bike_id": "931e6706da71c09737e5ed1fcff1438f", "fusion_lat": 0.0}, {"lon": -77.04239033333333, "name": "4eea80460fa5626ce93d9446c853e8b9", "is_disabled": 0, "type": "electric_scooter", "is_reserved": 0, "fusion_lon": 0.0, "lat": 38.9206855, "rental_uris": {"ios": "https://dc.lft.to/lastmile_qr_scan", "android": "https://dc.lft.to/lastmile_qr_scan"}, "bike_id": "4eea80460fa5626ce93d9446c853e8b9", "fusion_lat": 0.0}, {"lon": -77.02202233333334, "name": "4c78c0402cbcdff9c9e55f2e2aa6da4e", "is_disabled": 0, "type": "electric_scooter", "is_reserved": 0, "fusion_lon": 0.0, "lat": 38.905696, "rental_uris": {"ios": "https://dc.lft.to/lastmile_qr_scan", "android": "https://dc.lft.to/lastmile_qr_scan"}, "bike_id": "4c78c0402cbcdff9c9e55f2e2aa6da4e", "fusion_lat": 0.0}, {"lon": -77.017817, "name": "3bbb2b8e56df82590cd2af63a216a4b9", "is_disabled": 0, "type": "electric_scooter", "is_reserved": 0, "fusion_lon": 0.0, "lat": 38.919949333333335, "rental_uris": {"ios": "https://dc.lft.to/lastmile_qr_scan", "android": "https://dc.lft.to/lastmile_qr_scan"}, "bike_id": "3bbb2b8e56df82590cd2af63a216a4b9", "fusion_lat": 0.0}, {"lon": -77.01437766666666, "name": "c121ba002fcba1ed611db7a5eb3bad9c", "is_disabled": 0, "type": "electric_scooter", "is_reserved": 0, "fusion_lon": 0.0, "lat": 38.9195895, "rental_uris": {"ios": "https://dc.lft.to/lastmile_qr_scan", "android": "https://dc.lft.to/lastmile_qr_scan"}, "bike_id": "c121ba002fcba1ed611db7a5eb3bad9c", "fusion_lat": 0.0}, {"lon": -77.053254, "name": "4d02cbeaf80b54767a01021d90582418", "is_disabled": 0, "type": "electric_scooter", "is_reserved": 0, "fusion_lon": 0.0, "lat": 38.90413216666666, "rental_uris": {"ios": "https://dc.lft.to/lastmile_qr_scan", "android": "https://dc.lft.to/lastmile_qr_scan"}, "bike_id": "4d02cbeaf80b54767a01021d90582418", "fusion_lat": 0.0}, {"lon": -77.003221, "name": "0d67e2bcfa97897630aff086011d41dd", "is_disabled": 0, "type": "electric_scooter", "is_reserved": 0, "fusion_lon": 0.0, "lat": 38.901224166666665, "rental_uris": {"ios": "https://dc.lft.to/lastmile_qr_scan", "android": "https://dc.lft.to/lastmile_qr_scan"}, "bike_id": "0d67e2bcfa97897630aff086011d41dd", "fusion_lat": 0.0}, {"lon": -76.95831866666667, "name": "2aa108d3eafae39914a8e6dcff2c2624", "is_disabled": 0, "type": "electric_bike", "is_reserved": 0, "fusion_lon": 0.0, "lat": 38.85061783333333, "rental_uris": {"ios": "https://dc.lft.to/lastmile_qr_scan", "android": "https://dc.lft.to/lastmile_qr_scan"}, "bike_id": "2aa108d3eafae39914a8e6dcff2c2624", "fusion_lat": 0.0}, {"lon": -77.03593483333333, "name": "865ebae8fd68f43388ff3eace2cfc2bf", "is_disabled": 0, "type": "electric_scooter", "is_reserved": 0, "fusion_lon": 0.0, "lat": 38.90251083333333, "rental_uris": {"ios": "https://dc.lft.to/lastmile_qr_scan", "android": "https://dc.lft.to/lastmile_qr_scan"}, "bike_id": "865ebae8fd68f43388ff3eace2cfc2bf", "fusion_lat": 0.0}, {"lon": -77.03930066666666, "name": "82040e2aa7513ce3af6bf65149b38f16", "is_disabled": 0, "type": "electric_scooter", "is_reserved": 0, "fusion_lon": 0.0, "lat": 38.9163135, "rental_uris": {"ios": "https://dc.lft.to/lastmile_qr_scan", "android": "https://dc.lft.to/lastmile_qr_scan"}, "bike_id": "82040e2aa7513ce3af6bf65149b38f16", "fusion_lat": 0.0}, {"lon": -77.0365545, "name": "9f4679ed278bd82b322583e8bb1c7399", "is_disabled": 0, "type": "electric_scooter", "is_reserved": 0, "fusion_lon": 0.0, "lat": 38.93355583333334, "rental_uris": {"ios": "https://dc.lft.to/lastmile_qr_scan", "android": "https://dc.lft.to/lastmile_qr_scan"}, "bike_id": "9f4679ed278bd82b322583e8bb1c7399", "fusion_lat": 0.0}, {"lon": -76.9374045, "name": "e19dbb31b3c7d69ec6793c4517d3789c", "is_disabled": 0, "type": "electric_scooter", "is_reserved": 0, "fusion_lon": 0.0, "lat": 38.890243, "rental_uris": {"ios": "https://dc.lft.to/lastmile_qr_scan", "android": "https://dc.lft.to/lastmile_qr_scan"}, "bike_id": "e19dbb31b3c7d69ec6793c4517d3789c", "fusion_lat": 0.0}, {"lon": -76.98371983333334, "name": "2d7990024b20f2fd2a44fe80b51c520e", "is_disabled": 0, "type": "electric_scooter", "is_reserved": 0, "fusion_lon": 0.0, "lat": 38.86089483333333, "rental_uris": {"ios": "https://dc.lft.to/lastmile_qr_scan", "android": "https://dc.lft.to/lastmile_qr_scan"}, "bike_id": "2d7990024b20f2fd2a44fe80b51c520e", "fusion_lat": 0.0}, {"lon": -77.021874, "name": "66a2bccb3f5d7829edc03d5c2c717084", "is_disabled": 0, "type": "electric_scooter", "is_reserved": 0, "fusion_lon": 0.0, "lat": 38.899770333333336, "rental_uris": {"ios": "https://dc.lft.to/lastmile_qr_scan", "android": "https://dc.lft.to/lastmile_qr_scan"}, "bike_id": "66a2bccb3f5d7829edc03d5c2c717084", "fusion_lat": 0.0}, {"lon": -77.022964, "name": "24814454f4a71a898dcd92827028f594", "is_disabled": 0, "type": "electric_scooter", "is_reserved": 0, "fusion_lon": 0.0, "lat": 38.93205716666667, "rental_uris": {"ios": "https://dc.lft.to/lastmile_qr_scan", "android": "https://dc.lft.to/lastmile_qr_scan"}, "bike_id": "24814454f4a71a898dcd92827028f594", "fusion_lat": 0.0}, {"lon": -77.0331205, "name": "bffdbae8eebfe4f60b25ad7dd39e381c", "is_disabled": 0, "type": "electric_scooter", "is_reserved": 0, "fusion_lon": 0.0, "lat": 38.900111, "rental_uris": {"ios": "https://dc.lft.to/lastmile_qr_scan", "android": "https://dc.lft.to/lastmile_qr_scan"}, "bike_id": "bffdbae8eebfe4f60b25ad7dd39e381c", "fusion_lat": 0.0}, {"lon": -77.01763366666667, "name": "30d591c587e5a83ae20da9fad8383eda", "is_disabled": 0, "type": "electric_scooter", "is_reserved": 0, "fusion_lon": 0.0, "lat": 38.902603666666664, "rental_uris": {"ios": "https://dc.lft.to/lastmile_qr_scan", "android": "https://dc.lft.to/lastmile_qr_scan"}, "bike_id": "30d591c587e5a83ae20da9fad8383eda", "fusion_lat": 0.0}, {"lon": -77.03639383333334, "name": "327e0b6b9f895d6617006b7cc5553459", "is_disabled": 0, "type": "electric_scooter", "is_reserved": 0, "fusion_lon": 0.0, "lat": 38.927485, "rental_uris": {"ios": "https://dc.lft.to/lastmile_qr_scan", "android": "https://dc.lft.to/lastmile_qr_scan"}, "bike_id": "327e0b6b9f895d6617006b7cc5553459", "fusion_lat": 0.0}, {"lon": -77.03261733333333, "name": "6b5ceaa2f8ed2e9e7dfcb02ac7bb404b", "is_disabled": 0, "type": "electric_scooter", "is_reserved": 0, "fusion_lon": 0.0, "lat": 38.932532333333334, "rental_uris": {"ios": "https://dc.lft.to/lastmile_qr_scan", "android": "https://dc.lft.to/lastmile_qr_scan"}, "bike_id": "6b5ceaa2f8ed2e9e7dfcb02ac7bb404b", "fusion_lat": 0.0}, {"lon": -77.031988, "name": "f3a5623471feb94ec0b4abf627766c39", "is_disabled": 0, "type": "electric_scooter", "is_reserved": 0, "fusion_lon": 0.0, "lat": 38.9160465, "rental_uris": {"ios": "https://dc.lft.to/lastmile_qr_scan", "android": "https://dc.lft.to/lastmile_qr_scan"}, "bike_id": "f3a5623471feb94ec0b4abf627766c39", "fusion_lat": 0.0}, {"lon": -76.99907933333333, "name": "452897fdc9a0f68e98c682faf4983b3b", "is_disabled": 0, "type": "electric_scooter", "is_reserved": 0, "fusion_lon": 0.0, "lat": 38.8960795, "rental_uris": {"ios": "https://dc.lft.to/lastmile_qr_scan", "android": "https://dc.lft.to/lastmile_qr_scan"}, "bike_id": "452897fdc9a0f68e98c682faf4983b3b", "fusion_lat": 0.0}, {"lon": -77.03686533333334, "name": "6d36a6e0a68fb655869201f5abbfdbbe", "is_disabled": 0, "type": "electric_scooter", "is_reserved": 0, "fusion_lon": 0.0, "lat": 38.92643266666666, "rental_uris": {"ios": "https://dc.lft.to/lastmile_qr_scan", "android": "https://dc.lft.to/lastmile_qr_scan"}, "bike_id": "6d36a6e0a68fb655869201f5abbfdbbe", "fusion_lat": 0.0}, {"lon": -77.02785116666666, "name": "8bed0fd7e87e230b2b668c300832ba64", "is_disabled": 0, "type": "electric_scooter", "is_reserved": 0, "fusion_lon": 0.0, "lat": 38.93194166666667, "rental_uris": {"ios": "https://dc.lft.to/lastmile_qr_scan", "android": "https://dc.lft.to/lastmile_qr_scan"}, "bike_id": "8bed0fd7e87e230b2b668c300832ba64", "fusion_lat": 0.0}, {"lon": -77.02182983333333, "name": "00e9f67699f6be5d9097ce7d6c2a82ff", "is_disabled": 0, "type": "electric_scooter", "is_reserved": 0, "fusion_lon": 0.0, "lat": 38.9247965, "rental_uris": {"ios": "https://dc.lft.to/lastmile_qr_scan", "android": "https://dc.lft.to/lastmile_qr_scan"}, "bike_id": "00e9f67699f6be5d9097ce7d6c2a82ff", "fusion_lat": 0.0}, {"lon": -77.02293633333333, "name": "6e694cc436f105d502c2615b193fad66", "is_disabled": 0, "type": "electric_scooter", "is_reserved": 0, "fusion_lon": 0.0, "lat": 38.91788783333333, "rental_uris": {"ios": "https://dc.lft.to/lastmile_qr_scan", "android": "https://dc.lft.to/lastmile_qr_scan"}, "bike_id": "6e694cc436f105d502c2615b193fad66", "fusion_lat": 0.0}, {"lon": -77.08405816666667, "name": "6d827b6f9bbcd99f520a14e119437fd9", "is_disabled": 0, "type": "electric_bike", "is_reserved": 0, "fusion_lon": 0.0, "lat": 38.832935, "rental_uris": {"ios": "https://dc.lft.to/lastmile_qr_scan", "android": "https://dc.lft.to/lastmile_qr_scan"}, "bike_id": "6d827b6f9bbcd99f520a14e119437fd9", "fusion_lat": 0.0}, {"lon": -77.02593366666666, "name": "1f6fb33446534f2b6e747b04b8fe6fc2", "is_disabled": 0, "type": "electric_scooter", "is_reserved": 0, "fusion_lon": 0.0, "lat": 38.903342, "rental_uris": {"ios": "https://dc.lft.to/lastmile_qr_scan", "android": "https://dc.lft.to/lastmile_qr_scan"}, "bike_id": "1f6fb33446534f2b6e747b04b8fe6fc2", "fusion_lat": 0.0}, {"lon": -76.98556083333334, "name": "b6928abcedfd7662cc8b0111f898865f", "is_disabled": 0, "type": "electric_scooter", "is_reserved": 0, "fusion_lon": 0.0, "lat": 38.91274516666667, "rental_uris": {"ios": "https://dc.lft.to/lastmile_qr_scan", "android": "https://dc.lft.to/lastmile_qr_scan"}, "bike_id": "b6928abcedfd7662cc8b0111f898865f", "fusion_lat": 0.0}, {"lon": -76.98550566666667, "name": "03d7a118c5b39031927561c76e0928c0", "is_disabled": 0, "type": "electric_scooter", "is_reserved": 0, "fusion_lon": 0.0, "lat": 38.89765416666667, "rental_uris": {"ios": "https://dc.lft.to/lastmile_qr_scan", "android": "https://dc.lft.to/lastmile_qr_scan"}, "bike_id": "03d7a118c5b39031927561c76e0928c0", "fusion_lat": 0.0}, {"lon": -77.07726366666667, "name": "ca4dabd3ba257c4809c9bc89c8745cec", "is_disabled": 0, "type": "electric_scooter", "is_reserved": 0, "fusion_lon": 0.0, "lat": 38.92262383333333, "rental_uris": {"ios": "https://dc.lft.to/lastmile_qr_scan", "android": "https://dc.lft.to/lastmile_qr_scan"}, "bike_id": "ca4dabd3ba257c4809c9bc89c8745cec", "fusion_lat": 0.0}, {"lon": -77.033358, "name": "40d6e69fb1b234da745a9846ca790ed7", "is_disabled": 0, "type": "electric_scooter", "is_reserved": 0, "fusion_lon": 0.0, "lat": 38.91806066666667, "rental_uris": {"ios": "https://dc.lft.to/lastmile_qr_scan", "android": "https://dc.lft.to/lastmile_qr_scan"}, "bike_id": "40d6e69fb1b234da745a9846ca790ed7", "fusion_lat": 0.0}, {"lon": -77.02810516666666, "name": "c77fbff244a8bdc2ea7dccad9d57901c", "is_disabled": 0, "type": "electric_scooter", "is_reserved": 0, "fusion_lon": 0.0, "lat": 38.907108, "rental_uris": {"ios": "https://dc.lft.to/lastmile_qr_scan", "android": "https://dc.lft.to/lastmile_qr_scan"}, "bike_id": "c77fbff244a8bdc2ea7dccad9d57901c", "fusion_lat": 0.0}, {"lon": -77.032144, "name": "6f93a7f06a78eeefd76ce13575d44e98", "is_disabled": 0, "type": "electric_scooter", "is_reserved": 0, "fusion_lon": 0.0, "lat": 38.91638716666667, "rental_uris": {"ios": "https://dc.lft.to/lastmile_qr_scan", "android": "https://dc.lft.to/lastmile_qr_scan"}, "bike_id": "6f93a7f06a78eeefd76ce13575d44e98", "fusion_lat": 0.0}, {"lon": -76.98601666666667, "name": "db68c451443b9736d822f133d320f3f1", "is_disabled": 0, "type": "electric_scooter", "is_reserved": 0, "fusion_lon": 0.0, "lat": 38.906611833333336, "rental_uris": {"ios": "https://dc.lft.to/lastmile_qr_scan", "android": "https://dc.lft.to/lastmile_qr_scan"}, "bike_id": "db68c451443b9736d822f133d320f3f1", "fusion_lat": 0.0}, {"lon": -77.0329175, "name": "bdf8982de7622f5a7a5d1f82e8dd7955", "is_disabled": 0, "type": "electric_scooter", "is_reserved": 0, "fusion_lon": 0.0, "lat": 38.89902766666667, "rental_uris": {"ios": "https://dc.lft.to/lastmile_qr_scan", "android": "https://dc.lft.to/lastmile_qr_scan"}, "bike_id": "bdf8982de7622f5a7a5d1f82e8dd7955", "fusion_lat": 0.0}, {"lon": -76.990678, "name": "55dca34f5c3d2ebc7262f46b5afe39a0", "is_disabled": 0, "type": "electric_scooter", "is_reserved": 0, "fusion_lon": 0.0, "lat": 38.8563135, "rental_uris": {"ios": "https://dc.lft.to/lastmile_qr_scan", "android": "https://dc.lft.to/lastmile_qr_scan"}, "bike_id": "55dca34f5c3d2ebc7262f46b5afe39a0", "fusion_lat": 0.0}, {"lon": -76.961068, "name": "a7140fad8ac785044d3732b21423fcff", "is_disabled": 0, "type": "electric_scooter", "is_reserved": 0, "fusion_lon": 0.0, "lat": 38.8921205, "rental_uris": {"ios": "https://dc.lft.to/lastmile_qr_scan", "android": "https://dc.lft.to/lastmile_qr_scan"}, "bike_id": "a7140fad8ac785044d3732b21423fcff", "fusion_lat": 0.0}, {"lon": -76.98377733333334, "name": "1cf30f9f485cfc2fc5c9cce8e385f479", "is_disabled": 0, "type": "electric_scooter", "is_reserved": 0, "fusion_lon": 0.0, "lat": 38.90650016666667, "rental_uris": {"ios": "https://dc.lft.to/lastmile_qr_scan", "android": "https://dc.lft.to/lastmile_qr_scan"}, "bike_id": "1cf30f9f485cfc2fc5c9cce8e385f479", "fusion_lat": 0.0}, {"lon": -76.99792116666667, "name": "998eb6bd0fe31425c4cdaa3cddcf28c2", "is_disabled": 0, "type": "electric_bike", "is_reserved": 0, "fusion_lon": 0.0, "lat": 38.998147333333335, "rental_uris": {"ios": "https://dc.lft.to/lastmile_qr_scan", "android": "https://dc.lft.to/lastmile_qr_scan"}, "bike_id": "998eb6bd0fe31425c4cdaa3cddcf28c2", "fusion_lat": 0.0}, {"lon": -77.02198216666666, "name": "fd692e762fafebd31004c1f643aefd77", "is_disabled": 0, "type": "electric_scooter", "is_reserved": 0, "fusion_lon": 0.0, "lat": 38.9247965, "rental_uris": {"ios": "https://dc.lft.to/lastmile_qr_scan", "android": "https://dc.lft.to/lastmile_qr_scan"}, "bike_id": "fd692e762fafebd31004c1f643aefd77", "fusion_lat": 0.0}, {"lon": -77.02113783333333, "name": "43243158dab924e26b0a359e294d560d", "is_disabled": 0, "type": "electric_scooter", "is_reserved": 0, "fusion_lon": 0.0, "lat": 38.92787366666667, "rental_uris": {"ios": "https://dc.lft.to/lastmile_qr_scan", "android": "https://dc.lft.to/lastmile_qr_scan"}, "bike_id": "43243158dab924e26b0a359e294d560d", "fusion_lat": 0.0}, {"lon": -77.02544516666667, "name": "3e619ddee58a1119967a3375f31f8aa3", "is_disabled": 0, "type": "electric_scooter", "is_reserved": 0, "fusion_lon": 0.0, "lat": 38.922484, "rental_uris": {"ios": "https://dc.lft.to/lastmile_qr_scan", "android": "https://dc.lft.to/lastmile_qr_scan"}, "bike_id": "3e619ddee58a1119967a3375f31f8aa3", "fusion_lat": 0.0}, {"lon": -77.02422266666666, "name": "bc627acffce6da2b1eaee08ec3a608de", "is_disabled": 0, "type": "electric_scooter", "is_reserved": 0, "fusion_lon": 0.0, "lat": 38.926566333333334, "rental_uris": {"ios": "https://dc.lft.to/lastmile_qr_scan", "android": "https://dc.lft.to/lastmile_qr_scan"}, "bike_id": "bc627acffce6da2b1eaee08ec3a608de", "fusion_lat": 0.0}, {"lon": -76.99158133333333, "name": "66b60b105bf584355ca3b4c7fc0268c1", "is_disabled": 0, "type": "electric_scooter", "is_reserved": 0, "fusion_lon": 0.0, "lat": 38.901348666666664, "rental_uris": {"ios": "https://dc.lft.to/lastmile_qr_scan", "android": "https://dc.lft.to/lastmile_qr_scan"}, "bike_id": "66b60b105bf584355ca3b4c7fc0268c1", "fusion_lat": 0.0}, {"lon": -77.03886066666666, "name": "7a4f3b5cd0a874f1d6ae3045689b8fba", "is_disabled": 0, "type": "electric_scooter", "is_reserved": 0, "fusion_lon": 0.0, "lat": 38.91848183333333, "rental_uris": {"ios": "https://dc.lft.to/lastmile_qr_scan", "android": "https://dc.lft.to/lastmile_qr_scan"}, "bike_id": "7a4f3b5cd0a874f1d6ae3045689b8fba", "fusion_lat": 0.0}, {"lon": -77.06215516666667, "name": "ff461968dc4c8e11e91b390d4cf1bd64", "is_disabled": 0, "type": "electric_scooter", "is_reserved": 0, "fusion_lon": 0.0, "lat": 38.94232266666667, "rental_uris": {"ios": "https://dc.lft.to/lastmile_qr_scan", "android": "https://dc.lft.to/lastmile_qr_scan"}, "bike_id": "ff461968dc4c8e11e91b390d4cf1bd64", "fusion_lat": 0.0}, {"lon": -77.03194333333333, "name": "019e1895afe75c931ea5df06b5dc68d4", "is_disabled": 0, "type": "electric_scooter", "is_reserved": 0, "fusion_lon": 0.0, "lat": 38.916285333333335, "rental_uris": {"ios": "https://dc.lft.to/lastmile_qr_scan", "android": "https://dc.lft.to/lastmile_qr_scan"}, "bike_id": "019e1895afe75c931ea5df06b5dc68d4", "fusion_lat": 0.0}, {"lon": -77.03208016666666, "name": "c4e5fb69d0bc043c52d123c33bd35c95", "is_disabled": 0, "type": "electric_scooter", "is_reserved": 0, "fusion_lon": 0.0, "lat": 38.91627233333333, "rental_uris": {"ios": "https://dc.lft.to/lastmile_qr_scan", "android": "https://dc.lft.to/lastmile_qr_scan"}, "bike_id": "c4e5fb69d0bc043c52d123c33bd35c95", "fusion_lat": 0.0}, {"lon": -77.028316, "name": "266a0e74a952806213e956c7b3caafbe", "is_disabled": 0, "type": "electric_scooter", "is_reserved": 0, "fusion_lon": 0.0, "lat": 38.938849833333336, "rental_uris": {"ios": "https://dc.lft.to/lastmile_qr_scan", "android": "https://dc.lft.to/lastmile_qr_scan"}, "bike_id": "266a0e74a952806213e956c7b3caafbe", "fusion_lat": 0.0}, {"lon": -77.05447, "name": "f5827b5d0c845045861ef7f588e04163", "is_disabled": 0, "type": "electric_scooter", "is_reserved": 0, "fusion_lon": 0.0, "lat": 38.91485516666667, "rental_uris": {"ios": "https://dc.lft.to/lastmile_qr_scan", "android": "https://dc.lft.to/lastmile_qr_scan"}, "bike_id": "f5827b5d0c845045861ef7f588e04163", "fusion_lat": 0.0}, {"lon": -77.03865166666667, "name": "674e4a05a00c3d7f0c2f43028044d30f", "is_disabled": 0, "type": "electric_scooter", "is_reserved": 0, "fusion_lon": 0.0, "lat": 38.9171105, "rental_uris": {"ios": "https://dc.lft.to/lastmile_qr_scan", "android": "https://dc.lft.to/lastmile_qr_scan"}, "bike_id": "674e4a05a00c3d7f0c2f43028044d30f", "fusion_lat": 0.0}, {"lon": -77.0208815, "name": "27877b882c9ecab8b8661773e41b0768", "is_disabled": 0, "type": "electric_scooter", "is_reserved": 0, "fusion_lon": 0.0, "lat": 38.911311, "rental_uris": {"ios": "https://dc.lft.to/lastmile_qr_scan", "android": "https://dc.lft.to/lastmile_qr_scan"}, "bike_id": "27877b882c9ecab8b8661773e41b0768", "fusion_lat": 0.0}, {"lon": -77.00281516666666, "name": "d16544a5590d5706b87408dd357958ad", "is_disabled": 0, "type": "electric_scooter", "is_reserved": 0, "fusion_lon": 0.0, "lat": 38.89359533333333, "rental_uris": {"ios": "https://dc.lft.to/lastmile_qr_scan", "android": "https://dc.lft.to/lastmile_qr_scan"}, "bike_id": "d16544a5590d5706b87408dd357958ad", "fusion_lat": 0.0}, {"lon": -77.01030383333334, "name": "b284f8141bb227556c45bd71a84cc9a3", "is_disabled": 0, "type": "electric_scooter", "is_reserved": 0, "fusion_lon": 0.0, "lat": 38.91702016666667, "rental_uris": {"ios": "https://dc.lft.to/lastmile_qr_scan", "android": "https://dc.lft.to/lastmile_qr_scan"}, "bike_id": "b284f8141bb227556c45bd71a84cc9a3", "fusion_lat": 0.0}, {"lon": -77.0635185, "name": "dc05c33b9ea01a89a92c62d7f31ec871", "is_disabled": 0, "type": "electric_scooter", "is_reserved": 0, "fusion_lon": 0.0, "lat": 38.906868833333334, "rental_uris": {"ios": "https://dc.lft.to/lastmile_qr_scan", "android": "https://dc.lft.to/lastmile_qr_scan"}, "bike_id": "dc05c33b9ea01a89a92c62d7f31ec871", "fusion_lat": 0.0}, {"lon": -77.02191883333333, "name": "ce8b2a10755cf0a6ab4704552656c078", "is_disabled": 0, "type": "electric_scooter", "is_reserved": 0, "fusion_lon": 0.0, "lat": 38.877827, "rental_uris": {"ios": "https://dc.lft.to/lastmile_qr_scan", "android": "https://dc.lft.to/lastmile_qr_scan"}, "bike_id": "ce8b2a10755cf0a6ab4704552656c078", "fusion_lat": 0.0}, {"lon": -77.04577183333333, "name": "39956e4c822ea8a766090f0bf8b03ca1", "is_disabled": 0, "type": "electric_scooter", "is_reserved": 0, "fusion_lon": 0.0, "lat": 38.9212905, "rental_uris": {"ios": "https://dc.lft.to/lastmile_qr_scan", "android": "https://dc.lft.to/lastmile_qr_scan"}, "bike_id": "39956e4c822ea8a766090f0bf8b03ca1", "fusion_lat": 0.0}, {"lon": -77.026907, "name": "58e86a21544631675fb5e8184b23e6bc", "is_disabled": 0, "type": "electric_scooter", "is_reserved": 0, "fusion_lon": 0.0, "lat": 38.92493266666666, "rental_uris": {"ios": "https://dc.lft.to/lastmile_qr_scan", "android": "https://dc.lft.to/lastmile_qr_scan"}, "bike_id": "58e86a21544631675fb5e8184b23e6bc", "fusion_lat": 0.0}, {"lon": -77.029693, "name": "63a124b28ecb20b849ac5ebe163ee1f2", "is_disabled": 0, "type": "electric_scooter", "is_reserved": 0, "fusion_lon": 0.0, "lat": 38.911058, "rental_uris": {"ios": "https://dc.lft.to/lastmile_qr_scan", "android": "https://dc.lft.to/lastmile_qr_scan"}, "bike_id": "63a124b28ecb20b849ac5ebe163ee1f2", "fusion_lat": 0.0}, {"lon": -77.016089, "name": "ff9c85559ff0b4b243fe42b9ad13fde7", "is_disabled": 0, "type": "electric_scooter", "is_reserved": 0, "fusion_lon": 0.0, "lat": 38.90592516666667, "rental_uris": {"ios": "https://dc.lft.to/lastmile_qr_scan", "android": "https://dc.lft.to/lastmile_qr_scan"}, "bike_id": "ff9c85559ff0b4b243fe42b9ad13fde7", "fusion_lat": 0.0}, {"lon": -77.02608016666667, "name": "5b432292bc621a89fd66ac8cedea600f", "is_disabled": 0, "type": "electric_scooter", "is_reserved": 0, "fusion_lon": 0.0, "lat": 38.920288666666664, "rental_uris": {"ios": "https://dc.lft.to/lastmile_qr_scan", "android": "https://dc.lft.to/lastmile_qr_scan"}, "bike_id": "5b432292bc621a89fd66ac8cedea600f", "fusion_lat": 0.0}, {"lon": -77.03525116666667, "name": "dec35031d290ddb03188542b4b564f39", "is_disabled": 0, "type": "electric_scooter", "is_reserved": 0, "fusion_lon": 0.0, "lat": 38.90148033333333, "rental_uris": {"ios": "https://dc.lft.to/lastmile_qr_scan", "android": "https://dc.lft.to/lastmile_qr_scan"}, "bike_id": "dec35031d290ddb03188542b4b564f39", "fusion_lat": 0.0}, {"lon": -77.01357933333334, "name": "51db7348ff557cef3d4b333a3393c342", "is_disabled": 0, "type": "electric_scooter", "is_reserved": 0, "fusion_lon": 0.0, "lat": 38.91333183333333, "rental_uris": {"ios": "https://dc.lft.to/lastmile_qr_scan", "android": "https://dc.lft.to/lastmile_qr_scan"}, "bike_id": "51db7348ff557cef3d4b333a3393c342", "fusion_lat": 0.0}, {"lon": -77.03256433333334, "name": "a216c576840d29801a4284881e9e3d92", "is_disabled": 0, "type": "electric_scooter", "is_reserved": 0, "fusion_lon": 0.0, "lat": 38.932555, "rental_uris": {"ios": "https://dc.lft.to/lastmile_qr_scan", "android": "https://dc.lft.to/lastmile_qr_scan"}, "bike_id": "a216c576840d29801a4284881e9e3d92", "fusion_lat": 0.0}, {"lon": -77.0248665, "name": "d1ab1021c86fcae5bd5c0845a8ba1774", "is_disabled": 0, "type": "electric_scooter", "is_reserved": 0, "fusion_lon": 0.0, "lat": 38.918163, "rental_uris": {"ios": "https://dc.lft.to/lastmile_qr_scan", "android": "https://dc.lft.to/lastmile_qr_scan"}, "bike_id": "d1ab1021c86fcae5bd5c0845a8ba1774", "fusion_lat": 0.0}, {"lon": -77.00936083333333, "name": "be6e699f1d211ae8dd36375a2d9e0955", "is_disabled": 0, "type": "electric_scooter", "is_reserved": 0, "fusion_lon": 0.0, "lat": 38.900652, "rental_uris": {"ios": "https://dc.lft.to/lastmile_qr_scan", "android": "https://dc.lft.to/lastmile_qr_scan"}, "bike_id": "be6e699f1d211ae8dd36375a2d9e0955", "fusion_lat": 0.0}, {"lon": -77.04004633333334, "name": "a9429e3e678f87589889da7eb229fb46", "is_disabled": 0, "type": "electric_scooter", "is_reserved": 0, "fusion_lon": 0.0, "lat": 38.91694316666667, "rental_uris": {"ios": "https://dc.lft.to/lastmile_qr_scan", "android": "https://dc.lft.to/lastmile_qr_scan"}, "bike_id": "a9429e3e678f87589889da7eb229fb46", "fusion_lat": 0.0}, {"lon": -77.02984966666666, "name": "dd83efd484e7cafa4f1b6e682ff48328", "is_disabled": 0, "type": "electric_scooter", "is_reserved": 0, "fusion_lon": 0.0, "lat": 38.94352883333333, "rental_uris": {"ios": "https://dc.lft.to/lastmile_qr_scan", "android": "https://dc.lft.to/lastmile_qr_scan"}, "bike_id": "dd83efd484e7cafa4f1b6e682ff48328", "fusion_lat": 0.0}, {"lon": -77.00289183333334, "name": "f4a8d4d53e5b3002b4f923eb5e34e3e7", "is_disabled": 0, "type": "electric_scooter", "is_reserved": 0, "fusion_lon": 0.0, "lat": 38.8923475, "rental_uris": {"ios": "https://dc.lft.to/lastmile_qr_scan", "android": "https://dc.lft.to/lastmile_qr_scan"}, "bike_id": "f4a8d4d53e5b3002b4f923eb5e34e3e7", "fusion_lat": 0.0}, {"lon": -77.02081383333334, "name": "843967fa478f2f79c88dc735da93a6e7", "is_disabled": 0, "type": "electric_scooter", "is_reserved": 0, "fusion_lon": 0.0, "lat": 38.921498, "rental_uris": {"ios": "https://dc.lft.to/lastmile_qr_scan", "android": "https://dc.lft.to/lastmile_qr_scan"}, "bike_id": "843967fa478f2f79c88dc735da93a6e7", "fusion_lat": 0.0}, {"lon": -76.98486416666667, "name": "1b11b4f2ae64b48ec2680261b12ef9e8", "is_disabled": 0, "type": "electric_scooter", "is_reserved": 0, "fusion_lon": 0.0, "lat": 38.92033933333333, "rental_uris": {"ios": "https://dc.lft.to/lastmile_qr_scan", "android": "https://dc.lft.to/lastmile_qr_scan"}, "bike_id": "1b11b4f2ae64b48ec2680261b12ef9e8", "fusion_lat": 0.0}, {"lon": -77.004434, "name": "ba940325f3593f544c513b98294b06fe", "is_disabled": 0, "type": "electric_scooter", "is_reserved": 0, "fusion_lon": 0.0, "lat": 38.87833783333333, "rental_uris": {"ios": "https://dc.lft.to/lastmile_qr_scan", "android": "https://dc.lft.to/lastmile_qr_scan"}, "bike_id": "ba940325f3593f544c513b98294b06fe", "fusion_lat": 0.0}, {"lon": -76.995746, "name": "8859bc0c37a7c02965fcd27b9dd9c26d", "is_disabled": 0, "type": "electric_bike", "is_reserved": 0, "fusion_lon": 0.0, "lat": 38.83160783333334, "rental_uris": {"ios": "https://dc.lft.to/lastmile_qr_scan", "android": "https://dc.lft.to/lastmile_qr_scan"}, "bike_id": "8859bc0c37a7c02965fcd27b9dd9c26d", "fusion_lat": 0.0}, {"lon": -77.0471905, "name": "c8fa6f9b7d4f5154ea624ac516044185", "is_disabled": 0, "type": "electric_scooter", "is_reserved": 0, "fusion_lon": 0.0, "lat": 38.8996795, "rental_uris": {"ios": "https://dc.lft.to/lastmile_qr_scan", "android": "https://dc.lft.to/lastmile_qr_scan"}, "bike_id": "c8fa6f9b7d4f5154ea624ac516044185", "fusion_lat": 0.0}, {"lon": -77.00210816666667, "name": "0a85f4d496399e7eaf51d9067f8ccfc6", "is_disabled": 0, "type": "electric_scooter", "is_reserved": 0, "fusion_lon": 0.0, "lat": 38.89810283333333, "rental_uris": {"ios": "https://dc.lft.to/lastmile_qr_scan", "android": "https://dc.lft.to/lastmile_qr_scan"}, "bike_id": "0a85f4d496399e7eaf51d9067f8ccfc6", "fusion_lat": 0.0}, {"lon": -77.01885633333333, "name": "f57133848b0ca9168baf8a575d044bc0", "is_disabled": 0, "type": "electric_scooter", "is_reserved": 0, "fusion_lon": 0.0, "lat": 38.919391, "rental_uris": {"ios": "https://dc.lft.to/lastmile_qr_scan", "android": "https://dc.lft.to/lastmile_qr_scan"}, "bike_id": "f57133848b0ca9168baf8a575d044bc0", "fusion_lat": 0.0}, {"lon": -77.0458485, "name": "eaf85842e246b0565afe843f89fb7105", "is_disabled": 0, "type": "electric_scooter", "is_reserved": 0, "fusion_lon": 0.0, "lat": 38.900674333333335, "rental_uris": {"ios": "https://dc.lft.to/lastmile_qr_scan", "android": "https://dc.lft.to/lastmile_qr_scan"}, "bike_id": "eaf85842e246b0565afe843f89fb7105", "fusion_lat": 0.0}, {"lon": -77.04540366666667, "name": "12de82a78334ed8b39ebc00af0eb84e2", "is_disabled": 0, "type": "electric_scooter", "is_reserved": 0, "fusion_lon": 0.0, "lat": 38.91201016666667, "rental_uris": {"ios": "https://dc.lft.to/lastmile_qr_scan", "android": "https://dc.lft.to/lastmile_qr_scan"}, "bike_id": "12de82a78334ed8b39ebc00af0eb84e2", "fusion_lat": 0.0}, {"lon": -77.01874183333334, "name": "20fa229bce780e62dbc921ec8b10d861", "is_disabled": 0, "type": "electric_scooter", "is_reserved": 0, "fusion_lon": 0.0, "lat": 38.93052, "rental_uris": {"ios": "https://dc.lft.to/lastmile_qr_scan", "android": "https://dc.lft.to/lastmile_qr_scan"}, "bike_id": "20fa229bce780e62dbc921ec8b10d861", "fusion_lat": 0.0}, {"lon": -77.02440583333333, "name": "82947b1eb251d1c9b433688355811d4a", "is_disabled": 0, "type": "electric_scooter", "is_reserved": 0, "fusion_lon": 0.0, "lat": 38.92505716666667, "rental_uris": {"ios": "https://dc.lft.to/lastmile_qr_scan", "android": "https://dc.lft.to/lastmile_qr_scan"}, "bike_id": "82947b1eb251d1c9b433688355811d4a", "fusion_lat": 0.0}, {"lon": -76.99111466666666, "name": "6dbef0575ecb4a444a805dc1772ae0e1", "is_disabled": 0, "type": "electric_scooter", "is_reserved": 0, "fusion_lon": 0.0, "lat": 38.8633175, "rental_uris": {"ios": "https://dc.lft.to/lastmile_qr_scan", "android": "https://dc.lft.to/lastmile_qr_scan"}, "bike_id": "6dbef0575ecb4a444a805dc1772ae0e1", "fusion_lat": 0.0}, {"lon": -76.98857933333333, "name": "fa29b77d1f4348ffd99fe798e9da90ad", "is_disabled": 0, "type": "electric_scooter", "is_reserved": 0, "fusion_lon": 0.0, "lat": 38.90031283333333, "rental_uris": {"ios": "https://dc.lft.to/lastmile_qr_scan", "android": "https://dc.lft.to/lastmile_qr_scan"}, "bike_id": "fa29b77d1f4348ffd99fe798e9da90ad", "fusion_lat": 0.0}, {"lon": -77.01275733333334, "name": "6595134c54cdb2615a89b43e1246468b", "is_disabled": 0, "type": "electric_scooter", "is_reserved": 0, "fusion_lon": 0.0, "lat": 38.909538833333336, "rental_uris": {"ios": "https://dc.lft.to/lastmile_qr_scan", "android": "https://dc.lft.to/lastmile_qr_scan"}, "bike_id": "6595134c54cdb2615a89b43e1246468b", "fusion_lat": 0.0}, {"lon": -77.053277, "name": "6cb0950bd3a5de3fb3b5785b6853a616", "is_disabled": 0, "type": "electric_scooter", "is_reserved": 0, "fusion_lon": 0.0, "lat": 38.90422516666667, "rental_uris": {"ios": "https://dc.lft.to/lastmile_qr_scan", "android": "https://dc.lft.to/lastmile_qr_scan"}, "bike_id": "6cb0950bd3a5de3fb3b5785b6853a616", "fusion_lat": 0.0}, {"lon": -77.03091833333333, "name": "894960047bde5e1004ca1c1a180575f2", "is_disabled": 0, "type": "electric_scooter", "is_reserved": 0, "fusion_lon": 0.0, "lat": 38.90977016666667, "rental_uris": {"ios": "https://dc.lft.to/lastmile_qr_scan", "android": "https://dc.lft.to/lastmile_qr_scan"}, "bike_id": "894960047bde5e1004ca1c1a180575f2", "fusion_lat": 0.0}, {"lon": -77.06224233333333, "name": "dd70f203d96c34c04c31288cf14268f7", "is_disabled": 0, "type": "electric_scooter", "is_reserved": 0, "fusion_lon": 0.0, "lat": 38.913183333333336, "rental_uris": {"ios": "https://dc.lft.to/lastmile_qr_scan", "android": "https://dc.lft.to/lastmile_qr_scan"}, "bike_id": "dd70f203d96c34c04c31288cf14268f7", "fusion_lat": 0.0}, {"lon": -77.03801266666666, "name": "ed29259482d9b5f630bca4732036d85f", "is_disabled": 0, "type": "electric_bike", "is_reserved": 0, "fusion_lon": 0.0, "lat": 38.996726, "rental_uris": {"ios": "https://dc.lft.to/lastmile_qr_scan", "android": "https://dc.lft.to/lastmile_qr_scan"}, "bike_id": "ed29259482d9b5f630bca4732036d85f", "fusion_lat": 0.0}, {"lon": -77.0346835, "name": "f4992a1a49076d24ea72fc7d9ad37bfe", "is_disabled": 0, "type": "electric_scooter", "is_reserved": 0, "fusion_lon": 0.0, "lat": 38.92152466666667, "rental_uris": {"ios": "https://dc.lft.to/lastmile_qr_scan", "android": "https://dc.lft.to/lastmile_qr_scan"}, "bike_id": "f4992a1a49076d24ea72fc7d9ad37bfe", "fusion_lat": 0.0}, {"lon": -77.0321425, "name": "f444ed7ea15c68e2d8ba5847b2b125f6", "is_disabled": 0, "type": "electric_scooter", "is_reserved": 0, "fusion_lon": 0.0, "lat": 38.919114666666665, "rental_uris": {"ios": "https://dc.lft.to/lastmile_qr_scan", "android": "https://dc.lft.to/lastmile_qr_scan"}, "bike_id": "f444ed7ea15c68e2d8ba5847b2b125f6", "fusion_lat": 0.0}, {"lon": -77.03086583333334, "name": "a6b49530628fa070d0874ba0810b0887", "is_disabled": 0, "type": "electric_scooter", "is_reserved": 0, "fusion_lon": 0.0, "lat": 38.9353845, "rental_uris": {"ios": "https://dc.lft.to/lastmile_qr_scan", "android": "https://dc.lft.to/lastmile_qr_scan"}, "bike_id": "a6b49530628fa070d0874ba0810b0887", "fusion_lat": 0.0}, {"lon": -77.0328385, "name": "2578860bc6511c9ba393b9d392ad4ea7", "is_disabled": 0, "type": "electric_scooter", "is_reserved": 0, "fusion_lon": 0.0, "lat": 38.93199766666667, "rental_uris": {"ios": "https://dc.lft.to/lastmile_qr_scan", "android": "https://dc.lft.to/lastmile_qr_scan"}, "bike_id": "2578860bc6511c9ba393b9d392ad4ea7", "fusion_lat": 0.0}, {"lon": -77.05969983333334, "name": "aeb0adc756bd98f3a05789ad1924248b", "is_disabled": 0, "type": "electric_scooter", "is_reserved": 0, "fusion_lon": 0.0, "lat": 38.9272405, "rental_uris": {"ios": "https://dc.lft.to/lastmile_qr_scan", "android": "https://dc.lft.to/lastmile_qr_scan"}, "bike_id": "aeb0adc756bd98f3a05789ad1924248b", "fusion_lat": 0.0}, {"lon": -77.0736385, "name": "3766dad57330c43b90cbfd0c496f7f49", "is_disabled": 0, "type": "electric_scooter", "is_reserved": 0, "fusion_lon": 0.0, "lat": 38.9336105, "rental_uris": {"ios": "https://dc.lft.to/lastmile_qr_scan", "android": "https://dc.lft.to/lastmile_qr_scan"}, "bike_id": "3766dad57330c43b90cbfd0c496f7f49", "fusion_lat": 0.0}, {"lon": -77.02345316666667, "name": "c43f3a658f965ff7a0a481088f501f2a", "is_disabled": 0, "type": "electric_scooter", "is_reserved": 0, "fusion_lon": 0.0, "lat": 38.94306, "rental_uris": {"ios": "https://dc.lft.to/lastmile_qr_scan", "android": "https://dc.lft.to/lastmile_qr_scan"}, "bike_id": "c43f3a658f965ff7a0a481088f501f2a", "fusion_lat": 0.0}, {"lon": -77.0195585, "name": "e53b4688e084df00d931c0bd847fbcb1", "is_disabled": 0, "type": "electric_scooter", "is_reserved": 0, "fusion_lon": 0.0, "lat": 38.92367933333333, "rental_uris": {"ios": "https://dc.lft.to/lastmile_qr_scan", "android": "https://dc.lft.to/lastmile_qr_scan"}, "bike_id": "e53b4688e084df00d931c0bd847fbcb1", "fusion_lat": 0.0}, {"lon": -77.01698666666667, "name": "d5a1bd2116b6b877ca8c16fea8cfaa4e", "is_disabled": 0, "type": "electric_scooter", "is_reserved": 0, "fusion_lon": 0.0, "lat": 38.907601666666665, "rental_uris": {"ios": "https://dc.lft.to/lastmile_qr_scan", "android": "https://dc.lft.to/lastmile_qr_scan"}, "bike_id": "d5a1bd2116b6b877ca8c16fea8cfaa4e", "fusion_lat": 0.0},