{"data": {"bikes": [{"bike_id": "0937aac68e3e2018e84d67228f136309", "is_reserved": 0, "fusion_lon": 0.0, "lat": 38.898014333333336, "is_disabled": 0, "name": "0937aac68e3e2018e84d67228f136309", "fusion_lat": 0.0, "rental_uris": {"ios": "https://dc.lft.to/lastmile_qr_scan", "android": "https://dc.lft.to/lastmile_qr_scan"}, "lon": -77.00611533333333, "type": "electric_bike"}, {"bike_id": "0d58bb269ec827678e8eeaf11f14a5bb", "is_reserved": 0, "fusion_lon": 0.0, "lat": 38.9036975, "is_disabled": 0, "name": "0d58bb269ec827678e8eeaf11f14a5bb", "fusion_lat": 0.0, "rental_uris": {"ios": "https://dc.lft.to/lastmile_qr_scan", "android": "https://dc.lft.to/lastmile_qr_scan"}, "lon": -77.04023433333333, "type": "electric_scooter"}, {"bike_id": "7f24beaa3fe278212e96dfdf9fe0671a", "is_reserved": 0, "fusion_lon": 0.0, "lat": 38.90723916666666, "is_disabled": 0, "name": "7f24beaa3fe278212e96dfdf9fe0671a", "fusion_lat": 0.0, "rental_uris": {"ios": "https://dc.lft.to/lastmile_qr_scan", "android": "https://dc.lft.to/lastmile_qr_scan"}, "lon": -76.9860055, "type": "electric_scooter"}, {"bike_id": "ae1732717dd439dd20f2673188e303a1", "is_reserved": 0, "fusion_lon": 0.0, "lat": 38.919141333333336, "is_disabled": 0, "name": "ae1732717dd439dd20f2673188e303a1", "fusion_lat": 0.0, "rental_uris": {"ios": "https://dc.lft.to/lastmile_qr_scan", "android": "https://dc.lft.to/lastmile_qr_scan"}, "lon": -77.04168, "type": "electric_scooter"}, {"bike_id": "112d1df0898b24e8c922a17298a97723", "is_reserved": 0, "fusion_lon": 0.0, "lat": 38.903903166666666, "is_disabled": 0, "name": "112d1df0898b24e8c922a17298a97723", "fusion_lat": 0.0, "rental_uris": {"ios": "https://dc.lft.to/lastmile_qr_scan", "android": "https://dc.lft.to/lastmile_qr_scan"}, "lon": -77.04488766666667, "type": "electric_scooter"}, {"bike_id": "2d34f0d43dfec037539a5f17d654c53d", "is_reserved": 0, "fusion_lon": 0.0, "lat": 38.915707, "is_disabled": 0, "name": "2d34f0d43dfec037539a5f17d654c53d", "fusion_lat": 0.0, "rental_uris": {"ios": "https://dc.lft.to/lastmile_qr_scan", "android": "https://dc.lft.to/lastmile_qr_scan"}, "lon": -77.0376785, "type": "electric_scooter"}, {"bike_id": "92a71174620e1e5d9cbbff7c179e256b", "is_reserved": 0, "fusion_lon": 0.0, "lat": 38.91699766666667, "is_disabled": 0, "name": "92a71174620e1e5d9cbbff7c179e256b", "fusion_lat": 0.0, "rental_uris": {"ios": "https://dc.lft.to/lastmile_qr_scan", "android": "https://dc.lft.to/lastmile_qr_scan"}, "lon": -77.00807683333333, "type": "electric_scooter"}, {"bike_id": "4b22e0175a22cdb0f90eebb628311f23", "is_reserved": 0, "fusion_lon": 0.0, "lat": 38.940156333333334, "is_disabled": 0, "name": "4b22e0175a22cdb0f90eebb628311f23", "fusion_lat": 0.0, "rental_uris": {"ios": "https://dc.lft.to/lastmile_qr_scan", "android": "https://dc.lft.to/lastmile_qr_scan"}, "lon": -77.07168066666667, "type": "electric_scooter"}, {"bike_id": "bd9f20a7027e071e0eef766af3e4eabe", "is_reserved": 0, "fusion_lon": 0.0, "lat": 38.930921833333336, "is_disabled": 0, "name": "bd9f20a7027e071e0eef766af3e4eabe", "fusion_lat": 0.0, "rental_uris": {"ios": "https://dc.lft.to/lastmile_qr_scan", "android": "https://dc.lft.to/lastmile_qr_scan"}, "lon": -77.02507083333333, "type": "electric_scooter"}, {"bike_id": "edb7d61878c010f09d2b742aff155436", "is_reserved": 0, "fusion_lon": 0.0, "lat": 38.906338833333336, "is_disabled": 0, "name": "edb7d61878c010f09d2b742aff155436", "fusion_lat": 0.0, "rental_uris": {"ios": "https://dc.lft.to/lastmile_qr_scan", "android": "https://dc.lft.to/lastmile_qr_scan"}, "lon": -77.04174, "type": "electric_scooter"}, {"bike_id": "f14df6d2aa7a97c5f710b502cef82ff0", "is_reserved": 0, "fusion_lon": 0.0, "lat": 38.90536816666667, "is_disabled": 0, "name": "f14df6d2aa7a97c5f710b502cef82ff0", "fusion_lat": 0.0, "rental_uris": {"ios": "https://dc.lft.to/lastmile_qr_scan", "android": "https://dc.lft.to/lastmile_qr_scan"}, "lon": -77.02204566666667, "type": "electric_scooter"}, {"bike_id": "b604d53b7df415029968fbc2a00fdc19", "is_reserved": 0, "fusion_lon": 0.0, "lat": 38.903587, "is_disabled": 0, "name": "b604d53b7df415029968fbc2a00fdc19", "fusion_lat": 0.0, "rental_uris": {"ios": "https://dc.lft.to/lastmile_qr_scan", "android": "https://dc.lft.to/lastmile_qr_scan"}, "lon": -77.04355283333334, "type": "electric_scooter"}, {"bike_id": "9a45437f62759346dced5ee778f9aaf3", "is_reserved": 0, "fusion_lon": 0.0, "lat": 38.900200166666664, "is_disabled": 0, "name": "9a45437f62759346dced5ee778f9aaf3", "fusion_lat": 0.0, "rental_uris": {"ios": "https://dc.lft.to/lastmile_qr_scan", "android": "https://dc.lft.to/lastmile_qr_scan"}, "lon": -77.00224333333334, "type": "electric_scooter"}, {"bike_id": "b4f8e5c944a6597d0f7ad6d12e1c1d0b", "is_reserved": 0, "fusion_lon": 0.0, "lat": 38.909876, "is_disabled": 0, "name": "b4f8e5c944a6597d0f7ad6d12e1c1d0b", "fusion_lat": 0.0, "rental_uris": {"ios": "https://dc.lft.to/lastmile_qr_scan", "android": "https://dc.lft.to/lastmile_qr_scan"}, "lon": -77.023859, "type": "electric_scooter"}, {"bike_id": "7950587fa240c2066de69d54ef963361", "is_reserved": 0, "fusion_lon": 0.0, "lat": 38.91702516666667, "is_disabled": 0, "name": "7950587fa240c2066de69d54ef963361", "fusion_lat": 0.0, "rental_uris": {"ios": "https://dc.lft.to/lastmile_qr_scan", "android": "https://dc.lft.to/lastmile_qr_scan"}, "lon": -77.041732, "type": "electric_scooter"}, {"bike_id": "52ce2404c965d48c4cd880cc5a31d38b", "is_reserved": 0, "fusion_lon": 0.0, "lat": 38.900092666666666, "is_disabled": 0, "name": "52ce2404c965d48c4cd880cc5a31d38b", "fusion_lat": 0.0, "rental_uris": {"ios": "https://dc.lft.to/lastmile_qr_scan", "android": "https://dc.lft.to/lastmile_qr_scan"}, "lon": -76.97310666666667, "type": "electric_scooter"}, {"bike_id": "ea06a10ebb8f4f2d06e0fc6131f17ab9", "is_reserved": 0, "fusion_lon": 0.0, "lat": 38.899601833333335, "is_disabled": 0, "name": "ea06a10ebb8f4f2d06e0fc6131f17ab9", "fusion_lat": 0.0, "rental_uris": {"ios": "https://dc.lft.to/lastmile_qr_scan", "android": "https://dc.lft.to/lastmile_qr_scan"}, "lon": -77.00337816666666, "type": "electric_scooter"}, {"bike_id": "f9dacf54305c8a71fbecf9463dc6ef85", "is_reserved": 0, "fusion_lon": 0.0, "lat": 38.902313166666666, "is_disabled": 0, "name": "f9dacf54305c8a71fbecf9463dc6ef85", "fusion_lat": 0.0, "rental_uris": {"ios": "https://dc.lft.to/lastmile_qr_scan", "android": "https://dc.lft.to/lastmile_qr_scan"}, "lon": -77.06050916666666, "type": "electric_scooter"}, {"bike_id": "43a4604c7a507551b972f9806bebf811", "is_reserved": 0, "fusion_lon": 0.0, "lat": 38.914365333333336, "is_disabled": 0, "name": "43a4604c7a507551b972f9806bebf811", "fusion_lat": 0.0, "rental_uris": {"ios": "https://dc.lft.to/lastmile_qr_scan", "android": "https://dc.lft.to/lastmile_qr_scan"}, "lon": -77.0033925, "type": "electric_scooter"}, {"bike_id": "5bdd14c6c6d5c2e3d91bca3d7263607c", "is_reserved": 0, "fusion_lon": 0.0, "lat": 38.928879333333335, "is_disabled": 0, "name": "5bdd14c6c6d5c2e3d91bca3d7263607c", "fusion_lat": 0.0, "rental_uris": {"ios": "https://dc.lft.to/lastmile_qr_scan", "android": "https://dc.lft.to/lastmile_qr_scan"}, "lon": -77.05447433333333, "type": "electric_scooter"}, {"bike_id": "01ad752c886b4b7c3112dd967affb437", "is_reserved": 0, "fusion_lon": 0.0, "lat": 38.880014833333334, "is_disabled": 0, "name": "01ad752c886b4b7c3112dd967affb437", "fusion_lat": 0.0, "rental_uris": {"ios": "https://dc.lft.to/lastmile_qr_scan", "android": "https://dc.lft.to/lastmile_qr_scan"}, "lon": -76.99499933333334, "type": "electric_scooter"}, {"bike_id": "9d8ddb7b61b59ad3d4c0ab34fc917bea", "is_reserved": 0, "fusion_lon": 0.0, "lat": 38.908483, "is_disabled": 0, "name": "9d8ddb7b61b59ad3d4c0ab34fc917bea", "fusion_lat": 0.0, "rental_uris": {"ios": "https://dc.lft.to/lastmile_qr_scan", "android": "https://dc.lft.to/lastmile_qr_scan"}, "lon": -77.08526166666667, "type": "electric_scooter"}, {"bike_id": "5b48815b74def8331bb39b078578488a", "is_reserved": 0, "fusion_lon": 0.0, "lat": 38.911813, "is_disabled": 0, "name": "5b48815b74def8331bb39b078578488a", "fusion_lat": 0.0, "rental_uris": {"ios": "https://dc.lft.to/lastmile_qr_scan", "android": "https://dc.lft.to/lastmile_qr_scan"}, "lon": -77.002836, "type": "electric_bike"}, {"bike_id": "9634d54330e636f52646612e1980d445", "is_reserved": 0, "fusion_lon": 0.0, "lat": 38.91041966666667, "is_disabled": 0, "name": "9634d54330e636f52646612e1980d445", "fusion_lat": 0.0, "rental_uris": {"ios": "https://dc.lft.to/lastmile_qr_scan", "android": "https://dc.lft.to/lastmile_qr_scan"}, "lon": -77.02811133333333, "type": "electric_scooter"}, {"bike_id": "5a20ad0062641d6287423f2c8ed350fa", "is_reserved": 0, "fusion_lon": 0.0, "lat": 38.9357875, "is_disabled": 0, "name": "5a20ad0062641d6287423f2c8ed350fa", "fusion_lat": 0.0, "rental_uris": {"ios": "https://dc.lft.to/lastmile_qr_scan", "android": "https://dc.lft.to/lastmile_qr_scan"}, "lon": -77.03286016666667, "type": "electric_scooter"}, {"bike_id": "53a519d5e193e87c4d82ab991b11d691", "is_reserved": 0, "fusion_lon": 0.0, "lat": 38.90974816666667, "is_disabled": 0, "name": "53a519d5e193e87c4d82ab991b11d691", "fusion_lat": 0.0, "rental_uris": {"ios": "https://dc.lft.to/lastmile_qr_scan", "android": "https://dc.lft.to/lastmile_qr_scan"}, "lon": -77.0386935, "type": "electric_scooter"}, {"bike_id": "ca4c40c93df9999f8fe63ccbc37238a9", "is_reserved": 0, "fusion_lon": 0.0, "lat": 38.905933, "is_disabled": 0, "name": "ca4c40c93df9999f8fe63ccbc37238a9", "fusion_lat": 0.0, "rental_uris": {"ios": "https://dc.lft.to/lastmile_qr_scan", "android": "https://dc.lft.to/lastmile_qr_scan"}, "lon": -77.05154816666666, "type": "electric_scooter"}, {"bike_id": "e03c6c4bcb20fc4fc91a81f3c19e976d", "is_reserved": 0, "fusion_lon": 0.0, "lat": 38.921298666666665, "is_disabled": 0, "name": "e03c6c4bcb20fc4fc91a81f3c19e976d", "fusion_lat": 0.0, "rental_uris": {"ios": "https://dc.lft.to/lastmile_qr_scan", "android": "https://dc.lft.to/lastmile_qr_scan"}, "lon": -77.03181283333333, "type": "electric_scooter"}, {"bike_id": "723237694f04aa17c58002ef97868293", "is_reserved": 0, "fusion_lon": 0.0, "lat": 38.9237825, "is_disabled": 0, "name": "723237694f04aa17c58002ef97868293", "fusion_lat": 0.0, "rental_uris": {"ios": "https://dc.lft.to/lastmile_qr_scan", "android": "https://dc.lft.to/lastmile_qr_scan"}, "lon": -77.05175916666667, "type": "electric_scooter"}, {"bike_id": "abe0634c72fcac74850ea35c30ec470c", "is_reserved": 0, "fusion_lon": 0.0, "lat": 38.90044283333334, "is_disabled": 0, "name": "abe0634c72fcac74850ea35c30ec470c", "fusion_lat": 0.0, "rental_uris": {"ios": "https://dc.lft.to/lastmile_qr_scan", "android": "https://dc.lft.to/lastmile_qr_scan"}, "lon": -77.00195516666666, "type": "electric_scooter"}, {"bike_id": "614764a09459e742f91d1877b74a1708", "is_reserved": 0, "fusion_lon": 0.0, "lat": 38.92131, "is_disabled": 0, "name": "614764a09459e742f91d1877b74a1708", "fusion_lat": 0.0, "rental_uris": {"ios": "https://dc.lft.to/lastmile_qr_scan", "android": "https://dc.lft.to/lastmile_qr_scan"}, "lon": -77.0412895, "type": "electric_scooter"}, {"bike_id": "66fdf02944a4bfa745c354e23cb6c07f", "is_reserved": 0, "fusion_lon": 0.0, "lat": 38.87341816666667, "is_disabled": 0, "name": "66fdf02944a4bfa745c354e23cb6c07f", "fusion_lat": 0.0, "rental_uris": {"ios": "https://dc.lft.to/lastmile_qr_scan", "android": "https://dc.lft.to/lastmile_qr_scan"}, "lon": -76.9678625, "type": "electric_scooter"}, {"bike_id": "4927842d67545a6aa36d6d8d61e5d41e", "is_reserved": 0, "fusion_lon": 0.0, "lat": 38.87941033333333, "is_disabled": 0, "name": "4927842d67545a6aa36d6d8d61e5d41e", "fusion_lat": 0.0, "rental_uris": {"ios": "https://dc.lft.to/lastmile_qr_scan", "android": "https://dc.lft.to/lastmile_qr_scan"}, "lon": -77.01330316666666, "type": "electric_scooter"}, {"bike_id": "e0772f4abf085b17717bd66d28831a50", "is_reserved": 0, "fusion_lon": 0.0, "lat": 38.93962666666667, "is_disabled": 0, "name": "e0772f4abf085b17717bd66d28831a50", "fusion_lat": 0.0, "rental_uris": {"ios": "https://dc.lft.to/lastmile_qr_scan", "android": "https://dc.lft.to/lastmile_qr_scan"}, "lon": -77.05321316666667, "type": "electric_scooter"}, {"bike_id": "ab621c05e3456bab4de09a87abaf1a04", "is_reserved": 0, "fusion_lon": 0.0, "lat": 38.88506116666667, "is_disabled": 0, "name": "ab621c05e3456bab4de09a87abaf1a04", "fusion_lat": 0.0, "rental_uris": {"ios": "https://dc.lft.to/lastmile_qr_scan", "android": "https://dc.lft.to/lastmile_qr_scan"}, "lon": -77.00565566666667, "type": "electric_scooter"}, {"bike_id": "779491304404beb1d2b7b23a2dd0d901", "is_reserved": 0, "fusion_lon": 0.0, "lat": 38.9056835, "is_disabled": 0, "name": "779491304404beb1d2b7b23a2dd0d901", "fusion_lat": 0.0, "rental_uris": {"ios": "https://dc.lft.to/lastmile_qr_scan", "android": "https://dc.lft.to/lastmile_qr_scan"}, "lon": -77.03627883333333, "type": "electric_scooter"}, {"bike_id": "1481147f9d909e2d9ef2b3235bb27fac", "is_reserved": 0, "fusion_lon": 0.0, "lat": 38.917016833333335, "is_disabled": 0, "name": "1481147f9d909e2d9ef2b3235bb27fac", "fusion_lat": 0.0, "rental_uris": {"ios": "https://dc.lft.to/lastmile_qr_scan", "android": "https://dc.lft.to/lastmile_qr_scan"}, "lon": -77.02658733333334, "type": "electric_scooter"}, {"bike_id": "aec83a6a907abc81503951711c356a21", "is_reserved": 0, "fusion_lon": 0.0, "lat": 38.90273083333334, "is_disabled": 0, "name": "aec83a6a907abc81503951711c356a21", "fusion_lat": 0.0, "rental_uris": {"ios": "https://dc.lft.to/lastmile_qr_scan", "android": "https://dc.lft.to/lastmile_qr_scan"}, "lon": -77.02988383333333, "type": "electric_scooter"}, {"bike_id": "1621df7b97cc23dff267d98c6ab3efd1", "is_reserved": 0, "fusion_lon": 0.0, "lat": 38.913613833333336, "is_disabled": 0, "name": "1621df7b97cc23dff267d98c6ab3efd1", "fusion_lat": 0.0, "rental_uris": {"ios": "https://dc.lft.to/lastmile_qr_scan", "android": "https://dc.lft.to/lastmile_qr_scan"}, "lon": -77.04657583333334, "type": "electric_scooter"}, {"bike_id": "d9e0934245e4f5d5e0e63e5c77112bea", "is_reserved": 0, "fusion_lon": 0.0, "lat": 38.959604, "is_disabled": 0, "name": "d9e0934245e4f5d5e0e63e5c77112bea", "fusion_lat": 0.0, "rental_uris": {"ios": "https://dc.lft.to/lastmile_qr_scan", "android": "https://dc.lft.to/lastmile_qr_scan"}, "lon": -77.10089183333334, "type": "electric_bike"}, {"bike_id": "bfb72bd397123d36c7622007e8da1368", "is_reserved": 0, "fusion_lon": 0.0, "lat": 38.9200745, "is_disabled": 0, "name": "bfb72bd397123d36c7622007e8da1368", "fusion_lat": 0.0, "rental_uris": {"ios": "https://dc.lft.to/lastmile_qr_scan", "android": "https://dc.lft.to/lastmile_qr_scan"}, "lon": -77.03166566666667, "type": "electric_bike"}, {"bike_id": "95f44682a787bc281d2ca98517e4a3fc", "is_reserved": 0, "fusion_lon": 0.0, "lat": 38.932099, "is_disabled": 0, "name": "95f44682a787bc281d2ca98517e4a3fc", "fusion_lat": 0.0, "rental_uris": {"ios": "https://dc.lft.to/lastmile_qr_scan", "android": "https://dc.lft.to/lastmile_qr_scan"}, "lon": -77.0273465, "type": "electric_scooter"}, {"bike_id": "1b83b6ba364f5de263a55a2882f44fdd", "is_reserved": 0, "fusion_lon": 0.0, "lat": 38.88136866666667, "is_disabled": 0, "name": "1b83b6ba364f5de263a55a2882f44fdd", "fusion_lat": 0.0, "rental_uris": {"ios": "https://dc.lft.to/lastmile_qr_scan", "android": "https://dc.lft.to/lastmile_qr_scan"}, "lon": -76.99621433333333, "type": "electric_scooter"}, {"bike_id": "5800ffa8634ebcf8fd3e8d7add973d14", "is_reserved": 0, "fusion_lon": 0.0, "lat": 38.918434166666664, "is_disabled": 0, "name": "5800ffa8634ebcf8fd3e8d7add973d14", "fusion_lat": 0.0, "rental_uris": {"ios": "https://dc.lft.to/lastmile_qr_scan", "android": "https://dc.lft.to/lastmile_qr_scan"}, "lon": -77.02312, "type": "electric_scooter"}, {"bike_id": "d19a7c5d2a025fd954c3106eb36d8b1c", "is_reserved": 0, "fusion_lon": 0.0, "lat": 38.92823416666667, "is_disabled": 0, "name": "d19a7c5d2a025fd954c3106eb36d8b1c", "fusion_lat": 0.0, "rental_uris": {"ios": "https://dc.lft.to/lastmile_qr_scan", "android": "https://dc.lft.to/lastmile_qr_scan"}, "lon": -77.02256766666666, "type": "electric_scooter"}, {"bike_id": "542ec4c987df9bf45299761e6d88191d", "is_reserved": 0, "fusion_lon": 0.0, "lat": 38.903669666666666, "is_disabled": 0, "name": "542ec4c987df9bf45299761e6d88191d", "fusion_lat": 0.0, "rental_uris": {"ios": "https://dc.lft.to/lastmile_qr_scan", "android": "https://dc.lft.to/lastmile_qr_scan"}, "lon": -77.04209816666666, "type": "electric_scooter"}, {"bike_id": "a5b745a7c2715bd14669c1d054a1dc75", "is_reserved": 0, "fusion_lon": 0.0, "lat": 38.89727533333333, "is_disabled": 0, "name": "a5b745a7c2715bd14669c1d054a1dc75", "fusion_lat": 0.0, "rental_uris": {"ios": "https://dc.lft.to/lastmile_qr_scan", "android": "https://dc.lft.to/lastmile_qr_scan"}, "lon": -77.02726616666666, "type": "electric_scooter"}, {"bike_id": "3f086178fb0a367661037f4c644c26f0", "is_reserved": 0, "fusion_lon": 0.0, "lat": 38.911988666666666, "is_disabled": 0, "name": "3f086178fb0a367661037f4c644c26f0", "fusion_lat": 0.0, "rental_uris": {"ios": "https://dc.lft.to/lastmile_qr_scan", "android": "https://dc.lft.to/lastmile_qr_scan"}, "lon": -77.073156, "type": "electric_scooter"}, {"bike_id": "44a96578c26f9a416e022da47711c432", "is_reserved": 0, "fusion_lon": 0.0, "lat": 38.88499083333333, "is_disabled": 0, "name": "44a96578c26f9a416e022da47711c432", "fusion_lat": 0.0, "rental_uris": {"ios": "https://dc.lft.to/lastmile_qr_scan", "android": "https://dc.lft.to/lastmile_qr_scan"}, "lon": -77.00726233333333, "type": "electric_scooter"}, {"bike_id": "c174b96735b8aeeec81bc77e28024b8f", "is_reserved": 0, "fusion_lon": 0.0, "lat": 38.90411183333333, "is_disabled": 0, "name": "c174b96735b8aeeec81bc77e28024b8f", "fusion_lat": 0.0, "rental_uris": {"ios": "https://dc.lft.to/lastmile_qr_scan", "android": "https://dc.lft.to/lastmile_qr_scan"}, "lon": -76.973293, "type": "electric_scooter"}, {"bike_id": "95a8a7a2c3a1a92c1884cfc625e0349f", "is_reserved": 0, "fusion_lon": 0.0, "lat": 38.92471166666667, "is_disabled": 0, "name": "95a8a7a2c3a1a92c1884cfc625e0349f", "fusion_lat": 0.0, "rental_uris": {"ios": "https://dc.lft.to/lastmile_qr_scan", "android": "https://dc.lft.to/lastmile_qr_scan"}, "lon": -77.02826416666667, "type": "electric_scooter"}, {"bike_id": "27d2da5f0017aeccd821d9070961e17e", "is_reserved": 0, "fusion_lon": 0.0, "lat": 38.92013333333333, "is_disabled": 0, "name": "27d2da5f0017aeccd821d9070961e17e", "fusion_lat": 0.0, "rental_uris": {"ios": "https://dc.lft.to/lastmile_qr_scan", "android": "https://dc.lft.to/lastmile_qr_scan"}, "lon": -77.03861216666667, "type": "electric_scooter"}, {"bike_id": "5c6e94217a6127c673339f26deeabebb", "is_reserved": 0, "fusion_lon": 0.0, "lat": 38.919220333333335, "is_disabled": 0, "name": "5c6e94217a6127c673339f26deeabebb", "fusion_lat": 0.0, "rental_uris": {"ios": "https://dc.lft.to/lastmile_qr_scan", "android": "https://dc.lft.to/lastmile_qr_scan"}, "lon": -77.009724, "type": "electric_scooter"}, {"bike_id": "b93b2239764c5dfceb3db812e4702aa9", "is_reserved": 0, "fusion_lon": 0.0, "lat": 38.903623833333334, "is_disabled": 0, "name": "b93b2239764c5dfceb3db812e4702aa9", "fusion_lat": 0.0, "rental_uris": {"ios": "https://dc.lft.to/lastmile_qr_scan", "android": "https://dc.lft.to/lastmile_qr_scan"}, "lon": -77.04205566666667, "type": "electric_scooter"}, {"bike_id": "cd93ddaf5410598346e715176972052b", "is_reserved": 0, "fusion_lon": 0.0, "lat": 38.89896133333333, "is_disabled": 0, "name": "cd93ddaf5410598346e715176972052b", "fusion_lat": 0.0, "rental_uris": {"ios": "https://dc.lft.to/lastmile_qr_scan", "android": "https://dc.lft.to/lastmile_qr_scan"}, "lon": -77.003598, "type": "electric_scooter"}, {"bike_id": "16d99f13adef7f2d7ffcad18555e4d46", "is_reserved": 0, "fusion_lon": 0.0, "lat": 38.88571833333334, "is_disabled": 0, "name": "16d99f13adef7f2d7ffcad18555e4d46", "fusion_lat": 0.0, "rental_uris": {"ios": "https://dc.lft.to/lastmile_qr_scan", "android": "https://dc.lft.to/lastmile_qr_scan"}, "lon": -77.0292535, "type": "electric_scooter"}, {"bike_id": "f9fac1bcf5dd90ff76d11d52614272a0", "is_reserved": 0, "fusion_lon": 0.0, "lat": 38.903816, "is_disabled": 0, "name": "f9fac1bcf5dd90ff76d11d52614272a0", "fusion_lat": 0.0, "rental_uris": {"ios": "https://dc.lft.to/lastmile_qr_scan", "android": "https://dc.lft.to/lastmile_qr_scan"}, "lon": -77.01762733333334, "type": "electric_scooter"}, {"bike_id": "5dd16775ef9fb6229487db42ac58166c", "is_reserved": 0, "fusion_lon": 0.0, "lat": 38.940127, "is_disabled": 0, "name": "5dd16775ef9fb6229487db42ac58166c", "fusion_lat": 0.0, "rental_uris": {"ios": "https://dc.lft.to/lastmile_qr_scan", "android": "https://dc.lft.to/lastmile_qr_scan"}, "lon": -77.0716965, "type": "electric_scooter"}, {"bike_id": "ba385405ecd06a27eb6e9670b18125a5", "is_reserved": 0, "fusion_lon": 0.0, "lat": 38.904515, "is_disabled": 0, "name": "ba385405ecd06a27eb6e9670b18125a5", "fusion_lat": 0.0, "rental_uris": {"ios": "https://dc.lft.to/lastmile_qr_scan", "android": "https://dc.lft.to/lastmile_qr_scan"}, "lon": -76.98481766666667, "type": "electric_scooter"}, {"bike_id": "e44c036d8936b4518a5094fb931fa3c5", "is_reserved": 0, "fusion_lon": 0.0, "lat": 38.873040833333334, "is_disabled": 0, "name": "e44c036d8936b4518a5094fb931fa3c5", "fusion_lat": 0.0, "rental_uris": {"ios": "https://dc.lft.to/lastmile_qr_scan", "android": "https://dc.lft.to/lastmile_qr_scan"}, "lon": -77.01094383333333, "type": "electric_bike"}, {"bike_id": "e5b91531a29a4a093e3b742e29aba84b", "is_reserved": 0, "fusion_lon": 0.0, "lat": 38.92956233333334, "is_disabled": 0, "name": "e5b91531a29a4a093e3b742e29aba84b", "fusion_lat": 0.0, "rental_uris": {"ios": "https://dc.lft.to/lastmile_qr_scan", "android": "https://dc.lft.to/lastmile_qr_scan"}, "lon": -77.0346515, "type": "electric_scooter"}, {"bike_id": "25b7e4f28f48a91cc1d70c82ecae683a", "is_reserved": 0, "fusion_lon": 0.0, "lat": 38.90028383333333, "is_disabled": 0, "name": "25b7e4f28f48a91cc1d70c82ecae683a", "fusion_lat": 0.0, "rental_uris": {"ios": "https://dc.lft.to/lastmile_qr_scan", "android": "https://dc.lft.to/lastmile_qr_scan"}, "lon": -77.00189533333334, "type": "electric_scooter"}, {"bike_id": "32bc7f3dc6ab62919f91f5e1f52b087f", "is_reserved": 0, "fusion_lon": 0.0, "lat": 38.9906385, "is_disabled": 0, "name": "32bc7f3dc6ab62919f91f5e1f52b087f", "fusion_lat": 0.0, "rental_uris": {"ios": "https://dc.lft.to/lastmile_qr_scan", "android": "https://dc.lft.to/lastmile_qr_scan"}, "lon": -77.10026166666667, "type": "electric_bike"}, {"bike_id": "3be485b0571f89415dc1a5a4a3f3cef0", "is_reserved": 0, "fusion_lon": 0.0, "lat": 38.90009666666667, "is_disabled": 0, "name": "3be485b0571f89415dc1a5a4a3f3cef0", "fusion_lat": 0.0, "rental_uris": {"ios": "https://dc.lft.to/lastmile_qr_scan", "android": "https://dc.lft.to/lastmile_qr_scan"}, "lon": -76.997905, "type": "electric_scooter"}, {"bike_id": "2fab2174cdd2776d364ddafb4ed2a6be", "is_reserved": 0, "fusion_lon": 0.0, "lat": 38.95279383333333, "is_disabled": 0, "name": "2fab2174cdd2776d364ddafb4ed2a6be", "fusion_lat": 0.0, "rental_uris": {"ios": "https://dc.lft.to/lastmile_qr_scan", "android": "https://dc.lft.to/lastmile_qr_scan"}, "lon": -77.007904, "type": "electric_scooter"}, {"bike_id": "e217cd1cfe2ebc92b541cb38aa464347", "is_reserved": 0, "fusion_lon": 0.0, "lat": 38.923296, "is_disabled": 0, "name": "e217cd1cfe2ebc92b541cb38aa464347", "fusion_lat": 0.0, "rental_uris": {"ios": "https://dc.lft.to/lastmile_qr_scan", "android": "https://dc.lft.to/lastmile_qr_scan"}, "lon": -77.03522016666666, "type": "electric_scooter"}, {"bike_id": "71876d908ae6d869aebdae22228e57c3", "is_reserved": 0, "fusion_lon": 0.0, "lat": 38.922607166666666, "is_disabled": 0, "name": "71876d908ae6d869aebdae22228e57c3", "fusion_lat": 0.0, "rental_uris": {"ios": "https://dc.lft.to/lastmile_qr_scan", "android": "https://dc.lft.to/lastmile_qr_scan"}, "lon": -77.04139416666666, "type": "electric_scooter"}, {"bike_id": "8ed65ff5ea28b40558776643ae137278", "is_reserved": 0, "fusion_lon": 0.0, "lat": 38.92095366666667, "is_disabled": 0, "name": "8ed65ff5ea28b40558776643ae137278", "fusion_lat": 0.0, "rental_uris": {"ios": "https://dc.lft.to/lastmile_qr_scan", "android": "https://dc.lft.to/lastmile_qr_scan"}, "lon": -76.99902733333333, "type": "electric_scooter"}, {"bike_id": "b6dfa2eda97ac12ec3ba36e207985ac8", "is_reserved": 0, "fusion_lon": 0.0, "lat": 38.8532485, "is_disabled": 0, "name": "b6dfa2eda97ac12ec3ba36e207985ac8", "fusion_lat": 0.0, "rental_uris": {"ios": "https://dc.lft.to/lastmile_qr_scan", "android": "https://dc.lft.to/lastmile_qr_scan"}, "lon": -76.98006033333333, "type": "electric_scooter"}, {"bike_id": "b05dedd67e9bd68bc6e15c98326c337b", "is_reserved": 0, "fusion_lon": 0.0, "lat": 38.918854833333334, "is_disabled": 0, "name": "b05dedd67e9bd68bc6e15c98326c337b", "fusion_lat": 0.0, "rental_uris": {"ios": "https://dc.lft.to/lastmile_qr_scan", "android": "https://dc.lft.to/lastmile_qr_scan"}, "lon": -77.03503983333333, "type": "electric_scooter"}, {"bike_id": "876856458ff3a6f7ae35cf872bf45a95", "is_reserved": 0, "fusion_lon": 0.0, "lat": 38.92043833333334, "is_disabled": 0, "name": "876856458ff3a6f7ae35cf872bf45a95", "fusion_lat": 0.0, "rental_uris": {"ios": "https://dc.lft.to/lastmile_qr_scan", "android": "https://dc.lft.to/lastmile_qr_scan"}, "lon": -76.9982065, "type": "electric_scooter"}, {"bike_id": "43c38d3649e967614251aaf0fa965284", "is_reserved": 0, "fusion_lon": 0.0, "lat": 38.918057833333336, "is_disabled": 0, "name": "43c38d3649e967614251aaf0fa965284", "fusion_lat": 0.0, "rental_uris": {"ios": "https://dc.lft.to/lastmile_qr_scan", "android": "https://dc.lft.to/lastmile_qr_scan"}, "lon": -77.03440383333333, "type": "electric_scooter"}, {"bike_id": "8a700f53a078fd183e89fb19fb2b687e", "is_reserved": 0, "fusion_lon": 0.0, "lat": 38.8723255, "is_disabled": 0, "name": "8a700f53a078fd183e89fb19fb2b687e", "fusion_lat": 0.0, "rental_uris": {"ios": "https://dc.lft.to/lastmile_qr_scan", "android": "https://dc.lft.to/lastmile_qr_scan"}, "lon": -77.01173466666667, "type": "electric_bike"}, {"bike_id": "8b4e190f5475c17208d3f5f5f1574b11", "is_reserved": 0, "fusion_lon": 0.0, "lat": 38.9395425, "is_disabled": 0, "name": "8b4e190f5475c17208d3f5f5f1574b11", "fusion_lat": 0.0, "rental_uris": {"ios": "https://dc.lft.to/lastmile_qr_scan", "android": "https://dc.lft.to/lastmile_qr_scan"}, "lon": -77.0325785, "type": "electric_scooter"}, {"bike_id": "e8c401872f776c56d9f418b2bf664c26", "is_reserved": 0, "fusion_lon": 0.0, "lat": 38.92403983333333, "is_disabled": 0, "name": "e8c401872f776c56d9f418b2bf664c26", "fusion_lat": 0.0, "rental_uris": {"ios": "https://dc.lft.to/lastmile_qr_scan", "android": "https://dc.lft.to/lastmile_qr_scan"}, "lon": -77.02543616666667, "type": "electric_scooter"}, {"bike_id": "b2609995512b68f7f432b38666df7a40", "is_reserved": 0, "fusion_lon": 0.0, "lat": 38.9229145, "is_disabled": 0, "name": "b2609995512b68f7f432b38666df7a40", "fusion_lat": 0.0, "rental_uris": {"ios": "https://dc.lft.to/lastmile_qr_scan", "android": "https://dc.lft.to/lastmile_qr_scan"}, "lon": -77.0319015, "type": "electric_scooter"}, {"bike_id": "0e44619b2437dfe3e7e5bd5911131fda", "is_reserved": 0, "fusion_lon": 0.0, "lat": 38.90560116666666, "is_disabled": 0, "name": "0e44619b2437dfe3e7e5bd5911131fda", "fusion_lat": 0.0, "rental_uris": {"ios": "https://dc.lft.to/lastmile_qr_scan", "android": "https://dc.lft.to/lastmile_qr_scan"}, "lon": -76.99793983333333, "type": "electric_bike"}, {"bike_id": "2183fe191def8490994219e842f04ddb", "is_reserved": 0, "fusion_lon": 0.0, "lat": 38.866985166666666, "is_disabled": 0, "name": "2183fe191def8490994219e842f04ddb", "fusion_lat": 0.0, "rental_uris": {"ios": "https://dc.lft.to/lastmile_qr_scan", "android": "https://dc.lft.to/lastmile_qr_scan"}, "lon": -76.98706016666667, "type": "electric_scooter"}, {"bike_id": "0ae26fac2f945d956154c039548d7d20", "is_reserved": 0, "fusion_lon": 0.0, "lat": 38.9006155, "is_disabled": 0, "name": "0ae26fac2f945d956154c039548d7d20", "fusion_lat": 0.0, "rental_uris": {"ios": "https://dc.lft.to/lastmile_qr_scan", "android": "https://dc.lft.to/lastmile_qr_scan"}, "lon": -76.933858, "type": "electric_scooter"}, {"bike_id": "15f3d529b76e67f9bbbca7ef7013ac39", "is_reserved": 0, "fusion_lon": 0.0, "lat": 38.9074655, "is_disabled": 0, "name": "15f3d529b76e67f9bbbca7ef7013ac39", "fusion_lat": 0.0, "rental_uris": {"ios": "https://dc.lft.to/lastmile_qr_scan", "android": "https://dc.lft.to/lastmile_qr_scan"}, "lon": -77.03466666666667, "type": "electric_scooter"}, {"bike_id": "3e47988c28feb32b65c881dfb8059919", "is_reserved": 0, "fusion_lon": 0.0, "lat": 38.92290716666667, "is_disabled": 0, "name": "3e47988c28feb32b65c881dfb8059919", "fusion_lat": 0.0, "rental_uris": {"ios": "https://dc.lft.to/lastmile_qr_scan", "android": "https://dc.lft.to/lastmile_qr_scan"}, "lon": -77.02068516666667, "type": "electric_scooter"}, {"bike_id": "d3b9e3578c93cae66c469c2549f0ed04", "is_reserved": 0, "fusion_lon": 0.0, "lat": 38.905349, "is_disabled": 0, "name": "d3b9e3578c93cae66c469c2549f0ed04", "fusion_lat": 0.0, "rental_uris": {"ios": "https://dc.lft.to/lastmile_qr_scan", "android": "https://dc.lft.to/lastmile_qr_scan"}, "lon": -76.99804933333333, "type": "electric_bike"}, {"bike_id": "1251e998179eaf62aa2ebf017b0cc33c", "is_reserved": 0, "fusion_lon": 0.0, "lat": 38.9415115, "is_disabled": 0, "name": "1251e998179eaf62aa2ebf017b0cc33c", "fusion_lat": 0.0, "rental_uris": {"ios": "https://dc.lft.to/lastmile_qr_scan", "android": "https://dc.lft.to/lastmile_qr_scan"}, "lon": -77.03649383333334, "type": "electric_scooter"}, {"bike_id": "b3eb025d043636be2618b1f3d37e502c", "is_reserved": 0, "fusion_lon": 0.0, "lat": 38.884479666666664, "is_disabled": 0, "name": "b3eb025d043636be2618b1f3d37e502c", "fusion_lat": 0.0, "rental_uris": {"ios": "https://dc.lft.to/lastmile_qr_scan", "android": "https://dc.lft.to/lastmile_qr_scan"}, "lon": -76.95753533333334, "type": "electric_scooter"}, {"bike_id": "17832972835ed24df499c182451cec2d", "is_reserved": 0, "fusion_lon": 0.0, "lat": 38.89674766666667, "is_disabled": 0, "name": "17832972835ed24df499c182451cec2d", "fusion_lat": 0.0, "rental_uris": {"ios": "https://dc.lft.to/lastmile_qr_scan", "android": "https://dc.lft.to/lastmile_qr_scan"}, "lon": -77.05392083333334, "type": "electric_scooter"}, {"bike_id": "560995a996d6c39bae7ab9b47f6c5055", "is_reserved": 0, "fusion_lon": 0.0, "lat": 38.99092316666667, "is_disabled": 0, "name": "560995a996d6c39bae7ab9b47f6c5055", "fusion_lat": 0.0, "rental_uris": {"ios": "https://dc.lft.to/lastmile_qr_scan", "android": "https://dc.lft.to/lastmile_qr_scan"}, "lon": -76.8749525, "type": "electric_bike"}, {"bike_id": "04a909443d471db4a68c2bf15ecbba6e", "is_reserved": 0, "fusion_lon": 0.0, "lat": 38.913315, "is_disabled": 0, "name": "04a909443d471db4a68c2bf15ecbba6e", "fusion_lat": 0.0, "rental_uris": {"ios": "https://dc.lft.to/lastmile_qr_scan", "android": "https://dc.lft.to/lastmile_qr_scan"}, "lon": -77.030395, "type": "electric_scooter"}, {"bike_id": "e4ea380735900c8baa294d9f1d195863", "is_reserved": 0, "fusion_lon": 0.0, "lat": 38.9156695, "is_disabled": 0, "name": "e4ea380735900c8baa294d9f1d195863", "fusion_lat": 0.0, "rental_uris": {"ios": "https://dc.lft.to/lastmile_qr_scan", "android": "https://dc.lft.to/lastmile_qr_scan"}, "lon": -77.02127016666667, "type": "electric_scooter"}, {"bike_id": "8fd2bf8b23c04021cec50d63c128ca08", "is_reserved": 0, "fusion_lon": 0.0, "lat": 38.959277, "is_disabled": 0, "name": "8fd2bf8b23c04021cec50d63c128ca08", "fusion_lat": 0.0, "rental_uris": {"ios": "https://dc.lft.to/lastmile_qr_scan", "android": "https://dc.lft.to/lastmile_qr_scan"}, "lon": -77.03322833333333, "type": "electric_scooter"}, {"bike_id": "25883213ecdef39487fa9a3ce7d691a1", "is_reserved": 0, "fusion_lon": 0.0, "lat": 38.90361266666667, "is_disabled": 0, "name": "25883213ecdef39487fa9a3ce7d691a1", "fusion_lat": 0.0, "rental_uris": {"ios": "https://dc.lft.to/lastmile_qr_scan", "android": "https://dc.lft.to/lastmile_qr_scan"}, "lon": -77.03830483333333, "type": "electric_scooter"}, {"bike_id": "9d26ed4bf4af57cca788dec80599a2d9", "is_reserved": 0, "fusion_lon": 0.0, "lat": 38.905271666666664, "is_disabled": 0, "name": "9d26ed4bf4af57cca788dec80599a2d9", "fusion_lat": 0.0, "rental_uris": {"ios": "https://dc.lft.to/lastmile_qr_scan", "android": "https://dc.lft.to/lastmile_qr_scan"}, "lon": -77.02711666666667, "type": "electric_scooter"}, {"bike_id": "47d61a439894e6f0291bf96088de55c1", "is_reserved": 0, "fusion_lon": 0.0, "lat": 38.9051605, "is_disabled": 0, "name": "47d61a439894e6f0291bf96088de55c1", "fusion_lat": 0.0, "rental_uris": {"ios": "https://dc.lft.to/lastmile_qr_scan", "android": "https://dc.lft.to/lastmile_qr_scan"}, "lon": -77.06761266666666, "type": "electric_scooter"}, {"bike_id": "4163aeff482a1c6a0835ef9d23995379", "is_reserved": 0, "fusion_lon": 0.0, "lat": 38.94291233333333, "is_disabled": 0, "name": "4163aeff482a1c6a0835ef9d23995379", "fusion_lat": 0.0, "rental_uris": {"ios": "https://dc.lft.to/lastmile_qr_scan", "android": "https://dc.lft.to/lastmile_qr_scan"}, "lon": -77.02170616666666, "type": "electric_scooter"}, {"bike_id": "0e9485ab07e32892b623595cc498b62b", "is_reserved": 0, "fusion_lon": 0.0, "lat": 38.9339385, "is_disabled": 0, "name": "0e9485ab07e32892b623595cc498b62b", "fusion_lat": 0.0, "rental_uris": {"ios": "https://dc.lft.to/lastmile_qr_scan", "android": "https://dc.lft.to/lastmile_qr_scan"}, "lon": -77.035756, "type": "electric_scooter"}, {"bike_id": "3e9520f542bc31dbbe5f8c435afe36ac", "is_reserved": 0, "fusion_lon": 0.0, "lat": 38.908565333333335, "is_disabled": 0, "name": "3e9520f542bc31dbbe5f8c435afe36ac", "fusion_lat": 0.0, "rental_uris": {"ios": "https://dc.lft.to/lastmile_qr_scan", "android": "https://dc.lft.to/lastmile_qr_scan"}, "lon": -77.02727433333334, "type": "electric_scooter"}, {"bike_id": "f3b5ed0979c32f98434ec9580831e53e", "is_reserved": 0, "fusion_lon": 0.0, "lat": 38.909136833333335, "is_disabled": 0, "name": "f3b5ed0979c32f98434ec9580831e53e", "fusion_lat": 0.0, "rental_uris": {"ios": "https://dc.lft.to/lastmile_qr_scan", "android": "https://dc.lft.to/lastmile_qr_scan"}, "lon": -77.0091765, "type": "electric_scooter"}, {"bike_id": "18e3c434335a6fd46dd18ed4e294e7a7", "is_reserved": 0, "fusion_lon": 0.0, "lat": 38.933067333333334, "is_disabled": 0, "name": "18e3c434335a6fd46dd18ed4e294e7a7", "fusion_lat": 0.0, "rental_uris": {"ios": "https://dc.lft.to/lastmile_qr_scan", "android": "https://dc.lft.to/lastmile_qr_scan"}, "lon": -77.02839833333333, "type": "electric_scooter"}, {"bike_id": "50b648ed188f092d59f3613a6c88b9c5", "is_reserved": 0, "fusion_lon": 0.0, "lat": 38.9325585, "is_disabled": 0, "name": "50b648ed188f092d59f3613a6c88b9c5", "fusion_lat": 0.0, "rental_uris": {"ios": "https://dc.lft.to/lastmile_qr_scan", "android": "https://dc.lft.to/lastmile_qr_scan"}, "lon": -77.03277116666666, "type": "electric_scooter"}, {"bike_id": "51307308e5daabe858e80ceadafbfcf5", "is_reserved": 0, "fusion_lon": 0.0, "lat": 38.9119005, "is_disabled": 0, "name": "51307308e5daabe858e80ceadafbfcf5", "fusion_lat": 0.0, "rental_uris": {"ios": "https://dc.lft.to/lastmile_qr_scan", "android": "https://dc.lft.to/lastmile_qr_scan"}, "lon": -77.03272933333334, "type": "electric_scooter"}, {"bike_id": "48e0774338de407dc5d2830877c1ac74", "is_reserved": 0, "fusion_lon": 0.0, "lat": 38.89730516666667, "is_disabled": 0, "name": "48e0774338de407dc5d2830877c1ac74", "fusion_lat": 0.0, "rental_uris": {"ios": "https://dc.lft.to/lastmile_qr_scan", "android": "https://dc.lft.to/lastmile_qr_scan"}, "lon": -77.05472966666666, "type": "electric_scooter"}, {"bike_id": "4aba6a99b1bb76a0bb44ccf65e3b9d35", "is_reserved": 0, "fusion_lon": 0.0, "lat": 38.902670666666666, "is_disabled": 0, "name": "4aba6a99b1bb76a0bb44ccf65e3b9d35", "fusion_lat": 0.0, "rental_uris": {"ios": "https://dc.lft.to/lastmile_qr_scan", "android": "https://dc.lft.to/lastmile_qr_scan"}, "lon": -77.0162715, "type": "electric_scooter"}, {"bike_id": "a8175e5abc85914370e34400f919cad1", "is_reserved": 0, "fusion_lon": 0.0, "lat": 38.89218783333333, "is_disabled": 0, "name": "a8175e5abc85914370e34400f919cad1", "fusion_lat": 0.0, "rental_uris": {"ios": "https://dc.lft.to/lastmile_qr_scan", "android": "https://dc.lft.to/lastmile_qr_scan"}, "lon": -77.1078035, "type": "electric_bike"}, {"bike_id": "447a0e08e6bd757e8c08a496d952811e", "is_reserved": 0, "fusion_lon": 0.0, "lat": 38.931149, "is_disabled": 0, "name": "447a0e08e6bd757e8c08a496d952811e", "fusion_lat": 0.0, "rental_uris": {"ios": "https://dc.lft.to/lastmile_qr_scan", "android": "https://dc.lft.to/lastmile_qr_scan"}, "lon": -77.03822666666667, "type": "electric_scooter"}, {"bike_id": "5d381fbaa9976f97f8383aa0dfeaff6e", "is_reserved": 0, "fusion_lon": 0.0, "lat": 38.93336633333333, "is_disabled": 0, "name": "5d381fbaa9976f97f8383aa0dfeaff6e", "fusion_lat": 0.0, "rental_uris": {"ios": "https://dc.lft.to/lastmile_qr_scan", "android": "https://dc.lft.to/lastmile_qr_scan"}, "lon": -77.0325945, "type": "electric_scooter"}, {"bike_id": "4cd06a78034ae82e5622be98181ce9de", "is_reserved": 0, "fusion_lon": 0.0, "lat": 38.86371466666667, "is_disabled": 0, "name": "4cd06a78034ae82e5622be98181ce9de", "fusion_lat": 0.0, "rental_uris": {"ios": "https://dc.lft.to/lastmile_qr_scan", "android": "https://dc.lft.to/lastmile_qr_scan"}, "lon": -76.99059033333333, "type": "electric_scooter"}, {"bike_id": "51f98291091b079087861d698ea9d8fc", "is_reserved": 0, "fusion_lon": 0.0, "lat": 38.92026383333334, "is_disabled": 0, "name": "51f98291091b079087861d698ea9d8fc", "fusion_lat": 0.0, "rental_uris": {"ios": "https://dc.lft.to/lastmile_qr_scan", "android": "https://dc.lft.to/lastmile_qr_scan"}, "lon": -77.03116533333333, "type": "electric_scooter"}, {"bike_id": "3cc14c08e4ea3be5a54abcda698f56d9", "is_reserved": 0, "fusion_lon": 0.0, "lat": 38.89358883333333, "is_disabled": 0, "name": "3cc14c08e4ea3be5a54abcda698f56d9", "fusion_lat": 0.0, "rental_uris": {"ios": "https://dc.lft.to/lastmile_qr_scan", "android": "https://dc.lft.to/lastmile_qr_scan"}, "lon": -76.98522033333333, "type": "electric_bike"}, {"bike_id": "5864b86303da23aa00e8fa9ce8898ad4", "is_reserved": 0, "fusion_lon": 0.0, "lat": 38.899618, "is_disabled": 0, "name": "5864b86303da23aa00e8fa9ce8898ad4", "fusion_lat": 0.0, "rental_uris": {"ios": "https://dc.lft.to/lastmile_qr_scan", "android": "https://dc.lft.to/lastmile_qr_scan"}, "lon": -77.03353783333333, "type": "electric_scooter"}, {"bike_id": "919d8c2f288628f986e09f8689becca3", "is_reserved": 0, "fusion_lon": 0.0, "lat": 38.898786333333334, "is_disabled": 0, "name": "919d8c2f288628f986e09f8689becca3", "fusion_lat": 0.0, "rental_uris": {"ios": "https://dc.lft.to/lastmile_qr_scan", "android": "https://dc.lft.to/lastmile_qr_scan"}, "lon": -76.931622, "type": "electric_scooter"}, {"bike_id": "5e0c54d4524079bbd34bed57ceec8bbe", "is_reserved": 0, "fusion_lon": 0.0, "lat": 38.916873333333335, "is_disabled": 0, "name": "5e0c54d4524079bbd34bed57ceec8bbe", "fusion_lat": 0.0, "rental_uris": {"ios": "https://dc.lft.to/lastmile_qr_scan", "android": "https://dc.lft.to/lastmile_qr_scan"}, "lon": -77.02903483333333, "type": "electric_scooter"}, {"bike_id": "7c979c6e39e0a290b7f7587497b458e8", "is_reserved": 0, "fusion_lon": 0.0, "lat": 38.9194, "is_disabled": 0, "name": "7c979c6e39e0a290b7f7587497b458e8", "fusion_lat": 0.0, "rental_uris": {"ios": "https://dc.lft.to/lastmile_qr_scan", "android": "https://dc.lft.to/lastmile_qr_scan"}, "lon": -77.0136315, "type": "electric_scooter"}, {"bike_id": "28e9200a586d520f77b91586b0ce66bb", "is_reserved": 0, "fusion_lon": 0.0, "lat": 38.936878666666665, "is_disabled": 0, "name": "28e9200a586d520f77b91586b0ce66bb", "fusion_lat": 0.0, "rental_uris": {"ios": "https://dc.lft.to/lastmile_qr_scan", "android": "https://dc.lft.to/lastmile_qr_scan"}, "lon": -77.06025483333333, "type": "electric_scooter"}, {"bike_id": "2dfac43b85a8c049e601ba55b0b8db5c", "is_reserved": 0, "fusion_lon": 0.0, "lat": 38.90128333333333, "is_disabled": 0, "name": "2dfac43b85a8c049e601ba55b0b8db5c", "fusion_lat": 0.0, "rental_uris": {"ios": "https://dc.lft.to/lastmile_qr_scan", "android": "https://dc.lft.to/lastmile_qr_scan"}, "lon": -77.01613316666666, "type": "electric_scooter"}, {"bike_id": "45e1f26079afaca58601e52c44159343", "is_reserved": 0, "fusion_lon": 0.0, "lat": 38.912879833333335, "is_disabled": 0, "name": "45e1f26079afaca58601e52c44159343", "fusion_lat": 0.0, "rental_uris": {"ios": "https://dc.lft.to/lastmile_qr_scan", "android": "https://dc.lft.to/lastmile_qr_scan"}, "lon": -77.03852366666666, "type": "electric_scooter"}, {"bike_id": "40271cf3d62276577c450a51708853bc", "is_reserved": 0, "fusion_lon": 0.0, "lat": 38.9119255, "is_disabled": 0, "name": "40271cf3d62276577c450a51708853bc", "fusion_lat": 0.0, "rental_uris": {"ios": "https://dc.lft.to/lastmile_qr_scan", "android": "https://dc.lft.to/lastmile_qr_scan"}, "lon": -76.996193, "type": "electric_scooter"}, {"bike_id": "218131930ed9bc55d168271869f6a249", "is_reserved": 0, "fusion_lon": 0.0, "lat": 38.85535683333333, "is_disabled": 0, "name": "218131930ed9bc55d168271869f6a249", "fusion_lat": 0.0, "rental_uris": {"ios": "https://dc.lft.to/lastmile_qr_scan", "android": "https://dc.lft.to/lastmile_qr_scan"}, "lon": -77.113277, "type": "electric_bike"}, {"bike_id": "c85439b0a355f701a619dcb110e8063b", "is_reserved": 0, "fusion_lon": 0.0, "lat": 38.91012683333334, "is_disabled": 0, "name": "c85439b0a355f701a619dcb110e8063b", "fusion_lat": 0.0, "rental_uris": {"ios": "https://dc.lft.to/lastmile_qr_scan", "android": "https://dc.lft.to/lastmile_qr_scan"}, "lon": -76.99394416666667, "type": "electric_scooter"}, {"bike_id": "31e547564aa417fba5d4d2bb096faf64", "is_reserved": 0, "fusion_lon": 0.0, "lat": 38.92565883333333, "is_disabled": 0, "name": "31e547564aa417fba5d4d2bb096faf64", "fusion_lat": 0.0, "rental_uris": {"ios": "https://dc.lft.to/lastmile_qr_scan", "android": "https://dc.lft.to/lastmile_qr_scan"}, "lon": -77.03910883333333, "type": "electric_scooter"}, {"bike_id": "b0754de1c8a681b8494d2b87afea3b9d", "is_reserved": 0, "fusion_lon": 0.0, "lat": 38.9170665, "is_disabled": 0, "name": "b0754de1c8a681b8494d2b87afea3b9d", "fusion_lat": 0.0, "rental_uris": {"ios": "https://dc.lft.to/lastmile_qr_scan", "android": "https://dc.lft.to/lastmile_qr_scan"}, "lon": -77.0310845, "type": "electric_scooter"}, {"bike_id": "cc4ce252598168f193b448636e53555d", "is_reserved": 0, "fusion_lon": 0.0, "lat": 38.896578833333336, "is_disabled": 0, "name": "cc4ce252598168f193b448636e53555d", "fusion_lat": 0.0, "rental_uris": {"ios": "https://dc.lft.to/lastmile_qr_scan", "android": "https://dc.lft.to/lastmile_qr_scan"}, "lon": -77.0294165, "type": "electric_scooter"}, {"bike_id": "6844ce4e191076990e078e3cd098338c", "is_reserved": 0, "fusion_lon": 0.0, "lat": 38.89815083333333, "is_disabled": 0, "name": "6844ce4e191076990e078e3cd098338c", "fusion_lat": 0.0, "rental_uris": {"ios": "https://dc.lft.to/lastmile_qr_scan", "android": "https://dc.lft.to/lastmile_qr_scan"}, "lon": -77.02949616666666, "type": "electric_scooter"}, {"bike_id": "acd175868bede4c8a30e530dd51575b0", "is_reserved": 0, "fusion_lon": 0.0, "lat": 38.883316666666666, "is_disabled": 0, "name": "acd175868bede4c8a30e530dd51575b0", "fusion_lat": 0.0, "rental_uris": {"ios": "https://dc.lft.to/lastmile_qr_scan", "android": "https://dc.lft.to/lastmile_qr_scan"}, "lon": -77.01745516666666, "type": "electric_scooter"}, {"bike_id": "51ca6de7971934ff3d99dba06919a54c", "is_reserved": 0, "fusion_lon": 0.0, "lat": 38.925666166666666, "is_disabled": 0, "name": "51ca6de7971934ff3d99dba06919a54c", "fusion_lat": 0.0, "rental_uris": {"ios": "https://dc.lft.to/lastmile_qr_scan", "android": "https://dc.lft.to/lastmile_qr_scan"}, "lon": -77.0392855, "type": "electric_scooter"}, {"bike_id": "13088e37cbc35a1bb604e64a4da0a7b4", "is_reserved": 0, "fusion_lon": 0.0, "lat": 38.91591733333333, "is_disabled": 0, "name": "13088e37cbc35a1bb604e64a4da0a7b4", "fusion_lat": 0.0, "rental_uris": {"ios": "https://dc.lft.to/lastmile_qr_scan", "android": "https://dc.lft.to/lastmile_qr_scan"}, "lon": -76.9837695, "type": "electric_scooter"}, {"bike_id": "eefd94584c618acee867969bf67863d0", "is_reserved": 0, "fusion_lon": 0.0, "lat": 38.907204, "is_disabled": 0, "name": "eefd94584c618acee867969bf67863d0", "fusion_lat": 0.0, "rental_uris": {"ios": "https://dc.lft.to/lastmile_qr_scan", "android": "https://dc.lft.to/lastmile_qr_scan"}, "lon": -77.02979066666667, "type": "electric_scooter"}, {"bike_id": "0f3f25ca7843a4c1c4d6f29ab1185028", "is_reserved": 0, "fusion_lon": 0.0, "lat": 38.90686683333333, "is_disabled": 0, "name": "0f3f25ca7843a4c1c4d6f29ab1185028", "fusion_lat": 0.0, "rental_uris": {"ios": "https://dc.lft.to/lastmile_qr_scan", "android": "https://dc.lft.to/lastmile_qr_scan"}, "lon": -76.95189066666667, "type": "electric_bike"}, {"bike_id": "447bb0fd48cfecde63c9a0742b66d9fe", "is_reserved": 0, "fusion_lon": 0.0, "lat": 38.92952183333333, "is_disabled": 0, "name": "447bb0fd48cfecde63c9a0742b66d9fe", "fusion_lat": 0.0, "rental_uris": {"ios": "https://dc.lft.to/lastmile_qr_scan", "android": "https://dc.lft.to/lastmile_qr_scan"}, "lon": -77.04406216666666, "type": "electric_scooter"}, {"bike_id": "395a35069695625f9ea5ef52c7bf5871", "is_reserved": 0, "fusion_lon": 0.0, "lat": 38.91716816666667, "is_disabled": 0, "name": "395a35069695625f9ea5ef52c7bf5871", "fusion_lat": 0.0, "rental_uris": {"ios": "https://dc.lft.to/lastmile_qr_scan", "android": "https://dc.lft.to/lastmile_qr_scan"}, "lon": -77.01212066666666, "type": "electric_scooter"}, {"bike_id": "5dd2a659338128b5c70a51b87663e36d", "is_reserved": 0, "fusion_lon": 0.0, "lat": 38.9013665, "is_disabled": 0, "name": "5dd2a659338128b5c70a51b87663e36d", "fusion_lat": 0.0, "rental_uris": {"ios": "https://dc.lft.to/lastmile_qr_scan", "android": "https://dc.lft.to/lastmile_qr_scan"}, "lon": -77.03339166666666, "type": "electric_scooter"}, {"bike_id": "ceb55802ad79bb7ecb03b026f5ed57cf", "is_reserved": 0, "fusion_lon": 0.0, "lat": 38.932008833333335, "is_disabled": 0, "name": "ceb55802ad79bb7ecb03b026f5ed57cf", "fusion_lat": 0.0, "rental_uris": {"ios": "https://dc.lft.to/lastmile_qr_scan", "android": "https://dc.lft.to/lastmile_qr_scan"}, "lon": -77.0387485, "type": "electric_scooter"}, {"bike_id": "47879033d156932aeaa7db2f095bb1c8", "is_reserved": 0, "fusion_lon": 0.0, "lat": 38.94409066666667, "is_disabled": 0, "name": "47879033d156932aeaa7db2f095bb1c8", "fusion_lat": 0.0, "rental_uris": {"ios": "https://dc.lft.to/lastmile_qr_scan", "android": "https://dc.lft.to/lastmile_qr_scan"}, "lon": -77.05524666666666, "type": "electric_scooter"}, {"bike_id": "f9f88771d8f84578458422b603150b71", "is_reserved": 0, "fusion_lon": 0.0, "lat": 38.8022435, "is_disabled": 0, "name": "f9f88771d8f84578458422b603150b71", "fusion_lat": 0.0, "rental_uris": {"ios": "https://dc.lft.to/lastmile_qr_scan", "android": "https://dc.lft.to/lastmile_qr_scan"}, "lon": -77.07919233333334, "type": "electric_bike"}, {"bike_id": "8b01d2a676da867fd40f165344711b83", "is_reserved": 0, "fusion_lon": 0.0, "lat": 38.923231, "is_disabled": 0, "name": "8b01d2a676da867fd40f165344711b83", "fusion_lat": 0.0, "rental_uris": {"ios": "https://dc.lft.to/lastmile_qr_scan", "android": "https://dc.lft.to/lastmile_qr_scan"}, "lon": -77.0448365, "type": "electric_scooter"}, {"bike_id": "2b6f36d9bf9864ee585371e0bdd7c12b", "is_reserved": 0, "fusion_lon": 0.0, "lat": 38.90074883333333, "is_disabled": 0, "name": "2b6f36d9bf9864ee585371e0bdd7c12b", "fusion_lat": 0.0, "rental_uris": {"ios": "https://dc.lft.to/lastmile_qr_scan", "android": "https://dc.lft.to/lastmile_qr_scan"}, "lon": -77.04906316666667, "type": "electric_scooter"}, {"bike_id": "14f5ec1a98a26d3e951d3f3184952565", "is_reserved": 0, "fusion_lon": 0.0, "lat": 38.92335683333334, "is_disabled": 0, "name": "14f5ec1a98a26d3e951d3f3184952565", "fusion_lat": 0.0, "rental_uris": {"ios": "https://dc.lft.to/lastmile_qr_scan", "android": "https://dc.lft.to/lastmile_qr_scan"}, "lon": -77.03890383333334, "type": "electric_scooter"}, {"bike_id": "9d934f0bea8698f29682f85d71a5221c", "is_reserved": 0, "fusion_lon": 0.0, "lat": 38.9218205, "is_disabled": 0, "name": "9d934f0bea8698f29682f85d71a5221c", "fusion_lat": 0.0, "rental_uris": {"ios": "https://dc.lft.to/lastmile_qr_scan", "android": "https://dc.lft.to/lastmile_qr_scan"}, "lon": -77.04129283333333, "type": "electric_scooter"}, {"bike_id": "ddea04a0d94ac23c7f0666d1cc93f041", "is_reserved": 0, "fusion_lon": 0.0, "lat": 38.905082, "is_disabled": 0, "name": "ddea04a0d94ac23c7f0666d1cc93f041", "fusion_lat": 0.0, "rental_uris": {"ios": "https://dc.lft.to/lastmile_qr_scan", "android": "https://dc.lft.to/lastmile_qr_scan"}, "lon": -77.06869783333333, "type": "electric_scooter"}, {"bike_id": "3d3ec69e08f643ddc89b6e5a24a49d12", "is_reserved": 0, "fusion_lon": 0.0, "lat": 38.90304866666666, "is_disabled": 0, "name": "3d3ec69e08f643ddc89b6e5a24a49d12", "fusion_lat": 0.0, "rental_uris": {"ios": "https://dc.lft.to/lastmile_qr_scan", "android": "https://dc.lft.to/lastmile_qr_scan"}, "lon": -77.043286, "type": "electric_scooter"}, {"bike_id": "b787db9b31e15e1e5fb627bea4b3a2b4", "is_reserved": 0, "fusion_lon": 0.0, "lat": 38.9249025, "is_disabled": 0, "name": "b787db9b31e15e1e5fb627bea4b3a2b4", "fusion_lat": 0.0, "rental_uris": {"ios": "https://dc.lft.to/lastmile_qr_scan", "android": "https://dc.lft.to/lastmile_qr_scan"}, "lon": -77.02714683333333, "type": "electric_scooter"}, {"bike_id": "eec996e8703c3d60ba4b8a58b2e0eeeb", "is_reserved": 0, "fusion_lon": 0.0, "lat": 38.90118983333333, "is_disabled": 0, "name": "eec996e8703c3d60ba4b8a58b2e0eeeb", "fusion_lat": 0.0, "rental_uris": {"ios": "https://dc.lft.to/lastmile_qr_scan", "android": "https://dc.lft.to/lastmile_qr_scan"}, "lon": -77.044727, "type": "electric_scooter"}, {"bike_id": "25525b2920bd3489221ab9afda9c8a0c", "is_reserved": 0, "fusion_lon": 0.0, "lat": 38.90765616666667, "is_disabled": 0, "name": "25525b2920bd3489221ab9afda9c8a0c", "fusion_lat": 0.0, "rental_uris": {"ios": "https://dc.lft.to/lastmile_qr_scan", "android": "https://dc.lft.to/lastmile_qr_scan"}, "lon": -77.06918766666666, "type": "electric_scooter"}, {"bike_id": "39bcd46af9def7834fafd453930ef662", "is_reserved": 0, "fusion_lon": 0.0, "lat": 38.866967, "is_disabled": 0, "name": "39bcd46af9def7834fafd453930ef662", "fusion_lat": 0.0, "rental_uris": {"ios": "https://dc.lft.to/lastmile_qr_scan", "android": "https://dc.lft.to/lastmile_qr_scan"}, "lon": -76.98711133333333, "type": "electric_scooter"}, {"bike_id": "1b441c2c604affa0346bb58ebb610701", "is_reserved": 0, "fusion_lon": 0.0, "lat": 38.902942, "is_disabled": 0, "name": "1b441c2c604affa0346bb58ebb610701", "fusion_lat": 0.0, "rental_uris": {"ios": "https://dc.lft.to/lastmile_qr_scan", "android": "https://dc.lft.to/lastmile_qr_scan"}, "lon": -77.0384805, "type": "electric_scooter"}, {"bike_id": "a787d743fa10d0cb469adcd206085856", "is_reserved": 0, "fusion_lon": 0.0, "lat": 38.93066066666667, "is_disabled": 0, "name": "a787d743fa10d0cb469adcd206085856", "fusion_lat": 0.0, "rental_uris": {"ios": "https://dc.lft.to/lastmile_qr_scan", "android": "https://dc.lft.to/lastmile_qr_scan"}, "lon": -77.0381045, "type": "electric_scooter"}, {"bike_id": "867e6e5075dac49e2e9d4de1dae2aeb9", "is_reserved": 0, "fusion_lon": 0.0, "lat": 38.96621916666667, "is_disabled": 0, "name": "867e6e5075dac49e2e9d4de1dae2aeb9", "fusion_lat": 0.0, "rental_uris": {"ios": "https://dc.lft.to/lastmile_qr_scan", "android": "https://dc.lft.to/lastmile_qr_scan"}, "lon": -76.97667716666666, "type": "electric_bike"}, {"bike_id": "bb02966eb7ef89f5dbf4842a9c882a3e", "is_reserved": 0, "fusion_lon": 0.0, "lat": 38.91662216666667, "is_disabled": 0, "name": "bb02966eb7ef89f5dbf4842a9c882a3e", "fusion_lat": 0.0, "rental_uris": {"ios": "https://dc.lft.to/lastmile_qr_scan", "android": "https://dc.lft.to/lastmile_qr_scan"}, "lon": -77.0230935, "type": "electric_scooter"}, {"bike_id": "fb46a9ccd6ef0ef293cf8cfb5ed87573", "is_reserved": 0, "fusion_lon": 0.0, "lat": 38.909594166666665, "is_disabled": 0, "name": "fb46a9ccd6ef0ef293cf8cfb5ed87573", "fusion_lat": 0.0, "rental_uris": {"ios": "https://dc.lft.to/lastmile_qr_scan", "android": "https://dc.lft.to/lastmile_qr_scan"}, "lon": -77.03275633333334, "type": "electric_scooter"}, {"bike_id": "aee27c8ce23a5831a778594e52d4a990", "is_reserved": 0, "fusion_lon": 0.0, "lat": 38.9205385, "is_disabled": 0, "name": "aee27c8ce23a5831a778594e52d4a990", "fusion_lat": 0.0, "rental_uris": {"ios": "https://dc.lft.to/lastmile_qr_scan", "android": "https://dc.lft.to/lastmile_qr_scan"}, "lon": -77.0338755, "type": "electric_scooter"}, {"bike_id": "13bc84e37ee3e0d977fa680e0b309b1d", "is_reserved": 0, "fusion_lon": 0.0, "lat": 38.939787833333334, "is_disabled": 0, "name": "13bc84e37ee3e0d977fa680e0b309b1d", "fusion_lat": 0.0, "rental_uris": {"ios": "https://dc.lft.to/lastmile_qr_scan", "android": "https://dc.lft.to/lastmile_qr_scan"}, "lon": -77.02891983333333, "type": "electric_scooter"}, {"bike_id": "b680b49a06f8afe657e333a99ec53a9e", "is_reserved": 0, "fusion_lon": 0.0, "lat": 38.99938733333333, "is_disabled": 0, "name": "b680b49a06f8afe657e333a99ec53a9e", "fusion_lat": 0.0, "rental_uris": {"ios": "https://dc.lft.to/lastmile_qr_scan", "android": "https://dc.lft.to/lastmile_qr_scan"}, "lon": -77.01770416666666, "type": "electric_bike"}, {"bike_id": "6c102ef25f9542f33885e084d6e2d43f", "is_reserved": 0, "fusion_lon": 0.0, "lat": 38.899465166666666, "is_disabled": 0, "name": "6c102ef25f9542f33885e084d6e2d43f", "fusion_lat": 0.0, "rental_uris": {"ios": "https://dc.lft.to/lastmile_qr_scan", "android": "https://dc.lft.to/lastmile_qr_scan"}, "lon": -77.031852, "type": "electric_scooter"}, {"bike_id": "7a1dd2241e230d277ca5399f019881b1", "is_reserved": 0, "fusion_lon": 0.0, "lat": 38.9142135, "is_disabled": 0, "name": "7a1dd2241e230d277ca5399f019881b1", "fusion_lat": 0.0, "rental_uris": {"ios": "https://dc.lft.to/lastmile_qr_scan", "android": "https://dc.lft.to/lastmile_qr_scan"}, "lon": -77.021543, "type": "electric_bike"}, {"bike_id": "7ee2f530989ef20f83d32f49b2b87e0d", "is_reserved": 0, "fusion_lon": 0.0, "lat": 38.91710366666667, "is_disabled": 0, "name": "7ee2f530989ef20f83d32f49b2b87e0d", "fusion_lat": 0.0, "rental_uris": {"ios": "https://dc.lft.to/lastmile_qr_scan", "android": "https://dc.lft.to/lastmile_qr_scan"}, "lon": -77.02904616666666, "type": "electric_scooter"}, {"bike_id": "dcaf027d8a792e52fe531204d0f03a5b", "is_reserved": 0, "fusion_lon": 0.0, "lat": 38.95650533333333, "is_disabled": 0, "name": "dcaf027d8a792e52fe531204d0f03a5b", "fusion_lat": 0.0, "rental_uris": {"ios": "https://dc.lft.to/lastmile_qr_scan", "android": "https://dc.lft.to/lastmile_qr_scan"}, "lon": -77.03287916666666, "type": "electric_scooter"}, {"bike_id": "e549690fc07ad3628a1c5b706a77d776", "is_reserved": 0, "fusion_lon": 0.0, "lat": 38.82786883333333, "is_disabled": 0, "name": "e549690fc07ad3628a1c5b706a77d776", "fusion_lat": 0.0, "rental_uris": {"ios": "https://dc.lft.to/lastmile_qr_scan", "android": "https://dc.lft.to/lastmile_qr_scan"}, "lon": -77.00916816666667, "type": "electric_bike"}, {"bike_id": "a6607524dfb7b1064f94fa42e3c29d68", "is_reserved": 0, "fusion_lon": 0.0, "lat": 39.00374, "is_disabled": 0, "name": "a6607524dfb7b1064f94fa42e3c29d68", "fusion_lat": 0.0, "rental_uris": {"ios": "https://dc.lft.to/lastmile_qr_scan", "android": "https://dc.lft.to/lastmile_qr_scan"}, "lon": -77.01290116666667, "type": "electric_bike"}, {"bike_id": "749283990eb1550857f9c94c08dda5c0", "is_reserved": 0, "fusion_lon": 0.0, "lat": 38.88494033333333, "is_disabled": 0, "name": "749283990eb1550857f9c94c08dda5c0", "fusion_lat": 0.0, "rental_uris": {"ios": "https://dc.lft.to/lastmile_qr_scan", "android": "https://dc.lft.to/lastmile_qr_scan"}, "lon": -77.00723116666667, "type": "electric_scooter"}, {"bike_id": "fa4fbac5fa262db6481bfb0bc04fcd0d", "is_reserved": 0, "fusion_lon": 0.0, "lat": 38.9006055, "is_disabled": 0, "name": "fa4fbac5fa262db6481bfb0bc04fcd0d", "fusion_lat": 0.0, "rental_uris": {"ios": "https://dc.lft.to/lastmile_qr_scan", "android": "https://dc.lft.to/lastmile_qr_scan"}, "lon": -77.04815583333334, "type": "electric_scooter"}, {"bike_id": "4d754dde7cea29b038a33c617824368a", "is_reserved": 0, "fusion_lon": 0.0, "lat": 38.90512366666667, "is_disabled": 0, "name": "4d754dde7cea29b038a33c617824368a", "fusion_lat": 0.0, "rental_uris": {"ios": "https://dc.lft.to/lastmile_qr_scan", "android": "https://dc.lft.to/lastmile_qr_scan"}, "lon": -77.06789383333333, "type": "electric_bike"}, {"bike_id": "8cb2edb8a3f5c3e24401158d5b73ce3f", "is_reserved": 0, "fusion_lon": 0.0, "lat": 38.9269025, "is_disabled": 0, "name": "8cb2edb8a3f5c3e24401158d5b73ce3f", "fusion_lat": 0.0, "rental_uris": {"ios": "https://dc.lft.to/lastmile_qr_scan", "android": "https://dc.lft.to/lastmile_qr_scan"}, "lon": -77.09564283333333, "type": "electric_scooter"}, {"bike_id": "9ca6d3fd20406777c5326ff4d62f98a1", "is_reserved": 0, "fusion_lon": 0.0, "lat": 38.9157, "is_disabled": 0, "name": "9ca6d3fd20406777c5326ff4d62f98a1", "fusion_lat": 0.0, "rental_uris": {"ios": "https://dc.lft.to/lastmile_qr_scan", "android": "https://dc.lft.to/lastmile_qr_scan"}, "lon": -77.0385115, "type": "electric_scooter"}, {"bike_id": "592d63a2f76667c8971c8df5ea310480", "is_reserved": 0, "fusion_lon": 0.0, "lat": 38.9095675, "is_disabled": 0, "name": "592d63a2f76667c8971c8df5ea310480", "fusion_lat": 0.0, "rental_uris": {"ios": "https://dc.lft.to/lastmile_qr_scan", "android": "https://dc.lft.to/lastmile_qr_scan"}, "lon": -77.0316575, "type": "electric_scooter"}, {"bike_id": "421d00bd1fcdc121563b485d837a4251", "is_reserved": 0, "fusion_lon": 0.0, "lat": 38.879872166666665, "is_disabled": 0, "name": "421d00bd1fcdc121563b485d837a4251", "fusion_lat": 0.0, "rental_uris": {"ios": "https://dc.lft.to/lastmile_qr_scan", "android": "https://dc.lft.to/lastmile_qr_scan"}, "lon": -76.91594966666666, "type": "electric_bike"}, {"bike_id": "ed5a7f65cf6069d3162d88c7c7979f45", "is_reserved": 0, "fusion_lon": 0.0, "lat": 38.92220416666667, "is_disabled": 0, "name": "ed5a7f65cf6069d3162d88c7c7979f45", "fusion_lat": 0.0, "rental_uris": {"ios": "https://dc.lft.to/lastmile_qr_scan", "android": "https://dc.lft.to/lastmile_qr_scan"}, "lon": -77.03353283333334, "type": "electric_scooter"}, {"bike_id": "e0002dd905b0fa8ae1d72d74b29ebe98", "is_reserved": 0, "fusion_lon": 0.0, "lat": 38.918716333333336, "is_disabled": 0, "name": "e0002dd905b0fa8ae1d72d74b29ebe98", "fusion_lat": 0.0, "rental_uris": {"ios": "https://dc.lft.to/lastmile_qr_scan", "android": "https://dc.lft.to/lastmile_qr_scan"}, "lon": -77.04376566666667, "type": "electric_scooter"}, {"bike_id": "a28ab60a4ad012965b324e8de49997f1", "is_reserved": 0, "fusion_lon": 0.0, "lat": 38.901511, "is_disabled": 0, "name": "a28ab60a4ad012965b324e8de49997f1", "fusion_lat": 0.0, "rental_uris": {"ios": "https://dc.lft.to/lastmile_qr_scan", "android": "https://dc.lft.to/lastmile_qr_scan"}, "lon": -76.93063866666667, "type": "electric_scooter"}, {"bike_id": "ae02711fe5b7b139116088044d8a856b", "is_reserved": 0, "fusion_lon": 0.0, "lat": 38.91826783333333, "is_disabled": 0, "name": "ae02711fe5b7b139116088044d8a856b", "fusion_lat": 0.0, "rental_uris": {"ios": "https://dc.lft.to/lastmile_qr_scan", "android": "https://dc.lft.to/lastmile_qr_scan"}, "lon": -77.04167466666667, "type": "electric_scooter"}, {"bike_id": "45f1e52c4fca1f71ad46772d8bd7febe", "is_reserved": 0, "fusion_lon": 0.0, "lat": 38.915922, "is_disabled": 0, "name": "45f1e52c4fca1f71ad46772d8bd7febe", "fusion_lat": 0.0, "rental_uris": {"ios": "https://dc.lft.to/lastmile_qr_scan", "android": "https://dc.lft.to/lastmile_qr_scan"}, "lon": -77.0447335, "type": "electric_scooter"}, {"bike_id": "ce88e7057adf058e327b73af5b902d26", "is_reserved": 0, "fusion_lon": 0.0, "lat": 38.91827716666667, "is_disabled": 0, "name": "ce88e7057adf058e327b73af5b902d26", "fusion_lat": 0.0, "rental_uris": {"ios": "https://dc.lft.to/lastmile_qr_scan", "android": "https://dc.lft.to/lastmile_qr_scan"}, "lon": -77.04169116666667, "type": "electric_scooter"}, {"bike_id": "ecb1b3e7f31b590828c96544c80a0f71", "is_reserved": 0, "fusion_lon": 0.0, "lat": 38.940683166666666, "is_disabled": 0, "name": "ecb1b3e7f31b590828c96544c80a0f71", "fusion_lat": 0.0, "rental_uris": {"ios": "https://dc.lft.to/lastmile_qr_scan", "android": "https://dc.lft.to/lastmile_qr_scan"}, "lon": -76.99461666666667, "type": "electric_scooter"}, {"bike_id": "b7e69111a0ed075faf39acd4348a0f8e", "is_reserved": 0, "fusion_lon": 0.0, "lat": 38.918569833333336, "is_disabled": 0, "name": "b7e69111a0ed075faf39acd4348a0f8e", "fusion_lat": 0.0, "rental_uris": {"ios": "https://dc.lft.to/lastmile_qr_scan", "android": "https://dc.lft.to/lastmile_qr_scan"}, "lon": -76.96543666666666, "type": "electric_scooter"}, {"bike_id": "884795989a59c5be766cfc1852e72372", "is_reserved": 0, "fusion_lon": 0.0, "lat": 38.95879516666667, "is_disabled": 0, "name": "884795989a59c5be766cfc1852e72372", "fusion_lat": 0.0, "rental_uris": {"ios": "https://dc.lft.to/lastmile_qr_scan", "android": "https://dc.lft.to/lastmile_qr_scan"}, "lon": -76.97045166666666, "type": "electric_bike"}, {"bike_id": "7dda0214766a86cda3c9196de373eed8", "is_reserved": 0, "fusion_lon": 0.0, "lat": 38.9201495, "is_disabled": 0, "name": "7dda0214766a86cda3c9196de373eed8", "fusion_lat": 0.0, "rental_uris": {"ios": "https://dc.lft.to/lastmile_qr_scan", "android": "https://dc.lft.to/lastmile_qr_scan"}, "lon": -77.03776816666667, "type": "electric_scooter"}, {"bike_id": "c66464492aab1ed5bd51aacd0a781576", "is_reserved": 0, "fusion_lon": 0.0, "lat": 38.959283, "is_disabled": 0, "name": "c66464492aab1ed5bd51aacd0a781576", "fusion_lat": 0.0, "rental_uris": {"ios": "https://dc.lft.to/lastmile_qr_scan", "android": "https://dc.lft.to/lastmile_qr_scan"}, "lon": -76.92539916666666, "type": "electric_bike"}, {"bike_id": "93a92de5d7af6fe6e7bc7b5bcc3c6b43", "is_reserved": 0, "fusion_lon": 0.0, "lat": 38.869646333333336, "is_disabled": 0, "name": "93a92de5d7af6fe6e7bc7b5bcc3c6b43", "fusion_lat": 0.0, "rental_uris": {"ios": "https://dc.lft.to/lastmile_qr_scan", "android": "https://dc.lft.to/lastmile_qr_scan"}, "lon": -77.013748, "type": "electric_scooter"}, {"bike_id": "103578d08235aed2d27e17213eb41c15", "is_reserved": 0, "fusion_lon": 0.0, "lat": 38.924356833333334, "is_disabled": 0, "name": "103578d08235aed2d27e17213eb41c15", "fusion_lat": 0.0, "rental_uris": {"ios": "https://dc.lft.to/lastmile_qr_scan", "android": "https://dc.lft.to/lastmile_qr_scan"}, "lon": -77.04239283333334, "type": "electric_scooter"}, {"bike_id": "a49b3980c7ab3cf6d08dc05333bea594", "is_reserved": 0, "fusion_lon": 0.0, "lat": 38.902827333333335, "is_disabled": 0, "name": "a49b3980c7ab3cf6d08dc05333bea594", "fusion_lat": 0.0, "rental_uris": {"ios": "https://dc.lft.to/lastmile_qr_scan", "android": "https://dc.lft.to/lastmile_qr_scan"}, "lon": -77.03823066666666, "type": "electric_scooter"}, {"bike_id": "b12476603fd967e6f4df5be8066afeaf", "is_reserved": 0, "fusion_lon": 0.0, "lat": 38.90768333333333, "is_disabled": 0, "name": "b12476603fd967e6f4df5be8066afeaf", "fusion_lat": 0.0, "rental_uris": {"ios": "https://dc.lft.to/lastmile_qr_scan", "android": "https://dc.lft.to/lastmile_qr_scan"}, "lon": -77.0319425, "type": "electric_scooter"}, {"bike_id": "6ed2bacb2b1238a4a3f3355b700e8874", "is_reserved": 0, "fusion_lon": 0.0, "lat": 38.897332166666665, "is_disabled": 0, "name": "6ed2bacb2b1238a4a3f3355b700e8874", "fusion_lat": 0.0, "rental_uris": {"ios": "https://dc.lft.to/lastmile_qr_scan", "android": "https://dc.lft.to/lastmile_qr_scan"}, "lon": -77.02706616666667, "type": "electric_scooter"}, {"bike_id": "cd6885adf16573c3dd5074935984be45", "is_reserved": 0, "fusion_lon": 0.0, "lat": 38.90709833333333, "is_disabled": 0, "name": "cd6885adf16573c3dd5074935984be45", "fusion_lat": 0.0, "rental_uris": {"ios": "https://dc.lft.to/lastmile_qr_scan", "android": "https://dc.lft.to/lastmile_qr_scan"}, "lon": -77.044195, "type": "electric_scooter"}, {"bike_id": "5dab9968db368e710be4e927b52bcebb", "is_reserved": 0, "fusion_lon": 0.0, "lat": 38.9104945, "is_disabled": 0, "name": "5dab9968db368e710be4e927b52bcebb", "fusion_lat": 0.0, "rental_uris": {"ios": "https://dc.lft.to/lastmile_qr_scan", "android": "https://dc.lft.to/lastmile_qr_scan"}, "lon": -77.03629583333333, "type": "electric_scooter"}, {"bike_id": "9a59423e0eacbade6deefa49a1c000a1", "is_reserved": 0, "fusion_lon": 0.0, "lat": 38.9039985, "is_disabled": 0, "name": "9a59423e0eacbade6deefa49a1c000a1", "fusion_lat": 0.0, "rental_uris": {"ios": "https://dc.lft.to/lastmile_qr_scan", "android": "https://dc.lft.to/lastmile_qr_scan"}, "lon": -77.04321283333333, "type": "electric_scooter"}, {"bike_id": "1f63350fbc8b62aeaa048399f1f0e17e", "is_reserved": 0, "fusion_lon": 0.0, "lat": 38.9309435, "is_disabled": 0, "name": "1f63350fbc8b62aeaa048399f1f0e17e", "fusion_lat": 0.0, "rental_uris": {"ios": "https://dc.lft.to/lastmile_qr_scan", "android": "https://dc.lft.to/lastmile_qr_scan"}, "lon": -77.02515066666666, "type": "electric_scooter"}, {"bike_id": "8beff2b11843c23015c1f64fde133e9b", "is_reserved": 0, "fusion_lon": 0.0, "lat": 38.90584166666667, "is_disabled": 0, "name": "8beff2b11843c23015c1f64fde133e9b", "fusion_lat": 0.0, "rental_uris": {"ios": "https://dc.lft.to/lastmile_qr_scan", "android": "https://dc.lft.to/lastmile_qr_scan"}, "lon": -77.00277766666666, "type": "electric_scooter"}, {"bike_id": "93b54a91900dedc57c9181209f8f31b7", "is_reserved": 0, "fusion_lon": 0.0, "lat": 38.9210225, "is_disabled": 0, "name": "93b54a91900dedc57c9181209f8f31b7", "fusion_lat": 0.0, "rental_uris": {"ios": "https://dc.lft.to/lastmile_qr_scan", "android": "https://dc.lft.to/lastmile_qr_scan"}, "lon": -77.03172383333333, "type": "electric_scooter"}, {"bike_id": "88bb2c1777bba5fb234877cccfdabaa5", "is_reserved": 0, "fusion_lon": 0.0, "lat": 38.90576933333333, "is_disabled": 0, "name": "88bb2c1777bba5fb234877cccfdabaa5", "fusion_lat": 0.0, "rental_uris": {"ios": "https://dc.lft.to/lastmile_qr_scan", "android": "https://dc.lft.to/lastmile_qr_scan"}, "lon": -77.03832383333334, "type": "electric_scooter"}, {"bike_id": "cd79fa015d44fb5766481fb861792729", "is_reserved": 0, "fusion_lon": 0.0, "lat": 38.896339166666664, "is_disabled": 0, "name": "cd79fa015d44fb5766481fb861792729", "fusion_lat": 0.0, "rental_uris": {"ios": "https://dc.lft.to/lastmile_qr_scan", "android": "https://dc.lft.to/lastmile_qr_scan"}, "lon": -77.03230716666667, "type": "electric_scooter"}, {"bike_id": "798d51a341ae8dad82d12039742f5e5c", "is_reserved": 0, "fusion_lon": 0.0, "lat": 38.900503666666665, "is_disabled": 0, "name": "798d51a341ae8dad82d12039742f5e5c", "fusion_lat": 0.0, "rental_uris": {"ios": "https://dc.lft.to/lastmile_qr_scan", "android": "https://dc.lft.to/lastmile_qr_scan"}, "lon": -77.046787, "type": "electric_scooter"}, {"bike_id": "9b716f3510e33d4015e1703dddf0cf5a", "is_reserved": 0, "fusion_lon": 0.0, "lat": 38.92706483333333, "is_disabled": 0, "name": "9b716f3510e33d4015e1703dddf0cf5a", "fusion_lat": 0.0, "rental_uris": {"ios": "https://dc.lft.to/lastmile_qr_scan", "android": "https://dc.lft.to/lastmile_qr_scan"}, "lon": -77.020911, "type": "electric_scooter"}, {"bike_id": "117ed7ef3473e5fa2e3d71301fc99efd", "is_reserved": 0, "fusion_lon": 0.0, "lat": 38.9068265, "is_disabled": 0, "name": "117ed7ef3473e5fa2e3d71301fc99efd", "fusion_lat": 0.0, "rental_uris": {"ios": "https://dc.lft.to/lastmile_qr_scan", "android": "https://dc.lft.to/lastmile_qr_scan"}, "lon": -77.03477733333334, "type": "electric_scooter"}, {"bike_id": "5bab6f927633509a21337c457604040d", "is_reserved": 0, "fusion_lon": 0.0, "lat": 38.91809116666667, "is_disabled": 0, "name": "5bab6f927633509a21337c457604040d", "fusion_lat": 0.0, "rental_uris": {"ios": "https://dc.lft.to/lastmile_qr_scan", "android": "https://dc.lft.to/lastmile_qr_scan"}, "lon": -77.03439666666667, "type": "electric_scooter"}, {"bike_id": "55616a29309d0c421294326a2bf38059", "is_reserved": 0, "fusion_lon": 0.0, "lat": 38.883154166666664, "is_disabled": 0, "name": "55616a29309d0c421294326a2bf38059", "fusion_lat": 0.0, "rental_uris": {"ios": "https://dc.lft.to/lastmile_qr_scan", "android": "https://dc.lft.to/lastmile_qr_scan"}, "lon": -77.0059925, "type": "electric_scooter"}, {"bike_id": "0b0d5a0ecae5a72d7d231f55c7898f51", "is_reserved": 0, "fusion_lon": 0.0, "lat": 38.9340395, "is_disabled": 0, "name": "0b0d5a0ecae5a72d7d231f55c7898f51", "fusion_lat": 0.0, "rental_uris": {"ios": "https://dc.lft.to/lastmile_qr_scan", "android": "https://dc.lft.to/lastmile_qr_scan"}, "lon": -77.03878916666666, "type": "electric_scooter"}, {"bike_id": "aa1466548d3ed62d75f42d037a269d1c", "is_reserved": 0, "fusion_lon": 0.0, "lat": 38.884944833333336, "is_disabled": 0, "name": "aa1466548d3ed62d75f42d037a269d1c", "fusion_lat": 0.0, "rental_uris": {"ios": "https://dc.lft.to/lastmile_qr_scan", "android": "https://dc.lft.to/lastmile_qr_scan"}, "lon": -77.007218, "type": "electric_scooter"}, {"bike_id": "a2113a00c560143592a7ded5392f53f1", "is_reserved": 0, "fusion_lon": 0.0, "lat": 38.88029316666667, "is_disabled": 0, "name": "a2113a00c560143592a7ded5392f53f1", "fusion_lat": 0.0, "rental_uris": {"ios": "https://dc.lft.to/lastmile_qr_scan", "android": "https://dc.lft.to/lastmile_qr_scan"}, "lon": -76.988328, "type": "electric_scooter"}, {"bike_id": "f2d22904a5b3fb9e28e4cbd979df774b", "is_reserved": 0, "fusion_lon": 0.0, "lat": 38.8712515, "is_disabled": 0, "name": "f2d22904a5b3fb9e28e4cbd979df774b", "fusion_lat": 0.0, "rental_uris": {"ios": "https://dc.lft.to/lastmile_qr_scan", "android": "https://dc.lft.to/lastmile_qr_scan"}, "lon": -77.0059965, "type": "electric_scooter"}, {"bike_id": "6757e04527e5b6847aee5f09b67e2559", "is_reserved": 0, "fusion_lon": 0.0, "lat": 38.91090666666667, "is_disabled": 0, "name": "6757e04527e5b6847aee5f09b67e2559", "fusion_lat": 0.0, "rental_uris": {"ios": "https://dc.lft.to/lastmile_qr_scan", "android": "https://dc.lft.to/lastmile_qr_scan"}, "lon": -77.03852633333334, "type": "electric_scooter"}, {"bike_id": "4fcc5d0397c392caa415ee2d2276b5c2", "is_reserved": 0, "fusion_lon": 0.0, "lat": 38.959088333333334, "is_disabled": 0, "name": "4fcc5d0397c392caa415ee2d2276b5c2", "fusion_lat": 0.0, "rental_uris": {"ios": "https://dc.lft.to/lastmile_qr_scan", "android": "https://dc.lft.to/lastmile_qr_scan"}, "lon": -77.08078516666667, "type": "electric_scooter"}, {"bike_id": "ccfea78d0b67865145542837775bf8cb", "is_reserved": 0, "fusion_lon": 0.0, "lat": 38.865217, "is_disabled": 0, "name": "ccfea78d0b67865145542837775bf8cb", "fusion_lat": 0.0, "rental_uris": {"ios": "https://dc.lft.to/lastmile_qr_scan", "android": "https://dc.lft.to/lastmile_qr_scan"}, "lon": -76.990267, "type": "electric_scooter"}, {"bike_id": "52be59bc4caeaf5660e5dc6361b1ffd0", "is_reserved": 0, "fusion_lon": 0.0, "lat": 38.9328865, "is_disabled": 0, "name": "52be59bc4caeaf5660e5dc6361b1ffd0", "fusion_lat": 0.0, "rental_uris": {"ios": "https://dc.lft.to/lastmile_qr_scan", "android": "https://dc.lft.to/lastmile_qr_scan"}, "lon": -77.03982033333334, "type": "electric_scooter"}, {"bike_id": "1013f1c5dce7be2fba4c8834c1c9658e", "is_reserved": 0, "fusion_lon": 0.0, "lat": 38.92880266666667, "is_disabled": 0, "name": "1013f1c5dce7be2fba4c8834c1c9658e", "fusion_lat": 0.0, "rental_uris": {"ios": "https://dc.lft.to/lastmile_qr_scan", "android": "https://dc.lft.to/lastmile_qr_scan"}, "lon": -77.013623, "type": "electric_scooter"}, {"bike_id": "f0db62c593c948454814787766403f13", "is_reserved": 0, "fusion_lon": 0.0, "lat": 38.9276745, "is_disabled": 0, "name": "f0db62c593c948454814787766403f13", "fusion_lat": 0.0, "rental_uris": {"ios": "https://dc.lft.to/lastmile_qr_scan", "android": "https://dc.lft.to/lastmile_qr_scan"}, "lon": -77.0730275, "type": "electric_scooter"}, {"bike_id": "df3d1c76948982fa6dd98bada420f22d", "is_reserved": 0, "fusion_lon": 0.0, "lat": 38.89604766666667, "is_disabled": 0, "name": "df3d1c76948982fa6dd98bada420f22d", "fusion_lat": 0.0, "rental_uris": {"ios": "https://dc.lft.to/lastmile_qr_scan", "android": "https://dc.lft.to/lastmile_qr_scan"}, "lon": -77.04459983333334, "type": "electric_scooter"}, {"bike_id": "56282ba895315fb9989eb49f3583ec4a", "is_reserved": 0, "fusion_lon": 0.0, "lat": 38.88687183333333, "is_disabled": 0, "name": "56282ba895315fb9989eb49f3583ec4a", "fusion_lat": 0.0, "rental_uris": {"ios": "https://dc.lft.to/lastmile_qr_scan", "android": "https://dc.lft.to/lastmile_qr_scan"}, "lon": -76.95764533333333, "type": "electric_scooter"}, {"bike_id": "64233de3b42371be78a863df9a1cdf06", "is_reserved": 0, "fusion_lon": 0.0, "lat": 38.89629166666667, "is_disabled": 0, "name": "64233de3b42371be78a863df9a1cdf06", "fusion_lat": 0.0, "rental_uris": {"ios": "https://dc.lft.to/lastmile_qr_scan", "android": "https://dc.lft.to/lastmile_qr_scan"}, "lon": -77.02296566666666, "type": "electric_scooter"}, {"bike_id": "e0fcb6fa0c0883103e4368cf0d24a0e9", "is_reserved": 0, "fusion_lon": 0.0, "lat": 38.933409166666664, "is_disabled": 0, "name": "e0fcb6fa0c0883103e4368cf0d24a0e9", "fusion_lat": 0.0, "rental_uris": {"ios": "https://dc.lft.to/lastmile_qr_scan", "android": "https://dc.lft.to/lastmile_qr_scan"}, "lon": -77.032829, "type": "electric_scooter"}, {"bike_id": "427cf81a9f2aa67174f8f14ee50f3fac", "is_reserved": 0, "fusion_lon": 0.0, "lat": 38.8762695, "is_disabled": 0, "name": "427cf81a9f2aa67174f8f14ee50f3fac", "fusion_lat": 0.0, "rental_uris": {"ios": "https://dc.lft.to/lastmile_qr_scan", "android": "https://dc.lft.to/lastmile_qr_scan"}, "lon": -76.96531316666666, "type": "electric_scooter"}, {"bike_id": "117cbb1d0eb8796fbd42ca76376ad2be", "is_reserved": 0, "fusion_lon": 0.0, "lat": 38.897391166666665, "is_disabled": 0, "name": "117cbb1d0eb8796fbd42ca76376ad2be", "fusion_lat": 0.0, "rental_uris": {"ios": "https://dc.lft.to/lastmile_qr_scan", "android": "https://dc.lft.to/lastmile_qr_scan"}, "lon": -76.93841166666667, "type": "electric_scooter"}, {"bike_id": "f8c9e872cd0018712b62299145319e51", "is_reserved": 0, "fusion_lon": 0.0, "lat": 38.904959166666664, "is_disabled": 0, "name": "f8c9e872cd0018712b62299145319e51", "fusion_lat": 0.0, "rental_uris": {"ios": "https://dc.lft.to/lastmile_qr_scan", "android": "https://dc.lft.to/lastmile_qr_scan"}, "lon": -77.02821266666666, "type": "electric_scooter"}, {"bike_id": "8d79edd2f3b40a73bf66f97559b89773", "is_reserved": 0, "fusion_lon": 0.0, "lat": 38.89524316666667, "is_disabled": 0, "name": "8d79edd2f3b40a73bf66f97559b89773", "fusion_lat": 0.0, "rental_uris": {"ios": "https://dc.lft.to/lastmile_qr_scan", "android": "https://dc.lft.to/lastmile_qr_scan"}, "lon": -77.00342233333333, "type": "electric_scooter"}, {"bike_id": "7c7e7255851f15f2e775d53bcaf3f8a4", "is_reserved": 0, "fusion_lon": 0.0, "lat": 38.8381075, "is_disabled": 0, "name": "7c7e7255851f15f2e775d53bcaf3f8a4", "fusion_lat": 0.0, "rental_uris": {"ios": "https://dc.lft.to/lastmile_qr_scan", "android": "https://dc.lft.to/lastmile_qr_scan"}, "lon": -77.0952265, "type": "electric_bike"}, {"bike_id": "d50aad2d2335c0ef063649357f061109", "is_reserved": 0, "fusion_lon": 0.0, "lat": 38.838301666666666, "is_disabled": 0, "name": "d50aad2d2335c0ef063649357f061109", "fusion_lat": 0.0, "rental_uris": {"ios": "https://dc.lft.to/lastmile_qr_scan", "android": "https://dc.lft.to/lastmile_qr_scan"}, "lon": -76.99681116666666, "type": "electric_bike"}, {"bike_id": "9c9018ad61154b2e77618a868db33265", "is_reserved": 0, "fusion_lon": 0.0, "lat": 38.912136833333335, "is_disabled": 0, "name": "9c9018ad61154b2e77618a868db33265", "fusion_lat": 0.0, "rental_uris": {"ios": "https://dc.lft.to/lastmile_qr_scan", "android": "https://dc.lft.to/lastmile_qr_scan"}, "lon": -77.02798083333333, "type": "electric_scooter"}, {"bike_id": "cf649e943825af96dc09ff86a12f82b6", "is_reserved": 0, "fusion_lon": 0.0, "lat": 38.89905433333333, "is_disabled": 0, "name": "cf649e943825af96dc09ff86a12f82b6", "fusion_lat": 0.0, "rental_uris": {"ios": "https://dc.lft.to/lastmile_qr_scan", "android": "https://dc.lft.to/lastmile_qr_scan"}, "lon": -77.039391, "type": "electric_scooter"}, {"bike_id": "fb92c4cb82fc93cff40d22366a48f7e5", "is_reserved": 0, "fusion_lon": 0.0, "lat": 38.964987666666666, "is_disabled": 0, "name": "fb92c4cb82fc93cff40d22366a48f7e5", "fusion_lat": 0.0, "rental_uris": {"ios": "https://dc.lft.to/lastmile_qr_scan", "android": "https://dc.lft.to/lastmile_qr_scan"}, "lon": -77.06490683333334, "type": "electric_bike"}, {"bike_id": "601caa5c24256d14f1979ce5f03d4867", "is_reserved": 0, "fusion_lon": 0.0, "lat": 38.89824183333333, "is_disabled": 0, "name": "601caa5c24256d14f1979ce5f03d4867", "fusion_lat": 0.0, "rental_uris": {"ios": "https://dc.lft.to/lastmile_qr_scan", "android": "https://dc.lft.to/lastmile_qr_scan"}, "lon": -77.01154583333333, "type": "electric_scooter"}, {"bike_id": "4cb8178ff2f27e39fbcddf3480eb71c3", "is_reserved": 0, "fusion_lon": 0.0, "lat": 38.9177545, "is_disabled": 0, "name": "4cb8178ff2f27e39fbcddf3480eb71c3", "fusion_lat": 0.0, "rental_uris": {"ios": "https://dc.lft.to/lastmile_qr_scan", "android": "https://dc.lft.to/lastmile_qr_scan"}, "lon": -77.01497183333333, "type": "electric_scooter"}, {"bike_id": "94bd78bb29af669b6b350ee96ee8742c", "is_reserved": 0, "fusion_lon": 0.0, "lat": 38.931476333333336, "is_disabled": 0, "name": "94bd78bb29af669b6b350ee96ee8742c", "fusion_lat": 0.0, "rental_uris": {"ios": "https://dc.lft.to/lastmile_qr_scan", "android": "https://dc.lft.to/lastmile_qr_scan"}, "lon": -77.057078, "type": "electric_scooter"}, {"bike_id": "2fa2059a1a9cc76affa5f925bfb7655b", "is_reserved": 0, "fusion_lon": 0.0, "lat": 38.91872633333333, "is_disabled": 0, "name": "2fa2059a1a9cc76affa5f925bfb7655b", "fusion_lat": 0.0, "rental_uris": {"ios": "https://dc.lft.to/lastmile_qr_scan", "android": "https://dc.lft.to/lastmile_qr_scan"}, "lon": -77.04462333333333, "type": "electric_scooter"}, {"bike_id": "56a94a021227a1911c0c6c0718c5df96", "is_reserved": 0, "fusion_lon": 0.0, "lat": 38.89061066666667, "is_disabled": 0, "name": "56a94a021227a1911c0c6c0718c5df96", "fusion_lat": 0.0, "rental_uris": {"ios": "https://dc.lft.to/lastmile_qr_scan", "android": "https://dc.lft.to/lastmile_qr_scan"}, "lon": -77.0229965, "type": "electric_scooter"}, {"bike_id": "93b52bd4f3bc64f85fc380c89c686043", "is_reserved": 0, "fusion_lon": 0.0, "lat": 38.88435066666667, "is_disabled": 0, "name": "93b52bd4f3bc64f85fc380c89c686043", "fusion_lat": 0.0, "rental_uris": {"ios": "https://dc.lft.to/lastmile_qr_scan", "android": "https://dc.lft.to/lastmile_qr_scan"}, "lon": -76.95755333333334, "type": "electric_scooter"}, {"bike_id": "b1c09457b9c4f47d52b2ae50ad6898b5", "is_reserved": 0, "fusion_lon": 0.0, "lat": 38.9184315, "is_disabled": 0, "name": "b1c09457b9c4f47d52b2ae50ad6898b5", "fusion_lat": 0.0, "rental_uris": {"ios": "https://dc.lft.to/lastmile_qr_scan", "android": "https://dc.lft.to/lastmile_qr_scan"}, "lon": -77.03901266666666, "type": "electric_scooter"}, {"bike_id": "7ca329febdf0e6f856ce4a2a1f9b48ca", "is_reserved": 0, "fusion_lon": 0.0, "lat": 38.900098666666665, "is_disabled": 0, "name": "7ca329febdf0e6f856ce4a2a1f9b48ca", "fusion_lat": 0.0, "rental_uris": {"ios": "https://dc.lft.to/lastmile_qr_scan", "android": "https://dc.lft.to/lastmile_qr_scan"}, "lon": -76.99786066666667, "type": "electric_scooter"}, {"bike_id": "7ab1848667e6d67f673e3ba491f02c21", "is_reserved": 0, "fusion_lon": 0.0, "lat": 38.904258666666664, "is_disabled": 0, "name": "7ab1848667e6d67f673e3ba491f02c21", "fusion_lat": 0.0, "rental_uris": {"ios": "https://dc.lft.to/lastmile_qr_scan", "android": "https://dc.lft.to/lastmile_qr_scan"}, "lon": -77.036483, "type": "electric_scooter"}, {"bike_id": "77fcf424dcf2ce88fae641898b75d322", "is_reserved": 0, "fusion_lon": 0.0, "lat": 38.915881, "is_disabled": 0, "name": "77fcf424dcf2ce88fae641898b75d322", "fusion_lat": 0.0, "rental_uris": {"ios": "https://dc.lft.to/lastmile_qr_scan", "android": "https://dc.lft.to/lastmile_qr_scan"}, "lon": -76.98381366666666, "type": "electric_scooter"}, {"bike_id": "5bf82885c648a9114fd1462ef902b3af", "is_reserved": 0, "fusion_lon": 0.0, "lat": 38.892973, "is_disabled": 0, "name": "5bf82885c648a9114fd1462ef902b3af", "fusion_lat": 0.0, "rental_uris": {"ios": "https://dc.lft.to/lastmile_qr_scan", "android": "https://dc.lft.to/lastmile_qr_scan"}, "lon": -77.0124075, "type": "electric_scooter"}, {"bike_id": "54669701eaa0cf6c8a52669b31320912", "is_reserved": 0, "fusion_lon": 0.0, "lat": 38.91555, "is_disabled": 0, "name": "54669701eaa0cf6c8a52669b31320912", "fusion_lat": 0.0, "rental_uris": {"ios": "https://dc.lft.to/lastmile_qr_scan", "android": "https://dc.lft.to/lastmile_qr_scan"}, "lon": -77.01411616666667, "type": "electric_scooter"}, {"bike_id": "6d2c0b2ed6bbf830b23f506aa33841f7", "is_reserved": 0, "fusion_lon": 0.0, "lat": 38.888725666666666, "is_disabled": 0, "name": "6d2c0b2ed6bbf830b23f506aa33841f7", "fusion_lat": 0.0, "rental_uris": {"ios": "https://dc.lft.to/lastmile_qr_scan", "android": "https://dc.lft.to/lastmile_qr_scan"}, "lon": -76.99041766666667, "type": "electric_scooter"}, {"bike_id": "45eab2caa8bb683344214c7173cadd04", "is_reserved": 0, "fusion_lon": 0.0, "lat": 38.8692745, "is_disabled": 0, "name": "45eab2caa8bb683344214c7173cadd04", "fusion_lat": 0.0, "rental_uris": {"ios": "https://dc.lft.to/lastmile_qr_scan", "android": "https://dc.lft.to/lastmile_qr_scan"}, "lon": -76.98301233333333, "type": "electric_scooter"}, {"bike_id": "e33e442d0d551816376aa4274aacba3f", "is_reserved": 0, "fusion_lon": 0.0, "lat": 38.84426, "is_disabled": 0, "name": "e33e442d0d551816376aa4274aacba3f", "fusion_lat": 0.0, "rental_uris": {"ios": "https://dc.lft.to/lastmile_qr_scan", "android": "https://dc.lft.to/lastmile_qr_scan"}, "lon": -76.99775683333333, "type": "electric_scooter"}, {"bike_id": "0cba60de6e072c4e9bd8bd256475aa9a", "is_reserved": 0, "fusion_lon": 0.0, "lat": 38.915549166666665, "is_disabled": 0, "name": "0cba60de6e072c4e9bd8bd256475aa9a", "fusion_lat": 0.0, "rental_uris": {"ios": "https://dc.lft.to/lastmile_qr_scan", "android": "https://dc.lft.to/lastmile_qr_scan"}, "lon": -77.031752, "type": "electric_scooter"}, {"bike_id": "21181641cf36d4a4030a2a6685b39e6e", "is_reserved": 0, "fusion_lon": 0.0, "lat": 38.8988585, "is_disabled": 0, "name": "21181641cf36d4a4030a2a6685b39e6e", "fusion_lat": 0.0, "rental_uris": {"ios": "https://dc.lft.to/lastmile_qr_scan", "android": "https://dc.lft.to/lastmile_qr_scan"}, "lon": -76.9317605, "type": "electric_scooter"}, {"bike_id": "265b54799875b4d726c2c173887f0788", "is_reserved": 0, "fusion_lon": 0.0, "lat": 38.872149666666665, "is_disabled": 0, "name": "265b54799875b4d726c2c173887f0788", "fusion_lat": 0.0, "rental_uris": {"ios": "https://dc.lft.to/lastmile_qr_scan", "android": "https://dc.lft.to/lastmile_qr_scan"}, "lon": -77.00570816666666, "type": "electric_scooter"}, {"bike_id": "76d3584d3834f988b2a8fa1bd0fa936f", "is_reserved": 0, "fusion_lon": 0.0, "lat": 38.9057665, "is_disabled": 0, "name": "76d3584d3834f988b2a8fa1bd0fa936f", "fusion_lat": 0.0, "rental_uris": {"ios": "https://dc.lft.to/lastmile_qr_scan", "android": "https://dc.lft.to/lastmile_qr_scan"}, "lon": -77.0409065, "type": "electric_scooter"}, {"bike_id": "554e78a2fffc181fce42e5e7f905e96d", "is_reserved": 0, "fusion_lon": 0.0, "lat": 38.88655683333333, "is_disabled": 0, "name": "554e78a2fffc181fce42e5e7f905e96d", "fusion_lat": 0.0, "rental_uris": {"ios": "https://dc.lft.to/lastmile_qr_scan", "android": "https://dc.lft.to/lastmile_qr_scan"}, "lon": -77.16238616666666, "type": "electric_bike"}, {"bike_id": "faa04067c3b7413716e5a540c6110181", "is_reserved": 0, "fusion_lon": 0.0, "lat": 38.90143366666667, "is_disabled": 0, "name": "faa04067c3b7413716e5a540c6110181", "fusion_lat": 0.0, "rental_uris": {"ios": "https://dc.lft.to/lastmile_qr_scan", "android": "https://dc.lft.to/lastmile_qr_scan"}, "lon": -77.04306383333333, "type": "electric_scooter"}, {"bike_id": "8ea1ee603e2d13b14852be1456b1919c", "is_reserved": 0, "fusion_lon": 0.0, "lat": 38.90555833333333, "is_disabled": 0, "name": "8ea1ee603e2d13b14852be1456b1919c", "fusion_lat": 0.0, "rental_uris": {"ios": "https://dc.lft.to/lastmile_qr_scan", "android": "https://dc.lft.to/lastmile_qr_scan"}, "lon": -77.03605583333334, "type": "electric_scooter"}, {"bike_id": "4105e5c0a61b073bf2bb2157dcb6df49", "is_reserved": 0, "fusion_lon": 0.0, "lat": 38.90795333333333, "is_disabled": 0, "name": "4105e5c0a61b073bf2bb2157dcb6df49", "fusion_lat": 0.0, "rental_uris": {"ios": "https://dc.lft.to/lastmile_qr_scan", "android": "https://dc.lft.to/lastmile_qr_scan"}, "lon": -77.04820616666667, "type": "electric_scooter"}, {"bike_id": "82ec91716441c28608b2f222aee23b10", "is_reserved": 0, "fusion_lon": 0.0, "lat": 38.902191, "is_disabled": 0, "name": "82ec91716441c28608b2f222aee23b10", "fusion_lat": 0.0, "rental_uris": {"ios": "https://dc.lft.to/lastmile_qr_scan", "android": "https://dc.lft.to/lastmile_qr_scan"}, "lon": -76.95052433333333, "type": "electric_bike"}, {"bike_id": "9aba0b2c0af15155efd723c9f86c5aea", "is_reserved": 0, "fusion_lon": 0.0, "lat": 38.89903133333333, "is_disabled": 0, "name": "9aba0b2c0af15155efd723c9f86c5aea", "fusion_lat": 0.0, "rental_uris": {"ios": "https://dc.lft.to/lastmile_qr_scan", "android": "https://dc.lft.to/lastmile_qr_scan"}, "lon": -77.04042366666667, "type": "electric_scooter"}, {"bike_id": "173e543cf4471f9428a150154c55ea22", "is_reserved": 0, "fusion_lon": 0.0, "lat": 38.9167765, "is_disabled": 0, "name": "173e543cf4471f9428a150154c55ea22", "fusion_lat": 0.0, "rental_uris": {"ios": "https://dc.lft.to/lastmile_qr_scan", "android": "https://dc.lft.to/lastmile_qr_scan"}, "lon": -77.03691683333334, "type": "electric_scooter"}, {"bike_id": "3f613156ec169b27e7689714f3eb0a71", "is_reserved": 0, "fusion_lon": 0.0, "lat": 38.90944233333333, "is_disabled": 0, "name": "3f613156ec169b27e7689714f3eb0a71", "fusion_lat": 0.0, "rental_uris": {"ios": "https://dc.lft.to/lastmile_qr_scan", "android": "https://dc.lft.to/lastmile_qr_scan"}, "lon": -77.02182716666667, "type": "electric_scooter"}, {"bike_id": "43135811028bd3f9dfd1c7297cd5fac5", "is_reserved": 0, "fusion_lon": 0.0, "lat": 38.90196066666667, "is_disabled": 0, "name": "43135811028bd3f9dfd1c7297cd5fac5", "fusion_lat": 0.0, "rental_uris": {"ios": "https://dc.lft.to/lastmile_qr_scan", "android": "https://dc.lft.to/lastmile_qr_scan"}, "lon": -77.02296383333334, "type": "electric_scooter"}, {"bike_id": "02ca1da9c197c241fe08180fc72834cf", "is_reserved": 0, "fusion_lon": 0.0, "lat": 38.90200216666667, "is_disabled": 0, "name": "02ca1da9c197c241fe08180fc72834cf", "fusion_lat": 0.0, "rental_uris": {"ios": "https://dc.lft.to/lastmile_qr_scan", "android": "https://dc.lft.to/lastmile_qr_scan"}, "lon": -77.02122116666666, "type": "electric_scooter"}, {"bike_id": "3b59d2c5e6fc1f258a659bd6f35f1819", "is_reserved": 0, "fusion_lon": 0.0, "lat": 38.90632266666667, "is_disabled": 0, "name": "3b59d2c5e6fc1f258a659bd6f35f1819", "fusion_lat": 0.0, "rental_uris": {"ios": "https://dc.lft.to/lastmile_qr_scan", "android": "https://dc.lft.to/lastmile_qr_scan"}, "lon": -77.02966933333333, "type": "electric_scooter"}, {"bike_id": "50899557ef42e8f040d4f5336d1f0d2d", "is_reserved": 0, "fusion_lon": 0.0, "lat": 38.89481116666666, "is_disabled": 0, "name": "50899557ef42e8f040d4f5336d1f0d2d", "fusion_lat": 0.0, "rental_uris": {"ios": "https://dc.lft.to/lastmile_qr_scan", "android": "https://dc.lft.to/lastmile_qr_scan"}, "lon": -76.94871816666667, "type": "electric_scooter"}, {"bike_id": "ea963b4d6fece4a66ace21087f52cabe", "is_reserved": 0, "fusion_lon": 0.0, "lat": 38.88859516666667, "is_disabled": 0, "name": "ea963b4d6fece4a66ace21087f52cabe", "fusion_lat": 0.0, "rental_uris": {"ios": "https://dc.lft.to/lastmile_qr_scan", "android": "https://dc.lft.to/lastmile_qr_scan"}, "lon": -76.99475833333334, "type": "electric_bike"}, {"bike_id": "8ea487992359f976fd887d37bb8b56c1", "is_reserved": 0, "fusion_lon": 0.0, "lat": 38.90002033333333, "is_disabled": 0, "name": "8ea487992359f976fd887d37bb8b56c1", "fusion_lat": 0.0, "rental_uris": {"ios": "https://dc.lft.to/lastmile_qr_scan", "android": "https://dc.lft.to/lastmile_qr_scan"}, "lon": -77.05240333333333, "type": "electric_scooter"}, {"bike_id": "d2f0c7d91c519c46e79b07dc41637608", "is_reserved": 0, "fusion_lon": 0.0, "lat": 38.8873115, "is_disabled": 0, "name": "d2f0c7d91c519c46e79b07dc41637608", "fusion_lat": 0.0, "rental_uris": {"ios": "https://dc.lft.to/lastmile_qr_scan", "android": "https://dc.lft.to/lastmile_qr_scan"}, "lon": -77.01512216666667, "type": "electric_scooter"}, {"bike_id": "57e5e7b1a712e79a7398cd663206952c", "is_reserved": 0, "fusion_lon": 0.0, "lat": 38.911323833333334, "is_disabled": 0, "name": "57e5e7b1a712e79a7398cd663206952c", "fusion_lat": 0.0, "rental_uris": {"ios": "https://dc.lft.to/lastmile_qr_scan", "android": "https://dc.lft.to/lastmile_qr_scan"}, "lon": -77.06576, "type": "electric_bike"}, {"bike_id": "fd62bbe0ba1f3dfe85c7fa587635b36b", "is_reserved": 0, "fusion_lon": 0.0, "lat": 38.89227066666667, "is_disabled": 0, "name": "fd62bbe0ba1f3dfe85c7fa587635b36b", "fusion_lat": 0.0, "rental_uris": {"ios": "https://dc.lft.to/lastmile_qr_scan", "android": "https://dc.lft.to/lastmile_qr_scan"}, "lon": -77.04367316666666, "type": "electric_scooter"}, {"bike_id": "8a8ac8562799e95ea4498b5b6607b493", "is_reserved": 0, "fusion_lon": 0.0, "lat": 38.900253, "is_disabled": 0, "name": "8a8ac8562799e95ea4498b5b6607b493", "fusion_lat": 0.0, "rental_uris": {"ios": "https://dc.lft.to/lastmile_qr_scan", "android": "https://dc.lft.to/lastmile_qr_scan"}, "lon": -76.98755666666666, "type": "electric_scooter"}, {"bike_id": "97b6d260a76563d3c66223d6ea43fe19", "is_reserved": 0, "fusion_lon": 0.0, "lat": 38.875489333333334, "is_disabled": 0, "name": "97b6d260a76563d3c66223d6ea43fe19", "fusion_lat": 0.0, "rental_uris": {"ios": "https://dc.lft.to/lastmile_qr_scan", "android": "https://dc.lft.to/lastmile_qr_scan"}, "lon": -76.96492633333334, "type": "electric_scooter"}, {"bike_id": "1acaa3919870c71f8aca6f908ec3cd53", "is_reserved": 0, "fusion_lon": 0.0, "lat": 38.919208166666664, "is_disabled": 0, "name": "1acaa3919870c71f8aca6f908ec3cd53", "fusion_lat": 0.0, "rental_uris": {"ios": "https://dc.lft.to/lastmile_qr_scan", "android": "https://dc.lft.to/lastmile_qr_scan"}, "lon": -77.03200183333334, "type": "electric_scooter"}, {"bike_id": "593b03d9749c104eb5484d94e0848ac5", "is_reserved": 0, "fusion_lon": 0.0, "lat": 38.91264366666667, "is_disabled": 0, "name": "593b03d9749c104eb5484d94e0848ac5", "fusion_lat": 0.0, "rental_uris": {"ios": "https://dc.lft.to/lastmile_qr_scan", "android": "https://dc.lft.to/lastmile_qr_scan"}, "lon": -77.00368733333333, "type": "electric_scooter"}, {"bike_id": "8a1862bbd9f3c8d0eaa0f8fe880c91df", "is_reserved": 0, "fusion_lon": 0.0, "lat": 38.89953083333333, "is_disabled": 0, "name": "8a1862bbd9f3c8d0eaa0f8fe880c91df", "fusion_lat": 0.0, "rental_uris": {"ios": "https://dc.lft.to/lastmile_qr_scan", "android": "https://dc.lft.to/lastmile_qr_scan"}, "lon": -76.97547133333333, "type": "electric_scooter"}, {"bike_id": "18f2dbe37247244471095448ce33f9ec", "is_reserved": 0, "fusion_lon": 0.0, "lat": 38.89527283333334, "is_disabled": 0, "name": "18f2dbe37247244471095448ce33f9ec", "fusion_lat": 0.0, "rental_uris": {"ios": "https://dc.lft.to/lastmile_qr_scan", "android": "https://dc.lft.to/lastmile_qr_scan"}, "lon": -77.048463, "type": "electric_scooter"}, {"bike_id": "76eb8fd8e0561689782c4e8c77f501ef", "is_reserved": 0, "fusion_lon": 0.0, "lat": 38.91105483333333, "is_disabled": 0, "name": "76eb8fd8e0561689782c4e8c77f501ef", "fusion_lat": 0.0, "rental_uris": {"ios": "https://dc.lft.to/lastmile_qr_scan", "android": "https://dc.lft.to/lastmile_qr_scan"}, "lon": -77.04836416666667, "type": "electric_scooter"}, {"bike_id": "d918b50f8158944654d39e3a7ac4b985", "is_reserved": 0, "fusion_lon": 0.0, "lat": 38.91700216666667, "is_disabled": 0, "name": "d918b50f8158944654d39e3a7ac4b985", "fusion_lat": 0.0, "rental_uris": {"ios": "https://dc.lft.to/lastmile_qr_scan", "android": "https://dc.lft.to/lastmile_qr_scan"}, "lon": -77.03125, "type": "electric_scooter"}, {"bike_id": "d7cf6e630a5b343c0ae4b49de4344598", "is_reserved": 0, "fusion_lon": 0.0, "lat": 38.91804416666667, "is_disabled": 0, "name": "d7cf6e630a5b343c0ae4b49de4344598", "fusion_lat": 0.0, "rental_uris": {"ios": "https://dc.lft.to/lastmile_qr_scan", "android": "https://dc.lft.to/lastmile_qr_scan"}, "lon": -77.03561383333333, "type": "electric_scooter"}, {"bike_id": "00b36e09c4f8151bdffc70f925e31ad6", "is_reserved": 0, "fusion_lon": 0.0, "lat": 38.931658166666665, "is_disabled": 0, "name": "00b36e09c4f8151bdffc70f925e31ad6", "fusion_lat": 0.0, "rental_uris": {"ios": "https://dc.lft.to/lastmile_qr_scan", "android": "https://dc.lft.to/lastmile_qr_scan"}, "lon": -77.05635966666667, "type": "electric_scooter"}, {"bike_id": "96dced05061358804e730092b42aa50f", "is_reserved": 0, "fusion_lon": 0.0, "lat": 38.900442, "is_disabled": 0, "name": "96dced05061358804e730092b42aa50f", "fusion_lat": 0.0, "rental_uris": {"ios": "https://dc.lft.to/lastmile_qr_scan", "android": "https://dc.lft.to/lastmile_qr_scan"}, "lon": -77.00206333333334, "type": "electric_scooter"}, {"bike_id": "1651d4792a6e06ba7a1971ccde784855", "is_reserved": 0, "fusion_lon": 0.0, "lat": 38.9023535, "is_disabled": 0, "name": "1651d4792a6e06ba7a1971ccde784855", "fusion_lat": 0.0, "rental_uris": {"ios": "https://dc.lft.to/lastmile_qr_scan", "android": "https://dc.lft.to/lastmile_qr_scan"}, "lon": -77.06061583333333, "type": "electric_scooter"}, {"bike_id": "8d55ec4f6934d534479a0258ee844c07", "is_reserved": 0, "fusion_lon": 0.0, "lat": 38.92390233333333, "is_disabled": 0, "name": "8d55ec4f6934d534479a0258ee844c07", "fusion_lat": 0.0, "rental_uris": {"ios": "https://dc.lft.to/lastmile_qr_scan", "android": "https://dc.lft.to/lastmile_qr_scan"}, "lon": -77.04288016666666, "type": "electric_scooter"}, {"bike_id": "db3ff66ab536edcdaa51944a745402b8", "is_reserved": 0, "fusion_lon": 0.0, "lat": 38.9074025, "is_disabled": 0, "name": "db3ff66ab536edcdaa51944a745402b8", "fusion_lat": 0.0, "rental_uris": {"ios": "https://dc.lft.to/lastmile_qr_scan", "android": "https://dc.lft.to/lastmile_qr_scan"}, "lon": -77.02391816666666, "type": "electric_scooter"}, {"bike_id": "9e24d93f27382fdf1866f34ad4af5907", "is_reserved": 0, "fusion_lon": 0.0, "lat": 38.887743666666665, "is_disabled": 0, "name": "9e24d93f27382fdf1866f34ad4af5907", "fusion_lat": 0.0, "rental_uris": {"ios": "https://dc.lft.to/lastmile_qr_scan", "android": "https://dc.lft.to/lastmile_qr_scan"}, "lon": -76.93263433333334, "type": "electric_scooter"}, {"bike_id": "d85b86ecfe6f56a2a70618507167c0ad", "is_reserved": 0, "fusion_lon": 0.0, "lat": 38.90276133333333, "is_disabled": 0, "name": "d85b86ecfe6f56a2a70618507167c0ad", "fusion_lat": 0.0, "rental_uris": {"ios": "https://dc.lft.to/lastmile_qr_scan", "android": "https://dc.lft.to/lastmile_qr_scan"}, "lon": -77.03837783333333, "type": "electric_scooter"}, {"bike_id": "3aaefc6dd9180afaf354d00b3df0fa94", "is_reserved": 0, "fusion_lon": 0.0, "lat": 38.897816666666664, "is_disabled": 0, "name": "3aaefc6dd9180afaf354d00b3df0fa94", "fusion_lat": 0.0, "rental_uris": {"ios": "https://dc.lft.to/lastmile_qr_scan", "android": "https://dc.lft.to/lastmile_qr_scan"}, "lon": -77.0547455, "type": "electric_scooter"}, {"bike_id": "aa679910eedffefb5f7f553040786f97", "is_reserved": 0, "fusion_lon": 0.0, "lat": 38.898256, "is_disabled": 0, "name": "aa679910eedffefb5f7f553040786f97", "fusion_lat": 0.0, "rental_uris": {"ios": "https://dc.lft.to/lastmile_qr_scan", "android": "https://dc.lft.to/lastmile_qr_scan"}, "lon": -76.946552, "type": "electric_scooter"}, {"bike_id": "27ede45ece1d4a1f29c190f8006d714f", "is_reserved": 0, "fusion_lon": 0.0, "lat": 38.8983255, "is_disabled": 0, "name": "27ede45ece1d4a1f29c190f8006d714f", "fusion_lat": 0.0, "rental_uris": {"ios": "https://dc.lft.to/lastmile_qr_scan", "android": "https://dc.lft.to/lastmile_qr_scan"}, "lon": -76.94650483333334, "type": "electric_scooter"}, {"bike_id": "15cc85998fe33f00a0cb7af02ac285c4", "is_reserved": 0, "fusion_lon": 0.0, "lat": 38.89103383333333, "is_disabled": 0, "name": "15cc85998fe33f00a0cb7af02ac285c4", "fusion_lat": 0.0, "rental_uris": {"ios": "https://dc.lft.to/lastmile_qr_scan", "android": "https://dc.lft.to/lastmile_qr_scan"}, "lon": -76.94394666666666, "type": "electric_scooter"}, {"bike_id": "be64bb58a3b2e266ac30036b55916726", "is_reserved": 0, "fusion_lon": 0.0, "lat": 38.89676133333333, "is_disabled": 0, "name": "be64bb58a3b2e266ac30036b55916726", "fusion_lat": 0.0, "rental_uris": {"ios": "https://dc.lft.to/lastmile_qr_scan", "android": "https://dc.lft.to/lastmile_qr_scan"}, "lon": -77.02611983333334, "type": "electric_scooter"}, {"bike_id": "2b0166b0940ce9ba15ff1f816d0c155c", "is_reserved": 0, "fusion_lon": 0.0, "lat": 38.92366916666667, "is_disabled": 0, "name": "2b0166b0940ce9ba15ff1f816d0c155c", "fusion_lat": 0.0, "rental_uris": {"ios": "https://dc.lft.to/lastmile_qr_scan", "android": "https://dc.lft.to/lastmile_qr_scan"}, "lon": -77.01905683333334, "type": "electric_scooter"}, {"bike_id": "ae737afca461004477115d19f106016f", "is_reserved": 0, "fusion_lon": 0.0, "lat": 38.909976666666665, "is_disabled": 0, "name": "ae737afca461004477115d19f106016f", "fusion_lat": 0.0, "rental_uris": {"ios": "https://dc.lft.to/lastmile_qr_scan", "android": "https://dc.lft.to/lastmile_qr_scan"}, "lon": -77.021006, "type": "electric_scooter"}, {"bike_id": "5fc3071183a890e3d58f43e08ebc6371", "is_reserved": 0, "fusion_lon": 0.0, "lat": 38.91540366666667, "is_disabled": 0, "name": "5fc3071183a890e3d58f43e08ebc6371", "fusion_lat": 0.0, "rental_uris": {"ios": "https://dc.lft.to/lastmile_qr_scan", "android": "https://dc.lft.to/lastmile_qr_scan"}, "lon": -77.02357616666667, "type": "electric_scooter"}, {"bike_id": "e6ce0db50e2d7187691d1de458a41a01", "is_reserved": 0, "fusion_lon": 0.0, "lat": 38.966142, "is_disabled": 0, "name": "e6ce0db50e2d7187691d1de458a41a01", "fusion_lat": 0.0, "rental_uris": {"ios": "https://dc.lft.to/lastmile_qr_scan", "android": "https://dc.lft.to/lastmile_qr_scan"}, "lon": -77.0343585, "type": "electric_bike"}, {"bike_id": "f90d654c72eb1037e346e889e1f649a1", "is_reserved": 0, "fusion_lon": 0.0, "lat": 38.901364, "is_disabled": 0, "name": "f90d654c72eb1037e346e889e1f649a1", "fusion_lat": 0.0, "rental_uris": {"ios": "https://dc.lft.to/lastmile_qr_scan", "android": "https://dc.lft.to/lastmile_qr_scan"}, "lon": -77.02644366666667, "type": "electric_scooter"}, {"bike_id": "81601233f63ae7233fa52d27ab50a369", "is_reserved": 0, "fusion_lon": 0.0, "lat": 38.89375066666667, "is_disabled": 0, "name": "81601233f63ae7233fa52d27ab50a369", "fusion_lat": 0.0, "rental_uris": {"ios": "https://dc.lft.to/lastmile_qr_scan", "android": "https://dc.lft.to/lastmile_qr_scan"}, "lon": -76.94983066666667, "type": "electric_scooter"}, {"bike_id": "da9fedcbedc3eb6af0a4f2f17b334517", "is_reserved": 0, "fusion_lon": 0.0, "lat": 38.926903, "is_disabled": 0, "name": "da9fedcbedc3eb6af0a4f2f17b334517", "fusion_lat": 0.0, "rental_uris": {"ios": "https://dc.lft.to/lastmile_qr_scan", "android": "https://dc.lft.to/lastmile_qr_scan"}, "lon": -77.01571816666667, "type": "electric_scooter"}, {"bike_id": "309583a5510f88151a9a435888b3b973", "is_reserved": 0, "fusion_lon": 0.0, "lat": 38.925371, "is_disabled": 0, "name": "309583a5510f88151a9a435888b3b973", "fusion_lat": 0.0, "rental_uris": {"ios": "https://dc.lft.to/lastmile_qr_scan", "android": "https://dc.lft.to/lastmile_qr_scan"}, "lon": -77.03523666666666, "type": "electric_scooter"}, {"bike_id": "848a406e04fcb21d5519d1a70c1fe19a", "is_reserved": 0, "fusion_lon": 0.0, "lat": 38.9353105, "is_disabled": 0, "name": "848a406e04fcb21d5519d1a70c1fe19a", "fusion_lat": 0.0, "rental_uris": {"ios": "https://dc.lft.to/lastmile_qr_scan", "android": "https://dc.lft.to/lastmile_qr_scan"}, "lon": -77.02355966666667, "type": "electric_scooter"}, {"bike_id": "0a824b42cbd762dadecb9f2e01b04ff6", "is_reserved": 0, "fusion_lon": 0.0, "lat": 38.91854683333333, "is_disabled": 0, "name": "0a824b42cbd762dadecb9f2e01b04ff6", "fusion_lat": 0.0, "rental_uris": {"ios": "https://dc.lft.to/lastmile_qr_scan", "android": "https://dc.lft.to/lastmile_qr_scan"}, "lon": -77.03212833333333, "type": "electric_scooter"},