{"data": {"bikes": [{"is_disabled": 0, "fusion_lon": 0.0, "fusion_lat": 0.0, "lat": 38.8985585, "type": "electric_scooter", "lon": -77.04340416666666, "bike_id": "85c2c8b80b6f50d214d15365f86c1e14", "rental_uris": {"android": "https://dc.lft.to/lastmile_qr_scan", "ios": "https://dc.lft.to/lastmile_qr_scan"}, "name": "85c2c8b80b6f50d214d15365f86c1e14", "is_reserved": 0}, {"is_disabled": 0, "fusion_lon": 0.0, "fusion_lat": 0.0, "lat": 38.926141666666666, "type": "electric_scooter", "lon": -77.04193483333333, "bike_id": "07718a6515c16d85aa89b21e4a8b7528", "rental_uris": {"android": "https://dc.lft.to/lastmile_qr_scan", "ios": "https://dc.lft.to/lastmile_qr_scan"}, "name": "07718a6515c16d85aa89b21e4a8b7528", "is_reserved": 0}, {"is_disabled": 0, "fusion_lon": 0.0, "fusion_lat": 0.0, "lat": 38.87456616666667, "type": "electric_scooter", "lon": -77.00438183333333, "bike_id": "ce9909b5282b441698e56bd741f312e0", "rental_uris": {"android": "https://dc.lft.to/lastmile_qr_scan", "ios": "https://dc.lft.to/lastmile_qr_scan"}, "name": "ce9909b5282b441698e56bd741f312e0", "is_reserved": 0}, {"is_disabled": 0, "fusion_lon": 0.0, "fusion_lat": 0.0, "lat": 38.944551, "type": "electric_scooter", "lon": -77.060226, "bike_id": "6eb7ef19daa6fb29a16695b832f31d5a", "rental_uris": {"android": "https://dc.lft.to/lastmile_qr_scan", "ios": "https://dc.lft.to/lastmile_qr_scan"}, "name": "6eb7ef19daa6fb29a16695b832f31d5a", "is_reserved": 0}, {"is_disabled": 0, "fusion_lon": 0.0, "fusion_lat": 0.0, "lat": 38.90950016666667, "type": "electric_scooter", "lon": -77.0644275, "bike_id": "eb6d897c5c008bd472b9951630aff82c", "rental_uris": {"android": "https://dc.lft.to/lastmile_qr_scan", "ios": "https://dc.lft.to/lastmile_qr_scan"}, "name": "eb6d897c5c008bd472b9951630aff82c", "is_reserved": 0}, {"is_disabled": 0, "fusion_lon": 0.0, "fusion_lat": 0.0, "lat": 38.99666766666667, "type": "electric_bike", "lon": -76.99142383333333, "bike_id": "670df86b00ad1ac3485c25bdf8919370", "rental_uris": {"android": "https://dc.lft.to/lastmile_qr_scan", "ios": "https://dc.lft.to/lastmile_qr_scan"}, "name": "670df86b00ad1ac3485c25bdf8919370", "is_reserved": 0}, {"is_disabled": 0, "fusion_lon": 0.0, "fusion_lat": 0.0, "lat": 38.91807283333333, "type": "electric_scooter", "lon": -77.02493833333334, "bike_id": "f51af1dd03356cbdecfb8aee05a9082d", "rental_uris": {"android": "https://dc.lft.to/lastmile_qr_scan", "ios": "https://dc.lft.to/lastmile_qr_scan"}, "name": "f51af1dd03356cbdecfb8aee05a9082d", "is_reserved": 0}, {"is_disabled": 0, "fusion_lon": 0.0, "fusion_lat": 0.0, "lat": 39.0526475, "type": "electric_bike", "lon": -77.04381683333334, "bike_id": "ff69a6a38034d3ce6e2affe38ceb9521", "rental_uris": {"android": "https://dc.lft.to/lastmile_qr_scan", "ios": "https://dc.lft.to/lastmile_qr_scan"}, "name": "ff69a6a38034d3ce6e2affe38ceb9521", "is_reserved": 0}, {"is_disabled": 0, "fusion_lon": 0.0, "fusion_lat": 0.0, "lat": 38.91977766666667, "type": "electric_scooter", "lon": -77.041759, "bike_id": "4be43ecc794728c43a2ab6986ffd6845", "rental_uris": {"android": "https://dc.lft.to/lastmile_qr_scan", "ios": "https://dc.lft.to/lastmile_qr_scan"}, "name": "4be43ecc794728c43a2ab6986ffd6845", "is_reserved": 0}, {"is_disabled": 0, "fusion_lon": 0.0, "fusion_lat": 0.0, "lat": 38.90629466666667, "type": "electric_bike", "lon": -77.07029683333333, "bike_id": "85329913922030e3ed1bac3fc191ad57", "rental_uris": {"android": "https://dc.lft.to/lastmile_qr_scan", "ios": "https://dc.lft.to/lastmile_qr_scan"}, "name": "85329913922030e3ed1bac3fc191ad57", "is_reserved": 0}, {"is_disabled": 0, "fusion_lon": 0.0, "fusion_lat": 0.0, "lat": 38.917018666666664, "type": "electric_scooter", "lon": -77.0011565, "bike_id": "e1175e7f7aecda828820fb55234b56f3", "rental_uris": {"android": "https://dc.lft.to/lastmile_qr_scan", "ios": "https://dc.lft.to/lastmile_qr_scan"}, "name": "e1175e7f7aecda828820fb55234b56f3", "is_reserved": 0}, {"is_disabled": 0, "fusion_lon": 0.0, "fusion_lat": 0.0, "lat": 38.936981, "type": "electric_scooter", "lon": -77.05599166666667, "bike_id": "92b820abd3864f71418b2e02bf97f0d0", "rental_uris": {"android": "https://dc.lft.to/lastmile_qr_scan", "ios": "https://dc.lft.to/lastmile_qr_scan"}, "name": "92b820abd3864f71418b2e02bf97f0d0", "is_reserved": 0}, {"is_disabled": 0, "fusion_lon": 0.0, "fusion_lat": 0.0, "lat": 38.917813, "type": "electric_scooter", "lon": -77.01777383333334, "bike_id": "c176680f90f082174b4bc354c3d290e8", "rental_uris": {"android": "https://dc.lft.to/lastmile_qr_scan", "ios": "https://dc.lft.to/lastmile_qr_scan"}, "name": "c176680f90f082174b4bc354c3d290e8", "is_reserved": 0}, {"is_disabled": 0, "fusion_lon": 0.0, "fusion_lat": 0.0, "lat": 38.88452316666667, "type": "electric_bike", "lon": -76.91634833333333, "bike_id": "247cf6cffd456fbfe4aa9e532b324021", "rental_uris": {"android": "https://dc.lft.to/lastmile_qr_scan", "ios": "https://dc.lft.to/lastmile_qr_scan"}, "name": "247cf6cffd456fbfe4aa9e532b324021", "is_reserved": 0}, {"is_disabled": 0, "fusion_lon": 0.0, "fusion_lat": 0.0, "lat": 38.94899383333333, "type": "electric_bike", "lon": -76.96377466666667, "bike_id": "f7ae34728cb04aca777f4928f3d817df", "rental_uris": {"android": "https://dc.lft.to/lastmile_qr_scan", "ios": "https://dc.lft.to/lastmile_qr_scan"}, "name": "f7ae34728cb04aca777f4928f3d817df", "is_reserved": 0}, {"is_disabled": 0, "fusion_lon": 0.0, "fusion_lat": 0.0, "lat": 38.912333, "type": "electric_scooter", "lon": -77.04882916666666, "bike_id": "6164d84ee221d1ca8e29eadef4908da8", "rental_uris": {"android": "https://dc.lft.to/lastmile_qr_scan", "ios": "https://dc.lft.to/lastmile_qr_scan"}, "name": "6164d84ee221d1ca8e29eadef4908da8", "is_reserved": 0}, {"is_disabled": 0, "fusion_lon": 0.0, "fusion_lat": 0.0, "lat": 38.8843945, "type": "electric_scooter", "lon": -77.029677, "bike_id": "352b2f7b3b2430d56541680760e5dbce", "rental_uris": {"android": "https://dc.lft.to/lastmile_qr_scan", "ios": "https://dc.lft.to/lastmile_qr_scan"}, "name": "352b2f7b3b2430d56541680760e5dbce", "is_reserved": 0}, {"is_disabled": 0, "fusion_lon": 0.0, "fusion_lat": 0.0, "lat": 38.89491483333333, "type": "electric_scooter", "lon": -77.00953633333333, "bike_id": "d8c081a1377585b9060219b1458711ed", "rental_uris": {"android": "https://dc.lft.to/lastmile_qr_scan", "ios": "https://dc.lft.to/lastmile_qr_scan"}, "name": "d8c081a1377585b9060219b1458711ed", "is_reserved": 0}, {"is_disabled": 0, "fusion_lon": 0.0, "fusion_lat": 0.0, "lat": 39.05462333333333, "type": "electric_bike", "lon": -77.14327383333334, "bike_id": "c3c929e7b2cf1691e9f487d07f0c09df", "rental_uris": {"android": "https://dc.lft.to/lastmile_qr_scan", "ios": "https://dc.lft.to/lastmile_qr_scan"}, "name": "c3c929e7b2cf1691e9f487d07f0c09df", "is_reserved": 0}, {"is_disabled": 0, "fusion_lon": 0.0, "fusion_lat": 0.0, "lat": 38.88141666666667, "type": "electric_scooter", "lon": -77.02702183333334, "bike_id": "c3d0557ca099b4dd9ca8a64b84c9d045", "rental_uris": {"android": "https://dc.lft.to/lastmile_qr_scan", "ios": "https://dc.lft.to/lastmile_qr_scan"}, "name": "c3d0557ca099b4dd9ca8a64b84c9d045", "is_reserved": 0}, {"is_disabled": 0, "fusion_lon": 0.0, "fusion_lat": 0.0, "lat": 38.90554383333333, "type": "electric_scooter", "lon": -76.98143366666666, "bike_id": "be302509d645a1adbd0d874aaf901d5c", "rental_uris": {"android": "https://dc.lft.to/lastmile_qr_scan", "ios": "https://dc.lft.to/lastmile_qr_scan"}, "name": "be302509d645a1adbd0d874aaf901d5c", "is_reserved": 0}, {"is_disabled": 0, "fusion_lon": 0.0, "fusion_lat": 0.0, "lat": 38.77622366666667, "type": "electric_bike", "lon": -77.08348766666667, "bike_id": "5d5149295ac6ff3fcbf149c0c4f99ed8", "rental_uris": {"android": "https://dc.lft.to/lastmile_qr_scan", "ios": "https://dc.lft.to/lastmile_qr_scan"}, "name": "5d5149295ac6ff3fcbf149c0c4f99ed8", "is_reserved": 0}, {"is_disabled": 0, "fusion_lon": 0.0, "fusion_lat": 0.0, "lat": 38.881912666666665, "type": "electric_scooter", "lon": -76.995001, "bike_id": "bccfd1f4d7c6d5ae259e949be93e6c1b", "rental_uris": {"android": "https://dc.lft.to/lastmile_qr_scan", "ios": "https://dc.lft.to/lastmile_qr_scan"}, "name": "bccfd1f4d7c6d5ae259e949be93e6c1b", "is_reserved": 0}, {"is_disabled": 0, "fusion_lon": 0.0, "fusion_lat": 0.0, "lat": 38.8939255, "type": "electric_scooter", "lon": -76.94998583333333, "bike_id": "96e1fb29ec6839c4352414bb053e22ae", "rental_uris": {"android": "https://dc.lft.to/lastmile_qr_scan", "ios": "https://dc.lft.to/lastmile_qr_scan"}, "name": "96e1fb29ec6839c4352414bb053e22ae", "is_reserved": 0}, {"is_disabled": 0, "fusion_lon": 0.0, "fusion_lat": 0.0, "lat": 38.905304, "type": "electric_scooter", "lon": -77.017044, "bike_id": "c02b4a185a41d83cb0ba3bfcb493b6db", "rental_uris": {"android": "https://dc.lft.to/lastmile_qr_scan", "ios": "https://dc.lft.to/lastmile_qr_scan"}, "name": "c02b4a185a41d83cb0ba3bfcb493b6db", "is_reserved": 0}, {"is_disabled": 0, "fusion_lon": 0.0, "fusion_lat": 0.0, "lat": 38.93461633333333, "type": "electric_scooter", "lon": -77.03054333333333, "bike_id": "a8b9de9c5ecedf7d7baf3bfea81e6ac8", "rental_uris": {"android": "https://dc.lft.to/lastmile_qr_scan", "ios": "https://dc.lft.to/lastmile_qr_scan"}, "name": "a8b9de9c5ecedf7d7baf3bfea81e6ac8", "is_reserved": 0}, {"is_disabled": 0, "fusion_lon": 0.0, "fusion_lat": 0.0, "lat": 38.945912666666665, "type": "electric_bike", "lon": -77.344069, "bike_id": "8bf61853e1ff467060e118b3ef26bd18", "rental_uris": {"android": "https://dc.lft.to/lastmile_qr_scan", "ios": "https://dc.lft.to/lastmile_qr_scan"}, "name": "8bf61853e1ff467060e118b3ef26bd18", "is_reserved": 0}, {"is_disabled": 0, "fusion_lon": 0.0, "fusion_lat": 0.0, "lat": 38.88512866666667, "type": "electric_scooter", "lon": -77.02194783333333, "bike_id": "d84822112bb03d8bc71c5f311fd43cad", "rental_uris": {"android": "https://dc.lft.to/lastmile_qr_scan", "ios": "https://dc.lft.to/lastmile_qr_scan"}, "name": "d84822112bb03d8bc71c5f311fd43cad", "is_reserved": 0}, {"is_disabled": 0, "fusion_lon": 0.0, "fusion_lat": 0.0, "lat": 38.92439516666666, "type": "electric_scooter", "lon": -77.0334875, "bike_id": "895af842d2bdf3609070c6910f0f1706", "rental_uris": {"android": "https://dc.lft.to/lastmile_qr_scan", "ios": "https://dc.lft.to/lastmile_qr_scan"}, "name": "895af842d2bdf3609070c6910f0f1706", "is_reserved": 0}, {"is_disabled": 0, "fusion_lon": 0.0, "fusion_lat": 0.0, "lat": 38.90603683333333, "type": "electric_scooter", "lon": -77.04038, "bike_id": "7bb933bff0683e096fd7015b4da290d0", "rental_uris": {"android": "https://dc.lft.to/lastmile_qr_scan", "ios": "https://dc.lft.to/lastmile_qr_scan"}, "name": "7bb933bff0683e096fd7015b4da290d0", "is_reserved": 0}, {"is_disabled": 0, "fusion_lon": 0.0, "fusion_lat": 0.0, "lat": 38.877772, "type": "electric_scooter", "lon": -77.01433066666667, "bike_id": "ae89cae40aa2c912c6de3bec65b46db0", "rental_uris": {"android": "https://dc.lft.to/lastmile_qr_scan", "ios": "https://dc.lft.to/lastmile_qr_scan"}, "name": "ae89cae40aa2c912c6de3bec65b46db0", "is_reserved": 0}, {"is_disabled": 0, "fusion_lon": 0.0, "fusion_lat": 0.0, "lat": 38.902803, "type": "electric_scooter", "lon": -77.03467033333334, "bike_id": "d311e4caf70849833e420be9cff25055", "rental_uris": {"android": "https://dc.lft.to/lastmile_qr_scan", "ios": "https://dc.lft.to/lastmile_qr_scan"}, "name": "d311e4caf70849833e420be9cff25055", "is_reserved": 0}, {"is_disabled": 0, "fusion_lon": 0.0, "fusion_lat": 0.0, "lat": 38.848883666666666, "type": "electric_scooter", "lon": -77.00518516666666, "bike_id": "ac4e34b97e84cc88c0d1653213128c50", "rental_uris": {"android": "https://dc.lft.to/lastmile_qr_scan", "ios": "https://dc.lft.to/lastmile_qr_scan"}, "name": "ac4e34b97e84cc88c0d1653213128c50", "is_reserved": 0}, {"is_disabled": 0, "fusion_lon": 0.0, "fusion_lat": 0.0, "lat": 38.903609, "type": "electric_scooter", "lon": -77.04012083333333, "bike_id": "a6272b955a6507a5edce0c261663e8cd", "rental_uris": {"android": "https://dc.lft.to/lastmile_qr_scan", "ios": "https://dc.lft.to/lastmile_qr_scan"}, "name": "a6272b955a6507a5edce0c261663e8cd", "is_reserved": 0}, {"is_disabled": 0, "fusion_lon": 0.0, "fusion_lat": 0.0, "lat": 38.863547833333335, "type": "electric_scooter", "lon": -76.9906635, "bike_id": "bec03e9dfe2dd416840afbc500b6acac", "rental_uris": {"android": "https://dc.lft.to/lastmile_qr_scan", "ios": "https://dc.lft.to/lastmile_qr_scan"}, "name": "bec03e9dfe2dd416840afbc500b6acac", "is_reserved": 0}, {"is_disabled": 0, "fusion_lon": 0.0, "fusion_lat": 0.0, "lat": 38.931194833333336, "type": "electric_scooter", "lon": -77.05612266666667, "bike_id": "5e1dea1d2e58779ec447ef8aad436c64", "rental_uris": {"android": "https://dc.lft.to/lastmile_qr_scan", "ios": "https://dc.lft.to/lastmile_qr_scan"}, "name": "5e1dea1d2e58779ec447ef8aad436c64", "is_reserved": 0}, {"is_disabled": 0, "fusion_lon": 0.0, "fusion_lat": 0.0, "lat": 38.9002775, "type": "electric_scooter", "lon": -76.98805633333333, "bike_id": "a1483ad9e79d924ff585b8d909800157", "rental_uris": {"android": "https://dc.lft.to/lastmile_qr_scan", "ios": "https://dc.lft.to/lastmile_qr_scan"}, "name": "a1483ad9e79d924ff585b8d909800157", "is_reserved": 0}, {"is_disabled": 0, "fusion_lon": 0.0, "fusion_lat": 0.0, "lat": 38.903496833333335, "type": "electric_scooter", "lon": -77.02158083333333, "bike_id": "697dbcc60c560b771f701d73fed0f2f9", "rental_uris": {"android": "https://dc.lft.to/lastmile_qr_scan", "ios": "https://dc.lft.to/lastmile_qr_scan"}, "name": "697dbcc60c560b771f701d73fed0f2f9", "is_reserved": 0}, {"is_disabled": 0, "fusion_lon": 0.0, "fusion_lat": 0.0, "lat": 38.90542883333333, "type": "electric_scooter", "lon": -77.022072, "bike_id": "55360887102b7985caaf1f09457610e2", "rental_uris": {"android": "https://dc.lft.to/lastmile_qr_scan", "ios": "https://dc.lft.to/lastmile_qr_scan"}, "name": "55360887102b7985caaf1f09457610e2", "is_reserved": 0}, {"is_disabled": 0, "fusion_lon": 0.0, "fusion_lat": 0.0, "lat": 38.918477, "type": "electric_scooter", "lon": -77.02452283333334, "bike_id": "aa181a6695c3945ceee8fcaa50af653d", "rental_uris": {"android": "https://dc.lft.to/lastmile_qr_scan", "ios": "https://dc.lft.to/lastmile_qr_scan"}, "name": "aa181a6695c3945ceee8fcaa50af653d", "is_reserved": 0}, {"is_disabled": 0, "fusion_lon": 0.0, "fusion_lat": 0.0, "lat": 38.8972765, "type": "electric_bike", "lon": -76.90540966666667, "bike_id": "508e6626dafd1bc0d18e23781b736732", "rental_uris": {"android": "https://dc.lft.to/lastmile_qr_scan", "ios": "https://dc.lft.to/lastmile_qr_scan"}, "name": "508e6626dafd1bc0d18e23781b736732", "is_reserved": 0}, {"is_disabled": 0, "fusion_lon": 0.0, "fusion_lat": 0.0, "lat": 38.96818566666666, "type": "electric_scooter", "lon": -77.0089105, "bike_id": "e52aa760f81f1b9d3ec02c59348874b4", "rental_uris": {"android": "https://dc.lft.to/lastmile_qr_scan", "ios": "https://dc.lft.to/lastmile_qr_scan"}, "name": "e52aa760f81f1b9d3ec02c59348874b4", "is_reserved": 0}, {"is_disabled": 0, "fusion_lon": 0.0, "fusion_lat": 0.0, "lat": 38.9410515, "type": "electric_scooter", "lon": -77.0772265, "bike_id": "eb853f2bd37fb29c601f9305b83fbb09", "rental_uris": {"android": "https://dc.lft.to/lastmile_qr_scan", "ios": "https://dc.lft.to/lastmile_qr_scan"}, "name": "eb853f2bd37fb29c601f9305b83fbb09", "is_reserved": 0}, {"is_disabled": 0, "fusion_lon": 0.0, "fusion_lat": 0.0, "lat": 38.90386516666667, "type": "electric_scooter", "lon": -77.004677, "bike_id": "6da4191dd38ff036bea042aff62b7763", "rental_uris": {"android": "https://dc.lft.to/lastmile_qr_scan", "ios": "https://dc.lft.to/lastmile_qr_scan"}, "name": "6da4191dd38ff036bea042aff62b7763", "is_reserved": 0}, {"is_disabled": 0, "fusion_lon": 0.0, "fusion_lat": 0.0, "lat": 38.93225783333333, "type": "electric_scooter", "lon": -76.99529316666667, "bike_id": "0d805b6f341901bbc3a3ecb33af45b50", "rental_uris": {"android": "https://dc.lft.to/lastmile_qr_scan", "ios": "https://dc.lft.to/lastmile_qr_scan"}, "name": "0d805b6f341901bbc3a3ecb33af45b50", "is_reserved": 0}, {"is_disabled": 0, "fusion_lon": 0.0, "fusion_lat": 0.0, "lat": 38.87090766666667, "type": "electric_scooter", "lon": -77.00819083333333, "bike_id": "8ba34a541f8b38461ebba84f45a62283", "rental_uris": {"android": "https://dc.lft.to/lastmile_qr_scan", "ios": "https://dc.lft.to/lastmile_qr_scan"}, "name": "8ba34a541f8b38461ebba84f45a62283", "is_reserved": 0}, {"is_disabled": 0, "fusion_lon": 0.0, "fusion_lat": 0.0, "lat": 39.05200933333333, "type": "electric_bike", "lon": -77.04410416666667, "bike_id": "63a144a32c7606762bbf9a8099e6faaa", "rental_uris": {"android": "https://dc.lft.to/lastmile_qr_scan", "ios": "https://dc.lft.to/lastmile_qr_scan"}, "name": "63a144a32c7606762bbf9a8099e6faaa", "is_reserved": 0}, {"is_disabled": 0, "fusion_lon": 0.0, "fusion_lat": 0.0, "lat": 38.886588833333334, "type": "electric_scooter", "lon": -77.00351433333333, "bike_id": "2f3bb1155a08bb47d4bbc09ec6ef1fb3", "rental_uris": {"android": "https://dc.lft.to/lastmile_qr_scan", "ios": "https://dc.lft.to/lastmile_qr_scan"}, "name": "2f3bb1155a08bb47d4bbc09ec6ef1fb3", "is_reserved": 0}, {"is_disabled": 0, "fusion_lon": 0.0, "fusion_lat": 0.0, "lat": 38.90141216666667, "type": "electric_scooter", "lon": -77.04627583333334, "bike_id": "348d6bb6cb703ce246c2ced27e0e65c7", "rental_uris": {"android": "https://dc.lft.to/lastmile_qr_scan", "ios": "https://dc.lft.to/lastmile_qr_scan"}, "name": "348d6bb6cb703ce246c2ced27e0e65c7", "is_reserved": 0}, {"is_disabled": 0, "fusion_lon": 0.0, "fusion_lat": 0.0, "lat": 38.9311305, "type": "electric_scooter", "lon": -77.0204, "bike_id": "90677fc0db2a1290a999944ed5f8db3f", "rental_uris": {"android": "https://dc.lft.to/lastmile_qr_scan", "ios": "https://dc.lft.to/lastmile_qr_scan"}, "name": "90677fc0db2a1290a999944ed5f8db3f", "is_reserved": 0}, {"is_disabled": 0, "fusion_lon": 0.0, "fusion_lat": 0.0, "lat": 38.925837, "type": "electric_scooter", "lon": -77.03233916666667, "bike_id": "305625a235976316afc6ab09e4364b20", "rental_uris": {"android": "https://dc.lft.to/lastmile_qr_scan", "ios": "https://dc.lft.to/lastmile_qr_scan"}, "name": "305625a235976316afc6ab09e4364b20", "is_reserved": 0}, {"is_disabled": 0, "fusion_lon": 0.0, "fusion_lat": 0.0, "lat": 38.904190166666666, "type": "electric_scooter", "lon": -76.985487, "bike_id": "c773a2f670e72f1d9d131557ac77ef20", "rental_uris": {"android": "https://dc.lft.to/lastmile_qr_scan", "ios": "https://dc.lft.to/lastmile_qr_scan"}, "name": "c773a2f670e72f1d9d131557ac77ef20", "is_reserved": 0}, {"is_disabled": 0, "fusion_lon": 0.0, "fusion_lat": 0.0, "lat": 39.06066416666667, "type": "electric_bike", "lon": -77.06467016666667, "bike_id": "043042f2a4db8441dedafb8985e7f424", "rental_uris": {"android": "https://dc.lft.to/lastmile_qr_scan", "ios": "https://dc.lft.to/lastmile_qr_scan"}, "name": "043042f2a4db8441dedafb8985e7f424", "is_reserved": 0}, {"is_disabled": 0, "fusion_lon": 0.0, "fusion_lat": 0.0, "lat": 38.8874345, "type": "electric_scooter", "lon": -77.0173445, "bike_id": "9292f68def9010e82737157ef0f64cd6", "rental_uris": {"android": "https://dc.lft.to/lastmile_qr_scan", "ios": "https://dc.lft.to/lastmile_qr_scan"}, "name": "9292f68def9010e82737157ef0f64cd6", "is_reserved": 0}, {"is_disabled": 0, "fusion_lon": 0.0, "fusion_lat": 0.0, "lat": 38.91865966666667, "type": "electric_bike", "lon": -76.96087183333333, "bike_id": "e713d8d34a8b081d35f3b39512d38a83", "rental_uris": {"android": "https://dc.lft.to/lastmile_qr_scan", "ios": "https://dc.lft.to/lastmile_qr_scan"}, "name": "e713d8d34a8b081d35f3b39512d38a83", "is_reserved": 0}, {"is_disabled": 0, "fusion_lon": 0.0, "fusion_lat": 0.0, "lat": 38.9205415, "type": "electric_scooter", "lon": -76.99611766666666, "bike_id": "3767cd80d0b3a1a24209037434d36698", "rental_uris": {"android": "https://dc.lft.to/lastmile_qr_scan", "ios": "https://dc.lft.to/lastmile_qr_scan"}, "name": "3767cd80d0b3a1a24209037434d36698", "is_reserved": 0}, {"is_disabled": 0, "fusion_lon": 0.0, "fusion_lat": 0.0, "lat": 38.9189735, "type": "electric_scooter", "lon": -77.03201066666666, "bike_id": "77297ae725dcd575a68eba9b1c58202a", "rental_uris": {"android": "https://dc.lft.to/lastmile_qr_scan", "ios": "https://dc.lft.to/lastmile_qr_scan"}, "name": "77297ae725dcd575a68eba9b1c58202a", "is_reserved": 0}, {"is_disabled": 0, "fusion_lon": 0.0, "fusion_lat": 0.0, "lat": 38.945437, "type": "electric_scooter", "lon": -77.02533033333333, "bike_id": "0d778adece4d1f04002a4f8d07c8aacd", "rental_uris": {"android": "https://dc.lft.to/lastmile_qr_scan", "ios": "https://dc.lft.to/lastmile_qr_scan"}, "name": "0d778adece4d1f04002a4f8d07c8aacd", "is_reserved": 0}, {"is_disabled": 0, "fusion_lon": 0.0, "fusion_lat": 0.0, "lat": 38.93466216666667, "type": "electric_scooter", "lon": -77.03054016666667, "bike_id": "be4038e3dbf706691755e2753a6756e8", "rental_uris": {"android": "https://dc.lft.to/lastmile_qr_scan", "ios": "https://dc.lft.to/lastmile_qr_scan"}, "name": "be4038e3dbf706691755e2753a6756e8", "is_reserved": 0}, {"is_disabled": 0, "fusion_lon": 0.0, "fusion_lat": 0.0, "lat": 38.918145833333334, "type": "electric_scooter", "lon": -77.03807683333334, "bike_id": "6706434126fe8598fb3bcf57425ea80e", "rental_uris": {"android": "https://dc.lft.to/lastmile_qr_scan", "ios": "https://dc.lft.to/lastmile_qr_scan"}, "name": "6706434126fe8598fb3bcf57425ea80e", "is_reserved": 0}, {"is_disabled": 0, "fusion_lon": 0.0, "fusion_lat": 0.0, "lat": 38.92901716666667, "type": "electric_scooter", "lon": -77.031707, "bike_id": "de5acd1c7a672ed18e6e7c206c882a30", "rental_uris": {"android": "https://dc.lft.to/lastmile_qr_scan", "ios": "https://dc.lft.to/lastmile_qr_scan"}, "name": "de5acd1c7a672ed18e6e7c206c882a30", "is_reserved": 0}, {"is_disabled": 0, "fusion_lon": 0.0, "fusion_lat": 0.0, "lat": 38.86697566666667, "type": "electric_scooter", "lon": -76.98712933333333, "bike_id": "29aa9f3592afe7ce1fe284db8d9b3eae", "rental_uris": {"android": "https://dc.lft.to/lastmile_qr_scan", "ios": "https://dc.lft.to/lastmile_qr_scan"}, "name": "29aa9f3592afe7ce1fe284db8d9b3eae", "is_reserved": 0}, {"is_disabled": 0, "fusion_lon": 0.0, "fusion_lat": 0.0, "lat": 38.952882, "type": "electric_scooter", "lon": -77.06879283333333, "bike_id": "beebf322d12c5404f3cd95078a306c9a", "rental_uris": {"android": "https://dc.lft.to/lastmile_qr_scan", "ios": "https://dc.lft.to/lastmile_qr_scan"}, "name": "beebf322d12c5404f3cd95078a306c9a", "is_reserved": 0}, {"is_disabled": 0, "fusion_lon": 0.0, "fusion_lat": 0.0, "lat": 38.9114325, "type": "electric_scooter", "lon": -77.02193516666667, "bike_id": "fab6153dcae6ae8ea0afaf152993db09", "rental_uris": {"android": "https://dc.lft.to/lastmile_qr_scan", "ios": "https://dc.lft.to/lastmile_qr_scan"}, "name": "fab6153dcae6ae8ea0afaf152993db09", "is_reserved": 0}, {"is_disabled": 0, "fusion_lon": 0.0, "fusion_lat": 0.0, "lat": 38.90521416666667, "type": "electric_scooter", "lon": -77.043485, "bike_id": "8e3e7f06a8898b256859c3b1e15528c6", "rental_uris": {"android": "https://dc.lft.to/lastmile_qr_scan", "ios": "https://dc.lft.to/lastmile_qr_scan"}, "name": "8e3e7f06a8898b256859c3b1e15528c6", "is_reserved": 0}, {"is_disabled": 0, "fusion_lon": 0.0, "fusion_lat": 0.0, "lat": 38.91683316666666, "type": "electric_scooter", "lon": -77.02945833333334, "bike_id": "68e31ef5177736b78b905231c7dfb10b", "rental_uris": {"android": "https://dc.lft.to/lastmile_qr_scan", "ios": "https://dc.lft.to/lastmile_qr_scan"}, "name": "68e31ef5177736b78b905231c7dfb10b", "is_reserved": 0}, {"is_disabled": 0, "fusion_lon": 0.0, "fusion_lat": 0.0, "lat": 38.89774333333333, "type": "electric_scooter", "lon": -77.02476216666666, "bike_id": "f0cf60a7baa18a68135d7c51671cb8df", "rental_uris": {"android": "https://dc.lft.to/lastmile_qr_scan", "ios": "https://dc.lft.to/lastmile_qr_scan"}, "name": "f0cf60a7baa18a68135d7c51671cb8df", "is_reserved": 0}, {"is_disabled": 0, "fusion_lon": 0.0, "fusion_lat": 0.0, "lat": 38.8945925, "type": "electric_scooter", "lon": -77.02200316666666, "bike_id": "b32f93b32695588e2020a68bb1ab059a", "rental_uris": {"android": "https://dc.lft.to/lastmile_qr_scan", "ios": "https://dc.lft.to/lastmile_qr_scan"}, "name": "b32f93b32695588e2020a68bb1ab059a", "is_reserved": 0}, {"is_disabled": 0, "fusion_lon": 0.0, "fusion_lat": 0.0, "lat": 38.925273833333335, "type": "electric_scooter", "lon": -77.07330466666667, "bike_id": "ae55df6bc34a0ac3ae73418202ad82d0", "rental_uris": {"android": "https://dc.lft.to/lastmile_qr_scan", "ios": "https://dc.lft.to/lastmile_qr_scan"}, "name": "ae55df6bc34a0ac3ae73418202ad82d0", "is_reserved": 0}, {"is_disabled": 0, "fusion_lon": 0.0, "fusion_lat": 0.0, "lat": 38.89714433333333, "type": "electric_scooter", "lon": -77.02146066666667, "bike_id": "96d1af7e35df6d554fc94f5a02448995", "rental_uris": {"android": "https://dc.lft.to/lastmile_qr_scan", "ios": "https://dc.lft.to/lastmile_qr_scan"}, "name": "96d1af7e35df6d554fc94f5a02448995", "is_reserved": 0}, {"is_disabled": 0, "fusion_lon": 0.0, "fusion_lat": 0.0, "lat": 38.8996585, "type": "electric_scooter", "lon": -77.01605966666666, "bike_id": "8a4316b02468d2f7a9d6c95f06e0a5e1", "rental_uris": {"android": "https://dc.lft.to/lastmile_qr_scan", "ios": "https://dc.lft.to/lastmile_qr_scan"}, "name": "8a4316b02468d2f7a9d6c95f06e0a5e1", "is_reserved": 0}, {"is_disabled": 0, "fusion_lon": 0.0, "fusion_lat": 0.0, "lat": 38.813319166666666, "type": "electric_bike", "lon": -77.05078216666666, "bike_id": "45c250e75e9c7914453a9c9111cea8fe", "rental_uris": {"android": "https://dc.lft.to/lastmile_qr_scan", "ios": "https://dc.lft.to/lastmile_qr_scan"}, "name": "45c250e75e9c7914453a9c9111cea8fe", "is_reserved": 0}, {"is_disabled": 0, "fusion_lon": 0.0, "fusion_lat": 0.0, "lat": 38.92027433333333, "type": "electric_scooter", "lon": -77.01290666666667, "bike_id": "242451c437c80c33938cadaa1cae7eca", "rental_uris": {"android": "https://dc.lft.to/lastmile_qr_scan", "ios": "https://dc.lft.to/lastmile_qr_scan"}, "name": "242451c437c80c33938cadaa1cae7eca", "is_reserved": 0}, {"is_disabled": 0, "fusion_lon": 0.0, "fusion_lat": 0.0, "lat": 38.9725855, "type": "electric_bike", "lon": -76.9916575, "bike_id": "bbc2cda6c6e6051503aa313d3c504a17", "rental_uris": {"android": "https://dc.lft.to/lastmile_qr_scan", "ios": "https://dc.lft.to/lastmile_qr_scan"}, "name": "bbc2cda6c6e6051503aa313d3c504a17", "is_reserved": 0}, {"is_disabled": 0, "fusion_lon": 0.0, "fusion_lat": 0.0, "lat": 38.89430633333333, "type": "electric_scooter", "lon": -77.010902, "bike_id": "272e3adeda067f292b2bebbf494312b3", "rental_uris": {"android": "https://dc.lft.to/lastmile_qr_scan", "ios": "https://dc.lft.to/lastmile_qr_scan"}, "name": "272e3adeda067f292b2bebbf494312b3", "is_reserved": 0}, {"is_disabled": 0, "fusion_lon": 0.0, "fusion_lat": 0.0, "lat": 38.92410116666667, "type": "electric_scooter", "lon": -77.04025766666666, "bike_id": "d6d11dba7d69d15b9dfb9bb52034359b", "rental_uris": {"android": "https://dc.lft.to/lastmile_qr_scan", "ios": "https://dc.lft.to/lastmile_qr_scan"}, "name": "d6d11dba7d69d15b9dfb9bb52034359b", "is_reserved": 0}, {"is_disabled": 0, "fusion_lon": 0.0, "fusion_lat": 0.0, "lat": 38.90011066666667, "type": "electric_scooter", "lon": -76.99968833333334, "bike_id": "5ce7eed0582000e47618f08992969bbc", "rental_uris": {"android": "https://dc.lft.to/lastmile_qr_scan", "ios": "https://dc.lft.to/lastmile_qr_scan"}, "name": "5ce7eed0582000e47618f08992969bbc", "is_reserved": 0}, {"is_disabled": 0, "fusion_lon": 0.0, "fusion_lat": 0.0, "lat": 38.913406333333334, "type": "electric_scooter", "lon": -77.0416905, "bike_id": "fde18e09315be3cc74a8a3202d82b251", "rental_uris": {"android": "https://dc.lft.to/lastmile_qr_scan", "ios": "https://dc.lft.to/lastmile_qr_scan"}, "name": "fde18e09315be3cc74a8a3202d82b251", "is_reserved": 0}, {"is_disabled": 0, "fusion_lon": 0.0, "fusion_lat": 0.0, "lat": 38.8393585, "type": "electric_bike", "lon": -77.079031, "bike_id": "63d453dad51cef8ac3aed505d3802bc3", "rental_uris": {"android": "https://dc.lft.to/lastmile_qr_scan", "ios": "https://dc.lft.to/lastmile_qr_scan"}, "name": "63d453dad51cef8ac3aed505d3802bc3", "is_reserved": 0}, {"is_disabled": 0, "fusion_lon": 0.0, "fusion_lat": 0.0, "lat": 38.8973115, "type": "electric_scooter", "lon": -77.01001283333333, "bike_id": "5fa7a9765ec15b0cd4a74b21eb887fa2", "rental_uris": {"android": "https://dc.lft.to/lastmile_qr_scan", "ios": "https://dc.lft.to/lastmile_qr_scan"}, "name": "5fa7a9765ec15b0cd4a74b21eb887fa2", "is_reserved": 0}, {"is_disabled": 0, "fusion_lon": 0.0, "fusion_lat": 0.0, "lat": 38.902956333333336, "type": "electric_bike", "lon": -77.0239395, "bike_id": "3efa854863faf47e36e61d3f721486ec", "rental_uris": {"android": "https://dc.lft.to/lastmile_qr_scan", "ios": "https://dc.lft.to/lastmile_qr_scan"}, "name": "3efa854863faf47e36e61d3f721486ec", "is_reserved": 0}, {"is_disabled": 0, "fusion_lon": 0.0, "fusion_lat": 0.0, "lat": 38.897300666666666, "type": "electric_scooter", "lon": -77.04901583333333, "bike_id": "565b419ca0fa78969770f14d045a3e9e", "rental_uris": {"android": "https://dc.lft.to/lastmile_qr_scan", "ios": "https://dc.lft.to/lastmile_qr_scan"}, "name": "565b419ca0fa78969770f14d045a3e9e", "is_reserved": 0}, {"is_disabled": 0, "fusion_lon": 0.0, "fusion_lat": 0.0, "lat": 38.89778183333333, "type": "electric_scooter", "lon": -77.02778983333333, "bike_id": "2295f963280ebd5ce109ad30c4427a41", "rental_uris": {"android": "https://dc.lft.to/lastmile_qr_scan", "ios": "https://dc.lft.to/lastmile_qr_scan"}, "name": "2295f963280ebd5ce109ad30c4427a41", "is_reserved": 0}, {"is_disabled": 0, "fusion_lon": 0.0, "fusion_lat": 0.0, "lat": 38.901849, "type": "electric_scooter", "lon": -77.05269583333333, "bike_id": "ba6a762ab17b91abc9b8c187287acff0", "rental_uris": {"android": "https://dc.lft.to/lastmile_qr_scan", "ios": "https://dc.lft.to/lastmile_qr_scan"}, "name": "ba6a762ab17b91abc9b8c187287acff0", "is_reserved": 0}, {"is_disabled": 0, "fusion_lon": 0.0, "fusion_lat": 0.0, "lat": 38.92580016666667, "type": "electric_scooter", "lon": -77.0322595, "bike_id": "e82a78168a849d19cbebe8aafa468461", "rental_uris": {"android": "https://dc.lft.to/lastmile_qr_scan", "ios": "https://dc.lft.to/lastmile_qr_scan"}, "name": "e82a78168a849d19cbebe8aafa468461", "is_reserved": 0}, {"is_disabled": 0, "fusion_lon": 0.0, "fusion_lat": 0.0, "lat": 38.915637, "type": "electric_scooter", "lon": -77.031702, "bike_id": "82a7be4a26e112f9bd64466a4b891007", "rental_uris": {"android": "https://dc.lft.to/lastmile_qr_scan", "ios": "https://dc.lft.to/lastmile_qr_scan"}, "name": "82a7be4a26e112f9bd64466a4b891007", "is_reserved": 0}, {"is_disabled": 0, "fusion_lon": 0.0, "fusion_lat": 0.0, "lat": 38.924555, "type": "electric_bike", "lon": -76.99949283333333, "bike_id": "ac8697f5f75e8015100457b5edafd6c3", "rental_uris": {"android": "https://dc.lft.to/lastmile_qr_scan", "ios": "https://dc.lft.to/lastmile_qr_scan"}, "name": "ac8697f5f75e8015100457b5edafd6c3", "is_reserved": 0}, {"is_disabled": 0, "fusion_lon": 0.0, "fusion_lat": 0.0, "lat": 38.89755266666667, "type": "electric_scooter", "lon": -77.05130283333334, "bike_id": "d35529844c924f1e03744abab71ad21a", "rental_uris": {"android": "https://dc.lft.to/lastmile_qr_scan", "ios": "https://dc.lft.to/lastmile_qr_scan"}, "name": "d35529844c924f1e03744abab71ad21a", "is_reserved": 0}, {"is_disabled": 0, "fusion_lon": 0.0, "fusion_lat": 0.0, "lat": 38.91049866666667, "type": "electric_scooter", "lon": -77.04246216666667, "bike_id": "11683b6800567667defdce6d1ebf7805", "rental_uris": {"android": "https://dc.lft.to/lastmile_qr_scan", "ios": "https://dc.lft.to/lastmile_qr_scan"}, "name": "11683b6800567667defdce6d1ebf7805", "is_reserved": 0}, {"is_disabled": 0, "fusion_lon": 0.0, "fusion_lat": 0.0, "lat": 38.895366, "type": "electric_scooter", "lon": -76.94919316666666, "bike_id": "32d0405ce9f4a3c46ffe78732eb0893a", "rental_uris": {"android": "https://dc.lft.to/lastmile_qr_scan", "ios": "https://dc.lft.to/lastmile_qr_scan"}, "name": "32d0405ce9f4a3c46ffe78732eb0893a", "is_reserved": 0}, {"is_disabled": 0, "fusion_lon": 0.0, "fusion_lat": 0.0, "lat": 38.936364833333336, "type": "electric_scooter", "lon": -77.02697983333333, "bike_id": "ba3bb6150f0d1b5948e4c70fa30683e9", "rental_uris": {"android": "https://dc.lft.to/lastmile_qr_scan", "ios": "https://dc.lft.to/lastmile_qr_scan"}, "name": "ba3bb6150f0d1b5948e4c70fa30683e9", "is_reserved": 0}, {"is_disabled": 0, "fusion_lon": 0.0, "fusion_lat": 0.0, "lat": 38.909716, "type": "electric_scooter", "lon": -77.03134683333333, "bike_id": "99cfec5a29d039344298019987b988b2", "rental_uris": {"android": "https://dc.lft.to/lastmile_qr_scan", "ios": "https://dc.lft.to/lastmile_qr_scan"}, "name": "99cfec5a29d039344298019987b988b2", "is_reserved": 0}, {"is_disabled": 0, "fusion_lon": 0.0, "fusion_lat": 0.0, "lat": 38.90848583333333, "type": "electric_scooter", "lon": -77.06084666666666, "bike_id": "2b16ed73af1b05062adf0c60786d8ff4", "rental_uris": {"android": "https://dc.lft.to/lastmile_qr_scan", "ios": "https://dc.lft.to/lastmile_qr_scan"}, "name": "2b16ed73af1b05062adf0c60786d8ff4", "is_reserved": 0}, {"is_disabled": 0, "fusion_lon": 0.0, "fusion_lat": 0.0, "lat": 38.913345666666665, "type": "electric_scooter", "lon": -77.03176833333333, "bike_id": "31f8e345e03e7a89c10ca29bb4d2ca98", "rental_uris": {"android": "https://dc.lft.to/lastmile_qr_scan", "ios": "https://dc.lft.to/lastmile_qr_scan"}, "name": "31f8e345e03e7a89c10ca29bb4d2ca98", "is_reserved": 0}, {"is_disabled": 0, "fusion_lon": 0.0, "fusion_lat": 0.0, "lat": 38.924655666666666, "type": "electric_scooter", "lon": -77.02711066666667, "bike_id": "4125023a028094ab06a38c07fbb89487", "rental_uris": {"android": "https://dc.lft.to/lastmile_qr_scan", "ios": "https://dc.lft.to/lastmile_qr_scan"}, "name": "4125023a028094ab06a38c07fbb89487", "is_reserved": 0}, {"is_disabled": 0, "fusion_lon": 0.0, "fusion_lat": 0.0, "lat": 38.894736, "type": "electric_scooter", "lon": -77.02116183333334, "bike_id": "798795dbdbe0507990c82b0307aa8f07", "rental_uris": {"android": "https://dc.lft.to/lastmile_qr_scan", "ios": "https://dc.lft.to/lastmile_qr_scan"}, "name": "798795dbdbe0507990c82b0307aa8f07", "is_reserved": 0}, {"is_disabled": 0, "fusion_lon": 0.0, "fusion_lat": 0.0, "lat": 38.93862166666667, "type": "electric_scooter", "lon": -77.02648416666666, "bike_id": "fe777754b3b2476ae828b9b8c57ea215", "rental_uris": {"android": "https://dc.lft.to/lastmile_qr_scan", "ios": "https://dc.lft.to/lastmile_qr_scan"}, "name": "fe777754b3b2476ae828b9b8c57ea215", "is_reserved": 0}, {"is_disabled": 0, "fusion_lon": 0.0, "fusion_lat": 0.0, "lat": 38.82464366666667, "type": "electric_bike", "lon": -77.0707955, "bike_id": "cae480aad6a2599ad4e7040c6f810824", "rental_uris": {"android": "https://dc.lft.to/lastmile_qr_scan", "ios": "https://dc.lft.to/lastmile_qr_scan"}, "name": "cae480aad6a2599ad4e7040c6f810824", "is_reserved": 0}, {"is_disabled": 0, "fusion_lon": 0.0, "fusion_lat": 0.0, "lat": 38.92595, "type": "electric_bike", "lon": -76.88902983333334, "bike_id": "ec7844c50da8bcc8aa9aa9a20c11908f", "rental_uris": {"android": "https://dc.lft.to/lastmile_qr_scan", "ios": "https://dc.lft.to/lastmile_qr_scan"}, "name": "ec7844c50da8bcc8aa9aa9a20c11908f", "is_reserved": 0}, {"is_disabled": 0, "fusion_lon": 0.0, "fusion_lat": 0.0, "lat": 38.908557, "type": "electric_scooter", "lon": -77.07157333333333, "bike_id": "ad4b24596c1c785dc811e0544e9ca622", "rental_uris": {"android": "https://dc.lft.to/lastmile_qr_scan", "ios": "https://dc.lft.to/lastmile_qr_scan"}, "name": "ad4b24596c1c785dc811e0544e9ca622", "is_reserved": 0}, {"is_disabled": 0, "fusion_lon": 0.0, "fusion_lat": 0.0, "lat": 38.87287083333333, "type": "electric_scooter", "lon": -76.9773065, "bike_id": "02d05936b8ce66bceae44bbff5903bd7", "rental_uris": {"android": "https://dc.lft.to/lastmile_qr_scan", "ios": "https://dc.lft.to/lastmile_qr_scan"}, "name": "02d05936b8ce66bceae44bbff5903bd7", "is_reserved": 0}, {"is_disabled": 0, "fusion_lon": 0.0, "fusion_lat": 0.0, "lat": 38.91410716666667, "type": "electric_scooter", "lon": -77.03092616666666, "bike_id": "529e3388471e9ed9526e3981a0c34dac", "rental_uris": {"android": "https://dc.lft.to/lastmile_qr_scan", "ios": "https://dc.lft.to/lastmile_qr_scan"}, "name": "529e3388471e9ed9526e3981a0c34dac", "is_reserved": 0}, {"is_disabled": 0, "fusion_lon": 0.0, "fusion_lat": 0.0, "lat": 38.92057116666667, "type": "electric_scooter", "lon": -77.04265033333333, "bike_id": "aaa6b4483c0a7d008954a920a548e1bd", "rental_uris": {"android": "https://dc.lft.to/lastmile_qr_scan", "ios": "https://dc.lft.to/lastmile_qr_scan"}, "name": "aaa6b4483c0a7d008954a920a548e1bd", "is_reserved": 0}, {"is_disabled": 0, "fusion_lon": 0.0, "fusion_lat": 0.0, "lat": 38.89235433333333, "type": "electric_bike", "lon": -76.95221016666666, "bike_id": "54804b2843449fa3865a38796fbc2a8e", "rental_uris": {"android": "https://dc.lft.to/lastmile_qr_scan", "ios": "https://dc.lft.to/lastmile_qr_scan"}, "name": "54804b2843449fa3865a38796fbc2a8e", "is_reserved": 0}, {"is_disabled": 0, "fusion_lon": 0.0, "fusion_lat": 0.0, "lat": 38.8874255, "type": "electric_scooter", "lon": -77.01538483333333, "bike_id": "7f5be0ff06787b31899518b4b88a05e8", "rental_uris": {"android": "https://dc.lft.to/lastmile_qr_scan", "ios": "https://dc.lft.to/lastmile_qr_scan"}, "name": "7f5be0ff06787b31899518b4b88a05e8", "is_reserved": 0}, {"is_disabled": 0, "fusion_lon": 0.0, "fusion_lat": 0.0, "lat": 38.88744283333333, "type": "electric_scooter", "lon": -77.017338, "bike_id": "9d5923338f9a2e5910d45f4ec7e3fc6d", "rental_uris": {"android": "https://dc.lft.to/lastmile_qr_scan", "ios": "https://dc.lft.to/lastmile_qr_scan"}, "name": "9d5923338f9a2e5910d45f4ec7e3fc6d", "is_reserved": 0}, {"is_disabled": 0, "fusion_lon": 0.0, "fusion_lat": 0.0, "lat": 38.92475916666667, "type": "electric_bike", "lon": -77.03749466666666, "bike_id": "01af0d85468b17501ae5f307a3f8cc14", "rental_uris": {"android": "https://dc.lft.to/lastmile_qr_scan", "ios": "https://dc.lft.to/lastmile_qr_scan"}, "name": "01af0d85468b17501ae5f307a3f8cc14", "is_reserved": 0}, {"is_disabled": 0, "fusion_lon": 0.0, "fusion_lat": 0.0, "lat": 38.921102166666664, "type": "electric_scooter", "lon": -77.03184733333333, "bike_id": "0524eb949bea66691e413f41b087e290", "rental_uris": {"android": "https://dc.lft.to/lastmile_qr_scan", "ios": "https://dc.lft.to/lastmile_qr_scan"}, "name": "0524eb949bea66691e413f41b087e290", "is_reserved": 0}, {"is_disabled": 0, "fusion_lon": 0.0, "fusion_lat": 0.0, "lat": 38.922016166666666, "type": "electric_scooter", "lon": -77.04251666666667, "bike_id": "75bd3459123049893c5aa52ff2dd9b4d", "rental_uris": {"android": "https://dc.lft.to/lastmile_qr_scan", "ios": "https://dc.lft.to/lastmile_qr_scan"}, "name": "75bd3459123049893c5aa52ff2dd9b4d", "is_reserved": 0}, {"is_disabled": 0, "fusion_lon": 0.0, "fusion_lat": 0.0, "lat": 38.9073125, "type": "electric_scooter", "lon": -77.02251233333334, "bike_id": "e413b9588f5b09b2abf43b8564dd2fb0", "rental_uris": {"android": "https://dc.lft.to/lastmile_qr_scan", "ios": "https://dc.lft.to/lastmile_qr_scan"}, "name": "e413b9588f5b09b2abf43b8564dd2fb0", "is_reserved": 0}, {"is_disabled": 0, "fusion_lon": 0.0, "fusion_lat": 0.0, "lat": 38.90372166666667, "type": "electric_scooter", "lon": -77.059265, "bike_id": "e6cf7840bed52a8adadcdf70e6624212", "rental_uris": {"android": "https://dc.lft.to/lastmile_qr_scan", "ios": "https://dc.lft.to/lastmile_qr_scan"}, "name": "e6cf7840bed52a8adadcdf70e6624212", "is_reserved": 0}, {"is_disabled": 0, "fusion_lon": 0.0, "fusion_lat": 0.0, "lat": 38.95184033333334, "type": "electric_scooter", "lon": -77.02770716666667, "bike_id": "0f533532f8ee9a21e1d260487ab27356", "rental_uris": {"android": "https://dc.lft.to/lastmile_qr_scan", "ios": "https://dc.lft.to/lastmile_qr_scan"}, "name": "0f533532f8ee9a21e1d260487ab27356", "is_reserved": 0}, {"is_disabled": 0, "fusion_lon": 0.0, "fusion_lat": 0.0, "lat": 38.91705366666667, "type": "electric_scooter", "lon": -77.02795933333333, "bike_id": "0759e9541f40bdf9de2d6540371b71f0", "rental_uris": {"android": "https://dc.lft.to/lastmile_qr_scan", "ios": "https://dc.lft.to/lastmile_qr_scan"}, "name": "0759e9541f40bdf9de2d6540371b71f0", "is_reserved": 0}, {"is_disabled": 0, "fusion_lon": 0.0, "fusion_lat": 0.0, "lat": 38.874773166666664, "type": "electric_scooter", "lon": -77.02092683333333, "bike_id": "dd0059ac3e6300bea1a19ab9513cd10c", "rental_uris": {"android": "https://dc.lft.to/lastmile_qr_scan", "ios": "https://dc.lft.to/lastmile_qr_scan"}, "name": "dd0059ac3e6300bea1a19ab9513cd10c", "is_reserved": 0}, {"is_disabled": 0, "fusion_lon": 0.0, "fusion_lat": 0.0, "lat": 38.902736833333336, "type": "electric_scooter", "lon": -77.0217285, "bike_id": "eeb1b5663d5d8cc68cb5afeaef8e7168", "rental_uris": {"android": "https://dc.lft.to/lastmile_qr_scan", "ios": "https://dc.lft.to/lastmile_qr_scan"}, "name": "eeb1b5663d5d8cc68cb5afeaef8e7168", "is_reserved": 0}, {"is_disabled": 0, "fusion_lon": 0.0, "fusion_lat": 0.0, "lat": 38.905182333333336, "type": "electric_scooter", "lon": -77.05128683333334, "bike_id": "1f164af63eade53b66c0f3fb79b207a6", "rental_uris": {"android": "https://dc.lft.to/lastmile_qr_scan", "ios": "https://dc.lft.to/lastmile_qr_scan"}, "name": "1f164af63eade53b66c0f3fb79b207a6", "is_reserved": 0}, {"is_disabled": 0, "fusion_lon": 0.0, "fusion_lat": 0.0, "lat": 38.907701333333335, "type": "electric_scooter", "lon": -77.032751, "bike_id": "d4ec5b14d8ccc59fca3c71ba95726841", "rental_uris": {"android": "https://dc.lft.to/lastmile_qr_scan", "ios": "https://dc.lft.to/lastmile_qr_scan"}, "name": "d4ec5b14d8ccc59fca3c71ba95726841", "is_reserved": 0}, {"is_disabled": 0, "fusion_lon": 0.0, "fusion_lat": 0.0, "lat": 38.957254, "type": "electric_scooter", "lon": -77.03099666666667, "bike_id": "2f25bd5de4937f6af9c76b8cd7d5406f", "rental_uris": {"android": "https://dc.lft.to/lastmile_qr_scan", "ios": "https://dc.lft.to/lastmile_qr_scan"}, "name": "2f25bd5de4937f6af9c76b8cd7d5406f", "is_reserved": 0}, {"is_disabled": 0, "fusion_lon": 0.0, "fusion_lat": 0.0, "lat": 38.899057, "type": "electric_scooter", "lon": -77.01641316666667, "bike_id": "884349f375d7b0d9b18abf7f17745fd3", "rental_uris": {"android": "https://dc.lft.to/lastmile_qr_scan", "ios": "https://dc.lft.to/lastmile_qr_scan"}, "name": "884349f375d7b0d9b18abf7f17745fd3", "is_reserved": 0}, {"is_disabled": 0, "fusion_lon": 0.0, "fusion_lat": 0.0, "lat": 38.91403916666667, "type": "electric_scooter", "lon": -77.03222933333333, "bike_id": "52cbdfe53b1ea1c2de921ff6a7796ebd", "rental_uris": {"android": "https://dc.lft.to/lastmile_qr_scan", "ios": "https://dc.lft.to/lastmile_qr_scan"}, "name": "52cbdfe53b1ea1c2de921ff6a7796ebd", "is_reserved": 0}, {"is_disabled": 0, "fusion_lon": 0.0, "fusion_lat": 0.0, "lat": 38.88822166666667, "type": "electric_bike", "lon": -77.12736233333334, "bike_id": "1639d8a44db0e2a08545137a088d1c1c", "rental_uris": {"android": "https://dc.lft.to/lastmile_qr_scan", "ios": "https://dc.lft.to/lastmile_qr_scan"}, "name": "1639d8a44db0e2a08545137a088d1c1c", "is_reserved": 0}, {"is_disabled": 0, "fusion_lon": 0.0, "fusion_lat": 0.0, "lat": 38.91569766666667, "type": "electric_scooter", "lon": -77.03943266666667, "bike_id": "dc2f811e69f8e02393c515141575e3da", "rental_uris": {"android": "https://dc.lft.to/lastmile_qr_scan", "ios": "https://dc.lft.to/lastmile_qr_scan"}, "name": "dc2f811e69f8e02393c515141575e3da", "is_reserved": 0}, {"is_disabled": 0, "fusion_lon": 0.0, "fusion_lat": 0.0, "lat": 38.97571883333333, "type": "electric_bike", "lon": -76.96405483333334, "bike_id": "73cab1cebe61d92c96ab8a4d13b2d587", "rental_uris": {"android": "https://dc.lft.to/lastmile_qr_scan", "ios": "https://dc.lft.to/lastmile_qr_scan"}, "name": "73cab1cebe61d92c96ab8a4d13b2d587", "is_reserved": 0}, {"is_disabled": 0, "fusion_lon": 0.0, "fusion_lat": 0.0, "lat": 38.9054055, "type": "electric_scooter", "lon": -77.0580765, "bike_id": "3f91748c3834270cfa62c61a0a40a1da", "rental_uris": {"android": "https://dc.lft.to/lastmile_qr_scan", "ios": "https://dc.lft.to/lastmile_qr_scan"}, "name": "3f91748c3834270cfa62c61a0a40a1da", "is_reserved": 0}, {"is_disabled": 0, "fusion_lon": 0.0, "fusion_lat": 0.0, "lat": 38.889674666666664, "type": "electric_bike", "lon": -76.94860783333333, "bike_id": "ae84d0d8efcbb24884e68ab5f06f841a", "rental_uris": {"android": "https://dc.lft.to/lastmile_qr_scan", "ios": "https://dc.lft.to/lastmile_qr_scan"}, "name": "ae84d0d8efcbb24884e68ab5f06f841a", "is_reserved": 0}, {"is_disabled": 0, "fusion_lon": 0.0, "fusion_lat": 0.0, "lat": 38.9909135, "type": "electric_bike", "lon": -76.874945, "bike_id": "a228057761a6fed927cfbb27a13314f5", "rental_uris": {"android": "https://dc.lft.to/lastmile_qr_scan", "ios": "https://dc.lft.to/lastmile_qr_scan"}, "name": "a228057761a6fed927cfbb27a13314f5", "is_reserved": 0}, {"is_disabled": 0, "fusion_lon": 0.0, "fusion_lat": 0.0, "lat": 38.916777833333335, "type": "electric_scooter", "lon": -77.023305, "bike_id": "b633473c6dfc1388d5d2aeec47eb6656", "rental_uris": {"android": "https://dc.lft.to/lastmile_qr_scan", "ios": "https://dc.lft.to/lastmile_qr_scan"}, "name": "b633473c6dfc1388d5d2aeec47eb6656", "is_reserved": 0}, {"is_disabled": 0, "fusion_lon": 0.0, "fusion_lat": 0.0, "lat": 38.908693, "type": "electric_scooter", "lon": -77.032226, "bike_id": "549e0f112c6a4abe21f7ee074bfae6b7", "rental_uris": {"android": "https://dc.lft.to/lastmile_qr_scan", "ios": "https://dc.lft.to/lastmile_qr_scan"}, "name": "549e0f112c6a4abe21f7ee074bfae6b7", "is_reserved": 0}, {"is_disabled": 0, "fusion_lon": 0.0, "fusion_lat": 0.0, "lat": 38.928514166666666, "type": "electric_scooter", "lon": -77.0361335, "bike_id": "32f3f9e88f2bf0c01d630046db116513", "rental_uris": {"android": "https://dc.lft.to/lastmile_qr_scan", "ios": "https://dc.lft.to/lastmile_qr_scan"}, "name": "32f3f9e88f2bf0c01d630046db116513", "is_reserved": 0}, {"is_disabled": 0, "fusion_lon": 0.0, "fusion_lat": 0.0, "lat": 38.919209333333335, "type": "electric_scooter", "lon": -77.03186833333334, "bike_id": "a5aab0def29dfb2d042b878a623bfdfc", "rental_uris": {"android": "https://dc.lft.to/lastmile_qr_scan", "ios": "https://dc.lft.to/lastmile_qr_scan"}, "name": "a5aab0def29dfb2d042b878a623bfdfc", "is_reserved": 0}, {"is_disabled": 0, "fusion_lon": 0.0, "fusion_lat": 0.0, "lat": 38.92033333333333, "type": "electric_scooter", "lon": -77.02583316666667, "bike_id": "85e4475ba8e02bd657f19ca4815d0245", "rental_uris": {"android": "https://dc.lft.to/lastmile_qr_scan", "ios": "https://dc.lft.to/lastmile_qr_scan"}, "name": "85e4475ba8e02bd657f19ca4815d0245", "is_reserved": 0}, {"is_disabled": 0, "fusion_lon": 0.0, "fusion_lat": 0.0, "lat": 38.92604983333333, "type": "electric_scooter", "lon": -77.02152016666666, "bike_id": "5b4a643ab808e09fd1ee9eb1bdf16cc9", "rental_uris": {"android": "https://dc.lft.to/lastmile_qr_scan", "ios": "https://dc.lft.to/lastmile_qr_scan"}, "name": "5b4a643ab808e09fd1ee9eb1bdf16cc9", "is_reserved": 0}, {"is_disabled": 0, "fusion_lon": 0.0, "fusion_lat": 0.0, "lat": 38.8591845, "type": "electric_scooter", "lon": -76.98785566666666, "bike_id": "ee3400949d4f0da20fdfd74e2752a08b", "rental_uris": {"android": "https://dc.lft.to/lastmile_qr_scan", "ios": "https://dc.lft.to/lastmile_qr_scan"}, "name": "ee3400949d4f0da20fdfd74e2752a08b", "is_reserved": 0}, {"is_disabled": 0, "fusion_lon": 0.0, "fusion_lat": 0.0, "lat": 38.87234766666667, "type": "electric_scooter", "lon": -77.00578766666666, "bike_id": "4b8575f3e1e1ea1605d9251a665d8c09", "rental_uris": {"android": "https://dc.lft.to/lastmile_qr_scan", "ios": "https://dc.lft.to/lastmile_qr_scan"}, "name": "4b8575f3e1e1ea1605d9251a665d8c09", "is_reserved": 0}, {"is_disabled": 0, "fusion_lon": 0.0, "fusion_lat": 0.0, "lat": 38.915495166666666, "type": "electric_scooter", "lon": -77.04156983333333, "bike_id": "90c11832436baf39587234dbbe4e5d90", "rental_uris": {"android": "https://dc.lft.to/lastmile_qr_scan", "ios": "https://dc.lft.to/lastmile_qr_scan"}, "name": "90c11832436baf39587234dbbe4e5d90", "is_reserved": 0}, {"is_disabled": 0, "fusion_lon": 0.0, "fusion_lat": 0.0, "lat": 38.92976733333333, "type": "electric_scooter", "lon": -77.03468483333333, "bike_id": "4a3f6a82297c112b0119ed68c584eeb7", "rental_uris": {"android": "https://dc.lft.to/lastmile_qr_scan", "ios": "https://dc.lft.to/lastmile_qr_scan"}, "name": "4a3f6a82297c112b0119ed68c584eeb7", "is_reserved": 0}, {"is_disabled": 0, "fusion_lon": 0.0, "fusion_lat": 0.0, "lat": 38.928324333333336, "type": "electric_scooter", "lon": -77.01414316666667, "bike_id": "181a22dcb4518d7c67446ffb30adf81e", "rental_uris": {"android": "https://dc.lft.to/lastmile_qr_scan", "ios": "https://dc.lft.to/lastmile_qr_scan"}, "name": "181a22dcb4518d7c67446ffb30adf81e", "is_reserved": 0}, {"is_disabled": 0, "fusion_lon": 0.0, "fusion_lat": 0.0, "lat": 38.911166333333334, "type": "electric_scooter", "lon": -77.04725933333333, "bike_id": "56a5c682c4c3dc5e109456857284c89b", "rental_uris": {"android": "https://dc.lft.to/lastmile_qr_scan", "ios": "https://dc.lft.to/lastmile_qr_scan"}, "name": "56a5c682c4c3dc5e109456857284c89b", "is_reserved": 0}, {"is_disabled": 0, "fusion_lon": 0.0, "fusion_lat": 0.0, "lat": 38.903121666666664, "type": "electric_scooter", "lon": -77.028824, "bike_id": "2c6507aab8c818378ef0cef7e2d374e9", "rental_uris": {"android": "https://dc.lft.to/lastmile_qr_scan", "ios": "https://dc.lft.to/lastmile_qr_scan"}, "name": "2c6507aab8c818378ef0cef7e2d374e9", "is_reserved": 0}, {"is_disabled": 0, "fusion_lon": 0.0, "fusion_lat": 0.0, "lat": 38.904468666666666, "type": "electric_scooter", "lon": -77.06110333333334, "bike_id": "0cd830169d996d1669a4292516b034bd", "rental_uris": {"android": "https://dc.lft.to/lastmile_qr_scan", "ios": "https://dc.lft.to/lastmile_qr_scan"}, "name": "0cd830169d996d1669a4292516b034bd", "is_reserved": 0}, {"is_disabled": 0, "fusion_lon": 0.0, "fusion_lat": 0.0, "lat": 38.901872, "type": "electric_scooter", "lon": -77.05900483333333, "bike_id": "64426e9d134ada98d0770eee3bdb5600", "rental_uris": {"android": "https://dc.lft.to/lastmile_qr_scan", "ios": "https://dc.lft.to/lastmile_qr_scan"}, "name": "64426e9d134ada98d0770eee3bdb5600", "is_reserved": 0}, {"is_disabled": 0, "fusion_lon": 0.0, "fusion_lat": 0.0, "lat": 38.96557633333333, "type": "electric_bike", "lon": -77.02296516666667, "bike_id": "5c67c1da6a7881ea0bb952d025d14e75", "rental_uris": {"android": "https://dc.lft.to/lastmile_qr_scan", "ios": "https://dc.lft.to/lastmile_qr_scan"}, "name": "5c67c1da6a7881ea0bb952d025d14e75", "is_reserved": 0}, {"is_disabled": 0, "fusion_lon": 0.0, "fusion_lat": 0.0, "lat": 38.89405983333333, "type": "electric_scooter", "lon": -77.02151766666667, "bike_id": "995997e5825b0066aa994f5f9e11010d", "rental_uris": {"android": "https://dc.lft.to/lastmile_qr_scan", "ios": "https://dc.lft.to/lastmile_qr_scan"}, "name": "995997e5825b0066aa994f5f9e11010d", "is_reserved": 0}, {"is_disabled": 0, "fusion_lon": 0.0, "fusion_lat": 0.0, "lat": 38.923707666666665, "type": "electric_scooter", "lon": -77.05031166666667, "bike_id": "71dc07557e60349535d5b334e78c90c7", "rental_uris": {"android": "https://dc.lft.to/lastmile_qr_scan", "ios": "https://dc.lft.to/lastmile_qr_scan"}, "name": "71dc07557e60349535d5b334e78c90c7", "is_reserved": 0}, {"is_disabled": 0, "fusion_lon": 0.0, "fusion_lat": 0.0, "lat": 38.903868333333335, "type": "electric_bike", "lon": -77.05393433333333, "bike_id": "9584d212fe2e9140aa5e3f5b4f2a1495", "rental_uris": {"android": "https://dc.lft.to/lastmile_qr_scan", "ios": "https://dc.lft.to/lastmile_qr_scan"}, "name": "9584d212fe2e9140aa5e3f5b4f2a1495", "is_reserved": 0}, {"is_disabled": 0, "fusion_lon": 0.0, "fusion_lat": 0.0, "lat": 38.90192583333334, "type": "electric_scooter", "lon": -77.05012066666667, "bike_id": "58a76c34b5134dc5c197c0c39e232d6a", "rental_uris": {"android": "https://dc.lft.to/lastmile_qr_scan", "ios": "https://dc.lft.to/lastmile_qr_scan"}, "name": "58a76c34b5134dc5c197c0c39e232d6a", "is_reserved": 0}, {"is_disabled": 0, "fusion_lon": 0.0, "fusion_lat": 0.0, "lat": 38.923055, "type": "electric_scooter", "lon": -77.03106233333334, "bike_id": "6630f2c199037cf137ae4a3f6b957eb0", "rental_uris": {"android": "https://dc.lft.to/lastmile_qr_scan", "ios": "https://dc.lft.to/lastmile_qr_scan"}, "name": "6630f2c199037cf137ae4a3f6b957eb0", "is_reserved": 0}, {"is_disabled": 0, "fusion_lon": 0.0, "fusion_lat": 0.0, "lat": 38.92265583333333, "type": "electric_scooter", "lon": -77.029616, "bike_id": "e92dfd55d7897dee5f54e20e206d06ab", "rental_uris": {"android": "https://dc.lft.to/lastmile_qr_scan", "ios": "https://dc.lft.to/lastmile_qr_scan"}, "name": "e92dfd55d7897dee5f54e20e206d06ab", "is_reserved": 0}, {"is_disabled": 0, "fusion_lon": 0.0, "fusion_lat": 0.0, "lat": 38.944449, "type": "electric_scooter", "lon": -77.061722, "bike_id": "3b193ebd37df318724eed6665a00134a", "rental_uris": {"android": "https://dc.lft.to/lastmile_qr_scan", "ios": "https://dc.lft.to/lastmile_qr_scan"}, "name": "3b193ebd37df318724eed6665a00134a", "is_reserved": 0}, {"is_disabled": 0, "fusion_lon": 0.0, "fusion_lat": 0.0, "lat": 38.902834166666665, "type": "electric_scooter", "lon": -77.0241545, "bike_id": "e2077b1f4315997c752628f60df83363", "rental_uris": {"android": "https://dc.lft.to/lastmile_qr_scan", "ios": "https://dc.lft.to/lastmile_qr_scan"}, "name": "e2077b1f4315997c752628f60df83363", "is_reserved": 0}, {"is_disabled": 0, "fusion_lon": 0.0, "fusion_lat": 0.0, "lat": 38.918473666666664, "type": "electric_scooter", "lon": -77.02450216666666, "bike_id": "1386616837c88c11f08587288e903736", "rental_uris": {"android": "https://dc.lft.to/lastmile_qr_scan", "ios": "https://dc.lft.to/lastmile_qr_scan"}, "name": "1386616837c88c11f08587288e903736", "is_reserved": 0}, {"is_disabled": 0, "fusion_lon": 0.0, "fusion_lat": 0.0, "lat": 38.920426666666664, "type": "electric_scooter", "lon": -77.0339935, "bike_id": "9f5fcaffe6e8a3d454729ef5c3ea5f77", "rental_uris": {"android": "https://dc.lft.to/lastmile_qr_scan", "ios": "https://dc.lft.to/lastmile_qr_scan"}, "name": "9f5fcaffe6e8a3d454729ef5c3ea5f77", "is_reserved": 0}, {"is_disabled": 0, "fusion_lon": 0.0, "fusion_lat": 0.0, "lat": 38.914046166666665, "type": "electric_scooter", "lon": -77.03261866666666, "bike_id": "f7050a16c64b89828a9fecdaec9860f8", "rental_uris": {"android": "https://dc.lft.to/lastmile_qr_scan", "ios": "https://dc.lft.to/lastmile_qr_scan"}, "name": "f7050a16c64b89828a9fecdaec9860f8", "is_reserved": 0}, {"is_disabled": 0, "fusion_lon": 0.0, "fusion_lat": 0.0, "lat": 38.9008565, "type": "electric_scooter", "lon": -77.047915, "bike_id": "383cf34721658ca092205de0f8e01281", "rental_uris": {"android": "https://dc.lft.to/lastmile_qr_scan", "ios": "https://dc.lft.to/lastmile_qr_scan"}, "name": "383cf34721658ca092205de0f8e01281", "is_reserved": 0}, {"is_disabled": 0, "fusion_lon": 0.0, "fusion_lat": 0.0, "lat": 38.90264366666667, "type": "electric_scooter", "lon": -77.02724133333334, "bike_id": "054f0304c3c621639b066e7d210f4980", "rental_uris": {"android": "https://dc.lft.to/lastmile_qr_scan", "ios": "https://dc.lft.to/lastmile_qr_scan"}, "name": "054f0304c3c621639b066e7d210f4980", "is_reserved": 0}, {"is_disabled": 0, "fusion_lon": 0.0, "fusion_lat": 0.0, "lat": 38.929783666666665, "type": "electric_scooter", "lon": -77.03259666666666, "bike_id": "33cd880ab3c84c96cb0aa52ccbf00467", "rental_uris": {"android": "https://dc.lft.to/lastmile_qr_scan", "ios": "https://dc.lft.to/lastmile_qr_scan"}, "name": "33cd880ab3c84c96cb0aa52ccbf00467", "is_reserved": 0}, {"is_disabled": 0, "fusion_lon": 0.0, "fusion_lat": 0.0, "lat": 38.83380616666667, "type": "electric_scooter", "lon": -76.99284416666667, "bike_id": "f81355d47a2df490c6a73c30a915b8d8", "rental_uris": {"android": "https://dc.lft.to/lastmile_qr_scan", "ios": "https://dc.lft.to/lastmile_qr_scan"}, "name": "f81355d47a2df490c6a73c30a915b8d8", "is_reserved": 0}, {"is_disabled": 0, "fusion_lon": 0.0, "fusion_lat": 0.0, "lat": 38.92601033333333, "type": "electric_scooter", "lon": -77.0241375, "bike_id": "7d6b6ecaeee1c326a50dd77f704e90b9", "rental_uris": {"android": "https://dc.lft.to/lastmile_qr_scan", "ios": "https://dc.lft.to/lastmile_qr_scan"}, "name": "7d6b6ecaeee1c326a50dd77f704e90b9", "is_reserved": 0}, {"is_disabled": 0, "fusion_lon": 0.0, "fusion_lat": 0.0, "lat": 38.91905083333333, "type": "electric_scooter", "lon": -77.0176365, "bike_id": "2fd1ecc13f3244e6a1b8204c83525e85", "rental_uris": {"android": "https://dc.lft.to/lastmile_qr_scan", "ios": "https://dc.lft.to/lastmile_qr_scan"}, "name": "2fd1ecc13f3244e6a1b8204c83525e85", "is_reserved": 0}, {"is_disabled": 0, "fusion_lon": 0.0, "fusion_lat": 0.0, "lat": 38.9009345, "type": "electric_scooter", "lon": -76.988414, "bike_id": "bfbe9f7440424eb73199939de1c55905", "rental_uris": {"android": "https://dc.lft.to/lastmile_qr_scan", "ios": "https://dc.lft.to/lastmile_qr_scan"}, "name": "bfbe9f7440424eb73199939de1c55905", "is_reserved": 0}, {"is_disabled": 0, "fusion_lon": 0.0, "fusion_lat": 0.0, "lat": 38.927619666666665, "type": "electric_scooter", "lon": -77.0290595, "bike_id": "37142ed3ffc6e3f36dddc92a7148b1ed", "rental_uris": {"android": "https://dc.lft.to/lastmile_qr_scan", "ios": "https://dc.lft.to/lastmile_qr_scan"}, "name": "37142ed3ffc6e3f36dddc92a7148b1ed", "is_reserved": 0}, {"is_disabled": 0, "fusion_lon": 0.0, "fusion_lat": 0.0, "lat": 38.92464616666667, "type": "electric_scooter", "lon": -77.02709683333333, "bike_id": "271c09f253c7a03bbebc6f6d44f24c75", "rental_uris": {"android": "https://dc.lft.to/lastmile_qr_scan", "ios": "https://dc.lft.to/lastmile_qr_scan"}, "name": "271c09f253c7a03bbebc6f6d44f24c75", "is_reserved": 0}, {"is_disabled": 0, "fusion_lon": 0.0, "fusion_lat": 0.0, "lat": 38.926104333333335, "type": "electric_scooter", "lon": -77.021603, "bike_id": "fd662aed9987a0474d54ad6da9fd8973", "rental_uris": {"android": "https://dc.lft.to/lastmile_qr_scan", "ios": "https://dc.lft.to/lastmile_qr_scan"}, "name": "fd662aed9987a0474d54ad6da9fd8973", "is_reserved": 0}, {"is_disabled": 0, "fusion_lon": 0.0, "fusion_lat": 0.0, "lat": 38.8953105, "type": "electric_scooter", "lon": -77.04844816666666, "bike_id": "44ef8c229810860187035439d47a286b", "rental_uris": {"android": "https://dc.lft.to/lastmile_qr_scan", "ios": "https://dc.lft.to/lastmile_qr_scan"}, "name": "44ef8c229810860187035439d47a286b", "is_reserved": 0}, {"is_disabled": 0, "fusion_lon": 0.0, "fusion_lat": 0.0, "lat": 38.9247745, "type": "electric_scooter", "lon": -77.07301716666667, "bike_id": "27662519b2510a967a9b9c79e627a309", "rental_uris": {"android": "https://dc.lft.to/lastmile_qr_scan", "ios": "https://dc.lft.to/lastmile_qr_scan"}, "name": "27662519b2510a967a9b9c79e627a309", "is_reserved": 0}, {"is_disabled": 0, "fusion_lon": 0.0, "fusion_lat": 0.0, "lat": 38.91601683333333, "type": "electric_scooter", "lon": -77.023933, "bike_id": "1f8cae2035ab5d2f40365aaf21c89d3f", "rental_uris": {"android": "https://dc.lft.to/lastmile_qr_scan", "ios": "https://dc.lft.to/lastmile_qr_scan"}, "name": "1f8cae2035ab5d2f40365aaf21c89d3f", "is_reserved": 0}, {"is_disabled": 0, "fusion_lon": 0.0, "fusion_lat": 0.0, "lat": 38.92482433333333, "type": "electric_scooter", "lon": -77.03175533333334, "bike_id": "6bfe07fd734a4f9753d491908f743912", "rental_uris": {"android": "https://dc.lft.to/lastmile_qr_scan", "ios": "https://dc.lft.to/lastmile_qr_scan"}, "name": "6bfe07fd734a4f9753d491908f743912", "is_reserved": 0}, {"is_disabled": 0, "fusion_lon": 0.0, "fusion_lat": 0.0, "lat": 38.8775665, "type": "electric_bike", "lon": -76.97993866666667, "bike_id": "065d3aff86d647e45b9da96fa52a0712", "rental_uris": {"android": "https://dc.lft.to/lastmile_qr_scan", "ios": "https://dc.lft.to/lastmile_qr_scan"}, "name": "065d3aff86d647e45b9da96fa52a0712", "is_reserved": 0}, {"is_disabled": 0, "fusion_lon": 0.0, "fusion_lat": 0.0, "lat": 38.90353733333333, "type": "electric_scooter", "lon": -77.0590795, "bike_id": "722b2de9310928be9c43a5eb314ccd31", "rental_uris": {"android": "https://dc.lft.to/lastmile_qr_scan", "ios": "https://dc.lft.to/lastmile_qr_scan"}, "name": "722b2de9310928be9c43a5eb314ccd31", "is_reserved": 0}, {"is_disabled": 0, "fusion_lon": 0.0, "fusion_lat": 0.0, "lat": 38.934798, "type": "electric_scooter", "lon": -77.072591, "bike_id": "df57b301485099b211ae10a779c66bfc", "rental_uris": {"android": "https://dc.lft.to/lastmile_qr_scan", "ios": "https://dc.lft.to/lastmile_qr_scan"}, "name": "df57b301485099b211ae10a779c66bfc", "is_reserved": 0}, {"is_disabled": 0, "fusion_lon": 0.0, "fusion_lat": 0.0, "lat": 38.919669166666665, "type": "electric_scooter", "lon": -77.04126616666667, "bike_id": "19246426fe89a006d7ed9e9a09e8e9a0", "rental_uris": {"android": "https://dc.lft.to/lastmile_qr_scan", "ios": "https://dc.lft.to/lastmile_qr_scan"}, "name": "19246426fe89a006d7ed9e9a09e8e9a0", "is_reserved": 0}, {"is_disabled": 0, "fusion_lon": 0.0, "fusion_lat": 0.0, "lat": 38.93961866666667, "type": "electric_bike", "lon": -77.360942, "bike_id": "86220f9e7ea9d8a920308ebc4babd30f", "rental_uris": {"android": "https://dc.lft.to/lastmile_qr_scan", "ios": "https://dc.lft.to/lastmile_qr_scan"}, "name": "86220f9e7ea9d8a920308ebc4babd30f", "is_reserved": 0}, {"is_disabled": 0, "fusion_lon": 0.0, "fusion_lat": 0.0, "lat": 38.9228025, "type": "electric_scooter", "lon": -77.04470366666666, "bike_id": "d780d8d018ac6e2c2055619ac4ec0762", "rental_uris": {"android": "https://dc.lft.to/lastmile_qr_scan", "ios": "https://dc.lft.to/lastmile_qr_scan"}, "name": "d780d8d018ac6e2c2055619ac4ec0762", "is_reserved": 0}, {"is_disabled": 0, "fusion_lon": 0.0, "fusion_lat": 0.0, "lat": 38.92557716666666, "type": "electric_scooter", "lon": -77.03764633333333, "bike_id": "54e752353baf274dcd90211b00434d40", "rental_uris": {"android": "https://dc.lft.to/lastmile_qr_scan", "ios": "https://dc.lft.to/lastmile_qr_scan"}, "name": "54e752353baf274dcd90211b00434d40", "is_reserved": 0}, {"is_disabled": 0, "fusion_lon": 0.0, "fusion_lat": 0.0, "lat": 38.896198166666665, "type": "electric_scooter", "lon": -76.95634666666666, "bike_id": "e2a8dc22412953b50f7f7414e719f822", "rental_uris": {"android": "https://dc.lft.to/lastmile_qr_scan", "ios": "https://dc.lft.to/lastmile_qr_scan"}, "name": "e2a8dc22412953b50f7f7414e719f822", "is_reserved": 0}, {"is_disabled": 0, "fusion_lon": 0.0, "fusion_lat": 0.0, "lat": 38.91878416666667, "type": "electric_scooter", "lon": -77.01591433333333, "bike_id": "2e0aaf625fcca5ada9fcd42a0f9bd5ae", "rental_uris": {"android": "https://dc.lft.to/lastmile_qr_scan", "ios": "https://dc.lft.to/lastmile_qr_scan"}, "name": "2e0aaf625fcca5ada9fcd42a0f9bd5ae", "is_reserved": 0}, {"is_disabled": 0, "fusion_lon": 0.0, "fusion_lat": 0.0, "lat": 38.90247266666667, "type": "electric_scooter", "lon": -77.0220585, "bike_id": "2b9caaea4c92c28c705ad6860fef2a88", "rental_uris": {"android": "https://dc.lft.to/lastmile_qr_scan", "ios": "https://dc.lft.to/lastmile_qr_scan"}, "name": "2b9caaea4c92c28c705ad6860fef2a88", "is_reserved": 0}, {"is_disabled": 0, "fusion_lon": 0.0, "fusion_lat": 0.0, "lat": 38.9215645, "type": "electric_scooter", "lon": -77.04296566666666, "bike_id": "24869ad3a8dc10ae1a4208c5b129384c", "rental_uris": {"android": "https://dc.lft.to/lastmile_qr_scan", "ios": "https://dc.lft.to/lastmile_qr_scan"}, "name": "24869ad3a8dc10ae1a4208c5b129384c", "is_reserved": 0}, {"is_disabled": 0, "fusion_lon": 0.0, "fusion_lat": 0.0, "lat": 38.91027483333333, "type": "electric_scooter", "lon": -77.00758033333334, "bike_id": "d48622900b99952188a019e461082e62", "rental_uris": {"android": "https://dc.lft.to/lastmile_qr_scan", "ios": "https://dc.lft.to/lastmile_qr_scan"}, "name": "d48622900b99952188a019e461082e62", "is_reserved": 0}, {"is_disabled": 0, "fusion_lon": 0.0, "fusion_lat": 0.0, "lat": 38.931887333333336, "type": "electric_bike", "lon": -77.2293545, "bike_id": "2633acb26d74bce6f64af32b72aa98f0", "rental_uris": {"android": "https://dc.lft.to/lastmile_qr_scan", "ios": "https://dc.lft.to/lastmile_qr_scan"}, "name": "2633acb26d74bce6f64af32b72aa98f0", "is_reserved": 0}, {"is_disabled": 0, "fusion_lon": 0.0, "fusion_lat": 0.0, "lat": 38.992549333333336, "type": "electric_bike", "lon": -77.049956, "bike_id": "e1c31afd76b502b40ed4eb031dd3622b", "rental_uris": {"android": "https://dc.lft.to/lastmile_qr_scan", "ios": "https://dc.lft.to/lastmile_qr_scan"}, "name": "e1c31afd76b502b40ed4eb031dd3622b", "is_reserved": 0}, {"is_disabled": 0, "fusion_lon": 0.0, "fusion_lat": 0.0, "lat": 38.89676883333333, "type": "electric_scooter", "lon": -77.02694716666667, "bike_id": "9857dc93be24895fc523e5c62da5d8ab", "rental_uris": {"android": "https://dc.lft.to/lastmile_qr_scan", "ios": "https://dc.lft.to/lastmile_qr_scan"}, "name": "9857dc93be24895fc523e5c62da5d8ab", "is_reserved": 0}, {"is_disabled": 0, "fusion_lon": 0.0, "fusion_lat": 0.0, "lat": 38.88374683333333, "type": "electric_scooter", "lon": -76.92648783333334, "bike_id": "bee07c2fbd83ed8980f5f0c0b833d02e", "rental_uris": {"android": "https://dc.lft.to/lastmile_qr_scan", "ios": "https://dc.lft.to/lastmile_qr_scan"}, "name": "bee07c2fbd83ed8980f5f0c0b833d02e", "is_reserved": 0}, {"is_disabled": 0, "fusion_lon": 0.0, "fusion_lat": 0.0, "lat": 38.95990616666667, "type": "electric_bike", "lon": -76.998683, "bike_id": "6ce9d3b98cfba5501b14de163ec4fab7", "rental_uris": {"android": "https://dc.lft.to/lastmile_qr_scan", "ios": "https://dc.lft.to/lastmile_qr_scan"}, "name": "6ce9d3b98cfba5501b14de163ec4fab7", "is_reserved": 0}, {"is_disabled": 0, "fusion_lon": 0.0, "fusion_lat": 0.0, "lat": 38.950813833333335, "type": "electric_scooter", "lon": -77.02876583333334, "bike_id": "7517627be7e6ba9240db51e840673acb", "rental_uris": {"android": "https://dc.lft.to/lastmile_qr_scan", "ios": "https://dc.lft.to/lastmile_qr_scan"}, "name": "7517627be7e6ba9240db51e840673acb", "is_reserved": 0}, {"is_disabled": 0, "fusion_lon": 0.0, "fusion_lat": 0.0, "lat": 38.913502, "type": "electric_scooter", "lon": -77.039741, "bike_id": "b1ff1d91ab979592664b43086e443609", "rental_uris": {"android": "https://dc.lft.to/lastmile_qr_scan", "ios": "https://dc.lft.to/lastmile_qr_scan"}, "name": "b1ff1d91ab979592664b43086e443609", "is_reserved": 0}, {"is_disabled": 0, "fusion_lon": 0.0, "fusion_lat": 0.0, "lat": 38.90512316666667, "type": "electric_scooter", "lon": -77.04819716666667, "bike_id": "e9defda77f715d40122d136184d18de1", "rental_uris": {"android": "https://dc.lft.to/lastmile_qr_scan", "ios": "https://dc.lft.to/lastmile_qr_scan"}, "name": "e9defda77f715d40122d136184d18de1", "is_reserved": 0}, {"is_disabled": 0, "fusion_lon": 0.0, "fusion_lat": 0.0, "lat": 39.00656883333333, "type": "electric_bike", "lon": -76.90028833333334, "bike_id": "15e90a77f55a89e32a28b863bbd44bef", "rental_uris": {"android": "https://dc.lft.to/lastmile_qr_scan", "ios": "https://dc.lft.to/lastmile_qr_scan"}, "name": "15e90a77f55a89e32a28b863bbd44bef", "is_reserved": 0}, {"is_disabled": 0, "fusion_lon": 0.0, "fusion_lat": 0.0, "lat": 38.916023333333335, "type": "electric_scooter", "lon": -77.02354616666666, "bike_id": "0308e8c40b41ee382955f2114e518336", "rental_uris": {"android": "https://dc.lft.to/lastmile_qr_scan", "ios": "https://dc.lft.to/lastmile_qr_scan"}, "name": "0308e8c40b41ee382955f2114e518336", "is_reserved": 0}, {"is_disabled": 0, "fusion_lon": 0.0, "fusion_lat": 0.0, "lat": 38.858729833333335, "type": "electric_scooter", "lon": -76.99026516666666, "bike_id": "b2e9e910682a7c619061a172de91ee86", "rental_uris": {"android": "https://dc.lft.to/lastmile_qr_scan", "ios": "https://dc.lft.to/lastmile_qr_scan"}, "name": "b2e9e910682a7c619061a172de91ee86", "is_reserved": 0}, {"is_disabled": 0, "fusion_lon": 0.0, "fusion_lat": 0.0, "lat": 38.863427333333334, "type": "electric_scooter", "lon": -76.98267833333334, "bike_id": "aca0c8dd5c45bb47ddf340f1386d8fc4", "rental_uris": {"android": "https://dc.lft.to/lastmile_qr_scan", "ios": "https://dc.lft.to/lastmile_qr_scan"}, "name": "aca0c8dd5c45bb47ddf340f1386d8fc4", "is_reserved": 0}, {"is_disabled": 0, "fusion_lon": 0.0, "fusion_lat": 0.0, "lat": 38.936642166666665, "type": "electric_scooter", "lon": -77.0325935, "bike_id": "85ef824a264549c5a31be40919ac8916", "rental_uris": {"android": "https://dc.lft.to/lastmile_qr_scan", "ios": "https://dc.lft.to/lastmile_qr_scan"}, "name": "85ef824a264549c5a31be40919ac8916", "is_reserved": 0}, {"is_disabled": 0, "fusion_lon": 0.0, "fusion_lat": 0.0, "lat": 38.920350166666665, "type": "electric_scooter", "lon": -77.02585633333334, "bike_id": "9c7e7bd9b124ef738f9cf75ca60cf3ba", "rental_uris": {"android": "https://dc.lft.to/lastmile_qr_scan", "ios": "https://dc.lft.to/lastmile_qr_scan"}, "name": "9c7e7bd9b124ef738f9cf75ca60cf3ba", "is_reserved": 0}, {"is_disabled": 0, "fusion_lon": 0.0, "fusion_lat": 0.0, "lat": 38.88207833333333, "type": "electric_scooter", "lon": -76.92710016666666, "bike_id": "c94c52c460b3835a93fdb2f4eaa1f68f", "rental_uris": {"android": "https://dc.lft.to/lastmile_qr_scan", "ios": "https://dc.lft.to/lastmile_qr_scan"}, "name": "c94c52c460b3835a93fdb2f4eaa1f68f", "is_reserved": 0}, {"is_disabled": 0, "fusion_lon": 0.0, "fusion_lat": 0.0, "lat": 38.909720666666665, "type": "electric_scooter", "lon": -77.02391983333334, "bike_id": "e033785194934758a4d9dadbc0a9b63d", "rental_uris": {"android": "https://dc.lft.to/lastmile_qr_scan", "ios": "https://dc.lft.to/lastmile_qr_scan"}, "name": "e033785194934758a4d9dadbc0a9b63d", "is_reserved": 0}, {"is_disabled": 0, "fusion_lon": 0.0, "fusion_lat": 0.0, "lat": 38.874817, "type": "electric_scooter", "lon": -77.00109133333333, "bike_id": "e08e2948f79a3c66c99c2818ff9ee218", "rental_uris": {"android": "https://dc.lft.to/lastmile_qr_scan", "ios": "https://dc.lft.to/lastmile_qr_scan"}, "name": "e08e2948f79a3c66c99c2818ff9ee218", "is_reserved": 0}, {"is_disabled": 0, "fusion_lon": 0.0, "fusion_lat": 0.0, "lat": 38.88418983333333, "type": "electric_scooter", "lon": -76.9540655, "bike_id": "b3f3cc8219619405db0654046cf3a908", "rental_uris": {"android": "https://dc.lft.to/lastmile_qr_scan", "ios": "https://dc.lft.to/lastmile_qr_scan"}, "name": "b3f3cc8219619405db0654046cf3a908", "is_reserved": 0}, {"is_disabled": 0, "fusion_lon": 0.0, "fusion_lat": 0.0, "lat": 38.887337333333335, "type": "electric_scooter", "lon": -77.032154, "bike_id": "aed4e00eb43d8631ce54be916e1e8969", "rental_uris": {"android": "https://dc.lft.to/lastmile_qr_scan", "ios": "https://dc.lft.to/lastmile_qr_scan"}, "name": "aed4e00eb43d8631ce54be916e1e8969", "is_reserved": 0}, {"is_disabled": 0, "fusion_lon": 0.0, "fusion_lat": 0.0, "lat": 39.088417166666666, "type": "electric_bike", "lon": -77.178024, "bike_id": "e793105337fb6ea5c8255307e32e18fd", "rental_uris": {"android": "https://dc.lft.to/lastmile_qr_scan", "ios": "https://dc.lft.to/lastmile_qr_scan"}, "name": "e793105337fb6ea5c8255307e32e18fd", "is_reserved": 0}, {"is_disabled": 0, "fusion_lon": 0.0, "fusion_lat": 0.0, "lat": 38.8765835, "type": "electric_scooter", "lon": -77.009057, "bike_id": "80120f89d7ccbd2c0814741289001201", "rental_uris": {"android": "https://dc.lft.to/lastmile_qr_scan", "ios": "https://dc.lft.to/lastmile_qr_scan"}, "name": "80120f89d7ccbd2c0814741289001201", "is_reserved": 0}, {"is_disabled": 0, "fusion_lon": 0.0, "fusion_lat": 0.0, "lat": 38.93089666666667, "type": "electric_scooter", "lon": -77.0726875, "bike_id": "bbbdd196279aaa6dfc9bf4d69ca77612", "rental_uris": {"android": "https://dc.lft.to/lastmile_qr_scan", "ios": "https://dc.lft.to/lastmile_qr_scan"}, "name": "bbbdd196279aaa6dfc9bf4d69ca77612", "is_reserved": 0}, {"is_disabled": 0, "fusion_lon": 0.0, "fusion_lat": 0.0, "lat": 38.9000605, "type": "electric_scooter", "lon": -76.99608133333334, "bike_id": "85551b833f3dd1de0304cf6c105bb32b", "rental_uris": {"android": "https://dc.lft.to/lastmile_qr_scan", "ios": "https://dc.lft.to/lastmile_qr_scan"}, "name": "85551b833f3dd1de0304cf6c105bb32b", "is_reserved": 0}, {"is_disabled": 0, "fusion_lon": 0.0, "fusion_lat": 0.0, "lat": 38.91491716666667, "type": "electric_scooter", "lon": -77.03456183333333, "bike_id": "02af3a8f7d8b663c70593eb16d0fc979", "rental_uris": {"android": "https://dc.lft.to/lastmile_qr_scan", "ios": "https://dc.lft.to/lastmile_qr_scan"}, "name": "02af3a8f7d8b663c70593eb16d0fc979", "is_reserved": 0}, {"is_disabled": 0, "fusion_lon": 0.0, "fusion_lat": 0.0, "lat": 38.90323433333333, "type": "electric_scooter", "lon": -77.0220155, "bike_id": "4eb35f1cc3aa4e0e888209b7039c8223", "rental_uris": {"android": "https://dc.lft.to/lastmile_qr_scan", "ios": "https://dc.lft.to/lastmile_qr_scan"}, "name": "4eb35f1cc3aa4e0e888209b7039c8223", "is_reserved": 0}, {"is_disabled": 0, "fusion_lon": 0.0, "fusion_lat": 0.0, "lat": 38.905447833333334, "type": "electric_scooter", "lon": -77.05696916666666, "bike_id": "0abd75709b6cecb3b5c4ce10a0ac0344", "rental_uris": {"android": "https://dc.lft.to/lastmile_qr_scan", "ios": "https://dc.lft.to/lastmile_qr_scan"}, "name": "0abd75709b6cecb3b5c4ce10a0ac0344", "is_reserved": 0}, {"is_disabled": 0, "fusion_lon": 0.0, "fusion_lat": 0.0, "lat": 38.924150166666664, "type": "electric_scooter", "lon": -77.03553633333334, "bike_id": "e3249336b3ada07929450b507088d5b6", "rental_uris": {"android": "https://dc.lft.to/lastmile_qr_scan", "ios": "https://dc.lft.to/lastmile_qr_scan"}, "name": "e3249336b3ada07929450b507088d5b6", "is_reserved": 0}, {"is_disabled": 0, "fusion_lon": 0.0, "fusion_lat": 0.0, "lat": 38.91704, "type": "electric_scooter", "lon": -77.03469633333333, "bike_id": "0c491fca0b682b79d34ec94910be04ab", "rental_uris": {"android": "https://dc.lft.to/lastmile_qr_scan", "ios": "https://dc.lft.to/lastmile_qr_scan"}, "name": "0c491fca0b682b79d34ec94910be04ab", "is_reserved": 0}, {"is_disabled": 0, "fusion_lon": 0.0, "fusion_lat": 0.0, "lat": 38.91714116666667, "type": "electric_scooter", "lon": -77.026037, "bike_id": "43f47d6f15faa185ef4d983fb8a56877", "rental_uris": {"android": "https://dc.lft.to/lastmile_qr_scan", "ios": "https://dc.lft.to/lastmile_qr_scan"}, "name": "43f47d6f15faa185ef4d983fb8a56877", "is_reserved": 0}, {"is_disabled": 0, "fusion_lon": 0.0, "fusion_lat": 0.0, "lat": 38.88986633333333, "type": "electric_scooter", "lon": -77.002511, "bike_id": "5201e1bb425a8cbcfdf765afa1b06442", "rental_uris": {"android": "https://dc.lft.to/lastmile_qr_scan", "ios": "https://dc.lft.to/lastmile_qr_scan"}, "name": "5201e1bb425a8cbcfdf765afa1b06442", "is_reserved": 0}, {"is_disabled": 0, "fusion_lon": 0.0, "fusion_lat": 0.0, "lat": 38.91108466666667, "type": "electric_scooter", "lon": -77.0384085, "bike_id": "3eeab8c94d2f4bcddbf9e70c6441ee62", "rental_uris": {"android": "https://dc.lft.to/lastmile_qr_scan", "ios": "https://dc.lft.to/lastmile_qr_scan"}, "name": "3eeab8c94d2f4bcddbf9e70c6441ee62", "is_reserved": 0}, {"is_disabled": 0, "fusion_lon": 0.0, "fusion_lat": 0.0, "lat": 38.9194555, "type": "electric_scooter", "lon": -77.04502766666667, "bike_id": "984fa8ff1ec24c4a30d7448f13fc9c7f", "rental_uris": {"android": "https://dc.lft.to/lastmile_qr_scan", "ios": "https://dc.lft.to/lastmile_qr_scan"}, "name": "984fa8ff1ec24c4a30d7448f13fc9c7f", "is_reserved": 0}, {"is_disabled": 0, "fusion_lon": 0.0, "fusion_lat": 0.0, "lat": 39.02686166666667, "type": "electric_bike", "lon": -77.12596666666667, "bike_id": "5282da457ba80a52c6f3454e1ee0dfe0", "rental_uris": {"android": "https://dc.lft.to/lastmile_qr_scan", "ios": "https://dc.lft.to/lastmile_qr_scan"}, "name": "5282da457ba80a52c6f3454e1ee0dfe0", "is_reserved": 0}, {"is_disabled": 0, "fusion_lon": 0.0, "fusion_lat": 0.0, "lat": 38.885009, "type": "electric_scooter", "lon": -77.00322683333333, "bike_id": "3b2d2a7bb867ce208040daea494fd763", "rental_uris": {"android": "https://dc.lft.to/lastmile_qr_scan", "ios": "https://dc.lft.to/lastmile_qr_scan"}, "name": "3b2d2a7bb867ce208040daea494fd763", "is_reserved": 0}, {"is_disabled": 0, "fusion_lon": 0.0, "fusion_lat": 0.0, "lat": 38.906375, "type": "electric_scooter", "lon": -76.98568283333333, "bike_id": "e35d9f0238896c0ff4a14be3ac411497", "rental_uris": {"android": "https://dc.lft.to/lastmile_qr_scan", "ios": "https://dc.lft.to/lastmile_qr_scan"}, "name": "e35d9f0238896c0ff4a14be3ac411497", "is_reserved": 0}, {"is_disabled": 0, "fusion_lon": 0.0, "fusion_lat": 0.0, "lat": 38.90514866666667, "type": "electric_bike", "lon": -76.98123733333334, "bike_id": "f63d0237cc93edd54a52ee6c0d58c7e9", "rental_uris": {"android": "https://dc.lft.to/lastmile_qr_scan", "ios": "https://dc.lft.to/lastmile_qr_scan"}, "name": "f63d0237cc93edd54a52ee6c0d58c7e9", "is_reserved": 0}, {"is_disabled": 0, "fusion_lon": 0.0, "fusion_lat": 0.0, "lat": 38.917190166666664, "type": "electric_scooter", "lon": -77.09818233333333, "bike_id": "e910aa7a8a066eed0fd60d7c989088d7", "rental_uris": {"android": "https://dc.lft.to/lastmile_qr_scan", "ios": "https://dc.lft.to/lastmile_qr_scan"}, "name": "e910aa7a8a066eed0fd60d7c989088d7", "is_reserved": 0}, {"is_disabled": 0, "fusion_lon": 0.0, "fusion_lat": 0.0, "lat": 38.92602333333333, "type": "electric_scooter", "lon": -77.0215345, "bike_id": "b91e73ebb84240c0be9ba07d80e02eea", "rental_uris": {"android": "https://dc.lft.to/lastmile_qr_scan", "ios": "https://dc.lft.to/lastmile_qr_scan"}, "name": "b91e73ebb84240c0be9ba07d80e02eea", "is_reserved": 0}, {"is_disabled": 0, "fusion_lon": 0.0, "fusion_lat": 0.0, "lat": 38.91878116666667, "type": "electric_scooter", "lon": -77.02476666666666, "bike_id": "6cb446e1c4d0f0eecd0dfc1f143b4855", "rental_uris": {"android": "https://dc.lft.to/lastmile_qr_scan", "ios": "https://dc.lft.to/lastmile_qr_scan"}, "name": "6cb446e1c4d0f0eecd0dfc1f143b4855", "is_reserved": 0}, {"is_disabled": 0, "fusion_lon": 0.0, "fusion_lat": 0.0, "lat": 38.9102875, "type": "electric_scooter", "lon": -77.0075975, "bike_id": "868b0ad67a391c0f86928c19967af2ee", "rental_uris": {"android": "https://dc.lft.to/lastmile_qr_scan", "ios": "https://dc.lft.to/lastmile_qr_scan"}, "name": "868b0ad67a391c0f86928c19967af2ee", "is_reserved": 0}, {"is_disabled": 0, "fusion_lon": 0.0, "fusion_lat": 0.0, "lat": 38.93173766666666, "type": "electric_scooter", "lon": -77.072563, "bike_id": "94d1cffcbc617980c44d23a89f67ba90", "rental_uris": {"android": "https://dc.lft.to/lastmile_qr_scan", "ios": "https://dc.lft.to/lastmile_qr_scan"}, "name": "94d1cffcbc617980c44d23a89f67ba90", "is_reserved": 0}, {"is_disabled": 0, "fusion_lon": 0.0, "fusion_lat": 0.0, "lat": 38.90313366666667, "type": "electric_scooter", "lon": -76.9824775, "bike_id": "19639b49e6a7fc32ab6fa43bb1879729", "rental_uris": {"android": "https://dc.lft.to/lastmile_qr_scan", "ios": "https://dc.lft.to/lastmile_qr_scan"}, "name": "19639b49e6a7fc32ab6fa43bb1879729", "is_reserved": 0}, {"is_disabled": 0, "fusion_lon": 0.0, "fusion_lat": 0.0, "lat": 38.89885733333333, "type": "electric_scooter", "lon": -77.052978, "bike_id": "5fee9a30c9f624aa74fb4f523e2fe4d4", "rental_uris": {"android": "https://dc.lft.to/lastmile_qr_scan", "ios": "https://dc.lft.to/lastmile_qr_scan"}, "name": "5fee9a30c9f624aa74fb4f523e2fe4d4", "is_reserved": 0}, {"is_disabled": 0, "fusion_lon": 0.0, "fusion_lat": 0.0, "lat": 38.8984245, "type": "electric_scooter", "lon": -76.94634066666667, "bike_id": "fec99c861cbf4a1081aa36342392b303", "rental_uris": {"android": "https://dc.lft.to/lastmile_qr_scan", "ios": "https://dc.lft.to/lastmile_qr_scan"}, "name": "fec99c861cbf4a1081aa36342392b303", "is_reserved": 0}, {"is_disabled": 0, "fusion_lon": 0.0, "fusion_lat": 0.0, "lat": 38.926018166666665, "type": "electric_scooter", "lon": -77.023491, "bike_id": "683b9ea0ffbef9a98f2b34d155359272", "rental_uris": {"android": "https://dc.lft.to/lastmile_qr_scan", "ios": "https://dc.lft.to/lastmile_qr_scan"}, "name": "683b9ea0ffbef9a98f2b34d155359272", "is_reserved": 0}, {"is_disabled": 0, "fusion_lon": 0.0, "fusion_lat": 0.0, "lat": 38.852086666666665, "type": "electric_bike", "lon": -77.10126633333333, "bike_id": "29232984c21677bcec81cf93b7b9edaa", "rental_uris": {"android": "https://dc.lft.to/lastmile_qr_scan", "ios": "https://dc.lft.to/lastmile_qr_scan"}, "name": "29232984c21677bcec81cf93b7b9edaa", "is_reserved": 0}, {"is_disabled": 0, "fusion_lon": 0.0, "fusion_lat": 0.0, "lat": 38.896138666666666, "type": "electric_scooter", "lon": -77.00912883333334, "bike_id": "d8bc6c91ba05cbd188ead6c196e10964", "rental_uris": {"android": "https://dc.lft.to/lastmile_qr_scan", "ios": "https://dc.lft.to/lastmile_qr_scan"}, "name": "d8bc6c91ba05cbd188ead6c196e10964", "is_reserved": 0}, {"is_disabled": 0, "fusion_lon": 0.0, "fusion_lat": 0.0, "lat": 38.92532283333333, "type": "electric_bike", "lon": -77.0323325, "bike_id": "dfb1036c2339750e42f2bcb1f4f9978c", "rental_uris": {"android": "https://dc.lft.to/lastmile_qr_scan", "ios": "https://dc.lft.to/lastmile_qr_scan"}, "name": "dfb1036c2339750e42f2bcb1f4f9978c", "is_reserved": 0}, {"is_disabled": 0, "fusion_lon": 0.0, "fusion_lat": 0.0, "lat": 38.946350833333334, "type": "electric_scooter", "lon": -77.01932833333333, "bike_id": "2cd53ec29b2521b93e4652a5f3ff1118", "rental_uris": {"android": "https://dc.lft.to/lastmile_qr_scan", "ios": "https://dc.lft.to/lastmile_qr_scan"}, "name": "2cd53ec29b2521b93e4652a5f3ff1118", "is_reserved": 0}, {"is_disabled": 0, "fusion_lon": 0.0, "fusion_lat": 0.0, "lat": 38.927542833333334, "type": "electric_scooter", "lon": -77.00597783333333, "bike_id": "8e0c1e605f0136ecf6452ce603971455", "rental_uris": {"android": "https://dc.lft.to/lastmile_qr_scan", "ios": "https://dc.lft.to/lastmile_qr_scan"}, "name": "8e0c1e605f0136ecf6452ce603971455", "is_reserved": 0}, {"is_disabled": 0, "fusion_lon": 0.0, "fusion_lat": 0.0, "lat": 38.907627833333336, "type": "electric_scooter", "lon": -77.0628235, "bike_id": "850a85f493cf9bb12912df0d1c88cbc7", "rental_uris": {"android": "https://dc.lft.to/lastmile_qr_scan", "ios": "https://dc.lft.to/lastmile_qr_scan"}, "name": "850a85f493cf9bb12912df0d1c88cbc7", "is_reserved": 0}, {"is_disabled": 0, "fusion_lon": 0.0, "fusion_lat": 0.0, "lat": 38.8552665, "type": "electric_bike", "lon": -77.10737883333333, "bike_id": "efbc99db196f8220d43e8f8db642565c", "rental_uris": {"android": "https://dc.lft.to/lastmile_qr_scan", "ios": "https://dc.lft.to/lastmile_qr_scan"}, "name": "efbc99db196f8220d43e8f8db642565c", "is_reserved": 0}, {"is_disabled": 0, "fusion_lon": 0.0, "fusion_lat": 0.0, "lat": 38.99934916666667, "type": "electric_bike", "lon": -77.0011915, "bike_id": "6b7f600e903ea944205d64729dd649ee", "rental_uris": {"android": "https://dc.lft.to/lastmile_qr_scan", "ios": "https://dc.lft.to/lastmile_qr_scan"}, "name": "6b7f600e903ea944205d64729dd649ee", "is_reserved": 0}, {"is_disabled": 0, "fusion_lon": 0.0, "fusion_lat": 0.0, "lat": 38.90031166666667, "type": "electric_scooter", "lon": -77.002149, "bike_id": "a3341403ff89b0fad13211dbf8c0e3de", "rental_uris": {"android": "https://dc.lft.to/lastmile_qr_scan", "ios": "https://dc.lft.to/lastmile_qr_scan"}, "name": "a3341403ff89b0fad13211dbf8c0e3de", "is_reserved": 0}, {"is_disabled": 0, "fusion_lon": 0.0, "fusion_lat": 0.0, "lat": 38.89502433333333, "type": "electric_scooter", "lon": -76.948818, "bike_id": "38a613703dd5a007972c61a7d7d1afc7", "rental_uris": {"android": "https://dc.lft.to/lastmile_qr_scan", "ios": "https://dc.lft.to/lastmile_qr_scan"}, "name": "38a613703dd5a007972c61a7d7d1afc7", "is_reserved": 0}, {"is_disabled": 0, "fusion_lon": 0.0, "fusion_lat": 0.0, "lat": 38.863520666666666, "type": "electric_scooter", "lon": -76.99070383333333, "bike_id": "6200bf4cb3435f357b9845416fe4ac7a", "rental_uris": {"android": "https://dc.lft.to/lastmile_qr_scan", "ios": "https://dc.lft.to/lastmile_qr_scan"}, "name": "6200bf4cb3435f357b9845416fe4ac7a", "is_reserved": 0}, {"is_disabled": 0, "fusion_lon": 0.0, "fusion_lat": 0.0, "lat": 38.9125945, "type": "electric_scooter", "lon": -77.03213083333333, "bike_id": "9c0c66ee1d9af71c7912d7b1ebba2316", "rental_uris": {"android": "https://dc.lft.to/lastmile_qr_scan", "ios": "https://dc.lft.to/lastmile_qr_scan"}, "name": "9c0c66ee1d9af71c7912d7b1ebba2316", "is_reserved": 0}, {"is_disabled": 0, "fusion_lon": 0.0, "fusion_lat": 0.0, "lat": 38.919351666666664, "type": "electric_scooter", "lon": -77.08130683333333, "bike_id": "34be592bb472aa5ec418a34dc5ec7128", "rental_uris": {"android": "https://dc.lft.to/lastmile_qr_scan", "ios": "https://dc.lft.to/lastmile_qr_scan"}, "name": "34be592bb472aa5ec418a34dc5ec7128", "is_reserved": 0}, {"is_disabled": 0, "fusion_lon": 0.0, "fusion_lat": 0.0, "lat": 38.900392333333336, "type": "electric_scooter", "lon": -76.99256816666667, "bike_id": "810c5c045a99c0907c52642102b74fbe", "rental_uris": {"android": "https://dc.lft.to/lastmile_qr_scan", "ios": "https://dc.lft.to/lastmile_qr_scan"}, "name": "810c5c045a99c0907c52642102b74fbe", "is_reserved": 0}, {"is_disabled": 0, "fusion_lon": 0.0, "fusion_lat": 0.0, "lat": 38.9222275, "type": "electric_scooter", "lon": -77.042479, "bike_id": "a328820404cd1d09e8ed30221de16a21", "rental_uris": {"android": "https://dc.lft.to/lastmile_qr_scan", "ios": "https://dc.lft.to/lastmile_qr_scan"}, "name": "a328820404cd1d09e8ed30221de16a21", "is_reserved": 0}, {"is_disabled": 0, "fusion_lon": 0.0, "fusion_lat": 0.0, "lat": 39.09583966666667, "type": "electric_bike", "lon": -77.14771683333333, "bike_id": "8cea0ed8f698d19edcc9b40ecee9df2d", "rental_uris": {"android": "https://dc.lft.to/lastmile_qr_scan", "ios": "https://dc.lft.to/lastmile_qr_scan"}, "name": "8cea0ed8f698d19edcc9b40ecee9df2d", "is_reserved": 0}, {"is_disabled": 0, "fusion_lon": 0.0, "fusion_lat": 0.0, "lat": 38.916338833333334, "type": "electric_scooter", "lon": -77.02696783333333, "bike_id": "44f683aea0dc5545d86ee18336ba010b", "rental_uris": {"android": "https://dc.lft.to/lastmile_qr_scan", "ios": "https://dc.lft.to/lastmile_qr_scan"}, "name": "44f683aea0dc5545d86ee18336ba010b", "is_reserved": 0}, {"is_disabled": 0, "fusion_lon": 0.0, "fusion_lat": 0.0, "lat": 38.91880833333333, "type": "electric_scooter", "lon": -77.0364405, "bike_id": "b8d32d31ac4dca58e66308bb58dd2b75", "rental_uris": {"android": "https://dc.lft.to/lastmile_qr_scan", "ios": "https://dc.lft.to/lastmile_qr_scan"}, "name": "b8d32d31ac4dca58e66308bb58dd2b75", "is_reserved": 0}, {"is_disabled": 0, "fusion_lon": 0.0, "fusion_lat": 0.0, "lat": 38.9680645, "type": "electric_scooter", "lon": -77.02120866666667, "bike_id": "6ba923ccac85d9d491913dce1bac5093", "rental_uris": {"android": "https://dc.lft.to/lastmile_qr_scan", "ios": "https://dc.lft.to/lastmile_qr_scan"}, "name": "6ba923ccac85d9d491913dce1bac5093", "is_reserved": 0}, {"is_disabled": 0, "fusion_lon": 0.0, "fusion_lat": 0.0, "lat": 38.88014666666667, "type": "electric_scooter", "lon": -76.98232583333333, "bike_id": "a62b6d212c382a97f72d842509b45278", "rental_uris": {"android": "https://dc.lft.to/lastmile_qr_scan", "ios": "https://dc.lft.to/lastmile_qr_scan"}, "name": "a62b6d212c382a97f72d842509b45278", "is_reserved": 0}, {"is_disabled": 0, "fusion_lon": 0.0, "fusion_lat": 0.0, "lat": 38.93726733333333, "type": "electric_scooter", "lon": -77.02435316666667, "bike_id": "dc30f06b44244f3086a52bc5152a09b8", "rental_uris": {"android": "https://dc.lft.to/lastmile_qr_scan", "ios": "https://dc.lft.to/lastmile_qr_scan"}, "name": "dc30f06b44244f3086a52bc5152a09b8", "is_reserved": 0}, {"is_disabled": 0, "fusion_lon": 0.0, "fusion_lat": 0.0, "lat": 38.874647, "type": "electric_scooter", "lon": -77.00532016666666, "bike_id": "ef5be3d7455e5d8e0b8a91f19b7fc100", "rental_uris": {"android": "https://dc.lft.to/lastmile_qr_scan", "ios": "https://dc.lft.to/lastmile_qr_scan"}, "name": "ef5be3d7455e5d8e0b8a91f19b7fc100", "is_reserved": 0}, {"is_disabled": 0, "fusion_lon": 0.0, "fusion_lat": 0.0, "lat": 38.91402883333333, "type": "electric_scooter", "lon": -77.03143266666666, "bike_id": "53eb99b3b68fa2956a5ef3ed58e214a2", "rental_uris": {"android": "https://dc.lft.to/lastmile_qr_scan", "ios": "https://dc.lft.to/lastmile_qr_scan"}, "name": "53eb99b3b68fa2956a5ef3ed58e214a2", "is_reserved": 0}, {"is_disabled": 0, "fusion_lon": 0.0, "fusion_lat": 0.0, "lat": 38.896305, "type": "electric_scooter", "lon": -77.02587416666667, "bike_id": "0b5121fab8d761d6fef50fa8b3c4bade", "rental_uris": {"android": "https://dc.lft.to/lastmile_qr_scan", "ios": "https://dc.lft.to/lastmile_qr_scan"}, "name": "0b5121fab8d761d6fef50fa8b3c4bade", "is_reserved": 0}, {"is_disabled": 0, "fusion_lon": 0.0, "fusion_lat": 0.0, "lat": 38.9408535, "type": "electric_scooter", "lon": -77.03818633333333, "bike_id": "0d73fdd20356f78d3eff0fd626b194a2", "rental_uris": {"android": "https://dc.lft.to/lastmile_qr_scan", "ios": "https://dc.lft.to/lastmile_qr_scan"}, "name": "0d73fdd20356f78d3eff0fd626b194a2", "is_reserved": 0}, {"is_disabled": 0, "fusion_lon": 0.0, "fusion_lat": 0.0, "lat": 38.9542175, "type": "electric_scooter", "lon": -77.02172166666666, "bike_id": "cab30fd5665a607a74d6084d0b85d4c2", "rental_uris": {"android": "https://dc.lft.to/lastmile_qr_scan", "ios": "https://dc.lft.to/lastmile_qr_scan"}, "name": "cab30fd5665a607a74d6084d0b85d4c2", "is_reserved": 0}, {"is_disabled": 0, "fusion_lon": 0.0, "fusion_lat": 0.0, "lat": 38.880327666666666, "type": "electric_scooter", "lon": -76.99504433333334, "bike_id": "551f30f99341c511e273b695a71dd725", "rental_uris": {"android": "https://dc.lft.to/lastmile_qr_scan", "ios": "https://dc.lft.to/lastmile_qr_scan"}, "name": "551f30f99341c511e273b695a71dd725", "is_reserved": 0}, {"is_disabled": 0, "fusion_lon": 0.0, "fusion_lat": 0.0, "lat": 38.97168933333333, "type": "electric_bike", "lon": -76.98022333333333, "bike_id": "9303ef3d85fa90889ef0adc9fe2e0d0b", "rental_uris": {"android": "https://dc.lft.to/lastmile_qr_scan", "ios": "https://dc.lft.to/lastmile_qr_scan"}, "name": "9303ef3d85fa90889ef0adc9fe2e0d0b", "is_reserved": 0}, {"is_disabled": 0, "fusion_lon": 0.0, "fusion_lat": 0.0, "lat": 38.89500816666666, "type": "electric_scooter", "lon": -76.9487865, "bike_id": "a8303044458457590e9690b66be5b607", "rental_uris": {"android": "https://dc.lft.to/lastmile_qr_scan", "ios": "https://dc.lft.to/lastmile_qr_scan"}, "name": "a8303044458457590e9690b66be5b607", "is_reserved": 0}, {"is_disabled": 0, "fusion_lon": 0.0, "fusion_lat": 0.0, "lat": 38.91816333333333, "type": "electric_scooter", "lon": -77.027182, "bike_id": "c40ed83bb26947849fa72f0ef1555429", "rental_uris": {"android": "https://dc.lft.to/lastmile_qr_scan", "ios": "https://dc.lft.to/lastmile_qr_scan"}, "name": "c40ed83bb26947849fa72f0ef1555429", "is_reserved": 0}, {"is_disabled": 0, "fusion_lon": 0.0, "fusion_lat": 0.0, "lat": 38.911288666666664, "type": "electric_scooter", "lon": -77.0218965, "bike_id": "e7a5abd987d53e5813ce80e85df78116", "rental_uris": {"android": "https://dc.lft.to/lastmile_qr_scan", "ios": "https://dc.lft.to/lastmile_qr_scan"}, "name": "e7a5abd987d53e5813ce80e85df78116", "is_reserved": 0}, {"is_disabled": 0, "fusion_lon": 0.0, "fusion_lat": 0.0, "lat": 38.95201866666667, "type": "electric_scooter", "lon": -77.02736666666667, "bike_id": "67a0c79fcf4b977346b1e024c2a9658f", "rental_uris": {"android": "https://dc.lft.to/lastmile_qr_scan", "ios": "https://dc.lft.to/lastmile_qr_scan"}, "name": "67a0c79fcf4b977346b1e024c2a9658f", "is_reserved": 0}, {"is_disabled": 0, "fusion_lon": 0.0, "fusion_lat": 0.0, "lat": 38.9180385, "type": "electric_scooter", "lon": -77.034354, "bike_id": "8673928ab8d405b50d1a813100914087", "rental_uris": {"android": "https://dc.lft.to/lastmile_qr_scan", "ios": "https://dc.lft.to/lastmile_qr_scan"}, "name": "8673928ab8d405b50d1a813100914087", "is_reserved": 0}, {"is_disabled": 0, "fusion_lon": 0.0, "fusion_lat": 0.0, "lat": 38.90140983333333, "type": "electric_scooter", "lon": -76.986586, "bike_id": "55652b4b91a912429b88c146d1981db4", "rental_uris": {"android": "https://dc.lft.to/lastmile_qr_scan", "ios": "https://dc.lft.to/lastmile_qr_scan"}, "name": "55652b4b91a912429b88c146d1981db4", "is_reserved": 0}, {"is_disabled": 0, "fusion_lon": 0.0, "fusion_lat": 0.0, "lat": 38.931271833333334, "type": "electric_scooter", "lon": -77.05714333333333, "bike_id": "7ee199a81720c40a8a2d0d0ea1e8940b", "rental_uris": {"android": "https://dc.lft.to/lastmile_qr_scan", "ios": "https://dc.lft.to/lastmile_qr_scan"}, "name": "7ee199a81720c40a8a2d0d0ea1e8940b", "is_reserved": 0}, {"is_disabled": 0, "fusion_lon": 0.0, "fusion_lat": 0.0, "lat": 38.91711383333333, "type": "electric_scooter", "lon": -77.02604066666666, "bike_id": "1f3c5315e8794a8cef8439dfaecb881d", "rental_uris": {"android": "https://dc.lft.to/lastmile_qr_scan", "ios": "https://dc.lft.to/lastmile_qr_scan"}, "name": "1f3c5315e8794a8cef8439dfaecb881d", "is_reserved": 0}, {"is_disabled": 0, "fusion_lon": 0.0, "fusion_lat": 0.0, "lat": 38.827294, "type": "electric_bike", "lon": -77.008599, "bike_id": "706da04f455f5968682028afb643eb7f", "rental_uris": {"android": "https://dc.lft.to/lastmile_qr_scan", "ios": "https://dc.lft.to/lastmile_qr_scan"}, "name": "706da04f455f5968682028afb643eb7f", "is_reserved": 0}, {"is_disabled": 0, "fusion_lon": 0.0, "fusion_lat": 0.0, "lat": 38.89367983333333, "type": "electric_scooter", "lon": -77.02263866666667, "bike_id": "1facf774c84fcb0414134b072c111704", "rental_uris": {"android": "https://dc.lft.to/lastmile_qr_scan", "ios": "https://dc.lft.to/lastmile_qr_scan"}, "name": "1facf774c84fcb0414134b072c111704", "is_reserved": 0}, {"is_disabled": 0, "fusion_lon": 0.0, "fusion_lat": 0.0, "lat": 38.93520383333333, "type": "electric_scooter", "lon": -77.02378566666667, "bike_id": "ca9c32ce59b818081f9290a658915119", "rental_uris": {"android": "https://dc.lft.to/lastmile_qr_scan", "ios": "https://dc.lft.to/lastmile_qr_scan"}, "name": "ca9c32ce59b818081f9290a658915119", "is_reserved": 0}, {"is_disabled": 0, "fusion_lon": 0.0, "fusion_lat": 0.0, "lat": 38.905878333333334, "type": "electric_scooter", "lon": -77.05129566666666, "bike_id": "0202512df121fc716c65cdbd64493989", "rental_uris": {"android": "https://dc.lft.to/lastmile_qr_scan", "ios": "https://dc.lft.to/lastmile_qr_scan"}, "name": "0202512df121fc716c65cdbd64493989", "is_reserved": 0}, {"is_disabled": 0, "fusion_lon": 0.0, "fusion_lat": 0.0, "lat": 38.897914666666665, "type": "electric_scooter", "lon": -77.0118975, "bike_id": "c71c76c08bdda8a30e05c24d37ea9a26", "rental_uris": {"android": "https://dc.lft.to/lastmile_qr_scan", "ios": "https://dc.lft.to/lastmile_qr_scan"}, "name": "c71c76c08bdda8a30e05c24d37ea9a26", "is_reserved": 0}, {"is_disabled": 0, "fusion_lon": 0.0, "fusion_lat": 0.0, "lat": 38.89751316666667, "type": "electric_scooter", "lon": -77.02470066666666, "bike_id": "c2e800dd182731e19c280a94144e45fa", "rental_uris": {"android": "https://dc.lft.to/lastmile_qr_scan", "ios": "https://dc.lft.to/lastmile_qr_scan"}, "name": "c2e800dd182731e19c280a94144e45fa", "is_reserved": 0}, {"is_disabled": 0, "fusion_lon": 0.0, "fusion_lat": 0.0, "lat": 38.92852716666667, "type": "electric_scooter", "lon": -77.03432666666667, "bike_id": "d5e012f0ee4b4724d703b8a64b2bb2d4", "rental_uris": {"android": "https://dc.lft.to/lastmile_qr_scan", "ios": "https://dc.lft.to/lastmile_qr_scan"}, "name": "d5e012f0ee4b4724d703b8a64b2bb2d4", "is_reserved": 0}, {"is_disabled": 0, "fusion_lon": 0.0, "fusion_lat": 0.0, "lat": 38.90387883333333, "type": "electric_scooter", "lon": -77.0176525, "bike_id": "fd0407870983781f0bf760d2b75e463b", "rental_uris": {"android": "https://dc.lft.to/lastmile_qr_scan", "ios": "https://dc.lft.to/lastmile_qr_scan"}, "name": "fd0407870983781f0bf760d2b75e463b", "is_reserved": 0}, {"is_disabled": 0, "fusion_lon": 0.0, "fusion_lat": 0.0, "lat": 38.88060483333334, "type": "electric_scooter", "lon": -77.00369716666667, "bike_id": "96b184aa15a2faea0452a39722817409", "rental_uris": {"android": "https://dc.lft.to/lastmile_qr_scan", "ios": "https://dc.lft.to/lastmile_qr_scan"}, "name": "96b184aa15a2faea0452a39722817409", "is_reserved": 0}, {"is_disabled": 0, "fusion_lon": 0.0, "fusion_lat": 0.0, "lat": 38.9054535, "type": "electric_scooter", "lon": -77.02204666666667, "bike_id": "af8a041040428ddca7b230a0cdeab146", "rental_uris": {"android": "https://dc.lft.to/lastmile_qr_scan", "ios": "https://dc.lft.to/lastmile_qr_scan"}, "name": "af8a041040428ddca7b230a0cdeab146", "is_reserved": 0}, {"is_disabled": 0, "fusion_lon": 0.0, "fusion_lat": 0.0, "lat": 38.91099, "type": "electric_scooter", "lon": -77.02716683333334, "bike_id": "c9f6837c9341332a9685e0cee975c810", "rental_uris": {"android": "https://dc.lft.to/lastmile_qr_scan", "ios": "https://dc.lft.to/lastmile_qr_scan"}, "name": "c9f6837c9341332a9685e0cee975c810", "is_reserved": 0}, {"is_disabled": 0, "fusion_lon": 0.0, "fusion_lat": 0.0, "lat": 38.89214966666667, "type": "electric_scooter", "lon": -76.95742033333333, "bike_id": "3e4d75e6717ed8ef0a174f82925a79f9", "rental_uris": {"android": "https://dc.lft.to/lastmile_qr_scan", "ios": "https://dc.lft.to/lastmile_qr_scan"}, "name": "3e4d75e6717ed8ef0a174f82925a79f9", "is_reserved": 0}, {"is_disabled": 0, "fusion_lon": 0.0, "fusion_lat": 0.0, "lat": 38.91168866666667, "type": "electric_scooter", "lon": -77.01084683333333, "bike_id": "7a27295a3c499f65b16fa0d36cba44ab", "rental_uris": {"android": "https://dc.lft.to/lastmile_qr_scan", "ios": "https://dc.lft.to/lastmile_qr_scan"}, "name": "7a27295a3c499f65b16fa0d36cba44ab", "is_reserved": 0}, {"is_disabled": 0, "fusion_lon": 0.0, "fusion_lat": 0.0, "lat": 38.884478666666666, "type": "electric_scooter", "lon": -76.950964, "bike_id": "a2de61baeb9265ce1642348fef6ca54f", "rental_uris": {"android": "https://dc.lft.to/lastmile_qr_scan", "ios": "https://dc.lft.to/lastmile_qr_scan"}, "name": "a2de61baeb9265ce1642348fef6ca54f", "is_reserved": 0}, {"is_disabled": 0, "fusion_lon": 0.0, "fusion_lat": 0.0, "lat": 38.9208855, "type": "electric_scooter", "lon": -77.02595233333334, "bike_id": "4cec9c4a5074b544aebeee63d63dc0b2", "rental_uris": {"android": "https://dc.lft.to/lastmile_qr_scan", "ios": "https://dc.lft.to/lastmile_qr_scan"}, "name": "4cec9c4a5074b544aebeee63d63dc0b2", "is_reserved": 0}, {"is_disabled": 0, "fusion_lon": 0.0, "fusion_lat": 0.0, "lat": 38.84430616666667, "type": "electric_scooter", "lon": -76.99815116666667, "bike_id": "6c680444c73287beecb6f4b99bf9b452", "rental_uris": {"android": "https://dc.lft.to/lastmile_qr_scan", "ios": "https://dc.lft.to/lastmile_qr_scan"}, "name": "6c680444c73287beecb6f4b99bf9b452", "is_reserved": 0}, {"is_disabled": 0, "fusion_lon": 0.0, "fusion_lat": 0.0, "lat": 38.934096, "type": "electric_scooter", "lon": -77.0426405, "bike_id": "bfda86dc8ca1a787a5441da596a97016", "rental_uris": {"android": "https://dc.lft.to/lastmile_qr_scan", "ios": "https://dc.lft.to/lastmile_qr_scan"}, "name": "bfda86dc8ca1a787a5441da596a97016", "is_reserved": 0}, {"is_disabled": 0, "fusion_lon": 0.0, "fusion_lat": 0.0, "lat": 38.8979635, "type": "electric_scooter", "lon": -77.04744366666667, "bike_id": "4769c9466146485cdae3ecbf7375983f", "rental_uris": {"android": "https://dc.lft.to/lastmile_qr_scan", "ios": "https://dc.lft.to/lastmile_qr_scan"}, "name": "4769c9466146485cdae3ecbf7375983f", "is_reserved": 0}, {"is_disabled": 0, "fusion_lon": 0.0, "fusion_lat": 0.0, "lat": 38.91552466666667, "type": "electric_scooter", "lon": -77.03083433333333, "bike_id": "06d6f5ed5601dd4cc6f00912df67cfe7", "rental_uris": {"android": "https://dc.lft.to/lastmile_qr_scan", "ios": "https://dc.lft.to/lastmile_qr_scan"}, "name": "06d6f5ed5601dd4cc6f00912df67cfe7", "is_reserved": 0}, {"is_disabled": 0, "fusion_lon": 0.0, "fusion_lat": 0.0, "lat": 38.9031265, "type": "electric_scooter", "lon": -77.02153383333334, "bike_id": "1d875efc011bebce4523676c804a450a", "rental_uris": {"android": "https://dc.lft.to/lastmile_qr_scan", "ios": "https://dc.lft.to/lastmile_qr_scan"}, "name": "1d875efc011bebce4523676c804a450a", "is_reserved": 0}, {"is_disabled": 0, "fusion_lon": 0.0, "fusion_lat": 0.0, "lat": 38.92579383333333, "type": "electric_scooter", "lon": -77.04019716666667, "bike_id": "f60f4460b308b9addabece0684e0b83a", "rental_uris": {"android": "https://dc.lft.to/lastmile_qr_scan", "ios": "https://dc.lft.to/lastmile_qr_scan"}, "name": "f60f4460b308b9addabece0684e0b83a", "is_reserved": 0}, {"is_disabled": 0, "fusion_lon": 0.0, "fusion_lat": 0.0, "lat": 38.905314, "type": "electric_scooter", "lon": -77.05704066666667, "bike_id": "8bfc975cfb8baff18dc6c4991a7dfc14", "rental_uris": {"android": "https://dc.lft.to/lastmile_qr_scan", "ios": "https://dc.lft.to/lastmile_qr_scan"}, "name": "8bfc975cfb8baff18dc6c4991a7dfc14", "is_reserved": 0},