{"data": {"bikes": [{"type": "electric_scooter", "name": "47e1b6b9f07249c6f5ca2ecf57772c18", "lat": 38.9098155, "fusion_lat": 0.0, "bike_id": "47e1b6b9f07249c6f5ca2ecf57772c18", "is_reserved": 0, "lon": -77.03359033333334, "is_disabled": 0, "fusion_lon": 0.0, "rental_uris": {"android": "https://dc.lft.to/lastmile_qr_scan", "ios": "https://dc.lft.to/lastmile_qr_scan"}}, {"type": "electric_bike", "name": "a03e7fc77f5268893037c1f8791e650d", "lat": 38.973832, "fusion_lat": 0.0, "bike_id": "a03e7fc77f5268893037c1f8791e650d", "is_reserved": 0, "lon": -77.0647165, "is_disabled": 0, "fusion_lon": 0.0, "rental_uris": {"android": "https://dc.lft.to/lastmile_qr_scan", "ios": "https://dc.lft.to/lastmile_qr_scan"}}, {"type": "electric_scooter", "name": "3548aa0a7c0ce4a434f7e0c27012e602", "lat": 38.8983265, "fusion_lat": 0.0, "bike_id": "3548aa0a7c0ce4a434f7e0c27012e602", "is_reserved": 0, "lon": -77.04338116666666, "is_disabled": 0, "fusion_lon": 0.0, "rental_uris": {"android": "https://dc.lft.to/lastmile_qr_scan", "ios": "https://dc.lft.to/lastmile_qr_scan"}}, {"type": "electric_scooter", "name": "2a37eb645e6d27f74339c3cb7c7186e8", "lat": 38.898671, "fusion_lat": 0.0, "bike_id": "2a37eb645e6d27f74339c3cb7c7186e8", "is_reserved": 0, "lon": -76.94629333333333, "is_disabled": 0, "fusion_lon": 0.0, "rental_uris": {"android": "https://dc.lft.to/lastmile_qr_scan", "ios": "https://dc.lft.to/lastmile_qr_scan"}}, {"type": "electric_scooter", "name": "20bfdd6fad0cfc1b87e5af3c3e4f00b9", "lat": 38.9115815, "fusion_lat": 0.0, "bike_id": "20bfdd6fad0cfc1b87e5af3c3e4f00b9", "is_reserved": 0, "lon": -77.02380433333333, "is_disabled": 0, "fusion_lon": 0.0, "rental_uris": {"android": "https://dc.lft.to/lastmile_qr_scan", "ios": "https://dc.lft.to/lastmile_qr_scan"}}, {"type": "electric_scooter", "name": "6fba1e22ecea89d28e0c0c52a7ebf191", "lat": 38.93396333333333, "fusion_lat": 0.0, "bike_id": "6fba1e22ecea89d28e0c0c52a7ebf191", "is_reserved": 0, "lon": -77.05743316666667, "is_disabled": 0, "fusion_lon": 0.0, "rental_uris": {"android": "https://dc.lft.to/lastmile_qr_scan", "ios": "https://dc.lft.to/lastmile_qr_scan"}}, {"type": "electric_scooter", "name": "3b43f432b6faeb58b83e82975710cb58", "lat": 38.91047733333333, "fusion_lat": 0.0, "bike_id": "3b43f432b6faeb58b83e82975710cb58", "is_reserved": 0, "lon": -77.04378733333333, "is_disabled": 0, "fusion_lon": 0.0, "rental_uris": {"android": "https://dc.lft.to/lastmile_qr_scan", "ios": "https://dc.lft.to/lastmile_qr_scan"}}, {"type": "electric_scooter", "name": "a8c4b3bd1eccfcfbe4fff485b6889065", "lat": 38.911983666666664, "fusion_lat": 0.0, "bike_id": "a8c4b3bd1eccfcfbe4fff485b6889065", "is_reserved": 0, "lon": -77.0364415, "is_disabled": 0, "fusion_lon": 0.0, "rental_uris": {"android": "https://dc.lft.to/lastmile_qr_scan", "ios": "https://dc.lft.to/lastmile_qr_scan"}}, {"type": "electric_scooter", "name": "0d604ae7fc6c6fb7f4853d2760bc3bfc", "lat": 38.92411666666667, "fusion_lat": 0.0, "bike_id": "0d604ae7fc6c6fb7f4853d2760bc3bfc", "is_reserved": 0, "lon": -77.0200385, "is_disabled": 0, "fusion_lon": 0.0, "rental_uris": {"android": "https://dc.lft.to/lastmile_qr_scan", "ios": "https://dc.lft.to/lastmile_qr_scan"}}, {"type": "electric_scooter", "name": "b9fa11bcead72f1a267581ad4a96095c", "lat": 38.888172833333336, "fusion_lat": 0.0, "bike_id": "b9fa11bcead72f1a267581ad4a96095c", "is_reserved": 0, "lon": -76.9806475, "is_disabled": 0, "fusion_lon": 0.0, "rental_uris": {"android": "https://dc.lft.to/lastmile_qr_scan", "ios": "https://dc.lft.to/lastmile_qr_scan"}}, {"type": "electric_scooter", "name": "78d76977287afa30c7a0ba5e9d8747f2", "lat": 38.89731783333333, "fusion_lat": 0.0, "bike_id": "78d76977287afa30c7a0ba5e9d8747f2", "is_reserved": 0, "lon": -77.055248, "is_disabled": 0, "fusion_lon": 0.0, "rental_uris": {"android": "https://dc.lft.to/lastmile_qr_scan", "ios": "https://dc.lft.to/lastmile_qr_scan"}}, {"type": "electric_scooter", "name": "27a784d72bb8e8df9dc60ab0e4bdad6a", "lat": 38.9054655, "fusion_lat": 0.0, "bike_id": "27a784d72bb8e8df9dc60ab0e4bdad6a", "is_reserved": 0, "lon": -77.0570855, "is_disabled": 0, "fusion_lon": 0.0, "rental_uris": {"android": "https://dc.lft.to/lastmile_qr_scan", "ios": "https://dc.lft.to/lastmile_qr_scan"}}, {"type": "electric_scooter", "name": "0ddd84ce9acd437f7aa64d0362132242", "lat": 38.89908416666667, "fusion_lat": 0.0, "bike_id": "0ddd84ce9acd437f7aa64d0362132242", "is_reserved": 0, "lon": -77.03294566666666, "is_disabled": 0, "fusion_lon": 0.0, "rental_uris": {"android": "https://dc.lft.to/lastmile_qr_scan", "ios": "https://dc.lft.to/lastmile_qr_scan"}}, {"type": "electric_scooter", "name": "62099f317c5ed5c6e583f077c7b02260", "lat": 38.902383, "fusion_lat": 0.0, "bike_id": "62099f317c5ed5c6e583f077c7b02260", "is_reserved": 0, "lon": -77.00204316666667, "is_disabled": 0, "fusion_lon": 0.0, "rental_uris": {"android": "https://dc.lft.to/lastmile_qr_scan", "ios": "https://dc.lft.to/lastmile_qr_scan"}}, {"type": "electric_scooter", "name": "078a3dfe46b3fb65b6691f708ff7c134", "lat": 38.9083525, "fusion_lat": 0.0, "bike_id": "078a3dfe46b3fb65b6691f708ff7c134", "is_reserved": 0, "lon": -77.03565066666667, "is_disabled": 0, "fusion_lon": 0.0, "rental_uris": {"android": "https://dc.lft.to/lastmile_qr_scan", "ios": "https://dc.lft.to/lastmile_qr_scan"}}, {"type": "electric_scooter", "name": "7b3c64f5f3aec3c96d9b466040da13d5", "lat": 38.90739, "fusion_lat": 0.0, "bike_id": "7b3c64f5f3aec3c96d9b466040da13d5", "is_reserved": 0, "lon": -77.04281233333333, "is_disabled": 0, "fusion_lon": 0.0, "rental_uris": {"android": "https://dc.lft.to/lastmile_qr_scan", "ios": "https://dc.lft.to/lastmile_qr_scan"}}, {"type": "electric_scooter", "name": "52333d8ce0fbafa0be0fd1b17ae6c936", "lat": 38.881306, "fusion_lat": 0.0, "bike_id": "52333d8ce0fbafa0be0fd1b17ae6c936", "is_reserved": 0, "lon": -77.016556, "is_disabled": 0, "fusion_lon": 0.0, "rental_uris": {"android": "https://dc.lft.to/lastmile_qr_scan", "ios": "https://dc.lft.to/lastmile_qr_scan"}}, {"type": "electric_scooter", "name": "5e2c8b7be4be42a062478c0e1c81062c", "lat": 38.92157866666667, "fusion_lat": 0.0, "bike_id": "5e2c8b7be4be42a062478c0e1c81062c", "is_reserved": 0, "lon": -77.035066, "is_disabled": 0, "fusion_lon": 0.0, "rental_uris": {"android": "https://dc.lft.to/lastmile_qr_scan", "ios": "https://dc.lft.to/lastmile_qr_scan"}}, {"type": "electric_scooter", "name": "2cdd4b59d0bc4038d46e7005c48f2208", "lat": 38.9272355, "fusion_lat": 0.0, "bike_id": "2cdd4b59d0bc4038d46e7005c48f2208", "is_reserved": 0, "lon": -77.02314483333333, "is_disabled": 0, "fusion_lon": 0.0, "rental_uris": {"android": "https://dc.lft.to/lastmile_qr_scan", "ios": "https://dc.lft.to/lastmile_qr_scan"}}, {"type": "electric_scooter", "name": "4288ba27316953867aa38233e71c8522", "lat": 38.9034115, "fusion_lat": 0.0, "bike_id": "4288ba27316953867aa38233e71c8522", "is_reserved": 0, "lon": -77.02007566666667, "is_disabled": 0, "fusion_lon": 0.0, "rental_uris": {"android": "https://dc.lft.to/lastmile_qr_scan", "ios": "https://dc.lft.to/lastmile_qr_scan"}}, {"type": "electric_scooter", "name": "dc65cf67114a6f95eed4085ff54cccb3", "lat": 38.858082333333336, "fusion_lat": 0.0, "bike_id": "dc65cf67114a6f95eed4085ff54cccb3", "is_reserved": 0, "lon": -76.9865295, "is_disabled": 0, "fusion_lon": 0.0, "rental_uris": {"android": "https://dc.lft.to/lastmile_qr_scan", "ios": "https://dc.lft.to/lastmile_qr_scan"}}, {"type": "electric_scooter", "name": "6a6b2a8b18ce93d149d27b12ab8ba39f", "lat": 38.92603416666667, "fusion_lat": 0.0, "bike_id": "6a6b2a8b18ce93d149d27b12ab8ba39f", "is_reserved": 0, "lon": -77.02585116666667, "is_disabled": 0, "fusion_lon": 0.0, "rental_uris": {"android": "https://dc.lft.to/lastmile_qr_scan", "ios": "https://dc.lft.to/lastmile_qr_scan"}}, {"type": "electric_scooter", "name": "87dded7d749e52c0b9533ff43784eb52", "lat": 38.906414833333336, "fusion_lat": 0.0, "bike_id": "87dded7d749e52c0b9533ff43784eb52", "is_reserved": 0, "lon": -77.00600233333333, "is_disabled": 0, "fusion_lon": 0.0, "rental_uris": {"android": "https://dc.lft.to/lastmile_qr_scan", "ios": "https://dc.lft.to/lastmile_qr_scan"}}, {"type": "electric_scooter", "name": "d4d3ec010205cace645b6316e456b8d2", "lat": 38.89803833333333, "fusion_lat": 0.0, "bike_id": "d4d3ec010205cace645b6316e456b8d2", "is_reserved": 0, "lon": -77.027312, "is_disabled": 0, "fusion_lon": 0.0, "rental_uris": {"android": "https://dc.lft.to/lastmile_qr_scan", "ios": "https://dc.lft.to/lastmile_qr_scan"}}, {"type": "electric_scooter", "name": "bf36841aee52d1fcf27900ed5396fee8", "lat": 38.91454266666667, "fusion_lat": 0.0, "bike_id": "bf36841aee52d1fcf27900ed5396fee8", "is_reserved": 0, "lon": -77.04628533333333, "is_disabled": 0, "fusion_lon": 0.0, "rental_uris": {"android": "https://dc.lft.to/lastmile_qr_scan", "ios": "https://dc.lft.to/lastmile_qr_scan"}}, {"type": "electric_scooter", "name": "9a46ce0d53acbe79ecda80041198d3b2", "lat": 38.865353999999996, "fusion_lat": 0.0, "bike_id": "9a46ce0d53acbe79ecda80041198d3b2", "is_reserved": 0, "lon": -76.98975733333333, "is_disabled": 0, "fusion_lon": 0.0, "rental_uris": {"android": "https://dc.lft.to/lastmile_qr_scan", "ios": "https://dc.lft.to/lastmile_qr_scan"}}, {"type": "electric_scooter", "name": "a4388f88e73d179272148334570f39af", "lat": 38.9057055, "fusion_lat": 0.0, "bike_id": "a4388f88e73d179272148334570f39af", "is_reserved": 0, "lon": -77.0039195, "is_disabled": 0, "fusion_lon": 0.0, "rental_uris": {"android": "https://dc.lft.to/lastmile_qr_scan", "ios": "https://dc.lft.to/lastmile_qr_scan"}}, {"type": "electric_scooter", "name": "d0d486b3200090abdc69df3c8321047d", "lat": 38.9065855, "fusion_lat": 0.0, "bike_id": "d0d486b3200090abdc69df3c8321047d", "is_reserved": 0, "lon": -77.03868783333333, "is_disabled": 0, "fusion_lon": 0.0, "rental_uris": {"android": "https://dc.lft.to/lastmile_qr_scan", "ios": "https://dc.lft.to/lastmile_qr_scan"}}, {"type": "electric_scooter", "name": "23da6b3ded88b75d6411846c95d883e3", "lat": 38.903383833333336, "fusion_lat": 0.0, "bike_id": "23da6b3ded88b75d6411846c95d883e3", "is_reserved": 0, "lon": -77.04331516666667, "is_disabled": 0, "fusion_lon": 0.0, "rental_uris": {"android": "https://dc.lft.to/lastmile_qr_scan", "ios": "https://dc.lft.to/lastmile_qr_scan"}}, {"type": "electric_scooter", "name": "e379e4133cadd5e7464d432584cc213b", "lat": 38.9191925, "fusion_lat": 0.0, "bike_id": "e379e4133cadd5e7464d432584cc213b", "is_reserved": 0, "lon": -77.03191383333333, "is_disabled": 0, "fusion_lon": 0.0, "rental_uris": {"android": "https://dc.lft.to/lastmile_qr_scan", "ios": "https://dc.lft.to/lastmile_qr_scan"}}, {"type": "electric_scooter", "name": "64c579290da6dc3cd4639fd60cf84432", "lat": 38.910824833333336, "fusion_lat": 0.0, "bike_id": "64c579290da6dc3cd4639fd60cf84432", "is_reserved": 0, "lon": -77.00493933333334, "is_disabled": 0, "fusion_lon": 0.0, "rental_uris": {"android": "https://dc.lft.to/lastmile_qr_scan", "ios": "https://dc.lft.to/lastmile_qr_scan"}}, {"type": "electric_scooter", "name": "f4f41ef4310862694ae19ec032b0c5f9", "lat": 38.887391, "fusion_lat": 0.0, "bike_id": "f4f41ef4310862694ae19ec032b0c5f9", "is_reserved": 0, "lon": -77.02117666666666, "is_disabled": 0, "fusion_lon": 0.0, "rental_uris": {"android": "https://dc.lft.to/lastmile_qr_scan", "ios": "https://dc.lft.to/lastmile_qr_scan"}}, {"type": "electric_bike", "name": "192c92268ca8ddfc77e81358f7d517f2", "lat": 38.884182833333334, "fusion_lat": 0.0, "bike_id": "192c92268ca8ddfc77e81358f7d517f2", "is_reserved": 0, "lon": -76.95402483333334, "is_disabled": 0, "fusion_lon": 0.0, "rental_uris": {"android": "https://dc.lft.to/lastmile_qr_scan", "ios": "https://dc.lft.to/lastmile_qr_scan"}}, {"type": "electric_scooter", "name": "e11d6b43adf4af64fab6366aa918df05", "lat": 38.900506666666665, "fusion_lat": 0.0, "bike_id": "e11d6b43adf4af64fab6366aa918df05", "is_reserved": 0, "lon": -76.98263816666666, "is_disabled": 0, "fusion_lon": 0.0, "rental_uris": {"android": "https://dc.lft.to/lastmile_qr_scan", "ios": "https://dc.lft.to/lastmile_qr_scan"}}, {"type": "electric_scooter", "name": "4845431487264a75ddabb4e4522726f6", "lat": 38.904152, "fusion_lat": 0.0, "bike_id": "4845431487264a75ddabb4e4522726f6", "is_reserved": 0, "lon": -76.98531916666667, "is_disabled": 0, "fusion_lon": 0.0, "rental_uris": {"android": "https://dc.lft.to/lastmile_qr_scan", "ios": "https://dc.lft.to/lastmile_qr_scan"}}, {"type": "electric_scooter", "name": "8c850cd9225b2ae02767d4d1cc741b55", "lat": 38.90246366666667, "fusion_lat": 0.0, "bike_id": "8c850cd9225b2ae02767d4d1cc741b55", "is_reserved": 0, "lon": -77.00181966666666, "is_disabled": 0, "fusion_lon": 0.0, "rental_uris": {"android": "https://dc.lft.to/lastmile_qr_scan", "ios": "https://dc.lft.to/lastmile_qr_scan"}}, {"type": "electric_scooter", "name": "a8f93ab48c4209486a7bb65c3e113831", "lat": 38.89894233333333, "fusion_lat": 0.0, "bike_id": "a8f93ab48c4209486a7bb65c3e113831", "is_reserved": 0, "lon": -77.01976583333334, "is_disabled": 0, "fusion_lon": 0.0, "rental_uris": {"android": "https://dc.lft.to/lastmile_qr_scan", "ios": "https://dc.lft.to/lastmile_qr_scan"}}, {"type": "electric_scooter", "name": "d1ab6c51df6ca0c6eec1cd6b4fe424c3", "lat": 38.90165433333333, "fusion_lat": 0.0, "bike_id": "d1ab6c51df6ca0c6eec1cd6b4fe424c3", "is_reserved": 0, "lon": -77.02204416666666, "is_disabled": 0, "fusion_lon": 0.0, "rental_uris": {"android": "https://dc.lft.to/lastmile_qr_scan", "ios": "https://dc.lft.to/lastmile_qr_scan"}}, {"type": "electric_scooter", "name": "18a02b1bc65784470d5b2a4ac2f76fbe", "lat": 38.92440716666667, "fusion_lat": 0.0, "bike_id": "18a02b1bc65784470d5b2a4ac2f76fbe", "is_reserved": 0, "lon": -77.03401616666666, "is_disabled": 0, "fusion_lon": 0.0, "rental_uris": {"android": "https://dc.lft.to/lastmile_qr_scan", "ios": "https://dc.lft.to/lastmile_qr_scan"}}, {"type": "electric_scooter", "name": "9d4e99d918cbfedfaf7f5e255844a464", "lat": 38.900285833333335, "fusion_lat": 0.0, "bike_id": "9d4e99d918cbfedfaf7f5e255844a464", "is_reserved": 0, "lon": -77.00214166666666, "is_disabled": 0, "fusion_lon": 0.0, "rental_uris": {"android": "https://dc.lft.to/lastmile_qr_scan", "ios": "https://dc.lft.to/lastmile_qr_scan"}}, {"type": "electric_scooter", "name": "570702a56b64a7a7af73a75379321893", "lat": 38.9370835, "fusion_lat": 0.0, "bike_id": "570702a56b64a7a7af73a75379321893", "is_reserved": 0, "lon": -77.0323075, "is_disabled": 0, "fusion_lon": 0.0, "rental_uris": {"android": "https://dc.lft.to/lastmile_qr_scan", "ios": "https://dc.lft.to/lastmile_qr_scan"}}, {"type": "electric_scooter", "name": "5688844df1245bfd91fc5c39f374bd29", "lat": 38.93211083333333, "fusion_lat": 0.0, "bike_id": "5688844df1245bfd91fc5c39f374bd29", "is_reserved": 0, "lon": -77.032513, "is_disabled": 0, "fusion_lon": 0.0, "rental_uris": {"android": "https://dc.lft.to/lastmile_qr_scan", "ios": "https://dc.lft.to/lastmile_qr_scan"}}, {"type": "electric_scooter", "name": "d01b49201e1ec15cf8cf4c57bc5338b4", "lat": 38.908424, "fusion_lat": 0.0, "bike_id": "d01b49201e1ec15cf8cf4c57bc5338b4", "is_reserved": 0, "lon": -77.04159916666667, "is_disabled": 0, "fusion_lon": 0.0, "rental_uris": {"android": "https://dc.lft.to/lastmile_qr_scan", "ios": "https://dc.lft.to/lastmile_qr_scan"}}, {"type": "electric_bike", "name": "787705449dae1b62bd9d1752956aa891", "lat": 38.8427525, "fusion_lat": 0.0, "bike_id": "787705449dae1b62bd9d1752956aa891", "is_reserved": 0, "lon": -76.98839816666667, "is_disabled": 0, "fusion_lon": 0.0, "rental_uris": {"android": "https://dc.lft.to/lastmile_qr_scan", "ios": "https://dc.lft.to/lastmile_qr_scan"}}, {"type": "electric_scooter", "name": "3058e49e848ba1bc667f8b321b66020b", "lat": 38.903814, "fusion_lat": 0.0, "bike_id": "3058e49e848ba1bc667f8b321b66020b", "is_reserved": 0, "lon": -77.0402935, "is_disabled": 0, "fusion_lon": 0.0, "rental_uris": {"android": "https://dc.lft.to/lastmile_qr_scan", "ios": "https://dc.lft.to/lastmile_qr_scan"}}, {"type": "electric_scooter", "name": "69cd7b829d107ae54a49c4204ca48605", "lat": 38.865098833333334, "fusion_lat": 0.0, "bike_id": "69cd7b829d107ae54a49c4204ca48605", "is_reserved": 0, "lon": -76.99000883333333, "is_disabled": 0, "fusion_lon": 0.0, "rental_uris": {"android": "https://dc.lft.to/lastmile_qr_scan", "ios": "https://dc.lft.to/lastmile_qr_scan"}}, {"type": "electric_bike", "name": "8e258eae264aee200912c6d0ac6869cf", "lat": 38.88702266666667, "fusion_lat": 0.0, "bike_id": "8e258eae264aee200912c6d0ac6869cf", "is_reserved": 0, "lon": -77.0021935, "is_disabled": 0, "fusion_lon": 0.0, "rental_uris": {"android": "https://dc.lft.to/lastmile_qr_scan", "ios": "https://dc.lft.to/lastmile_qr_scan"}}, {"type": "electric_scooter", "name": "754bd56597db6a9d08109bafd8fdb09f", "lat": 38.90544216666667, "fusion_lat": 0.0, "bike_id": "754bd56597db6a9d08109bafd8fdb09f", "is_reserved": 0, "lon": -77.034509, "is_disabled": 0, "fusion_lon": 0.0, "rental_uris": {"android": "https://dc.lft.to/lastmile_qr_scan", "ios": "https://dc.lft.to/lastmile_qr_scan"}}, {"type": "electric_scooter", "name": "e451f0aac9451be7c4c61b5d13ae1006", "lat": 38.89822433333333, "fusion_lat": 0.0, "bike_id": "e451f0aac9451be7c4c61b5d13ae1006", "is_reserved": 0, "lon": -77.04354283333333, "is_disabled": 0, "fusion_lon": 0.0, "rental_uris": {"android": "https://dc.lft.to/lastmile_qr_scan", "ios": "https://dc.lft.to/lastmile_qr_scan"}}, {"type": "electric_scooter", "name": "e9c29e34b4bd4d92d5993be2bcb6ba60", "lat": 38.929579833333335, "fusion_lat": 0.0, "bike_id": "e9c29e34b4bd4d92d5993be2bcb6ba60", "is_reserved": 0, "lon": -77.03760816666667, "is_disabled": 0, "fusion_lon": 0.0, "rental_uris": {"android": "https://dc.lft.to/lastmile_qr_scan", "ios": "https://dc.lft.to/lastmile_qr_scan"}}, {"type": "electric_scooter", "name": "115d09d8df2b8b25af2d66e659475239", "lat": 38.9682305, "fusion_lat": 0.0, "bike_id": "115d09d8df2b8b25af2d66e659475239", "is_reserved": 0, "lon": -77.00914766666666, "is_disabled": 0, "fusion_lon": 0.0, "rental_uris": {"android": "https://dc.lft.to/lastmile_qr_scan", "ios": "https://dc.lft.to/lastmile_qr_scan"}}, {"type": "electric_scooter", "name": "0e3ffe618fe983d5061a6728ee506e97", "lat": 38.892299333333334, "fusion_lat": 0.0, "bike_id": "0e3ffe618fe983d5061a6728ee506e97", "is_reserved": 0, "lon": -77.02381866666667, "is_disabled": 0, "fusion_lon": 0.0, "rental_uris": {"android": "https://dc.lft.to/lastmile_qr_scan", "ios": "https://dc.lft.to/lastmile_qr_scan"}}, {"type": "electric_scooter", "name": "8fc7542bb306addd6cdb07d051d25a9f", "lat": 38.89825783333333, "fusion_lat": 0.0, "bike_id": "8fc7542bb306addd6cdb07d051d25a9f", "is_reserved": 0, "lon": -77.010695, "is_disabled": 0, "fusion_lon": 0.0, "rental_uris": {"android": "https://dc.lft.to/lastmile_qr_scan", "ios": "https://dc.lft.to/lastmile_qr_scan"}}, {"type": "electric_scooter", "name": "5d8efc2693efd7ecefbfc3cb66cec5ef", "lat": 38.8769775, "fusion_lat": 0.0, "bike_id": "5d8efc2693efd7ecefbfc3cb66cec5ef", "is_reserved": 0, "lon": -77.01763, "is_disabled": 0, "fusion_lon": 0.0, "rental_uris": {"android": "https://dc.lft.to/lastmile_qr_scan", "ios": "https://dc.lft.to/lastmile_qr_scan"}}, {"type": "electric_bike", "name": "9e78c81aadc231912ad1c0f3debd4916", "lat": 38.8393375, "fusion_lat": 0.0, "bike_id": "9e78c81aadc231912ad1c0f3debd4916", "is_reserved": 0, "lon": -77.07894366666666, "is_disabled": 0, "fusion_lon": 0.0, "rental_uris": {"android": "https://dc.lft.to/lastmile_qr_scan", "ios": "https://dc.lft.to/lastmile_qr_scan"}}, {"type": "electric_scooter", "name": "0c65d07711046896a34803148445863f", "lat": 38.90235916666666, "fusion_lat": 0.0, "bike_id": "0c65d07711046896a34803148445863f", "is_reserved": 0, "lon": -77.03005783333333, "is_disabled": 0, "fusion_lon": 0.0, "rental_uris": {"android": "https://dc.lft.to/lastmile_qr_scan", "ios": "https://dc.lft.to/lastmile_qr_scan"}}, {"type": "electric_scooter", "name": "a3c93b77dd6e0c460d837ebd1b4e15b7", "lat": 38.925187333333334, "fusion_lat": 0.0, "bike_id": "a3c93b77dd6e0c460d837ebd1b4e15b7", "is_reserved": 0, "lon": -77.04103966666666, "is_disabled": 0, "fusion_lon": 0.0, "rental_uris": {"android": "https://dc.lft.to/lastmile_qr_scan", "ios": "https://dc.lft.to/lastmile_qr_scan"}}, {"type": "electric_scooter", "name": "b54cf1c73d4019c084888de499717cf4", "lat": 38.89366883333334, "fusion_lat": 0.0, "bike_id": "b54cf1c73d4019c084888de499717cf4", "is_reserved": 0, "lon": -77.01556633333334, "is_disabled": 0, "fusion_lon": 0.0, "rental_uris": {"android": "https://dc.lft.to/lastmile_qr_scan", "ios": "https://dc.lft.to/lastmile_qr_scan"}}, {"type": "electric_scooter", "name": "566f254a4acb88010709ffbae60b63e2", "lat": 38.9005565, "fusion_lat": 0.0, "bike_id": "566f254a4acb88010709ffbae60b63e2", "is_reserved": 0, "lon": -77.02975716666667, "is_disabled": 0, "fusion_lon": 0.0, "rental_uris": {"android": "https://dc.lft.to/lastmile_qr_scan", "ios": "https://dc.lft.to/lastmile_qr_scan"}}, {"type": "electric_scooter", "name": "c011dd052d0f08668361c5cfd5b8732c", "lat": 38.886094666666665, "fusion_lat": 0.0, "bike_id": "c011dd052d0f08668361c5cfd5b8732c", "is_reserved": 0, "lon": -77.03207183333333, "is_disabled": 0, "fusion_lon": 0.0, "rental_uris": {"android": "https://dc.lft.to/lastmile_qr_scan", "ios": "https://dc.lft.to/lastmile_qr_scan"}}, {"type": "electric_scooter", "name": "59c3411fac3b708bd5e90acdf8671d9a", "lat": 38.9181905, "fusion_lat": 0.0, "bike_id": "59c3411fac3b708bd5e90acdf8671d9a", "is_reserved": 0, "lon": -77.01294183333333, "is_disabled": 0, "fusion_lon": 0.0, "rental_uris": {"android": "https://dc.lft.to/lastmile_qr_scan", "ios": "https://dc.lft.to/lastmile_qr_scan"}}, {"type": "electric_scooter", "name": "b43487404167c677d145b5528e580f55", "lat": 38.89836416666667, "fusion_lat": 0.0, "bike_id": "b43487404167c677d145b5528e580f55", "is_reserved": 0, "lon": -77.0455115, "is_disabled": 0, "fusion_lon": 0.0, "rental_uris": {"android": "https://dc.lft.to/lastmile_qr_scan", "ios": "https://dc.lft.to/lastmile_qr_scan"}}, {"type": "electric_scooter", "name": "076d995ba496f962ea6b6c84bda39cb3", "lat": 38.928738, "fusion_lat": 0.0, "bike_id": "076d995ba496f962ea6b6c84bda39cb3", "is_reserved": 0, "lon": -77.033551, "is_disabled": 0, "fusion_lon": 0.0, "rental_uris": {"android": "https://dc.lft.to/lastmile_qr_scan", "ios": "https://dc.lft.to/lastmile_qr_scan"}}, {"type": "electric_scooter", "name": "93331258ea2b6cc19fa63fe33ef2e3a7", "lat": 38.912712, "fusion_lat": 0.0, "bike_id": "93331258ea2b6cc19fa63fe33ef2e3a7", "is_reserved": 0, "lon": -77.041111, "is_disabled": 0, "fusion_lon": 0.0, "rental_uris": {"android": "https://dc.lft.to/lastmile_qr_scan", "ios": "https://dc.lft.to/lastmile_qr_scan"}}, {"type": "electric_scooter", "name": "7e10300a5322e9f74bcecc9191da1b59", "lat": 38.92380983333334, "fusion_lat": 0.0, "bike_id": "7e10300a5322e9f74bcecc9191da1b59", "is_reserved": 0, "lon": -77.03140516666667, "is_disabled": 0, "fusion_lon": 0.0, "rental_uris": {"android": "https://dc.lft.to/lastmile_qr_scan", "ios": "https://dc.lft.to/lastmile_qr_scan"}}, {"type": "electric_scooter", "name": "77d5a04b9d71af7311fb2d6919759d0c", "lat": 38.92826183333333, "fusion_lat": 0.0, "bike_id": "77d5a04b9d71af7311fb2d6919759d0c", "is_reserved": 0, "lon": -77.0596005, "is_disabled": 0, "fusion_lon": 0.0, "rental_uris": {"android": "https://dc.lft.to/lastmile_qr_scan", "ios": "https://dc.lft.to/lastmile_qr_scan"}}, {"type": "electric_scooter", "name": "8033a099bacf150063461f780aac0b9f", "lat": 38.82216616666667, "fusion_lat": 0.0, "bike_id": "8033a099bacf150063461f780aac0b9f", "is_reserved": 0, "lon": -77.00185133333333, "is_disabled": 0, "fusion_lon": 0.0, "rental_uris": {"android": "https://dc.lft.to/lastmile_qr_scan", "ios": "https://dc.lft.to/lastmile_qr_scan"}}, {"type": "electric_scooter", "name": "2af514f5ab1eeb1206d46acea8bf4f2a", "lat": 38.884708833333335, "fusion_lat": 0.0, "bike_id": "2af514f5ab1eeb1206d46acea8bf4f2a", "is_reserved": 0, "lon": -77.02029783333333, "is_disabled": 0, "fusion_lon": 0.0, "rental_uris": {"android": "https://dc.lft.to/lastmile_qr_scan", "ios": "https://dc.lft.to/lastmile_qr_scan"}}, {"type": "electric_scooter", "name": "1219db274a80a4393176522030542028", "lat": 38.916338, "fusion_lat": 0.0, "bike_id": "1219db274a80a4393176522030542028", "is_reserved": 0, "lon": -77.031872, "is_disabled": 0, "fusion_lon": 0.0, "rental_uris": {"android": "https://dc.lft.to/lastmile_qr_scan", "ios": "https://dc.lft.to/lastmile_qr_scan"}}, {"type": "electric_scooter", "name": "a5b8667056d8ac5013f9e09f1ccb6dbd", "lat": 38.9244195, "fusion_lat": 0.0, "bike_id": "a5b8667056d8ac5013f9e09f1ccb6dbd", "is_reserved": 0, "lon": -77.033729, "is_disabled": 0, "fusion_lon": 0.0, "rental_uris": {"android": "https://dc.lft.to/lastmile_qr_scan", "ios": "https://dc.lft.to/lastmile_qr_scan"}}, {"type": "electric_scooter", "name": "3c4b259a9ad4f715296b8ca783010e94", "lat": 38.900184833333334, "fusion_lat": 0.0, "bike_id": "3c4b259a9ad4f715296b8ca783010e94", "is_reserved": 0, "lon": -76.98696016666666, "is_disabled": 0, "fusion_lon": 0.0, "rental_uris": {"android": "https://dc.lft.to/lastmile_qr_scan", "ios": "https://dc.lft.to/lastmile_qr_scan"}}, {"type": "electric_scooter", "name": "95b624165b07886a8423ae8bb4b04e80", "lat": 38.8966595, "fusion_lat": 0.0, "bike_id": "95b624165b07886a8423ae8bb4b04e80", "is_reserved": 0, "lon": -77.02969783333333, "is_disabled": 0, "fusion_lon": 0.0, "rental_uris": {"android": "https://dc.lft.to/lastmile_qr_scan", "ios": "https://dc.lft.to/lastmile_qr_scan"}}, {"type": "electric_scooter", "name": "c87d9f86f24dd9bf8501195e5acdb65b", "lat": 38.8988785, "fusion_lat": 0.0, "bike_id": "c87d9f86f24dd9bf8501195e5acdb65b", "is_reserved": 0, "lon": -77.02967983333333, "is_disabled": 0, "fusion_lon": 0.0, "rental_uris": {"android": "https://dc.lft.to/lastmile_qr_scan", "ios": "https://dc.lft.to/lastmile_qr_scan"}}, {"type": "electric_scooter", "name": "6da7b82a0923367a8537cff5fcd82ecf", "lat": 38.9248895, "fusion_lat": 0.0, "bike_id": "6da7b82a0923367a8537cff5fcd82ecf", "is_reserved": 0, "lon": -77.0222435, "is_disabled": 0, "fusion_lon": 0.0, "rental_uris": {"android": "https://dc.lft.to/lastmile_qr_scan", "ios": "https://dc.lft.to/lastmile_qr_scan"}}, {"type": "electric_bike", "name": "331eb2ca0a4a0b6d04e6a7bf7b6dc6f3", "lat": 38.994158666666664, "fusion_lat": 0.0, "bike_id": "331eb2ca0a4a0b6d04e6a7bf7b6dc6f3", "is_reserved": 0, "lon": -77.07693966666666, "is_disabled": 0, "fusion_lon": 0.0, "rental_uris": {"android": "https://dc.lft.to/lastmile_qr_scan", "ios": "https://dc.lft.to/lastmile_qr_scan"}}, {"type": "electric_bike", "name": "c60c4247b1f3651c8aa29336a0c65fa1", "lat": 38.955434, "fusion_lat": 0.0, "bike_id": "c60c4247b1f3651c8aa29336a0c65fa1", "is_reserved": 0, "lon": -77.06935366666667, "is_disabled": 0, "fusion_lon": 0.0, "rental_uris": {"android": "https://dc.lft.to/lastmile_qr_scan", "ios": "https://dc.lft.to/lastmile_qr_scan"}}, {"type": "electric_scooter", "name": "76a7558f935fa68993d268186005bb3a", "lat": 38.917274, "fusion_lat": 0.0, "bike_id": "76a7558f935fa68993d268186005bb3a", "is_reserved": 0, "lon": -77.02964166666666, "is_disabled": 0, "fusion_lon": 0.0, "rental_uris": {"android": "https://dc.lft.to/lastmile_qr_scan", "ios": "https://dc.lft.to/lastmile_qr_scan"}}, {"type": "electric_scooter", "name": "6d61e0d49672b1321309b053f70371d0", "lat": 38.898962833333336, "fusion_lat": 0.0, "bike_id": "6d61e0d49672b1321309b053f70371d0", "is_reserved": 0, "lon": -76.93396516666667, "is_disabled": 0, "fusion_lon": 0.0, "rental_uris": {"android": "https://dc.lft.to/lastmile_qr_scan", "ios": "https://dc.lft.to/lastmile_qr_scan"}}, {"type": "electric_scooter", "name": "5959136523c944eb3754547472c00260", "lat": 38.93429316666667, "fusion_lat": 0.0, "bike_id": "5959136523c944eb3754547472c00260", "is_reserved": 0, "lon": -77.04003183333333, "is_disabled": 0, "fusion_lon": 0.0, "rental_uris": {"android": "https://dc.lft.to/lastmile_qr_scan", "ios": "https://dc.lft.to/lastmile_qr_scan"}}, {"type": "electric_scooter", "name": "03cd18a45cb865a769c263dbdb7cf8a1", "lat": 38.9287095, "fusion_lat": 0.0, "bike_id": "03cd18a45cb865a769c263dbdb7cf8a1", "is_reserved": 0, "lon": -77.027279, "is_disabled": 0, "fusion_lon": 0.0, "rental_uris": {"android": "https://dc.lft.to/lastmile_qr_scan", "ios": "https://dc.lft.to/lastmile_qr_scan"}}, {"type": "electric_scooter", "name": "8054fc6378c70f02db825bbfdccb2bc3", "lat": 38.909722333333335, "fusion_lat": 0.0, "bike_id": "8054fc6378c70f02db825bbfdccb2bc3", "is_reserved": 0, "lon": -77.04518083333333, "is_disabled": 0, "fusion_lon": 0.0, "rental_uris": {"android": "https://dc.lft.to/lastmile_qr_scan", "ios": "https://dc.lft.to/lastmile_qr_scan"}}, {"type": "electric_scooter", "name": "4ae4146aaefbc4fa5aad8a11cc1a845a", "lat": 38.892206, "fusion_lat": 0.0, "bike_id": "4ae4146aaefbc4fa5aad8a11cc1a845a", "is_reserved": 0, "lon": -77.01353016666667, "is_disabled": 0, "fusion_lon": 0.0, "rental_uris": {"android": "https://dc.lft.to/lastmile_qr_scan", "ios": "https://dc.lft.to/lastmile_qr_scan"}}, {"type": "electric_scooter", "name": "a9bd8791faa65eeca6f5bdc510d291c2", "lat": 38.898979833333335, "fusion_lat": 0.0, "bike_id": "a9bd8791faa65eeca6f5bdc510d291c2", "is_reserved": 0, "lon": -77.032779, "is_disabled": 0, "fusion_lon": 0.0, "rental_uris": {"android": "https://dc.lft.to/lastmile_qr_scan", "ios": "https://dc.lft.to/lastmile_qr_scan"}}, {"type": "electric_scooter", "name": "072164fe0d3caf831610cf52ce2aeb0b", "lat": 38.93744233333334, "fusion_lat": 0.0, "bike_id": "072164fe0d3caf831610cf52ce2aeb0b", "is_reserved": 0, "lon": -77.02521233333333, "is_disabled": 0, "fusion_lon": 0.0, "rental_uris": {"android": "https://dc.lft.to/lastmile_qr_scan", "ios": "https://dc.lft.to/lastmile_qr_scan"}}, {"type": "electric_scooter", "name": "7a08787c65cb709c97acd0e35ed5c200", "lat": 38.92435183333333, "fusion_lat": 0.0, "bike_id": "7a08787c65cb709c97acd0e35ed5c200", "is_reserved": 0, "lon": -77.03405433333333, "is_disabled": 0, "fusion_lon": 0.0, "rental_uris": {"android": "https://dc.lft.to/lastmile_qr_scan", "ios": "https://dc.lft.to/lastmile_qr_scan"}}, {"type": "electric_scooter", "name": "3a2e40016326786eff043b0ec7df8aaf", "lat": 38.924480833333334, "fusion_lat": 0.0, "bike_id": "3a2e40016326786eff043b0ec7df8aaf", "is_reserved": 0, "lon": -77.02143833333334, "is_disabled": 0, "fusion_lon": 0.0, "rental_uris": {"android": "https://dc.lft.to/lastmile_qr_scan", "ios": "https://dc.lft.to/lastmile_qr_scan"}}, {"type": "electric_scooter", "name": "3ea992bd402583caa345dcc60c952762", "lat": 38.866561833333336, "fusion_lat": 0.0, "bike_id": "3ea992bd402583caa345dcc60c952762", "is_reserved": 0, "lon": -76.98885333333334, "is_disabled": 0, "fusion_lon": 0.0, "rental_uris": {"android": "https://dc.lft.to/lastmile_qr_scan", "ios": "https://dc.lft.to/lastmile_qr_scan"}}, {"type": "electric_scooter", "name": "2824618116ace24e1afe82c849304e24", "lat": 38.92489583333333, "fusion_lat": 0.0, "bike_id": "2824618116ace24e1afe82c849304e24", "is_reserved": 0, "lon": -77.02134033333333, "is_disabled": 0, "fusion_lon": 0.0, "rental_uris": {"android": "https://dc.lft.to/lastmile_qr_scan", "ios": "https://dc.lft.to/lastmile_qr_scan"}}, {"type": "electric_scooter", "name": "4e1424ec18f460f8ab11ec179d2a8707", "lat": 38.924814166666664, "fusion_lat": 0.0, "bike_id": "4e1424ec18f460f8ab11ec179d2a8707", "is_reserved": 0, "lon": -77.022169, "is_disabled": 0, "fusion_lon": 0.0, "rental_uris": {"android": "https://dc.lft.to/lastmile_qr_scan", "ios": "https://dc.lft.to/lastmile_qr_scan"}}, {"type": "electric_bike", "name": "80e5905cba67d36d0b12c01456709af7", "lat": 38.79700533333333, "fusion_lat": 0.0, "bike_id": "80e5905cba67d36d0b12c01456709af7", "is_reserved": 0, "lon": -77.00367883333334, "is_disabled": 0, "fusion_lon": 0.0, "rental_uris": {"android": "https://dc.lft.to/lastmile_qr_scan", "ios": "https://dc.lft.to/lastmile_qr_scan"}}, {"type": "electric_scooter", "name": "dcd44169f8dd415238b76f62d5a65303", "lat": 38.890422, "fusion_lat": 0.0, "bike_id": "dcd44169f8dd415238b76f62d5a65303", "is_reserved": 0, "lon": -76.9524605, "is_disabled": 0, "fusion_lon": 0.0, "rental_uris": {"android": "https://dc.lft.to/lastmile_qr_scan", "ios": "https://dc.lft.to/lastmile_qr_scan"}}, {"type": "electric_scooter", "name": "4d3d02e8d06bbc7d152863ede571b2ab", "lat": 38.89951583333333, "fusion_lat": 0.0, "bike_id": "4d3d02e8d06bbc7d152863ede571b2ab", "is_reserved": 0, "lon": -76.98161383333333, "is_disabled": 0, "fusion_lon": 0.0, "rental_uris": {"android": "https://dc.lft.to/lastmile_qr_scan", "ios": "https://dc.lft.to/lastmile_qr_scan"}}, {"type": "electric_scooter", "name": "008976c0a9d2f929b6cde6a3ea6ccd38", "lat": 38.90789816666667, "fusion_lat": 0.0, "bike_id": "008976c0a9d2f929b6cde6a3ea6ccd38", "is_reserved": 0, "lon": -77.02716016666666, "is_disabled": 0, "fusion_lon": 0.0, "rental_uris": {"android": "https://dc.lft.to/lastmile_qr_scan", "ios": "https://dc.lft.to/lastmile_qr_scan"}}, {"type": "electric_scooter", "name": "e6d38488f48c90dd9926a5660fc37eb8", "lat": 38.89785833333333, "fusion_lat": 0.0, "bike_id": "e6d38488f48c90dd9926a5660fc37eb8", "is_reserved": 0, "lon": -77.01357816666666, "is_disabled": 0, "fusion_lon": 0.0, "rental_uris": {"android": "https://dc.lft.to/lastmile_qr_scan", "ios": "https://dc.lft.to/lastmile_qr_scan"}}, {"type": "electric_scooter", "name": "35b7718bdc84ea8033c5bc0c16d6f00f", "lat": 38.94381166666667, "fusion_lat": 0.0, "bike_id": "35b7718bdc84ea8033c5bc0c16d6f00f", "is_reserved": 0, "lon": -77.07700783333334, "is_disabled": 0, "fusion_lon": 0.0, "rental_uris": {"android": "https://dc.lft.to/lastmile_qr_scan", "ios": "https://dc.lft.to/lastmile_qr_scan"}}, {"type": "electric_scooter", "name": "458d6dcb1efa5e6363773a861e4cc3f9", "lat": 38.90033566666666, "fusion_lat": 0.0, "bike_id": "458d6dcb1efa5e6363773a861e4cc3f9", "is_reserved": 0, "lon": -77.0581985, "is_disabled": 0, "fusion_lon": 0.0, "rental_uris": {"android": "https://dc.lft.to/lastmile_qr_scan", "ios": "https://dc.lft.to/lastmile_qr_scan"}}, {"type": "electric_scooter", "name": "58d1c6a182d157a8554a4eec3fcdbcf6", "lat": 38.866971166666666, "fusion_lat": 0.0, "bike_id": "58d1c6a182d157a8554a4eec3fcdbcf6", "is_reserved": 0, "lon": -76.98543883333333, "is_disabled": 0, "fusion_lon": 0.0, "rental_uris": {"android": "https://dc.lft.to/lastmile_qr_scan", "ios": "https://dc.lft.to/lastmile_qr_scan"}}, {"type": "electric_scooter", "name": "14c17d33224c0c4b01e68795dfda192e", "lat": 38.935136, "fusion_lat": 0.0, "bike_id": "14c17d33224c0c4b01e68795dfda192e", "is_reserved": 0, "lon": -77.03343783333334, "is_disabled": 0, "fusion_lon": 0.0, "rental_uris": {"android": "https://dc.lft.to/lastmile_qr_scan", "ios": "https://dc.lft.to/lastmile_qr_scan"}}, {"type": "electric_bike", "name": "3860544c7da1164eb10f03dec9ff0cfc", "lat": 38.806567666666666, "fusion_lat": 0.0, "bike_id": "3860544c7da1164eb10f03dec9ff0cfc", "is_reserved": 0, "lon": -77.08760333333333, "is_disabled": 0, "fusion_lon": 0.0, "rental_uris": {"android": "https://dc.lft.to/lastmile_qr_scan", "ios": "https://dc.lft.to/lastmile_qr_scan"}}, {"type": "electric_scooter", "name": "c50e0b36ad649bafa838eddf5b295c0d", "lat": 38.92927066666667, "fusion_lat": 0.0, "bike_id": "c50e0b36ad649bafa838eddf5b295c0d", "is_reserved": 0, "lon": -77.03268833333334, "is_disabled": 0, "fusion_lon": 0.0, "rental_uris": {"android": "https://dc.lft.to/lastmile_qr_scan", "ios": "https://dc.lft.to/lastmile_qr_scan"}}, {"type": "electric_scooter", "name": "d77aeda2836145fd45113b5ee9c466aa", "lat": 38.90243783333333, "fusion_lat": 0.0, "bike_id": "d77aeda2836145fd45113b5ee9c466aa", "is_reserved": 0, "lon": -77.04343466666667, "is_disabled": 0, "fusion_lon": 0.0, "rental_uris": {"android": "https://dc.lft.to/lastmile_qr_scan", "ios": "https://dc.lft.to/lastmile_qr_scan"}}, {"type": "electric_scooter", "name": "a9b97b5e194b528d90c09230485bbfa1", "lat": 38.89717816666667, "fusion_lat": 0.0, "bike_id": "a9b97b5e194b528d90c09230485bbfa1", "is_reserved": 0, "lon": -77.02714816666666, "is_disabled": 0, "fusion_lon": 0.0, "rental_uris": {"android": "https://dc.lft.to/lastmile_qr_scan", "ios": "https://dc.lft.to/lastmile_qr_scan"}}, {"type": "electric_scooter", "name": "1100f65e05712d341ed460e3aa2eb690", "lat": 38.92041233333333, "fusion_lat": 0.0, "bike_id": "1100f65e05712d341ed460e3aa2eb690", "is_reserved": 0, "lon": -77.01678766666667, "is_disabled": 0, "fusion_lon": 0.0, "rental_uris": {"android": "https://dc.lft.to/lastmile_qr_scan", "ios": "https://dc.lft.to/lastmile_qr_scan"}}, {"type": "electric_bike", "name": "3dcfff364b378a16bd791375b81e0d8c", "lat": 38.97225866666667, "fusion_lat": 0.0, "bike_id": "3dcfff364b378a16bd791375b81e0d8c", "is_reserved": 0, "lon": -77.0142855, "is_disabled": 0, "fusion_lon": 0.0, "rental_uris": {"android": "https://dc.lft.to/lastmile_qr_scan", "ios": "https://dc.lft.to/lastmile_qr_scan"}}, {"type": "electric_bike", "name": "d34405236c248ea1af6dfe9aa83c7f2f", "lat": 38.794714166666665, "fusion_lat": 0.0, "bike_id": "d34405236c248ea1af6dfe9aa83c7f2f", "is_reserved": 0, "lon": -76.992455, "is_disabled": 0, "fusion_lon": 0.0, "rental_uris": {"android": "https://dc.lft.to/lastmile_qr_scan", "ios": "https://dc.lft.to/lastmile_qr_scan"}}, {"type": "electric_scooter", "name": "ca8ea8f2f09c70c5dc05f59ee509c7eb", "lat": 38.900478666666665, "fusion_lat": 0.0, "bike_id": "ca8ea8f2f09c70c5dc05f59ee509c7eb", "is_reserved": 0, "lon": -77.00194383333333, "is_disabled": 0, "fusion_lon": 0.0, "rental_uris": {"android": "https://dc.lft.to/lastmile_qr_scan", "ios": "https://dc.lft.to/lastmile_qr_scan"}}, {"type": "electric_scooter", "name": "8efd88739de54792967961d1ef149536", "lat": 38.93606333333334, "fusion_lat": 0.0, "bike_id": "8efd88739de54792967961d1ef149536", "is_reserved": 0, "lon": -77.03786833333334, "is_disabled": 0, "fusion_lon": 0.0, "rental_uris": {"android": "https://dc.lft.to/lastmile_qr_scan", "ios": "https://dc.lft.to/lastmile_qr_scan"}}, {"type": "electric_scooter", "name": "24b0efb1aac48fe8ca15f9004b6f48d8", "lat": 38.86263183333333, "fusion_lat": 0.0, "bike_id": "24b0efb1aac48fe8ca15f9004b6f48d8", "is_reserved": 0, "lon": -76.992606, "is_disabled": 0, "fusion_lon": 0.0, "rental_uris": {"android": "https://dc.lft.to/lastmile_qr_scan", "ios": "https://dc.lft.to/lastmile_qr_scan"}}, {"type": "electric_scooter", "name": "d0565d19fc4023df1ed516714a4d288d", "lat": 38.926112333333336, "fusion_lat": 0.0, "bike_id": "d0565d19fc4023df1ed516714a4d288d", "is_reserved": 0, "lon": -77.02160416666666, "is_disabled": 0, "fusion_lon": 0.0, "rental_uris": {"android": "https://dc.lft.to/lastmile_qr_scan", "ios": "https://dc.lft.to/lastmile_qr_scan"}}, {"type": "electric_scooter", "name": "c6483a3d29a3cef5e51ca08b39d8b436", "lat": 38.90246233333333, "fusion_lat": 0.0, "bike_id": "c6483a3d29a3cef5e51ca08b39d8b436", "is_reserved": 0, "lon": -77.00182883333333, "is_disabled": 0, "fusion_lon": 0.0, "rental_uris": {"android": "https://dc.lft.to/lastmile_qr_scan", "ios": "https://dc.lft.to/lastmile_qr_scan"}}, {"type": "electric_scooter", "name": "5e97634cac9af1141141cb0072fccf49", "lat": 38.90001766666666, "fusion_lat": 0.0, "bike_id": "5e97634cac9af1141141cb0072fccf49", "is_reserved": 0, "lon": -76.99948783333333, "is_disabled": 0, "fusion_lon": 0.0, "rental_uris": {"android": "https://dc.lft.to/lastmile_qr_scan", "ios": "https://dc.lft.to/lastmile_qr_scan"}}, {"type": "electric_scooter", "name": "3ba6813e194e4e1a525d965860d33298", "lat": 38.9027845, "fusion_lat": 0.0, "bike_id": "3ba6813e194e4e1a525d965860d33298", "is_reserved": 0, "lon": -77.0227665, "is_disabled": 0, "fusion_lon": 0.0, "rental_uris": {"android": "https://dc.lft.to/lastmile_qr_scan", "ios": "https://dc.lft.to/lastmile_qr_scan"}}, {"type": "electric_scooter", "name": "85fc91772fc854d443794065b6d3d67f", "lat": 38.90384233333333, "fusion_lat": 0.0, "bike_id": "85fc91772fc854d443794065b6d3d67f", "is_reserved": 0, "lon": -77.04352116666666, "is_disabled": 0, "fusion_lon": 0.0, "rental_uris": {"android": "https://dc.lft.to/lastmile_qr_scan", "ios": "https://dc.lft.to/lastmile_qr_scan"}}, {"type": "electric_scooter", "name": "7fe407a78577cd63298653c6dc1b654c", "lat": 38.88607783333333, "fusion_lat": 0.0, "bike_id": "7fe407a78577cd63298653c6dc1b654c", "is_reserved": 0, "lon": -76.9559235, "is_disabled": 0, "fusion_lon": 0.0, "rental_uris": {"android": "https://dc.lft.to/lastmile_qr_scan", "ios": "https://dc.lft.to/lastmile_qr_scan"}}, {"type": "electric_scooter", "name": "ef13be177e3c9a462716a1fa63d1a5f5", "lat": 38.921228166666666, "fusion_lat": 0.0, "bike_id": "ef13be177e3c9a462716a1fa63d1a5f5", "is_reserved": 0, "lon": -77.019198, "is_disabled": 0, "fusion_lon": 0.0, "rental_uris": {"android": "https://dc.lft.to/lastmile_qr_scan", "ios": "https://dc.lft.to/lastmile_qr_scan"}}, {"type": "electric_scooter", "name": "e917fb0659f7aab72d3bede018a7cdb1", "lat": 38.938643666666664, "fusion_lat": 0.0, "bike_id": "e917fb0659f7aab72d3bede018a7cdb1", "is_reserved": 0, "lon": -77.02486066666667, "is_disabled": 0, "fusion_lon": 0.0, "rental_uris": {"android": "https://dc.lft.to/lastmile_qr_scan", "ios": "https://dc.lft.to/lastmile_qr_scan"}}, {"type": "electric_scooter", "name": "6ce6227a792d251c17040b87eb6a3f55", "lat": 38.881904, "fusion_lat": 0.0, "bike_id": "6ce6227a792d251c17040b87eb6a3f55", "is_reserved": 0, "lon": -76.95891133333333, "is_disabled": 0, "fusion_lon": 0.0, "rental_uris": {"android": "https://dc.lft.to/lastmile_qr_scan", "ios": "https://dc.lft.to/lastmile_qr_scan"}}, {"type": "electric_scooter", "name": "02bb33bb2f0acbd4f890e5098beba8b1", "lat": 38.9317745, "fusion_lat": 0.0, "bike_id": "02bb33bb2f0acbd4f890e5098beba8b1", "is_reserved": 0, "lon": -77.04300316666667, "is_disabled": 0, "fusion_lon": 0.0, "rental_uris": {"android": "https://dc.lft.to/lastmile_qr_scan", "ios": "https://dc.lft.to/lastmile_qr_scan"}}, {"type": "electric_scooter", "name": "dea3d171c26950f199a4d6b4bcf691d9", "lat": 38.9198555, "fusion_lat": 0.0, "bike_id": "dea3d171c26950f199a4d6b4bcf691d9", "is_reserved": 0, "lon": -76.9730555, "is_disabled": 0, "fusion_lon": 0.0, "rental_uris": {"android": "https://dc.lft.to/lastmile_qr_scan", "ios": "https://dc.lft.to/lastmile_qr_scan"}}, {"type": "electric_scooter", "name": "7ef2fa0c3d0de8125ed016de1b131722", "lat": 38.897336833333334, "fusion_lat": 0.0, "bike_id": "7ef2fa0c3d0de8125ed016de1b131722", "is_reserved": 0, "lon": -77.00759633333334, "is_disabled": 0, "fusion_lon": 0.0, "rental_uris": {"android": "https://dc.lft.to/lastmile_qr_scan", "ios": "https://dc.lft.to/lastmile_qr_scan"}}, {"type": "electric_scooter", "name": "ebddc4ed27a6e844e796ca41b2b22956", "lat": 38.90504133333334, "fusion_lat": 0.0, "bike_id": "ebddc4ed27a6e844e796ca41b2b22956", "is_reserved": 0, "lon": -77.04474966666666, "is_disabled": 0, "fusion_lon": 0.0, "rental_uris": {"android": "https://dc.lft.to/lastmile_qr_scan", "ios": "https://dc.lft.to/lastmile_qr_scan"}}, {"type": "electric_scooter", "name": "96b063d9c413c06421c2bbb599053bba", "lat": 38.89633466666667, "fusion_lat": 0.0, "bike_id": "96b063d9c413c06421c2bbb599053bba", "is_reserved": 0, "lon": -77.0263595, "is_disabled": 0, "fusion_lon": 0.0, "rental_uris": {"android": "https://dc.lft.to/lastmile_qr_scan", "ios": "https://dc.lft.to/lastmile_qr_scan"}}, {"type": "electric_scooter", "name": "9cac0d4320f1a2e7b74d11c1cb6b2931", "lat": 38.900164333333336, "fusion_lat": 0.0, "bike_id": "9cac0d4320f1a2e7b74d11c1cb6b2931", "is_reserved": 0, "lon": -76.99166966666667, "is_disabled": 0, "fusion_lon": 0.0, "rental_uris": {"android": "https://dc.lft.to/lastmile_qr_scan", "ios": "https://dc.lft.to/lastmile_qr_scan"}}, {"type": "electric_scooter", "name": "3d037a0d6256ab72d3cc9e5a94c2a703", "lat": 38.9279005, "fusion_lat": 0.0, "bike_id": "3d037a0d6256ab72d3cc9e5a94c2a703", "is_reserved": 0, "lon": -77.02315283333333, "is_disabled": 0, "fusion_lon": 0.0, "rental_uris": {"android": "https://dc.lft.to/lastmile_qr_scan", "ios": "https://dc.lft.to/lastmile_qr_scan"}}, {"type": "electric_scooter", "name": "ce34bdf663c6f4cf389e77ad9d87a42f", "lat": 38.919985, "fusion_lat": 0.0, "bike_id": "ce34bdf663c6f4cf389e77ad9d87a42f", "is_reserved": 0, "lon": -77.032172, "is_disabled": 0, "fusion_lon": 0.0, "rental_uris": {"android": "https://dc.lft.to/lastmile_qr_scan", "ios": "https://dc.lft.to/lastmile_qr_scan"}}, {"type": "electric_scooter", "name": "514d34b77f96c44aed2db19610112f6f", "lat": 38.9158, "fusion_lat": 0.0, "bike_id": "514d34b77f96c44aed2db19610112f6f", "is_reserved": 0, "lon": -77.031958, "is_disabled": 0, "fusion_lon": 0.0, "rental_uris": {"android": "https://dc.lft.to/lastmile_qr_scan", "ios": "https://dc.lft.to/lastmile_qr_scan"}}, {"type": "electric_scooter", "name": "e900160bccea1deba707dd23f86932e0", "lat": 38.931073, "fusion_lat": 0.0, "bike_id": "e900160bccea1deba707dd23f86932e0", "is_reserved": 0, "lon": -77.02118983333334, "is_disabled": 0, "fusion_lon": 0.0, "rental_uris": {"android": "https://dc.lft.to/lastmile_qr_scan", "ios": "https://dc.lft.to/lastmile_qr_scan"}}, {"type": "electric_scooter", "name": "35a643b1665ced91de5de1e668642df8", "lat": 38.920463166666664, "fusion_lat": 0.0, "bike_id": "35a643b1665ced91de5de1e668642df8", "is_reserved": 0, "lon": -77.02572066666667, "is_disabled": 0, "fusion_lon": 0.0, "rental_uris": {"android": "https://dc.lft.to/lastmile_qr_scan", "ios": "https://dc.lft.to/lastmile_qr_scan"}}, {"type": "electric_scooter", "name": "43812dd86837545d571867c2228ec158", "lat": 38.93081816666667, "fusion_lat": 0.0, "bike_id": "43812dd86837545d571867c2228ec158", "is_reserved": 0, "lon": -77.02789133333333, "is_disabled": 0, "fusion_lon": 0.0, "rental_uris": {"android": "https://dc.lft.to/lastmile_qr_scan", "ios": "https://dc.lft.to/lastmile_qr_scan"}}, {"type": "electric_scooter", "name": "6faab50708760df17317249d555c4b1f", "lat": 38.85595583333333, "fusion_lat": 0.0, "bike_id": "6faab50708760df17317249d555c4b1f", "is_reserved": 0, "lon": -76.98722733333334, "is_disabled": 0, "fusion_lon": 0.0, "rental_uris": {"android": "https://dc.lft.to/lastmile_qr_scan", "ios": "https://dc.lft.to/lastmile_qr_scan"}}, {"type": "electric_scooter", "name": "9a44a77e369e6308c4f408817411d6cc", "lat": 38.887069833333335, "fusion_lat": 0.0, "bike_id": "9a44a77e369e6308c4f408817411d6cc", "is_reserved": 0, "lon": -77.0137405, "is_disabled": 0, "fusion_lon": 0.0, "rental_uris": {"android": "https://dc.lft.to/lastmile_qr_scan", "ios": "https://dc.lft.to/lastmile_qr_scan"}}, {"type": "electric_scooter", "name": "54111d16ca7faca205d58dee9b6db5af", "lat": 38.89471066666667, "fusion_lat": 0.0, "bike_id": "54111d16ca7faca205d58dee9b6db5af", "is_reserved": 0, "lon": -76.99500083333334, "is_disabled": 0, "fusion_lon": 0.0, "rental_uris": {"android": "https://dc.lft.to/lastmile_qr_scan", "ios": "https://dc.lft.to/lastmile_qr_scan"}}, {"type": "electric_scooter", "name": "ca4be3d11965f73861ebb011fb885b2b", "lat": 38.904186, "fusion_lat": 0.0, "bike_id": "ca4be3d11965f73861ebb011fb885b2b", "is_reserved": 0, "lon": -77.0434375, "is_disabled": 0, "fusion_lon": 0.0, "rental_uris": {"android": "https://dc.lft.to/lastmile_qr_scan", "ios": "https://dc.lft.to/lastmile_qr_scan"}}, {"type": "electric_scooter", "name": "bc2b20a03c6b2789b24845478b0292ed", "lat": 38.898456, "fusion_lat": 0.0, "bike_id": "bc2b20a03c6b2789b24845478b0292ed", "is_reserved": 0, "lon": -77.00749083333334, "is_disabled": 0, "fusion_lon": 0.0, "rental_uris": {"android": "https://dc.lft.to/lastmile_qr_scan", "ios": "https://dc.lft.to/lastmile_qr_scan"}}, {"type": "electric_scooter", "name": "790ce75a06e4987c6034dd5df2fd8bf3", "lat": 38.902860833333335, "fusion_lat": 0.0, "bike_id": "790ce75a06e4987c6034dd5df2fd8bf3", "is_reserved": 0, "lon": -77.02318766666667, "is_disabled": 0, "fusion_lon": 0.0, "rental_uris": {"android": "https://dc.lft.to/lastmile_qr_scan", "ios": "https://dc.lft.to/lastmile_qr_scan"}}, {"type": "electric_scooter", "name": "eb0ae152505a443e0da38493be83be91", "lat": 38.8992935, "fusion_lat": 0.0, "bike_id": "eb0ae152505a443e0da38493be83be91", "is_reserved": 0, "lon": -77.040185, "is_disabled": 0, "fusion_lon": 0.0, "rental_uris": {"android": "https://dc.lft.to/lastmile_qr_scan", "ios": "https://dc.lft.to/lastmile_qr_scan"}}, {"type": "electric_scooter", "name": "5b25dddbbede93e63aa8b042472640aa", "lat": 38.929745, "fusion_lat": 0.0, "bike_id": "5b25dddbbede93e63aa8b042472640aa", "is_reserved": 0, "lon": -77.0549895, "is_disabled": 0, "fusion_lon": 0.0, "rental_uris": {"android": "https://dc.lft.to/lastmile_qr_scan", "ios": "https://dc.lft.to/lastmile_qr_scan"}}, {"type": "electric_scooter", "name": "db3fdb39f64595fff81dc4192d18ad71", "lat": 38.97379316666667, "fusion_lat": 0.0, "bike_id": "db3fdb39f64595fff81dc4192d18ad71", "is_reserved": 0, "lon": -77.01809283333333, "is_disabled": 0, "fusion_lon": 0.0, "rental_uris": {"android": "https://dc.lft.to/lastmile_qr_scan", "ios": "https://dc.lft.to/lastmile_qr_scan"}}, {"type": "electric_scooter", "name": "87a1b306bacbbf81a0f307f6d9ecd359", "lat": 38.892259333333335, "fusion_lat": 0.0, "bike_id": "87a1b306bacbbf81a0f307f6d9ecd359", "is_reserved": 0, "lon": -77.043781, "is_disabled": 0, "fusion_lon": 0.0, "rental_uris": {"android": "https://dc.lft.to/lastmile_qr_scan", "ios": "https://dc.lft.to/lastmile_qr_scan"}}, {"type": "electric_scooter", "name": "76a368541219b44c5acb9a4a52d1a868", "lat": 38.902329, "fusion_lat": 0.0, "bike_id": "76a368541219b44c5acb9a4a52d1a868", "is_reserved": 0, "lon": -77.03336283333333, "is_disabled": 0, "fusion_lon": 0.0, "rental_uris": {"android": "https://dc.lft.to/lastmile_qr_scan", "ios": "https://dc.lft.to/lastmile_qr_scan"}}, {"type": "electric_scooter", "name": "1b026c738a323250b7bf2724da44e637", "lat": 38.897975833333334, "fusion_lat": 0.0, "bike_id": "1b026c738a323250b7bf2724da44e637", "is_reserved": 0, "lon": -76.9310945, "is_disabled": 0, "fusion_lon": 0.0, "rental_uris": {"android": "https://dc.lft.to/lastmile_qr_scan", "ios": "https://dc.lft.to/lastmile_qr_scan"}}, {"type": "electric_scooter", "name": "21d86999377f5125d38fe8a559cec3a4", "lat": 38.8947185, "fusion_lat": 0.0, "bike_id": "21d86999377f5125d38fe8a559cec3a4", "is_reserved": 0, "lon": -77.01750516666667, "is_disabled": 0, "fusion_lon": 0.0, "rental_uris": {"android": "https://dc.lft.to/lastmile_qr_scan", "ios": "https://dc.lft.to/lastmile_qr_scan"}}, {"type": "electric_scooter", "name": "b4afee9b3fc9596e0de58a39b008dfa8", "lat": 38.901376666666664, "fusion_lat": 0.0, "bike_id": "b4afee9b3fc9596e0de58a39b008dfa8", "is_reserved": 0, "lon": -77.03872516666667, "is_disabled": 0, "fusion_lon": 0.0, "rental_uris": {"android": "https://dc.lft.to/lastmile_qr_scan", "ios": "https://dc.lft.to/lastmile_qr_scan"}}, {"type": "electric_scooter", "name": "2e4e52110e212b4b0d2bf8bf09569b6c", "lat": 38.89834, "fusion_lat": 0.0, "bike_id": "2e4e52110e212b4b0d2bf8bf09569b6c", "is_reserved": 0, "lon": -77.02810316666667, "is_disabled": 0, "fusion_lon": 0.0, "rental_uris": {"android": "https://dc.lft.to/lastmile_qr_scan", "ios": "https://dc.lft.to/lastmile_qr_scan"}}, {"type": "electric_scooter", "name": "d7c6b1eff8b75ad1afc10594f69c882c", "lat": 38.917416333333335, "fusion_lat": 0.0, "bike_id": "d7c6b1eff8b75ad1afc10594f69c882c", "is_reserved": 0, "lon": -77.023972, "is_disabled": 0, "fusion_lon": 0.0, "rental_uris": {"android": "https://dc.lft.to/lastmile_qr_scan", "ios": "https://dc.lft.to/lastmile_qr_scan"}}, {"type": "electric_scooter", "name": "c5a575ed62cd36fb72d042775a97886f", "lat": 38.90553166666667, "fusion_lat": 0.0, "bike_id": "c5a575ed62cd36fb72d042775a97886f", "is_reserved": 0, "lon": -77.04741733333333, "is_disabled": 0, "fusion_lon": 0.0, "rental_uris": {"android": "https://dc.lft.to/lastmile_qr_scan", "ios": "https://dc.lft.to/lastmile_qr_scan"}}, {"type": "electric_scooter", "name": "4c2b878165e83234532218827a613ab9", "lat": 38.92791833333333, "fusion_lat": 0.0, "bike_id": "4c2b878165e83234532218827a613ab9", "is_reserved": 0, "lon": -77.031514, "is_disabled": 0, "fusion_lon": 0.0, "rental_uris": {"android": "https://dc.lft.to/lastmile_qr_scan", "ios": "https://dc.lft.to/lastmile_qr_scan"}}, {"type": "electric_scooter", "name": "833efec023f04a01b475d0fec220fd4a", "lat": 38.897404333333334, "fusion_lat": 0.0, "bike_id": "833efec023f04a01b475d0fec220fd4a", "is_reserved": 0, "lon": -77.03170583333333, "is_disabled": 0, "fusion_lon": 0.0, "rental_uris": {"android": "https://dc.lft.to/lastmile_qr_scan", "ios": "https://dc.lft.to/lastmile_qr_scan"}}, {"type": "electric_scooter", "name": "16060ddb9c7ffd460ea8898a68f3b076", "lat": 38.912296166666664, "fusion_lat": 0.0, "bike_id": "16060ddb9c7ffd460ea8898a68f3b076", "is_reserved": 0, "lon": -76.98787216666666, "is_disabled": 0, "fusion_lon": 0.0, "rental_uris": {"android": "https://dc.lft.to/lastmile_qr_scan", "ios": "https://dc.lft.to/lastmile_qr_scan"}}, {"type": "electric_scooter", "name": "51f65aea9367217a413777f9a46b6454", "lat": 38.90045766666667, "fusion_lat": 0.0, "bike_id": "51f65aea9367217a413777f9a46b6454", "is_reserved": 0, "lon": -77.0019385, "is_disabled": 0, "fusion_lon": 0.0, "rental_uris": {"android": "https://dc.lft.to/lastmile_qr_scan", "ios": "https://dc.lft.to/lastmile_qr_scan"}}, {"type": "electric_scooter", "name": "6e38b5d193b7eac0fb036bf172609589", "lat": 38.91143816666667, "fusion_lat": 0.0, "bike_id": "6e38b5d193b7eac0fb036bf172609589", "is_reserved": 0, "lon": -77.02417733333333, "is_disabled": 0, "fusion_lon": 0.0, "rental_uris": {"android": "https://dc.lft.to/lastmile_qr_scan", "ios": "https://dc.lft.to/lastmile_qr_scan"}}, {"type": "electric_scooter", "name": "31860c15a6daa1e6f87fc06b123e225b", "lat": 38.86503833333333, "fusion_lat": 0.0, "bike_id": "31860c15a6daa1e6f87fc06b123e225b", "is_reserved": 0, "lon": -76.98998733333333, "is_disabled": 0, "fusion_lon": 0.0, "rental_uris": {"android": "https://dc.lft.to/lastmile_qr_scan", "ios": "https://dc.lft.to/lastmile_qr_scan"}}, {"type": "electric_scooter", "name": "ab42dfe1b054bb890e626fb50b08f4c2", "lat": 38.92336516666667, "fusion_lat": 0.0, "bike_id": "ab42dfe1b054bb890e626fb50b08f4c2", "is_reserved": 0, "lon": -77.0389315, "is_disabled": 0, "fusion_lon": 0.0, "rental_uris": {"android": "https://dc.lft.to/lastmile_qr_scan", "ios": "https://dc.lft.to/lastmile_qr_scan"}}, {"type": "electric_scooter", "name": "45f7a6ea647d5f726b46ecbf6adc3d9f", "lat": 38.9067545, "fusion_lat": 0.0, "bike_id": "45f7a6ea647d5f726b46ecbf6adc3d9f", "is_reserved": 0, "lon": -77.03638816666667, "is_disabled": 0, "fusion_lon": 0.0, "rental_uris": {"android": "https://dc.lft.to/lastmile_qr_scan", "ios": "https://dc.lft.to/lastmile_qr_scan"}}, {"type": "electric_scooter", "name": "b47f3e2ab9844a5d565c62518eb47741", "lat": 38.9284475, "fusion_lat": 0.0, "bike_id": "b47f3e2ab9844a5d565c62518eb47741", "is_reserved": 0, "lon": -76.9959775, "is_disabled": 0, "fusion_lon": 0.0, "rental_uris": {"android": "https://dc.lft.to/lastmile_qr_scan", "ios": "https://dc.lft.to/lastmile_qr_scan"}}, {"type": "electric_scooter", "name": "dee01aee1023cd9e4a8c8919bffd7bd3", "lat": 38.904075166666665, "fusion_lat": 0.0, "bike_id": "dee01aee1023cd9e4a8c8919bffd7bd3", "is_reserved": 0, "lon": -77.03437133333334, "is_disabled": 0, "fusion_lon": 0.0, "rental_uris": {"android": "https://dc.lft.to/lastmile_qr_scan", "ios": "https://dc.lft.to/lastmile_qr_scan"}}, {"type": "electric_scooter", "name": "4b81e29a0d53c9ab9967a760be5dae48", "lat": 38.8964325, "fusion_lat": 0.0, "bike_id": "4b81e29a0d53c9ab9967a760be5dae48", "is_reserved": 0, "lon": -77.04012833333333, "is_disabled": 0, "fusion_lon": 0.0, "rental_uris": {"android": "https://dc.lft.to/lastmile_qr_scan", "ios": "https://dc.lft.to/lastmile_qr_scan"}}, {"type": "electric_scooter", "name": "be01c2928ee80498e0e5889bf197e577", "lat": 38.9110145, "fusion_lat": 0.0, "bike_id": "be01c2928ee80498e0e5889bf197e577", "is_reserved": 0, "lon": -77.0272215, "is_disabled": 0, "fusion_lon": 0.0, "rental_uris": {"android": "https://dc.lft.to/lastmile_qr_scan", "ios": "https://dc.lft.to/lastmile_qr_scan"}}, {"type": "electric_scooter", "name": "42e8ebb279018509b12c9a5a3c2c9f5c", "lat": 38.87584316666667, "fusion_lat": 0.0, "bike_id": "42e8ebb279018509b12c9a5a3c2c9f5c", "is_reserved": 0, "lon": -77.00416483333333, "is_disabled": 0, "fusion_lon": 0.0, "rental_uris": {"android": "https://dc.lft.to/lastmile_qr_scan", "ios": "https://dc.lft.to/lastmile_qr_scan"}}, {"type": "electric_scooter", "name": "3a31153fd89ac400eb685154f80f2a5a", "lat": 38.9033215, "fusion_lat": 0.0, "bike_id": "3a31153fd89ac400eb685154f80f2a5a", "is_reserved": 0, "lon": -77.0211175, "is_disabled": 0, "fusion_lon": 0.0, "rental_uris": {"android": "https://dc.lft.to/lastmile_qr_scan", "ios": "https://dc.lft.to/lastmile_qr_scan"}}, {"type": "electric_scooter", "name": "29d3390ca2c7ae95ffbb87ad2f08c8b7", "lat": 38.90284116666667, "fusion_lat": 0.0, "bike_id": "29d3390ca2c7ae95ffbb87ad2f08c8b7", "is_reserved": 0, "lon": -77.03828966666667, "is_disabled": 0, "fusion_lon": 0.0, "rental_uris": {"android": "https://dc.lft.to/lastmile_qr_scan", "ios": "https://dc.lft.to/lastmile_qr_scan"}}, {"type": "electric_scooter", "name": "beb3c4fd9ba6672c611552e26f9702eb", "lat": 38.9231635, "fusion_lat": 0.0, "bike_id": "beb3c4fd9ba6672c611552e26f9702eb", "is_reserved": 0, "lon": -77.02900833333334, "is_disabled": 0, "fusion_lon": 0.0, "rental_uris": {"android": "https://dc.lft.to/lastmile_qr_scan", "ios": "https://dc.lft.to/lastmile_qr_scan"}}, {"type": "electric_scooter", "name": "e4eed37ff4cee27e43975e8f89f9b603", "lat": 38.9207995, "fusion_lat": 0.0, "bike_id": "e4eed37ff4cee27e43975e8f89f9b603", "is_reserved": 0, "lon": -77.01820366666666, "is_disabled": 0, "fusion_lon": 0.0, "rental_uris": {"android": "https://dc.lft.to/lastmile_qr_scan", "ios": "https://dc.lft.to/lastmile_qr_scan"}}, {"type": "electric_scooter", "name": "bdc51c2906c9b0d3da1bce7f47ee0838", "lat": 38.856065666666666, "fusion_lat": 0.0, "bike_id": "bdc51c2906c9b0d3da1bce7f47ee0838", "is_reserved": 0, "lon": -76.97852366666666, "is_disabled": 0, "fusion_lon": 0.0, "rental_uris": {"android": "https://dc.lft.to/lastmile_qr_scan", "ios": "https://dc.lft.to/lastmile_qr_scan"}}, {"type": "electric_scooter", "name": "a4c1d6a54230e6e4ac1ceaad2b289b8a", "lat": 38.926110333333334, "fusion_lat": 0.0, "bike_id": "a4c1d6a54230e6e4ac1ceaad2b289b8a", "is_reserved": 0, "lon": -77.02157183333334, "is_disabled": 0, "fusion_lon": 0.0, "rental_uris": {"android": "https://dc.lft.to/lastmile_qr_scan", "ios": "https://dc.lft.to/lastmile_qr_scan"}}, {"type": "electric_scooter", "name": "8fcc4ed6afeafdef945efe9ba45e2336", "lat": 38.9225155, "fusion_lat": 0.0, "bike_id": "8fcc4ed6afeafdef945efe9ba45e2336", "is_reserved": 0, "lon": -77.04258, "is_disabled": 0, "fusion_lon": 0.0, "rental_uris": {"android": "https://dc.lft.to/lastmile_qr_scan", "ios": "https://dc.lft.to/lastmile_qr_scan"}}, {"type": "electric_scooter", "name": "60417e474a3195d77078449bdccf0f5f", "lat": 38.8958775, "fusion_lat": 0.0, "bike_id": "60417e474a3195d77078449bdccf0f5f", "is_reserved": 0, "lon": -77.0220865, "is_disabled": 0, "fusion_lon": 0.0, "rental_uris": {"android": "https://dc.lft.to/lastmile_qr_scan", "ios": "https://dc.lft.to/lastmile_qr_scan"}}, {"type": "electric_scooter", "name": "bb40aa6b9b6178a22a365db654529d05", "lat": 38.8958205, "fusion_lat": 0.0, "bike_id": "bb40aa6b9b6178a22a365db654529d05", "is_reserved": 0, "lon": -77.02299216666667, "is_disabled": 0, "fusion_lon": 0.0, "rental_uris": {"android": "https://dc.lft.to/lastmile_qr_scan", "ios": "https://dc.lft.to/lastmile_qr_scan"}}, {"type": "electric_scooter", "name": "e29efdd363d73544800980975850ceff", "lat": 38.898960833333334, "fusion_lat": 0.0, "bike_id": "e29efdd363d73544800980975850ceff", "is_reserved": 0, "lon": -77.00222883333333, "is_disabled": 0, "fusion_lon": 0.0, "rental_uris": {"android": "https://dc.lft.to/lastmile_qr_scan", "ios": "https://dc.lft.to/lastmile_qr_scan"}}, {"type": "electric_scooter", "name": "540fa082dc0bac19ad0683f1608e9de3", "lat": 38.9232305, "fusion_lat": 0.0, "bike_id": "540fa082dc0bac19ad0683f1608e9de3", "is_reserved": 0, "lon": -77.02122983333334, "is_disabled": 0, "fusion_lon": 0.0, "rental_uris": {"android": "https://dc.lft.to/lastmile_qr_scan", "ios": "https://dc.lft.to/lastmile_qr_scan"}}, {"type": "electric_scooter", "name": "9c12d620dc244e498916e4d9d5385021", "lat": 38.892197833333334, "fusion_lat": 0.0, "bike_id": "9c12d620dc244e498916e4d9d5385021", "is_reserved": 0, "lon": -77.04687383333334, "is_disabled": 0, "fusion_lon": 0.0, "rental_uris": {"android": "https://dc.lft.to/lastmile_qr_scan", "ios": "https://dc.lft.to/lastmile_qr_scan"}}, {"type": "electric_scooter", "name": "6d06235a660d643b9afb02d55a6547cf", "lat": 38.901359166666666, "fusion_lat": 0.0, "bike_id": "6d06235a660d643b9afb02d55a6547cf", "is_reserved": 0, "lon": -77.042416, "is_disabled": 0, "fusion_lon": 0.0, "rental_uris": {"android": "https://dc.lft.to/lastmile_qr_scan", "ios": "https://dc.lft.to/lastmile_qr_scan"}}, {"type": "electric_scooter", "name": "1597ef215e785352462c823d4ee3d1fd", "lat": 38.93269266666667, "fusion_lat": 0.0, "bike_id": "1597ef215e785352462c823d4ee3d1fd", "is_reserved": 0, "lon": -77.02362416666666, "is_disabled": 0, "fusion_lon": 0.0, "rental_uris": {"android": "https://dc.lft.to/lastmile_qr_scan", "ios": "https://dc.lft.to/lastmile_qr_scan"}}, {"type": "electric_scooter", "name": "dfc9d91714d03ec4433d4ed3eaf74ce5", "lat": 38.899853666666665, "fusion_lat": 0.0, "bike_id": "dfc9d91714d03ec4433d4ed3eaf74ce5", "is_reserved": 0, "lon": -77.02250983333333, "is_disabled": 0, "fusion_lon": 0.0, "rental_uris": {"android": "https://dc.lft.to/lastmile_qr_scan", "ios": "https://dc.lft.to/lastmile_qr_scan"}}, {"type": "electric_scooter", "name": "ad9568ac23dc8c5e9ec3a80a6af469fa", "lat": 38.894728, "fusion_lat": 0.0, "bike_id": "ad9568ac23dc8c5e9ec3a80a6af469fa", "is_reserved": 0, "lon": -76.9949995, "is_disabled": 0, "fusion_lon": 0.0, "rental_uris": {"android": "https://dc.lft.to/lastmile_qr_scan", "ios": "https://dc.lft.to/lastmile_qr_scan"}}, {"type": "electric_scooter", "name": "c5ae51be894abc59cc6fe09ab59115a5", "lat": 38.92283283333333, "fusion_lat": 0.0, "bike_id": "c5ae51be894abc59cc6fe09ab59115a5", "is_reserved": 0, "lon": -77.03663016666667, "is_disabled": 0, "fusion_lon": 0.0, "rental_uris": {"android": "https://dc.lft.to/lastmile_qr_scan", "ios": "https://dc.lft.to/lastmile_qr_scan"}}, {"type": "electric_scooter", "name": "85861584ecd92be0ef973e812905e6f9", "lat": 38.918141, "fusion_lat": 0.0, "bike_id": "85861584ecd92be0ef973e812905e6f9", "is_reserved": 0, "lon": -77.02475433333333, "is_disabled": 0, "fusion_lon": 0.0, "rental_uris": {"android": "https://dc.lft.to/lastmile_qr_scan", "ios": "https://dc.lft.to/lastmile_qr_scan"}}, {"type": "electric_scooter", "name": "325da2a795e87013ef186f6abafbce9c", "lat": 38.94189333333333, "fusion_lat": 0.0, "bike_id": "325da2a795e87013ef186f6abafbce9c", "is_reserved": 0, "lon": -77.038441, "is_disabled": 0, "fusion_lon": 0.0, "rental_uris": {"android": "https://dc.lft.to/lastmile_qr_scan", "ios": "https://dc.lft.to/lastmile_qr_scan"}}, {"type": "electric_scooter", "name": "69eaaf45c5ef4b665a8915063760043b", "lat": 38.90267433333333, "fusion_lat": 0.0, "bike_id": "69eaaf45c5ef4b665a8915063760043b", "is_reserved": 0, "lon": -77.02766033333333, "is_disabled": 0, "fusion_lon": 0.0, "rental_uris": {"android": "https://dc.lft.to/lastmile_qr_scan", "ios": "https://dc.lft.to/lastmile_qr_scan"}}, {"type": "electric_scooter", "name": "15b11e4b469b85e455861e863400d5fb", "lat": 38.926847333333335, "fusion_lat": 0.0, "bike_id": "15b11e4b469b85e455861e863400d5fb", "is_reserved": 0, "lon": -77.01544083333333, "is_disabled": 0, "fusion_lon": 0.0, "rental_uris": {"android": "https://dc.lft.to/lastmile_qr_scan", "ios": "https://dc.lft.to/lastmile_qr_scan"}}, {"type": "electric_scooter", "name": "3510e50b80a6d42e7a9649e044e2c332", "lat": 38.905022333333335, "fusion_lat": 0.0, "bike_id": "3510e50b80a6d42e7a9649e044e2c332", "is_reserved": 0, "lon": -77.04071166666667, "is_disabled": 0, "fusion_lon": 0.0, "rental_uris": {"android": "https://dc.lft.to/lastmile_qr_scan", "ios": "https://dc.lft.to/lastmile_qr_scan"}}, {"type": "electric_scooter", "name": "d8f1cee8690daeb9d358b72ea9c0a279", "lat": 38.911572166666666, "fusion_lat": 0.0, "bike_id": "d8f1cee8690daeb9d358b72ea9c0a279", "is_reserved": 0, "lon": -77.02382266666666, "is_disabled": 0, "fusion_lon": 0.0, "rental_uris": {"android": "https://dc.lft.to/lastmile_qr_scan", "ios": "https://dc.lft.to/lastmile_qr_scan"}}, {"type": "electric_scooter", "name": "415965f5b05084c8eb6beae7b890ba84", "lat": 38.90133516666667, "fusion_lat": 0.0, "bike_id": "415965f5b05084c8eb6beae7b890ba84", "is_reserved": 0, "lon": -77.01785783333334, "is_disabled": 0, "fusion_lon": 0.0, "rental_uris": {"android": "https://dc.lft.to/lastmile_qr_scan", "ios": "https://dc.lft.to/lastmile_qr_scan"}}, {"type": "electric_scooter", "name": "bedc1d932f2d149766d47ca290fa1f9e", "lat": 38.9086735, "fusion_lat": 0.0, "bike_id": "bedc1d932f2d149766d47ca290fa1f9e", "is_reserved": 0, "lon": -77.0473405, "is_disabled": 0, "fusion_lon": 0.0, "rental_uris": {"android": "https://dc.lft.to/lastmile_qr_scan", "ios": "https://dc.lft.to/lastmile_qr_scan"}}, {"type": "electric_scooter", "name": "1110f87acd0aa1ec4ce199269c88aff2", "lat": 38.9055775, "fusion_lat": 0.0, "bike_id": "1110f87acd0aa1ec4ce199269c88aff2", "is_reserved": 0, "lon": -77.03457883333333, "is_disabled": 0, "fusion_lon": 0.0, "rental_uris": {"android": "https://dc.lft.to/lastmile_qr_scan", "ios": "https://dc.lft.to/lastmile_qr_scan"}}, {"type": "electric_scooter", "name": "276ebbec320326616e0401a552874c3e", "lat": 38.89362766666667, "fusion_lat": 0.0, "bike_id": "276ebbec320326616e0401a552874c3e", "is_reserved": 0, "lon": -77.02839666666667, "is_disabled": 0, "fusion_lon": 0.0, "rental_uris": {"android": "https://dc.lft.to/lastmile_qr_scan", "ios": "https://dc.lft.to/lastmile_qr_scan"}}, {"type": "electric_scooter", "name": "7039d70a3e61818b7837f39d24a54a46", "lat": 38.902558666666664, "fusion_lat": 0.0, "bike_id": "7039d70a3e61818b7837f39d24a54a46", "is_reserved": 0, "lon": -77.00822533333333, "is_disabled": 0, "fusion_lon": 0.0, "rental_uris": {"android": "https://dc.lft.to/lastmile_qr_scan", "ios": "https://dc.lft.to/lastmile_qr_scan"}}, {"type": "electric_scooter", "name": "359619fc053e316e601d3e7745ec68b2", "lat": 38.89764016666667, "fusion_lat": 0.0, "bike_id": "359619fc053e316e601d3e7745ec68b2", "is_reserved": 0, "lon": -77.018882, "is_disabled": 0, "fusion_lon": 0.0, "rental_uris": {"android": "https://dc.lft.to/lastmile_qr_scan", "ios": "https://dc.lft.to/lastmile_qr_scan"}}, {"type": "electric_scooter", "name": "5c3e895b9d464d72ff6f30348757b6b6", "lat": 38.92183766666667, "fusion_lat": 0.0, "bike_id": "5c3e895b9d464d72ff6f30348757b6b6", "is_reserved": 0, "lon": -77.0470365, "is_disabled": 0, "fusion_lon": 0.0, "rental_uris": {"android": "https://dc.lft.to/lastmile_qr_scan", "ios": "https://dc.lft.to/lastmile_qr_scan"}}, {"type": "electric_scooter", "name": "e1365fbb35189a95bc21cfb49663e596", "lat": 38.914147, "fusion_lat": 0.0, "bike_id": "e1365fbb35189a95bc21cfb49663e596", "is_reserved": 0, "lon": -77.0223385, "is_disabled": 0, "fusion_lon": 0.0, "rental_uris": {"android": "https://dc.lft.to/lastmile_qr_scan", "ios": "https://dc.lft.to/lastmile_qr_scan"}}, {"type": "electric_bike", "name": "7c6156e72ca04e5528f0fc94d03f9a28", "lat": 38.95312283333333, "fusion_lat": 0.0, "bike_id": "7c6156e72ca04e5528f0fc94d03f9a28", "is_reserved": 0, "lon": -76.99757533333333, "is_disabled": 0, "fusion_lon": 0.0, "rental_uris": {"android": "https://dc.lft.to/lastmile_qr_scan", "ios": "https://dc.lft.to/lastmile_qr_scan"}}, {"type": "electric_scooter", "name": "7befe8305f82b428dd5aff2cb1a292b8", "lat": 38.90306566666667, "fusion_lat": 0.0, "bike_id": "7befe8305f82b428dd5aff2cb1a292b8", "is_reserved": 0, "lon": -77.04345933333333, "is_disabled": 0, "fusion_lon": 0.0, "rental_uris": {"android": "https://dc.lft.to/lastmile_qr_scan", "ios": "https://dc.lft.to/lastmile_qr_scan"}}, {"type": "electric_scooter", "name": "3777d8a5e2e3307ad1e71f9fecc24d64", "lat": 38.903629, "fusion_lat": 0.0, "bike_id": "3777d8a5e2e3307ad1e71f9fecc24d64", "is_reserved": 0, "lon": -77.03476983333333, "is_disabled": 0, "fusion_lon": 0.0, "rental_uris": {"android": "https://dc.lft.to/lastmile_qr_scan", "ios": "https://dc.lft.to/lastmile_qr_scan"}}, {"type": "electric_scooter", "name": "c2f33dfd6d6b7c9865ef07bf9366ffe6", "lat": 38.91704166666667, "fusion_lat": 0.0, "bike_id": "c2f33dfd6d6b7c9865ef07bf9366ffe6", "is_reserved": 0, "lon": -77.0282455, "is_disabled": 0, "fusion_lon": 0.0, "rental_uris": {"android": "https://dc.lft.to/lastmile_qr_scan", "ios": "https://dc.lft.to/lastmile_qr_scan"}}, {"type": "electric_scooter", "name": "ca08e01a5ba1cb30c2f56c423d8d4a1c", "lat": 38.894934166666665, "fusion_lat": 0.0, "bike_id": "ca08e01a5ba1cb30c2f56c423d8d4a1c", "is_reserved": 0, "lon": -77.02172, "is_disabled": 0, "fusion_lon": 0.0, "rental_uris": {"android": "https://dc.lft.to/lastmile_qr_scan", "ios": "https://dc.lft.to/lastmile_qr_scan"}}, {"type": "electric_bike", "name": "c7c668ff27ec25b494e2113f96639280", "lat": 38.959870333333335, "fusion_lat": 0.0, "bike_id": "c7c668ff27ec25b494e2113f96639280", "is_reserved": 0, "lon": -76.9693695, "is_disabled": 0, "fusion_lon": 0.0, "rental_uris": {"android": "https://dc.lft.to/lastmile_qr_scan", "ios": "https://dc.lft.to/lastmile_qr_scan"}}, {"type": "electric_scooter", "name": "67483c66de9363e0c83e8594fa432910", "lat": 38.896106, "fusion_lat": 0.0, "bike_id": "67483c66de9363e0c83e8594fa432910", "is_reserved": 0, "lon": -77.04516416666667, "is_disabled": 0, "fusion_lon": 0.0, "rental_uris": {"android": "https://dc.lft.to/lastmile_qr_scan", "ios": "https://dc.lft.to/lastmile_qr_scan"}}, {"type": "electric_scooter", "name": "ec5ece01d8e4866d444ca8924883a70f", "lat": 38.9267615, "fusion_lat": 0.0, "bike_id": "ec5ece01d8e4866d444ca8924883a70f", "is_reserved": 0, "lon": -77.02257566666667, "is_disabled": 0, "fusion_lon": 0.0, "rental_uris": {"android": "https://dc.lft.to/lastmile_qr_scan", "ios": "https://dc.lft.to/lastmile_qr_scan"}}, {"type": "electric_scooter", "name": "922187e1c7839e9dfb8d8fd0fc00876f", "lat": 38.9192595, "fusion_lat": 0.0, "bike_id": "922187e1c7839e9dfb8d8fd0fc00876f", "is_reserved": 0, "lon": -77.032199, "is_disabled": 0, "fusion_lon": 0.0, "rental_uris": {"android": "https://dc.lft.to/lastmile_qr_scan", "ios": "https://dc.lft.to/lastmile_qr_scan"}}, {"type": "electric_scooter", "name": "fd7b02fb4a105483a6486b5814fa216e", "lat": 38.931861166666664, "fusion_lat": 0.0, "bike_id": "fd7b02fb4a105483a6486b5814fa216e", "is_reserved": 0, "lon": -77.0310515, "is_disabled": 0, "fusion_lon": 0.0, "rental_uris": {"android": "https://dc.lft.to/lastmile_qr_scan", "ios": "https://dc.lft.to/lastmile_qr_scan"}}, {"type": "electric_scooter", "name": "b04298192faf3092eb4d4549680cd475", "lat": 38.89845366666667, "fusion_lat": 0.0, "bike_id": "b04298192faf3092eb4d4549680cd475", "is_reserved": 0, "lon": -77.03274266666666, "is_disabled": 0, "fusion_lon": 0.0, "rental_uris": {"android": "https://dc.lft.to/lastmile_qr_scan", "ios": "https://dc.lft.to/lastmile_qr_scan"}}, {"type": "electric_scooter", "name": "f40b7dd15b3ffeb599efbb9bc78d1a21", "lat": 38.897277833333334, "fusion_lat": 0.0, "bike_id": "f40b7dd15b3ffeb599efbb9bc78d1a21", "is_reserved": 0, "lon": -76.9947155, "is_disabled": 0, "fusion_lon": 0.0, "rental_uris": {"android": "https://dc.lft.to/lastmile_qr_scan", "ios": "https://dc.lft.to/lastmile_qr_scan"}}, {"type": "electric_scooter", "name": "64beca7f9e3b5b3f7f1787231ac49a55", "lat": 38.91696133333333, "fusion_lat": 0.0, "bike_id": "64beca7f9e3b5b3f7f1787231ac49a55", "is_reserved": 0, "lon": -77.02759966666666, "is_disabled": 0, "fusion_lon": 0.0, "rental_uris": {"android": "https://dc.lft.to/lastmile_qr_scan", "ios": "https://dc.lft.to/lastmile_qr_scan"}}, {"type": "electric_bike", "name": "bbd9631d2e76e31325a76d3c8afb4f47", "lat": 38.99647983333333, "fusion_lat": 0.0, "bike_id": "bbd9631d2e76e31325a76d3c8afb4f47", "is_reserved": 0, "lon": -77.0397265, "is_disabled": 0, "fusion_lon": 0.0, "rental_uris": {"android": "https://dc.lft.to/lastmile_qr_scan", "ios": "https://dc.lft.to/lastmile_qr_scan"}}, {"type": "electric_scooter", "name": "b4f853218ccc7d58b3551dccddff425e", "lat": 38.8929725, "fusion_lat": 0.0, "bike_id": "b4f853218ccc7d58b3551dccddff425e", "is_reserved": 0, "lon": -76.99823333333333, "is_disabled": 0, "fusion_lon": 0.0, "rental_uris": {"android": "https://dc.lft.to/lastmile_qr_scan", "ios": "https://dc.lft.to/lastmile_qr_scan"}}, {"type": "electric_bike", "name": "7eb69d55d644e0d6cece7d1c17cf80dc", "lat": 38.900922666666666, "fusion_lat": 0.0, "bike_id": "7eb69d55d644e0d6cece7d1c17cf80dc", "is_reserved": 0, "lon": -77.04867166666666, "is_disabled": 0, "fusion_lon": 0.0, "rental_uris": {"android": "https://dc.lft.to/lastmile_qr_scan", "ios": "https://dc.lft.to/lastmile_qr_scan"}}, {"type": "electric_scooter", "name": "d1266f601770be8c6476042647d01d31", "lat": 38.9003345, "fusion_lat": 0.0, "bike_id": "d1266f601770be8c6476042647d01d31", "is_reserved": 0, "lon": -76.998399, "is_disabled": 0, "fusion_lon": 0.0, "rental_uris": {"android": "https://dc.lft.to/lastmile_qr_scan", "ios": "https://dc.lft.to/lastmile_qr_scan"}}, {"type": "electric_scooter", "name": "54a597a02ffc09ead76ef17abb3d7161", "lat": 38.914250333333335, "fusion_lat": 0.0, "bike_id": "54a597a02ffc09ead76ef17abb3d7161", "is_reserved": 0, "lon": -77.03183916666667, "is_disabled": 0, "fusion_lon": 0.0, "rental_uris": {"android": "https://dc.lft.to/lastmile_qr_scan", "ios": "https://dc.lft.to/lastmile_qr_scan"}}, {"type": "electric_scooter", "name": "d8fc29b7abe47f3ee83321985a1890e0", "lat": 38.918156833333335, "fusion_lat": 0.0, "bike_id": "d8fc29b7abe47f3ee83321985a1890e0", "is_reserved": 0, "lon": -77.024773, "is_disabled": 0, "fusion_lon": 0.0, "rental_uris": {"android": "https://dc.lft.to/lastmile_qr_scan", "ios": "https://dc.lft.to/lastmile_qr_scan"}}, {"type": "electric_scooter", "name": "9856530fca96c8abfe64634add12dd33", "lat": 38.894930333333335, "fusion_lat": 0.0, "bike_id": "9856530fca96c8abfe64634add12dd33", "is_reserved": 0, "lon": -77.01514466666667, "is_disabled": 0, "fusion_lon": 0.0, "rental_uris": {"android": "https://dc.lft.to/lastmile_qr_scan", "ios": "https://dc.lft.to/lastmile_qr_scan"}}, {"type": "electric_scooter", "name": "d60a05e283c0d5c07ffa89658f996f4d", "lat": 38.91573283333334, "fusion_lat": 0.0, "bike_id": "d60a05e283c0d5c07ffa89658f996f4d", "is_reserved": 0, "lon": -77.01180183333334, "is_disabled": 0, "fusion_lon": 0.0, "rental_uris": {"android": "https://dc.lft.to/lastmile_qr_scan", "ios": "https://dc.lft.to/lastmile_qr_scan"}}, {"type": "electric_scooter", "name": "f6e177c78b8fba7afe58974bf371b02c", "lat": 38.924945, "fusion_lat": 0.0, "bike_id": "f6e177c78b8fba7afe58974bf371b02c", "is_reserved": 0, "lon": -77.03541183333333, "is_disabled": 0, "fusion_lon": 0.0, "rental_uris": {"android": "https://dc.lft.to/lastmile_qr_scan", "ios": "https://dc.lft.to/lastmile_qr_scan"}}, {"type": "electric_scooter", "name": "9258cb66c2255e5de3c281eae2a58838", "lat": 38.92052316666667, "fusion_lat": 0.0, "bike_id": "9258cb66c2255e5de3c281eae2a58838", "is_reserved": 0, "lon": -77.01681066666667, "is_disabled": 0, "fusion_lon": 0.0, "rental_uris": {"android": "https://dc.lft.to/lastmile_qr_scan", "ios": "https://dc.lft.to/lastmile_qr_scan"}}, {"type": "electric_scooter", "name": "3247511bdea8091be0d9937aee77e621", "lat": 38.892253, "fusion_lat": 0.0, "bike_id": "3247511bdea8091be0d9937aee77e621", "is_reserved": 0, "lon": -76.97963833333333, "is_disabled": 0, "fusion_lon": 0.0, "rental_uris": {"android": "https://dc.lft.to/lastmile_qr_scan", "ios": "https://dc.lft.to/lastmile_qr_scan"}}, {"type": "electric_scooter", "name": "f439cb20c92ead78e40184f3c12d475a", "lat": 38.91918783333333, "fusion_lat": 0.0, "bike_id": "f439cb20c92ead78e40184f3c12d475a", "is_reserved": 0, "lon": -77.03186833333334, "is_disabled": 0, "fusion_lon": 0.0, "rental_uris": {"android": "https://dc.lft.to/lastmile_qr_scan", "ios": "https://dc.lft.to/lastmile_qr_scan"}}, {"type": "electric_scooter", "name": "27f89cbff74e74c065f38dad6ad9157a", "lat": 38.90139116666667, "fusion_lat": 0.0, "bike_id": "27f89cbff74e74c065f38dad6ad9157a", "is_reserved": 0, "lon": -77.03214983333334, "is_disabled": 0, "fusion_lon": 0.0, "rental_uris": {"android": "https://dc.lft.to/lastmile_qr_scan", "ios": "https://dc.lft.to/lastmile_qr_scan"}}, {"type": "electric_scooter", "name": "a4da475bbfbb7d216d4d57f00a95a00d", "lat": 38.91650466666667, "fusion_lat": 0.0, "bike_id": "a4da475bbfbb7d216d4d57f00a95a00d", "is_reserved": 0, "lon": -77.02807883333334, "is_disabled": 0, "fusion_lon": 0.0, "rental_uris": {"android": "https://dc.lft.to/lastmile_qr_scan", "ios": "https://dc.lft.to/lastmile_qr_scan"}}, {"type": "electric_scooter", "name": "db62f2cd4028588c80535fe089ef8cf8", "lat": 38.92832383333333, "fusion_lat": 0.0, "bike_id": "db62f2cd4028588c80535fe089ef8cf8", "is_reserved": 0, "lon": -77.02195083333334, "is_disabled": 0, "fusion_lon": 0.0, "rental_uris": {"android": "https://dc.lft.to/lastmile_qr_scan", "ios": "https://dc.lft.to/lastmile_qr_scan"}}, {"type": "electric_bike", "name": "be4a0774ee5977aaccf52dda35a8cd62", "lat": 38.9067475, "fusion_lat": 0.0, "bike_id": "be4a0774ee5977aaccf52dda35a8cd62", "is_reserved": 0, "lon": -76.98505116666666, "is_disabled": 0, "fusion_lon": 0.0, "rental_uris": {"android": "https://dc.lft.to/lastmile_qr_scan", "ios": "https://dc.lft.to/lastmile_qr_scan"}}, {"type": "electric_scooter", "name": "bb31566fa78ef764142450c63a85cf51", "lat": 38.89225733333333, "fusion_lat": 0.0, "bike_id": "bb31566fa78ef764142450c63a85cf51", "is_reserved": 0, "lon": -77.0321795, "is_disabled": 0, "fusion_lon": 0.0, "rental_uris": {"android": "https://dc.lft.to/lastmile_qr_scan", "ios": "https://dc.lft.to/lastmile_qr_scan"}}, {"type": "electric_scooter", "name": "fdf71d4d6cafa9673ac33504644d4128", "lat": 38.915555833333336, "fusion_lat": 0.0, "bike_id": "fdf71d4d6cafa9673ac33504644d4128", "is_reserved": 0, "lon": -77.03173516666666, "is_disabled": 0, "fusion_lon": 0.0, "rental_uris": {"android": "https://dc.lft.to/lastmile_qr_scan", "ios": "https://dc.lft.to/lastmile_qr_scan"}}, {"type": "electric_scooter", "name": "5450264bb9c80dce5944b851d5dd90ee", "lat": 38.930984, "fusion_lat": 0.0, "bike_id": "5450264bb9c80dce5944b851d5dd90ee", "is_reserved": 0, "lon": -77.03063566666667, "is_disabled": 0, "fusion_lon": 0.0, "rental_uris": {"android": "https://dc.lft.to/lastmile_qr_scan", "ios": "https://dc.lft.to/lastmile_qr_scan"}}, {"type": "electric_scooter", "name": "2a1eaa948e07e6573921112f2999c11e", "lat": 38.89841666666667, "fusion_lat": 0.0, "bike_id": "2a1eaa948e07e6573921112f2999c11e", "is_reserved": 0, "lon": -77.04554066666667, "is_disabled": 0, "fusion_lon": 0.0, "rental_uris": {"android": "https://dc.lft.to/lastmile_qr_scan", "ios": "https://dc.lft.to/lastmile_qr_scan"}}, {"type": "electric_scooter", "name": "40395baa066eaafefb4ada3985e60ce1", "lat": 38.914739, "fusion_lat": 0.0, "bike_id": "40395baa066eaafefb4ada3985e60ce1", "is_reserved": 0, "lon": -77.04608, "is_disabled": 0, "fusion_lon": 0.0, "rental_uris": {"android": "https://dc.lft.to/lastmile_qr_scan", "ios": "https://dc.lft.to/lastmile_qr_scan"}}, {"type": "electric_scooter", "name": "1bcfefea12b2c545436b060332a1887e", "lat": 38.901500666666664, "fusion_lat": 0.0, "bike_id": "1bcfefea12b2c545436b060332a1887e", "is_reserved": 0, "lon": -77.03253533333333, "is_disabled": 0, "fusion_lon": 0.0, "rental_uris": {"android": "https://dc.lft.to/lastmile_qr_scan", "ios": "https://dc.lft.to/lastmile_qr_scan"}}, {"type": "electric_scooter", "name": "0ec8233ece1a68a83b06f56655de7a70", "lat": 38.924435333333335, "fusion_lat": 0.0, "bike_id": "0ec8233ece1a68a83b06f56655de7a70", "is_reserved": 0, "lon": -77.021428, "is_disabled": 0, "fusion_lon": 0.0, "rental_uris": {"android": "https://dc.lft.to/lastmile_qr_scan", "ios": "https://dc.lft.to/lastmile_qr_scan"}}, {"type": "electric_scooter", "name": "c45e4c57d2c8fed01f00fe6da33a428a", "lat": 38.916301833333335, "fusion_lat": 0.0, "bike_id": "c45e4c57d2c8fed01f00fe6da33a428a", "is_reserved": 0, "lon": -77.03652016666666, "is_disabled": 0, "fusion_lon": 0.0, "rental_uris": {"android": "https://dc.lft.to/lastmile_qr_scan", "ios": "https://dc.lft.to/lastmile_qr_scan"}}, {"type": "electric_scooter", "name": "047912a0e62fb9ff9e5565c6a7a329fd", "lat": 38.912246, "fusion_lat": 0.0, "bike_id": "047912a0e62fb9ff9e5565c6a7a329fd", "is_reserved": 0, "lon": -77.04435766666667, "is_disabled": 0, "fusion_lon": 0.0, "rental_uris": {"android": "https://dc.lft.to/lastmile_qr_scan", "ios": "https://dc.lft.to/lastmile_qr_scan"}}, {"type": "electric_scooter", "name": "3bc6356c462d66dea7c952be3dce3a48", "lat": 38.91690633333333, "fusion_lat": 0.0, "bike_id": "3bc6356c462d66dea7c952be3dce3a48", "is_reserved": 0, "lon": -77.03126183333333, "is_disabled": 0, "fusion_lon": 0.0, "rental_uris": {"android": "https://dc.lft.to/lastmile_qr_scan", "ios": "https://dc.lft.to/lastmile_qr_scan"}}, {"type": "electric_bike", "name": "10fb40cc85ec69a45ba04fa36fbcdc53", "lat": 38.900335166666665, "fusion_lat": 0.0, "bike_id": "10fb40cc85ec69a45ba04fa36fbcdc53", "is_reserved": 0, "lon": -76.97221116666667, "is_disabled": 0, "fusion_lon": 0.0, "rental_uris": {"android": "https://dc.lft.to/lastmile_qr_scan", "ios": "https://dc.lft.to/lastmile_qr_scan"}}, {"type": "electric_scooter", "name": "13e26a7128f8f101d52447c983b4160d", "lat": 38.897932833333336, "fusion_lat": 0.0, "bike_id": "13e26a7128f8f101d52447c983b4160d", "is_reserved": 0, "lon": -77.04869883333333, "is_disabled": 0, "fusion_lon": 0.0, "rental_uris": {"android": "https://dc.lft.to/lastmile_qr_scan", "ios": "https://dc.lft.to/lastmile_qr_scan"}}, {"type": "electric_scooter", "name": "73699204461eb52ff0641d82d7483dbf", "lat": 38.90281916666667, "fusion_lat": 0.0, "bike_id": "73699204461eb52ff0641d82d7483dbf", "is_reserved": 0, "lon": -77.02277966666666, "is_disabled": 0, "fusion_lon": 0.0, "rental_uris": {"android": "https://dc.lft.to/lastmile_qr_scan", "ios": "https://dc.lft.to/lastmile_qr_scan"}}, {"type": "electric_scooter", "name": "e208224b9ba59db20c1d79b25589a650", "lat": 38.89222933333333, "fusion_lat": 0.0, "bike_id": "e208224b9ba59db20c1d79b25589a650", "is_reserved": 0, "lon": -77.04516616666666, "is_disabled": 0, "fusion_lon": 0.0, "rental_uris": {"android": "https://dc.lft.to/lastmile_qr_scan", "ios": "https://dc.lft.to/lastmile_qr_scan"}}, {"type": "electric_scooter", "name": "159e52c86416de72308ac2c97f80f72c", "lat": 38.90424016666667, "fusion_lat": 0.0, "bike_id": "159e52c86416de72308ac2c97f80f72c", "is_reserved": 0, "lon": -77.043434, "is_disabled": 0, "fusion_lon": 0.0, "rental_uris": {"android": "https://dc.lft.to/lastmile_qr_scan", "ios": "https://dc.lft.to/lastmile_qr_scan"}}, {"type": "electric_scooter", "name": "e9a2a12d0e5f8dc765d5de7e2c5899df", "lat": 38.8660135, "fusion_lat": 0.0, "bike_id": "e9a2a12d0e5f8dc765d5de7e2c5899df", "is_reserved": 0, "lon": -76.981956, "is_disabled": 0, "fusion_lon": 0.0, "rental_uris": {"android": "https://dc.lft.to/lastmile_qr_scan", "ios": "https://dc.lft.to/lastmile_qr_scan"}}, {"type": "electric_scooter", "name": "aab32c50fec9e5f92a19025d370af701", "lat": 38.89838866666667, "fusion_lat": 0.0, "bike_id": "aab32c50fec9e5f92a19025d370af701", "is_reserved": 0, "lon": -77.033433, "is_disabled": 0, "fusion_lon": 0.0, "rental_uris": {"android": "https://dc.lft.to/lastmile_qr_scan", "ios": "https://dc.lft.to/lastmile_qr_scan"}}, {"type": "electric_scooter", "name": "37de4adaed4b85ccd3a6883fa45abe6f", "lat": 38.935257, "fusion_lat": 0.0, "bike_id": "37de4adaed4b85ccd3a6883fa45abe6f", "is_reserved": 0, "lon": -77.08704216666666, "is_disabled": 0, "fusion_lon": 0.0, "rental_uris": {"android": "https://dc.lft.to/lastmile_qr_scan", "ios": "https://dc.lft.to/lastmile_qr_scan"}}, {"type": "electric_scooter", "name": "66c4a762e91c50de68953941bbc42b1b", "lat": 38.894869166666666, "fusion_lat": 0.0, "bike_id": "66c4a762e91c50de68953941bbc42b1b", "is_reserved": 0, "lon": -77.00225166666667, "is_disabled": 0, "fusion_lon": 0.0, "rental_uris": {"android": "https://dc.lft.to/lastmile_qr_scan", "ios": "https://dc.lft.to/lastmile_qr_scan"}}, {"type": "electric_scooter", "name": "4de2329bb0beff5af0bf614762ce8baa", "lat": 38.90822416666666, "fusion_lat": 0.0, "bike_id": "4de2329bb0beff5af0bf614762ce8baa", "is_reserved": 0, "lon": -76.98415366666667, "is_disabled": 0, "fusion_lon": 0.0, "rental_uris": {"android": "https://dc.lft.to/lastmile_qr_scan", "ios": "https://dc.lft.to/lastmile_qr_scan"}}, {"type": "electric_scooter", "name": "22f82ad194ae6eb49533f095d7e9c3d8", "lat": 38.890779, "fusion_lat": 0.0, "bike_id": "22f82ad194ae6eb49533f095d7e9c3d8", "is_reserved": 0, "lon": -76.9882565, "is_disabled": 0, "fusion_lon": 0.0, "rental_uris": {"android": "https://dc.lft.to/lastmile_qr_scan", "ios": "https://dc.lft.to/lastmile_qr_scan"}}, {"type": "electric_scooter", "name": "39e37997d908f2bdf3b538c6efe4fe1e", "lat": 38.927143666666666, "fusion_lat": 0.0, "bike_id": "39e37997d908f2bdf3b538c6efe4fe1e", "is_reserved": 0, "lon": -77.04045133333334, "is_disabled": 0, "fusion_lon": 0.0, "rental_uris": {"android": "https://dc.lft.to/lastmile_qr_scan", "ios": "https://dc.lft.to/lastmile_qr_scan"}}, {"type": "electric_bike", "name": "1979232e29e5b12141fb82ad12aa50cd", "lat": 38.89159016666667, "fusion_lat": 0.0, "bike_id": "1979232e29e5b12141fb82ad12aa50cd", "is_reserved": 0, "lon": -77.00464683333334, "is_disabled": 0, "fusion_lon": 0.0, "rental_uris": {"android": "https://dc.lft.to/lastmile_qr_scan", "ios": "https://dc.lft.to/lastmile_qr_scan"}}, {"type": "electric_scooter", "name": "7cdb4954a53c3079db5d8c5488d6fd2b", "lat": 38.92047616666667, "fusion_lat": 0.0, "bike_id": "7cdb4954a53c3079db5d8c5488d6fd2b", "is_reserved": 0, "lon": -77.02573216666667, "is_disabled": 0, "fusion_lon": 0.0, "rental_uris": {"android": "https://dc.lft.to/lastmile_qr_scan", "ios": "https://dc.lft.to/lastmile_qr_scan"}}, {"type": "electric_scooter", "name": "a80d778169651eb171a2590d601581ce", "lat": 38.90138683333333, "fusion_lat": 0.0, "bike_id": "a80d778169651eb171a2590d601581ce", "is_reserved": 0, "lon": -77.03644516666667, "is_disabled": 0, "fusion_lon": 0.0, "rental_uris": {"android": "https://dc.lft.to/lastmile_qr_scan", "ios": "https://dc.lft.to/lastmile_qr_scan"}}, {"type": "electric_scooter", "name": "00fa3d9fe06107c526a1aa0901ef5094", "lat": 38.901788833333335, "fusion_lat": 0.0, "bike_id": "00fa3d9fe06107c526a1aa0901ef5094", "is_reserved": 0, "lon": -76.941474, "is_disabled": 0, "fusion_lon": 0.0, "rental_uris": {"android": "https://dc.lft.to/lastmile_qr_scan", "ios": "https://dc.lft.to/lastmile_qr_scan"}}, {"type": "electric_bike", "name": "ec9941823796e64aca98d9a8d671f39f", "lat": 38.88688716666667, "fusion_lat": 0.0, "bike_id": "ec9941823796e64aca98d9a8d671f39f", "is_reserved": 0, "lon": -76.97635583333333, "is_disabled": 0, "fusion_lon": 0.0, "rental_uris": {"android": "https://dc.lft.to/lastmile_qr_scan", "ios": "https://dc.lft.to/lastmile_qr_scan"}}, {"type": "electric_scooter", "name": "6a30ab57d392dffad96e982978c2a531", "lat": 38.887439666666666, "fusion_lat": 0.0, "bike_id": "6a30ab57d392dffad96e982978c2a531", "is_reserved": 0, "lon": -77.03168733333334, "is_disabled": 0, "fusion_lon": 0.0, "rental_uris": {"android": "https://dc.lft.to/lastmile_qr_scan", "ios": "https://dc.lft.to/lastmile_qr_scan"}}, {"type": "electric_scooter", "name": "05d365f29ed13acf8c4e24c987dea814", "lat": 38.861557833333336, "fusion_lat": 0.0, "bike_id": "05d365f29ed13acf8c4e24c987dea814", "is_reserved": 0, "lon": -76.99733533333334, "is_disabled": 0, "fusion_lon": 0.0, "rental_uris": {"android": "https://dc.lft.to/lastmile_qr_scan", "ios": "https://dc.lft.to/lastmile_qr_scan"}}, {"type": "electric_scooter", "name": "f86376b04e294a4b5dbffc9f7970bd0a", "lat": 38.864738833333334, "fusion_lat": 0.0, "bike_id": "f86376b04e294a4b5dbffc9f7970bd0a", "is_reserved": 0, "lon": -76.98228983333334, "is_disabled": 0, "fusion_lon": 0.0, "rental_uris": {"android": "https://dc.lft.to/lastmile_qr_scan", "ios": "https://dc.lft.to/lastmile_qr_scan"}}, {"type": "electric_scooter", "name": "c6c5a5978b114651d549d8c7d5ada8fd", "lat": 38.90037783333333, "fusion_lat": 0.0, "bike_id": "c6c5a5978b114651d549d8c7d5ada8fd", "is_reserved": 0, "lon": -76.998303, "is_disabled": 0, "fusion_lon": 0.0, "rental_uris": {"android": "https://dc.lft.to/lastmile_qr_scan", "ios": "https://dc.lft.to/lastmile_qr_scan"}}, {"type": "electric_scooter", "name": "4cff6d77d485bf9097a4cd209735b1dd", "lat": 38.90977816666667, "fusion_lat": 0.0, "bike_id": "4cff6d77d485bf9097a4cd209735b1dd", "is_reserved": 0, "lon": -77.021863, "is_disabled": 0, "fusion_lon": 0.0, "rental_uris": {"android": "https://dc.lft.to/lastmile_qr_scan", "ios": "https://dc.lft.to/lastmile_qr_scan"}}, {"type": "electric_scooter", "name": "bf3d99fe8a6be34785fdd491d8a37e0e", "lat": 38.89362233333333, "fusion_lat": 0.0, "bike_id": "bf3d99fe8a6be34785fdd491d8a37e0e", "is_reserved": 0, "lon": -76.986741, "is_disabled": 0, "fusion_lon": 0.0, "rental_uris": {"android": "https://dc.lft.to/lastmile_qr_scan", "ios": "https://dc.lft.to/lastmile_qr_scan"}}, {"type": "electric_scooter", "name": "a9561ce582f7ab83d97239f073ba640f", "lat": 38.898419833333335, "fusion_lat": 0.0, "bike_id": "a9561ce582f7ab83d97239f073ba640f", "is_reserved": 0, "lon": -77.007502, "is_disabled": 0, "fusion_lon": 0.0, "rental_uris": {"android": "https://dc.lft.to/lastmile_qr_scan", "ios": "https://dc.lft.to/lastmile_qr_scan"}}, {"type": "electric_scooter", "name": "671b3f5abee7d294b30653baaecff469", "lat": 38.918156, "fusion_lat": 0.0, "bike_id": "671b3f5abee7d294b30653baaecff469", "is_reserved": 0, "lon": -77.03371066666666, "is_disabled": 0, "fusion_lon": 0.0, "rental_uris": {"android": "https://dc.lft.to/lastmile_qr_scan", "ios": "https://dc.lft.to/lastmile_qr_scan"}}, {"type": "electric_scooter", "name": "c409c7897c143532a9a7176983ea5200", "lat": 38.8899175, "fusion_lat": 0.0, "bike_id": "c409c7897c143532a9a7176983ea5200", "is_reserved": 0, "lon": -76.95423333333333, "is_disabled": 0, "fusion_lon": 0.0, "rental_uris": {"android": "https://dc.lft.to/lastmile_qr_scan", "ios": "https://dc.lft.to/lastmile_qr_scan"}}, {"type": "electric_scooter", "name": "1fd4fe3d522d8b7e8c078ee8cfea80cc", "lat": 38.892268333333334, "fusion_lat": 0.0, "bike_id": "1fd4fe3d522d8b7e8c078ee8cfea80cc", "is_reserved": 0, "lon": -77.04194483333333, "is_disabled": 0, "fusion_lon": 0.0, "rental_uris": {"android": "https://dc.lft.to/lastmile_qr_scan", "ios": "https://dc.lft.to/lastmile_qr_scan"}}, {"type": "electric_scooter", "name": "7f98e19783ca15e05e4e446d0f7b8a4e", "lat": 38.9142205, "fusion_lat": 0.0, "bike_id": "7f98e19783ca15e05e4e446d0f7b8a4e", "is_reserved": 0, "lon": -77.03814316666667, "is_disabled": 0, "fusion_lon": 0.0, "rental_uris": {"android": "https://dc.lft.to/lastmile_qr_scan", "ios": "https://dc.lft.to/lastmile_qr_scan"}}, {"type": "electric_scooter", "name": "a325e6f298e38ac8b09b4174be28deae", "lat": 38.90405366666667, "fusion_lat": 0.0, "bike_id": "a325e6f298e38ac8b09b4174be28deae", "is_reserved": 0, "lon": -77.04355866666667, "is_disabled": 0, "fusion_lon": 0.0, "rental_uris": {"android": "https://dc.lft.to/lastmile_qr_scan", "ios": "https://dc.lft.to/lastmile_qr_scan"}}, {"type": "electric_scooter", "name": "edd7feaf149e3df0aea0f3fa192c6f37", "lat": 38.902431666666665, "fusion_lat": 0.0, "bike_id": "edd7feaf149e3df0aea0f3fa192c6f37", "is_reserved": 0, "lon": -77.030557, "is_disabled": 0, "fusion_lon": 0.0, "rental_uris": {"android": "https://dc.lft.to/lastmile_qr_scan", "ios": "https://dc.lft.to/lastmile_qr_scan"}}, {"type": "electric_scooter", "name": "e458080148a49646ca74ca747f76726f", "lat": 38.9147265, "fusion_lat": 0.0, "bike_id": "e458080148a49646ca74ca747f76726f", "is_reserved": 0, "lon": -76.981151, "is_disabled": 0, "fusion_lon": 0.0, "rental_uris": {"android": "https://dc.lft.to/lastmile_qr_scan", "ios": "https://dc.lft.to/lastmile_qr_scan"}}, {"type": "electric_scooter", "name": "01648f5ec9db5fe8f55767b30bc31458", "lat": 38.92030116666667, "fusion_lat": 0.0, "bike_id": "01648f5ec9db5fe8f55767b30bc31458", "is_reserved": 0, "lon": -77.01068166666667, "is_disabled": 0, "fusion_lon": 0.0, "rental_uris": {"android": "https://dc.lft.to/lastmile_qr_scan", "ios": "https://dc.lft.to/lastmile_qr_scan"}}, {"type": "electric_scooter", "name": "1dd9230e742e57ab99c5c7ab3ba572ac", "lat": 38.91239366666667, "fusion_lat": 0.0, "bike_id": "1dd9230e742e57ab99c5c7ab3ba572ac", "is_reserved": 0, "lon": -77.048683, "is_disabled": 0, "fusion_lon": 0.0, "rental_uris": {"android": "https://dc.lft.to/lastmile_qr_scan", "ios": "https://dc.lft.to/lastmile_qr_scan"}}, {"type": "electric_scooter", "name": "d182ffa5989c38eaea96d4aebd3ad8f3", "lat": 38.902652833333335, "fusion_lat": 0.0, "bike_id": "d182ffa5989c38eaea96d4aebd3ad8f3", "is_reserved": 0, "lon": -77.04365333333334, "is_disabled": 0, "fusion_lon": 0.0, "rental_uris": {"android": "https://dc.lft.to/lastmile_qr_scan", "ios": "https://dc.lft.to/lastmile_qr_scan"}}, {"type": "electric_scooter", "name": "83696c79ec2af10b6b7f1e6039db375b", "lat": 38.8956665, "fusion_lat": 0.0, "bike_id": "83696c79ec2af10b6b7f1e6039db375b", "is_reserved": 0, "lon": -77.04675433333334, "is_disabled": 0, "fusion_lon": 0.0, "rental_uris": {"android": "https://dc.lft.to/lastmile_qr_scan", "ios": "https://dc.lft.to/lastmile_qr_scan"}}, {"type": "electric_scooter", "name": "ef8342f28e741acff468cded597ce9ee", "lat": 38.921573333333335, "fusion_lat": 0.0, "bike_id": "ef8342f28e741acff468cded597ce9ee", "is_reserved": 0, "lon": -77.02078466666667, "is_disabled": 0, "fusion_lon": 0.0, "rental_uris": {"android": "https://dc.lft.to/lastmile_qr_scan", "ios": "https://dc.lft.to/lastmile_qr_scan"}}, {"type": "electric_scooter", "name": "722124dfcca41727938271a30255cce5", "lat": 38.9266105, "fusion_lat": 0.0, "bike_id": "722124dfcca41727938271a30255cce5", "is_reserved": 0, "lon": -77.02305266666667, "is_disabled": 0, "fusion_lon": 0.0, "rental_uris": {"android": "https://dc.lft.to/lastmile_qr_scan", "ios": "https://dc.lft.to/lastmile_qr_scan"}}, {"type": "electric_scooter", "name": "9a3f0693625392060443084f91becad0", "lat": 38.905266166666664, "fusion_lat": 0.0, "bike_id": "9a3f0693625392060443084f91becad0", "is_reserved": 0, "lon": -77.06035033333333, "is_disabled": 0, "fusion_lon": 0.0, "rental_uris": {"android": "https://dc.lft.to/lastmile_qr_scan", "ios": "https://dc.lft.to/lastmile_qr_scan"}}, {"type": "electric_scooter", "name": "ae6d2382466f059b96faf430234063a4", "lat": 38.901731833333336, "fusion_lat": 0.0, "bike_id": "ae6d2382466f059b96faf430234063a4", "is_reserved": 0, "lon": -77.02471216666666, "is_disabled": 0, "fusion_lon": 0.0, "rental_uris": {"android": "https://dc.lft.to/lastmile_qr_scan", "ios": "https://dc.lft.to/lastmile_qr_scan"}}, {"type": "electric_scooter", "name": "c0a1a29c818e70c489d446e55931f8f8", "lat": 38.9247795, "fusion_lat": 0.0, "bike_id": "c0a1a29c818e70c489d446e55931f8f8", "is_reserved": 0, "lon": -77.02211083333333, "is_disabled": 0, "fusion_lon": 0.0, "rental_uris": {"android": "https://dc.lft.to/lastmile_qr_scan", "ios": "https://dc.lft.to/lastmile_qr_scan"}}, {"type": "electric_scooter", "name": "485649b1b51ec2ea7f2ecb0d6f2ccfc3", "lat": 38.905137333333336, "fusion_lat": 0.0, "bike_id": "485649b1b51ec2ea7f2ecb0d6f2ccfc3", "is_reserved": 0, "lon": -77.04347066666666, "is_disabled": 0, "fusion_lon": 0.0, "rental_uris": {"android": "https://dc.lft.to/lastmile_qr_scan", "ios": "https://dc.lft.to/lastmile_qr_scan"}}, {"type": "electric_scooter", "name": "9bfc85534cd161eac36308bb29ceec53", "lat": 38.90613616666667, "fusion_lat": 0.0, "bike_id": "9bfc85534cd161eac36308bb29ceec53", "is_reserved": 0, "lon": -77.04177033333333, "is_disabled": 0, "fusion_lon": 0.0, "rental_uris": {"android": "https://dc.lft.to/lastmile_qr_scan", "ios": "https://dc.lft.to/lastmile_qr_scan"}}, {"type": "electric_bike", "name": "7d92159717df5ea59b0215e630563da9", "lat": 38.996821, "fusion_lat": 0.0, "bike_id": "7d92159717df5ea59b0215e630563da9", "is_reserved": 0, "lon": -77.03802133333333, "is_disabled": 0, "fusion_lon": 0.0, "rental_uris": {"android": "https://dc.lft.to/lastmile_qr_scan", "ios": "https://dc.lft.to/lastmile_qr_scan"}}, {"type": "electric_scooter", "name": "e3ce99d6b2d046bdd08afbfe8d86dbaf", "lat": 38.915819666666664, "fusion_lat": 0.0, "bike_id": "e3ce99d6b2d046bdd08afbfe8d86dbaf", "is_reserved": 0, "lon": -77.04697966666667, "is_disabled": 0, "fusion_lon": 0.0, "rental_uris": {"android": "https://dc.lft.to/lastmile_qr_scan", "ios": "https://dc.lft.to/lastmile_qr_scan"}}, {"type": "electric_scooter", "name": "f386a0720a7f0488febaab7b81463835", "lat": 38.89843483333333, "fusion_lat": 0.0, "bike_id": "f386a0720a7f0488febaab7b81463835", "is_reserved": 0, "lon": -77.03346, "is_disabled": 0, "fusion_lon": 0.0, "rental_uris": {"android": "https://dc.lft.to/lastmile_qr_scan", "ios": "https://dc.lft.to/lastmile_qr_scan"}}, {"type": "electric_scooter", "name": "a84794c8c0d3ca7757eeaac39ae47928", "lat": 38.896217666666665, "fusion_lat": 0.0, "bike_id": "a84794c8c0d3ca7757eeaac39ae47928", "is_reserved": 0, "lon": -77.00918266666666, "is_disabled": 0, "fusion_lon": 0.0, "rental_uris": {"android": "https://dc.lft.to/lastmile_qr_scan", "ios": "https://dc.lft.to/lastmile_qr_scan"}}, {"type": "electric_bike", "name": "24062221046cf3202b28c1139ae7c9cc", "lat": 39.05254866666667, "fusion_lat": 0.0, "bike_id": "24062221046cf3202b28c1139ae7c9cc", "is_reserved": 0, "lon": -77.0806605, "is_disabled": 0, "fusion_lon": 0.0, "rental_uris": {"android": "https://dc.lft.to/lastmile_qr_scan", "ios": "https://dc.lft.to/lastmile_qr_scan"}}, {"type": "electric_scooter", "name": "9ef4491ac73e7ce298c115403f1e4b9a", "lat": 38.916808833333334, "fusion_lat": 0.0, "bike_id": "9ef4491ac73e7ce298c115403f1e4b9a", "is_reserved": 0, "lon": -77.046116, "is_disabled": 0, "fusion_lon": 0.0, "rental_uris": {"android": "https://dc.lft.to/lastmile_qr_scan", "ios": "https://dc.lft.to/lastmile_qr_scan"}}, {"type": "electric_scooter", "name": "96f646023d4e75c44070197ac2ec94b9", "lat": 38.873596, "fusion_lat": 0.0, "bike_id": "96f646023d4e75c44070197ac2ec94b9", "is_reserved": 0, "lon": -76.970278, "is_disabled": 0, "fusion_lon": 0.0, "rental_uris": {"android": "https://dc.lft.to/lastmile_qr_scan", "ios": "https://dc.lft.to/lastmile_qr_scan"}}, {"type": "electric_scooter", "name": "5e98ceb5a8276efac7b226c14baced23", "lat": 38.92047266666667, "fusion_lat": 0.0, "bike_id": "5e98ceb5a8276efac7b226c14baced23", "is_reserved": 0, "lon": -77.04714216666666, "is_disabled": 0, "fusion_lon": 0.0, "rental_uris": {"android": "https://dc.lft.to/lastmile_qr_scan", "ios": "https://dc.lft.to/lastmile_qr_scan"}}, {"type": "electric_scooter", "name": "d83d55b5037e55621168548a9e0a1631", "lat": 38.8989915, "fusion_lat": 0.0, "bike_id": "d83d55b5037e55621168548a9e0a1631", "is_reserved": 0, "lon": -77.03966866666667, "is_disabled": 0, "fusion_lon": 0.0, "rental_uris": {"android": "https://dc.lft.to/lastmile_qr_scan", "ios": "https://dc.lft.to/lastmile_qr_scan"}}, {"type": "electric_scooter", "name": "8713bde8dfef71cb054734f5b0c8a406", "lat": 38.92886566666667, "fusion_lat": 0.0, "bike_id": "8713bde8dfef71cb054734f5b0c8a406", "is_reserved": 0, "lon": -77.01230616666666, "is_disabled": 0, "fusion_lon": 0.0, "rental_uris": {"android": "https://dc.lft.to/lastmile_qr_scan", "ios": "https://dc.lft.to/lastmile_qr_scan"}}, {"type": "electric_scooter", "name": "f7bfa9ef9c6dc9b578df6de8676e12e5", "lat": 38.89642, "fusion_lat": 0.0, "bike_id": "f7bfa9ef9c6dc9b578df6de8676e12e5", "is_reserved": 0, "lon": -77.0259855, "is_disabled": 0, "fusion_lon": 0.0, "rental_uris": {"android": "https://dc.lft.to/lastmile_qr_scan", "ios": "https://dc.lft.to/lastmile_qr_scan"}},