{"data": {"bikes": [{"fusion_lat": 0.0, "name": "2ef8d277a05f10e6e91925648c4d05e2", "is_disabled": 0, "rental_uris": {"android": "https://dc.lft.to/lastmile_qr_scan", "ios": "https://dc.lft.to/lastmile_qr_scan"}, "fusion_lon": 0.0, "lat": 38.92041416666667, "bike_id": "2ef8d277a05f10e6e91925648c4d05e2", "type": "electric_scooter", "is_reserved": 0, "lon": -76.99565433333333}, {"fusion_lat": 0.0, "name": "1a1f552dfa54713bb9fbcf3b7ad76a76", "is_disabled": 0, "rental_uris": {"android": "https://dc.lft.to/lastmile_qr_scan", "ios": "https://dc.lft.to/lastmile_qr_scan"}, "fusion_lon": 0.0, "lat": 38.888727333333335, "bike_id": "1a1f552dfa54713bb9fbcf3b7ad76a76", "type": "electric_scooter", "is_reserved": 0, "lon": -76.98456633333333}, {"fusion_lat": 0.0, "name": "d039483baae3ecdd91acc40012eca20e", "is_disabled": 0, "rental_uris": {"android": "https://dc.lft.to/lastmile_qr_scan", "ios": "https://dc.lft.to/lastmile_qr_scan"}, "fusion_lon": 0.0, "lat": 38.89484866666667, "bike_id": "d039483baae3ecdd91acc40012eca20e", "type": "electric_scooter", "is_reserved": 0, "lon": -76.99740116666666}, {"fusion_lat": 0.0, "name": "f6ccb83deb06eafbbf60802961fae115", "is_disabled": 0, "rental_uris": {"android": "https://dc.lft.to/lastmile_qr_scan", "ios": "https://dc.lft.to/lastmile_qr_scan"}, "fusion_lon": 0.0, "lat": 38.88257216666667, "bike_id": "f6ccb83deb06eafbbf60802961fae115", "type": "electric_scooter", "is_reserved": 0, "lon": -76.99034683333333}, {"fusion_lat": 0.0, "name": "9eb474631b5abe724ecbfdbbf75f2770", "is_disabled": 0, "rental_uris": {"android": "https://dc.lft.to/lastmile_qr_scan", "ios": "https://dc.lft.to/lastmile_qr_scan"}, "fusion_lon": 0.0, "lat": 38.905240166666665, "bike_id": "9eb474631b5abe724ecbfdbbf75f2770", "type": "electric_scooter", "is_reserved": 0, "lon": -77.017152}, {"fusion_lat": 0.0, "name": "1a4b1a653b76153dcc04a8ee5cc96be1", "is_disabled": 0, "rental_uris": {"android": "https://dc.lft.to/lastmile_qr_scan", "ios": "https://dc.lft.to/lastmile_qr_scan"}, "fusion_lon": 0.0, "lat": 38.916593666666664, "bike_id": "1a4b1a653b76153dcc04a8ee5cc96be1", "type": "electric_scooter", "is_reserved": 0, "lon": -77.03851583333334}, {"fusion_lat": 0.0, "name": "22cc5c7fdf136021f216f0396efbe7bb", "is_disabled": 0, "rental_uris": {"android": "https://dc.lft.to/lastmile_qr_scan", "ios": "https://dc.lft.to/lastmile_qr_scan"}, "fusion_lon": 0.0, "lat": 38.97374766666667, "bike_id": "22cc5c7fdf136021f216f0396efbe7bb", "type": "electric_scooter", "is_reserved": 0, "lon": -77.01282133333333}, {"fusion_lat": 0.0, "name": "e8214410760b0faff2426c4e37eb0f87", "is_disabled": 0, "rental_uris": {"android": "https://dc.lft.to/lastmile_qr_scan", "ios": "https://dc.lft.to/lastmile_qr_scan"}, "fusion_lon": 0.0, "lat": 38.9243725, "bike_id": "e8214410760b0faff2426c4e37eb0f87", "type": "electric_scooter", "is_reserved": 0, "lon": -77.04464383333334}, {"fusion_lat": 0.0, "name": "9d8e9657aa546aaa16f22bbd7734ce52", "is_disabled": 0, "rental_uris": {"android": "https://dc.lft.to/lastmile_qr_scan", "ios": "https://dc.lft.to/lastmile_qr_scan"}, "fusion_lon": 0.0, "lat": 38.90847733333333, "bike_id": "9d8e9657aa546aaa16f22bbd7734ce52", "type": "electric_scooter", "is_reserved": 0, "lon": -77.00373966666666}, {"fusion_lat": 0.0, "name": "67f4d11e14417fa135e5de0736bc19d4", "is_disabled": 0, "rental_uris": {"android": "https://dc.lft.to/lastmile_qr_scan", "ios": "https://dc.lft.to/lastmile_qr_scan"}, "fusion_lon": 0.0, "lat": 38.96185066666666, "bike_id": "67f4d11e14417fa135e5de0736bc19d4", "type": "electric_bike", "is_reserved": 0, "lon": -77.0526355}, {"fusion_lat": 0.0, "name": "d423f7f98ebf39a801be79783176337a", "is_disabled": 0, "rental_uris": {"android": "https://dc.lft.to/lastmile_qr_scan", "ios": "https://dc.lft.to/lastmile_qr_scan"}, "fusion_lon": 0.0, "lat": 38.912545333333334, "bike_id": "d423f7f98ebf39a801be79783176337a", "type": "electric_scooter", "is_reserved": 0, "lon": -77.029557}, {"fusion_lat": 0.0, "name": "afebc0d60309295fddec8de004ba5899", "is_disabled": 0, "rental_uris": {"android": "https://dc.lft.to/lastmile_qr_scan", "ios": "https://dc.lft.to/lastmile_qr_scan"}, "fusion_lon": 0.0, "lat": 38.8970885, "bike_id": "afebc0d60309295fddec8de004ba5899", "type": "electric_scooter", "is_reserved": 0, "lon": -77.0131235}, {"fusion_lat": 0.0, "name": "3dc912120d4a8092975d8479d5bd290a", "is_disabled": 0, "rental_uris": {"android": "https://dc.lft.to/lastmile_qr_scan", "ios": "https://dc.lft.to/lastmile_qr_scan"}, "fusion_lon": 0.0, "lat": 38.90414116666667, "bike_id": "3dc912120d4a8092975d8479d5bd290a", "type": "electric_scooter", "is_reserved": 0, "lon": -77.0188665}, {"fusion_lat": 0.0, "name": "3b68f6db5602867a46ce8d9f8a10fd23", "is_disabled": 0, "rental_uris": {"android": "https://dc.lft.to/lastmile_qr_scan", "ios": "https://dc.lft.to/lastmile_qr_scan"}, "fusion_lon": 0.0, "lat": 38.891195333333336, "bike_id": "3b68f6db5602867a46ce8d9f8a10fd23", "type": "electric_scooter", "is_reserved": 0, "lon": -76.94379533333333}, {"fusion_lat": 0.0, "name": "f4203f469c51cd8b95ca0504cc5a7b29", "is_disabled": 0, "rental_uris": {"android": "https://dc.lft.to/lastmile_qr_scan", "ios": "https://dc.lft.to/lastmile_qr_scan"}, "fusion_lon": 0.0, "lat": 38.92720633333333, "bike_id": "f4203f469c51cd8b95ca0504cc5a7b29", "type": "electric_scooter", "is_reserved": 0, "lon": -77.02054266666667}, {"fusion_lat": 0.0, "name": "9e218c294d3e685f769b3f1c7e9364e7", "is_disabled": 0, "rental_uris": {"android": "https://dc.lft.to/lastmile_qr_scan", "ios": "https://dc.lft.to/lastmile_qr_scan"}, "fusion_lon": 0.0, "lat": 38.900634333333336, "bike_id": "9e218c294d3e685f769b3f1c7e9364e7", "type": "electric_scooter", "is_reserved": 0, "lon": -76.933849}, {"fusion_lat": 0.0, "name": "bc6ab61e306ef3dd3de4065958fc760a", "is_disabled": 0, "rental_uris": {"android": "https://dc.lft.to/lastmile_qr_scan", "ios": "https://dc.lft.to/lastmile_qr_scan"}, "fusion_lon": 0.0, "lat": 38.89612866666667, "bike_id": "bc6ab61e306ef3dd3de4065958fc760a", "type": "electric_scooter", "is_reserved": 0, "lon": -77.050605}, {"fusion_lat": 0.0, "name": "59a95ab0de497fe0c17d5d8d15d2b3aa", "is_disabled": 0, "rental_uris": {"android": "https://dc.lft.to/lastmile_qr_scan", "ios": "https://dc.lft.to/lastmile_qr_scan"}, "fusion_lon": 0.0, "lat": 38.899931333333335, "bike_id": "59a95ab0de497fe0c17d5d8d15d2b3aa", "type": "electric_scooter", "is_reserved": 0, "lon": -77.021989}, {"fusion_lat": 0.0, "name": "7cd2781384648d529b1b5c9e06dba08c", "is_disabled": 0, "rental_uris": {"android": "https://dc.lft.to/lastmile_qr_scan", "ios": "https://dc.lft.to/lastmile_qr_scan"}, "fusion_lon": 0.0, "lat": 38.9057025, "bike_id": "7cd2781384648d529b1b5c9e06dba08c", "type": "electric_scooter", "is_reserved": 0, "lon": -77.00804783333334}, {"fusion_lat": 0.0, "name": "8df606e94393f1ffee580e6192d03fda", "is_disabled": 0, "rental_uris": {"android": "https://dc.lft.to/lastmile_qr_scan", "ios": "https://dc.lft.to/lastmile_qr_scan"}, "fusion_lon": 0.0, "lat": 38.9040345, "bike_id": "8df606e94393f1ffee580e6192d03fda", "type": "electric_scooter", "is_reserved": 0, "lon": -77.061423}, {"fusion_lat": 0.0, "name": "29b2a556cc2dc69cb741281e46b44737", "is_disabled": 0, "rental_uris": {"android": "https://dc.lft.to/lastmile_qr_scan", "ios": "https://dc.lft.to/lastmile_qr_scan"}, "fusion_lon": 0.0, "lat": 38.93749833333333, "bike_id": "29b2a556cc2dc69cb741281e46b44737", "type": "electric_scooter", "is_reserved": 0, "lon": -77.02527283333333}, {"fusion_lat": 0.0, "name": "387bfafde3cfbf27819314210d615e4f", "is_disabled": 0, "rental_uris": {"android": "https://dc.lft.to/lastmile_qr_scan", "ios": "https://dc.lft.to/lastmile_qr_scan"}, "fusion_lon": 0.0, "lat": 38.840557, "bike_id": "387bfafde3cfbf27819314210d615e4f", "type": "electric_scooter", "is_reserved": 0, "lon": -76.97670066666667}, {"fusion_lat": 0.0, "name": "39f6e7dbe70453d452ef29c5daa42c23", "is_disabled": 0, "rental_uris": {"android": "https://dc.lft.to/lastmile_qr_scan", "ios": "https://dc.lft.to/lastmile_qr_scan"}, "fusion_lon": 0.0, "lat": 38.8956625, "bike_id": "39f6e7dbe70453d452ef29c5daa42c23", "type": "electric_bike", "is_reserved": 0, "lon": -77.127371}, {"fusion_lat": 0.0, "name": "2235c79a75b97910b731433065397b32", "is_disabled": 0, "rental_uris": {"android": "https://dc.lft.to/lastmile_qr_scan", "ios": "https://dc.lft.to/lastmile_qr_scan"}, "fusion_lon": 0.0, "lat": 38.926889833333334, "bike_id": "2235c79a75b97910b731433065397b32", "type": "electric_scooter", "is_reserved": 0, "lon": -77.00777166666667}, {"fusion_lat": 0.0, "name": "2704b6ecfc37c8187402a5a2941b44f9", "is_disabled": 0, "rental_uris": {"android": "https://dc.lft.to/lastmile_qr_scan", "ios": "https://dc.lft.to/lastmile_qr_scan"}, "fusion_lon": 0.0, "lat": 38.84284566666667, "bike_id": "2704b6ecfc37c8187402a5a2941b44f9", "type": "electric_bike", "is_reserved": 0, "lon": -77.04495}, {"fusion_lat": 0.0, "name": "c79565ea69c98f59e5dffd2fd14b1eed", "is_disabled": 0, "rental_uris": {"android": "https://dc.lft.to/lastmile_qr_scan", "ios": "https://dc.lft.to/lastmile_qr_scan"}, "fusion_lon": 0.0, "lat": 38.9295185, "bike_id": "c79565ea69c98f59e5dffd2fd14b1eed", "type": "electric_scooter", "is_reserved": 0, "lon": -77.03470583333333}, {"fusion_lat": 0.0, "name": "e77ca42d9aca9363b861162eb32e5380", "is_disabled": 0, "rental_uris": {"android": "https://dc.lft.to/lastmile_qr_scan", "ios": "https://dc.lft.to/lastmile_qr_scan"}, "fusion_lon": 0.0, "lat": 38.895656, "bike_id": "e77ca42d9aca9363b861162eb32e5380", "type": "electric_bike", "is_reserved": 0, "lon": -77.12737083333333}, {"fusion_lat": 0.0, "name": "d1628ba365d3fc8621e5456132210a48", "is_disabled": 0, "rental_uris": {"android": "https://dc.lft.to/lastmile_qr_scan", "ios": "https://dc.lft.to/lastmile_qr_scan"}, "fusion_lon": 0.0, "lat": 38.91129316666667, "bike_id": "d1628ba365d3fc8621e5456132210a48", "type": "electric_scooter", "is_reserved": 0, "lon": -77.01054233333333}, {"fusion_lat": 0.0, "name": "5f4ea9c2ac0db43b56e9294d1b4014bb", "is_disabled": 0, "rental_uris": {"android": "https://dc.lft.to/lastmile_qr_scan", "ios": "https://dc.lft.to/lastmile_qr_scan"}, "fusion_lon": 0.0, "lat": 38.8531375, "bike_id": "5f4ea9c2ac0db43b56e9294d1b4014bb", "type": "electric_bike", "is_reserved": 0, "lon": -77.04595866666666}, {"fusion_lat": 0.0, "name": "f69f920ef6fb35a20731dc4f0424ed8b", "is_disabled": 0, "rental_uris": {"android": "https://dc.lft.to/lastmile_qr_scan", "ios": "https://dc.lft.to/lastmile_qr_scan"}, "fusion_lon": 0.0, "lat": 38.91701183333333, "bike_id": "f69f920ef6fb35a20731dc4f0424ed8b", "type": "electric_scooter", "is_reserved": 0, "lon": -77.034684}, {"fusion_lat": 0.0, "name": "f1a8ecded41ec5ac9a20058d96c53ff4", "is_disabled": 0, "rental_uris": {"android": "https://dc.lft.to/lastmile_qr_scan", "ios": "https://dc.lft.to/lastmile_qr_scan"}, "fusion_lon": 0.0, "lat": 38.9242005, "bike_id": "f1a8ecded41ec5ac9a20058d96c53ff4", "type": "electric_scooter", "is_reserved": 0, "lon": -77.02256983333334}, {"fusion_lat": 0.0, "name": "03c7c03777fcf6824452cd41a4ceb0db", "is_disabled": 0, "rental_uris": {"android": "https://dc.lft.to/lastmile_qr_scan", "ios": "https://dc.lft.to/lastmile_qr_scan"}, "fusion_lon": 0.0, "lat": 38.906521166666664, "bike_id": "03c7c03777fcf6824452cd41a4ceb0db", "type": "electric_scooter", "is_reserved": 0, "lon": -77.02382583333333}, {"fusion_lat": 0.0, "name": "c43840bab773ba18ffe860b8b3c6d86b", "is_disabled": 0, "rental_uris": {"android": "https://dc.lft.to/lastmile_qr_scan", "ios": "https://dc.lft.to/lastmile_qr_scan"}, "fusion_lon": 0.0, "lat": 38.907442833333334, "bike_id": "c43840bab773ba18ffe860b8b3c6d86b", "type": "electric_scooter", "is_reserved": 0, "lon": -77.00499066666667}, {"fusion_lat": 0.0, "name": "c442b7e4f932afa6c28ad6cf9f730c56", "is_disabled": 0, "rental_uris": {"android": "https://dc.lft.to/lastmile_qr_scan", "ios": "https://dc.lft.to/lastmile_qr_scan"}, "fusion_lon": 0.0, "lat": 38.95953316666667, "bike_id": "c442b7e4f932afa6c28ad6cf9f730c56", "type": "electric_scooter", "is_reserved": 0, "lon": -77.00893233333333}, {"fusion_lat": 0.0, "name": "6f9ea6e52f60a422c63c7a55fd44d74e", "is_disabled": 0, "rental_uris": {"android": "https://dc.lft.to/lastmile_qr_scan", "ios": "https://dc.lft.to/lastmile_qr_scan"}, "fusion_lon": 0.0, "lat": 38.9420325, "bike_id": "6f9ea6e52f60a422c63c7a55fd44d74e", "type": "electric_scooter", "is_reserved": 0, "lon": -77.02588366666667}, {"fusion_lat": 0.0, "name": "1631823b391a2384fd0e04950c374461", "is_disabled": 0, "rental_uris": {"android": "https://dc.lft.to/lastmile_qr_scan", "ios": "https://dc.lft.to/lastmile_qr_scan"}, "fusion_lon": 0.0, "lat": 38.91555483333333, "bike_id": "1631823b391a2384fd0e04950c374461", "type": "electric_scooter", "is_reserved": 0, "lon": -77.03224}, {"fusion_lat": 0.0, "name": "b33b478d8b8f203400c01e31d4812fe5", "is_disabled": 0, "rental_uris": {"android": "https://dc.lft.to/lastmile_qr_scan", "ios": "https://dc.lft.to/lastmile_qr_scan"}, "fusion_lon": 0.0, "lat": 38.9345275, "bike_id": "b33b478d8b8f203400c01e31d4812fe5", "type": "electric_scooter", "is_reserved": 0, "lon": -77.038677}, {"fusion_lat": 0.0, "name": "c1dcc9af77a0d4c9a718e56a5f12e60a", "is_disabled": 0, "rental_uris": {"android": "https://dc.lft.to/lastmile_qr_scan", "ios": "https://dc.lft.to/lastmile_qr_scan"}, "fusion_lon": 0.0, "lat": 38.83317516666666, "bike_id": "c1dcc9af77a0d4c9a718e56a5f12e60a", "type": "electric_bike", "is_reserved": 0, "lon": -77.04174016666667}, {"fusion_lat": 0.0, "name": "395fe7c939c37cdb514c3613ba62f971", "is_disabled": 0, "rental_uris": {"android": "https://dc.lft.to/lastmile_qr_scan", "ios": "https://dc.lft.to/lastmile_qr_scan"}, "fusion_lon": 0.0, "lat": 38.913231333333336, "bike_id": "395fe7c939c37cdb514c3613ba62f971", "type": "electric_scooter", "is_reserved": 0, "lon": -77.0454325}, {"fusion_lat": 0.0, "name": "4bdecf2dd602f721a7cfd4cedf8b497d", "is_disabled": 0, "rental_uris": {"android": "https://dc.lft.to/lastmile_qr_scan", "ios": "https://dc.lft.to/lastmile_qr_scan"}, "fusion_lon": 0.0, "lat": 38.918190833333334, "bike_id": "4bdecf2dd602f721a7cfd4cedf8b497d", "type": "electric_scooter", "is_reserved": 0, "lon": -77.0393335}, {"fusion_lat": 0.0, "name": "c7cd3e4bb229ce976a441795bed52030", "is_disabled": 0, "rental_uris": {"android": "https://dc.lft.to/lastmile_qr_scan", "ios": "https://dc.lft.to/lastmile_qr_scan"}, "fusion_lon": 0.0, "lat": 38.879452666666666, "bike_id": "c7cd3e4bb229ce976a441795bed52030", "type": "electric_scooter", "is_reserved": 0, "lon": -77.00829416666667}, {"fusion_lat": 0.0, "name": "10c3068bd0511f1cac2c1a08f8a4f88d", "is_disabled": 0, "rental_uris": {"android": "https://dc.lft.to/lastmile_qr_scan", "ios": "https://dc.lft.to/lastmile_qr_scan"}, "fusion_lon": 0.0, "lat": 38.8981805, "bike_id": "10c3068bd0511f1cac2c1a08f8a4f88d", "type": "electric_scooter", "is_reserved": 0, "lon": -77.02405516666667}, {"fusion_lat": 0.0, "name": "ab5dd0d1f55da512bd76628d2452d2ca", "is_disabled": 0, "rental_uris": {"android": "https://dc.lft.to/lastmile_qr_scan", "ios": "https://dc.lft.to/lastmile_qr_scan"}, "fusion_lon": 0.0, "lat": 38.915417, "bike_id": "ab5dd0d1f55da512bd76628d2452d2ca", "type": "electric_scooter", "is_reserved": 0, "lon": -77.031994}, {"fusion_lat": 0.0, "name": "16e114ce6952f2b6ee765dd06e3b1714", "is_disabled": 0, "rental_uris": {"android": "https://dc.lft.to/lastmile_qr_scan", "ios": "https://dc.lft.to/lastmile_qr_scan"}, "fusion_lon": 0.0, "lat": 38.866857333333336, "bike_id": "16e114ce6952f2b6ee765dd06e3b1714", "type": "electric_bike", "is_reserved": 0, "lon": -76.982374}, {"fusion_lat": 0.0, "name": "6290f5a7cb830c3c87f26203d34a5a9c", "is_disabled": 0, "rental_uris": {"android": "https://dc.lft.to/lastmile_qr_scan", "ios": "https://dc.lft.to/lastmile_qr_scan"}, "fusion_lon": 0.0, "lat": 38.9131145, "bike_id": "6290f5a7cb830c3c87f26203d34a5a9c", "type": "electric_scooter", "is_reserved": 0, "lon": -77.04555883333333}, {"fusion_lat": 0.0, "name": "67539b980bc03f5e668906d45d417bc9", "is_disabled": 0, "rental_uris": {"android": "https://dc.lft.to/lastmile_qr_scan", "ios": "https://dc.lft.to/lastmile_qr_scan"}, "fusion_lon": 0.0, "lat": 38.9193, "bike_id": "67539b980bc03f5e668906d45d417bc9", "type": "electric_scooter", "is_reserved": 0, "lon": -77.02500333333333}, {"fusion_lat": 0.0, "name": "6d0ba0c7096d7d05a2dc0c7f26c30f9a", "is_disabled": 0, "rental_uris": {"android": "https://dc.lft.to/lastmile_qr_scan", "ios": "https://dc.lft.to/lastmile_qr_scan"}, "fusion_lon": 0.0, "lat": 38.904007666666665, "bike_id": "6d0ba0c7096d7d05a2dc0c7f26c30f9a", "type": "electric_scooter", "is_reserved": 0, "lon": -77.01793633333334}, {"fusion_lat": 0.0, "name": "ccf940e7df1e16e71e8f47ddf5d1dbaa", "is_disabled": 0, "rental_uris": {"android": "https://dc.lft.to/lastmile_qr_scan", "ios": "https://dc.lft.to/lastmile_qr_scan"}, "fusion_lon": 0.0, "lat": 38.9235605, "bike_id": "ccf940e7df1e16e71e8f47ddf5d1dbaa", "type": "electric_scooter", "is_reserved": 0, "lon": -77.03393083333333}, {"fusion_lat": 0.0, "name": "a6c0c28c1165c27e36901a54f945f499", "is_disabled": 0, "rental_uris": {"android": "https://dc.lft.to/lastmile_qr_scan", "ios": "https://dc.lft.to/lastmile_qr_scan"}, "fusion_lon": 0.0, "lat": 38.935039833333335, "bike_id": "a6c0c28c1165c27e36901a54f945f499", "type": "electric_scooter", "is_reserved": 0, "lon": -77.02408566666666}, {"fusion_lat": 0.0, "name": "da277f17c554cb2fdc4b57f4b7347989", "is_disabled": 0, "rental_uris": {"android": "https://dc.lft.to/lastmile_qr_scan", "ios": "https://dc.lft.to/lastmile_qr_scan"}, "fusion_lon": 0.0, "lat": 38.9623635, "bike_id": "da277f17c554cb2fdc4b57f4b7347989", "type": "electric_bike", "is_reserved": 0, "lon": -76.9277435}, {"fusion_lat": 0.0, "name": "4dde3093382017f42e712d728a26f404", "is_disabled": 0, "rental_uris": {"android": "https://dc.lft.to/lastmile_qr_scan", "ios": "https://dc.lft.to/lastmile_qr_scan"}, "fusion_lon": 0.0, "lat": 38.9566745, "bike_id": "4dde3093382017f42e712d728a26f404", "type": "electric_bike", "is_reserved": 0, "lon": -77.01128366666667}, {"fusion_lat": 0.0, "name": "1ad3bf4b46a14606e6080ae94f0327d1", "is_disabled": 0, "rental_uris": {"android": "https://dc.lft.to/lastmile_qr_scan", "ios": "https://dc.lft.to/lastmile_qr_scan"}, "fusion_lon": 0.0, "lat": 38.899654166666664, "bike_id": "1ad3bf4b46a14606e6080ae94f0327d1", "type": "electric_scooter", "is_reserved": 0, "lon": -77.03356216666667}, {"fusion_lat": 0.0, "name": "b926838e4aa96a45bf3cc5f0b493de69", "is_disabled": 0, "rental_uris": {"android": "https://dc.lft.to/lastmile_qr_scan", "ios": "https://dc.lft.to/lastmile_qr_scan"}, "fusion_lon": 0.0, "lat": 38.903862833333335, "bike_id": "b926838e4aa96a45bf3cc5f0b493de69", "type": "electric_scooter", "is_reserved": 0, "lon": -77.03953366666667}, {"fusion_lat": 0.0, "name": "7456f153d65e2a04d0f3b34bcb423593", "is_disabled": 0, "rental_uris": {"android": "https://dc.lft.to/lastmile_qr_scan", "ios": "https://dc.lft.to/lastmile_qr_scan"}, "fusion_lon": 0.0, "lat": 38.92541, "bike_id": "7456f153d65e2a04d0f3b34bcb423593", "type": "electric_scooter", "is_reserved": 0, "lon": -77.007542}, {"fusion_lat": 0.0, "name": "6014bb9162612d7d45b159d32bcd49b8", "is_disabled": 0, "rental_uris": {"android": "https://dc.lft.to/lastmile_qr_scan", "ios": "https://dc.lft.to/lastmile_qr_scan"}, "fusion_lon": 0.0, "lat": 38.80710533333333, "bike_id": "6014bb9162612d7d45b159d32bcd49b8", "type": "electric_bike", "is_reserved": 0, "lon": -77.06172983333333}, {"fusion_lat": 0.0, "name": "66c07a1c3ac4045114a3e2bd1b29c028", "is_disabled": 0, "rental_uris": {"android": "https://dc.lft.to/lastmile_qr_scan", "ios": "https://dc.lft.to/lastmile_qr_scan"}, "fusion_lon": 0.0, "lat": 38.921961, "bike_id": "66c07a1c3ac4045114a3e2bd1b29c028", "type": "electric_scooter", "is_reserved": 0, "lon": -77.04232716666667}, {"fusion_lat": 0.0, "name": "f74eeb2425d8fee59d44514e764cf227", "is_disabled": 0, "rental_uris": {"android": "https://dc.lft.to/lastmile_qr_scan", "ios": "https://dc.lft.to/lastmile_qr_scan"}, "fusion_lon": 0.0, "lat": 38.891016, "bike_id": "f74eeb2425d8fee59d44514e764cf227", "type": "electric_scooter", "is_reserved": 0, "lon": -76.99626266666667}, {"fusion_lat": 0.0, "name": "ee29268aa50d4324336759faa43a5900", "is_disabled": 0, "rental_uris": {"android": "https://dc.lft.to/lastmile_qr_scan", "ios": "https://dc.lft.to/lastmile_qr_scan"}, "fusion_lon": 0.0, "lat": 38.90731783333333, "bike_id": "ee29268aa50d4324336759faa43a5900", "type": "electric_scooter", "is_reserved": 0, "lon": -76.93547966666667}, {"fusion_lat": 0.0, "name": "af867041f23934eb38ae5f299f8c1448", "is_disabled": 0, "rental_uris": {"android": "https://dc.lft.to/lastmile_qr_scan", "ios": "https://dc.lft.to/lastmile_qr_scan"}, "fusion_lon": 0.0, "lat": 38.907241, "bike_id": "af867041f23934eb38ae5f299f8c1448", "type": "electric_scooter", "is_reserved": 0, "lon": -77.04750283333334}, {"fusion_lat": 0.0, "name": "774a79ff2ac5baf797057eb0d4f9825d", "is_disabled": 0, "rental_uris": {"android": "https://dc.lft.to/lastmile_qr_scan", "ios": "https://dc.lft.to/lastmile_qr_scan"}, "fusion_lon": 0.0, "lat": 38.9063095, "bike_id": "774a79ff2ac5baf797057eb0d4f9825d", "type": "electric_scooter", "is_reserved": 0, "lon": -77.034211}, {"fusion_lat": 0.0, "name": "35841a47bd9fbb8d4dc920dfa572bb30", "is_disabled": 0, "rental_uris": {"android": "https://dc.lft.to/lastmile_qr_scan", "ios": "https://dc.lft.to/lastmile_qr_scan"}, "fusion_lon": 0.0, "lat": 38.81913216666667, "bike_id": "35841a47bd9fbb8d4dc920dfa572bb30", "type": "electric_bike", "is_reserved": 0, "lon": -77.04799533333333}, {"fusion_lat": 0.0, "name": "8568324af194798bccdd815494ceff0b", "is_disabled": 0, "rental_uris": {"android": "https://dc.lft.to/lastmile_qr_scan", "ios": "https://dc.lft.to/lastmile_qr_scan"}, "fusion_lon": 0.0, "lat": 38.92679916666667, "bike_id": "8568324af194798bccdd815494ceff0b", "type": "electric_scooter", "is_reserved": 0, "lon": -77.03078366666666}, {"fusion_lat": 0.0, "name": "2250cf97432e17be7c63234fc9f74663", "is_disabled": 0, "rental_uris": {"android": "https://dc.lft.to/lastmile_qr_scan", "ios": "https://dc.lft.to/lastmile_qr_scan"}, "fusion_lon": 0.0, "lat": 38.904012333333334, "bike_id": "2250cf97432e17be7c63234fc9f74663", "type": "electric_scooter", "is_reserved": 0, "lon": -77.06804266666667}, {"fusion_lat": 0.0, "name": "ac70257c3b56bfdcd72b37117b439ef0", "is_disabled": 0, "rental_uris": {"android": "https://dc.lft.to/lastmile_qr_scan", "ios": "https://dc.lft.to/lastmile_qr_scan"}, "fusion_lon": 0.0, "lat": 38.883031333333335, "bike_id": "ac70257c3b56bfdcd72b37117b439ef0", "type": "electric_scooter", "is_reserved": 0, "lon": -76.94859}, {"fusion_lat": 0.0, "name": "5586239f2139705c10bb00aa6b46d621", "is_disabled": 0, "rental_uris": {"android": "https://dc.lft.to/lastmile_qr_scan", "ios": "https://dc.lft.to/lastmile_qr_scan"}, "fusion_lon": 0.0, "lat": 38.914077, "bike_id": "5586239f2139705c10bb00aa6b46d621", "type": "electric_scooter", "is_reserved": 0, "lon": -77.032291}, {"fusion_lat": 0.0, "name": "8403bc375a5042f479deca7cb0ed2dc4", "is_disabled": 0, "rental_uris": {"android": "https://dc.lft.to/lastmile_qr_scan", "ios": "https://dc.lft.to/lastmile_qr_scan"}, "fusion_lon": 0.0, "lat": 38.797590166666666, "bike_id": "8403bc375a5042f479deca7cb0ed2dc4", "type": "electric_bike", "is_reserved": 0, "lon": -77.047499}, {"fusion_lat": 0.0, "name": "808501b559715f538b33e268e954652c", "is_disabled": 0, "rental_uris": {"android": "https://dc.lft.to/lastmile_qr_scan", "ios": "https://dc.lft.to/lastmile_qr_scan"}, "fusion_lon": 0.0, "lat": 38.90770766666667, "bike_id": "808501b559715f538b33e268e954652c", "type": "electric_scooter", "is_reserved": 0, "lon": -77.05650116666666}, {"fusion_lat": 0.0, "name": "a3c4873bd81cf3101aa5148de886d221", "is_disabled": 0, "rental_uris": {"android": "https://dc.lft.to/lastmile_qr_scan", "ios": "https://dc.lft.to/lastmile_qr_scan"}, "fusion_lon": 0.0, "lat": 38.881522833333335, "bike_id": "a3c4873bd81cf3101aa5148de886d221", "type": "electric_scooter", "is_reserved": 0, "lon": -76.99495666666667}, {"fusion_lat": 0.0, "name": "d1f25a06924e81c49b10f3560d8f4bfd", "is_disabled": 0, "rental_uris": {"android": "https://dc.lft.to/lastmile_qr_scan", "ios": "https://dc.lft.to/lastmile_qr_scan"}, "fusion_lon": 0.0, "lat": 38.88324166666666, "bike_id": "d1f25a06924e81c49b10f3560d8f4bfd", "type": "electric_bike", "is_reserved": 0, "lon": -76.96058166666667}, {"fusion_lat": 0.0, "name": "4e73e2bed7036dd834d3adfc68e3e92b", "is_disabled": 0, "rental_uris": {"android": "https://dc.lft.to/lastmile_qr_scan", "ios": "https://dc.lft.to/lastmile_qr_scan"}, "fusion_lon": 0.0, "lat": 38.911132, "bike_id": "4e73e2bed7036dd834d3adfc68e3e92b", "type": "electric_scooter", "is_reserved": 0, "lon": -77.0813085}, {"fusion_lat": 0.0, "name": "74c5b782ea67e90b01f294277c7048e2", "is_disabled": 0, "rental_uris": {"android": "https://dc.lft.to/lastmile_qr_scan", "ios": "https://dc.lft.to/lastmile_qr_scan"}, "fusion_lon": 0.0, "lat": 38.915659166666664, "bike_id": "74c5b782ea67e90b01f294277c7048e2", "type": "electric_scooter", "is_reserved": 0, "lon": -77.03180433333333}, {"fusion_lat": 0.0, "name": "ba928ff32f29da0a2a63fca3bf46cbbe", "is_disabled": 0, "rental_uris": {"android": "https://dc.lft.to/lastmile_qr_scan", "ios": "https://dc.lft.to/lastmile_qr_scan"}, "fusion_lon": 0.0, "lat": 38.8279765, "bike_id": "ba928ff32f29da0a2a63fca3bf46cbbe", "type": "electric_bike", "is_reserved": 0, "lon": -77.12492333333333}, {"fusion_lat": 0.0, "name": "9fbbbc4e2f0bc02dd527d3408f4e8d1c", "is_disabled": 0, "rental_uris": {"android": "https://dc.lft.to/lastmile_qr_scan", "ios": "https://dc.lft.to/lastmile_qr_scan"}, "fusion_lon": 0.0, "lat": 38.88503716666666, "bike_id": "9fbbbc4e2f0bc02dd527d3408f4e8d1c", "type": "electric_scooter", "is_reserved": 0, "lon": -77.01730733333333}, {"fusion_lat": 0.0, "name": "3c68bdcb882a2a13986f9670e3d1ddbc", "is_disabled": 0, "rental_uris": {"android": "https://dc.lft.to/lastmile_qr_scan", "ios": "https://dc.lft.to/lastmile_qr_scan"}, "fusion_lon": 0.0, "lat": 38.907462333333335, "bike_id": "3c68bdcb882a2a13986f9670e3d1ddbc", "type": "electric_scooter", "is_reserved": 0, "lon": -77.029598}, {"fusion_lat": 0.0, "name": "1ddd475f55ebf21e14392f661c37af3e", "is_disabled": 0, "rental_uris": {"android": "https://dc.lft.to/lastmile_qr_scan", "ios": "https://dc.lft.to/lastmile_qr_scan"}, "fusion_lon": 0.0, "lat": 38.937730333333334, "bike_id": "1ddd475f55ebf21e14392f661c37af3e", "type": "electric_scooter", "is_reserved": 0, "lon": -77.03258116666667}, {"fusion_lat": 0.0, "name": "59e4a3d57b49baf66e23c9c3061ad2fe", "is_disabled": 0, "rental_uris": {"android": "https://dc.lft.to/lastmile_qr_scan", "ios": "https://dc.lft.to/lastmile_qr_scan"}, "fusion_lon": 0.0, "lat": 38.92227066666667, "bike_id": "59e4a3d57b49baf66e23c9c3061ad2fe", "type": "electric_scooter", "is_reserved": 0, "lon": -77.02369633333333}, {"fusion_lat": 0.0, "name": "5599147ed708eece88647c7fc8d89a5c", "is_disabled": 0, "rental_uris": {"android": "https://dc.lft.to/lastmile_qr_scan", "ios": "https://dc.lft.to/lastmile_qr_scan"}, "fusion_lon": 0.0, "lat": 38.93968116666667, "bike_id": "5599147ed708eece88647c7fc8d89a5c", "type": "electric_scooter", "is_reserved": 0, "lon": -77.032815}, {"fusion_lat": 0.0, "name": "9324c55626da755c8735a2b5c1f3b5be", "is_disabled": 0, "rental_uris": {"android": "https://dc.lft.to/lastmile_qr_scan", "ios": "https://dc.lft.to/lastmile_qr_scan"}, "fusion_lon": 0.0, "lat": 38.928247999999996, "bike_id": "9324c55626da755c8735a2b5c1f3b5be", "type": "electric_scooter", "is_reserved": 0, "lon": -77.02262233333333}, {"fusion_lat": 0.0, "name": "3a319c151046e3846e4935ae0c53d019", "is_disabled": 0, "rental_uris": {"android": "https://dc.lft.to/lastmile_qr_scan", "ios": "https://dc.lft.to/lastmile_qr_scan"}, "fusion_lon": 0.0, "lat": 38.89713866666666, "bike_id": "3a319c151046e3846e4935ae0c53d019", "type": "electric_scooter", "is_reserved": 0, "lon": -77.02288066666667}, {"fusion_lat": 0.0, "name": "1eb9abcbddf7516ad789d710deaffb9a", "is_disabled": 0, "rental_uris": {"android": "https://dc.lft.to/lastmile_qr_scan", "ios": "https://dc.lft.to/lastmile_qr_scan"}, "fusion_lon": 0.0, "lat": 38.84194383333333, "bike_id": "1eb9abcbddf7516ad789d710deaffb9a", "type": "electric_bike", "is_reserved": 0, "lon": -77.077594}, {"fusion_lat": 0.0, "name": "522610d54d86e42e0de6949e8befddc6", "is_disabled": 0, "rental_uris": {"android": "https://dc.lft.to/lastmile_qr_scan", "ios": "https://dc.lft.to/lastmile_qr_scan"}, "fusion_lon": 0.0, "lat": 38.883978, "bike_id": "522610d54d86e42e0de6949e8befddc6", "type": "electric_scooter", "is_reserved": 0, "lon": -76.930513}, {"fusion_lat": 0.0, "name": "613ea812c17209ab800dfed5cf814f35", "is_disabled": 0, "rental_uris": {"android": "https://dc.lft.to/lastmile_qr_scan", "ios": "https://dc.lft.to/lastmile_qr_scan"}, "fusion_lon": 0.0, "lat": 38.966368333333335, "bike_id": "613ea812c17209ab800dfed5cf814f35", "type": "electric_bike", "is_reserved": 0, "lon": -77.02746866666666}, {"fusion_lat": 0.0, "name": "05d1ee2a5953fc3d4a211ecc63c9570a", "is_disabled": 0, "rental_uris": {"android": "https://dc.lft.to/lastmile_qr_scan", "ios": "https://dc.lft.to/lastmile_qr_scan"}, "fusion_lon": 0.0, "lat": 38.91013866666667, "bike_id": "05d1ee2a5953fc3d4a211ecc63c9570a", "type": "electric_scooter", "is_reserved": 0, "lon": -77.0528815}, {"fusion_lat": 0.0, "name": "24175bbc293f553e5a58618d951764e8", "is_disabled": 0, "rental_uris": {"android": "https://dc.lft.to/lastmile_qr_scan", "ios": "https://dc.lft.to/lastmile_qr_scan"}, "fusion_lon": 0.0, "lat": 38.8830825, "bike_id": "24175bbc293f553e5a58618d951764e8", "type": "electric_scooter", "is_reserved": 0, "lon": -77.0138015}, {"fusion_lat": 0.0, "name": "5587e0582eabd0e0d416c7032f2f7670", "is_disabled": 0, "rental_uris": {"android": "https://dc.lft.to/lastmile_qr_scan", "ios": "https://dc.lft.to/lastmile_qr_scan"}, "fusion_lon": 0.0, "lat": 38.903799666666664, "bike_id": "5587e0582eabd0e0d416c7032f2f7670", "type": "electric_scooter", "is_reserved": 0, "lon": -77.067122}, {"fusion_lat": 0.0, "name": "51aaa054c455c25dff8e8b7bf72737f1", "is_disabled": 0, "rental_uris": {"android": "https://dc.lft.to/lastmile_qr_scan", "ios": "https://dc.lft.to/lastmile_qr_scan"}, "fusion_lon": 0.0, "lat": 38.9169945, "bike_id": "51aaa054c455c25dff8e8b7bf72737f1", "type": "electric_scooter", "is_reserved": 0, "lon": -77.03774283333334}, {"fusion_lat": 0.0, "name": "14f0907ce8c3447130dfbe1d2df2e441", "is_disabled": 0, "rental_uris": {"android": "https://dc.lft.to/lastmile_qr_scan", "ios": "https://dc.lft.to/lastmile_qr_scan"}, "fusion_lon": 0.0, "lat": 38.90523783333333, "bike_id": "14f0907ce8c3447130dfbe1d2df2e441", "type": "electric_scooter", "is_reserved": 0, "lon": -77.06782783333334}, {"fusion_lat": 0.0, "name": "20d7c5ede0494e52d405a1d11524c104", "is_disabled": 0, "rental_uris": {"android": "https://dc.lft.to/lastmile_qr_scan", "ios": "https://dc.lft.to/lastmile_qr_scan"}, "fusion_lon": 0.0, "lat": 38.8947405, "bike_id": "20d7c5ede0494e52d405a1d11524c104", "type": "electric_scooter", "is_reserved": 0, "lon": -77.01034616666666}, {"fusion_lat": 0.0, "name": "eeeec69bce8d150829780401d83a55e1", "is_disabled": 0, "rental_uris": {"android": "https://dc.lft.to/lastmile_qr_scan", "ios": "https://dc.lft.to/lastmile_qr_scan"}, "fusion_lon": 0.0, "lat": 38.9289585, "bike_id": "eeeec69bce8d150829780401d83a55e1", "type": "electric_scooter", "is_reserved": 0, "lon": -77.03753533333334}, {"fusion_lat": 0.0, "name": "fed4df204b9cc223395abe90d7e62251", "is_disabled": 0, "rental_uris": {"android": "https://dc.lft.to/lastmile_qr_scan", "ios": "https://dc.lft.to/lastmile_qr_scan"}, "fusion_lon": 0.0, "lat": 38.935287833333334, "bike_id": "fed4df204b9cc223395abe90d7e62251", "type": "electric_scooter", "is_reserved": 0, "lon": -77.030925}, {"fusion_lat": 0.0, "name": "e14937a1c5f98a0c8dd8bd1ebddb06ba", "is_disabled": 0, "rental_uris": {"android": "https://dc.lft.to/lastmile_qr_scan", "ios": "https://dc.lft.to/lastmile_qr_scan"}, "fusion_lon": 0.0, "lat": 38.90763416666667, "bike_id": "e14937a1c5f98a0c8dd8bd1ebddb06ba", "type": "electric_scooter", "is_reserved": 0, "lon": -77.03467683333334}, {"fusion_lat": 0.0, "name": "465079d302de3600a27659a9b232cb44", "is_disabled": 0, "rental_uris": {"android": "https://dc.lft.to/lastmile_qr_scan", "ios": "https://dc.lft.to/lastmile_qr_scan"}, "fusion_lon": 0.0, "lat": 38.922824, "bike_id": "465079d302de3600a27659a9b232cb44", "type": "electric_scooter", "is_reserved": 0, "lon": -77.04243733333334}, {"fusion_lat": 0.0, "name": "88b8996060991132a82c475600723241", "is_disabled": 0, "rental_uris": {"android": "https://dc.lft.to/lastmile_qr_scan", "ios": "https://dc.lft.to/lastmile_qr_scan"}, "fusion_lon": 0.0, "lat": 38.9105795, "bike_id": "88b8996060991132a82c475600723241", "type": "electric_scooter", "is_reserved": 0, "lon": -77.022036}, {"fusion_lat": 0.0, "name": "9a605a4a3c58497b630ba6bb3627434a", "is_disabled": 0, "rental_uris": {"android": "https://dc.lft.to/lastmile_qr_scan", "ios": "https://dc.lft.to/lastmile_qr_scan"}, "fusion_lon": 0.0, "lat": 38.9141405, "bike_id": "9a605a4a3c58497b630ba6bb3627434a", "type": "electric_scooter", "is_reserved": 0, "lon": -77.03441166666667}, {"fusion_lat": 0.0, "name": "dda6e1fc093a900f42847d888743df9e", "is_disabled": 0, "rental_uris": {"android": "https://dc.lft.to/lastmile_qr_scan", "ios": "https://dc.lft.to/lastmile_qr_scan"}, "fusion_lon": 0.0, "lat": 38.97981583333333, "bike_id": "dda6e1fc093a900f42847d888743df9e", "type": "electric_scooter", "is_reserved": 0, "lon": -77.02634833333333}, {"fusion_lat": 0.0, "name": "f7c8fe54769face821d52898efafce31", "is_disabled": 0, "rental_uris": {"android": "https://dc.lft.to/lastmile_qr_scan", "ios": "https://dc.lft.to/lastmile_qr_scan"}, "fusion_lon": 0.0, "lat": 38.937866666666665, "bike_id": "f7c8fe54769face821d52898efafce31", "type": "electric_scooter", "is_reserved": 0, "lon": -77.02333016666667}, {"fusion_lat": 0.0, "name": "c9ba3878f95bc801f4a36b57d28d3a4d", "is_disabled": 0, "rental_uris": {"android": "https://dc.lft.to/lastmile_qr_scan", "ios": "https://dc.lft.to/lastmile_qr_scan"}, "fusion_lon": 0.0, "lat": 38.89909466666667, "bike_id": "c9ba3878f95bc801f4a36b57d28d3a4d", "type": "electric_scooter", "is_reserved": 0, "lon": -76.94589266666667}, {"fusion_lat": 0.0, "name": "612030cd3e035621a5662ec44754b6f7", "is_disabled": 0, "rental_uris": {"android": "https://dc.lft.to/lastmile_qr_scan", "ios": "https://dc.lft.to/lastmile_qr_scan"}, "fusion_lon": 0.0, "lat": 38.9496765, "bike_id": "612030cd3e035621a5662ec44754b6f7", "type": "electric_scooter", "is_reserved": 0, "lon": -77.08085233333334}, {"fusion_lat": 0.0, "name": "c3fa778b4c23f0d8191be06c2b5a080d", "is_disabled": 0, "rental_uris": {"android": "https://dc.lft.to/lastmile_qr_scan", "ios": "https://dc.lft.to/lastmile_qr_scan"}, "fusion_lon": 0.0, "lat": 38.885285833333334, "bike_id": "c3fa778b4c23f0d8191be06c2b5a080d", "type": "electric_scooter", "is_reserved": 0, "lon": -76.92910983333333}, {"fusion_lat": 0.0, "name": "7d552c1c537bb3c6c87fea1fd1c850cc", "is_disabled": 0, "rental_uris": {"android": "https://dc.lft.to/lastmile_qr_scan", "ios": "https://dc.lft.to/lastmile_qr_scan"}, "fusion_lon": 0.0, "lat": 38.935354333333336, "bike_id": "7d552c1c537bb3c6c87fea1fd1c850cc", "type": "electric_scooter", "is_reserved": 0, "lon": -77.02349216666667}, {"fusion_lat": 0.0, "name": "90a0aee1a52fab298b709b036f6bd496", "is_disabled": 0, "rental_uris": {"android": "https://dc.lft.to/lastmile_qr_scan", "ios": "https://dc.lft.to/lastmile_qr_scan"}, "fusion_lon": 0.0, "lat": 38.915535, "bike_id": "90a0aee1a52fab298b709b036f6bd496", "type": "electric_scooter", "is_reserved": 0, "lon": -77.03165733333333}, {"fusion_lat": 0.0, "name": "777cea295ad07398f8b537a09a2e21ef", "is_disabled": 0, "rental_uris": {"android": "https://dc.lft.to/lastmile_qr_scan", "ios": "https://dc.lft.to/lastmile_qr_scan"}, "fusion_lon": 0.0, "lat": 38.9161125, "bike_id": "777cea295ad07398f8b537a09a2e21ef", "type": "electric_scooter", "is_reserved": 0, "lon": -77.00334166666667}, {"fusion_lat": 0.0, "name": "77f19c3ed62942f690932b59dee44464", "is_disabled": 0, "rental_uris": {"android": "https://dc.lft.to/lastmile_qr_scan", "ios": "https://dc.lft.to/lastmile_qr_scan"}, "fusion_lon": 0.0, "lat": 38.87578333333333, "bike_id": "77f19c3ed62942f690932b59dee44464", "type": "electric_bike", "is_reserved": 0, "lon": -77.23409733333334}, {"fusion_lat": 0.0, "name": "97f99e6b88b41f36a4542176478e5c42", "is_disabled": 0, "rental_uris": {"android": "https://dc.lft.to/lastmile_qr_scan", "ios": "https://dc.lft.to/lastmile_qr_scan"}, "fusion_lon": 0.0, "lat": 38.92841583333333, "bike_id": "97f99e6b88b41f36a4542176478e5c42", "type": "electric_scooter", "is_reserved": 0, "lon": -77.01583066666667}, {"fusion_lat": 0.0, "name": "73f3cf1844b03da04e558849d885e09d", "is_disabled": 0, "rental_uris": {"android": "https://dc.lft.to/lastmile_qr_scan", "ios": "https://dc.lft.to/lastmile_qr_scan"}, "fusion_lon": 0.0, "lat": 38.930391, "bike_id": "73f3cf1844b03da04e558849d885e09d", "type": "electric_scooter", "is_reserved": 0, "lon": -77.03299816666667}, {"fusion_lat": 0.0, "name": "d085726da5107e71938db12c85abddcb", "is_disabled": 0, "rental_uris": {"android": "https://dc.lft.to/lastmile_qr_scan", "ios": "https://dc.lft.to/lastmile_qr_scan"}, "fusion_lon": 0.0, "lat": 38.91697716666667, "bike_id": "d085726da5107e71938db12c85abddcb", "type": "electric_scooter", "is_reserved": 0, "lon": -77.031551}, {"fusion_lat": 0.0, "name": "e9fcff5b55b047a14fdafed95c2c941d", "is_disabled": 0, "rental_uris": {"android": "https://dc.lft.to/lastmile_qr_scan", "ios": "https://dc.lft.to/lastmile_qr_scan"}, "fusion_lon": 0.0, "lat": 38.895145166666666, "bike_id": "e9fcff5b55b047a14fdafed95c2c941d", "type": "electric_scooter", "is_reserved": 0, "lon": -77.0415805}, {"fusion_lat": 0.0, "name": "e58f1e0e86f2fc60482cbbdb4f7a7187", "is_disabled": 0, "rental_uris": {"android": "https://dc.lft.to/lastmile_qr_scan", "ios": "https://dc.lft.to/lastmile_qr_scan"}, "fusion_lon": 0.0, "lat": 38.899033833333334, "bike_id": "e58f1e0e86f2fc60482cbbdb4f7a7187", "type": "electric_scooter", "is_reserved": 0, "lon": -76.93354233333334}, {"fusion_lat": 0.0, "name": "afcdab001a24bcaa8f01324e57b898a1", "is_disabled": 0, "rental_uris": {"android": "https://dc.lft.to/lastmile_qr_scan", "ios": "https://dc.lft.to/lastmile_qr_scan"}, "fusion_lon": 0.0, "lat": 38.9390605, "bike_id": "afcdab001a24bcaa8f01324e57b898a1", "type": "electric_scooter", "is_reserved": 0, "lon": -77.0325885}, {"fusion_lat": 0.0, "name": "2475824cc00ff9c36a6595daf5cc8d82", "is_disabled": 0, "rental_uris": {"android": "https://dc.lft.to/lastmile_qr_scan", "ios": "https://dc.lft.to/lastmile_qr_scan"}, "fusion_lon": 0.0, "lat": 38.92387566666667, "bike_id": "2475824cc00ff9c36a6595daf5cc8d82", "type": "electric_scooter", "is_reserved": 0, "lon": -77.04309533333333}, {"fusion_lat": 0.0, "name": "0955f85a422924c11a1b3dc39b627b9b", "is_disabled": 0, "rental_uris": {"android": "https://dc.lft.to/lastmile_qr_scan", "ios": "https://dc.lft.to/lastmile_qr_scan"}, "fusion_lon": 0.0, "lat": 38.89684716666667, "bike_id": "0955f85a422924c11a1b3dc39b627b9b", "type": "electric_scooter", "is_reserved": 0, "lon": -76.9371165}, {"fusion_lat": 0.0, "name": "ad4f39525d45fbf4da5c955a4c659017", "is_disabled": 0, "rental_uris": {"android": "https://dc.lft.to/lastmile_qr_scan", "ios": "https://dc.lft.to/lastmile_qr_scan"}, "fusion_lon": 0.0, "lat": 38.900035, "bike_id": "ad4f39525d45fbf4da5c955a4c659017", "type": "electric_scooter", "is_reserved": 0, "lon": -76.99700866666667}, {"fusion_lat": 0.0, "name": "96f90684f82bd41f28c70b9afc85292f", "is_disabled": 0, "rental_uris": {"android": "https://dc.lft.to/lastmile_qr_scan", "ios": "https://dc.lft.to/lastmile_qr_scan"}, "fusion_lon": 0.0, "lat": 38.8945225, "bike_id": "96f90684f82bd41f28c70b9afc85292f", "type": "electric_scooter", "is_reserved": 0, "lon": -77.045497}, {"fusion_lat": 0.0, "name": "3202a444dc6b6dd9bc4c311a0b63917a", "is_disabled": 0, "rental_uris": {"android": "https://dc.lft.to/lastmile_qr_scan", "ios": "https://dc.lft.to/lastmile_qr_scan"}, "fusion_lon": 0.0, "lat": 38.90314766666667, "bike_id": "3202a444dc6b6dd9bc4c311a0b63917a", "type": "electric_scooter", "is_reserved": 0, "lon": -76.97804933333333}, {"fusion_lat": 0.0, "name": "f512984c53651938aaea5116cb5baa3d", "is_disabled": 0, "rental_uris": {"android": "https://dc.lft.to/lastmile_qr_scan", "ios": "https://dc.lft.to/lastmile_qr_scan"}, "fusion_lon": 0.0, "lat": 38.93931, "bike_id": "f512984c53651938aaea5116cb5baa3d", "type": "electric_scooter", "is_reserved": 0, "lon": -77.07478083333334}, {"fusion_lat": 0.0, "name": "03cc404cbcbab39b6bd31eff94bda736", "is_disabled": 0, "rental_uris": {"android": "https://dc.lft.to/lastmile_qr_scan", "ios": "https://dc.lft.to/lastmile_qr_scan"}, "fusion_lon": 0.0, "lat": 38.881911333333335, "bike_id": "03cc404cbcbab39b6bd31eff94bda736", "type": "electric_scooter", "is_reserved": 0, "lon": -77.00353666666666}, {"fusion_lat": 0.0, "name": "a8a1f455309edf8281fe8c24ced58a32", "is_disabled": 0, "rental_uris": {"android": "https://dc.lft.to/lastmile_qr_scan", "ios": "https://dc.lft.to/lastmile_qr_scan"}, "fusion_lon": 0.0, "lat": 38.8923685, "bike_id": "a8a1f455309edf8281fe8c24ced58a32", "type": "electric_scooter", "is_reserved": 0, "lon": -77.03174933333334}, {"fusion_lat": 0.0, "name": "2d3eec46a37e29b366acd844953d3122", "is_disabled": 0, "rental_uris": {"android": "https://dc.lft.to/lastmile_qr_scan", "ios": "https://dc.lft.to/lastmile_qr_scan"}, "fusion_lon": 0.0, "lat": 38.905312, "bike_id": "2d3eec46a37e29b366acd844953d3122", "type": "electric_scooter", "is_reserved": 0, "lon": -77.05678066666667}, {"fusion_lat": 0.0, "name": "bb6bf9207cee77aa1b80cf015e3cdc0b", "is_disabled": 0, "rental_uris": {"android": "https://dc.lft.to/lastmile_qr_scan", "ios": "https://dc.lft.to/lastmile_qr_scan"}, "fusion_lon": 0.0, "lat": 38.90244833333333, "bike_id": "bb6bf9207cee77aa1b80cf015e3cdc0b", "type": "electric_scooter", "is_reserved": 0, "lon": -77.01661766666666}, {"fusion_lat": 0.0, "name": "c3d7ec4227849fd36a0c57fb4ba4fac1", "is_disabled": 0, "rental_uris": {"android": "https://dc.lft.to/lastmile_qr_scan", "ios": "https://dc.lft.to/lastmile_qr_scan"}, "fusion_lon": 0.0, "lat": 38.80298233333333, "bike_id": "c3d7ec4227849fd36a0c57fb4ba4fac1", "type": "electric_bike", "is_reserved": 0, "lon": -77.0593785}, {"fusion_lat": 0.0, "name": "7dd909d4211a7f5e15e16c0fce8d6d20", "is_disabled": 0, "rental_uris": {"android": "https://dc.lft.to/lastmile_qr_scan", "ios": "https://dc.lft.to/lastmile_qr_scan"}, "fusion_lon": 0.0, "lat": 38.92716383333333, "bike_id": "7dd909d4211a7f5e15e16c0fce8d6d20", "type": "electric_scooter", "is_reserved": 0, "lon": -77.0420415}, {"fusion_lat": 0.0, "name": "12974c626e2102ad5e2c735eb2f04dfa", "is_disabled": 0, "rental_uris": {"android": "https://dc.lft.to/lastmile_qr_scan", "ios": "https://dc.lft.to/lastmile_qr_scan"}, "fusion_lon": 0.0, "lat": 38.93055066666667, "bike_id": "12974c626e2102ad5e2c735eb2f04dfa", "type": "electric_scooter", "is_reserved": 0, "lon": -77.03354766666666}, {"fusion_lat": 0.0, "name": "1f6701316459262d7ca52a296711a089", "is_disabled": 0, "rental_uris": {"android": "https://dc.lft.to/lastmile_qr_scan", "ios": "https://dc.lft.to/lastmile_qr_scan"}, "fusion_lon": 0.0, "lat": 38.94920066666667, "bike_id": "1f6701316459262d7ca52a296711a089", "type": "electric_scooter", "is_reserved": 0, "lon": -77.01857116666666}, {"fusion_lat": 0.0, "name": "efc411e5a3010fd542d2e36df5741ac0", "is_disabled": 0, "rental_uris": {"android": "https://dc.lft.to/lastmile_qr_scan", "ios": "https://dc.lft.to/lastmile_qr_scan"}, "fusion_lon": 0.0, "lat": 38.9024245, "bike_id": "efc411e5a3010fd542d2e36df5741ac0", "type": "electric_scooter", "is_reserved": 0, "lon": -77.019203}, {"fusion_lat": 0.0, "name": "271e3c8397dd37adbfc345082de2ebf6", "is_disabled": 0, "rental_uris": {"android": "https://dc.lft.to/lastmile_qr_scan", "ios": "https://dc.lft.to/lastmile_qr_scan"}, "fusion_lon": 0.0, "lat": 38.88744333333333, "bike_id": "271e3c8397dd37adbfc345082de2ebf6", "type": "electric_scooter", "is_reserved": 0, "lon": -77.02217916666666}, {"fusion_lat": 0.0, "name": "8e388a8dd4e703593378c3246a492224", "is_disabled": 0, "rental_uris": {"android": "https://dc.lft.to/lastmile_qr_scan", "ios": "https://dc.lft.to/lastmile_qr_scan"}, "fusion_lon": 0.0, "lat": 38.893643833333336, "bike_id": "8e388a8dd4e703593378c3246a492224", "type": "electric_scooter", "is_reserved": 0, "lon": -77.00078483333333}, {"fusion_lat": 0.0, "name": "d766797503f332805f04cc93ad1cbef4", "is_disabled": 0, "rental_uris": {"android": "https://dc.lft.to/lastmile_qr_scan", "ios": "https://dc.lft.to/lastmile_qr_scan"}, "fusion_lon": 0.0, "lat": 38.93559333333333, "bike_id": "d766797503f332805f04cc93ad1cbef4", "type": "electric_scooter", "is_reserved": 0, "lon": -77.0347855}, {"fusion_lat": 0.0, "name": "35b2ea99f01d1b62b5053bab77f36bb2", "is_disabled": 0, "rental_uris": {"android": "https://dc.lft.to/lastmile_qr_scan", "ios": "https://dc.lft.to/lastmile_qr_scan"}, "fusion_lon": 0.0, "lat": 38.95111566666667, "bike_id": "35b2ea99f01d1b62b5053bab77f36bb2", "type": "electric_scooter", "is_reserved": 0, "lon": -77.05864983333333}, {"fusion_lat": 0.0, "name": "2de43e392a43c9f26aa6d61585db29ca", "is_disabled": 0, "rental_uris": {"android": "https://dc.lft.to/lastmile_qr_scan", "ios": "https://dc.lft.to/lastmile_qr_scan"}, "fusion_lon": 0.0, "lat": 38.9547645, "bike_id": "2de43e392a43c9f26aa6d61585db29ca", "type": "electric_scooter", "is_reserved": 0, "lon": -77.07775683333334}, {"fusion_lat": 0.0, "name": "e69d5bbdde7593d7cceee03387f0e5d2", "is_disabled": 0, "rental_uris": {"android": "https://dc.lft.to/lastmile_qr_scan", "ios": "https://dc.lft.to/lastmile_qr_scan"}, "fusion_lon": 0.0, "lat": 38.915068, "bike_id": "e69d5bbdde7593d7cceee03387f0e5d2", "type": "electric_scooter", "is_reserved": 0, "lon": -77.0327165}, {"fusion_lat": 0.0, "name": "45913f7b64fdff8413052546585d40cb", "is_disabled": 0, "rental_uris": {"android": "https://dc.lft.to/lastmile_qr_scan", "ios": "https://dc.lft.to/lastmile_qr_scan"}, "fusion_lon": 0.0, "lat": 38.919889, "bike_id": "45913f7b64fdff8413052546585d40cb", "type": "electric_scooter", "is_reserved": 0, "lon": -77.02178083333334}, {"fusion_lat": 0.0, "name": "b027357d34e39a59e55ef7459ad75472", "is_disabled": 0, "rental_uris": {"android": "https://dc.lft.to/lastmile_qr_scan", "ios": "https://dc.lft.to/lastmile_qr_scan"}, "fusion_lon": 0.0, "lat": 38.917072166666664, "bike_id": "b027357d34e39a59e55ef7459ad75472", "type": "electric_scooter", "is_reserved": 0, "lon": -77.03714133333334}, {"fusion_lat": 0.0, "name": "19ef40f2bb93c2a542ca6b36d86457e3", "is_disabled": 0, "rental_uris": {"android": "https://dc.lft.to/lastmile_qr_scan", "ios": "https://dc.lft.to/lastmile_qr_scan"}, "fusion_lon": 0.0, "lat": 38.90534733333333, "bike_id": "19ef40f2bb93c2a542ca6b36d86457e3", "type": "electric_bike", "is_reserved": 0, "lon": -76.9980835}, {"fusion_lat": 0.0, "name": "d859a592971ca1425e22af31b3910633", "is_disabled": 0, "rental_uris": {"android": "https://dc.lft.to/lastmile_qr_scan", "ios": "https://dc.lft.to/lastmile_qr_scan"}, "fusion_lon": 0.0, "lat": 38.9085985, "bike_id": "d859a592971ca1425e22af31b3910633", "type": "electric_scooter", "is_reserved": 0, "lon": -77.02724233333333}, {"fusion_lat": 0.0, "name": "29c6e3dec842782ddbf03a40d5eac208", "is_disabled": 0, "rental_uris": {"android": "https://dc.lft.to/lastmile_qr_scan", "ios": "https://dc.lft.to/lastmile_qr_scan"}, "fusion_lon": 0.0, "lat": 38.866272333333335, "bike_id": "29c6e3dec842782ddbf03a40d5eac208", "type": "electric_scooter", "is_reserved": 0, "lon": -76.9871635}, {"fusion_lat": 0.0, "name": "926dcf86eb66bcf39ee7debc9053dd9a", "is_disabled": 0, "rental_uris": {"android": "https://dc.lft.to/lastmile_qr_scan", "ios": "https://dc.lft.to/lastmile_qr_scan"}, "fusion_lon": 0.0, "lat": 38.90526083333334, "bike_id": "926dcf86eb66bcf39ee7debc9053dd9a", "type": "electric_scooter", "is_reserved": 0, "lon": -77.061372}, {"fusion_lat": 0.0, "name": "1f88d77082c8b8cf9d62b1923aba2a96", "is_disabled": 0, "rental_uris": {"android": "https://dc.lft.to/lastmile_qr_scan", "ios": "https://dc.lft.to/lastmile_qr_scan"}, "fusion_lon": 0.0, "lat": 38.913217, "bike_id": "1f88d77082c8b8cf9d62b1923aba2a96", "type": "electric_scooter", "is_reserved": 0, "lon": -77.047176}, {"fusion_lat": 0.0, "name": "f39e4b7e8cc117bbc2a6004f79aa8d0c", "is_disabled": 0, "rental_uris": {"android": "https://dc.lft.to/lastmile_qr_scan", "ios": "https://dc.lft.to/lastmile_qr_scan"}, "fusion_lon": 0.0, "lat": 38.92875933333333, "bike_id": "f39e4b7e8cc117bbc2a6004f79aa8d0c", "type": "electric_scooter", "is_reserved": 0, "lon": -77.0328505}, {"fusion_lat": 0.0, "name": "fec78674fcd04512e63ab4d24444d6ce", "is_disabled": 0, "rental_uris": {"android": "https://dc.lft.to/lastmile_qr_scan", "ios": "https://dc.lft.to/lastmile_qr_scan"}, "fusion_lon": 0.0, "lat": 38.9093805, "bike_id": "fec78674fcd04512e63ab4d24444d6ce", "type": "electric_scooter", "is_reserved": 0, "lon": -77.03185466666666}, {"fusion_lat": 0.0, "name": "09f5a961507627a8ab954102e0c49f7c", "is_disabled": 0, "rental_uris": {"android": "https://dc.lft.to/lastmile_qr_scan", "ios": "https://dc.lft.to/lastmile_qr_scan"}, "fusion_lon": 0.0, "lat": 38.910290833333335, "bike_id": "09f5a961507627a8ab954102e0c49f7c", "type": "electric_scooter", "is_reserved": 0, "lon": -77.00756666666666}, {"fusion_lat": 0.0, "name": "685e2594aa29a9e30abe6f0661f8fcfc", "is_disabled": 0, "rental_uris": {"android": "https://dc.lft.to/lastmile_qr_scan", "ios": "https://dc.lft.to/lastmile_qr_scan"}, "fusion_lon": 0.0, "lat": 38.914827333333335, "bike_id": "685e2594aa29a9e30abe6f0661f8fcfc", "type": "electric_scooter", "is_reserved": 0, "lon": -77.03217816666667}, {"fusion_lat": 0.0, "name": "c12b6f99aa48e406fdfd64d6e994ae8e", "is_disabled": 0, "rental_uris": {"android": "https://dc.lft.to/lastmile_qr_scan", "ios": "https://dc.lft.to/lastmile_qr_scan"}, "fusion_lon": 0.0, "lat": 38.9171885, "bike_id": "c12b6f99aa48e406fdfd64d6e994ae8e", "type": "electric_scooter", "is_reserved": 0, "lon": -76.96863983333333}, {"fusion_lat": 0.0, "name": "99fa473f415fe1d6883c95d9df41323b", "is_disabled": 0, "rental_uris": {"android": "https://dc.lft.to/lastmile_qr_scan", "ios": "https://dc.lft.to/lastmile_qr_scan"}, "fusion_lon": 0.0, "lat": 38.906537, "bike_id": "99fa473f415fe1d6883c95d9df41323b", "type": "electric_scooter", "is_reserved": 0, "lon": -77.0249665}, {"fusion_lat": 0.0, "name": "728ee639210219f91a36273375a083d0", "is_disabled": 0, "rental_uris": {"android": "https://dc.lft.to/lastmile_qr_scan", "ios": "https://dc.lft.to/lastmile_qr_scan"}, "fusion_lon": 0.0, "lat": 38.91309433333333, "bike_id": "728ee639210219f91a36273375a083d0", "type": "electric_scooter", "is_reserved": 0, "lon": -77.036487}, {"fusion_lat": 0.0, "name": "2733566eafe0a48900aa97e854c78080", "is_disabled": 0, "rental_uris": {"android": "https://dc.lft.to/lastmile_qr_scan", "ios": "https://dc.lft.to/lastmile_qr_scan"}, "fusion_lon": 0.0, "lat": 38.900665333333336, "bike_id": "2733566eafe0a48900aa97e854c78080", "type": "electric_scooter", "is_reserved": 0, "lon": -77.05685183333334}, {"fusion_lat": 0.0, "name": "ca7007937ff55f899f5fda4c4a8f2f45", "is_disabled": 0, "rental_uris": {"android": "https://dc.lft.to/lastmile_qr_scan", "ios": "https://dc.lft.to/lastmile_qr_scan"}, "fusion_lon": 0.0, "lat": 38.88146416666667, "bike_id": "ca7007937ff55f899f5fda4c4a8f2f45", "type": "electric_scooter", "is_reserved": 0, "lon": -76.99499916666667}, {"fusion_lat": 0.0, "name": "da3af31305c9c7a2be675ab2135b0543", "is_disabled": 0, "rental_uris": {"android": "https://dc.lft.to/lastmile_qr_scan", "ios": "https://dc.lft.to/lastmile_qr_scan"}, "fusion_lon": 0.0, "lat": 38.89678116666666, "bike_id": "da3af31305c9c7a2be675ab2135b0543", "type": "electric_scooter", "is_reserved": 0, "lon": -77.00547133333333}, {"fusion_lat": 0.0, "name": "58d0ce2341338a0b7e8863a67527daab", "is_disabled": 0, "rental_uris": {"android": "https://dc.lft.to/lastmile_qr_scan", "ios": "https://dc.lft.to/lastmile_qr_scan"}, "fusion_lon": 0.0, "lat": 38.8860455, "bike_id": "58d0ce2341338a0b7e8863a67527daab", "type": "electric_scooter", "is_reserved": 0, "lon": -77.00341016666667}, {"fusion_lat": 0.0, "name": "a046b0f08a7e4647e953451e85291a19", "is_disabled": 0, "rental_uris": {"android": "https://dc.lft.to/lastmile_qr_scan", "ios": "https://dc.lft.to/lastmile_qr_scan"}, "fusion_lon": 0.0, "lat": 38.914078, "bike_id": "a046b0f08a7e4647e953451e85291a19", "type": "electric_scooter", "is_reserved": 0, "lon": -77.04097}, {"fusion_lat": 0.0, "name": "ea91a68ad8509296522c20748bc05487", "is_disabled": 0, "rental_uris": {"android": "https://dc.lft.to/lastmile_qr_scan", "ios": "https://dc.lft.to/lastmile_qr_scan"}, "fusion_lon": 0.0, "lat": 38.906534666666666, "bike_id": "ea91a68ad8509296522c20748bc05487", "type": "electric_scooter", "is_reserved": 0, "lon": -77.00656316666667}, {"fusion_lat": 0.0, "name": "f428d58daa969943a99fc45cb3a5ffa4", "is_disabled": 0, "rental_uris": {"android": "https://dc.lft.to/lastmile_qr_scan", "ios": "https://dc.lft.to/lastmile_qr_scan"}, "fusion_lon": 0.0, "lat": 38.905370166666664, "bike_id": "f428d58daa969943a99fc45cb3a5ffa4", "type": "electric_scooter", "is_reserved": 0, "lon": -77.05876116666667}, {"fusion_lat": 0.0, "name": "fa8ab353e58ca521572c52d69cf44f73", "is_disabled": 0, "rental_uris": {"android": "https://dc.lft.to/lastmile_qr_scan", "ios": "https://dc.lft.to/lastmile_qr_scan"}, "fusion_lon": 0.0, "lat": 38.96671883333333, "bike_id": "fa8ab353e58ca521572c52d69cf44f73", "type": "electric_scooter", "is_reserved": 0, "lon": -77.025507}, {"fusion_lat": 0.0, "name": "edf90a8d2783406cafbfcfd83ee1e78b", "is_disabled": 0, "rental_uris": {"android": "https://dc.lft.to/lastmile_qr_scan", "ios": "https://dc.lft.to/lastmile_qr_scan"}, "fusion_lon": 0.0, "lat": 38.92052966666667, "bike_id": "edf90a8d2783406cafbfcfd83ee1e78b", "type": "electric_scooter", "is_reserved": 0, "lon": -77.034654}, {"fusion_lat": 0.0, "name": "ecdd309cf04b781c96cfc44cdf2097cd", "is_disabled": 0, "rental_uris": {"android": "https://dc.lft.to/lastmile_qr_scan", "ios": "https://dc.lft.to/lastmile_qr_scan"}, "fusion_lon": 0.0, "lat": 38.87967366666667, "bike_id": "ecdd309cf04b781c96cfc44cdf2097cd", "type": "electric_bike", "is_reserved": 0, "lon": -76.916208}, {"fusion_lat": 0.0, "name": "1be9f2ff8982209a4964cc4e68b2bfc3", "is_disabled": 0, "rental_uris": {"android": "https://dc.lft.to/lastmile_qr_scan", "ios": "https://dc.lft.to/lastmile_qr_scan"}, "fusion_lon": 0.0, "lat": 38.918209166666664, "bike_id": "1be9f2ff8982209a4964cc4e68b2bfc3", "type": "electric_scooter", "is_reserved": 0, "lon": -77.03301216666667}, {"fusion_lat": 0.0, "name": "bd23d2dbe7747236e32c41cb34355dcc", "is_disabled": 0, "rental_uris": {"android": "https://dc.lft.to/lastmile_qr_scan", "ios": "https://dc.lft.to/lastmile_qr_scan"}, "fusion_lon": 0.0, "lat": 38.93883366666667, "bike_id": "bd23d2dbe7747236e32c41cb34355dcc", "type": "electric_scooter", "is_reserved": 0, "lon": -77.02465333333333}, {"fusion_lat": 0.0, "name": "4e20e6d9737f13306759d1347c8cb15f", "is_disabled": 0, "rental_uris": {"android": "https://dc.lft.to/lastmile_qr_scan", "ios": "https://dc.lft.to/lastmile_qr_scan"}, "fusion_lon": 0.0, "lat": 38.897196666666666, "bike_id": "4e20e6d9737f13306759d1347c8cb15f", "type": "electric_scooter", "is_reserved": 0, "lon": -77.0214595}, {"fusion_lat": 0.0, "name": "cc72d3a1aeed2b0f1394a1cf61592efd", "is_disabled": 0, "rental_uris": {"android": "https://dc.lft.to/lastmile_qr_scan", "ios": "https://dc.lft.to/lastmile_qr_scan"}, "fusion_lon": 0.0, "lat": 38.9242625, "bike_id": "cc72d3a1aeed2b0f1394a1cf61592efd", "type": "electric_scooter", "is_reserved": 0, "lon": -77.0195915}, {"fusion_lat": 0.0, "name": "b1d5cb0ec1a8148ecdaac3c689b99579", "is_disabled": 0, "rental_uris": {"android": "https://dc.lft.to/lastmile_qr_scan", "ios": "https://dc.lft.to/lastmile_qr_scan"}, "fusion_lon": 0.0, "lat": 38.914994, "bike_id": "b1d5cb0ec1a8148ecdaac3c689b99579", "type": "electric_scooter", "is_reserved": 0, "lon": -77.032107}, {"fusion_lat": 0.0, "name": "dc626d7298f5f927b9b2b69149a7a9ab", "is_disabled": 0, "rental_uris": {"android": "https://dc.lft.to/lastmile_qr_scan", "ios": "https://dc.lft.to/lastmile_qr_scan"}, "fusion_lon": 0.0, "lat": 38.9003105, "bike_id": "dc626d7298f5f927b9b2b69149a7a9ab", "type": "electric_scooter", "is_reserved": 0, "lon": -76.99448216666667}, {"fusion_lat": 0.0, "name": "85ebfaae3d0c30ebadee03e6cb72d065", "is_disabled": 0, "rental_uris": {"android": "https://dc.lft.to/lastmile_qr_scan", "ios": "https://dc.lft.to/lastmile_qr_scan"}, "fusion_lon": 0.0, "lat": 38.91792316666667, "bike_id": "85ebfaae3d0c30ebadee03e6cb72d065", "type": "electric_scooter", "is_reserved": 0, "lon": -77.04024033333333}, {"fusion_lat": 0.0, "name": "cf25bbe18adcf4f1b3b468fea5f4135d", "is_disabled": 0, "rental_uris": {"android": "https://dc.lft.to/lastmile_qr_scan", "ios": "https://dc.lft.to/lastmile_qr_scan"}, "fusion_lon": 0.0, "lat": 38.91329366666667, "bike_id": "cf25bbe18adcf4f1b3b468fea5f4135d", "type": "electric_scooter", "is_reserved": 0, "lon": -77.0211885}, {"fusion_lat": 0.0, "name": "6b71f39ac7be0790f4e47b5ae74c0d2e", "is_disabled": 0, "rental_uris": {"android": "https://dc.lft.to/lastmile_qr_scan", "ios": "https://dc.lft.to/lastmile_qr_scan"}, "fusion_lon": 0.0, "lat": 38.915586166666664, "bike_id": "6b71f39ac7be0790f4e47b5ae74c0d2e", "type": "electric_scooter", "is_reserved": 0, "lon": -77.03169583333333}, {"fusion_lat": 0.0, "name": "b2b51f3bc031eba5550cdd5957374267", "is_disabled": 0, "rental_uris": {"android": "https://dc.lft.to/lastmile_qr_scan", "ios": "https://dc.lft.to/lastmile_qr_scan"}, "fusion_lon": 0.0, "lat": 38.889923, "bike_id": "b2b51f3bc031eba5550cdd5957374267", "type": "electric_scooter", "is_reserved": 0, "lon": -76.9963595}, {"fusion_lat": 0.0, "name": "c7f7be004c7417d25ea5ffc54dc8b36c", "is_disabled": 0, "rental_uris": {"android": "https://dc.lft.to/lastmile_qr_scan", "ios": "https://dc.lft.to/lastmile_qr_scan"}, "fusion_lon": 0.0, "lat": 38.934485, "bike_id": "c7f7be004c7417d25ea5ffc54dc8b36c", "type": "electric_scooter", "is_reserved": 0, "lon": -77.03865433333333}, {"fusion_lat": 0.0, "name": "f33e062cea40225b47e2112fe1dccd5f", "is_disabled": 0, "rental_uris": {"android": "https://dc.lft.to/lastmile_qr_scan", "ios": "https://dc.lft.to/lastmile_qr_scan"}, "fusion_lon": 0.0, "lat": 38.909439666666664, "bike_id": "f33e062cea40225b47e2112fe1dccd5f", "type": "electric_scooter", "is_reserved": 0, "lon": -77.02128}, {"fusion_lat": 0.0, "name": "02e1286c225992e50d3a7352a8fc496d", "is_disabled": 0, "rental_uris": {"android": "https://dc.lft.to/lastmile_qr_scan", "ios": "https://dc.lft.to/lastmile_qr_scan"}, "fusion_lon": 0.0, "lat": 38.889861, "bike_id": "02e1286c225992e50d3a7352a8fc496d", "type": "electric_scooter", "is_reserved": 0, "lon": -76.987499}, {"fusion_lat": 0.0, "name": "71339fc07820b4cb073ce7c0bc5b7216", "is_disabled": 0, "rental_uris": {"android": "https://dc.lft.to/lastmile_qr_scan", "ios": "https://dc.lft.to/lastmile_qr_scan"}, "fusion_lon": 0.0, "lat": 38.900016, "bike_id": "71339fc07820b4cb073ce7c0bc5b7216", "type": "electric_scooter", "is_reserved": 0, "lon": -77.02190633333333}, {"fusion_lat": 0.0, "name": "4e50850cce3d629b60b4733e56839916", "is_disabled": 0, "rental_uris": {"android": "https://dc.lft.to/lastmile_qr_scan", "ios": "https://dc.lft.to/lastmile_qr_scan"}, "fusion_lon": 0.0, "lat": 38.899513, "bike_id": "4e50850cce3d629b60b4733e56839916", "type": "electric_scooter", "is_reserved": 0, "lon": -77.054741}, {"fusion_lat": 0.0, "name": "b4083ee8f79944db4e6fa8223f6c2500", "is_disabled": 0, "rental_uris": {"android": "https://dc.lft.to/lastmile_qr_scan", "ios": "https://dc.lft.to/lastmile_qr_scan"}, "fusion_lon": 0.0, "lat": 38.9394585, "bike_id": "b4083ee8f79944db4e6fa8223f6c2500", "type": "electric_scooter", "is_reserved": 0, "lon": -77.03330516666666}, {"fusion_lat": 0.0, "name": "f5f9f9b87de43706cde61055052db07a", "is_disabled": 0, "rental_uris": {"android": "https://dc.lft.to/lastmile_qr_scan", "ios": "https://dc.lft.to/lastmile_qr_scan"}, "fusion_lon": 0.0, "lat": 38.90022666666667, "bike_id": "f5f9f9b87de43706cde61055052db07a", "type": "electric_scooter", "is_reserved": 0, "lon": -76.993447}, {"fusion_lat": 0.0, "name": "f2b6750e47a869dd812478877479ee33", "is_disabled": 0, "rental_uris": {"android": "https://dc.lft.to/lastmile_qr_scan", "ios": "https://dc.lft.to/lastmile_qr_scan"}, "fusion_lon": 0.0, "lat": 38.85853066666667, "bike_id": "f2b6750e47a869dd812478877479ee33", "type": "electric_bike", "is_reserved": 0, "lon": -77.095394}, {"fusion_lat": 0.0, "name": "337f6b847ac3c6b5821915788cedf008", "is_disabled": 0, "rental_uris": {"android": "https://dc.lft.to/lastmile_qr_scan", "ios": "https://dc.lft.to/lastmile_qr_scan"}, "fusion_lon": 0.0, "lat": 38.92056616666667, "bike_id": "337f6b847ac3c6b5821915788cedf008", "type": "electric_scooter", "is_reserved": 0, "lon": -77.03390266666666}, {"fusion_lat": 0.0, "name": "02812f8f87da30d3c19af0ba1a4a1eb1", "is_disabled": 0, "rental_uris": {"android": "https://dc.lft.to/lastmile_qr_scan", "ios": "https://dc.lft.to/lastmile_qr_scan"}, "fusion_lon": 0.0, "lat": 38.92271316666667, "bike_id": "02812f8f87da30d3c19af0ba1a4a1eb1", "type": "electric_scooter", "is_reserved": 0, "lon": -77.029754}, {"fusion_lat": 0.0, "name": "0b95172ddf004e7320655752d91abe4d", "is_disabled": 0, "rental_uris": {"android": "https://dc.lft.to/lastmile_qr_scan", "ios": "https://dc.lft.to/lastmile_qr_scan"}, "fusion_lon": 0.0, "lat": 38.99747966666666, "bike_id": "0b95172ddf004e7320655752d91abe4d", "type": "electric_bike", "is_reserved": 0, "lon": -77.02680016666666}, {"fusion_lat": 0.0, "name": "6ec181d5bd65b2bb6ef84370fd42b528", "is_disabled": 0, "rental_uris": {"android": "https://dc.lft.to/lastmile_qr_scan", "ios": "https://dc.lft.to/lastmile_qr_scan"}, "fusion_lon": 0.0, "lat": 38.9184355, "bike_id": "6ec181d5bd65b2bb6ef84370fd42b528", "type": "electric_scooter", "is_reserved": 0, "lon": -77.03211133333333}, {"fusion_lat": 0.0, "name": "7484e3509965cb0fa4cce2bcb5b12e3f", "is_disabled": 0, "rental_uris": {"android": "https://dc.lft.to/lastmile_qr_scan", "ios": "https://dc.lft.to/lastmile_qr_scan"}, "fusion_lon": 0.0, "lat": 38.92284516666667, "bike_id": "7484e3509965cb0fa4cce2bcb5b12e3f", "type": "electric_scooter", "is_reserved": 0, "lon": -77.02334816666666}, {"fusion_lat": 0.0, "name": "43c0a324ba917974a0dab6c31b39b3df", "is_disabled": 0, "rental_uris": {"android": "https://dc.lft.to/lastmile_qr_scan", "ios": "https://dc.lft.to/lastmile_qr_scan"}, "fusion_lon": 0.0, "lat": 38.89722233333333, "bike_id": "43c0a324ba917974a0dab6c31b39b3df", "type": "electric_scooter", "is_reserved": 0, "lon": -77.007815}, {"fusion_lat": 0.0, "name": "b1ca37bf5e35eec14e1754f5bba73454", "is_disabled": 0, "rental_uris": {"android": "https://dc.lft.to/lastmile_qr_scan", "ios": "https://dc.lft.to/lastmile_qr_scan"}, "fusion_lon": 0.0, "lat": 38.88313466666666, "bike_id": "b1ca37bf5e35eec14e1754f5bba73454", "type": "electric_scooter", "is_reserved": 0, "lon": -77.013893}, {"fusion_lat": 0.0, "name": "790eab40b4c2194c1e81a29c6cd5e413", "is_disabled": 0, "rental_uris": {"android": "https://dc.lft.to/lastmile_qr_scan", "ios": "https://dc.lft.to/lastmile_qr_scan"}, "fusion_lon": 0.0, "lat": 38.924476, "bike_id": "790eab40b4c2194c1e81a29c6cd5e413", "type": "electric_scooter", "is_reserved": 0, "lon": -77.00880083333334}, {"fusion_lat": 0.0, "name": "1c6c112fb86293a5c85ec91d44d7d13b", "is_disabled": 0, "rental_uris": {"android": "https://dc.lft.to/lastmile_qr_scan", "ios": "https://dc.lft.to/lastmile_qr_scan"}, "fusion_lon": 0.0, "lat": 38.89681866666667, "bike_id": "1c6c112fb86293a5c85ec91d44d7d13b", "type": "electric_scooter", "is_reserved": 0, "lon": -77.05082033333333}, {"fusion_lat": 0.0, "name": "9be26bd201c35a7768394086c0aaa7e4", "is_disabled": 0, "rental_uris": {"android": "https://dc.lft.to/lastmile_qr_scan", "ios": "https://dc.lft.to/lastmile_qr_scan"}, "fusion_lon": 0.0, "lat": 38.935849833333336, "bike_id": "9be26bd201c35a7768394086c0aaa7e4", "type": "electric_scooter", "is_reserved": 0, "lon": -77.03355266666667}, {"fusion_lat": 0.0, "name": "5312a5078a6ff5cdb2bde65f28f3f5c1", "is_disabled": 0, "rental_uris": {"android": "https://dc.lft.to/lastmile_qr_scan", "ios": "https://dc.lft.to/lastmile_qr_scan"}, "fusion_lon": 0.0, "lat": 38.915544833333335, "bike_id": "5312a5078a6ff5cdb2bde65f28f3f5c1", "type": "electric_scooter", "is_reserved": 0, "lon": -77.03253}, {"fusion_lat": 0.0, "name": "b45c19a1db1d84206130723d8c602116", "is_disabled": 0, "rental_uris": {"android": "https://dc.lft.to/lastmile_qr_scan", "ios": "https://dc.lft.to/lastmile_qr_scan"}, "fusion_lon": 0.0, "lat": 38.92634666666667, "bike_id": "b45c19a1db1d84206130723d8c602116", "type": "electric_bike", "is_reserved": 0, "lon": -77.03297683333334}, {"fusion_lat": 0.0, "name": "6cc129bdf1fb2a476b824528ba13e10a", "is_disabled": 0, "rental_uris": {"android": "https://dc.lft.to/lastmile_qr_scan", "ios": "https://dc.lft.to/lastmile_qr_scan"}, "fusion_lon": 0.0, "lat": 38.90234733333333, "bike_id": "6cc129bdf1fb2a476b824528ba13e10a", "type": "electric_bike", "is_reserved": 0, "lon": -77.05913883333334}, {"fusion_lat": 0.0, "name": "8d971dc6badd9426c5f9de4749da4060", "is_disabled": 0, "rental_uris": {"android": "https://dc.lft.to/lastmile_qr_scan", "ios": "https://dc.lft.to/lastmile_qr_scan"}, "fusion_lon": 0.0, "lat": 38.930332666666665, "bike_id": "8d971dc6badd9426c5f9de4749da4060", "type": "electric_scooter", "is_reserved": 0, "lon": -77.01950283333333}, {"fusion_lat": 0.0, "name": "d8df159021c6f787356b3af82b00f797", "is_disabled": 0, "rental_uris": {"android": "https://dc.lft.to/lastmile_qr_scan", "ios": "https://dc.lft.to/lastmile_qr_scan"}, "fusion_lon": 0.0, "lat": 38.894884, "bike_id": "d8df159021c6f787356b3af82b00f797", "type": "electric_scooter", "is_reserved": 0, "lon": -77.0194865}, {"fusion_lat": 0.0, "name": "4f41d90e437fe467e96656678e31abdc", "is_disabled": 0, "rental_uris": {"android": "https://dc.lft.to/lastmile_qr_scan", "ios": "https://dc.lft.to/lastmile_qr_scan"}, "fusion_lon": 0.0, "lat": 38.81330583333333, "bike_id": "4f41d90e437fe467e96656678e31abdc", "type": "electric_bike", "is_reserved": 0, "lon": -77.05088033333334}, {"fusion_lat": 0.0, "name": "318df17f422c32b54c68e3a281af0bac", "is_disabled": 0, "rental_uris": {"android": "https://dc.lft.to/lastmile_qr_scan", "ios": "https://dc.lft.to/lastmile_qr_scan"}, "fusion_lon": 0.0, "lat": 38.905339166666664, "bike_id": "318df17f422c32b54c68e3a281af0bac", "type": "electric_scooter", "is_reserved": 0, "lon": -77.04796}, {"fusion_lat": 0.0, "name": "ef3423da3bef7c6cb43d0a20df15ae5f", "is_disabled": 0, "rental_uris": {"android": "https://dc.lft.to/lastmile_qr_scan", "ios": "https://dc.lft.to/lastmile_qr_scan"}, "fusion_lon": 0.0, "lat": 38.91858766666667, "bike_id": "ef3423da3bef7c6cb43d0a20df15ae5f", "type": "electric_bike", "is_reserved": 0, "lon": -76.96084733333333}, {"fusion_lat": 0.0, "name": "808ab8bde67383e34b5700db10eb98fe", "is_disabled": 0, "rental_uris": {"android": "https://dc.lft.to/lastmile_qr_scan", "ios": "https://dc.lft.to/lastmile_qr_scan"}, "fusion_lon": 0.0, "lat": 38.89994333333333, "bike_id": "808ab8bde67383e34b5700db10eb98fe", "type": "electric_scooter", "is_reserved": 0, "lon": -77.02929516666667}, {"fusion_lat": 0.0, "name": "a59872ed930e7acd028d94851ebd2b90", "is_disabled": 0, "rental_uris": {"android": "https://dc.lft.to/lastmile_qr_scan", "ios": "https://dc.lft.to/lastmile_qr_scan"}, "fusion_lon": 0.0, "lat": 38.90533083333333, "bike_id": "a59872ed930e7acd028d94851ebd2b90", "type": "electric_scooter", "is_reserved": 0, "lon": -77.05936033333333}, {"fusion_lat": 0.0, "name": "f98e87ec696c6896a235807ca31e456e", "is_disabled": 0, "rental_uris": {"android": "https://dc.lft.to/lastmile_qr_scan", "ios": "https://dc.lft.to/lastmile_qr_scan"}, "fusion_lon": 0.0, "lat": 38.91444216666667, "bike_id": "f98e87ec696c6896a235807ca31e456e", "type": "electric_scooter", "is_reserved": 0, "lon": -77.04158883333334}, {"fusion_lat": 0.0, "name": "2b7e8e74c96705aa8686cb69fe2e20b3", "is_disabled": 0, "rental_uris": {"android": "https://dc.lft.to/lastmile_qr_scan", "ios": "https://dc.lft.to/lastmile_qr_scan"}, "fusion_lon": 0.0, "lat": 38.956349, "bike_id": "2b7e8e74c96705aa8686cb69fe2e20b3", "type": "electric_scooter", "is_reserved": 0, "lon": -77.03305266666666}, {"fusion_lat": 0.0, "name": "3d928259ba2f84e4d9d8ffc25284ebdc", "is_disabled": 0, "rental_uris": {"android": "https://dc.lft.to/lastmile_qr_scan", "ios": "https://dc.lft.to/lastmile_qr_scan"}, "fusion_lon": 0.0, "lat": 38.9010095, "bike_id": "3d928259ba2f84e4d9d8ffc25284ebdc", "type": "electric_scooter", "is_reserved": 0, "lon": -77.04965533333333}, {"fusion_lat": 0.0, "name": "b4c3d80c55da073f4062cfe9fd4b0f1c", "is_disabled": 0, "rental_uris": {"android": "https://dc.lft.to/lastmile_qr_scan", "ios": "https://dc.lft.to/lastmile_qr_scan"}, "fusion_lon": 0.0, "lat": 38.93131833333333, "bike_id": "b4c3d80c55da073f4062cfe9fd4b0f1c", "type": "electric_scooter", "is_reserved": 0, "lon": -77.0297715}, {"fusion_lat": 0.0, "name": "0ddfba8dec71cce78c2cec817e1e3590", "is_disabled": 0, "rental_uris": {"android": "https://dc.lft.to/lastmile_qr_scan", "ios": "https://dc.lft.to/lastmile_qr_scan"}, "fusion_lon": 0.0, "lat": 38.942023166666665, "bike_id": "0ddfba8dec71cce78c2cec817e1e3590", "type": "electric_scooter", "is_reserved": 0, "lon": -77.02590966666666}, {"fusion_lat": 0.0, "name": "710d9adc57feff23bd510706bdb5a000", "is_disabled": 0, "rental_uris": {"android": "https://dc.lft.to/lastmile_qr_scan", "ios": "https://dc.lft.to/lastmile_qr_scan"}, "fusion_lon": 0.0, "lat": 38.93229683333333, "bike_id": "710d9adc57feff23bd510706bdb5a000", "type": "electric_scooter", "is_reserved": 0, "lon": -77.02831533333334}, {"fusion_lat": 0.0, "name": "add43d1becfa283397e6aeeb454e28a4", "is_disabled": 0, "rental_uris": {"android": "https://dc.lft.to/lastmile_qr_scan", "ios": "https://dc.lft.to/lastmile_qr_scan"}, "fusion_lon": 0.0, "lat": 38.86339866666667, "bike_id": "add43d1becfa283397e6aeeb454e28a4", "type": "electric_bike", "is_reserved": 0, "lon": -76.98727333333333}, {"fusion_lat": 0.0, "name": "6bec7206553267198405bdd1177d8dd0", "is_disabled": 0, "rental_uris": {"android": "https://dc.lft.to/lastmile_qr_scan", "ios": "https://dc.lft.to/lastmile_qr_scan"}, "fusion_lon": 0.0, "lat": 38.910599500000004, "bike_id": "6bec7206553267198405bdd1177d8dd0", "type": "electric_scooter", "is_reserved": 0, "lon": -77.04578583333333}, {"fusion_lat": 0.0, "name": "3a621a7c1d8b8321e24395a1f09a6257", "is_disabled": 0, "rental_uris": {"android": "https://dc.lft.to/lastmile_qr_scan", "ios": "https://dc.lft.to/lastmile_qr_scan"}, "fusion_lon": 0.0, "lat": 38.9195775, "bike_id": "3a621a7c1d8b8321e24395a1f09a6257", "type": "electric_bike", "is_reserved": 0, "lon": -77.1011495}, {"fusion_lat": 0.0, "name": "b1e042a4525ea90449704d882058830d", "is_disabled": 0, "rental_uris": {"android": "https://dc.lft.to/lastmile_qr_scan", "ios": "https://dc.lft.to/lastmile_qr_scan"}, "fusion_lon": 0.0, "lat": 38.8874495, "bike_id": "b1e042a4525ea90449704d882058830d", "type": "electric_scooter", "is_reserved": 0, "lon": -77.02565}, {"fusion_lat": 0.0, "name": "ece14cdbc21417e8bd2fbc2d6ba61a07", "is_disabled": 0, "rental_uris": {"android": "https://dc.lft.to/lastmile_qr_scan", "ios": "https://dc.lft.to/lastmile_qr_scan"}, "fusion_lon": 0.0, "lat": 38.927486333333334, "bike_id": "ece14cdbc21417e8bd2fbc2d6ba61a07", "type": "electric_scooter", "is_reserved": 0, "lon": -77.02151233333333}, {"fusion_lat": 0.0, "name": "39bbec0591c942b95770d303133f7018", "is_disabled": 0, "rental_uris": {"android": "https://dc.lft.to/lastmile_qr_scan", "ios": "https://dc.lft.to/lastmile_qr_scan"}, "fusion_lon": 0.0, "lat": 38.907953, "bike_id": "39bbec0591c942b95770d303133f7018", "type": "electric_scooter", "is_reserved": 0, "lon": -77.04347983333334}, {"fusion_lat": 0.0, "name": "3f3085dba21b4d89c01951244903bef4", "is_disabled": 0, "rental_uris": {"android": "https://dc.lft.to/lastmile_qr_scan", "ios": "https://dc.lft.to/lastmile_qr_scan"}, "fusion_lon": 0.0, "lat": 38.878745, "bike_id": "3f3085dba21b4d89c01951244903bef4", "type": "electric_bike", "is_reserved": 0, "lon": -77.02299616666667}, {"fusion_lat": 0.0, "name": "1bf50cf5a163385146a17f77ced4e638", "is_disabled": 0, "rental_uris": {"android": "https://dc.lft.to/lastmile_qr_scan", "ios": "https://dc.lft.to/lastmile_qr_scan"}, "fusion_lon": 0.0, "lat": 38.935882666666664, "bike_id": "1bf50cf5a163385146a17f77ced4e638", "type": "electric_scooter", "is_reserved": 0, "lon": -77.02844316666666}, {"fusion_lat": 0.0, "name": "130db92f963038965d524cdee36d1ee4", "is_disabled": 0, "rental_uris": {"android": "https://dc.lft.to/lastmile_qr_scan", "ios": "https://dc.lft.to/lastmile_qr_scan"}, "fusion_lon": 0.0, "lat": 38.876396166666666, "bike_id": "130db92f963038965d524cdee36d1ee4", "type": "electric_scooter", "is_reserved": 0, "lon": -77.00107483333333}, {"fusion_lat": 0.0, "name": "1ca4ecd6b923e03fd1286e98a15fcc75", "is_disabled": 0, "rental_uris": {"android": "https://dc.lft.to/lastmile_qr_scan", "ios": "https://dc.lft.to/lastmile_qr_scan"}, "fusion_lon": 0.0, "lat": 38.917181666666664, "bike_id": "1ca4ecd6b923e03fd1286e98a15fcc75", "type": "electric_scooter", "is_reserved": 0, "lon": -77.0310135}, {"fusion_lat": 0.0, "name": "a9aa434845c7bba394f3ff8bba41c87a", "is_disabled": 0, "rental_uris": {"android": "https://dc.lft.to/lastmile_qr_scan", "ios": "https://dc.lft.to/lastmile_qr_scan"}, "fusion_lon": 0.0, "lat": 38.88507633333333, "bike_id": "a9aa434845c7bba394f3ff8bba41c87a", "type": "electric_scooter", "is_reserved": 0, "lon": -77.00568}, {"fusion_lat": 0.0, "name": "ad5093daac4c945253bafe22902feee3", "is_disabled": 0, "rental_uris": {"android": "https://dc.lft.to/lastmile_qr_scan", "ios": "https://dc.lft.to/lastmile_qr_scan"}, "fusion_lon": 0.0, "lat": 38.887421333333336, "bike_id": "ad5093daac4c945253bafe22902feee3", "type": "electric_scooter", "is_reserved": 0, "lon": -77.02213216666667}, {"fusion_lat": 0.0, "name": "d8f08c729ca2dd69d834dcdfd3e17081", "is_disabled": 0, "rental_uris": {"android": "https://dc.lft.to/lastmile_qr_scan", "ios": "https://dc.lft.to/lastmile_qr_scan"}, "fusion_lon": 0.0, "lat": 38.9071575, "bike_id": "d8f08c729ca2dd69d834dcdfd3e17081", "type": "electric_scooter", "is_reserved": 0, "lon": -77.02204216666667}, {"fusion_lat": 0.0, "name": "4951dfcca68a9f5e9fcd9a7d39b72d97", "is_disabled": 0, "rental_uris": {"android": "https://dc.lft.to/lastmile_qr_scan", "ios": "https://dc.lft.to/lastmile_qr_scan"}, "fusion_lon": 0.0, "lat": 38.917545, "bike_id": "4951dfcca68a9f5e9fcd9a7d39b72d97", "type": "electric_scooter", "is_reserved": 0, "lon": -77.06937433333333}, {"fusion_lat": 0.0, "name": "52447ff9e3898837ceeee50c454eb24f", "is_disabled": 0, "rental_uris": {"android": "https://dc.lft.to/lastmile_qr_scan", "ios": "https://dc.lft.to/lastmile_qr_scan"}, "fusion_lon": 0.0, "lat": 38.912084666666665, "bike_id": "52447ff9e3898837ceeee50c454eb24f", "type": "electric_scooter", "is_reserved": 0, "lon": -77.03208133333334}, {"fusion_lat": 0.0, "name": "e8d48b8d6aa6b4302e4b33c981f3f7a2", "is_disabled": 0, "rental_uris": {"android": "https://dc.lft.to/lastmile_qr_scan", "ios": "https://dc.lft.to/lastmile_qr_scan"}, "fusion_lon": 0.0, "lat": 38.913474666666666, "bike_id": "e8d48b8d6aa6b4302e4b33c981f3f7a2", "type": "electric_scooter", "is_reserved": 0, "lon": -77.04283283333334}, {"fusion_lat": 0.0, "name": "d82621310ff70390a04ebcea33677008", "is_disabled": 0, "rental_uris": {"android": "https://dc.lft.to/lastmile_qr_scan", "ios": "https://dc.lft.to/lastmile_qr_scan"}, "fusion_lon": 0.0, "lat": 38.958787, "bike_id": "d82621310ff70390a04ebcea33677008", "type": "electric_scooter", "is_reserved": 0, "lon": -77.01171266666667}, {"fusion_lat": 0.0, "name": "37c64dfbdd8a8a4f53446e1c0b81b4a6", "is_disabled": 0, "rental_uris": {"android": "https://dc.lft.to/lastmile_qr_scan", "ios": "https://dc.lft.to/lastmile_qr_scan"}, "fusion_lon": 0.0, "lat": 38.86408866666667, "bike_id": "37c64dfbdd8a8a4f53446e1c0b81b4a6", "type": "electric_scooter", "is_reserved": 0, "lon": -77.01224283333333}, {"fusion_lat": 0.0, "name": "38e8817dd5f221ec30af644f48e2116c", "is_disabled": 0, "rental_uris": {"android": "https://dc.lft.to/lastmile_qr_scan", "ios": "https://dc.lft.to/lastmile_qr_scan"}, "fusion_lon": 0.0, "lat": 38.90399016666667, "bike_id": "38e8817dd5f221ec30af644f48e2116c", "type": "electric_scooter", "is_reserved": 0, "lon": -76.9900615}, {"fusion_lat": 0.0, "name": "0bfc29bf83581b96983fe91dc84ddcd0", "is_disabled": 0, "rental_uris": {"android": "https://dc.lft.to/lastmile_qr_scan", "ios": "https://dc.lft.to/lastmile_qr_scan"}, "fusion_lon": 0.0, "lat": 38.9307785, "bike_id": "0bfc29bf83581b96983fe91dc84ddcd0", "type": "electric_scooter", "is_reserved": 0, "lon": -77.0776145}, {"fusion_lat": 0.0, "name": "4399631cbb84839f3a107092696fd7fa", "is_disabled": 0, "rental_uris": {"android": "https://dc.lft.to/lastmile_qr_scan", "ios": "https://dc.lft.to/lastmile_qr_scan"}, "fusion_lon": 0.0, "lat": 38.919170333333334, "bike_id": "4399631cbb84839f3a107092696fd7fa", "type": "electric_scooter", "is_reserved": 0, "lon": -77.04152433333333}, {"fusion_lat": 0.0, "name": "a52bb5d64494eb3753808157c3e147eb", "is_disabled": 0, "rental_uris": {"android": "https://dc.lft.to/lastmile_qr_scan", "ios": "https://dc.lft.to/lastmile_qr_scan"}, "fusion_lon": 0.0, "lat": 38.92319766666667, "bike_id": "a52bb5d64494eb3753808157c3e147eb", "type": "electric_scooter", "is_reserved": 0, "lon": -77.02045933333333}, {"fusion_lat": 0.0, "name": "9ab4c640eaa4a4eda0c46174e7f10d85", "is_disabled": 0, "rental_uris": {"android": "https://dc.lft.to/lastmile_qr_scan", "ios": "https://dc.lft.to/lastmile_qr_scan"}, "fusion_lon": 0.0, "lat": 38.930728333333334, "bike_id": "9ab4c640eaa4a4eda0c46174e7f10d85", "type": "electric_scooter", "is_reserved": 0, "lon": -77.03162416666666}, {"fusion_lat": 0.0, "name": "f550475b5949b026cd3f20af1ea3dba1", "is_disabled": 0, "rental_uris": {"android": "https://dc.lft.to/lastmile_qr_scan", "ios": "https://dc.lft.to/lastmile_qr_scan"}, "fusion_lon": 0.0, "lat": 38.935246666666664, "bike_id": "f550475b5949b026cd3f20af1ea3dba1", "type": "electric_scooter", "is_reserved": 0, "lon": -77.03261416666666}, {"fusion_lat": 0.0, "name": "8f8c994f0623f9d325c5cb9460d75106", "is_disabled": 0, "rental_uris": {"android": "https://dc.lft.to/lastmile_qr_scan", "ios": "https://dc.lft.to/lastmile_qr_scan"}, "fusion_lon": 0.0, "lat": 38.9026005, "bike_id": "8f8c994f0623f9d325c5cb9460d75106", "type": "electric_scooter", "is_reserved": 0, "lon": -76.97451066666666}, {"fusion_lat": 0.0, "name": "f45163ba1df866bb84c6054f01576b1b", "is_disabled": 0, "rental_uris": {"android": "https://dc.lft.to/lastmile_qr_scan", "ios": "https://dc.lft.to/lastmile_qr_scan"}, "fusion_lon": 0.0, "lat": 38.901428, "bike_id": "f45163ba1df866bb84c6054f01576b1b", "type": "electric_scooter", "is_reserved": 0, "lon": -77.02301316666667}, {"fusion_lat": 0.0, "name": "b2e95092b667ce5b93c7411d1db3fe03", "is_disabled": 0, "rental_uris": {"android": "https://dc.lft.to/lastmile_qr_scan", "ios": "https://dc.lft.to/lastmile_qr_scan"}, "fusion_lon": 0.0, "lat": 38.908546, "bike_id": "b2e95092b667ce5b93c7411d1db3fe03", "type": "electric_scooter", "is_reserved": 0, "lon": -77.00300733333333}, {"fusion_lat": 0.0, "name": "d944ba9298eab6cf66b3261a148b0237", "is_disabled": 0, "rental_uris": {"android": "https://dc.lft.to/lastmile_qr_scan", "ios": "https://dc.lft.to/lastmile_qr_scan"}, "fusion_lon": 0.0, "lat": 38.90292516666667, "bike_id": "d944ba9298eab6cf66b3261a148b0237", "type": "electric_scooter", "is_reserved": 0, "lon": -76.99035983333333}, {"fusion_lat": 0.0, "name": "ba2f42873b20d67940d65fe355c62132", "is_disabled": 0, "rental_uris": {"android": "https://dc.lft.to/lastmile_qr_scan", "ios": "https://dc.lft.to/lastmile_qr_scan"}, "fusion_lon": 0.0, "lat": 38.908210833333335, "bike_id": "ba2f42873b20d67940d65fe355c62132", "type": "electric_scooter", "is_reserved": 0, "lon": -77.03373866666666}, {"fusion_lat": 0.0, "name": "d18ab18818b48ccabe39fc1bbe955878", "is_disabled": 0, "rental_uris": {"android": "https://dc.lft.to/lastmile_qr_scan", "ios": "https://dc.lft.to/lastmile_qr_scan"}, "fusion_lon": 0.0, "lat": 38.9228425, "bike_id": "d18ab18818b48ccabe39fc1bbe955878", "type": "electric_scooter", "is_reserved": 0, "lon": -77.07330166666667}, {"fusion_lat": 0.0, "name": "e4795289b5da3493f035c2b7c36362e5", "is_disabled": 0, "rental_uris": {"android": "https://dc.lft.to/lastmile_qr_scan", "ios": "https://dc.lft.to/lastmile_qr_scan"}, "fusion_lon": 0.0, "lat": 38.918099166666664, "bike_id": "e4795289b5da3493f035c2b7c36362e5", "type": "electric_scooter", "is_reserved": 0, "lon": -77.011447}, {"fusion_lat": 0.0, "name": "c7d40687f3215a1d1f94459feb87c760", "is_disabled": 0, "rental_uris": {"android": "https://dc.lft.to/lastmile_qr_scan", "ios": "https://dc.lft.to/lastmile_qr_scan"}, "fusion_lon": 0.0, "lat": 38.90028083333333, "bike_id": "c7d40687f3215a1d1f94459feb87c760", "type": "electric_scooter", "is_reserved": 0, "lon": -77.036738}, {"fusion_lat": 0.0, "name": "c4dd5d49ed12e068cd076cc15d9ee004", "is_disabled": 0, "rental_uris": {"android": "https://dc.lft.to/lastmile_qr_scan", "ios": "https://dc.lft.to/lastmile_qr_scan"}, "fusion_lon": 0.0, "lat": 38.91926516666667, "bike_id": "c4dd5d49ed12e068cd076cc15d9ee004", "type": "electric_scooter", "is_reserved": 0, "lon": -77.03188883333333}, {"fusion_lat": 0.0, "name": "dae9e7985d26f1fa7a94edfd298a5fdd", "is_disabled": 0, "rental_uris": {"android": "https://dc.lft.to/lastmile_qr_scan", "ios": "https://dc.lft.to/lastmile_qr_scan"}, "fusion_lon": 0.0, "lat": 38.87845166666666, "bike_id": "dae9e7985d26f1fa7a94edfd298a5fdd", "type": "electric_bike", "is_reserved": 0, "lon": -77.030237}, {"fusion_lat": 0.0, "name": "5d9077526384ec2a9021a5a3ce4ca720", "is_disabled": 0, "rental_uris": {"android": "https://dc.lft.to/lastmile_qr_scan", "ios": "https://dc.lft.to/lastmile_qr_scan"}, "fusion_lon": 0.0, "lat": 38.99508683333333, "bike_id": "5d9077526384ec2a9021a5a3ce4ca720", "type": "electric_bike", "is_reserved": 0, "lon": -77.02917633333334}, {"fusion_lat": 0.0, "name": "8fdb38e6010606490911e660e667bc53", "is_disabled": 0, "rental_uris": {"android": "https://dc.lft.to/lastmile_qr_scan", "ios": "https://dc.lft.to/lastmile_qr_scan"}, "fusion_lon": 0.0, "lat": 38.9005325, "bike_id": "8fdb38e6010606490911e660e667bc53", "type": "electric_scooter", "is_reserved": 0, "lon": -77.00070683333334}, {"fusion_lat": 0.0, "name": "f20ab9909ca81195b295f85e0807d7bc", "is_disabled": 0, "rental_uris": {"android": "https://dc.lft.to/lastmile_qr_scan", "ios": "https://dc.lft.to/lastmile_qr_scan"}, "fusion_lon": 0.0, "lat": 38.89874116666667, "bike_id": "f20ab9909ca81195b295f85e0807d7bc", "type": "electric_scooter", "is_reserved": 0, "lon": -76.9318675}, {"fusion_lat": 0.0, "name": "54f73661ab38a7a779930909de2a4811", "is_disabled": 0, "rental_uris": {"android": "https://dc.lft.to/lastmile_qr_scan", "ios": "https://dc.lft.to/lastmile_qr_scan"}, "fusion_lon": 0.0, "lat": 39.05254766666667, "bike_id": "54f73661ab38a7a779930909de2a4811", "type": "electric_bike", "is_reserved": 0, "lon": -77.0806865}, {"fusion_lat": 0.0, "name": "8237b98f10c3fa95873ba6fa39ad5621", "is_disabled": 0, "rental_uris": {"android": "https://dc.lft.to/lastmile_qr_scan", "ios": "https://dc.lft.to/lastmile_qr_scan"}, "fusion_lon": 0.0, "lat": 38.905268, "bike_id": "8237b98f10c3fa95873ba6fa39ad5621", "type": "electric_scooter", "is_reserved": 0, "lon": -77.05935383333333}, {"fusion_lat": 0.0, "name": "33dde46bba1e427dd2c45cf1346d8b2a", "is_disabled": 0, "rental_uris": {"android": "https://dc.lft.to/lastmile_qr_scan", "ios": "https://dc.lft.to/lastmile_qr_scan"}, "fusion_lon": 0.0, "lat": 38.93522133333333, "bike_id": "33dde46bba1e427dd2c45cf1346d8b2a", "type": "electric_scooter", "is_reserved": 0, "lon": -77.072579}, {"fusion_lat": 0.0, "name": "a9d7aea1fbeac0de4bb956cf2c71e9ea", "is_disabled": 0, "rental_uris": {"android": "https://dc.lft.to/lastmile_qr_scan", "ios": "https://dc.lft.to/lastmile_qr_scan"}, "fusion_lon": 0.0, "lat": 38.9141385, "bike_id": "a9d7aea1fbeac0de4bb956cf2c71e9ea", "type": "electric_scooter", "is_reserved": 0, "lon": -77.02831316666666}, {"fusion_lat": 0.0, "name": "91106997ba039d7aa14d0e805f0bb9a1", "is_disabled": 0, "rental_uris": {"android": "https://dc.lft.to/lastmile_qr_scan", "ios": "https://dc.lft.to/lastmile_qr_scan"}, "fusion_lon": 0.0, "lat": 38.84755583333333, "bike_id": "91106997ba039d7aa14d0e805f0bb9a1", "type": "electric_scooter", "is_reserved": 0, "lon": -76.99499433333334}, {"fusion_lat": 0.0, "name": "e56a9a26baa32d9ef512c36509ff9bbd", "is_disabled": 0, "rental_uris": {"android": "https://dc.lft.to/lastmile_qr_scan", "ios": "https://dc.lft.to/lastmile_qr_scan"}, "fusion_lon": 0.0, "lat": 38.8944205, "bike_id": "e56a9a26baa32d9ef512c36509ff9bbd", "type": "electric_scooter", "is_reserved": 0, "lon": -76.93675083333333}, {"fusion_lat": 0.0, "name": "2d0e1457e0b2cfe04741432f0f2ef4cd", "is_disabled": 0, "rental_uris": {"android": "https://dc.lft.to/lastmile_qr_scan", "ios": "https://dc.lft.to/lastmile_qr_scan"}, "fusion_lon": 0.0, "lat": 38.90746816666667, "bike_id": "2d0e1457e0b2cfe04741432f0f2ef4cd", "type": "electric_scooter", "is_reserved": 0, "lon": -77.04557766666667}, {"fusion_lat": 0.0, "name": "2f3db76b6e0170f5d7811d6c8454a92c", "is_disabled": 0, "rental_uris": {"android": "https://dc.lft.to/lastmile_qr_scan", "ios": "https://dc.lft.to/lastmile_qr_scan"}, "fusion_lon": 0.0, "lat": 38.89850116666667, "bike_id": "2f3db76b6e0170f5d7811d6c8454a92c", "type": "electric_scooter", "is_reserved": 0, "lon": -76.99036683333334}, {"fusion_lat": 0.0, "name": "f6a11fe352a92651d75a99d7424b1c6c", "is_disabled": 0, "rental_uris": {"android": "https://dc.lft.to/lastmile_qr_scan", "ios": "https://dc.lft.to/lastmile_qr_scan"}, "fusion_lon": 0.0, "lat": 38.90768766666667, "bike_id": "f6a11fe352a92651d75a99d7424b1c6c", "type": "electric_scooter", "is_reserved": 0, "lon": -77.0501355}, {"fusion_lat": 0.0, "name": "ab0145fb58b542492527001ff176508d", "is_disabled": 0, "rental_uris": {"android": "https://dc.lft.to/lastmile_qr_scan", "ios": "https://dc.lft.to/lastmile_qr_scan"}, "fusion_lon": 0.0, "lat": 38.9072525, "bike_id": "ab0145fb58b542492527001ff176508d", "type": "electric_scooter", "is_reserved": 0, "lon": -77.04733583333334}, {"fusion_lat": 0.0, "name": "dbab85f3a5e62ec0b4940aec45e64c7c", "is_disabled": 0, "rental_uris": {"android": "https://dc.lft.to/lastmile_qr_scan", "ios": "https://dc.lft.to/lastmile_qr_scan"}, "fusion_lon": 0.0, "lat": 38.878986833333336, "bike_id": "dbab85f3a5e62ec0b4940aec45e64c7c", "type": "electric_scooter", "is_reserved": 0, "lon": -77.01363083333334}, {"fusion_lat": 0.0, "name": "bcad8971a3473fbd8e69b3db8e0c35cf", "is_disabled": 0, "rental_uris": {"android": "https://dc.lft.to/lastmile_qr_scan", "ios": "https://dc.lft.to/lastmile_qr_scan"}, "fusion_lon": 0.0, "lat": 38.93026, "bike_id": "bcad8971a3473fbd8e69b3db8e0c35cf", "type": "electric_scooter", "is_reserved": 0, "lon": -77.03780266666666}, {"fusion_lat": 0.0, "name": "78b32eacb6d298816cfbf30729dd849e", "is_disabled": 0, "rental_uris": {"android": "https://dc.lft.to/lastmile_qr_scan", "ios": "https://dc.lft.to/lastmile_qr_scan"}, "fusion_lon": 0.0, "lat": 38.924355166666665, "bike_id": "78b32eacb6d298816cfbf30729dd849e", "type": "electric_scooter", "is_reserved": 0, "lon": -77.025359}, {"fusion_lat": 0.0, "name": "4069661dfeeeb30b2fd5fc2696790c48", "is_disabled": 0, "rental_uris": {"android": "https://dc.lft.to/lastmile_qr_scan", "ios": "https://dc.lft.to/lastmile_qr_scan"}, "fusion_lon": 0.0, "lat": 38.90153933333333, "bike_id": "4069661dfeeeb30b2fd5fc2696790c48", "type": "electric_scooter", "is_reserved": 0, "lon": -77.061116}, {"fusion_lat": 0.0, "name": "a30d362e186474e8e0804adad1ad9f98", "is_disabled": 0, "rental_uris": {"android": "https://dc.lft.to/lastmile_qr_scan", "ios": "https://dc.lft.to/lastmile_qr_scan"}, "fusion_lon": 0.0, "lat": 38.89529016666667, "bike_id": "a30d362e186474e8e0804adad1ad9f98", "type": "electric_scooter", "is_reserved": 0, "lon": -76.93410666666666}, {"fusion_lat": 0.0, "name": "e4ddf62f9c1d477ea945b58bf8825fbe", "is_disabled": 0, "rental_uris": {"android": "https://dc.lft.to/lastmile_qr_scan", "ios": "https://dc.lft.to/lastmile_qr_scan"}, "fusion_lon": 0.0, "lat": 38.924803, "bike_id": "e4ddf62f9c1d477ea945b58bf8825fbe", "type": "electric_scooter", "is_reserved": 0, "lon": -77.02678533333334}, {"fusion_lat": 0.0, "name": "ae0c297de5f4b55d845b329491b00f45", "is_disabled": 0, "rental_uris": {"android": "https://dc.lft.to/lastmile_qr_scan", "ios": "https://dc.lft.to/lastmile_qr_scan"}, "fusion_lon": 0.0, "lat": 38.898211833333335, "bike_id": "ae0c297de5f4b55d845b329491b00f45", "type": "electric_scooter", "is_reserved": 0, "lon": -77.04065583333333}, {"fusion_lat": 0.0, "name": "f4da5e4c292951b27422cb4c8789d2e3", "is_disabled": 0, "rental_uris": {"android": "https://dc.lft.to/lastmile_qr_scan", "ios": "https://dc.lft.to/lastmile_qr_scan"}, "fusion_lon": 0.0, "lat": 38.902382833333334, "bike_id": "f4da5e4c292951b27422cb4c8789d2e3", "type": "electric_scooter", "is_reserved": 0, "lon": -77.056329}, {"fusion_lat": 0.0, "name": "0379a7da534ba915e3ddf46ca5dcc06a", "is_disabled": 0, "rental_uris": {"android": "https://dc.lft.to/lastmile_qr_scan", "ios": "https://dc.lft.to/lastmile_qr_scan"}, "fusion_lon": 0.0, "lat": 38.898922, "bike_id": "0379a7da534ba915e3ddf46ca5dcc06a", "type": "electric_scooter", "is_reserved": 0, "lon": -77.01509083333333}, {"fusion_lat": 0.0, "name": "ab47c18b8cd9d8b43c39d1212898f4a6", "is_disabled": 0, "rental_uris": {"android": "https://dc.lft.to/lastmile_qr_scan", "ios": "https://dc.lft.to/lastmile_qr_scan"}, "fusion_lon": 0.0, "lat": 38.89222816666667, "bike_id": "ab47c18b8cd9d8b43c39d1212898f4a6", "type": "electric_scooter", "is_reserved": 0, "lon": -77.03143466666667}, {"fusion_lat": 0.0, "name": "cc7029a771065f40cf663b5e23fcf9df", "is_disabled": 0, "rental_uris": {"android": "https://dc.lft.to/lastmile_qr_scan", "ios": "https://dc.lft.to/lastmile_qr_scan"}, "fusion_lon": 0.0, "lat": 38.90092583333333, "bike_id": "cc7029a771065f40cf663b5e23fcf9df", "type": "electric_scooter", "is_reserved": 0, "lon": -76.98330266666666}, {"fusion_lat": 0.0, "name": "d47d223e1fa6e1597898db1d9d3c07e5", "is_disabled": 0, "rental_uris": {"android": "https://dc.lft.to/lastmile_qr_scan", "ios": "https://dc.lft.to/lastmile_qr_scan"}, "fusion_lon": 0.0, "lat": 38.9103825, "bike_id": "d47d223e1fa6e1597898db1d9d3c07e5", "type": "electric_scooter", "is_reserved": 0, "lon": -77.008304}, {"fusion_lat": 0.0, "name": "aa92ed28a658e6dbd7d77950da3d2e1c", "is_disabled": 0, "rental_uris": {"android": "https://dc.lft.to/lastmile_qr_scan", "ios": "https://dc.lft.to/lastmile_qr_scan"}, "fusion_lon": 0.0, "lat": 38.92222016666667, "bike_id": "aa92ed28a658e6dbd7d77950da3d2e1c", "type": "electric_scooter", "is_reserved": 0, "lon": -77.0423925}, {"fusion_lat": 0.0, "name": "4e7bddfae79d86cdb7c9b8fe15283b07", "is_disabled": 0, "rental_uris": {"android": "https://dc.lft.to/lastmile_qr_scan", "ios": "https://dc.lft.to/lastmile_qr_scan"}, "fusion_lon": 0.0, "lat": 38.91568616666667, "bike_id": "4e7bddfae79d86cdb7c9b8fe15283b07", "type": "electric_scooter", "is_reserved": 0, "lon": -77.0385575}, {"fusion_lat": 0.0, "name": "a11861b61e17bbef81e1980fb9f9f24c", "is_disabled": 0, "rental_uris": {"android": "https://dc.lft.to/lastmile_qr_scan", "ios": "https://dc.lft.to/lastmile_qr_scan"}, "fusion_lon": 0.0, "lat": 38.906172166666664, "bike_id": "a11861b61e17bbef81e1980fb9f9f24c", "type": "electric_scooter", "is_reserved": 0, "lon": -77.037019}, {"fusion_lat": 0.0, "name": "cd353e5df8aa40725101a44d9857e80e", "is_disabled": 0, "rental_uris": {"android": "https://dc.lft.to/lastmile_qr_scan", "ios": "https://dc.lft.to/lastmile_qr_scan"}, "fusion_lon": 0.0, "lat": 38.925474666666666, "bike_id": "cd353e5df8aa40725101a44d9857e80e", "type": "electric_scooter", "is_reserved": 0, "lon": -77.03827233333334}, {"fusion_lat": 0.0, "name": "28a2b7c1aa9659d4684fd3d21b82b0a3", "is_disabled": 0, "rental_uris": {"android": "https://dc.lft.to/lastmile_qr_scan", "ios": "https://dc.lft.to/lastmile_qr_scan"}, "fusion_lon": 0.0, "lat": 38.93876616666667, "bike_id": "28a2b7c1aa9659d4684fd3d21b82b0a3", "type": "electric_scooter", "is_reserved": 0, "lon": -77.02468716666667}, {"fusion_lat": 0.0, "name": "2bea9c0324ee8c6fd667c79c4d16b089", "is_disabled": 0, "rental_uris": {"android": "https://dc.lft.to/lastmile_qr_scan", "ios": "https://dc.lft.to/lastmile_qr_scan"}, "fusion_lon": 0.0, "lat": 38.89013633333333, "bike_id": "2bea9c0324ee8c6fd667c79c4d16b089", "type": "electric_scooter", "is_reserved": 0, "lon": -76.937358}, {"fusion_lat": 0.0, "name": "e3623333fc747bc04c49478a63652d14", "is_disabled": 0, "rental_uris": {"android": "https://dc.lft.to/lastmile_qr_scan", "ios": "https://dc.lft.to/lastmile_qr_scan"}, "fusion_lon": 0.0, "lat": 38.887299166666665, "bike_id": "e3623333fc747bc04c49478a63652d14", "type": "electric_scooter", "is_reserved": 0, "lon": -77.02214833333333}, {"fusion_lat": 0.0, "name": "5055b625e2e3249725314440138277fe", "is_disabled": 0, "rental_uris": {"android": "https://dc.lft.to/lastmile_qr_scan", "ios": "https://dc.lft.to/lastmile_qr_scan"}, "fusion_lon": 0.0, "lat": 38.908593, "bike_id": "5055b625e2e3249725314440138277fe", "type": "electric_scooter", "is_reserved": 0, "lon": -77.00091966666666}, {"fusion_lat": 0.0, "name": "1a9caec2713b872bad14463721ba9f45", "is_disabled": 0, "rental_uris": {"android": "https://dc.lft.to/lastmile_qr_scan", "ios": "https://dc.lft.to/lastmile_qr_scan"}, "fusion_lon": 0.0, "lat": 38.8972075, "bike_id": "1a9caec2713b872bad14463721ba9f45", "type": "electric_scooter", "is_reserved": 0, "lon": -77.02760466666666}, {"fusion_lat": 0.0, "name": "d4cc58806467a08a4bdb486acb3549f5", "is_disabled": 0, "rental_uris": {"android": "https://dc.lft.to/lastmile_qr_scan", "ios": "https://dc.lft.to/lastmile_qr_scan"}, "fusion_lon": 0.0, "lat": 38.896082166666666, "bike_id": "d4cc58806467a08a4bdb486acb3549f5", "type": "electric_scooter", "is_reserved": 0, "lon": -76.9810975}, {"fusion_lat": 0.0, "name": "40f9b2abe7818278da79446c4271721e", "is_disabled": 0, "rental_uris": {"android": "https://dc.lft.to/lastmile_qr_scan", "ios": "https://dc.lft.to/lastmile_qr_scan"}, "fusion_lon": 0.0, "lat": 38.89618, "bike_id": "40f9b2abe7818278da79446c4271721e", "type": "electric_scooter", "is_reserved": 0, "lon": -77.02281766666667}, {"fusion_lat": 0.0, "name": "57003c57421e46b0978b34c1fbe08f50", "is_disabled": 0, "rental_uris": {"android": "https://dc.lft.to/lastmile_qr_scan", "ios": "https://dc.lft.to/lastmile_qr_scan"}, "fusion_lon": 0.0, "lat": 38.911087, "bike_id": "57003c57421e46b0978b34c1fbe08f50", "type": "electric_scooter", "is_reserved": 0, "lon": -77.01002983333333}, {"fusion_lat": 0.0, "name": "bf43d858ec369bc314c74d6f9b120698", "is_disabled": 0, "rental_uris": {"android": "https://dc.lft.to/lastmile_qr_scan", "ios": "https://dc.lft.to/lastmile_qr_scan"}, "fusion_lon": 0.0, "lat": 38.887706, "bike_id": "bf43d858ec369bc314c74d6f9b120698", "type": "electric_bike", "is_reserved": 0, "lon": -77.01835833333334}, {"fusion_lat": 0.0, "name": "7f893b9a2f4c0556b86a6eac7849248e", "is_disabled": 0, "rental_uris": {"android": "https://dc.lft.to/lastmile_qr_scan", "ios": "https://dc.lft.to/lastmile_qr_scan"}, "fusion_lon": 0.0, "lat": 38.92286716666667, "bike_id": "7f893b9a2f4c0556b86a6eac7849248e", "type": "electric_scooter", "is_reserved": 0, "lon": -77.02245}, {"fusion_lat": 0.0, "name": "a9c4bd5524d594a6b4b563244ed34f11", "is_disabled": 0, "rental_uris": {"android": "https://dc.lft.to/lastmile_qr_scan", "ios": "https://dc.lft.to/lastmile_qr_scan"}, "fusion_lon": 0.0, "lat": 38.907216, "bike_id": "a9c4bd5524d594a6b4b563244ed34f11", "type": "electric_scooter", "is_reserved": 0, "lon": -77.04774916666666}, {"fusion_lat": 0.0, "name": "ad0e0097520ae09c9462ca75f8d40c10", "is_disabled": 0, "rental_uris": {"android": "https://dc.lft.to/lastmile_qr_scan", "ios": "https://dc.lft.to/lastmile_qr_scan"}, "fusion_lon": 0.0, "lat": 38.93984416666667, "bike_id": "ad0e0097520ae09c9462ca75f8d40c10", "type": "electric_scooter", "is_reserved": 0, "lon": -77.02869366666667}, {"fusion_lat": 0.0, "name": "284ef1b1a01fbbaafb93d7e6b0a87ed7", "is_disabled": 0, "rental_uris": {"android": "https://dc.lft.to/lastmile_qr_scan", "ios": "https://dc.lft.to/lastmile_qr_scan"}, "fusion_lon": 0.0, "lat": 38.876569333333336, "bike_id": "284ef1b1a01fbbaafb93d7e6b0a87ed7", "type": "electric_scooter", "is_reserved": 0, "lon": -77.00750716666667}, {"fusion_lat": 0.0, "name": "771ce715339a7b02010ff409c3558b70", "is_disabled": 0, "rental_uris": {"android": "https://dc.lft.to/lastmile_qr_scan", "ios": "https://dc.lft.to/lastmile_qr_scan"}, "fusion_lon": 0.0, "lat": 38.903638666666666, "bike_id": "771ce715339a7b02010ff409c3558b70", "type": "electric_scooter", "is_reserved": 0, "lon": -77.033001}, {"fusion_lat": 0.0, "name": "433e5bdb65aaa79a0645b09ebae55a2a", "is_disabled": 0, "rental_uris": {"android": "https://dc.lft.to/lastmile_qr_scan", "ios": "https://dc.lft.to/lastmile_qr_scan"}, "fusion_lon": 0.0, "lat": 38.876857, "bike_id": "433e5bdb65aaa79a0645b09ebae55a2a", "type": "electric_scooter", "is_reserved": 0, "lon": -77.00716983333334}, {"fusion_lat": 0.0, "name": "9fa88bc8b04762d1beed22e240a19c46", "is_disabled": 0, "rental_uris": {"android": "https://dc.lft.to/lastmile_qr_scan", "ios": "https://dc.lft.to/lastmile_qr_scan"}, "fusion_lon": 0.0, "lat": 38.865175666666666, "bike_id": "9fa88bc8b04762d1beed22e240a19c46", "type": "electric_bike", "is_reserved": 0, "lon": -76.97335016666666}, {"fusion_lat": 0.0, "name": "090066e5019b908729947776c46971ff", "is_disabled": 0, "rental_uris": {"android": "https://dc.lft.to/lastmile_qr_scan", "ios": "https://dc.lft.to/lastmile_qr_scan"}, "fusion_lon": 0.0, "lat": 38.928139333333334, "bike_id": "090066e5019b908729947776c46971ff", "type": "electric_scooter", "is_reserved": 0, "lon": -77.04359666666667}, {"fusion_lat": 0.0, "name": "d205850e597ee6795e56a1b64cbd4059", "is_disabled": 0, "rental_uris": {"android": "https://dc.lft.to/lastmile_qr_scan", "ios": "https://dc.lft.to/lastmile_qr_scan"}, "fusion_lon": 0.0, "lat": 38.84911, "bike_id": "d205850e597ee6795e56a1b64cbd4059", "type": "electric_bike", "is_reserved": 0, "lon": -77.0997745}, {"fusion_lat": 0.0, "name": "e1d091768052397090c28f03643ef0d3", "is_disabled": 0, "rental_uris": {"android": "https://dc.lft.to/lastmile_qr_scan", "ios": "https://dc.lft.to/lastmile_qr_scan"}, "fusion_lon": 0.0, "lat": 38.90363216666667, "bike_id": "e1d091768052397090c28f03643ef0d3", "type": "electric_scooter", "is_reserved": 0, "lon": -77.06266516666666}, {"fusion_lat": 0.0, "name": "3902a457f045d2dd4f7a216bdf5f5fd9", "is_disabled": 0, "rental_uris": {"android": "https://dc.lft.to/lastmile_qr_scan", "ios": "https://dc.lft.to/lastmile_qr_scan"}, "fusion_lon": 0.0, "lat": 38.969258833333335, "bike_id": "3902a457f045d2dd4f7a216bdf5f5fd9", "type": "electric_bike", "is_reserved": 0, "lon": -77.02616616666667}, {"fusion_lat": 0.0, "name": "1ddca60a8e1c1cb0fd25d5c2deb2abe8", "is_disabled": 0, "rental_uris": {"android": "https://dc.lft.to/lastmile_qr_scan", "ios": "https://dc.lft.to/lastmile_qr_scan"}, "fusion_lon": 0.0, "lat": 38.91992666666667, "bike_id": "1ddca60a8e1c1cb0fd25d5c2deb2abe8", "type": "electric_scooter", "is_reserved": 0, "lon": -77.0327075}, {"fusion_lat": 0.0, "name": "130be4f06f69882613303c568306801d", "is_disabled": 0, "rental_uris": {"android": "https://dc.lft.to/lastmile_qr_scan", "ios": "https://dc.lft.to/lastmile_qr_scan"},