{"data": {"bikes": [{"lat": 38.902537, "is_disabled": 0, "type": "electric_scooter", "lon": -77.01794816666667, "bike_id": "f2ffa85b39768d5b023d3407279c9c0f", "fusion_lat": 0.0, "name": "f2ffa85b39768d5b023d3407279c9c0f", "is_reserved": 0, "rental_uris": {"android": "https://dc.lft.to/lastmile_qr_scan", "ios": "https://dc.lft.to/lastmile_qr_scan"}, "fusion_lon": 0.0}, {"lat": 38.8975215, "is_disabled": 0, "type": "electric_scooter", "lon": -77.01853433333333, "bike_id": "966ebdb613dc9f96dd8faeeae01e2773", "fusion_lat": 0.0, "name": "966ebdb613dc9f96dd8faeeae01e2773", "is_reserved": 0, "rental_uris": {"android": "https://dc.lft.to/lastmile_qr_scan", "ios": "https://dc.lft.to/lastmile_qr_scan"}, "fusion_lon": 0.0}, {"lat": 38.93237166666667, "is_disabled": 0, "type": "electric_scooter", "lon": -77.03262616666666, "bike_id": "763b0532802c7193b479e8d5273e29e7", "fusion_lat": 0.0, "name": "763b0532802c7193b479e8d5273e29e7", "is_reserved": 0, "rental_uris": {"android": "https://dc.lft.to/lastmile_qr_scan", "ios": "https://dc.lft.to/lastmile_qr_scan"}, "fusion_lon": 0.0}, {"lat": 38.92033033333333, "is_disabled": 0, "type": "electric_scooter", "lon": -77.03855416666667, "bike_id": "0b7d724352b96cc2c818da926232518d", "fusion_lat": 0.0, "name": "0b7d724352b96cc2c818da926232518d", "is_reserved": 0, "rental_uris": {"android": "https://dc.lft.to/lastmile_qr_scan", "ios": "https://dc.lft.to/lastmile_qr_scan"}, "fusion_lon": 0.0}, {"lat": 38.901994333333334, "is_disabled": 0, "type": "electric_scooter", "lon": -77.02416366666667, "bike_id": "7310a58b90670ec1b2d22984b7eebdf8", "fusion_lat": 0.0, "name": "7310a58b90670ec1b2d22984b7eebdf8", "is_reserved": 0, "rental_uris": {"android": "https://dc.lft.to/lastmile_qr_scan", "ios": "https://dc.lft.to/lastmile_qr_scan"}, "fusion_lon": 0.0}, {"lat": 38.92050583333334, "is_disabled": 0, "type": "electric_scooter", "lon": -77.04188033333334, "bike_id": "3b7bb183b56752a73b56fc365abf164f", "fusion_lat": 0.0, "name": "3b7bb183b56752a73b56fc365abf164f", "is_reserved": 0, "rental_uris": {"android": "https://dc.lft.to/lastmile_qr_scan", "ios": "https://dc.lft.to/lastmile_qr_scan"}, "fusion_lon": 0.0}, {"lat": 38.90777466666667, "is_disabled": 0, "type": "electric_scooter", "lon": -77.038636, "bike_id": "2e57b1813b49b96a85755ac1c36749f5", "fusion_lat": 0.0, "name": "2e57b1813b49b96a85755ac1c36749f5", "is_reserved": 0, "rental_uris": {"android": "https://dc.lft.to/lastmile_qr_scan", "ios": "https://dc.lft.to/lastmile_qr_scan"}, "fusion_lon": 0.0}, {"lat": 38.900167833333334, "is_disabled": 0, "type": "electric_scooter", "lon": -77.00218016666666, "bike_id": "4312bdaedb5624c6707264d2de42e58f", "fusion_lat": 0.0, "name": "4312bdaedb5624c6707264d2de42e58f", "is_reserved": 0, "rental_uris": {"android": "https://dc.lft.to/lastmile_qr_scan", "ios": "https://dc.lft.to/lastmile_qr_scan"}, "fusion_lon": 0.0}, {"lat": 38.9036745, "is_disabled": 0, "type": "electric_scooter", "lon": -77.01760033333333, "bike_id": "6df111f44e7c9afde74d67a3b4dff71c", "fusion_lat": 0.0, "name": "6df111f44e7c9afde74d67a3b4dff71c", "is_reserved": 0, "rental_uris": {"android": "https://dc.lft.to/lastmile_qr_scan", "ios": "https://dc.lft.to/lastmile_qr_scan"}, "fusion_lon": 0.0}, {"lat": 38.92086116666667, "is_disabled": 0, "type": "electric_scooter", "lon": -77.04199933333334, "bike_id": "7c8178c036f47f3c3ea31b465d27c075", "fusion_lat": 0.0, "name": "7c8178c036f47f3c3ea31b465d27c075", "is_reserved": 0, "rental_uris": {"android": "https://dc.lft.to/lastmile_qr_scan", "ios": "https://dc.lft.to/lastmile_qr_scan"}, "fusion_lon": 0.0}, {"lat": 38.9218655, "is_disabled": 0, "type": "electric_scooter", "lon": -77.04704666666666, "bike_id": "2d7a92fff2afd90ea8f545cfc6b9c077", "fusion_lat": 0.0, "name": "2d7a92fff2afd90ea8f545cfc6b9c077", "is_reserved": 0, "rental_uris": {"android": "https://dc.lft.to/lastmile_qr_scan", "ios": "https://dc.lft.to/lastmile_qr_scan"}, "fusion_lon": 0.0}, {"lat": 38.954036333333335, "is_disabled": 0, "type": "electric_scooter", "lon": -77.02746716666667, "bike_id": "c0b4bdd86edcd9893a297a5fe58a79d4", "fusion_lat": 0.0, "name": "c0b4bdd86edcd9893a297a5fe58a79d4", "is_reserved": 0, "rental_uris": {"android": "https://dc.lft.to/lastmile_qr_scan", "ios": "https://dc.lft.to/lastmile_qr_scan"}, "fusion_lon": 0.0}, {"lat": 38.92603033333333, "is_disabled": 0, "type": "electric_scooter", "lon": -77.0569285, "bike_id": "32148a8dcfcf8c8c6fe00ba87d4ccc03", "fusion_lat": 0.0, "name": "32148a8dcfcf8c8c6fe00ba87d4ccc03", "is_reserved": 0, "rental_uris": {"android": "https://dc.lft.to/lastmile_qr_scan", "ios": "https://dc.lft.to/lastmile_qr_scan"}, "fusion_lon": 0.0}, {"lat": 38.928678833333336, "is_disabled": 0, "type": "electric_scooter", "lon": -77.03442483333333, "bike_id": "3c97e8f78ca5d52bb879ec426d7cb4a3", "fusion_lat": 0.0, "name": "3c97e8f78ca5d52bb879ec426d7cb4a3", "is_reserved": 0, "rental_uris": {"android": "https://dc.lft.to/lastmile_qr_scan", "ios": "https://dc.lft.to/lastmile_qr_scan"}, "fusion_lon": 0.0}, {"lat": 38.92591816666667, "is_disabled": 0, "type": "electric_scooter", "lon": -77.02266266666666, "bike_id": "0edf4df171c0673c7a0312a379b57693", "fusion_lat": 0.0, "name": "0edf4df171c0673c7a0312a379b57693", "is_reserved": 0, "rental_uris": {"android": "https://dc.lft.to/lastmile_qr_scan", "ios": "https://dc.lft.to/lastmile_qr_scan"}, "fusion_lon": 0.0}, {"lat": 38.91711816666667, "is_disabled": 0, "type": "electric_scooter", "lon": -77.0347145, "bike_id": "2ebf273bf42b9f3170c4da26bca4d12c", "fusion_lat": 0.0, "name": "2ebf273bf42b9f3170c4da26bca4d12c", "is_reserved": 0, "rental_uris": {"android": "https://dc.lft.to/lastmile_qr_scan", "ios": "https://dc.lft.to/lastmile_qr_scan"}, "fusion_lon": 0.0}, {"lat": 38.86250966666667, "is_disabled": 0, "type": "electric_scooter", "lon": -76.99262266666666, "bike_id": "12108749184088213858c229fb360dca", "fusion_lat": 0.0, "name": "12108749184088213858c229fb360dca", "is_reserved": 0, "rental_uris": {"android": "https://dc.lft.to/lastmile_qr_scan", "ios": "https://dc.lft.to/lastmile_qr_scan"}, "fusion_lon": 0.0}, {"lat": 38.957886333333335, "is_disabled": 0, "type": "electric_scooter", "lon": -77.02752433333333, "bike_id": "15a21b1a8b4bfc5b74eac838798a10e1", "fusion_lat": 0.0, "name": "15a21b1a8b4bfc5b74eac838798a10e1", "is_reserved": 0, "rental_uris": {"android": "https://dc.lft.to/lastmile_qr_scan", "ios": "https://dc.lft.to/lastmile_qr_scan"}, "fusion_lon": 0.0}, {"lat": 38.939729, "is_disabled": 0, "type": "electric_scooter", "lon": -77.03588083333334, "bike_id": "4650001cb024f33f60a1c7398a3b609e", "fusion_lat": 0.0, "name": "4650001cb024f33f60a1c7398a3b609e", "is_reserved": 0, "rental_uris": {"android": "https://dc.lft.to/lastmile_qr_scan", "ios": "https://dc.lft.to/lastmile_qr_scan"}, "fusion_lon": 0.0}, {"lat": 38.908793, "is_disabled": 0, "type": "electric_scooter", "lon": -77.036704, "bike_id": "279ada75b1b3eee8fd4948848db2b632", "fusion_lat": 0.0, "name": "279ada75b1b3eee8fd4948848db2b632", "is_reserved": 0, "rental_uris": {"android": "https://dc.lft.to/lastmile_qr_scan", "ios": "https://dc.lft.to/lastmile_qr_scan"}, "fusion_lon": 0.0}, {"lat": 38.89797566666667, "is_disabled": 0, "type": "electric_scooter", "lon": -77.03198966666666, "bike_id": "8bcca958cdb2a5f7952e6204d083737e", "fusion_lat": 0.0, "name": "8bcca958cdb2a5f7952e6204d083737e", "is_reserved": 0, "rental_uris": {"android": "https://dc.lft.to/lastmile_qr_scan", "ios": "https://dc.lft.to/lastmile_qr_scan"}, "fusion_lon": 0.0}, {"lat": 38.9224235, "is_disabled": 0, "type": "electric_scooter", "lon": -77.04268683333333, "bike_id": "0d7939f2e98d98c33d005a0d73157b29", "fusion_lat": 0.0, "name": "0d7939f2e98d98c33d005a0d73157b29", "is_reserved": 0, "rental_uris": {"android": "https://dc.lft.to/lastmile_qr_scan", "ios": "https://dc.lft.to/lastmile_qr_scan"}, "fusion_lon": 0.0}, {"lat": 38.862315833333334, "is_disabled": 0, "type": "electric_scooter", "lon": -76.9954935, "bike_id": "ce1368e9b301fa79fe6f1f2c7fd381e8", "fusion_lat": 0.0, "name": "ce1368e9b301fa79fe6f1f2c7fd381e8", "is_reserved": 0, "rental_uris": {"android": "https://dc.lft.to/lastmile_qr_scan", "ios": "https://dc.lft.to/lastmile_qr_scan"}, "fusion_lon": 0.0}, {"lat": 38.8889165, "is_disabled": 0, "type": "electric_scooter", "lon": -76.93153, "bike_id": "51c714e01313333405ab89064cf7cf61", "fusion_lat": 0.0, "name": "51c714e01313333405ab89064cf7cf61", "is_reserved": 0, "rental_uris": {"android": "https://dc.lft.to/lastmile_qr_scan", "ios": "https://dc.lft.to/lastmile_qr_scan"}, "fusion_lon": 0.0}, {"lat": 38.92018266666667, "is_disabled": 0, "type": "electric_scooter", "lon": -77.02496383333333, "bike_id": "bc631c81268d17f82c93d4947d979156", "fusion_lat": 0.0, "name": "bc631c81268d17f82c93d4947d979156", "is_reserved": 0, "rental_uris": {"android": "https://dc.lft.to/lastmile_qr_scan", "ios": "https://dc.lft.to/lastmile_qr_scan"}, "fusion_lon": 0.0}, {"lat": 38.931734166666665, "is_disabled": 0, "type": "electric_scooter", "lon": -77.028153, "bike_id": "33819ae84bd3a39ceffba05f605537e3", "fusion_lat": 0.0, "name": "33819ae84bd3a39ceffba05f605537e3", "is_reserved": 0, "rental_uris": {"android": "https://dc.lft.to/lastmile_qr_scan", "ios": "https://dc.lft.to/lastmile_qr_scan"}, "fusion_lon": 0.0}, {"lat": 38.884055000000004, "is_disabled": 0, "type": "electric_bike", "lon": -76.95420866666667, "bike_id": "6ded375a5d2ee740605f592780909a10", "fusion_lat": 0.0, "name": "6ded375a5d2ee740605f592780909a10", "is_reserved": 0, "rental_uris": {"android": "https://dc.lft.to/lastmile_qr_scan", "ios": "https://dc.lft.to/lastmile_qr_scan"}, "fusion_lon": 0.0}, {"lat": 38.96144816666666, "is_disabled": 0, "type": "electric_scooter", "lon": -77.02781366666666, "bike_id": "36a52234eb2062ff88731881ca95b26d", "fusion_lat": 0.0, "name": "36a52234eb2062ff88731881ca95b26d", "is_reserved": 0, "rental_uris": {"android": "https://dc.lft.to/lastmile_qr_scan", "ios": "https://dc.lft.to/lastmile_qr_scan"}, "fusion_lon": 0.0}, {"lat": 38.902451, "is_disabled": 0, "type": "electric_scooter", "lon": -77.02905683333333, "bike_id": "0dca8d0f920e6ce19cd75aaad3a6ff04", "fusion_lat": 0.0, "name": "0dca8d0f920e6ce19cd75aaad3a6ff04", "is_reserved": 0, "rental_uris": {"android": "https://dc.lft.to/lastmile_qr_scan", "ios": "https://dc.lft.to/lastmile_qr_scan"}, "fusion_lon": 0.0}, {"lat": 38.911159, "is_disabled": 0, "type": "electric_scooter", "lon": -77.03252216666667, "bike_id": "88bea503c072a564641c237006f754db", "fusion_lat": 0.0, "name": "88bea503c072a564641c237006f754db", "is_reserved": 0, "rental_uris": {"android": "https://dc.lft.to/lastmile_qr_scan", "ios": "https://dc.lft.to/lastmile_qr_scan"}, "fusion_lon": 0.0}, {"lat": 38.92476283333333, "is_disabled": 0, "type": "electric_scooter", "lon": -77.028418, "bike_id": "1d6e786faa871c6ef397da12e548a304", "fusion_lat": 0.0, "name": "1d6e786faa871c6ef397da12e548a304", "is_reserved": 0, "rental_uris": {"android": "https://dc.lft.to/lastmile_qr_scan", "ios": "https://dc.lft.to/lastmile_qr_scan"}, "fusion_lon": 0.0}, {"lat": 38.898177, "is_disabled": 0, "type": "electric_scooter", "lon": -76.99691933333334, "bike_id": "a1369fad35fa41606b3b92ff554110c1", "fusion_lat": 0.0, "name": "a1369fad35fa41606b3b92ff554110c1", "is_reserved": 0, "rental_uris": {"android": "https://dc.lft.to/lastmile_qr_scan", "ios": "https://dc.lft.to/lastmile_qr_scan"}, "fusion_lon": 0.0}, {"lat": 39.05634083333333, "is_disabled": 0, "type": "electric_bike", "lon": -77.1252645, "bike_id": "a5b816840c48239476e2154b97258d3d", "fusion_lat": 0.0, "name": "a5b816840c48239476e2154b97258d3d", "is_reserved": 0, "rental_uris": {"android": "https://dc.lft.to/lastmile_qr_scan", "ios": "https://dc.lft.to/lastmile_qr_scan"}, "fusion_lon": 0.0}, {"lat": 38.9042455, "is_disabled": 0, "type": "electric_scooter", "lon": -76.99077266666667, "bike_id": "e2edc56f14af4e4c31dda481730bb4af", "fusion_lat": 0.0, "name": "e2edc56f14af4e4c31dda481730bb4af", "is_reserved": 0, "rental_uris": {"android": "https://dc.lft.to/lastmile_qr_scan", "ios": "https://dc.lft.to/lastmile_qr_scan"}, "fusion_lon": 0.0}, {"lat": 38.90406133333333, "is_disabled": 0, "type": "electric_scooter", "lon": -77.043353, "bike_id": "8876d0261f5b367c04bd961224eb42d7", "fusion_lat": 0.0, "name": "8876d0261f5b367c04bd961224eb42d7", "is_reserved": 0, "rental_uris": {"android": "https://dc.lft.to/lastmile_qr_scan", "ios": "https://dc.lft.to/lastmile_qr_scan"}, "fusion_lon": 0.0}, {"lat": 38.919686166666665, "is_disabled": 0, "type": "electric_scooter", "lon": -76.992253, "bike_id": "156e3bd03d553495f7ad0d3b587ae25c", "fusion_lat": 0.0, "name": "156e3bd03d553495f7ad0d3b587ae25c", "is_reserved": 0, "rental_uris": {"android": "https://dc.lft.to/lastmile_qr_scan", "ios": "https://dc.lft.to/lastmile_qr_scan"}, "fusion_lon": 0.0}, {"lat": 38.908543, "is_disabled": 0, "type": "electric_scooter", "lon": -77.0062395, "bike_id": "614557b6b02a6ddc45c19d622804e4dc", "fusion_lat": 0.0, "name": "614557b6b02a6ddc45c19d622804e4dc", "is_reserved": 0, "rental_uris": {"android": "https://dc.lft.to/lastmile_qr_scan", "ios": "https://dc.lft.to/lastmile_qr_scan"}, "fusion_lon": 0.0}, {"lat": 38.90140666666667, "is_disabled": 0, "type": "electric_scooter", "lon": -76.98056183333334, "bike_id": "4539afe6accded3e0d655b25d5528949", "fusion_lat": 0.0, "name": "4539afe6accded3e0d655b25d5528949", "is_reserved": 0, "rental_uris": {"android": "https://dc.lft.to/lastmile_qr_scan", "ios": "https://dc.lft.to/lastmile_qr_scan"}, "fusion_lon": 0.0}, {"lat": 38.82338816666667, "is_disabled": 0, "type": "electric_bike", "lon": -77.05817783333333, "bike_id": "37c535d2e28d05e05313c12898abcec7", "fusion_lat": 0.0, "name": "37c535d2e28d05e05313c12898abcec7", "is_reserved": 0, "rental_uris": {"android": "https://dc.lft.to/lastmile_qr_scan", "ios": "https://dc.lft.to/lastmile_qr_scan"}, "fusion_lon": 0.0}, {"lat": 38.84609733333333, "is_disabled": 0, "type": "electric_bike", "lon": -76.96904466666666, "bike_id": "e71871ad1860431b6f4a15f51e388787", "fusion_lat": 0.0, "name": "e71871ad1860431b6f4a15f51e388787", "is_reserved": 0, "rental_uris": {"android": "https://dc.lft.to/lastmile_qr_scan", "ios": "https://dc.lft.to/lastmile_qr_scan"}, "fusion_lon": 0.0}, {"lat": 38.92226333333333, "is_disabled": 0, "type": "electric_scooter", "lon": -77.04242166666667, "bike_id": "c282a8f987d4482ac7936ddba4deaa00", "fusion_lat": 0.0, "name": "c282a8f987d4482ac7936ddba4deaa00", "is_reserved": 0, "rental_uris": {"android": "https://dc.lft.to/lastmile_qr_scan", "ios": "https://dc.lft.to/lastmile_qr_scan"}, "fusion_lon": 0.0}, {"lat": 38.8982195, "is_disabled": 0, "type": "electric_scooter", "lon": -76.97428883333333, "bike_id": "9b4ed63e423fe0e171e0ef0ec4c3adba", "fusion_lat": 0.0, "name": "9b4ed63e423fe0e171e0ef0ec4c3adba", "is_reserved": 0, "rental_uris": {"android": "https://dc.lft.to/lastmile_qr_scan", "ios": "https://dc.lft.to/lastmile_qr_scan"}, "fusion_lon": 0.0}, {"lat": 38.90373, "is_disabled": 0, "type": "electric_scooter", "lon": -77.0627865, "bike_id": "fd5062a705fe1e7aa571cd2c01f26dea", "fusion_lat": 0.0, "name": "fd5062a705fe1e7aa571cd2c01f26dea", "is_reserved": 0, "rental_uris": {"android": "https://dc.lft.to/lastmile_qr_scan", "ios": "https://dc.lft.to/lastmile_qr_scan"}, "fusion_lon": 0.0}, {"lat": 38.916274333333334, "is_disabled": 0, "type": "electric_scooter", "lon": -77.02390133333333, "bike_id": "b12556a12d2beb5b8e98189e0a5f6ffd", "fusion_lat": 0.0, "name": "b12556a12d2beb5b8e98189e0a5f6ffd", "is_reserved": 0, "rental_uris": {"android": "https://dc.lft.to/lastmile_qr_scan", "ios": "https://dc.lft.to/lastmile_qr_scan"}, "fusion_lon": 0.0}, {"lat": 38.92755983333333, "is_disabled": 0, "type": "electric_scooter", "lon": -77.03692666666667, "bike_id": "814e0c1d79a940a97f227901baaa36e6", "fusion_lat": 0.0, "name": "814e0c1d79a940a97f227901baaa36e6", "is_reserved": 0, "rental_uris": {"android": "https://dc.lft.to/lastmile_qr_scan", "ios": "https://dc.lft.to/lastmile_qr_scan"}, "fusion_lon": 0.0}, {"lat": 38.93107533333333, "is_disabled": 0, "type": "electric_scooter", "lon": -77.03030033333333, "bike_id": "232b944488eeedc8fd87e21f0aaf9132", "fusion_lat": 0.0, "name": "232b944488eeedc8fd87e21f0aaf9132", "is_reserved": 0, "rental_uris": {"android": "https://dc.lft.to/lastmile_qr_scan", "ios": "https://dc.lft.to/lastmile_qr_scan"}, "fusion_lon": 0.0}, {"lat": 38.9291075, "is_disabled": 0, "type": "electric_scooter", "lon": -77.03245433333333, "bike_id": "3e931df312ba1a24549dc623adeb7cb7", "fusion_lat": 0.0, "name": "3e931df312ba1a24549dc623adeb7cb7", "is_reserved": 0, "rental_uris": {"android": "https://dc.lft.to/lastmile_qr_scan", "ios": "https://dc.lft.to/lastmile_qr_scan"}, "fusion_lon": 0.0}, {"lat": 38.91820166666667, "is_disabled": 0, "type": "electric_scooter", "lon": -77.02861016666667, "bike_id": "05f6d7177745f005182ab9a55ec54438", "fusion_lat": 0.0, "name": "05f6d7177745f005182ab9a55ec54438", "is_reserved": 0, "rental_uris": {"android": "https://dc.lft.to/lastmile_qr_scan", "ios": "https://dc.lft.to/lastmile_qr_scan"}, "fusion_lon": 0.0}, {"lat": 38.914269, "is_disabled": 0, "type": "electric_scooter", "lon": -77.03202483333334, "bike_id": "2d5913f606049ed75ff45751ba8ca273", "fusion_lat": 0.0, "name": "2d5913f606049ed75ff45751ba8ca273", "is_reserved": 0, "rental_uris": {"android": "https://dc.lft.to/lastmile_qr_scan", "ios": "https://dc.lft.to/lastmile_qr_scan"}, "fusion_lon": 0.0}, {"lat": 38.938408, "is_disabled": 0, "type": "electric_bike", "lon": -76.9885915, "bike_id": "e9bb88d31e02a171ef8758198efe455e", "fusion_lat": 0.0, "name": "e9bb88d31e02a171ef8758198efe455e", "is_reserved": 0, "rental_uris": {"android": "https://dc.lft.to/lastmile_qr_scan", "ios": "https://dc.lft.to/lastmile_qr_scan"}, "fusion_lon": 0.0}, {"lat": 38.923319, "is_disabled": 0, "type": "electric_scooter", "lon": -77.03889783333334, "bike_id": "44a900e8a81b1bbe30175cf04f0c601d", "fusion_lat": 0.0, "name": "44a900e8a81b1bbe30175cf04f0c601d", "is_reserved": 0, "rental_uris": {"android": "https://dc.lft.to/lastmile_qr_scan", "ios": "https://dc.lft.to/lastmile_qr_scan"}, "fusion_lon": 0.0}, {"lat": 38.930909666666665, "is_disabled": 0, "type": "electric_scooter", "lon": -77.025041, "bike_id": "19eb1e07c7d90ed8fed0bcd3f45c0e90", "fusion_lat": 0.0, "name": "19eb1e07c7d90ed8fed0bcd3f45c0e90", "is_reserved": 0, "rental_uris": {"android": "https://dc.lft.to/lastmile_qr_scan", "ios": "https://dc.lft.to/lastmile_qr_scan"}, "fusion_lon": 0.0}, {"lat": 38.8851285, "is_disabled": 0, "type": "electric_scooter", "lon": -77.00681066666667, "bike_id": "b935a4c18f1da3bbd4a542e9a5bf9645", "fusion_lat": 0.0, "name": "b935a4c18f1da3bbd4a542e9a5bf9645", "is_reserved": 0, "rental_uris": {"android": "https://dc.lft.to/lastmile_qr_scan", "ios": "https://dc.lft.to/lastmile_qr_scan"}, "fusion_lon": 0.0}, {"lat": 38.90726266666667, "is_disabled": 0, "type": "electric_scooter", "lon": -77.04834316666667, "bike_id": "eb01c39e1cc6820289b025ed5017adb5", "fusion_lat": 0.0, "name": "eb01c39e1cc6820289b025ed5017adb5", "is_reserved": 0, "rental_uris": {"android": "https://dc.lft.to/lastmile_qr_scan", "ios": "https://dc.lft.to/lastmile_qr_scan"}, "fusion_lon": 0.0}, {"lat": 39.03050783333333, "is_disabled": 0, "type": "electric_bike", "lon": -77.0948335, "bike_id": "87cf5f56a4f0ae376fdefe1fc3e46fe2", "fusion_lat": 0.0, "name": "87cf5f56a4f0ae376fdefe1fc3e46fe2", "is_reserved": 0, "rental_uris": {"android": "https://dc.lft.to/lastmile_qr_scan", "ios": "https://dc.lft.to/lastmile_qr_scan"}, "fusion_lon": 0.0}, {"lat": 38.909705833333334, "is_disabled": 0, "type": "electric_scooter", "lon": -77.045124, "bike_id": "374e7ee9d186f8f9ce9be6992150be0d", "fusion_lat": 0.0, "name": "374e7ee9d186f8f9ce9be6992150be0d", "is_reserved": 0, "rental_uris": {"android": "https://dc.lft.to/lastmile_qr_scan", "ios": "https://dc.lft.to/lastmile_qr_scan"}, "fusion_lon": 0.0}, {"lat": 38.92711516666667, "is_disabled": 0, "type": "electric_scooter", "lon": -77.02325133333333, "bike_id": "56fce002cebf7921d5bd92d5adc11379", "fusion_lat": 0.0, "name": "56fce002cebf7921d5bd92d5adc11379", "is_reserved": 0, "rental_uris": {"android": "https://dc.lft.to/lastmile_qr_scan", "ios": "https://dc.lft.to/lastmile_qr_scan"}, "fusion_lon": 0.0}, {"lat": 38.94514316666667, "is_disabled": 0, "type": "electric_scooter", "lon": -77.02169583333334, "bike_id": "5ea162826ba19a945e560a8ff0950fcc", "fusion_lat": 0.0, "name": "5ea162826ba19a945e560a8ff0950fcc", "is_reserved": 0, "rental_uris": {"android": "https://dc.lft.to/lastmile_qr_scan", "ios": "https://dc.lft.to/lastmile_qr_scan"}, "fusion_lon": 0.0}, {"lat": 38.904147333333334, "is_disabled": 0, "type": "electric_scooter", "lon": -77.02498916666667, "bike_id": "f0343f9917dd8c54bf69c928fc2a6c47", "fusion_lat": 0.0, "name": "f0343f9917dd8c54bf69c928fc2a6c47", "is_reserved": 0, "rental_uris": {"android": "https://dc.lft.to/lastmile_qr_scan", "ios": "https://dc.lft.to/lastmile_qr_scan"}, "fusion_lon": 0.0}, {"lat": 38.897566166666664, "is_disabled": 0, "type": "electric_scooter", "lon": -77.02954183333334, "bike_id": "7e5fc4455fd7b75ce8486dfe40bf4051", "fusion_lat": 0.0, "name": "7e5fc4455fd7b75ce8486dfe40bf4051", "is_reserved": 0, "rental_uris": {"android": "https://dc.lft.to/lastmile_qr_scan", "ios": "https://dc.lft.to/lastmile_qr_scan"}, "fusion_lon": 0.0}, {"lat": 38.911794666666665, "is_disabled": 0, "type": "electric_bike", "lon": -77.0114725, "bike_id": "7a39fc2418f163a3c87973f868ddec0f", "fusion_lat": 0.0, "name": "7a39fc2418f163a3c87973f868ddec0f", "is_reserved": 0, "rental_uris": {"android": "https://dc.lft.to/lastmile_qr_scan", "ios": "https://dc.lft.to/lastmile_qr_scan"}, "fusion_lon": 0.0}, {"lat": 38.899799333333334, "is_disabled": 0, "type": "electric_scooter", "lon": -77.0184465, "bike_id": "70e936a4cd0d46e8e6a5bef96a2bd9a1", "fusion_lat": 0.0, "name": "70e936a4cd0d46e8e6a5bef96a2bd9a1", "is_reserved": 0, "rental_uris": {"android": "https://dc.lft.to/lastmile_qr_scan", "ios": "https://dc.lft.to/lastmile_qr_scan"}, "fusion_lon": 0.0}, {"lat": 38.86565183333333, "is_disabled": 0, "type": "electric_scooter", "lon": -76.98954616666667, "bike_id": "b5252fc73eeb68f39c35d303ef9af11a", "fusion_lat": 0.0, "name": "b5252fc73eeb68f39c35d303ef9af11a", "is_reserved": 0, "rental_uris": {"android": "https://dc.lft.to/lastmile_qr_scan", "ios": "https://dc.lft.to/lastmile_qr_scan"}, "fusion_lon": 0.0}, {"lat": 38.89828983333334, "is_disabled": 0, "type": "electric_scooter", "lon": -77.02638316666666, "bike_id": "0192c0001fa1d9b2f962de5beb1e43cb", "fusion_lat": 0.0, "name": "0192c0001fa1d9b2f962de5beb1e43cb", "is_reserved": 0, "rental_uris": {"android": "https://dc.lft.to/lastmile_qr_scan", "ios": "https://dc.lft.to/lastmile_qr_scan"}, "fusion_lon": 0.0}, {"lat": 38.9322225, "is_disabled": 0, "type": "electric_scooter", "lon": -77.02731483333334, "bike_id": "0823d40a875399b643cc449911a20682", "fusion_lat": 0.0, "name": "0823d40a875399b643cc449911a20682", "is_reserved": 0, "rental_uris": {"android": "https://dc.lft.to/lastmile_qr_scan", "ios": "https://dc.lft.to/lastmile_qr_scan"}, "fusion_lon": 0.0}, {"lat": 38.884347166666664, "is_disabled": 0, "type": "electric_scooter", "lon": -76.957562, "bike_id": "4a3e0645c5f5d7c815bf5255fc0688f3", "fusion_lat": 0.0, "name": "4a3e0645c5f5d7c815bf5255fc0688f3", "is_reserved": 0, "rental_uris": {"android": "https://dc.lft.to/lastmile_qr_scan", "ios": "https://dc.lft.to/lastmile_qr_scan"}, "fusion_lon": 0.0}, {"lat": 38.889751333333336, "is_disabled": 0, "type": "electric_scooter", "lon": -76.93736833333334, "bike_id": "dde72fc5a0df4659b36755158387e7fb", "fusion_lat": 0.0, "name": "dde72fc5a0df4659b36755158387e7fb", "is_reserved": 0, "rental_uris": {"android": "https://dc.lft.to/lastmile_qr_scan", "ios": "https://dc.lft.to/lastmile_qr_scan"}, "fusion_lon": 0.0}, {"lat": 38.92249016666667, "is_disabled": 0, "type": "electric_scooter", "lon": -77.042174, "bike_id": "66568c1f6f03e1d4630412b34bb29272", "fusion_lat": 0.0, "name": "66568c1f6f03e1d4630412b34bb29272", "is_reserved": 0, "rental_uris": {"android": "https://dc.lft.to/lastmile_qr_scan", "ios": "https://dc.lft.to/lastmile_qr_scan"}, "fusion_lon": 0.0}, {"lat": 38.8922515, "is_disabled": 0, "type": "electric_scooter", "lon": -76.9329745, "bike_id": "9361a0545a7c9b6c8d598e7b1431c75f", "fusion_lat": 0.0, "name": "9361a0545a7c9b6c8d598e7b1431c75f", "is_reserved": 0, "rental_uris": {"android": "https://dc.lft.to/lastmile_qr_scan", "ios": "https://dc.lft.to/lastmile_qr_scan"}, "fusion_lon": 0.0}, {"lat": 38.86619866666667, "is_disabled": 0, "type": "electric_bike", "lon": -76.94567083333334, "bike_id": "92c2f952ac3320e2d6892f7abf56c1f8", "fusion_lat": 0.0, "name": "92c2f952ac3320e2d6892f7abf56c1f8", "is_reserved": 0, "rental_uris": {"android": "https://dc.lft.to/lastmile_qr_scan", "ios": "https://dc.lft.to/lastmile_qr_scan"}, "fusion_lon": 0.0}, {"lat": 38.91709866666667, "is_disabled": 0, "type": "electric_scooter", "lon": -77.03469166666666, "bike_id": "0f19cac04fc634187d26b2301d7fd48c", "fusion_lat": 0.0, "name": "0f19cac04fc634187d26b2301d7fd48c", "is_reserved": 0, "rental_uris": {"android": "https://dc.lft.to/lastmile_qr_scan", "ios": "https://dc.lft.to/lastmile_qr_scan"}, "fusion_lon": 0.0}, {"lat": 38.9660695, "is_disabled": 0, "type": "electric_bike", "lon": -76.983316, "bike_id": "1e18197aecbafdeba43909b0d35dd518", "fusion_lat": 0.0, "name": "1e18197aecbafdeba43909b0d35dd518", "is_reserved": 0, "rental_uris": {"android": "https://dc.lft.to/lastmile_qr_scan", "ios": "https://dc.lft.to/lastmile_qr_scan"}, "fusion_lon": 0.0}, {"lat": 38.9056475, "is_disabled": 0, "type": "electric_scooter", "lon": -77.03293516666666, "bike_id": "6285ebba8a4058c826eb90dba7d2171d", "fusion_lat": 0.0, "name": "6285ebba8a4058c826eb90dba7d2171d", "is_reserved": 0, "rental_uris": {"android": "https://dc.lft.to/lastmile_qr_scan", "ios": "https://dc.lft.to/lastmile_qr_scan"}, "fusion_lon": 0.0}, {"lat": 38.89840266666667, "is_disabled": 0, "type": "electric_scooter", "lon": -76.93100133333333, "bike_id": "2246a3fcfae6cbf5da58411d1ee8c533", "fusion_lat": 0.0, "name": "2246a3fcfae6cbf5da58411d1ee8c533", "is_reserved": 0, "rental_uris": {"android": "https://dc.lft.to/lastmile_qr_scan", "ios": "https://dc.lft.to/lastmile_qr_scan"}, "fusion_lon": 0.0}, {"lat": 38.892496333333334, "is_disabled": 0, "type": "electric_scooter", "lon": -77.048934, "bike_id": "6c75dd0b089c4e4e17da715385e9ff0a", "fusion_lat": 0.0, "name": "6c75dd0b089c4e4e17da715385e9ff0a", "is_reserved": 0, "rental_uris": {"android": "https://dc.lft.to/lastmile_qr_scan", "ios": "https://dc.lft.to/lastmile_qr_scan"}, "fusion_lon": 0.0}, {"lat": 38.916108, "is_disabled": 0, "type": "electric_bike", "lon": -77.021357, "bike_id": "454677f0890155588fdf501f82bb73a2", "fusion_lat": 0.0, "name": "454677f0890155588fdf501f82bb73a2", "is_reserved": 0, "rental_uris": {"android": "https://dc.lft.to/lastmile_qr_scan", "ios": "https://dc.lft.to/lastmile_qr_scan"}, "fusion_lon": 0.0}, {"lat": 38.9308525, "is_disabled": 0, "type": "electric_scooter", "lon": -77.025553, "bike_id": "f0a7722c3ab4ba34651afd9ef897677f", "fusion_lat": 0.0, "name": "f0a7722c3ab4ba34651afd9ef897677f", "is_reserved": 0, "rental_uris": {"android": "https://dc.lft.to/lastmile_qr_scan", "ios": "https://dc.lft.to/lastmile_qr_scan"}, "fusion_lon": 0.0}, {"lat": 38.938282, "is_disabled": 0, "type": "electric_scooter", "lon": -77.06031633333333, "bike_id": "0ce9d80d6120dcb136c86aa29d55015a", "fusion_lat": 0.0, "name": "0ce9d80d6120dcb136c86aa29d55015a", "is_reserved": 0, "rental_uris": {"android": "https://dc.lft.to/lastmile_qr_scan", "ios": "https://dc.lft.to/lastmile_qr_scan"}, "fusion_lon": 0.0}, {"lat": 38.9129185, "is_disabled": 0, "type": "electric_scooter", "lon": -77.04545933333333, "bike_id": "b3e6efbc7b2fa6f76bc0542701b5f73f", "fusion_lat": 0.0, "name": "b3e6efbc7b2fa6f76bc0542701b5f73f", "is_reserved": 0, "rental_uris": {"android": "https://dc.lft.to/lastmile_qr_scan", "ios": "https://dc.lft.to/lastmile_qr_scan"}, "fusion_lon": 0.0}, {"lat": 38.969294, "is_disabled": 0, "type": "electric_bike", "lon": -77.02619916666667, "bike_id": "d40f6b37dd82614a574d9889fb258ab7", "fusion_lat": 0.0, "name": "d40f6b37dd82614a574d9889fb258ab7", "is_reserved": 0, "rental_uris": {"android": "https://dc.lft.to/lastmile_qr_scan", "ios": "https://dc.lft.to/lastmile_qr_scan"}, "fusion_lon": 0.0}, {"lat": 38.920673, "is_disabled": 0, "type": "electric_scooter", "lon": -77.02498333333334, "bike_id": "d8434634fdd7cdb678e884791c194a28", "fusion_lat": 0.0, "name": "d8434634fdd7cdb678e884791c194a28", "is_reserved": 0, "rental_uris": {"android": "https://dc.lft.to/lastmile_qr_scan", "ios": "https://dc.lft.to/lastmile_qr_scan"}, "fusion_lon": 0.0}, {"lat": 38.88491766666667, "is_disabled": 0, "type": "electric_scooter", "lon": -77.00724516666666, "bike_id": "3c2e4f98733105586d58f6d2a9dcfa13", "fusion_lat": 0.0, "name": "3c2e4f98733105586d58f6d2a9dcfa13", "is_reserved": 0, "rental_uris": {"android": "https://dc.lft.to/lastmile_qr_scan", "ios": "https://dc.lft.to/lastmile_qr_scan"}, "fusion_lon": 0.0}, {"lat": 38.90010633333333, "is_disabled": 0, "type": "electric_scooter", "lon": -76.92233516666667, "bike_id": "7de382b73bf27d3d0707c221e5ce3469", "fusion_lat": 0.0, "name": "7de382b73bf27d3d0707c221e5ce3469", "is_reserved": 0, "rental_uris": {"android": "https://dc.lft.to/lastmile_qr_scan", "ios": "https://dc.lft.to/lastmile_qr_scan"}, "fusion_lon": 0.0}, {"lat": 38.9069115, "is_disabled": 0, "type": "electric_scooter", "lon": -77.03528766666666, "bike_id": "90fe7278a66f15a2c3f2c5d7dc18b516", "fusion_lat": 0.0, "name": "90fe7278a66f15a2c3f2c5d7dc18b516", "is_reserved": 0, "rental_uris": {"android": "https://dc.lft.to/lastmile_qr_scan", "ios": "https://dc.lft.to/lastmile_qr_scan"}, "fusion_lon": 0.0}, {"lat": 38.918917666666665, "is_disabled": 0, "type": "electric_scooter", "lon": -77.02441833333333, "bike_id": "d2146af558a9114bb06e5c5e8004380f", "fusion_lat": 0.0, "name": "d2146af558a9114bb06e5c5e8004380f", "is_reserved": 0, "rental_uris": {"android": "https://dc.lft.to/lastmile_qr_scan", "ios": "https://dc.lft.to/lastmile_qr_scan"}, "fusion_lon": 0.0}, {"lat": 38.915592, "is_disabled": 0, "type": "electric_scooter", "lon": -77.02048166666667, "bike_id": "9aec680c211090081799b9982526d9e8", "fusion_lat": 0.0, "name": "9aec680c211090081799b9982526d9e8", "is_reserved": 0, "rental_uris": {"android": "https://dc.lft.to/lastmile_qr_scan", "ios": "https://dc.lft.to/lastmile_qr_scan"}, "fusion_lon": 0.0}, {"lat": 38.92543083333333, "is_disabled": 0, "type": "electric_scooter", "lon": -77.05238233333333, "bike_id": "a788e6cbd90dae587e58b3c97f31c270", "fusion_lat": 0.0, "name": "a788e6cbd90dae587e58b3c97f31c270", "is_reserved": 0, "rental_uris": {"android": "https://dc.lft.to/lastmile_qr_scan", "ios": "https://dc.lft.to/lastmile_qr_scan"}, "fusion_lon": 0.0}, {"lat": 38.9166775, "is_disabled": 0, "type": "electric_scooter", "lon": -77.04375633333333, "bike_id": "8f9577830c6b155af0d5f5808b7079c2", "fusion_lat": 0.0, "name": "8f9577830c6b155af0d5f5808b7079c2", "is_reserved": 0, "rental_uris": {"android": "https://dc.lft.to/lastmile_qr_scan", "ios": "https://dc.lft.to/lastmile_qr_scan"}, "fusion_lon": 0.0}, {"lat": 38.929727166666666, "is_disabled": 0, "type": "electric_scooter", "lon": -77.02791966666666, "bike_id": "71008b4bba2d6234902f221f4c45262c", "fusion_lat": 0.0, "name": "71008b4bba2d6234902f221f4c45262c", "is_reserved": 0, "rental_uris": {"android": "https://dc.lft.to/lastmile_qr_scan", "ios": "https://dc.lft.to/lastmile_qr_scan"}, "fusion_lon": 0.0}, {"lat": 38.9396555, "is_disabled": 0, "type": "electric_scooter", "lon": -77.0275345, "bike_id": "d2a12ee004fd029a639262b2041cb8fe", "fusion_lat": 0.0, "name": "d2a12ee004fd029a639262b2041cb8fe", "is_reserved": 0, "rental_uris": {"android": "https://dc.lft.to/lastmile_qr_scan", "ios": "https://dc.lft.to/lastmile_qr_scan"}, "fusion_lon": 0.0}, {"lat": 38.90063633333333, "is_disabled": 0, "type": "electric_scooter", "lon": -77.02603166666667, "bike_id": "286f83e1b5bb0e3222130847fc4fb291", "fusion_lat": 0.0, "name": "286f83e1b5bb0e3222130847fc4fb291", "is_reserved": 0, "rental_uris": {"android": "https://dc.lft.to/lastmile_qr_scan", "ios": "https://dc.lft.to/lastmile_qr_scan"}, "fusion_lon": 0.0}, {"lat": 38.8984935, "is_disabled": 0, "type": "electric_scooter", "lon": -77.0291245, "bike_id": "3be775d8afc3eeb3fc6f7eff0a7ae1f9", "fusion_lat": 0.0, "name": "3be775d8afc3eeb3fc6f7eff0a7ae1f9", "is_reserved": 0, "rental_uris": {"android": "https://dc.lft.to/lastmile_qr_scan", "ios": "https://dc.lft.to/lastmile_qr_scan"}, "fusion_lon": 0.0}, {"lat": 38.92766183333333, "is_disabled": 0, "type": "electric_scooter", "lon": -77.00596116666667, "bike_id": "cd4f3966c8bebec40d32e465ff3ef9d9", "fusion_lat": 0.0, "name": "cd4f3966c8bebec40d32e465ff3ef9d9", "is_reserved": 0, "rental_uris": {"android": "https://dc.lft.to/lastmile_qr_scan", "ios": "https://dc.lft.to/lastmile_qr_scan"}, "fusion_lon": 0.0}, {"lat": 38.962755, "is_disabled": 0, "type": "electric_bike", "lon": -77.0324635, "bike_id": "fc86fb103a3a70b3eac25b3777bde4f8", "fusion_lat": 0.0, "name": "fc86fb103a3a70b3eac25b3777bde4f8", "is_reserved": 0, "rental_uris": {"android": "https://dc.lft.to/lastmile_qr_scan", "ios": "https://dc.lft.to/lastmile_qr_scan"}, "fusion_lon": 0.0}, {"lat": 38.9196485, "is_disabled": 0, "type": "electric_bike", "lon": -76.97261633333333, "bike_id": "b8535a2a7a30a851787212d146bf0d94", "fusion_lat": 0.0, "name": "b8535a2a7a30a851787212d146bf0d94", "is_reserved": 0, "rental_uris": {"android": "https://dc.lft.to/lastmile_qr_scan", "ios": "https://dc.lft.to/lastmile_qr_scan"}, "fusion_lon": 0.0}, {"lat": 38.95615016666667, "is_disabled": 0, "type": "electric_scooter", "lon": -77.027797, "bike_id": "ad0d4513db307b71d8fb860304067570", "fusion_lat": 0.0, "name": "ad0d4513db307b71d8fb860304067570", "is_reserved": 0, "rental_uris": {"android": "https://dc.lft.to/lastmile_qr_scan", "ios": "https://dc.lft.to/lastmile_qr_scan"}, "fusion_lon": 0.0}, {"lat": 38.89776033333333, "is_disabled": 0, "type": "electric_scooter", "lon": -77.04353566666667, "bike_id": "4a808404e8db96c02b5fdc2352537bf2", "fusion_lat": 0.0, "name": "4a808404e8db96c02b5fdc2352537bf2", "is_reserved": 0, "rental_uris": {"android": "https://dc.lft.to/lastmile_qr_scan", "ios": "https://dc.lft.to/lastmile_qr_scan"}, "fusion_lon": 0.0}, {"lat": 38.93009466666667, "is_disabled": 0, "type": "electric_bike", "lon": -77.216492, "bike_id": "ea99b1998a7d797c7f2dff5c53d77e1c", "fusion_lat": 0.0, "name": "ea99b1998a7d797c7f2dff5c53d77e1c", "is_reserved": 0, "rental_uris": {"android": "https://dc.lft.to/lastmile_qr_scan", "ios": "https://dc.lft.to/lastmile_qr_scan"}, "fusion_lon": 0.0}, {"lat": 38.902138, "is_disabled": 0, "type": "electric_scooter", "lon": -76.94587083333333, "bike_id": "02cffca378ae46e928354e78b186a7a6", "fusion_lat": 0.0, "name": "02cffca378ae46e928354e78b186a7a6", "is_reserved": 0, "rental_uris": {"android": "https://dc.lft.to/lastmile_qr_scan", "ios": "https://dc.lft.to/lastmile_qr_scan"}, "fusion_lon": 0.0}, {"lat": 38.9337695, "is_disabled": 0, "type": "electric_scooter", "lon": -77.03798283333333, "bike_id": "2b9afdb033dc4b1b1edca8736f9f6861", "fusion_lat": 0.0, "name": "2b9afdb033dc4b1b1edca8736f9f6861", "is_reserved": 0, "rental_uris": {"android": "https://dc.lft.to/lastmile_qr_scan", "ios": "https://dc.lft.to/lastmile_qr_scan"}, "fusion_lon": 0.0}, {"lat": 38.95769, "is_disabled": 0, "type": "electric_bike", "lon": -77.0115625, "bike_id": "ac43cdc6b85712701702ab1a53bf02b1", "fusion_lat": 0.0, "name": "ac43cdc6b85712701702ab1a53bf02b1", "is_reserved": 0, "rental_uris": {"android": "https://dc.lft.to/lastmile_qr_scan", "ios": "https://dc.lft.to/lastmile_qr_scan"}, "fusion_lon": 0.0}, {"lat": 38.91257933333333, "is_disabled": 0, "type": "electric_scooter", "lon": -76.9835345, "bike_id": "8d11b6d387787120aefcf6ffdfb6e9dc", "fusion_lat": 0.0, "name": "8d11b6d387787120aefcf6ffdfb6e9dc", "is_reserved": 0, "rental_uris": {"android": "https://dc.lft.to/lastmile_qr_scan", "ios": "https://dc.lft.to/lastmile_qr_scan"}, "fusion_lon": 0.0}, {"lat": 38.91190366666667, "is_disabled": 0, "type": "electric_scooter", "lon": -77.0321785, "bike_id": "be0d2d7dbc5e6a3d974c933bf666b91d", "fusion_lat": 0.0, "name": "be0d2d7dbc5e6a3d974c933bf666b91d", "is_reserved": 0, "rental_uris": {"android": "https://dc.lft.to/lastmile_qr_scan", "ios": "https://dc.lft.to/lastmile_qr_scan"}, "fusion_lon": 0.0}, {"lat": 38.9348155, "is_disabled": 0, "type": "electric_scooter", "lon": -77.05791283333333, "bike_id": "bf18adafbbc94e7b254d11f4ea33b461", "fusion_lat": 0.0, "name": "bf18adafbbc94e7b254d11f4ea33b461", "is_reserved": 0, "rental_uris": {"android": "https://dc.lft.to/lastmile_qr_scan", "ios": "https://dc.lft.to/lastmile_qr_scan"}, "fusion_lon": 0.0}, {"lat": 38.85807233333333, "is_disabled": 0, "type": "electric_scooter", "lon": -76.9865305, "bike_id": "02a3de0e7a328efaa18b7a02f7450204", "fusion_lat": 0.0, "name": "02a3de0e7a328efaa18b7a02f7450204", "is_reserved": 0, "rental_uris": {"android": "https://dc.lft.to/lastmile_qr_scan", "ios": "https://dc.lft.to/lastmile_qr_scan"}, "fusion_lon": 0.0}, {"lat": 38.96611866666667, "is_disabled": 0, "type": "electric_scooter", "lon": -77.0204995, "bike_id": "3406d87ea4c72a8f4d4a2d103d0b7642", "fusion_lat": 0.0, "name": "3406d87ea4c72a8f4d4a2d103d0b7642", "is_reserved": 0, "rental_uris": {"android": "https://dc.lft.to/lastmile_qr_scan", "ios": "https://dc.lft.to/lastmile_qr_scan"}, "fusion_lon": 0.0}, {"lat": 38.90015866666667, "is_disabled": 0, "type": "electric_scooter", "lon": -76.99866033333333, "bike_id": "28a7d8bb108cb7ea766dd126c572f1c9", "fusion_lat": 0.0, "name": "28a7d8bb108cb7ea766dd126c572f1c9", "is_reserved": 0, "rental_uris": {"android": "https://dc.lft.to/lastmile_qr_scan", "ios": "https://dc.lft.to/lastmile_qr_scan"}, "fusion_lon": 0.0}, {"lat": 38.9236715, "is_disabled": 0, "type": "electric_scooter", "lon": -77.04028583333333, "bike_id": "c04e9825f0df8d80dd0b727e07c09aaa", "fusion_lat": 0.0, "name": "c04e9825f0df8d80dd0b727e07c09aaa", "is_reserved": 0, "rental_uris": {"android": "https://dc.lft.to/lastmile_qr_scan", "ios": "https://dc.lft.to/lastmile_qr_scan"}, "fusion_lon": 0.0}, {"lat": 38.860949833333336, "is_disabled": 0, "type": "electric_scooter", "lon": -76.98373766666667, "bike_id": "5ea5d5f4e65b5485f3875cc1ef4f30fd", "fusion_lat": 0.0, "name": "5ea5d5f4e65b5485f3875cc1ef4f30fd", "is_reserved": 0, "rental_uris": {"android": "https://dc.lft.to/lastmile_qr_scan", "ios": "https://dc.lft.to/lastmile_qr_scan"}, "fusion_lon": 0.0}, {"lat": 38.91263516666667, "is_disabled": 0, "type": "electric_scooter", "lon": -77.03234933333333, "bike_id": "c86fc44183dc64c8d56d209a2d9072a1", "fusion_lat": 0.0, "name": "c86fc44183dc64c8d56d209a2d9072a1", "is_reserved": 0, "rental_uris": {"android": "https://dc.lft.to/lastmile_qr_scan", "ios": "https://dc.lft.to/lastmile_qr_scan"}, "fusion_lon": 0.0}, {"lat": 38.86386016666667, "is_disabled": 0, "type": "electric_scooter", "lon": -76.99249183333333, "bike_id": "1c13bf86a2c60cb86f8c0f1294712bfc", "fusion_lat": 0.0, "name": "1c13bf86a2c60cb86f8c0f1294712bfc", "is_reserved": 0, "rental_uris": {"android": "https://dc.lft.to/lastmile_qr_scan", "ios": "https://dc.lft.to/lastmile_qr_scan"}, "fusion_lon": 0.0}, {"lat": 38.909774666666664, "is_disabled": 0, "type": "electric_scooter", "lon": -77.033759, "bike_id": "2ee559c0ad3bd309a29f456d59e84d33", "fusion_lat": 0.0, "name": "2ee559c0ad3bd309a29f456d59e84d33", "is_reserved": 0, "rental_uris": {"android": "https://dc.lft.to/lastmile_qr_scan", "ios": "https://dc.lft.to/lastmile_qr_scan"}, "fusion_lon": 0.0}, {"lat": 38.924456, "is_disabled": 0, "type": "electric_scooter", "lon": -77.02040466666666, "bike_id": "fdc4b5505bb75f921af166ab8f13eb60", "fusion_lat": 0.0, "name": "fdc4b5505bb75f921af166ab8f13eb60", "is_reserved": 0, "rental_uris": {"android": "https://dc.lft.to/lastmile_qr_scan", "ios": "https://dc.lft.to/lastmile_qr_scan"}, "fusion_lon": 0.0}, {"lat": 38.92787966666667, "is_disabled": 0, "type": "electric_bike", "lon": -76.97219, "bike_id": "102ba0e30d86fe214c7b90f2bad82668", "fusion_lat": 0.0, "name": "102ba0e30d86fe214c7b90f2bad82668", "is_reserved": 0, "rental_uris": {"android": "https://dc.lft.to/lastmile_qr_scan", "ios": "https://dc.lft.to/lastmile_qr_scan"}, "fusion_lon": 0.0}, {"lat": 38.94310816666667, "is_disabled": 0, "type": "electric_scooter", "lon": -77.05931316666667, "bike_id": "f6600e5e6a4659c4dab30cd64a7c4244", "fusion_lat": 0.0, "name": "f6600e5e6a4659c4dab30cd64a7c4244", "is_reserved": 0, "rental_uris": {"android": "https://dc.lft.to/lastmile_qr_scan", "ios": "https://dc.lft.to/lastmile_qr_scan"}, "fusion_lon": 0.0}, {"lat": 38.97840466666667, "is_disabled": 0, "type": "electric_bike", "lon": -77.02642866666666, "bike_id": "0d0c23095e17b70bcd0020f766c67169", "fusion_lat": 0.0, "name": "0d0c23095e17b70bcd0020f766c67169", "is_reserved": 0, "rental_uris": {"android": "https://dc.lft.to/lastmile_qr_scan", "ios": "https://dc.lft.to/lastmile_qr_scan"}, "fusion_lon": 0.0}, {"lat": 38.899924, "is_disabled": 0, "type": "electric_scooter", "lon": -77.02146916666666, "bike_id": "71b23b1837891676a3b901f8345e1df5", "fusion_lat": 0.0, "name": "71b23b1837891676a3b901f8345e1df5", "is_reserved": 0, "rental_uris": {"android": "https://dc.lft.to/lastmile_qr_scan", "ios": "https://dc.lft.to/lastmile_qr_scan"}, "fusion_lon": 0.0}, {"lat": 38.90143716666667, "is_disabled": 0, "type": "electric_scooter", "lon": -77.04437166666666, "bike_id": "fc7be05229984fb7eb62b97e46966eb9", "fusion_lat": 0.0, "name": "fc7be05229984fb7eb62b97e46966eb9", "is_reserved": 0, "rental_uris": {"android": "https://dc.lft.to/lastmile_qr_scan", "ios": "https://dc.lft.to/lastmile_qr_scan"}, "fusion_lon": 0.0}, {"lat": 38.867102833333334, "is_disabled": 0, "type": "electric_scooter", "lon": -77.01005716666667, "bike_id": "99d65876decd0f7f5fce810a04afe5f8", "fusion_lat": 0.0, "name": "99d65876decd0f7f5fce810a04afe5f8", "is_reserved": 0, "rental_uris": {"android": "https://dc.lft.to/lastmile_qr_scan", "ios": "https://dc.lft.to/lastmile_qr_scan"}, "fusion_lon": 0.0}, {"lat": 38.855902, "is_disabled": 0, "type": "electric_bike", "lon": -77.11299783333334, "bike_id": "48a035fbad3abc1f960475f43b5f97f6", "fusion_lat": 0.0, "name": "48a035fbad3abc1f960475f43b5f97f6", "is_reserved": 0, "rental_uris": {"android": "https://dc.lft.to/lastmile_qr_scan", "ios": "https://dc.lft.to/lastmile_qr_scan"}, "fusion_lon": 0.0}, {"lat": 38.914019333333336, "is_disabled": 0, "type": "electric_scooter", "lon": -77.031879, "bike_id": "b560f54321b0a3157af0d11d3d3452b9", "fusion_lat": 0.0, "name": "b560f54321b0a3157af0d11d3d3452b9", "is_reserved": 0, "rental_uris": {"android": "https://dc.lft.to/lastmile_qr_scan", "ios": "https://dc.lft.to/lastmile_qr_scan"}, "fusion_lon": 0.0}, {"lat": 38.9154775, "is_disabled": 0, "type": "electric_scooter", "lon": -77.02954083333333, "bike_id": "6bc64d2fd2d130c86412487bd47388bf", "fusion_lat": 0.0, "name": "6bc64d2fd2d130c86412487bd47388bf", "is_reserved": 0, "rental_uris": {"android": "https://dc.lft.to/lastmile_qr_scan", "ios": "https://dc.lft.to/lastmile_qr_scan"}, "fusion_lon": 0.0}, {"lat": 38.904075166666665, "is_disabled": 0, "type": "electric_scooter", "lon": -77.02398816666667, "bike_id": "4dd4c69888b941336f0f8b3e12793c98", "fusion_lat": 0.0, "name": "4dd4c69888b941336f0f8b3e12793c98", "is_reserved": 0, "rental_uris": {"android": "https://dc.lft.to/lastmile_qr_scan", "ios": "https://dc.lft.to/lastmile_qr_scan"}, "fusion_lon": 0.0}, {"lat": 38.89555766666667, "is_disabled": 0, "type": "electric_scooter", "lon": -77.003654, "bike_id": "d9ff2215456222a2a2913a33b746731a", "fusion_lat": 0.0, "name": "d9ff2215456222a2a2913a33b746731a", "is_reserved": 0, "rental_uris": {"android": "https://dc.lft.to/lastmile_qr_scan", "ios": "https://dc.lft.to/lastmile_qr_scan"}, "fusion_lon": 0.0}, {"lat": 38.88260283333334, "is_disabled": 0, "type": "electric_scooter", "lon": -76.98821866666667, "bike_id": "481f2bdc0a5e5b90c41cf555a8d7d44b", "fusion_lat": 0.0, "name": "481f2bdc0a5e5b90c41cf555a8d7d44b", "is_reserved": 0, "rental_uris": {"android": "https://dc.lft.to/lastmile_qr_scan", "ios": "https://dc.lft.to/lastmile_qr_scan"}, "fusion_lon": 0.0}, {"lat": 38.942464666666666, "is_disabled": 0, "type": "electric_scooter", "lon": -77.03581266666667, "bike_id": "ea921821feb449467df6803fc54308b2", "fusion_lat": 0.0, "name": "ea921821feb449467df6803fc54308b2", "is_reserved": 0, "rental_uris": {"android": "https://dc.lft.to/lastmile_qr_scan", "ios": "https://dc.lft.to/lastmile_qr_scan"}, "fusion_lon": 0.0}, {"lat": 38.92979716666667, "is_disabled": 0, "type": "electric_scooter", "lon": -77.03828333333334, "bike_id": "5fc6e3915e64f929e44296a2ffa7bf9e", "fusion_lat": 0.0, "name": "5fc6e3915e64f929e44296a2ffa7bf9e", "is_reserved": 0, "rental_uris": {"android": "https://dc.lft.to/lastmile_qr_scan", "ios": "https://dc.lft.to/lastmile_qr_scan"}, "fusion_lon": 0.0}, {"lat": 38.91711816666667, "is_disabled": 0, "type": "electric_scooter", "lon": -77.04028483333333, "bike_id": "9383f537b72758851f20c2ac7fbbcc3e", "fusion_lat": 0.0, "name": "9383f537b72758851f20c2ac7fbbcc3e", "is_reserved": 0, "rental_uris": {"android": "https://dc.lft.to/lastmile_qr_scan", "ios": "https://dc.lft.to/lastmile_qr_scan"}, "fusion_lon": 0.0}, {"lat": 38.89496783333333, "is_disabled": 0, "type": "electric_scooter", "lon": -77.002131, "bike_id": "dfcb224905fcf823e5cb34a8104712ac", "fusion_lat": 0.0, "name": "dfcb224905fcf823e5cb34a8104712ac", "is_reserved": 0, "rental_uris": {"android": "https://dc.lft.to/lastmile_qr_scan", "ios": "https://dc.lft.to/lastmile_qr_scan"}, "fusion_lon": 0.0}, {"lat": 38.905168333333336, "is_disabled": 0, "type": "electric_scooter", "lon": -77.04482683333333, "bike_id": "c420f74e5796517862051a825ec96335", "fusion_lat": 0.0, "name": "c420f74e5796517862051a825ec96335", "is_reserved": 0, "rental_uris": {"android": "https://dc.lft.to/lastmile_qr_scan", "ios": "https://dc.lft.to/lastmile_qr_scan"}, "fusion_lon": 0.0}, {"lat": 38.94227016666667, "is_disabled": 0, "type": "electric_scooter", "lon": -77.02512066666667, "bike_id": "7525be5c6f6b84226bd5ba000f4284a5", "fusion_lat": 0.0, "name": "7525be5c6f6b84226bd5ba000f4284a5", "is_reserved": 0, "rental_uris": {"android": "https://dc.lft.to/lastmile_qr_scan", "ios": "https://dc.lft.to/lastmile_qr_scan"}, "fusion_lon": 0.0}, {"lat": 38.919822, "is_disabled": 0, "type": "electric_scooter", "lon": -77.02491116666667, "bike_id": "36490ee4a8c8ec42740db00f162a174b", "fusion_lat": 0.0, "name": "36490ee4a8c8ec42740db00f162a174b", "is_reserved": 0, "rental_uris": {"android": "https://dc.lft.to/lastmile_qr_scan", "ios": "https://dc.lft.to/lastmile_qr_scan"}, "fusion_lon": 0.0}, {"lat": 38.905274166666665, "is_disabled": 0, "type": "electric_scooter", "lon": -77.06145416666666, "bike_id": "d4dec6d8b1a1f39c220903f37f9eb841", "fusion_lat": 0.0, "name": "d4dec6d8b1a1f39c220903f37f9eb841", "is_reserved": 0, "rental_uris": {"android": "https://dc.lft.to/lastmile_qr_scan", "ios": "https://dc.lft.to/lastmile_qr_scan"}, "fusion_lon": 0.0}, {"lat": 38.90256016666667, "is_disabled": 0, "type": "electric_scooter", "lon": -77.01746833333333, "bike_id": "42c10163e1bccc52f3fb120f52322a63", "fusion_lat": 0.0, "name": "42c10163e1bccc52f3fb120f52322a63", "is_reserved": 0, "rental_uris": {"android": "https://dc.lft.to/lastmile_qr_scan", "ios": "https://dc.lft.to/lastmile_qr_scan"}, "fusion_lon": 0.0}, {"lat": 38.922506, "is_disabled": 0, "type": "electric_scooter", "lon": -77.030823, "bike_id": "e9fdb1a7803e2202b5d4cc9e91f06e06", "fusion_lat": 0.0, "name": "e9fdb1a7803e2202b5d4cc9e91f06e06", "is_reserved": 0, "rental_uris": {"android": "https://dc.lft.to/lastmile_qr_scan", "ios": "https://dc.lft.to/lastmile_qr_scan"}, "fusion_lon": 0.0}, {"lat": 38.9268615, "is_disabled": 0, "type": "electric_scooter", "lon": -77.0373545, "bike_id": "9d0610d7d749d7297bc29af9d2cfe0a8", "fusion_lat": 0.0, "name": "9d0610d7d749d7297bc29af9d2cfe0a8", "is_reserved": 0, "rental_uris": {"android": "https://dc.lft.to/lastmile_qr_scan", "ios": "https://dc.lft.to/lastmile_qr_scan"}, "fusion_lon": 0.0}, {"lat": 38.91569883333333, "is_disabled": 0, "type": "electric_scooter", "lon": -77.01166416666666, "bike_id": "415e2174999a2de316763a8e3a011e26", "fusion_lat": 0.0, "name": "415e2174999a2de316763a8e3a011e26", "is_reserved": 0, "rental_uris": {"android": "https://dc.lft.to/lastmile_qr_scan", "ios": "https://dc.lft.to/lastmile_qr_scan"}, "fusion_lon": 0.0}, {"lat": 38.9197845, "is_disabled": 0, "type": "electric_scooter", "lon": -77.00019683333333, "bike_id": "738b46e37a5171acb454b9660ecee5d6", "fusion_lat": 0.0, "name": "738b46e37a5171acb454b9660ecee5d6", "is_reserved": 0, "rental_uris": {"android": "https://dc.lft.to/lastmile_qr_scan", "ios": "https://dc.lft.to/lastmile_qr_scan"}, "fusion_lon": 0.0}, {"lat": 38.954953833333335, "is_disabled": 0, "type": "electric_scooter", "lon": -77.06567383333334, "bike_id": "b32bb6cc469b1117ec9fd6994a771ef1", "fusion_lat": 0.0, "name": "b32bb6cc469b1117ec9fd6994a771ef1", "is_reserved": 0, "rental_uris": {"android": "https://dc.lft.to/lastmile_qr_scan", "ios": "https://dc.lft.to/lastmile_qr_scan"}, "fusion_lon": 0.0}, {"lat": 38.8996495, "is_disabled": 0, "type": "electric_scooter", "lon": -77.01622433333333, "bike_id": "74d3110471422bfe8579d15ce42dacbd", "fusion_lat": 0.0, "name": "74d3110471422bfe8579d15ce42dacbd", "is_reserved": 0, "rental_uris": {"android": "https://dc.lft.to/lastmile_qr_scan", "ios": "https://dc.lft.to/lastmile_qr_scan"}, "fusion_lon": 0.0}, {"lat": 38.95881716666667, "is_disabled": 0, "type": "electric_bike", "lon": -76.92486333333333, "bike_id": "9ecd4441e273dea687b9062695d70d9d", "fusion_lat": 0.0, "name": "9ecd4441e273dea687b9062695d70d9d", "is_reserved": 0, "rental_uris": {"android": "https://dc.lft.to/lastmile_qr_scan", "ios": "https://dc.lft.to/lastmile_qr_scan"}, "fusion_lon": 0.0}, {"lat": 38.9167975, "is_disabled": 0, "type": "electric_scooter", "lon": -77.00199416666666, "bike_id": "9e246f79d9725fe5d7875ec47fe1e134", "fusion_lat": 0.0, "name": "9e246f79d9725fe5d7875ec47fe1e134", "is_reserved": 0, "rental_uris": {"android": "https://dc.lft.to/lastmile_qr_scan", "ios": "https://dc.lft.to/lastmile_qr_scan"}, "fusion_lon": 0.0}, {"lat": 38.9061915, "is_disabled": 0, "type": "electric_scooter", "lon": -77.06278566666667, "bike_id": "4d0c65b30c0f8afdfe53d138dce0863c", "fusion_lat": 0.0, "name": "4d0c65b30c0f8afdfe53d138dce0863c", "is_reserved": 0, "rental_uris": {"android": "https://dc.lft.to/lastmile_qr_scan", "ios": "https://dc.lft.to/lastmile_qr_scan"}, "fusion_lon": 0.0}, {"lat": 38.92480333333334, "is_disabled": 0, "type": "electric_scooter", "lon": -77.0306605, "bike_id": "c1c198606b3778d44846303e8e6af2a2", "fusion_lat": 0.0, "name": "c1c198606b3778d44846303e8e6af2a2", "is_reserved": 0, "rental_uris": {"android": "https://dc.lft.to/lastmile_qr_scan", "ios": "https://dc.lft.to/lastmile_qr_scan"}, "fusion_lon": 0.0}, {"lat": 38.98822416666667, "is_disabled": 0, "type": "electric_bike", "lon": -76.99653116666667, "bike_id": "5b8e93927f5dbd668a83177729c2ba24", "fusion_lat": 0.0, "name": "5b8e93927f5dbd668a83177729c2ba24", "is_reserved": 0, "rental_uris": {"android": "https://dc.lft.to/lastmile_qr_scan", "ios": "https://dc.lft.to/lastmile_qr_scan"}, "fusion_lon": 0.0}, {"lat": 38.883630333333336, "is_disabled": 0, "type": "electric_scooter", "lon": -76.941555, "bike_id": "96978628860f5cb96fed4221ca0b7087", "fusion_lat": 0.0, "name": "96978628860f5cb96fed4221ca0b7087", "is_reserved": 0, "rental_uris": {"android": "https://dc.lft.to/lastmile_qr_scan", "ios": "https://dc.lft.to/lastmile_qr_scan"}, "fusion_lon": 0.0}, {"lat": 38.917710666666665, "is_disabled": 0, "type": "electric_scooter", "lon": -76.97615, "bike_id": "8809ec140346525fdbe4d7cfc9e5096f", "fusion_lat": 0.0, "name": "8809ec140346525fdbe4d7cfc9e5096f", "is_reserved": 0, "rental_uris": {"android": "https://dc.lft.to/lastmile_qr_scan", "ios": "https://dc.lft.to/lastmile_qr_scan"}, "fusion_lon": 0.0}, {"lat": 38.9025225, "is_disabled": 0, "type": "electric_scooter", "lon": -77.03463916666666, "bike_id": "37b52664cdb671d1bcfe5be008b4e027", "fusion_lat": 0.0, "name": "37b52664cdb671d1bcfe5be008b4e027", "is_reserved": 0, "rental_uris": {"android": "https://dc.lft.to/lastmile_qr_scan", "ios": "https://dc.lft.to/lastmile_qr_scan"}, "fusion_lon": 0.0}, {"lat": 38.94121166666667, "is_disabled": 0, "type": "electric_scooter", "lon": -77.00079366666667, "bike_id": "be25d89048a5a96aa5db44fb13351207", "fusion_lat": 0.0, "name": "be25d89048a5a96aa5db44fb13351207", "is_reserved": 0, "rental_uris": {"android": "https://dc.lft.to/lastmile_qr_scan", "ios": "https://dc.lft.to/lastmile_qr_scan"}, "fusion_lon": 0.0}, {"lat": 38.903656833333336, "is_disabled": 0, "type": "electric_scooter", "lon": -77.00341566666667, "bike_id": "9f216ab40b9fb11eb2754783d2d0508c", "fusion_lat": 0.0, "name": "9f216ab40b9fb11eb2754783d2d0508c", "is_reserved": 0, "rental_uris": {"android": "https://dc.lft.to/lastmile_qr_scan", "ios": "https://dc.lft.to/lastmile_qr_scan"}, "fusion_lon": 0.0}, {"lat": 38.93412716666667, "is_disabled": 0, "type": "electric_scooter", "lon": -77.032865, "bike_id": "364978b38813bbd2acedf7b9efc0c153", "fusion_lat": 0.0, "name": "364978b38813bbd2acedf7b9efc0c153", "is_reserved": 0, "rental_uris": {"android": "https://dc.lft.to/lastmile_qr_scan", "ios": "https://dc.lft.to/lastmile_qr_scan"}, "fusion_lon": 0.0}, {"lat": 38.92631316666667, "is_disabled": 0, "type": "electric_scooter", "lon": -77.03788133333333, "bike_id": "9924a1839dab7d950b4792c040d6d03e", "fusion_lat": 0.0, "name": "9924a1839dab7d950b4792c040d6d03e", "is_reserved": 0, "rental_uris": {"android": "https://dc.lft.to/lastmile_qr_scan", "ios": "https://dc.lft.to/lastmile_qr_scan"}, "fusion_lon": 0.0}, {"lat": 38.92417716666667, "is_disabled": 0, "type": "electric_scooter", "lon": -77.02736166666666, "bike_id": "82d987fecab9b2364ad44cc7b17344ae", "fusion_lat": 0.0, "name": "82d987fecab9b2364ad44cc7b17344ae", "is_reserved": 0, "rental_uris": {"android": "https://dc.lft.to/lastmile_qr_scan", "ios": "https://dc.lft.to/lastmile_qr_scan"}, "fusion_lon": 0.0}, {"lat": 38.916269, "is_disabled": 0, "type": "electric_scooter", "lon": -77.0317035, "bike_id": "4dc9fe4d4160e776922997343cbb9f78", "fusion_lat": 0.0, "name": "4dc9fe4d4160e776922997343cbb9f78", "is_reserved": 0, "rental_uris": {"android": "https://dc.lft.to/lastmile_qr_scan", "ios": "https://dc.lft.to/lastmile_qr_scan"}, "fusion_lon": 0.0}, {"lat": 38.90272133333333, "is_disabled": 0, "type": "electric_scooter", "lon": -77.034437, "bike_id": "0514a455cd22096318f15ff48f7e560b", "fusion_lat": 0.0, "name": "0514a455cd22096318f15ff48f7e560b", "is_reserved": 0, "rental_uris": {"android": "https://dc.lft.to/lastmile_qr_scan", "ios": "https://dc.lft.to/lastmile_qr_scan"}, "fusion_lon": 0.0}, {"lat": 38.90266833333333, "is_disabled": 0, "type": "electric_scooter", "lon": -77.04034383333334, "bike_id": "f8b411092c63deabe03e7e248d4c3f5b", "fusion_lat": 0.0, "name": "f8b411092c63deabe03e7e248d4c3f5b", "is_reserved": 0, "rental_uris": {"android": "https://dc.lft.to/lastmile_qr_scan", "ios": "https://dc.lft.to/lastmile_qr_scan"}, "fusion_lon": 0.0}, {"lat": 38.9035875, "is_disabled": 0, "type": "electric_scooter", "lon": -77.0420395, "bike_id": "4c1f6a9c18afc2df975f62f036af3fa7", "fusion_lat": 0.0, "name": "4c1f6a9c18afc2df975f62f036af3fa7", "is_reserved": 0, "rental_uris": {"android": "https://dc.lft.to/lastmile_qr_scan", "ios": "https://dc.lft.to/lastmile_qr_scan"}, "fusion_lon": 0.0}, {"lat": 38.889198666666665, "is_disabled": 0, "type": "electric_scooter", "lon": -76.99743116666667, "bike_id": "bf64ba7e8d9cbd6eecff6cf931d8c8b5", "fusion_lat": 0.0, "name": "bf64ba7e8d9cbd6eecff6cf931d8c8b5", "is_reserved": 0, "rental_uris": {"android": "https://dc.lft.to/lastmile_qr_scan", "ios": "https://dc.lft.to/lastmile_qr_scan"}, "fusion_lon": 0.0}, {"lat": 38.917025833333334, "is_disabled": 0, "type": "electric_scooter", "lon": -77.0310595, "bike_id": "5846c074a44ea6165501a1e3152aa596", "fusion_lat": 0.0, "name": "5846c074a44ea6165501a1e3152aa596", "is_reserved": 0, "rental_uris": {"android": "https://dc.lft.to/lastmile_qr_scan", "ios": "https://dc.lft.to/lastmile_qr_scan"}, "fusion_lon": 0.0}, {"lat": 38.8446605, "is_disabled": 0, "type": "electric_bike", "lon": -76.9875205, "bike_id": "da4c4d2a5a9c2efc301fe3bf6d016e89", "fusion_lat": 0.0, "name": "da4c4d2a5a9c2efc301fe3bf6d016e89", "is_reserved": 0, "rental_uris": {"android": "https://dc.lft.to/lastmile_qr_scan", "ios": "https://dc.lft.to/lastmile_qr_scan"}, "fusion_lon": 0.0}, {"lat": 38.859299666666665, "is_disabled": 0, "type": "electric_scooter", "lon": -76.99716366666667, "bike_id": "1cdd3851c2e6f5b0c64cb4c03c034901", "fusion_lat": 0.0, "name": "1cdd3851c2e6f5b0c64cb4c03c034901", "is_reserved": 0, "rental_uris": {"android": "https://dc.lft.to/lastmile_qr_scan", "ios": "https://dc.lft.to/lastmile_qr_scan"}, "fusion_lon": 0.0}, {"lat": 38.83419, "is_disabled": 0, "type": "electric_bike", "lon": -77.10373616666666, "bike_id": "e09e1edc8d6d209e4aca42e9c5e289ab", "fusion_lat": 0.0, "name": "e09e1edc8d6d209e4aca42e9c5e289ab", "is_reserved": 0, "rental_uris": {"android": "https://dc.lft.to/lastmile_qr_scan", "ios": "https://dc.lft.to/lastmile_qr_scan"}, "fusion_lon": 0.0}, {"lat": 38.876299, "is_disabled": 0, "type": "electric_scooter", "lon": -76.96531116666667, "bike_id": "616e16f92acd47e3171c15cf6850da3c", "fusion_lat": 0.0, "name": "616e16f92acd47e3171c15cf6850da3c", "is_reserved": 0, "rental_uris": {"android": "https://dc.lft.to/lastmile_qr_scan", "ios": "https://dc.lft.to/lastmile_qr_scan"}, "fusion_lon": 0.0}, {"lat": 38.9323615, "is_disabled": 0, "type": "electric_scooter", "lon": -77.03092483333333, "bike_id": "bc8b21e7f3f7be12c062463c37beec01", "fusion_lat": 0.0, "name": "bc8b21e7f3f7be12c062463c37beec01", "is_reserved": 0, "rental_uris": {"android": "https://dc.lft.to/lastmile_qr_scan", "ios": "https://dc.lft.to/lastmile_qr_scan"}, "fusion_lon": 0.0}, {"lat": 38.865221166666664, "is_disabled": 0, "type": "electric_scooter", "lon": -76.990279, "bike_id": "40f0a8220db5a0af9eca01c2793273ce", "fusion_lat": 0.0, "name": "40f0a8220db5a0af9eca01c2793273ce", "is_reserved": 0, "rental_uris": {"android": "https://dc.lft.to/lastmile_qr_scan", "ios": "https://dc.lft.to/lastmile_qr_scan"}, "fusion_lon": 0.0}, {"lat": 38.905811666666665, "is_disabled": 0, "type": "electric_scooter", "lon": -77.00887316666666, "bike_id": "6e8599042e39b92757c929c980c14337", "fusion_lat": 0.0, "name": "6e8599042e39b92757c929c980c14337", "is_reserved": 0, "rental_uris": {"android": "https://dc.lft.to/lastmile_qr_scan", "ios": "https://dc.lft.to/lastmile_qr_scan"}, "fusion_lon": 0.0}, {"lat": 38.909907833333335, "is_disabled": 0, "type": "electric_scooter", "lon": -76.9973815, "bike_id": "313130a56617026d475ab25eb8a96371", "fusion_lat": 0.0, "name": "313130a56617026d475ab25eb8a96371", "is_reserved": 0, "rental_uris": {"android": "https://dc.lft.to/lastmile_qr_scan", "ios": "https://dc.lft.to/lastmile_qr_scan"}, "fusion_lon": 0.0}, {"lat": 38.88134816666667, "is_disabled": 0, "type": "electric_scooter", "lon": -76.9872055, "bike_id": "abcedbe149ba9e155b970796637d139a", "fusion_lat": 0.0, "name": "abcedbe149ba9e155b970796637d139a", "is_reserved": 0, "rental_uris": {"android": "https://dc.lft.to/lastmile_qr_scan", "ios": "https://dc.lft.to/lastmile_qr_scan"}, "fusion_lon": 0.0}, {"lat": 38.917102, "is_disabled": 0, "type": "electric_scooter", "lon": -77.03031983333334, "bike_id": "83c25fc83520313adcffc5e4bf4aea7f", "fusion_lat": 0.0, "name": "83c25fc83520313adcffc5e4bf4aea7f", "is_reserved": 0, "rental_uris": {"android": "https://dc.lft.to/lastmile_qr_scan", "ios": "https://dc.lft.to/lastmile_qr_scan"}, "fusion_lon": 0.0}, {"lat": 38.93129966666667, "is_disabled": 0, "type": "electric_scooter", "lon": -77.02139983333333, "bike_id": "2b578ad2ade157597d761f23d269836d", "fusion_lat": 0.0, "name": "2b578ad2ade157597d761f23d269836d", "is_reserved": 0, "rental_uris": {"android": "https://dc.lft.to/lastmile_qr_scan", "ios": "https://dc.lft.to/lastmile_qr_scan"}, "fusion_lon": 0.0}, {"lat": 38.923461333333336, "is_disabled": 0, "type": "electric_scooter", "lon": -77.05170266666667, "bike_id": "4831ebd270cd0284c2ed4c12af6821e4", "fusion_lat": 0.0, "name": "4831ebd270cd0284c2ed4c12af6821e4", "is_reserved": 0, "rental_uris": {"android": "https://dc.lft.to/lastmile_qr_scan", "ios": "https://dc.lft.to/lastmile_qr_scan"}, "fusion_lon": 0.0}, {"lat": 38.866645, "is_disabled": 0, "type": "electric_scooter", "lon": -76.98904016666667, "bike_id": "b317e10c8a4da95b39ff8953bdcb681e", "fusion_lat": 0.0, "name": "b317e10c8a4da95b39ff8953bdcb681e", "is_reserved": 0, "rental_uris": {"android": "https://dc.lft.to/lastmile_qr_scan", "ios": "https://dc.lft.to/lastmile_qr_scan"}, "fusion_lon": 0.0}, {"lat": 38.90638466666667, "is_disabled": 0, "type": "electric_scooter", "lon": -77.008373, "bike_id": "4a169bc21d187cbbef066f608f194795", "fusion_lat": 0.0, "name": "4a169bc21d187cbbef066f608f194795", "is_reserved": 0, "rental_uris": {"android": "https://dc.lft.to/lastmile_qr_scan", "ios": "https://dc.lft.to/lastmile_qr_scan"}, "fusion_lon": 0.0}, {"lat": 38.91696616666667, "is_disabled": 0, "type": "electric_scooter", "lon": -77.02892933333334, "bike_id": "fc26be1dee1e1d550207bb453e374543", "fusion_lat": 0.0, "name": "fc26be1dee1e1d550207bb453e374543", "is_reserved": 0, "rental_uris": {"android": "https://dc.lft.to/lastmile_qr_scan", "ios": "https://dc.lft.to/lastmile_qr_scan"}, "fusion_lon": 0.0}, {"lat": 38.922272666666665, "is_disabled": 0, "type": "electric_scooter", "lon": -77.04241283333333, "bike_id": "a01919e4fffe3ded9dea017d0d6cc207", "fusion_lat": 0.0, "name": "a01919e4fffe3ded9dea017d0d6cc207", "is_reserved": 0, "rental_uris": {"android": "https://dc.lft.to/lastmile_qr_scan", "ios": "https://dc.lft.to/lastmile_qr_scan"}, "fusion_lon": 0.0}, {"lat": 38.90674516666667, "is_disabled": 0, "type": "electric_scooter", "lon": -77.0627065, "bike_id": "4b314b6f719ed8d37a1536dbfd45e8f7", "fusion_lat": 0.0, "name": "4b314b6f719ed8d37a1536dbfd45e8f7", "is_reserved": 0, "rental_uris": {"android": "https://dc.lft.to/lastmile_qr_scan", "ios": "https://dc.lft.to/lastmile_qr_scan"}, "fusion_lon": 0.0}, {"lat": 38.92443466666667, "is_disabled": 0, "type": "electric_scooter", "lon": -77.03357866666667, "bike_id": "57e36e79a9a480eee28f118b97b10ae3", "fusion_lat": 0.0, "name": "57e36e79a9a480eee28f118b97b10ae3", "is_reserved": 0, "rental_uris": {"android": "https://dc.lft.to/lastmile_qr_scan", "ios": "https://dc.lft.to/lastmile_qr_scan"}, "fusion_lon": 0.0}, {"lat": 38.9527335, "is_disabled": 0, "type": "electric_bike", "lon": -77.0698565, "bike_id": "481c2f1852a9460f36c95ffa0d19a3a7", "fusion_lat": 0.0, "name": "481c2f1852a9460f36c95ffa0d19a3a7", "is_reserved": 0, "rental_uris": {"android": "https://dc.lft.to/lastmile_qr_scan", "ios": "https://dc.lft.to/lastmile_qr_scan"}, "fusion_lon": 0.0}, {"lat": 38.930807333333334, "is_disabled": 0, "type": "electric_scooter", "lon": -77.03446933333333, "bike_id": "7d862758f8de01df52ebbd156721c6aa", "fusion_lat": 0.0, "name": "7d862758f8de01df52ebbd156721c6aa", "is_reserved": 0, "rental_uris": {"android": "https://dc.lft.to/lastmile_qr_scan", "ios": "https://dc.lft.to/lastmile_qr_scan"}, "fusion_lon": 0.0}, {"lat": 38.88724366666667, "is_disabled": 0, "type": "electric_scooter", "lon": -76.95470833333333, "bike_id": "70af5fbe559b5877d987a17fe8ac86d0", "fusion_lat": 0.0, "name": "70af5fbe559b5877d987a17fe8ac86d0", "is_reserved": 0, "rental_uris": {"android": "https://dc.lft.to/lastmile_qr_scan", "ios": "https://dc.lft.to/lastmile_qr_scan"}, "fusion_lon": 0.0}, {"lat": 38.918193333333335, "is_disabled": 0, "type": "electric_scooter", "lon": -77.041778, "bike_id": "7566ada9a24a9723866665e6653ad641", "fusion_lat": 0.0, "name": "7566ada9a24a9723866665e6653ad641", "is_reserved": 0, "rental_uris": {"android": "https://dc.lft.to/lastmile_qr_scan", "ios": "https://dc.lft.to/lastmile_qr_scan"}, "fusion_lon": 0.0}, {"lat": 38.906769, "is_disabled": 0, "type": "electric_scooter", "lon": -77.03516016666667, "bike_id": "ef983ac8e9420aff0c3456c4327a92cd", "fusion_lat": 0.0, "name": "ef983ac8e9420aff0c3456c4327a92cd", "is_reserved": 0, "rental_uris": {"android": "https://dc.lft.to/lastmile_qr_scan", "ios": "https://dc.lft.to/lastmile_qr_scan"}, "fusion_lon": 0.0}, {"lat": 38.89592116666667, "is_disabled": 0, "type": "electric_scooter", "lon": -77.0218365, "bike_id": "bbf14b8fb4e2f0f32fe24f8fb39b5d00", "fusion_lat": 0.0, "name": "bbf14b8fb4e2f0f32fe24f8fb39b5d00", "is_reserved": 0, "rental_uris": {"android": "https://dc.lft.to/lastmile_qr_scan", "ios": "https://dc.lft.to/lastmile_qr_scan"}, "fusion_lon": 0.0}, {"lat": 38.9020795, "is_disabled": 0, "type": "electric_scooter", "lon": -76.98187016666667, "bike_id": "23017d15e3e7abcbd09ded4923accc30", "fusion_lat": 0.0, "name": "23017d15e3e7abcbd09ded4923accc30", "is_reserved": 0, "rental_uris": {"android": "https://dc.lft.to/lastmile_qr_scan", "ios": "https://dc.lft.to/lastmile_qr_scan"}, "fusion_lon": 0.0}, {"lat": 38.89683083333333, "is_disabled": 0, "type": "electric_scooter", "lon": -76.93609233333333, "bike_id": "12752c230882c4799c1a754a23d06ec1", "fusion_lat": 0.0, "name": "12752c230882c4799c1a754a23d06ec1", "is_reserved": 0, "rental_uris": {"android": "https://dc.lft.to/lastmile_qr_scan", "ios": "https://dc.lft.to/lastmile_qr_scan"}, "fusion_lon": 0.0}, {"lat": 38.925731999999996, "is_disabled": 0, "type": "electric_scooter", "lon": -77.028356, "bike_id": "2a767e28927b1aabe0f3d363753cc8d0", "fusion_lat": 0.0, "name": "2a767e28927b1aabe0f3d363753cc8d0", "is_reserved": 0, "rental_uris": {"android": "https://dc.lft.to/lastmile_qr_scan", "ios": "https://dc.lft.to/lastmile_qr_scan"}, "fusion_lon": 0.0}, {"lat": 38.9171655, "is_disabled": 0, "type": "electric_scooter", "lon": -77.03213583333333, "bike_id": "d53cb4f6bba11e1ad0191697f0120dab", "fusion_lat": 0.0, "name": "d53cb4f6bba11e1ad0191697f0120dab", "is_reserved": 0, "rental_uris": {"android": "https://dc.lft.to/lastmile_qr_scan", "ios": "https://dc.lft.to/lastmile_qr_scan"}, "fusion_lon": 0.0}, {"lat": 38.88476083333333, "is_disabled": 0, "type": "electric_scooter", "lon": -76.945322, "bike_id": "75394a1e57689c5ec1deb813e05c3de1", "fusion_lat": 0.0, "name": "75394a1e57689c5ec1deb813e05c3de1", "is_reserved": 0, "rental_uris": {"android": "https://dc.lft.to/lastmile_qr_scan", "ios": "https://dc.lft.to/lastmile_qr_scan"}, "fusion_lon": 0.0}, {"lat": 38.919299333333335, "is_disabled": 0, "type": "electric_scooter", "lon": -77.03393666666666, "bike_id": "4046878baf11c1be39bf1b9bf5e4133a", "fusion_lat": 0.0, "name": "4046878baf11c1be39bf1b9bf5e4133a", "is_reserved": 0, "rental_uris": {"android": "https://dc.lft.to/lastmile_qr_scan", "ios": "https://dc.lft.to/lastmile_qr_scan"}, "fusion_lon": 0.0}, {"lat": 38.91762, "is_disabled": 0, "type": "electric_scooter", "lon": -77.0387825, "bike_id": "41fe76cb26a49280f0f9642143885f3c", "fusion_lat": 0.0, "name": "41fe76cb26a49280f0f9642143885f3c", "is_reserved": 0, "rental_uris": {"android": "https://dc.lft.to/lastmile_qr_scan", "ios": "https://dc.lft.to/lastmile_qr_scan"}, "fusion_lon": 0.0}, {"lat": 38.92286883333333, "is_disabled": 0, "type": "electric_scooter", "lon": -77.03203783333333, "bike_id": "fef27bda37117da24193830c25e12e2b", "fusion_lat": 0.0, "name": "fef27bda37117da24193830c25e12e2b", "is_reserved": 0, "rental_uris": {"android": "https://dc.lft.to/lastmile_qr_scan", "ios": "https://dc.lft.to/lastmile_qr_scan"}, "fusion_lon": 0.0}, {"lat": 38.915662833333336, "is_disabled": 0, "type": "electric_scooter", "lon": -77.01171933333333, "bike_id": "a1b981a250e0cd4f4f4b836ef6f6f566", "fusion_lat": 0.0, "name": "a1b981a250e0cd4f4f4b836ef6f6f566", "is_reserved": 0, "rental_uris": {"android": "https://dc.lft.to/lastmile_qr_scan", "ios": "https://dc.lft.to/lastmile_qr_scan"}, "fusion_lon": 0.0}, {"lat": 38.90777833333333, "is_disabled": 0, "type": "electric_scooter", "lon": -77.03203033333334, "bike_id": "be1a05b335c895fe2186c57a82aefce9", "fusion_lat": 0.0, "name": "be1a05b335c895fe2186c57a82aefce9", "is_reserved": 0, "rental_uris": {"android": "https://dc.lft.to/lastmile_qr_scan", "ios": "https://dc.lft.to/lastmile_qr_scan"}, "fusion_lon": 0.0}, {"lat": 38.924682, "is_disabled": 0, "type": "electric_scooter", "lon": -77.033846, "bike_id": "ba40e351003023bdc30cf6d31e8687d0", "fusion_lat": 0.0, "name": "ba40e351003023bdc30cf6d31e8687d0", "is_reserved": 0, "rental_uris": {"android": "https://dc.lft.to/lastmile_qr_scan", "ios": "https://dc.lft.to/lastmile_qr_scan"}, "fusion_lon": 0.0}, {"lat": 38.89605016666667, "is_disabled": 0, "type": "electric_scooter", "lon": -76.955212, "bike_id": "2b38557ea6045f88f1f5d97087319059", "fusion_lat": 0.0, "name": "2b38557ea6045f88f1f5d97087319059", "is_reserved": 0, "rental_uris": {"android": "https://dc.lft.to/lastmile_qr_scan", "ios": "https://dc.lft.to/lastmile_qr_scan"}, "fusion_lon": 0.0}, {"lat": 38.91812933333333, "is_disabled": 0, "type": "electric_scooter", "lon": -77.02549633333334, "bike_id": "7365a44307fdffaab3792530e6c6dafa", "fusion_lat": 0.0, "name": "7365a44307fdffaab3792530e6c6dafa", "is_reserved": 0, "rental_uris": {"android": "https://dc.lft.to/lastmile_qr_scan", "ios": "https://dc.lft.to/lastmile_qr_scan"}, "fusion_lon": 0.0}, {"lat": 38.916938, "is_disabled": 0, "type": "electric_scooter", "lon": -77.03145916666666, "bike_id": "bb3dea471ce7c2a44dc7acf801311e26", "fusion_lat": 0.0, "name": "bb3dea471ce7c2a44dc7acf801311e26", "is_reserved": 0, "rental_uris": {"android": "https://dc.lft.to/lastmile_qr_scan", "ios": "https://dc.lft.to/lastmile_qr_scan"}, "fusion_lon": 0.0}, {"lat": 38.870643333333334, "is_disabled": 0, "type": "electric_scooter", "lon": -77.00840083333334, "bike_id": "d9a0d77e31bc41fa5795c96341b6978a", "fusion_lat": 0.0, "name": "d9a0d77e31bc41fa5795c96341b6978a", "is_reserved": 0, "rental_uris": {"android": "https://dc.lft.to/lastmile_qr_scan", "ios": "https://dc.lft.to/lastmile_qr_scan"}, "fusion_lon": 0.0}, {"lat": 38.9015705, "is_disabled": 0, "type": "electric_scooter", "lon": -77.048443, "bike_id": "f5a10b92a97c8a9f2f2aa8af8e5b09c2", "fusion_lat": 0.0, "name": "f5a10b92a97c8a9f2f2aa8af8e5b09c2", "is_reserved": 0, "rental_uris": {"android": "https://dc.lft.to/lastmile_qr_scan", "ios": "https://dc.lft.to/lastmile_qr_scan"}, "fusion_lon": 0.0}, {"lat": 38.917085, "is_disabled": 0, "type": "electric_scooter", "lon": -77.00116216666666, "bike_id": "440db81a39a7cfe7b7fb3a14fa231e3d", "fusion_lat": 0.0, "name": "440db81a39a7cfe7b7fb3a14fa231e3d", "is_reserved": 0, "rental_uris": {"android": "https://dc.lft.to/lastmile_qr_scan", "ios": "https://dc.lft.to/lastmile_qr_scan"}, "fusion_lon": 0.0}, {"lat": 38.862122, "is_disabled": 0, "type": "electric_bike", "lon": -76.9977655, "bike_id": "d0dedcc0d0c0ed57d7d99618855dc9d8", "fusion_lat": 0.0, "name": "d0dedcc0d0c0ed57d7d99618855dc9d8", "is_reserved": 0, "rental_uris": {"android": "https://dc.lft.to/lastmile_qr_scan", "ios": "https://dc.lft.to/lastmile_qr_scan"}, "fusion_lon": 0.0}, {"lat": 38.90001866666667, "is_disabled": 0, "type": "electric_scooter", "lon": -77.03317583333333, "bike_id": "ed4c2a2877f35e74683807dd0f23a498", "fusion_lat": 0.0, "name": "ed4c2a2877f35e74683807dd0f23a498", "is_reserved": 0, "rental_uris": {"android": "https://dc.lft.to/lastmile_qr_scan", "ios": "https://dc.lft.to/lastmile_qr_scan"}, "fusion_lon": 0.0}, {"lat": 38.883805, "is_disabled": 0, "type": "electric_scooter", "lon": -77.046083, "bike_id": "eec1cc3d16a0fcde8add577aa1f15af4", "fusion_lat": 0.0, "name": "eec1cc3d16a0fcde8add577aa1f15af4", "is_reserved": 0, "rental_uris": {"android": "https://dc.lft.to/lastmile_qr_scan", "ios": "https://dc.lft.to/lastmile_qr_scan"}, "fusion_lon": 0.0}, {"lat": 38.872304666666665, "is_disabled": 0, "type": "electric_scooter", "lon": -77.01192516666667, "bike_id": "74e8b1ddabe2bf73cb763bf66dcab0da", "fusion_lat": 0.0, "name": "74e8b1ddabe2bf73cb763bf66dcab0da", "is_reserved": 0, "rental_uris": {"android": "https://dc.lft.to/lastmile_qr_scan", "ios": "https://dc.lft.to/lastmile_qr_scan"}, "fusion_lon": 0.0}, {"lat": 38.918409833333335, "is_disabled": 0, "type": "electric_scooter", "lon": -77.03178266666667, "bike_id": "588522017a7594f16383e1958449dc43", "fusion_lat": 0.0, "name": "588522017a7594f16383e1958449dc43", "is_reserved": 0, "rental_uris": {"android": "https://dc.lft.to/lastmile_qr_scan", "ios": "https://dc.lft.to/lastmile_qr_scan"}, "fusion_lon": 0.0}, {"lat": 38.938668166666666, "is_disabled": 0, "type": "electric_scooter", "lon": -77.03205133333333, "bike_id": "5e862e03e236e36e0370d20d33c7e779", "fusion_lat": 0.0, "name": "5e862e03e236e36e0370d20d33c7e779", "is_reserved": 0, "rental_uris": {"android": "https://dc.lft.to/lastmile_qr_scan", "ios": "https://dc.lft.to/lastmile_qr_scan"}, "fusion_lon": 0.0}, {"lat": 38.92289433333333, "is_disabled": 0, "type": "electric_scooter", "lon": -77.042519, "bike_id": "c588c4000eae16fce741f4ab6d54394c", "fusion_lat": 0.0, "name": "c588c4000eae16fce741f4ab6d54394c", "is_reserved": 0, "rental_uris": {"android": "https://dc.lft.to/lastmile_qr_scan", "ios": "https://dc.lft.to/lastmile_qr_scan"}, "fusion_lon": 0.0}, {"lat": 38.962054333333334, "is_disabled": 0, "type": "electric_bike", "lon": -77.03509966666667, "bike_id": "63fe118145e4feab7844cbeceb25a5f0", "fusion_lat": 0.0, "name": "63fe118145e4feab7844cbeceb25a5f0", "is_reserved": 0, "rental_uris": {"android": "https://dc.lft.to/lastmile_qr_scan", "ios": "https://dc.lft.to/lastmile_qr_scan"}, "fusion_lon": 0.0}, {"lat": 38.901234, "is_disabled": 0, "type": "electric_scooter", "lon": -77.00328116666667, "bike_id": "df8f2c5f4adf87793b9565e2d7ad669d", "fusion_lat": 0.0, "name": "df8f2c5f4adf87793b9565e2d7ad669d", "is_reserved": 0, "rental_uris": {"android": "https://dc.lft.to/lastmile_qr_scan", "ios": "https://dc.lft.to/lastmile_qr_scan"}, "fusion_lon": 0.0}, {"lat": 38.87402633333333, "is_disabled": 0, "type": "electric_scooter", "lon": -77.01453866666667, "bike_id": "550e506ede68a2c9f886528da4ca20a2", "fusion_lat": 0.0, "name": "550e506ede68a2c9f886528da4ca20a2", "is_reserved": 0, "rental_uris": {"android": "https://dc.lft.to/lastmile_qr_scan", "ios": "https://dc.lft.to/lastmile_qr_scan"}, "fusion_lon": 0.0}, {"lat": 38.8784125, "is_disabled": 0, "type": "electric_scooter", "lon": -77.0079965, "bike_id": "30aa5a0b4303059e643a8b6b25e6f85e", "fusion_lat": 0.0, "name": "30aa5a0b4303059e643a8b6b25e6f85e", "is_reserved": 0, "rental_uris": {"android": "https://dc.lft.to/lastmile_qr_scan", "ios": "https://dc.lft.to/lastmile_qr_scan"}, "fusion_lon": 0.0}, {"lat": 38.9491, "is_disabled": 0, "type": "electric_scooter", "lon": -77.06626683333333, "bike_id": "932a90d91cd4f1432557e3743dc9c162", "fusion_lat": 0.0, "name": "932a90d91cd4f1432557e3743dc9c162", "is_reserved": 0, "rental_uris": {"android": "https://dc.lft.to/lastmile_qr_scan", "ios": "https://dc.lft.to/lastmile_qr_scan"}, "fusion_lon": 0.0}, {"lat": 38.853181, "is_disabled": 0, "type": "electric_scooter", "lon": -76.98021033333333, "bike_id": "a1698c0e51eb42f9f3c2e3306be0a2a7", "fusion_lat": 0.0, "name": "a1698c0e51eb42f9f3c2e3306be0a2a7", "is_reserved": 0, "rental_uris": {"android": "https://dc.lft.to/lastmile_qr_scan", "ios": "https://dc.lft.to/lastmile_qr_scan"}, "fusion_lon": 0.0}, {"lat": 38.88631766666666, "is_disabled": 0, "type": "electric_scooter", "lon": -77.02293933333333, "bike_id": "f0bb95e268fc8c73fc3843ac57e613e4", "fusion_lat": 0.0, "name": "f0bb95e268fc8c73fc3843ac57e613e4", "is_reserved": 0, "rental_uris": {"android": "https://dc.lft.to/lastmile_qr_scan", "ios": "https://dc.lft.to/lastmile_qr_scan"}, "fusion_lon": 0.0}, {"lat": 38.8991535, "is_disabled": 0, "type": "electric_scooter", "lon": -76.98562783333334, "bike_id": "3e9e9973fa9c55e6e8cc6f572d2dc787", "fusion_lat": 0.0, "name": "3e9e9973fa9c55e6e8cc6f572d2dc787", "is_reserved": 0, "rental_uris": {"android": "https://dc.lft.to/lastmile_qr_scan", "ios": "https://dc.lft.to/lastmile_qr_scan"}, "fusion_lon": 0.0}, {"lat": 38.91158166666666, "is_disabled": 0, "type": "electric_scooter", "lon": -77.03845733333333, "bike_id": "f68a6605c7aa2bd824aaa1b6f1285f0d", "fusion_lat": 0.0, "name": "f68a6605c7aa2bd824aaa1b6f1285f0d", "is_reserved": 0, "rental_uris": {"android": "https://dc.lft.to/lastmile_qr_scan", "ios": "https://dc.lft.to/lastmile_qr_scan"}, "fusion_lon": 0.0}, {"lat": 38.89621616666667, "is_disabled": 0, "type": "electric_scooter", "lon": -76.956602, "bike_id": "7c2fe7bb356a525d7c0c52748c0a0dee", "fusion_lat": 0.0, "name": "7c2fe7bb356a525d7c0c52748c0a0dee", "is_reserved": 0, "rental_uris": {"android": "https://dc.lft.to/lastmile_qr_scan", "ios": "https://dc.lft.to/lastmile_qr_scan"}, "fusion_lon": 0.0}, {"lat": 38.92105566666667, "is_disabled": 0, "type": "electric_scooter", "lon": -77.0316975, "bike_id": "1fc3bee9430bdeeb44c4cf9587100ff7", "fusion_lat": 0.0, "name": "1fc3bee9430bdeeb44c4cf9587100ff7", "is_reserved": 0, "rental_uris": {"android": "https://dc.lft.to/lastmile_qr_scan", "ios": "https://dc.lft.to/lastmile_qr_scan"}, "fusion_lon": 0.0}, {"lat": 38.895559, "is_disabled": 0, "type": "electric_scooter", "lon": -77.00365766666667, "bike_id": "c88426f43f62c6cff7dd3f65ae3294fa", "fusion_lat": 0.0, "name": "c88426f43f62c6cff7dd3f65ae3294fa", "is_reserved": 0, "rental_uris": {"android": "https://dc.lft.to/lastmile_qr_scan", "ios": "https://dc.lft.to/lastmile_qr_scan"}, "fusion_lon": 0.0}, {"lat": 38.93229616666667, "is_disabled": 0, "type": "electric_scooter", "lon": -77.02379816666667, "bike_id": "6ba7ec02e890f70b2f8c7e8a163f268a", "fusion_lat": 0.0, "name": "6ba7ec02e890f70b2f8c7e8a163f268a", "is_reserved": 0, "rental_uris": {"android": "https://dc.lft.to/lastmile_qr_scan", "ios": "https://dc.lft.to/lastmile_qr_scan"}, "fusion_lon": 0.0}, {"lat": 38.86618516666667, "is_disabled": 0, "type": "electric_scooter", "lon": -76.98644716666666, "bike_id": "2f37838fc487c5a47a93ac92ee7b1575", "fusion_lat": 0.0, "name": "2f37838fc487c5a47a93ac92ee7b1575", "is_reserved": 0, "rental_uris": {"android": "https://dc.lft.to/lastmile_qr_scan", "ios": "https://dc.lft.to/lastmile_qr_scan"}, "fusion_lon": 0.0}, {"lat": 38.906438333333334, "is_disabled": 0, "type": "electric_scooter", "lon": -76.990258, "bike_id": "449aaf2775ddc2968465f6d3deb00b41", "fusion_lat": 0.0, "name": "449aaf2775ddc2968465f6d3deb00b41", "is_reserved": 0, "rental_uris": {"android": "https://dc.lft.to/lastmile_qr_scan", "ios": "https://dc.lft.to/lastmile_qr_scan"}, "fusion_lon": 0.0}, {"lat": 38.9187715, "is_disabled": 0, "type": "electric_scooter", "lon": -77.044754, "bike_id": "2a8c8c853fd62589b73d43297e3b103c", "fusion_lat": 0.0, "name": "2a8c8c853fd62589b73d43297e3b103c", "is_reserved": 0, "rental_uris": {"android": "https://dc.lft.to/lastmile_qr_scan", "ios": "https://dc.lft.to/lastmile_qr_scan"}, "fusion_lon": 0.0}, {"lat": 38.915527166666664, "is_disabled": 0, "type": "electric_scooter", "lon": -77.03240633333333, "bike_id": "0934e3d81b08d05306eeaf399768d19a", "fusion_lat": 0.0, "name": "0934e3d81b08d05306eeaf399768d19a", "is_reserved": 0, "rental_uris": {"android": "https://dc.lft.to/lastmile_qr_scan", "ios": "https://dc.lft.to/lastmile_qr_scan"}, "fusion_lon": 0.0}, {"lat": 38.915529, "is_disabled": 0, "type": "electric_scooter", "lon": -77.01236066666667, "bike_id": "cf461f1e75142b7532b97915949d8b20", "fusion_lat": 0.0, "name": "cf461f1e75142b7532b97915949d8b20", "is_reserved": 0, "rental_uris": {"android": "https://dc.lft.to/lastmile_qr_scan", "ios": "https://dc.lft.to/lastmile_qr_scan"}, "fusion_lon": 0.0}, {"lat": 38.8767775, "is_disabled": 0, "type": "electric_scooter", "lon": -77.00417183333333, "bike_id": "9e4df3d141f4216b0be20b9c8f56b0f8", "fusion_lat": 0.0, "name": "9e4df3d141f4216b0be20b9c8f56b0f8", "is_reserved": 0, "rental_uris": {"android": "https://dc.lft.to/lastmile_qr_scan", "ios": "https://dc.lft.to/lastmile_qr_scan"}, "fusion_lon": 0.0}, {"lat": 38.852084833333336, "is_disabled": 0, "type": "electric_bike", "lon": -76.9957775, "bike_id": "64938a98c8c29bec2ab46d7804731b7f", "fusion_lat": 0.0, "name": "64938a98c8c29bec2ab46d7804731b7f", "is_reserved": 0, "rental_uris": {"android": "https://dc.lft.to/lastmile_qr_scan", "ios": "https://dc.lft.to/lastmile_qr_scan"}, "fusion_lon": 0.0}, {"lat": 38.84425533333334, "is_disabled": 0, "type": "electric_scooter", "lon": -76.99779933333333, "bike_id": "a34affae0e5aac0ca72cf7cd41b1a174", "fusion_lat": 0.0, "name": "a34affae0e5aac0ca72cf7cd41b1a174", "is_reserved": 0, "rental_uris": {"android": "https://dc.lft.to/lastmile_qr_scan", "ios": "https://dc.lft.to/lastmile_qr_scan"}, "fusion_lon": 0.0}, {"lat": 38.92052116666667, "is_disabled": 0, "type": "electric_scooter", "lon": -77.0419055, "bike_id": "40e9b867228a9ebbcda6dc0ecdb91f92", "fusion_lat": 0.0, "name": "40e9b867228a9ebbcda6dc0ecdb91f92", "is_reserved": 0, "rental_uris": {"android": "https://dc.lft.to/lastmile_qr_scan", "ios": "https://dc.lft.to/lastmile_qr_scan"}, "fusion_lon": 0.0}, {"lat": 38.914159833333336, "is_disabled": 0, "type": "electric_scooter", "lon": -77.03161, "bike_id": "fc8226444eb49100af2b8d47e32a2949", "fusion_lat": 0.0, "name": "fc8226444eb49100af2b8d47e32a2949", "is_reserved": 0, "rental_uris": {"android": "https://dc.lft.to/lastmile_qr_scan", "ios": "https://dc.lft.to/lastmile_qr_scan"}, "fusion_lon": 0.0}, {"lat": 38.931156333333334, "is_disabled": 0, "type": "electric_scooter", "lon": -77.02087366666666, "bike_id": "0addc2ce0e1fe109bf3d473f96e32184", "fusion_lat": 0.0, "name": "0addc2ce0e1fe109bf3d473f96e32184", "is_reserved": 0, "rental_uris": {"android": "https://dc.lft.to/lastmile_qr_scan", "ios": "https://dc.lft.to/lastmile_qr_scan"}, "fusion_lon": 0.0}, {"lat": 38.885269, "is_disabled": 0, "type": "electric_scooter", "lon": -77.01135183333334, "bike_id": "4b716d0ee6328e63a8fa1a06f4fa3d3a", "fusion_lat": 0.0, "name": "4b716d0ee6328e63a8fa1a06f4fa3d3a", "is_reserved": 0, "rental_uris": {"android": "https://dc.lft.to/lastmile_qr_scan", "ios": "https://dc.lft.to/lastmile_qr_scan"}, "fusion_lon": 0.0}, {"lat": 38.80509883333333, "is_disabled": 0, "type": "electric_bike", "lon": -77.041299, "bike_id": "e9947f6cc01f93f231e4e40a10a99ce4", "fusion_lat": 0.0, "name": "e9947f6cc01f93f231e4e40a10a99ce4", "is_reserved": 0, "rental_uris": {"android": "https://dc.lft.to/lastmile_qr_scan", "ios": "https://dc.lft.to/lastmile_qr_scan"}, "fusion_lon": 0.0}, {"lat": 38.91705783333333, "is_disabled": 0, "type": "electric_scooter", "lon": -77.01104783333334, "bike_id": "21ce7957645d815a91c43f16a643ca77", "fusion_lat": 0.0, "name": "21ce7957645d815a91c43f16a643ca77", "is_reserved": 0, "rental_uris": {"android": "https://dc.lft.to/lastmile_qr_scan", "ios": "https://dc.lft.to/lastmile_qr_scan"}, "fusion_lon": 0.0}, {"lat": 38.95328766666667, "is_disabled": 0, "type": "electric_bike", "lon": -76.98818216666666, "bike_id": "4308c4e1329bca4b89faf5392f96d52b", "fusion_lat": 0.0, "name": "4308c4e1329bca4b89faf5392f96d52b", "is_reserved": 0, "rental_uris": {"android": "https://dc.lft.to/lastmile_qr_scan", "ios": "https://dc.lft.to/lastmile_qr_scan"}, "fusion_lon": 0.0}, {"lat": 38.9181595, "is_disabled": 0, "type": "electric_scooter", "lon": -77.03076066666667, "bike_id": "72b729d1e233414ee3122fd0eeba7263", "fusion_lat": 0.0, "name": "72b729d1e233414ee3122fd0eeba7263", "is_reserved": 0, "rental_uris": {"android": "https://dc.lft.to/lastmile_qr_scan", "ios": "https://dc.lft.to/lastmile_qr_scan"}, "fusion_lon": 0.0}, {"lat": 38.9037635, "is_disabled": 0, "type": "electric_scooter", "lon": -77.021945, "bike_id": "31d416b3d8847beb3bf722ab9c89c03c", "fusion_lat": 0.0, "name": "31d416b3d8847beb3bf722ab9c89c03c", "is_reserved": 0, "rental_uris": {"android": "https://dc.lft.to/lastmile_qr_scan", "ios": "https://dc.lft.to/lastmile_qr_scan"}, "fusion_lon": 0.0}, {"lat": 38.922416, "is_disabled": 0, "type": "electric_scooter", "lon": -77.0218455, "bike_id": "cc048bd96bf0114b45a3c50ba60ce163", "fusion_lat": 0.0, "name": "cc048bd96bf0114b45a3c50ba60ce163", "is_reserved": 0, "rental_uris": {"android": "https://dc.lft.to/lastmile_qr_scan", "ios": "https://dc.lft.to/lastmile_qr_scan"}, "fusion_lon": 0.0}, {"lat": 38.8734025, "is_disabled": 0, "type": "electric_scooter", "lon": -77.01850933333333, "bike_id": "b215dd035c75caba03adc02d2fc2e779", "fusion_lat": 0.0, "name": "b215dd035c75caba03adc02d2fc2e779", "is_reserved": 0, "rental_uris": {"android": "https://dc.lft.to/lastmile_qr_scan", "ios": "https://dc.lft.to/lastmile_qr_scan"}, "fusion_lon": 0.0}, {"lat": 38.86895716666667, "is_disabled": 0, "type": "electric_scooter", "lon": -76.98310983333333, "bike_id": "cc6031b71fbb7fe25b3c7719d3e195fe", "fusion_lat": 0.0, "name": "cc6031b71fbb7fe25b3c7719d3e195fe", "is_reserved": 0, "rental_uris": {"android": "https://dc.lft.to/lastmile_qr_scan", "ios": "https://dc.lft.to/lastmile_qr_scan"}, "fusion_lon": 0.0}, {"lat": 38.91707366666667, "is_disabled": 0, "type": "electric_scooter", "lon": -77.02492883333333, "bike_id": "1e61820e84694e412b0ee889dd7d9446", "fusion_lat": 0.0, "name": "1e61820e84694e412b0ee889dd7d9446", "is_reserved": 0, "rental_uris": {"android": "https://dc.lft.to/lastmile_qr_scan", "ios": "https://dc.lft.to/lastmile_qr_scan"}, "fusion_lon": 0.0}, {"lat": 38.900285333333336, "is_disabled": 0, "type": "electric_scooter", "lon": -77.03979366666667, "bike_id": "132c2d3d00bf282da8e0699ce397a944", "fusion_lat": 0.0, "name": "132c2d3d00bf282da8e0699ce397a944", "is_reserved": 0, "rental_uris": {"android": "https://dc.lft.to/lastmile_qr_scan", "ios": "https://dc.lft.to/lastmile_qr_scan"}, "fusion_lon": 0.0}, {"lat": 38.88691033333333, "is_disabled": 0, "type": "electric_scooter", "lon": -77.01763016666666, "bike_id": "c57479ac6819b31906b8f2baeda6d566", "fusion_lat": 0.0, "name": "c57479ac6819b31906b8f2baeda6d566", "is_reserved": 0, "rental_uris": {"android": "https://dc.lft.to/lastmile_qr_scan", "ios": "https://dc.lft.to/lastmile_qr_scan"}, "fusion_lon": 0.0}, {"lat": 38.88128433333333, "is_disabled": 0, "type": "electric_scooter", "lon": -76.99506366666667, "bike_id": "1e164cf47e5ec77bd2cff6254b4144f7", "fusion_lat": 0.0, "name": "1e164cf47e5ec77bd2cff6254b4144f7", "is_reserved": 0, "rental_uris": {"android": "https://dc.lft.to/lastmile_qr_scan", "ios": "https://dc.lft.to/lastmile_qr_scan"}, "fusion_lon": 0.0}, {"lat": 38.883880833333336, "is_disabled": 0, "type": "electric_scooter", "lon": -77.018888, "bike_id": "058fd96e84fc70615f02b12eab31dcc8", "fusion_lat": 0.0, "name": "058fd96e84fc70615f02b12eab31dcc8", "is_reserved": 0, "rental_uris": {"android": "https://dc.lft.to/lastmile_qr_scan", "ios": "https://dc.lft.to/lastmile_qr_scan"}, "fusion_lon": 0.0}, {"lat": 39.00012516666666, "is_disabled": 0, "type": "electric_bike", "lon": -76.9107665, "bike_id": "a1c0ede4a907472292c44defc99b4834", "fusion_lat": 0.0, "name": "a1c0ede4a907472292c44defc99b4834", "is_reserved": 0, "rental_uris": {"android": "https://dc.lft.to/lastmile_qr_scan", "ios": "https://dc.lft.to/lastmile_qr_scan"}, "fusion_lon": 0.0}, {"lat": 38.82871566666667, "is_disabled": 0, "type": "electric_bike", "lon": -77.112211, "bike_id": "ceba4369b747fe034c7ec33b78ec2260", "fusion_lat": 0.0, "name": "ceba4369b747fe034c7ec33b78ec2260", "is_reserved": 0, "rental_uris": {"android": "https://dc.lft.to/lastmile_qr_scan", "ios": "https://dc.lft.to/lastmile_qr_scan"}, "fusion_lon": 0.0}, {"lat": 38.909898, "is_disabled": 0, "type": "electric_scooter", "lon": -76.99740133333333, "bike_id": "45cbdf8f68afa09113ab9d3e5e21620e", "fusion_lat": 0.0, "name": "45cbdf8f68afa09113ab9d3e5e21620e", "is_reserved": 0, "rental_uris": {"android": "https://dc.lft.to/lastmile_qr_scan", "ios": "https://dc.lft.to/lastmile_qr_scan"}, "fusion_lon": 0.0}, {"lat": 38.9038785, "is_disabled": 0, "type": "electric_scooter", "lon": -77.03835866666667, "bike_id": "4e9594b102eafbf81fcb9e6849a7031a", "fusion_lat": 0.0, "name": "4e9594b102eafbf81fcb9e6849a7031a", "is_reserved": 0, "rental_uris": {"android": "https://dc.lft.to/lastmile_qr_scan", "ios": "https://dc.lft.to/lastmile_qr_scan"}, "fusion_lon": 0.0}, {"lat": 38.9181905, "is_disabled": 0, "type": "electric_scooter", "lon": -77.04168616666666, "bike_id": "e4cca9e24d43930c4213c229bc4e4ce8", "fusion_lat": 0.0, "name": "e4cca9e24d43930c4213c229bc4e4ce8", "is_reserved": 0, "rental_uris": {"android": "https://dc.lft.to/lastmile_qr_scan", "ios": "https://dc.lft.to/lastmile_qr_scan"}, "fusion_lon": 0.0}, {"lat": 38.93188883333333, "is_disabled": 0, "type": "electric_scooter", "lon": -77.02964216666666, "bike_id": "04371f165e60ac9fedf909056680081e", "fusion_lat": 0.0, "name": "04371f165e60ac9fedf909056680081e", "is_reserved": 0, "rental_uris": {"android": "https://dc.lft.to/lastmile_qr_scan", "ios": "https://dc.lft.to/lastmile_qr_scan"}, "fusion_lon": 0.0}, {"lat": 38.956559, "is_disabled": 0, "type": "electric_scooter", "lon": -77.01281216666666, "bike_id": "2bf62e03abbdc76e2c3802655aa70768", "fusion_lat": 0.0, "name": "2bf62e03abbdc76e2c3802655aa70768", "is_reserved": 0, "rental_uris": {"android": "https://dc.lft.to/lastmile_qr_scan", "ios": "https://dc.lft.to/lastmile_qr_scan"}, "fusion_lon": 0.0}, {"lat": 38.9001665, "is_disabled": 0, "type": "electric_scooter", "lon": -77.0068045, "bike_id": "e92805e4c0df4d84bb00c51bc2d0f275", "fusion_lat": 0.0, "name": "e92805e4c0df4d84bb00c51bc2d0f275", "is_reserved": 0, "rental_uris": {"android": "https://dc.lft.to/lastmile_qr_scan", "ios": "https://dc.lft.to/lastmile_qr_scan"}, "fusion_lon": 0.0}, {"lat": 38.9197515, "is_disabled": 0, "type": "electric_scooter", "lon": -77.0249005, "bike_id": "09547f41f4e270cc2e93ca59b4dc480e", "fusion_lat": 0.0, "name": "09547f41f4e270cc2e93ca59b4dc480e", "is_reserved": 0, "rental_uris": {"android": "https://dc.lft.to/lastmile_qr_scan", "ios": "https://dc.lft.to/lastmile_qr_scan"}, "fusion_lon": 0.0}, {"lat": 38.87800283333333, "is_disabled": 0, "type": "electric_scooter", "lon": -77.01766833333333, "bike_id": "d604b8765676acd2f9862f4af0b8bbaa", "fusion_lat": 0.0, "name": "d604b8765676acd2f9862f4af0b8bbaa", "is_reserved": 0, "rental_uris": {"android": "https://dc.lft.to/lastmile_qr_scan", "ios": "https://dc.lft.to/lastmile_qr_scan"}, "fusion_lon": 0.0}, {"lat": 38.9324065, "is_disabled": 0, "type": "electric_scooter", "lon": -77.02948816666667, "bike_id": "7611f95e69633c8466246124ba915704", "fusion_lat": 0.0, "name": "7611f95e69633c8466246124ba915704", "is_reserved": 0, "rental_uris": {"android": "https://dc.lft.to/lastmile_qr_scan", "ios": "https://dc.lft.to/lastmile_qr_scan"}, "fusion_lon": 0.0}, {"lat": 38.83673683333333, "is_disabled": 0, "type": "electric_scooter", "lon": -77.005701, "bike_id": "2466cb2de5b72da55345902c428ab0a8", "fusion_lat": 0.0, "name": "2466cb2de5b72da55345902c428ab0a8", "is_reserved": 0, "rental_uris": {"android": "https://dc.lft.to/lastmile_qr_scan", "ios": "https://dc.lft.to/lastmile_qr_scan"}, "fusion_lon": 0.0}, {"lat": 38.939652, "is_disabled": 0, "type": "electric_scooter", "lon": -77.02751166666667, "bike_id": "df231ca559b5de17fe605143426882e5", "fusion_lat": 0.0, "name": "df231ca559b5de17fe605143426882e5", "is_reserved": 0, "rental_uris": {"android": "https://dc.lft.to/lastmile_qr_scan", "ios": "https://dc.lft.to/lastmile_qr_scan"}, "fusion_lon": 0.0}, {"lat": 38.870128, "is_disabled": 0, "type": "electric_bike", "lon": -76.96020866666667, "bike_id": "a79a0faabbbfaf19f08735a78ece5c8f", "fusion_lat": 0.0, "name": "a79a0faabbbfaf19f08735a78ece5c8f", "is_reserved": 0, "rental_uris": {"android": "https://dc.lft.to/lastmile_qr_scan", "ios": "https://dc.lft.to/lastmile_qr_scan"}, "fusion_lon": 0.0}, {"lat": 38.9191755, "is_disabled": 0, "type": "electric_scooter", "lon": -77.01343683333333, "bike_id": "9da8f56719770feac43c8da2bfdc3325", "fusion_lat": 0.0, "name": "9da8f56719770feac43c8da2bfdc3325", "is_reserved": 0, "rental_uris": {"android": "https://dc.lft.to/lastmile_qr_scan", "ios": "https://dc.lft.to/lastmile_qr_scan"}, "fusion_lon": 0.0}, {"lat": 38.9303605, "is_disabled": 0, "type": "electric_scooter", "lon": -77.036343, "bike_id": "212d481f65086b7a7cef6bdad8ce3aba", "fusion_lat": 0.0, "name": "212d481f65086b7a7cef6bdad8ce3aba", "is_reserved": 0, "rental_uris": {"android": "https://dc.lft.to/lastmile_qr_scan", "ios": "https://dc.lft.to/lastmile_qr_scan"}, "fusion_lon": 0.0}, {"lat": 38.9086865, "is_disabled": 0, "type": "electric_scooter", "lon": -77.04589566666667, "bike_id": "a6f3ed11ef43a24d726b4e731a42bd25", "fusion_lat": 0.0, "name": "a6f3ed11ef43a24d726b4e731a42bd25", "is_reserved": 0, "rental_uris": {"android": "https://dc.lft.to/lastmile_qr_scan", "ios": "https://dc.lft.to/lastmile_qr_scan"}, "fusion_lon": 0.0}, {"lat": 38.933501, "is_disabled": 0, "type": "electric_scooter", "lon": -77.057046, "bike_id": "610c137b6662d47e6c862535646b9113", "fusion_lat": 0.0, "name": "610c137b6662d47e6c862535646b9113", "is_reserved": 0, "rental_uris": {"android": "https://dc.lft.to/lastmile_qr_scan", "ios": "https://dc.lft.to/lastmile_qr_scan"}, "fusion_lon": 0.0}, {"lat": 38.906061, "is_disabled": 0, "type": "electric_scooter", "lon": -77.06297233333333, "bike_id": "90ce36b4b866d312b839202faf6280ba", "fusion_lat": 0.0, "name": "90ce36b4b866d312b839202faf6280ba", "is_reserved": 0, "rental_uris": {"android": "https://dc.lft.to/lastmile_qr_scan", "ios": "https://dc.lft.to/lastmile_qr_scan"}, "fusion_lon": 0.0}, {"lat": 38.901082, "is_disabled": 0, "type": "electric_scooter", "lon": -77.05901233333333, "bike_id": "357acc684130464e216881d53f1cd728", "fusion_lat": 0.0, "name": "357acc684130464e216881d53f1cd728", "is_reserved": 0, "rental_uris": {"android": "https://dc.lft.to/lastmile_qr_scan", "ios": "https://dc.lft.to/lastmile_qr_scan"}, "fusion_lon": 0.0}, {"lat": 38.90801116666667, "is_disabled": 0, "type": "electric_scooter", "lon": -77.0433235, "bike_id": "54aaa003e3e4e15daa9043283bc9144c", "fusion_lat": 0.0, "name": "54aaa003e3e4e15daa9043283bc9144c", "is_reserved": 0, "rental_uris": {"android": "https://dc.lft.to/lastmile_qr_scan", "ios": "https://dc.lft.to/lastmile_qr_scan"}, "fusion_lon": 0.0}, {"lat": 38.90551133333334, "is_disabled": 0, "type": "electric_scooter", "lon": -77.03403933333334, "bike_id": "8ef7c2e829d944798d14cf707dafcedf", "fusion_lat": 0.0, "name": "8ef7c2e829d944798d14cf707dafcedf", "is_reserved": 0, "rental_uris": {"android": "https://dc.lft.to/lastmile_qr_scan", "ios": "https://dc.lft.to/lastmile_qr_scan"}, "fusion_lon": 0.0}, {"lat": 38.908017666666666, "is_disabled": 0, "type": "electric_scooter", "lon": -77.04338366666667, "bike_id": "a82e2bbe7f9bfd673a767a878f8a8601", "fusion_lat": 0.0, "name": "a82e2bbe7f9bfd673a767a878f8a8601", "is_reserved": 0, "rental_uris": {"android": "https://dc.lft.to/lastmile_qr_scan", "ios": "https://dc.lft.to/lastmile_qr_scan"}, "fusion_lon": 0.0}, {"lat": 38.909775833333335, "is_disabled": 0, "type": "electric_bike", "lon": -76.9851665, "bike_id": "962081c0c676bcdbdb16113293559096", "fusion_lat": 0.0, "name": "962081c0c676bcdbdb16113293559096", "is_reserved": 0, "rental_uris": {"android": "https://dc.lft.to/lastmile_qr_scan", "ios": "https://dc.lft.to/lastmile_qr_scan"}, "fusion_lon": 0.0}, {"lat": 38.92446983333333, "is_disabled": 0, "type": "electric_scooter", "lon": -77.0519205, "bike_id": "d312d9b2aa179c4cbb08d3f02035c689", "fusion_lat": 0.0, "name": "d312d9b2aa179c4cbb08d3f02035c689", "is_reserved": 0, "rental_uris": {"android": "https://dc.lft.to/lastmile_qr_scan", "ios": "https://dc.lft.to/lastmile_qr_scan"}, "fusion_lon": 0.0}, {"lat": 38.89347633333333, "is_disabled": 0, "type": "electric_scooter", "lon": -76.94934283333333, "bike_id": "882fd6bf9774a02bff4d24e96c774bbd", "fusion_lat": 0.0, "name": "882fd6bf9774a02bff4d24e96c774bbd", "is_reserved": 0, "rental_uris": {"android": "https://dc.lft.to/lastmile_qr_scan", "ios": "https://dc.lft.to/lastmile_qr_scan"}, "fusion_lon": 0.0}, {"lat": 38.97197216666667, "is_disabled": 0, "type": "electric_bike", "lon": -77.02717, "bike_id": "c86de608a1578f03473e6b115f5e73bd", "fusion_lat": 0.0, "name": "c86de608a1578f03473e6b115f5e73bd", "is_reserved": 0, "rental_uris": {"android": "https://dc.lft.to/lastmile_qr_scan", "ios": "https://dc.lft.to/lastmile_qr_scan"}, "fusion_lon": 0.0}, {"lat": 38.90963716666667, "is_disabled": 0, "type": "electric_scooter", "lon": -77.03253866666667, "bike_id": "b02ed2a74549a639f20eaaa9a39bf163", "fusion_lat": 0.0, "name": "b02ed2a74549a639f20eaaa9a39bf163", "is_reserved": 0, "rental_uris": {"android": "https://dc.lft.to/lastmile_qr_scan", "ios": "https://dc.lft.to/lastmile_qr_scan"}, "fusion_lon": 0.0}, {"lat": 38.9097195, "is_disabled": 0, "type": "electric_scooter", "lon": -77.00921483333333, "bike_id": "9a8dffdbba18ecbaef220f20a2545270", "fusion_lat": 0.0, "name": "9a8dffdbba18ecbaef220f20a2545270", "is_reserved": 0, "rental_uris": {"android": "https://dc.lft.to/lastmile_qr_scan", "ios": "https://dc.lft.to/lastmile_qr_scan"}, "fusion_lon": 0.0}, {"lat": 38.92246516666667, "is_disabled": 0, "type": "electric_scooter", "lon": -77.04271166666666, "bike_id": "b26520c0399d95627dc286539dc2872c", "fusion_lat": 0.0, "name": "b26520c0399d95627dc286539dc2872c", "is_reserved": 0, "rental_uris": {"android": "https://dc.lft.to/lastmile_qr_scan", "ios": "https://dc.lft.to/lastmile_qr_scan"}, "fusion_lon": 0.0}, {"lat": 38.944412666666665, "is_disabled": 0, "type": "electric_scooter", "lon": -77.023385, "bike_id": "a474ac920ace8cc5240f694cc688e74b", "fusion_lat": 0.0, "name": "a474ac920ace8cc5240f694cc688e74b", "is_reserved": 0, "rental_uris": {"android": "https://dc.lft.to/lastmile_qr_scan", "ios": "https://dc.lft.to/lastmile_qr_scan"}, "fusion_lon": 0.0}, {"lat": 38.924387, "is_disabled": 0, "type": "electric_scooter", "lon": -77.02974716666667, "bike_id": "848343ddf2d04c9332732731ad9b9515", "fusion_lat": 0.0, "name": "848343ddf2d04c9332732731ad9b9515", "is_reserved": 0, "rental_uris": {"android": "https://dc.lft.to/lastmile_qr_scan", "ios": "https://dc.lft.to/lastmile_qr_scan"}, "fusion_lon": 0.0}, {"lat": 38.909822166666665, "is_disabled": 0, "type": "electric_scooter", "lon": -77.02397666666667, "bike_id": "497f5d184ec1ae314e391bfe494bbd4d", "fusion_lat": 0.0, "name": "497f5d184ec1ae314e391bfe494bbd4d", "is_reserved": 0, "rental_uris": {"android": "https://dc.lft.to/lastmile_qr_scan", "ios": "https://dc.lft.to/lastmile_qr_scan"}, "fusion_lon": 0.0}, {"lat": 38.887398, "is_disabled": 0, "type": "electric_scooter", "lon": -77.01532666666667, "bike_id": "5d0c3e63f019e2f81d0c72f370f7267b", "fusion_lat": 0.0, "name": "5d0c3e63f019e2f81d0c72f370f7267b", "is_reserved": 0, "rental_uris": {"android": "https://dc.lft.to/lastmile_qr_scan", "ios": "https://dc.lft.to/lastmile_qr_scan"}, "fusion_lon": 0.0}, {"lat": 38.901249666666665, "is_disabled": 0, "type": "electric_scooter", "lon": -77.0415145, "bike_id": "9b42837829836157adaf8a1c473deef4", "fusion_lat": 0.0, "name": "9b42837829836157adaf8a1c473deef4", "is_reserved": 0, "rental_uris": {"android": "https://dc.lft.to/lastmile_qr_scan", "ios": "https://dc.lft.to/lastmile_qr_scan"}, "fusion_lon": 0.0}, {"lat": 38.907305666666666, "is_disabled": 0, "type": "electric_scooter", "lon": -77.02368816666667, "bike_id": "9dd32342f8978aacfe4c2c4ba84188b3", "fusion_lat": 0.0, "name": "9dd32342f8978aacfe4c2c4ba84188b3", "is_reserved": 0, "rental_uris": {"android": "https://dc.lft.to/lastmile_qr_scan", "ios": "https://dc.lft.to/lastmile_qr_scan"}, "fusion_lon": 0.0}, {"lat": 38.90215666666667, "is_disabled": 0, "type": "electric_scooter", "lon": -77.02984133333334, "bike_id": "9280514ea5e2a47964dbe4228aa0f191", "fusion_lat": 0.0, "name": "9280514ea5e2a47964dbe4228aa0f191", "is_reserved": 0, "rental_uris": {"android": "https://dc.lft.to/lastmile_qr_scan", "ios": "https://dc.lft.to/lastmile_qr_scan"}, "fusion_lon": 0.0},