{"data": {"bikes": [{"is_disabled": 0, "fusion_lat": 0.0, "lat": 38.8867885, "type": "electric_scooter", "lon": -77.00211183333333, "is_reserved": 0, "fusion_lon": 0.0, "bike_id": "ebb466c41c6ae79d4d9edba2d5fff45a", "name": "ebb466c41c6ae79d4d9edba2d5fff45a", "rental_uris": {"ios": "https://dc.lft.to/lastmile_qr_scan", "android": "https://dc.lft.to/lastmile_qr_scan"}}, {"is_disabled": 0, "fusion_lat": 0.0, "lat": 38.9065015, "type": "electric_scooter", "lon": -77.0114375, "is_reserved": 0, "fusion_lon": 0.0, "bike_id": "948dd25b70bb70a1940b609f5991e016", "name": "948dd25b70bb70a1940b609f5991e016", "rental_uris": {"ios": "https://dc.lft.to/lastmile_qr_scan", "android": "https://dc.lft.to/lastmile_qr_scan"}}, {"is_disabled": 0, "fusion_lat": 0.0, "lat": 38.84425233333333, "type": "electric_scooter", "lon": -76.9977475, "is_reserved": 0, "fusion_lon": 0.0, "bike_id": "5de7b3c6c3f1f81cdcbcf2d4d7f83e68", "name": "5de7b3c6c3f1f81cdcbcf2d4d7f83e68", "rental_uris": {"ios": "https://dc.lft.to/lastmile_qr_scan", "android": "https://dc.lft.to/lastmile_qr_scan"}}, {"is_disabled": 0, "fusion_lat": 0.0, "lat": 38.919597333333336, "type": "electric_scooter", "lon": -77.015185, "is_reserved": 0, "fusion_lon": 0.0, "bike_id": "33646d3b7dcab323f8750bf302ec6849", "name": "33646d3b7dcab323f8750bf302ec6849", "rental_uris": {"ios": "https://dc.lft.to/lastmile_qr_scan", "android": "https://dc.lft.to/lastmile_qr_scan"}}, {"is_disabled": 0, "fusion_lat": 0.0, "lat": 38.877446166666665, "type": "electric_bike", "lon": -76.9805545, "is_reserved": 0, "fusion_lon": 0.0, "bike_id": "38e106b88e37e5c85a8e3308904563e5", "name": "38e106b88e37e5c85a8e3308904563e5", "rental_uris": {"ios": "https://dc.lft.to/lastmile_qr_scan", "android": "https://dc.lft.to/lastmile_qr_scan"}}, {"is_disabled": 0, "fusion_lat": 0.0, "lat": 38.810550166666665, "type": "electric_bike", "lon": -77.085061, "is_reserved": 0, "fusion_lon": 0.0, "bike_id": "39731194f0e489d983ac908eb270bb03", "name": "39731194f0e489d983ac908eb270bb03", "rental_uris": {"ios": "https://dc.lft.to/lastmile_qr_scan", "android": "https://dc.lft.to/lastmile_qr_scan"}}, {"is_disabled": 0, "fusion_lat": 0.0, "lat": 38.8922365, "type": "electric_scooter", "lon": -77.04857716666666, "is_reserved": 0, "fusion_lon": 0.0, "bike_id": "a6f48b31efc2d05f9ec0c6c42ea03f1e", "name": "a6f48b31efc2d05f9ec0c6c42ea03f1e", "rental_uris": {"ios": "https://dc.lft.to/lastmile_qr_scan", "android": "https://dc.lft.to/lastmile_qr_scan"}}, {"is_disabled": 0, "fusion_lat": 0.0, "lat": 38.9342765, "type": "electric_scooter", "lon": -77.028459, "is_reserved": 0, "fusion_lon": 0.0, "bike_id": "9207028996d00862f28bb380b1661c3a", "name": "9207028996d00862f28bb380b1661c3a", "rental_uris": {"ios": "https://dc.lft.to/lastmile_qr_scan", "android": "https://dc.lft.to/lastmile_qr_scan"}}, {"is_disabled": 0, "fusion_lat": 0.0, "lat": 38.9063125, "type": "electric_scooter", "lon": -77.0356085, "is_reserved": 0, "fusion_lon": 0.0, "bike_id": "dddcf69e415233499389278a46ada9c0", "name": "dddcf69e415233499389278a46ada9c0", "rental_uris": {"ios": "https://dc.lft.to/lastmile_qr_scan", "android": "https://dc.lft.to/lastmile_qr_scan"}}, {"is_disabled": 0, "fusion_lat": 0.0, "lat": 38.882069666666666, "type": "electric_scooter", "lon": -76.99943883333333, "is_reserved": 0, "fusion_lon": 0.0, "bike_id": "fc46f5ae2112d6af2edb356c9d039ea4", "name": "fc46f5ae2112d6af2edb356c9d039ea4", "rental_uris": {"ios": "https://dc.lft.to/lastmile_qr_scan", "android": "https://dc.lft.to/lastmile_qr_scan"}}, {"is_disabled": 0, "fusion_lat": 0.0, "lat": 38.85435833333333, "type": "electric_bike", "lon": -76.90968916666667, "is_reserved": 0, "fusion_lon": 0.0, "bike_id": "8b8a1e181016764d708dbf043623a6e3", "name": "8b8a1e181016764d708dbf043623a6e3", "rental_uris": {"ios": "https://dc.lft.to/lastmile_qr_scan", "android": "https://dc.lft.to/lastmile_qr_scan"}}, {"is_disabled": 0, "fusion_lat": 0.0, "lat": 38.926068, "type": "electric_scooter", "lon": -77.05700866666666, "is_reserved": 0, "fusion_lon": 0.0, "bike_id": "85ef7321eb5b2cb191cb4e0bf8a14865", "name": "85ef7321eb5b2cb191cb4e0bf8a14865", "rental_uris": {"ios": "https://dc.lft.to/lastmile_qr_scan", "android": "https://dc.lft.to/lastmile_qr_scan"}}, {"is_disabled": 0, "fusion_lat": 0.0, "lat": 38.903647, "type": "electric_scooter", "lon": -77.0033735, "is_reserved": 0, "fusion_lon": 0.0, "bike_id": "958c66cadc180d747e4e72d605e29650", "name": "958c66cadc180d747e4e72d605e29650", "rental_uris": {"ios": "https://dc.lft.to/lastmile_qr_scan", "android": "https://dc.lft.to/lastmile_qr_scan"}}, {"is_disabled": 0, "fusion_lat": 0.0, "lat": 38.908790833333335, "type": "electric_scooter", "lon": -77.044038, "is_reserved": 0, "fusion_lon": 0.0, "bike_id": "45c52072c268f162047b7754f4ffba5d", "name": "45c52072c268f162047b7754f4ffba5d", "rental_uris": {"ios": "https://dc.lft.to/lastmile_qr_scan", "android": "https://dc.lft.to/lastmile_qr_scan"}}, {"is_disabled": 0, "fusion_lat": 0.0, "lat": 38.91418383333333, "type": "electric_scooter", "lon": -77.01960616666666, "is_reserved": 0, "fusion_lon": 0.0, "bike_id": "450e0fd43d8b2091cb2ccd039935f9c4", "name": "450e0fd43d8b2091cb2ccd039935f9c4", "rental_uris": {"ios": "https://dc.lft.to/lastmile_qr_scan", "android": "https://dc.lft.to/lastmile_qr_scan"}}, {"is_disabled": 0, "fusion_lat": 0.0, "lat": 38.85788983333333, "type": "electric_bike", "lon": -77.09960966666667, "is_reserved": 0, "fusion_lon": 0.0, "bike_id": "7993041c134d4526ea62a4a217a00b5a", "name": "7993041c134d4526ea62a4a217a00b5a", "rental_uris": {"ios": "https://dc.lft.to/lastmile_qr_scan", "android": "https://dc.lft.to/lastmile_qr_scan"}}, {"is_disabled": 0, "fusion_lat": 0.0, "lat": 38.87661166666667, "type": "electric_scooter", "lon": -77.00405083333334, "is_reserved": 0, "fusion_lon": 0.0, "bike_id": "c4ddd5c6503ee491008a35e20bef8241", "name": "c4ddd5c6503ee491008a35e20bef8241", "rental_uris": {"ios": "https://dc.lft.to/lastmile_qr_scan", "android": "https://dc.lft.to/lastmile_qr_scan"}}, {"is_disabled": 0, "fusion_lat": 0.0, "lat": 38.900174, "type": "electric_scooter", "lon": -76.998409, "is_reserved": 0, "fusion_lon": 0.0, "bike_id": "935fb395cc8a77bd791664debda726f3", "name": "935fb395cc8a77bd791664debda726f3", "rental_uris": {"ios": "https://dc.lft.to/lastmile_qr_scan", "android": "https://dc.lft.to/lastmile_qr_scan"}}, {"is_disabled": 0, "fusion_lat": 0.0, "lat": 38.919092166666665, "type": "electric_scooter", "lon": -77.04628533333333, "is_reserved": 0, "fusion_lon": 0.0, "bike_id": "138ca5780ff058512110868745262f6e", "name": "138ca5780ff058512110868745262f6e", "rental_uris": {"ios": "https://dc.lft.to/lastmile_qr_scan", "android": "https://dc.lft.to/lastmile_qr_scan"}}, {"is_disabled": 0, "fusion_lat": 0.0, "lat": 38.91713566666667, "type": "electric_scooter", "lon": -77.008859, "is_reserved": 0, "fusion_lon": 0.0, "bike_id": "d01f14fed77b4bfce6a17aedb5712de8", "name": "d01f14fed77b4bfce6a17aedb5712de8", "rental_uris": {"ios": "https://dc.lft.to/lastmile_qr_scan", "android": "https://dc.lft.to/lastmile_qr_scan"}}, {"is_disabled": 0, "fusion_lat": 0.0, "lat": 38.935928833333335, "type": "electric_scooter", "lon": -77.035058, "is_reserved": 0, "fusion_lon": 0.0, "bike_id": "9ffe3e050302b0ce10a743960e1394fe", "name": "9ffe3e050302b0ce10a743960e1394fe", "rental_uris": {"ios": "https://dc.lft.to/lastmile_qr_scan", "android": "https://dc.lft.to/lastmile_qr_scan"}}, {"is_disabled": 0, "fusion_lat": 0.0, "lat": 38.93910183333333, "type": "electric_scooter", "lon": -77.060407, "is_reserved": 0, "fusion_lon": 0.0, "bike_id": "6603613c75ec2d06ebd5fd399ae2203b", "name": "6603613c75ec2d06ebd5fd399ae2203b", "rental_uris": {"ios": "https://dc.lft.to/lastmile_qr_scan", "android": "https://dc.lft.to/lastmile_qr_scan"}}, {"is_disabled": 0, "fusion_lat": 0.0, "lat": 38.91216383333333, "type": "electric_scooter", "lon": -77.03845466666667, "is_reserved": 0, "fusion_lon": 0.0, "bike_id": "3910d4814382a1b0607cd4d9616e741e", "name": "3910d4814382a1b0607cd4d9616e741e", "rental_uris": {"ios": "https://dc.lft.to/lastmile_qr_scan", "android": "https://dc.lft.to/lastmile_qr_scan"}}, {"is_disabled": 0, "fusion_lat": 0.0, "lat": 38.92498483333333, "type": "electric_scooter", "lon": -77.0354255, "is_reserved": 0, "fusion_lon": 0.0, "bike_id": "cab9a79db0b06dcd70001847f17a5a8c", "name": "cab9a79db0b06dcd70001847f17a5a8c", "rental_uris": {"ios": "https://dc.lft.to/lastmile_qr_scan", "android": "https://dc.lft.to/lastmile_qr_scan"}}, {"is_disabled": 0, "fusion_lat": 0.0, "lat": 38.863791166666665, "type": "electric_scooter", "lon": -76.99055716666666, "is_reserved": 0, "fusion_lon": 0.0, "bike_id": "78834dd57092ef818350b2ac7de22dd9", "name": "78834dd57092ef818350b2ac7de22dd9", "rental_uris": {"ios": "https://dc.lft.to/lastmile_qr_scan", "android": "https://dc.lft.to/lastmile_qr_scan"}}, {"is_disabled": 0, "fusion_lat": 0.0, "lat": 38.865270833333334, "type": "electric_scooter", "lon": -76.99036066666666, "is_reserved": 0, "fusion_lon": 0.0, "bike_id": "47a5d13f320de75d36afbcfdc43056e5", "name": "47a5d13f320de75d36afbcfdc43056e5", "rental_uris": {"ios": "https://dc.lft.to/lastmile_qr_scan", "android": "https://dc.lft.to/lastmile_qr_scan"}}, {"is_disabled": 0, "fusion_lat": 0.0, "lat": 38.913915333333335, "type": "electric_scooter", "lon": -76.98418233333334, "is_reserved": 0, "fusion_lon": 0.0, "bike_id": "d361e19d162a34e291ac6fd6c5a95969", "name": "d361e19d162a34e291ac6fd6c5a95969", "rental_uris": {"ios": "https://dc.lft.to/lastmile_qr_scan", "android": "https://dc.lft.to/lastmile_qr_scan"}}, {"is_disabled": 0, "fusion_lat": 0.0, "lat": 38.9527515, "type": "electric_bike", "lon": -77.0697475, "is_reserved": 0, "fusion_lon": 0.0, "bike_id": "cbfed1a1d3357a31617990ef133b272d", "name": "cbfed1a1d3357a31617990ef133b272d", "rental_uris": {"ios": "https://dc.lft.to/lastmile_qr_scan", "android": "https://dc.lft.to/lastmile_qr_scan"}}, {"is_disabled": 0, "fusion_lat": 0.0, "lat": 38.92826733333333, "type": "electric_scooter", "lon": -77.02255533333333, "is_reserved": 0, "fusion_lon": 0.0, "bike_id": "1587e053d50b0ca88b9009d35436199d", "name": "1587e053d50b0ca88b9009d35436199d", "rental_uris": {"ios": "https://dc.lft.to/lastmile_qr_scan", "android": "https://dc.lft.to/lastmile_qr_scan"}}, {"is_disabled": 0, "fusion_lat": 0.0, "lat": 38.93089416666667, "type": "electric_scooter", "lon": -76.9671735, "is_reserved": 0, "fusion_lon": 0.0, "bike_id": "9aeacee6c26029f94fda7dc02b6f3428", "name": "9aeacee6c26029f94fda7dc02b6f3428", "rental_uris": {"ios": "https://dc.lft.to/lastmile_qr_scan", "android": "https://dc.lft.to/lastmile_qr_scan"}}, {"is_disabled": 0, "fusion_lat": 0.0, "lat": 38.918208666666665, "type": "electric_scooter", "lon": -77.03356, "is_reserved": 0, "fusion_lon": 0.0, "bike_id": "e7eec06659a113249866d20f3d451e70", "name": "e7eec06659a113249866d20f3d451e70", "rental_uris": {"ios": "https://dc.lft.to/lastmile_qr_scan", "android": "https://dc.lft.to/lastmile_qr_scan"}}, {"is_disabled": 0, "fusion_lat": 0.0, "lat": 38.907666666666664, "type": "electric_scooter", "lon": -77.06912066666666, "is_reserved": 0, "fusion_lon": 0.0, "bike_id": "cb4ade33b37f34d0be260e87f57950b8", "name": "cb4ade33b37f34d0be260e87f57950b8", "rental_uris": {"ios": "https://dc.lft.to/lastmile_qr_scan", "android": "https://dc.lft.to/lastmile_qr_scan"}}, {"is_disabled": 0, "fusion_lat": 0.0, "lat": 39.03042383333333, "type": "electric_bike", "lon": -77.09476183333334, "is_reserved": 0, "fusion_lon": 0.0, "bike_id": "f58c95140d141511b93f1878483be0e4", "name": "f58c95140d141511b93f1878483be0e4", "rental_uris": {"ios": "https://dc.lft.to/lastmile_qr_scan", "android": "https://dc.lft.to/lastmile_qr_scan"}}, {"is_disabled": 0, "fusion_lat": 0.0, "lat": 38.921853666666664, "type": "electric_scooter", "lon": -77.0183045, "is_reserved": 0, "fusion_lon": 0.0, "bike_id": "37bc7ad61d036baf8db9aafa2450d232", "name": "37bc7ad61d036baf8db9aafa2450d232", "rental_uris": {"ios": "https://dc.lft.to/lastmile_qr_scan", "android": "https://dc.lft.to/lastmile_qr_scan"}}, {"is_disabled": 0, "fusion_lat": 0.0, "lat": 38.915811, "type": "electric_scooter", "lon": -77.03187466666667, "is_reserved": 0, "fusion_lon": 0.0, "bike_id": "202f32b43a0207fed4469a9da4297aef", "name": "202f32b43a0207fed4469a9da4297aef", "rental_uris": {"ios": "https://dc.lft.to/lastmile_qr_scan", "android": "https://dc.lft.to/lastmile_qr_scan"}}, {"is_disabled": 0, "fusion_lat": 0.0, "lat": 38.936153, "type": "electric_scooter", "lon": -77.03215916666667, "is_reserved": 0, "fusion_lon": 0.0, "bike_id": "d9f7eb0011559c3eee39b03f1914f5e4", "name": "d9f7eb0011559c3eee39b03f1914f5e4", "rental_uris": {"ios": "https://dc.lft.to/lastmile_qr_scan", "android": "https://dc.lft.to/lastmile_qr_scan"}}, {"is_disabled": 0, "fusion_lat": 0.0, "lat": 39.024299666666664, "type": "electric_bike", "lon": -77.131001, "is_reserved": 0, "fusion_lon": 0.0, "bike_id": "b417428285bea4dd7ec071ad696cfa9e", "name": "b417428285bea4dd7ec071ad696cfa9e", "rental_uris": {"ios": "https://dc.lft.to/lastmile_qr_scan", "android": "https://dc.lft.to/lastmile_qr_scan"}}, {"is_disabled": 0, "fusion_lat": 0.0, "lat": 38.91823683333333, "type": "electric_scooter", "lon": -77.03841383333334, "is_reserved": 0, "fusion_lon": 0.0, "bike_id": "95c312a8389c2d661df7fcef2cc7cc0d", "name": "95c312a8389c2d661df7fcef2cc7cc0d", "rental_uris": {"ios": "https://dc.lft.to/lastmile_qr_scan", "android": "https://dc.lft.to/lastmile_qr_scan"}}, {"is_disabled": 0, "fusion_lat": 0.0, "lat": 38.89392683333333, "type": "electric_scooter", "lon": -76.99860683333333, "is_reserved": 0, "fusion_lon": 0.0, "bike_id": "b337bef9c26f3fda6194d2f7fcf3fe98", "name": "b337bef9c26f3fda6194d2f7fcf3fe98", "rental_uris": {"ios": "https://dc.lft.to/lastmile_qr_scan", "android": "https://dc.lft.to/lastmile_qr_scan"}}, {"is_disabled": 0, "fusion_lat": 0.0, "lat": 39.00016466666667, "type": "electric_bike", "lon": -76.91048316666667, "is_reserved": 0, "fusion_lon": 0.0, "bike_id": "30a156663ebdf9d73a24f424a2101499", "name": "30a156663ebdf9d73a24f424a2101499", "rental_uris": {"ios": "https://dc.lft.to/lastmile_qr_scan", "android": "https://dc.lft.to/lastmile_qr_scan"}}, {"is_disabled": 0, "fusion_lat": 0.0, "lat": 38.927147166666664, "type": "electric_scooter", "lon": -77.04196366666666, "is_reserved": 0, "fusion_lon": 0.0, "bike_id": "b92f7eb4a03aea605b3861dae4b0860a", "name": "b92f7eb4a03aea605b3861dae4b0860a", "rental_uris": {"ios": "https://dc.lft.to/lastmile_qr_scan", "android": "https://dc.lft.to/lastmile_qr_scan"}}, {"is_disabled": 0, "fusion_lat": 0.0, "lat": 38.904215, "type": "electric_scooter", "lon": -77.0184365, "is_reserved": 0, "fusion_lon": 0.0, "bike_id": "ca85c650cbeeb823523d4354d7afbcd7", "name": "ca85c650cbeeb823523d4354d7afbcd7", "rental_uris": {"ios": "https://dc.lft.to/lastmile_qr_scan", "android": "https://dc.lft.to/lastmile_qr_scan"}}, {"is_disabled": 0, "fusion_lat": 0.0, "lat": 38.92231666666667, "type": "electric_scooter", "lon": -77.044003, "is_reserved": 0, "fusion_lon": 0.0, "bike_id": "4d1240ffcc1ba53acb8ff2223d8c3310", "name": "4d1240ffcc1ba53acb8ff2223d8c3310", "rental_uris": {"ios": "https://dc.lft.to/lastmile_qr_scan", "android": "https://dc.lft.to/lastmile_qr_scan"}}, {"is_disabled": 0, "fusion_lat": 0.0, "lat": 38.896113166666666, "type": "electric_bike", "lon": -76.9779205, "is_reserved": 0, "fusion_lon": 0.0, "bike_id": "0da3987c970db59e8e4f10cf46ac8c1d", "name": "0da3987c970db59e8e4f10cf46ac8c1d", "rental_uris": {"ios": "https://dc.lft.to/lastmile_qr_scan", "android": "https://dc.lft.to/lastmile_qr_scan"}}, {"is_disabled": 0, "fusion_lat": 0.0, "lat": 38.8874175, "type": "electric_scooter", "lon": -77.03177783333334, "is_reserved": 0, "fusion_lon": 0.0, "bike_id": "878ca33ab3d80875bb588d9670a87da8", "name": "878ca33ab3d80875bb588d9670a87da8", "rental_uris": {"ios": "https://dc.lft.to/lastmile_qr_scan", "android": "https://dc.lft.to/lastmile_qr_scan"}}, {"is_disabled": 0, "fusion_lat": 0.0, "lat": 38.872640833333335, "type": "electric_scooter", "lon": -77.01627366666666, "is_reserved": 0, "fusion_lon": 0.0, "bike_id": "09a1880cc900b3156a5ade982d1b0308", "name": "09a1880cc900b3156a5ade982d1b0308", "rental_uris": {"ios": "https://dc.lft.to/lastmile_qr_scan", "android": "https://dc.lft.to/lastmile_qr_scan"}}, {"is_disabled": 0, "fusion_lat": 0.0, "lat": 38.933959333333334, "type": "electric_scooter", "lon": -77.04125416666666, "is_reserved": 0, "fusion_lon": 0.0, "bike_id": "f747d325d3cebe3180ffc0e92e1966a5", "name": "f747d325d3cebe3180ffc0e92e1966a5", "rental_uris": {"ios": "https://dc.lft.to/lastmile_qr_scan", "android": "https://dc.lft.to/lastmile_qr_scan"}}, {"is_disabled": 0, "fusion_lat": 0.0, "lat": 38.86659483333333, "type": "electric_scooter", "lon": -76.98879733333334, "is_reserved": 0, "fusion_lon": 0.0, "bike_id": "ebb57d510ded0edff8a9a95760be9774", "name": "ebb57d510ded0edff8a9a95760be9774", "rental_uris": {"ios": "https://dc.lft.to/lastmile_qr_scan", "android": "https://dc.lft.to/lastmile_qr_scan"}}, {"is_disabled": 0, "fusion_lat": 0.0, "lat": 38.86539066666667, "type": "electric_scooter", "lon": -76.98702716666666, "is_reserved": 0, "fusion_lon": 0.0, "bike_id": "820f4c33cb056e52564d2baf24085997", "name": "820f4c33cb056e52564d2baf24085997", "rental_uris": {"ios": "https://dc.lft.to/lastmile_qr_scan", "android": "https://dc.lft.to/lastmile_qr_scan"}}, {"is_disabled": 0, "fusion_lat": 0.0, "lat": 38.95489416666667, "type": "electric_scooter", "lon": -77.065667, "is_reserved": 0, "fusion_lon": 0.0, "bike_id": "bfdaa2be4e9ff51d8a74ab0fa70963a0", "name": "bfdaa2be4e9ff51d8a74ab0fa70963a0", "rental_uris": {"ios": "https://dc.lft.to/lastmile_qr_scan", "android": "https://dc.lft.to/lastmile_qr_scan"}}, {"is_disabled": 0, "fusion_lat": 0.0, "lat": 38.88596616666667, "type": "electric_scooter", "lon": -77.01536183333333, "is_reserved": 0, "fusion_lon": 0.0, "bike_id": "ddd8a1e7537a508c974cdfe811cdcc9b", "name": "ddd8a1e7537a508c974cdfe811cdcc9b", "rental_uris": {"ios": "https://dc.lft.to/lastmile_qr_scan", "android": "https://dc.lft.to/lastmile_qr_scan"}}, {"is_disabled": 0, "fusion_lat": 0.0, "lat": 38.9171905, "type": "electric_scooter", "lon": -77.03103666666667, "is_reserved": 0, "fusion_lon": 0.0, "bike_id": "b8303e58e23e6338e8144c84f92409b7", "name": "b8303e58e23e6338e8144c84f92409b7", "rental_uris": {"ios": "https://dc.lft.to/lastmile_qr_scan", "android": "https://dc.lft.to/lastmile_qr_scan"}}, {"is_disabled": 0, "fusion_lat": 0.0, "lat": 38.928418, "type": "electric_scooter", "lon": -77.055172, "is_reserved": 0, "fusion_lon": 0.0, "bike_id": "60d539b834aacb914b5f171aac1c4f60", "name": "60d539b834aacb914b5f171aac1c4f60", "rental_uris": {"ios": "https://dc.lft.to/lastmile_qr_scan", "android": "https://dc.lft.to/lastmile_qr_scan"}}, {"is_disabled": 0, "fusion_lat": 0.0, "lat": 38.8999765, "type": "electric_scooter", "lon": -77.03356533333333, "is_reserved": 0, "fusion_lon": 0.0, "bike_id": "1fda8b359a721b77d575e6f21c529531", "name": "1fda8b359a721b77d575e6f21c529531", "rental_uris": {"ios": "https://dc.lft.to/lastmile_qr_scan", "android": "https://dc.lft.to/lastmile_qr_scan"}}, {"is_disabled": 0, "fusion_lat": 0.0, "lat": 38.884404333333336, "type": "electric_scooter", "lon": -77.02575466666667, "is_reserved": 0, "fusion_lon": 0.0, "bike_id": "c148142a9cc30d89bf5696c6e922d298", "name": "c148142a9cc30d89bf5696c6e922d298", "rental_uris": {"ios": "https://dc.lft.to/lastmile_qr_scan", "android": "https://dc.lft.to/lastmile_qr_scan"}}, {"is_disabled": 0, "fusion_lat": 0.0, "lat": 38.91628816666667, "type": "electric_scooter", "lon": -77.0320495, "is_reserved": 0, "fusion_lon": 0.0, "bike_id": "fded2508ec4747608a4acf3939f95a63", "name": "fded2508ec4747608a4acf3939f95a63", "rental_uris": {"ios": "https://dc.lft.to/lastmile_qr_scan", "android": "https://dc.lft.to/lastmile_qr_scan"}}, {"is_disabled": 0, "fusion_lat": 0.0, "lat": 38.921775333333336, "type": "electric_scooter", "lon": -77.0422965, "is_reserved": 0, "fusion_lon": 0.0, "bike_id": "18981f18c197c47c50dc6a1c05adf3da", "name": "18981f18c197c47c50dc6a1c05adf3da", "rental_uris": {"ios": "https://dc.lft.to/lastmile_qr_scan", "android": "https://dc.lft.to/lastmile_qr_scan"}}, {"is_disabled": 0, "fusion_lat": 0.0, "lat": 38.924891833333334, "type": "electric_scooter", "lon": -77.028413, "is_reserved": 0, "fusion_lon": 0.0, "bike_id": "de433957ecc9ce278dde8663d4a825b6", "name": "de433957ecc9ce278dde8663d4a825b6", "rental_uris": {"ios": "https://dc.lft.to/lastmile_qr_scan", "android": "https://dc.lft.to/lastmile_qr_scan"}}, {"is_disabled": 0, "fusion_lat": 0.0, "lat": 38.92014483333333, "type": "electric_scooter", "lon": -77.071286, "is_reserved": 0, "fusion_lon": 0.0, "bike_id": "6881dd9fb48349aaebbd3de7bfead3a8", "name": "6881dd9fb48349aaebbd3de7bfead3a8", "rental_uris": {"ios": "https://dc.lft.to/lastmile_qr_scan", "android": "https://dc.lft.to/lastmile_qr_scan"}}, {"is_disabled": 0, "fusion_lat": 0.0, "lat": 38.925806666666666, "type": "electric_scooter", "lon": -77.039171, "is_reserved": 0, "fusion_lon": 0.0, "bike_id": "d7994698577e06300b4d7ccb108155ae", "name": "d7994698577e06300b4d7ccb108155ae", "rental_uris": {"ios": "https://dc.lft.to/lastmile_qr_scan", "android": "https://dc.lft.to/lastmile_qr_scan"}}, {"is_disabled": 0, "fusion_lat": 0.0, "lat": 38.918759333333334, "type": "electric_scooter", "lon": -77.035456, "is_reserved": 0, "fusion_lon": 0.0, "bike_id": "b0a0339ea36ffccd9828305446a666f9", "name": "b0a0339ea36ffccd9828305446a666f9", "rental_uris": {"ios": "https://dc.lft.to/lastmile_qr_scan", "android": "https://dc.lft.to/lastmile_qr_scan"}}, {"is_disabled": 0, "fusion_lat": 0.0, "lat": 38.927921, "type": "electric_scooter", "lon": -77.0271515, "is_reserved": 0, "fusion_lon": 0.0, "bike_id": "d18a3aeb9b0d96aa8b2148f57647cd17", "name": "d18a3aeb9b0d96aa8b2148f57647cd17", "rental_uris": {"ios": "https://dc.lft.to/lastmile_qr_scan", "android": "https://dc.lft.to/lastmile_qr_scan"}}, {"is_disabled": 0, "fusion_lat": 0.0, "lat": 38.910435166666666, "type": "electric_scooter", "lon": -77.01001683333334, "is_reserved": 0, "fusion_lon": 0.0, "bike_id": "baaae4dcf871e9043d9ccb2383696ef0", "name": "baaae4dcf871e9043d9ccb2383696ef0", "rental_uris": {"ios": "https://dc.lft.to/lastmile_qr_scan", "android": "https://dc.lft.to/lastmile_qr_scan"}}, {"is_disabled": 0, "fusion_lat": 0.0, "lat": 38.898358, "type": "electric_scooter", "lon": -77.03153366666666, "is_reserved": 0, "fusion_lon": 0.0, "bike_id": "daa72dd2129198372bfefab1f8e3f2f0", "name": "daa72dd2129198372bfefab1f8e3f2f0", "rental_uris": {"ios": "https://dc.lft.to/lastmile_qr_scan", "android": "https://dc.lft.to/lastmile_qr_scan"}}, {"is_disabled": 0, "fusion_lat": 0.0, "lat": 38.869908, "type": "electric_bike", "lon": -76.95978533333333, "is_reserved": 0, "fusion_lon": 0.0, "bike_id": "67edcb7921d497bd7b1b0aa0dbb1c9fc", "name": "67edcb7921d497bd7b1b0aa0dbb1c9fc", "rental_uris": {"ios": "https://dc.lft.to/lastmile_qr_scan", "android": "https://dc.lft.to/lastmile_qr_scan"}}, {"is_disabled": 0, "fusion_lat": 0.0, "lat": 38.878966, "type": "electric_scooter", "lon": -77.00569216666666, "is_reserved": 0, "fusion_lon": 0.0, "bike_id": "e3a2ca26686782a3d466b03f55338101", "name": "e3a2ca26686782a3d466b03f55338101", "rental_uris": {"ios": "https://dc.lft.to/lastmile_qr_scan", "android": "https://dc.lft.to/lastmile_qr_scan"}}, {"is_disabled": 0, "fusion_lat": 0.0, "lat": 38.884972166666664, "type": "electric_scooter", "lon": -77.00708316666666, "is_reserved": 0, "fusion_lon": 0.0, "bike_id": "5e4bd77c9383acec756d5534fe7db908", "name": "5e4bd77c9383acec756d5534fe7db908", "rental_uris": {"ios": "https://dc.lft.to/lastmile_qr_scan", "android": "https://dc.lft.to/lastmile_qr_scan"}}, {"is_disabled": 0, "fusion_lat": 0.0, "lat": 38.806202666666664, "type": "electric_bike", "lon": -77.06346966666666, "is_reserved": 0, "fusion_lon": 0.0, "bike_id": "658b47e22b9f1e61c64574885d69a260", "name": "658b47e22b9f1e61c64574885d69a260", "rental_uris": {"ios": "https://dc.lft.to/lastmile_qr_scan", "android": "https://dc.lft.to/lastmile_qr_scan"}}, {"is_disabled": 0, "fusion_lat": 0.0, "lat": 38.881822, "type": "electric_scooter", "lon": -77.02078066666667, "is_reserved": 0, "fusion_lon": 0.0, "bike_id": "49216d97d1e37cbb62aad965c63da0c3", "name": "49216d97d1e37cbb62aad965c63da0c3", "rental_uris": {"ios": "https://dc.lft.to/lastmile_qr_scan", "android": "https://dc.lft.to/lastmile_qr_scan"}}, {"is_disabled": 0, "fusion_lat": 0.0, "lat": 38.98504233333333, "type": "electric_bike", "lon": -76.9820955, "is_reserved": 0, "fusion_lon": 0.0, "bike_id": "5bb923e7a675f35858f096d6112362f6", "name": "5bb923e7a675f35858f096d6112362f6", "rental_uris": {"ios": "https://dc.lft.to/lastmile_qr_scan", "android": "https://dc.lft.to/lastmile_qr_scan"}}, {"is_disabled": 0, "fusion_lat": 0.0, "lat": 38.93238733333333, "type": "electric_scooter", "lon": -77.0327365, "is_reserved": 0, "fusion_lon": 0.0, "bike_id": "5c06a8981cec79ac2430744e9d0eb3a0", "name": "5c06a8981cec79ac2430744e9d0eb3a0", "rental_uris": {"ios": "https://dc.lft.to/lastmile_qr_scan", "android": "https://dc.lft.to/lastmile_qr_scan"}}, {"is_disabled": 0, "fusion_lat": 0.0, "lat": 38.941676, "type": "electric_scooter", "lon": -77.02532766666667, "is_reserved": 0, "fusion_lon": 0.0, "bike_id": "19ccb3aeeff41e04d24d88958288977b", "name": "19ccb3aeeff41e04d24d88958288977b", "rental_uris": {"ios": "https://dc.lft.to/lastmile_qr_scan", "android": "https://dc.lft.to/lastmile_qr_scan"}}, {"is_disabled": 0, "fusion_lat": 0.0, "lat": 38.9209485, "type": "electric_scooter", "lon": -77.02541333333333, "is_reserved": 0, "fusion_lon": 0.0, "bike_id": "41e23ae555a56a1ea7dc85f678cab77b", "name": "41e23ae555a56a1ea7dc85f678cab77b", "rental_uris": {"ios": "https://dc.lft.to/lastmile_qr_scan", "android": "https://dc.lft.to/lastmile_qr_scan"}}, {"is_disabled": 0, "fusion_lat": 0.0, "lat": 38.822646166666665, "type": "electric_bike", "lon": -77.05812433333334, "is_reserved": 0, "fusion_lon": 0.0, "bike_id": "99028960cc0687d44ca9c31a3b34ea2e", "name": "99028960cc0687d44ca9c31a3b34ea2e", "rental_uris": {"ios": "https://dc.lft.to/lastmile_qr_scan", "android": "https://dc.lft.to/lastmile_qr_scan"}}, {"is_disabled": 0, "fusion_lat": 0.0, "lat": 38.924799, "type": "electric_scooter", "lon": -77.026285, "is_reserved": 0, "fusion_lon": 0.0, "bike_id": "1699bba39761aa59a8568a6146f8a740", "name": "1699bba39761aa59a8568a6146f8a740", "rental_uris": {"ios": "https://dc.lft.to/lastmile_qr_scan", "android": "https://dc.lft.to/lastmile_qr_scan"}}, {"is_disabled": 0, "fusion_lat": 0.0, "lat": 38.860618, "type": "electric_scooter", "lon": -76.9842075, "is_reserved": 0, "fusion_lon": 0.0, "bike_id": "8c0d38a14f1b4fb3e08bdbf095d7f048", "name": "8c0d38a14f1b4fb3e08bdbf095d7f048", "rental_uris": {"ios": "https://dc.lft.to/lastmile_qr_scan", "android": "https://dc.lft.to/lastmile_qr_scan"}}, {"is_disabled": 0, "fusion_lat": 0.0, "lat": 38.907851, "type": "electric_scooter", "lon": -77.03661433333333, "is_reserved": 0, "fusion_lon": 0.0, "bike_id": "f458c40fb64eb8e6e3e69164f742b045", "name": "f458c40fb64eb8e6e3e69164f742b045", "rental_uris": {"ios": "https://dc.lft.to/lastmile_qr_scan", "android": "https://dc.lft.to/lastmile_qr_scan"}}, {"is_disabled": 0, "fusion_lat": 0.0, "lat": 38.93010116666667, "type": "electric_scooter", "lon": -77.02090483333333, "is_reserved": 0, "fusion_lon": 0.0, "bike_id": "3c34e52ef4643cf4b9eb8720a60c8fa9", "name": "3c34e52ef4643cf4b9eb8720a60c8fa9", "rental_uris": {"ios": "https://dc.lft.to/lastmile_qr_scan", "android": "https://dc.lft.to/lastmile_qr_scan"}}, {"is_disabled": 0, "fusion_lat": 0.0, "lat": 38.958901833333336, "type": "electric_bike", "lon": -76.92482383333333, "is_reserved": 0, "fusion_lon": 0.0, "bike_id": "9db5f5d888c27444ab6691786d28b8bf", "name": "9db5f5d888c27444ab6691786d28b8bf", "rental_uris": {"ios": "https://dc.lft.to/lastmile_qr_scan", "android": "https://dc.lft.to/lastmile_qr_scan"}}, {"is_disabled": 0, "fusion_lat": 0.0, "lat": 38.895163833333335, "type": "electric_scooter", "lon": -77.048394, "is_reserved": 0, "fusion_lon": 0.0, "bike_id": "34386fa081a25f4bf4b86107cd8dc63a", "name": "34386fa081a25f4bf4b86107cd8dc63a", "rental_uris": {"ios": "https://dc.lft.to/lastmile_qr_scan", "android": "https://dc.lft.to/lastmile_qr_scan"}}, {"is_disabled": 0, "fusion_lat": 0.0, "lat": 38.91036416666667, "type": "electric_scooter", "lon": -77.04394, "is_reserved": 0, "fusion_lon": 0.0, "bike_id": "c5a1737e3fee8212250f60747a4fe591", "name": "c5a1737e3fee8212250f60747a4fe591", "rental_uris": {"ios": "https://dc.lft.to/lastmile_qr_scan", "android": "https://dc.lft.to/lastmile_qr_scan"}}, {"is_disabled": 0, "fusion_lat": 0.0, "lat": 38.930558, "type": "electric_scooter", "lon": -77.03233916666667, "is_reserved": 0, "fusion_lon": 0.0, "bike_id": "5c291917005bb2edae1d0ee21738119b", "name": "5c291917005bb2edae1d0ee21738119b", "rental_uris": {"ios": "https://dc.lft.to/lastmile_qr_scan", "android": "https://dc.lft.to/lastmile_qr_scan"}}, {"is_disabled": 0, "fusion_lat": 0.0, "lat": 38.909494333333335, "type": "electric_scooter", "lon": -77.04056316666667, "is_reserved": 0, "fusion_lon": 0.0, "bike_id": "af381bd66cee718623d77429e4d291a7", "name": "af381bd66cee718623d77429e4d291a7", "rental_uris": {"ios": "https://dc.lft.to/lastmile_qr_scan", "android": "https://dc.lft.to/lastmile_qr_scan"}}, {"is_disabled": 0, "fusion_lat": 0.0, "lat": 38.90574266666667, "type": "electric_scooter", "lon": -77.04361783333333, "is_reserved": 0, "fusion_lon": 0.0, "bike_id": "bfe91f7e714a70cf35ff6a01a25d7840", "name": "bfe91f7e714a70cf35ff6a01a25d7840", "rental_uris": {"ios": "https://dc.lft.to/lastmile_qr_scan", "android": "https://dc.lft.to/lastmile_qr_scan"}}, {"is_disabled": 0, "fusion_lat": 0.0, "lat": 38.890421833333335, "type": "electric_scooter", "lon": -76.94081166666666, "is_reserved": 0, "fusion_lon": 0.0, "bike_id": "5d98138d8e86fc7db8aa47722160904e", "name": "5d98138d8e86fc7db8aa47722160904e", "rental_uris": {"ios": "https://dc.lft.to/lastmile_qr_scan", "android": "https://dc.lft.to/lastmile_qr_scan"}}, {"is_disabled": 0, "fusion_lat": 0.0, "lat": 38.87550933333333, "type": "electric_scooter", "lon": -76.9648565, "is_reserved": 0, "fusion_lon": 0.0, "bike_id": "2579409194f403b7f1002d9e84aa6725", "name": "2579409194f403b7f1002d9e84aa6725", "rental_uris": {"ios": "https://dc.lft.to/lastmile_qr_scan", "android": "https://dc.lft.to/lastmile_qr_scan"}}, {"is_disabled": 0, "fusion_lat": 0.0, "lat": 38.9247615, "type": "electric_scooter", "lon": -77.03779466666667, "is_reserved": 0, "fusion_lon": 0.0, "bike_id": "5d13025c395c4538062ff011977ea573", "name": "5d13025c395c4538062ff011977ea573", "rental_uris": {"ios": "https://dc.lft.to/lastmile_qr_scan", "android": "https://dc.lft.to/lastmile_qr_scan"}}, {"is_disabled": 0, "fusion_lat": 0.0, "lat": 38.9066735, "type": "electric_scooter", "lon": -76.98784733333333, "is_reserved": 0, "fusion_lon": 0.0, "bike_id": "1400564ec24d8528046070552c187b5a", "name": "1400564ec24d8528046070552c187b5a", "rental_uris": {"ios": "https://dc.lft.to/lastmile_qr_scan", "android": "https://dc.lft.to/lastmile_qr_scan"}}, {"is_disabled": 0, "fusion_lat": 0.0, "lat": 38.930930833333335, "type": "electric_scooter", "lon": -77.03669933333333, "is_reserved": 0, "fusion_lon": 0.0, "bike_id": "75537c2bf82f40faccb80761ff157491", "name": "75537c2bf82f40faccb80761ff157491", "rental_uris": {"ios": "https://dc.lft.to/lastmile_qr_scan", "android": "https://dc.lft.to/lastmile_qr_scan"}}, {"is_disabled": 0, "fusion_lat": 0.0, "lat": 38.90792883333334, "type": "electric_scooter", "lon": -77.03478783333334, "is_reserved": 0, "fusion_lon": 0.0, "bike_id": "2814e2a8f318c58f029b89b81dfcffef", "name": "2814e2a8f318c58f029b89b81dfcffef", "rental_uris": {"ios": "https://dc.lft.to/lastmile_qr_scan", "android": "https://dc.lft.to/lastmile_qr_scan"}}, {"is_disabled": 0, "fusion_lat": 0.0, "lat": 38.90411433333333, "type": "electric_scooter", "lon": -76.9810065, "is_reserved": 0, "fusion_lon": 0.0, "bike_id": "c0d1d2d35cf7b6f38487ec1be1d1d37b", "name": "c0d1d2d35cf7b6f38487ec1be1d1d37b", "rental_uris": {"ios": "https://dc.lft.to/lastmile_qr_scan", "android": "https://dc.lft.to/lastmile_qr_scan"}}, {"is_disabled": 0, "fusion_lat": 0.0, "lat": 38.900053166666666, "type": "electric_scooter", "lon": -77.05262633333334, "is_reserved": 0, "fusion_lon": 0.0, "bike_id": "92d7c6d679aad4fde66d19b9d36f7467", "name": "92d7c6d679aad4fde66d19b9d36f7467", "rental_uris": {"ios": "https://dc.lft.to/lastmile_qr_scan", "android": "https://dc.lft.to/lastmile_qr_scan"}}, {"is_disabled": 0, "fusion_lat": 0.0, "lat": 38.92314966666667, "type": "electric_scooter", "lon": -77.037974, "is_reserved": 0, "fusion_lon": 0.0, "bike_id": "8e01dd69bc9bd6a92cc6e78d10ba5211", "name": "8e01dd69bc9bd6a92cc6e78d10ba5211", "rental_uris": {"ios": "https://dc.lft.to/lastmile_qr_scan", "android": "https://dc.lft.to/lastmile_qr_scan"}}, {"is_disabled": 0, "fusion_lat": 0.0, "lat": 38.920677, "type": "electric_scooter", "lon": -77.031819, "is_reserved": 0, "fusion_lon": 0.0, "bike_id": "a95de15e58f9045f8c9e212a21074c9e", "name": "a95de15e58f9045f8c9e212a21074c9e", "rental_uris": {"ios": "https://dc.lft.to/lastmile_qr_scan", "android": "https://dc.lft.to/lastmile_qr_scan"}}, {"is_disabled": 0, "fusion_lat": 0.0, "lat": 38.91050533333333, "type": "electric_scooter", "lon": -77.01514616666667, "is_reserved": 0, "fusion_lon": 0.0, "bike_id": "6ed6934cc61b698c025ea73bd6abb05d", "name": "6ed6934cc61b698c025ea73bd6abb05d", "rental_uris": {"ios": "https://dc.lft.to/lastmile_qr_scan", "android": "https://dc.lft.to/lastmile_qr_scan"}}, {"is_disabled": 0, "fusion_lat": 0.0, "lat": 38.933466833333334, "type": "electric_scooter", "lon": -77.05864233333334, "is_reserved": 0, "fusion_lon": 0.0, "bike_id": "740cb17b8282e89b482d85e0e4668728", "name": "740cb17b8282e89b482d85e0e4668728", "rental_uris": {"ios": "https://dc.lft.to/lastmile_qr_scan", "android": "https://dc.lft.to/lastmile_qr_scan"}}, {"is_disabled": 0, "fusion_lat": 0.0, "lat": 38.916632166666666, "type": "electric_scooter", "lon": -77.03850966666667, "is_reserved": 0, "fusion_lon": 0.0, "bike_id": "961c36e34502611291b4ef38c524cba1", "name": "961c36e34502611291b4ef38c524cba1", "rental_uris": {"ios": "https://dc.lft.to/lastmile_qr_scan", "android": "https://dc.lft.to/lastmile_qr_scan"}}, {"is_disabled": 0, "fusion_lat": 0.0, "lat": 38.9283305, "type": "electric_scooter", "lon": -77.03263933333334, "is_reserved": 0, "fusion_lon": 0.0, "bike_id": "5f1b4ff4d8e468948632cae809a63e78", "name": "5f1b4ff4d8e468948632cae809a63e78", "rental_uris": {"ios": "https://dc.lft.to/lastmile_qr_scan", "android": "https://dc.lft.to/lastmile_qr_scan"}}, {"is_disabled": 0, "fusion_lat": 0.0, "lat": 38.899133, "type": "electric_scooter", "lon": -76.93377816666667, "is_reserved": 0, "fusion_lon": 0.0, "bike_id": "8bb71d69bff0adb20543a1252bf35e3d", "name": "8bb71d69bff0adb20543a1252bf35e3d", "rental_uris": {"ios": "https://dc.lft.to/lastmile_qr_scan", "android": "https://dc.lft.to/lastmile_qr_scan"}}, {"is_disabled": 0, "fusion_lat": 0.0, "lat": 38.90129566666667, "type": "electric_scooter", "lon": -76.99708016666666, "is_reserved": 0, "fusion_lon": 0.0, "bike_id": "6f9217b177275441152f7a8ce4c98038", "name": "6f9217b177275441152f7a8ce4c98038", "rental_uris": {"ios": "https://dc.lft.to/lastmile_qr_scan", "android": "https://dc.lft.to/lastmile_qr_scan"}}, {"is_disabled": 0, "fusion_lat": 0.0, "lat": 38.920124, "type": "electric_scooter", "lon": -77.02184816666667, "is_reserved": 0, "fusion_lon": 0.0, "bike_id": "acce7cdc36e04219019433ba8b224fe8", "name": "acce7cdc36e04219019433ba8b224fe8", "rental_uris": {"ios": "https://dc.lft.to/lastmile_qr_scan", "android": "https://dc.lft.to/lastmile_qr_scan"}}, {"is_disabled": 0, "fusion_lat": 0.0, "lat": 38.91158333333333, "type": "electric_scooter", "lon": -76.98659233333333, "is_reserved": 0, "fusion_lon": 0.0, "bike_id": "d68346adb090b076f9e070307eec782e", "name": "d68346adb090b076f9e070307eec782e", "rental_uris": {"ios": "https://dc.lft.to/lastmile_qr_scan", "android": "https://dc.lft.to/lastmile_qr_scan"}}, {"is_disabled": 0, "fusion_lat": 0.0, "lat": 38.9526725, "type": "electric_scooter", "lon": -77.06883983333333, "is_reserved": 0, "fusion_lon": 0.0, "bike_id": "3e9b5b155d0b75ca04460a2a8ceb19bf", "name": "3e9b5b155d0b75ca04460a2a8ceb19bf", "rental_uris": {"ios": "https://dc.lft.to/lastmile_qr_scan", "android": "https://dc.lft.to/lastmile_qr_scan"}}, {"is_disabled": 0, "fusion_lat": 0.0, "lat": 38.927123333333334, "type": "electric_scooter", "lon": -77.04049383333333, "is_reserved": 0, "fusion_lon": 0.0, "bike_id": "22cba664f0209b89a5abb96f713cb26b", "name": "22cba664f0209b89a5abb96f713cb26b", "rental_uris": {"ios": "https://dc.lft.to/lastmile_qr_scan", "android": "https://dc.lft.to/lastmile_qr_scan"}}, {"is_disabled": 0, "fusion_lat": 0.0, "lat": 38.920156666666664, "type": "electric_scooter", "lon": -77.04076183333333, "is_reserved": 0, "fusion_lon": 0.0, "bike_id": "7027cf3e82b21c4376443495e2380b85", "name": "7027cf3e82b21c4376443495e2380b85", "rental_uris": {"ios": "https://dc.lft.to/lastmile_qr_scan", "android": "https://dc.lft.to/lastmile_qr_scan"}}, {"is_disabled": 0, "fusion_lat": 0.0, "lat": 38.92447766666667, "type": "electric_bike", "lon": -76.99659283333334, "is_reserved": 0, "fusion_lon": 0.0, "bike_id": "ea5f8d2f94e0fba3f035874b01f14bda", "name": "ea5f8d2f94e0fba3f035874b01f14bda", "rental_uris": {"ios": "https://dc.lft.to/lastmile_qr_scan", "android": "https://dc.lft.to/lastmile_qr_scan"}}, {"is_disabled": 0, "fusion_lat": 0.0, "lat": 38.90101283333333, "type": "electric_scooter", "lon": -77.04383533333333, "is_reserved": 0, "fusion_lon": 0.0, "bike_id": "498cea679f3b7c6c5575665470940f19", "name": "498cea679f3b7c6c5575665470940f19", "rental_uris": {"ios": "https://dc.lft.to/lastmile_qr_scan", "android": "https://dc.lft.to/lastmile_qr_scan"}}, {"is_disabled": 0, "fusion_lat": 0.0, "lat": 38.9124615, "type": "electric_scooter", "lon": -77.01620333333334, "is_reserved": 0, "fusion_lon": 0.0, "bike_id": "2838392e25866c8ec8b51cd724d8946c", "name": "2838392e25866c8ec8b51cd724d8946c", "rental_uris": {"ios": "https://dc.lft.to/lastmile_qr_scan", "android": "https://dc.lft.to/lastmile_qr_scan"}}, {"is_disabled": 0, "fusion_lat": 0.0, "lat": 38.92256883333334, "type": "electric_scooter", "lon": -77.0425465, "is_reserved": 0, "fusion_lon": 0.0, "bike_id": "d55b4f99f314ab3149c381211150e3cb", "name": "d55b4f99f314ab3149c381211150e3cb", "rental_uris": {"ios": "https://dc.lft.to/lastmile_qr_scan", "android": "https://dc.lft.to/lastmile_qr_scan"}}, {"is_disabled": 0, "fusion_lat": 0.0, "lat": 38.92761983333333, "type": "electric_scooter", "lon": -77.005937, "is_reserved": 0, "fusion_lon": 0.0, "bike_id": "a9a3a2fba77dc58f1a1aea2d0ad6b93c", "name": "a9a3a2fba77dc58f1a1aea2d0ad6b93c", "rental_uris": {"ios": "https://dc.lft.to/lastmile_qr_scan", "android": "https://dc.lft.to/lastmile_qr_scan"}}, {"is_disabled": 0, "fusion_lat": 0.0, "lat": 38.906022166666666, "type": "electric_scooter", "lon": -77.03978066666667, "is_reserved": 0, "fusion_lon": 0.0, "bike_id": "b7b1b958e8a3f6139b8819431bf65cca", "name": "b7b1b958e8a3f6139b8819431bf65cca", "rental_uris": {"ios": "https://dc.lft.to/lastmile_qr_scan", "android": "https://dc.lft.to/lastmile_qr_scan"}}, {"is_disabled": 0, "fusion_lat": 0.0, "lat": 38.906023166666664, "type": "electric_scooter", "lon": -77.05899583333333, "is_reserved": 0, "fusion_lon": 0.0, "bike_id": "3750b9175b6b716fdad86c0f30a3b8d8", "name": "3750b9175b6b716fdad86c0f30a3b8d8", "rental_uris": {"ios": "https://dc.lft.to/lastmile_qr_scan", "android": "https://dc.lft.to/lastmile_qr_scan"}}, {"is_disabled": 0, "fusion_lat": 0.0, "lat": 38.91987916666667, "type": "electric_scooter", "lon": -77.04172883333334, "is_reserved": 0, "fusion_lon": 0.0, "bike_id": "d1ecbe45fe902d5e6b7d37c43116b172", "name": "d1ecbe45fe902d5e6b7d37c43116b172", "rental_uris": {"ios": "https://dc.lft.to/lastmile_qr_scan", "android": "https://dc.lft.to/lastmile_qr_scan"}}, {"is_disabled": 0, "fusion_lat": 0.0, "lat": 38.90723033333333, "type": "electric_scooter", "lon": -77.02327233333334, "is_reserved": 0, "fusion_lon": 0.0, "bike_id": "aa2b0613262779c232b0e855531ffdd9", "name": "aa2b0613262779c232b0e855531ffdd9", "rental_uris": {"ios": "https://dc.lft.to/lastmile_qr_scan", "android": "https://dc.lft.to/lastmile_qr_scan"}}, {"is_disabled": 0, "fusion_lat": 0.0, "lat": 38.878477, "type": "electric_scooter", "lon": -77.022657, "is_reserved": 0, "fusion_lon": 0.0, "bike_id": "e9abb20be4d41e4f4cb01e04ef756527", "name": "e9abb20be4d41e4f4cb01e04ef756527", "rental_uris": {"ios": "https://dc.lft.to/lastmile_qr_scan", "android": "https://dc.lft.to/lastmile_qr_scan"}}, {"is_disabled": 0, "fusion_lat": 0.0, "lat": 38.9155005, "type": "electric_scooter", "lon": -77.0416975, "is_reserved": 0, "fusion_lon": 0.0, "bike_id": "30df574eab648095e9ad3c207e8f252b", "name": "30df574eab648095e9ad3c207e8f252b", "rental_uris": {"ios": "https://dc.lft.to/lastmile_qr_scan", "android": "https://dc.lft.to/lastmile_qr_scan"}}, {"is_disabled": 0, "fusion_lat": 0.0, "lat": 38.92477933333333, "type": "electric_scooter", "lon": -77.0254775, "is_reserved": 0, "fusion_lon": 0.0, "bike_id": "0afe3deec86a44f49ddea8803e2d21aa", "name": "0afe3deec86a44f49ddea8803e2d21aa", "rental_uris": {"ios": "https://dc.lft.to/lastmile_qr_scan", "android": "https://dc.lft.to/lastmile_qr_scan"}}, {"is_disabled": 0, "fusion_lat": 0.0, "lat": 38.927446833333335, "type": "electric_scooter", "lon": -77.02536033333334, "is_reserved": 0, "fusion_lon": 0.0, "bike_id": "9e0d5bedf01efc0f2febe16a4a091aa3", "name": "9e0d5bedf01efc0f2febe16a4a091aa3", "rental_uris": {"ios": "https://dc.lft.to/lastmile_qr_scan", "android": "https://dc.lft.to/lastmile_qr_scan"}}, {"is_disabled": 0, "fusion_lat": 0.0, "lat": 38.9051635, "type": "electric_scooter", "lon": -77.06871533333333, "is_reserved": 0, "fusion_lon": 0.0, "bike_id": "da27dc30d547a8af15b1b33d4ed348e3", "name": "da27dc30d547a8af15b1b33d4ed348e3", "rental_uris": {"ios": "https://dc.lft.to/lastmile_qr_scan", "android": "https://dc.lft.to/lastmile_qr_scan"}}, {"is_disabled": 0, "fusion_lat": 0.0, "lat": 38.897056666666664, "type": "electric_scooter", "lon": -77.0311935, "is_reserved": 0, "fusion_lon": 0.0, "bike_id": "e1aaf40f2884713cdecb3584d22035aa", "name": "e1aaf40f2884713cdecb3584d22035aa", "rental_uris": {"ios": "https://dc.lft.to/lastmile_qr_scan", "android": "https://dc.lft.to/lastmile_qr_scan"}}, {"is_disabled": 0, "fusion_lat": 0.0, "lat": 38.89886, "type": "electric_scooter", "lon": -76.93174733333333, "is_reserved": 0, "fusion_lon": 0.0, "bike_id": "d0b778a27cbe87e7c4c55ae24776c97b", "name": "d0b778a27cbe87e7c4c55ae24776c97b", "rental_uris": {"ios": "https://dc.lft.to/lastmile_qr_scan", "android": "https://dc.lft.to/lastmile_qr_scan"}}, {"is_disabled": 0, "fusion_lat": 0.0, "lat": 38.88868633333333, "type": "electric_bike", "lon": -76.99467283333334, "is_reserved": 0, "fusion_lon": 0.0, "bike_id": "8a7c122b6f10c52a142513cc29e303fd", "name": "8a7c122b6f10c52a142513cc29e303fd", "rental_uris": {"ios": "https://dc.lft.to/lastmile_qr_scan", "android": "https://dc.lft.to/lastmile_qr_scan"}}, {"is_disabled": 0, "fusion_lat": 0.0, "lat": 38.930919, "type": "electric_scooter", "lon": -77.031273, "is_reserved": 0, "fusion_lon": 0.0, "bike_id": "b9afb4878f1d496ff3b6ca98b80a02e7", "name": "b9afb4878f1d496ff3b6ca98b80a02e7", "rental_uris": {"ios": "https://dc.lft.to/lastmile_qr_scan", "android": "https://dc.lft.to/lastmile_qr_scan"}}, {"is_disabled": 0, "fusion_lat": 0.0, "lat": 38.89734, "type": "electric_scooter", "lon": -77.055651, "is_reserved": 0, "fusion_lon": 0.0, "bike_id": "7c2d3b9dfde39fe8699b3b182d991fd5", "name": "7c2d3b9dfde39fe8699b3b182d991fd5", "rental_uris": {"ios": "https://dc.lft.to/lastmile_qr_scan", "android": "https://dc.lft.to/lastmile_qr_scan"}}, {"is_disabled": 0, "fusion_lat": 0.0, "lat": 38.9021065, "type": "electric_scooter", "lon": -76.98843583333333, "is_reserved": 0, "fusion_lon": 0.0, "bike_id": "ced7413cd0064e05e165229b012e42d1", "name": "ced7413cd0064e05e165229b012e42d1", "rental_uris": {"ios": "https://dc.lft.to/lastmile_qr_scan", "android": "https://dc.lft.to/lastmile_qr_scan"}}, {"is_disabled": 0, "fusion_lat": 0.0, "lat": 38.893746166666666, "type": "electric_scooter", "lon": -77.04785616666666, "is_reserved": 0, "fusion_lon": 0.0, "bike_id": "7b84af6c05cd3792e1eb11140ae89eb9", "name": "7b84af6c05cd3792e1eb11140ae89eb9", "rental_uris": {"ios": "https://dc.lft.to/lastmile_qr_scan", "android": "https://dc.lft.to/lastmile_qr_scan"}}, {"is_disabled": 0, "fusion_lat": 0.0, "lat": 38.942398833333336, "type": "electric_scooter", "lon": -77.07234233333334, "is_reserved": 0, "fusion_lon": 0.0, "bike_id": "aade4299883be244f66e54c315d75e99", "name": "aade4299883be244f66e54c315d75e99", "rental_uris": {"ios": "https://dc.lft.to/lastmile_qr_scan", "android": "https://dc.lft.to/lastmile_qr_scan"}}, {"is_disabled": 0, "fusion_lat": 0.0, "lat": 38.94904233333333, "type": "electric_bike", "lon": -76.97234533333334, "is_reserved": 0, "fusion_lon": 0.0, "bike_id": "de61edaf0831d0aa21c15805da11314b", "name": "de61edaf0831d0aa21c15805da11314b", "rental_uris": {"ios": "https://dc.lft.to/lastmile_qr_scan", "android": "https://dc.lft.to/lastmile_qr_scan"}}, {"is_disabled": 0, "fusion_lat": 0.0, "lat": 38.90493266666667, "type": "electric_scooter", "lon": -77.06276383333334, "is_reserved": 0, "fusion_lon": 0.0, "bike_id": "cee85a442b7badc51ebf210b18e940a4", "name": "cee85a442b7badc51ebf210b18e940a4", "rental_uris": {"ios": "https://dc.lft.to/lastmile_qr_scan", "android": "https://dc.lft.to/lastmile_qr_scan"}}, {"is_disabled": 0, "fusion_lat": 0.0, "lat": 38.92409333333333, "type": "electric_bike", "lon": -77.0341225, "is_reserved": 0, "fusion_lon": 0.0, "bike_id": "64625cceaa1080cee4a538a68ec82317", "name": "64625cceaa1080cee4a538a68ec82317", "rental_uris": {"ios": "https://dc.lft.to/lastmile_qr_scan", "android": "https://dc.lft.to/lastmile_qr_scan"}}, {"is_disabled": 0, "fusion_lat": 0.0, "lat": 38.896025, "type": "electric_scooter", "lon": -77.02782566666667, "is_reserved": 0, "fusion_lon": 0.0, "bike_id": "4c75a400d06f30eb931350c33ef65935", "name": "4c75a400d06f30eb931350c33ef65935", "rental_uris": {"ios": "https://dc.lft.to/lastmile_qr_scan", "android": "https://dc.lft.to/lastmile_qr_scan"}}, {"is_disabled": 0, "fusion_lat": 0.0, "lat": 38.924594, "type": "electric_scooter", "lon": -77.0327765, "is_reserved": 0, "fusion_lon": 0.0, "bike_id": "20057fa6ebe581f0d0eb07b7f1c78a4f", "name": "20057fa6ebe581f0d0eb07b7f1c78a4f", "rental_uris": {"ios": "https://dc.lft.to/lastmile_qr_scan", "android": "https://dc.lft.to/lastmile_qr_scan"}}, {"is_disabled": 0, "fusion_lat": 0.0, "lat": 38.94167983333333, "type": "electric_scooter", "lon": -77.02341483333333, "is_reserved": 0, "fusion_lon": 0.0, "bike_id": "d66a96f59c1a30ce9b9ae1f75c877a11", "name": "d66a96f59c1a30ce9b9ae1f75c877a11", "rental_uris": {"ios": "https://dc.lft.to/lastmile_qr_scan", "android": "https://dc.lft.to/lastmile_qr_scan"}}, {"is_disabled": 0, "fusion_lat": 0.0, "lat": 38.90965833333333, "type": "electric_scooter", "lon": -77.01441533333333, "is_reserved": 0, "fusion_lon": 0.0, "bike_id": "ad8058f4a7d1288b3bdb266964ca26df", "name": "ad8058f4a7d1288b3bdb266964ca26df", "rental_uris": {"ios": "https://dc.lft.to/lastmile_qr_scan", "android": "https://dc.lft.to/lastmile_qr_scan"}}, {"is_disabled": 0, "fusion_lat": 0.0, "lat": 38.92986066666667, "type": "electric_scooter", "lon": -77.036475, "is_reserved": 0, "fusion_lon": 0.0, "bike_id": "cae5084f1903f31095972e98e5207e07", "name": "cae5084f1903f31095972e98e5207e07", "rental_uris": {"ios": "https://dc.lft.to/lastmile_qr_scan", "android": "https://dc.lft.to/lastmile_qr_scan"}}, {"is_disabled": 0, "fusion_lat": 0.0, "lat": 38.9237785, "type": "electric_scooter", "lon": -77.025567, "is_reserved": 0, "fusion_lon": 0.0, "bike_id": "b32c9d524cef27db3c3dd977c08a3869", "name": "b32c9d524cef27db3c3dd977c08a3869", "rental_uris": {"ios": "https://dc.lft.to/lastmile_qr_scan", "android": "https://dc.lft.to/lastmile_qr_scan"}}, {"is_disabled": 0, "fusion_lat": 0.0, "lat": 38.9416915, "type": "electric_scooter", "lon": -77.0253025, "is_reserved": 0, "fusion_lon": 0.0, "bike_id": "54223b12aecb37fd51567d5cd29fddfa", "name": "54223b12aecb37fd51567d5cd29fddfa", "rental_uris": {"ios": "https://dc.lft.to/lastmile_qr_scan", "android": "https://dc.lft.to/lastmile_qr_scan"}}, {"is_disabled": 0, "fusion_lat": 0.0, "lat": 38.92906133333334, "type": "electric_scooter", "lon": -77.03246916666667, "is_reserved": 0, "fusion_lon": 0.0, "bike_id": "36a42d125b44f4385f75d24e4087738f", "name": "36a42d125b44f4385f75d24e4087738f", "rental_uris": {"ios": "https://dc.lft.to/lastmile_qr_scan", "android": "https://dc.lft.to/lastmile_qr_scan"}}, {"is_disabled": 0, "fusion_lat": 0.0, "lat": 38.920744, "type": "electric_scooter", "lon": -77.02386866666667, "is_reserved": 0, "fusion_lon": 0.0, "bike_id": "aa325cee1a2ac867062bceab5203543e", "name": "aa325cee1a2ac867062bceab5203543e", "rental_uris": {"ios": "https://dc.lft.to/lastmile_qr_scan", "android": "https://dc.lft.to/lastmile_qr_scan"}}, {"is_disabled": 0, "fusion_lat": 0.0, "lat": 38.86278566666667, "type": "electric_scooter", "lon": -76.9923245, "is_reserved": 0, "fusion_lon": 0.0, "bike_id": "d06b6b6a87e49cbe9c5e034bd954846a", "name": "d06b6b6a87e49cbe9c5e034bd954846a", "rental_uris": {"ios": "https://dc.lft.to/lastmile_qr_scan", "android": "https://dc.lft.to/lastmile_qr_scan"}}, {"is_disabled": 0, "fusion_lat": 0.0, "lat": 38.91344633333333, "type": "electric_scooter", "lon": -77.03014016666667, "is_reserved": 0, "fusion_lon": 0.0, "bike_id": "c829cc0f4ef5c466b191af81f0fd53a3", "name": "c829cc0f4ef5c466b191af81f0fd53a3", "rental_uris": {"ios": "https://dc.lft.to/lastmile_qr_scan", "android": "https://dc.lft.to/lastmile_qr_scan"}}, {"is_disabled": 0, "fusion_lat": 0.0, "lat": 38.9417075, "type": "electric_scooter", "lon": -77.04134233333333, "is_reserved": 0, "fusion_lon": 0.0, "bike_id": "e48f41cfe8e98517e5e578d0afacefb6", "name": "e48f41cfe8e98517e5e578d0afacefb6", "rental_uris": {"ios": "https://dc.lft.to/lastmile_qr_scan", "android": "https://dc.lft.to/lastmile_qr_scan"}}, {"is_disabled": 0, "fusion_lat": 0.0, "lat": 38.907091666666666, "type": "electric_scooter", "lon": -77.04197833333333, "is_reserved": 0, "fusion_lon": 0.0, "bike_id": "27a2c1562e2eebfdb007c664f073f616", "name": "27a2c1562e2eebfdb007c664f073f616", "rental_uris": {"ios": "https://dc.lft.to/lastmile_qr_scan", "android": "https://dc.lft.to/lastmile_qr_scan"}}, {"is_disabled": 0, "fusion_lat": 0.0, "lat": 38.906870166666664, "type": "electric_scooter", "lon": -77.06350133333333, "is_reserved": 0, "fusion_lon": 0.0, "bike_id": "ab97b0d69379c69e59967ff2f48d95c7", "name": "ab97b0d69379c69e59967ff2f48d95c7", "rental_uris": {"ios": "https://dc.lft.to/lastmile_qr_scan", "android": "https://dc.lft.to/lastmile_qr_scan"}}, {"is_disabled": 0, "fusion_lat": 0.0, "lat": 38.965035666666665, "type": "electric_bike", "lon": -77.02825933333334, "is_reserved": 0, "fusion_lon": 0.0, "bike_id": "cb0a764744b04a804390d40c7d489993", "name": "cb0a764744b04a804390d40c7d489993", "rental_uris": {"ios": "https://dc.lft.to/lastmile_qr_scan", "android": "https://dc.lft.to/lastmile_qr_scan"}}, {"is_disabled": 0, "fusion_lat": 0.0, "lat": 38.9331675, "type": "electric_scooter", "lon": -77.03272916666667, "is_reserved": 0, "fusion_lon": 0.0, "bike_id": "7e817355474c556d870243cb6563494b", "name": "7e817355474c556d870243cb6563494b", "rental_uris": {"ios": "https://dc.lft.to/lastmile_qr_scan", "android": "https://dc.lft.to/lastmile_qr_scan"}}, {"is_disabled": 0, "fusion_lat": 0.0, "lat": 38.925548166666665, "type": "electric_scooter", "lon": -77.05298483333333, "is_reserved": 0, "fusion_lon": 0.0, "bike_id": "7adbe18c522eba17a77cce1f1a6b8864", "name": "7adbe18c522eba17a77cce1f1a6b8864", "rental_uris": {"ios": "https://dc.lft.to/lastmile_qr_scan", "android": "https://dc.lft.to/lastmile_qr_scan"}}, {"is_disabled": 0, "fusion_lat": 0.0, "lat": 38.95193, "type": "electric_bike", "lon": -76.96721366666667, "is_reserved": 0, "fusion_lon": 0.0, "bike_id": "229e26d6a3f4dc0b987b2dbee9745bc9", "name": "229e26d6a3f4dc0b987b2dbee9745bc9", "rental_uris": {"ios": "https://dc.lft.to/lastmile_qr_scan", "android": "https://dc.lft.to/lastmile_qr_scan"}}, {"is_disabled": 0, "fusion_lat": 0.0, "lat": 38.903886666666665, "type": "electric_scooter", "lon": -77.01102983333334, "is_reserved": 0, "fusion_lon": 0.0, "bike_id": "5dff28786a1c26e6e96337b60b7d7060", "name": "5dff28786a1c26e6e96337b60b7d7060", "rental_uris": {"ios": "https://dc.lft.to/lastmile_qr_scan", "android": "https://dc.lft.to/lastmile_qr_scan"}}, {"is_disabled": 0, "fusion_lat": 0.0, "lat": 38.9034755, "type": "electric_scooter", "lon": -76.97561733333333, "is_reserved": 0, "fusion_lon": 0.0, "bike_id": "f9e94f4d6bf746ef9308da966034253f", "name": "f9e94f4d6bf746ef9308da966034253f", "rental_uris": {"ios": "https://dc.lft.to/lastmile_qr_scan", "android": "https://dc.lft.to/lastmile_qr_scan"}}, {"is_disabled": 0, "fusion_lat": 0.0, "lat": 38.863875, "type": "electric_bike", "lon": -76.98989483333334, "is_reserved": 0, "fusion_lon": 0.0, "bike_id": "13d3fb116a7b90f2fd82eb2e15b47772", "name": "13d3fb116a7b90f2fd82eb2e15b47772", "rental_uris": {"ios": "https://dc.lft.to/lastmile_qr_scan", "android": "https://dc.lft.to/lastmile_qr_scan"}}, {"is_disabled": 0, "fusion_lat": 0.0, "lat": 38.99811566666666, "type": "electric_bike", "lon": -76.8836395, "is_reserved": 0, "fusion_lon": 0.0, "bike_id": "41dd1670798688264903d3c727a8dcf3", "name": "41dd1670798688264903d3c727a8dcf3", "rental_uris": {"ios": "https://dc.lft.to/lastmile_qr_scan", "android": "https://dc.lft.to/lastmile_qr_scan"}}, {"is_disabled": 0, "fusion_lat": 0.0, "lat": 38.89833216666667, "type": "electric_scooter", "lon": -76.9463305, "is_reserved": 0, "fusion_lon": 0.0, "bike_id": "f98f0e557aed39edbe50a94a8edb4e6c", "name": "f98f0e557aed39edbe50a94a8edb4e6c", "rental_uris": {"ios": "https://dc.lft.to/lastmile_qr_scan", "android": "https://dc.lft.to/lastmile_qr_scan"}}, {"is_disabled": 0, "fusion_lat": 0.0, "lat": 39.052014, "type": "electric_bike", "lon": -77.10916466666667, "is_reserved": 0, "fusion_lon": 0.0, "bike_id": "1f4e7be36a73a0298dbb2e02ce52e168", "name": "1f4e7be36a73a0298dbb2e02ce52e168", "rental_uris": {"ios": "https://dc.lft.to/lastmile_qr_scan", "android": "https://dc.lft.to/lastmile_qr_scan"}}, {"is_disabled": 0, "fusion_lat": 0.0, "lat": 38.91561033333333, "type": "electric_scooter", "lon": -77.00955933333333, "is_reserved": 0, "fusion_lon": 0.0, "bike_id": "66670fdc06c7b9e2285a9a0e0d390709", "name": "66670fdc06c7b9e2285a9a0e0d390709", "rental_uris": {"ios": "https://dc.lft.to/lastmile_qr_scan", "android": "https://dc.lft.to/lastmile_qr_scan"}}, {"is_disabled": 0, "fusion_lat": 0.0, "lat": 38.92442916666667, "type": "electric_scooter", "lon": -77.0572895, "is_reserved": 0, "fusion_lon": 0.0, "bike_id": "88a067816bc520d9185823301ce3c547", "name": "88a067816bc520d9185823301ce3c547", "rental_uris": {"ios": "https://dc.lft.to/lastmile_qr_scan", "android": "https://dc.lft.to/lastmile_qr_scan"}}, {"is_disabled": 0, "fusion_lat": 0.0, "lat": 38.918291333333336, "type": "electric_scooter", "lon": -77.03639216666667, "is_reserved": 0, "fusion_lon": 0.0, "bike_id": "933df2963ff42f4327a5a9dbe70e753c", "name": "933df2963ff42f4327a5a9dbe70e753c", "rental_uris": {"ios": "https://dc.lft.to/lastmile_qr_scan", "android": "https://dc.lft.to/lastmile_qr_scan"}}, {"is_disabled": 0, "fusion_lat": 0.0, "lat": 38.909926666666664, "type": "electric_scooter", "lon": -77.04008316666666, "is_reserved": 0, "fusion_lon": 0.0, "bike_id": "8cd25a754c36735a9c99a165b039512c", "name": "8cd25a754c36735a9c99a165b039512c", "rental_uris": {"ios": "https://dc.lft.to/lastmile_qr_scan", "android": "https://dc.lft.to/lastmile_qr_scan"}}, {"is_disabled": 0, "fusion_lat": 0.0, "lat": 38.924618, "type": "electric_scooter", "lon": -77.078598, "is_reserved": 0, "fusion_lon": 0.0, "bike_id": "8d51279760c1151d296cbd77eada20f6", "name": "8d51279760c1151d296cbd77eada20f6", "rental_uris": {"ios": "https://dc.lft.to/lastmile_qr_scan", "android": "https://dc.lft.to/lastmile_qr_scan"}}, {"is_disabled": 0, "fusion_lat": 0.0, "lat": 38.922538333333335, "type": "electric_scooter", "lon": -77.0425125, "is_reserved": 0, "fusion_lon": 0.0, "bike_id": "1aab8f16c165eaf4e7905bcb0e835c12", "name": "1aab8f16c165eaf4e7905bcb0e835c12", "rental_uris": {"ios": "https://dc.lft.to/lastmile_qr_scan", "android": "https://dc.lft.to/lastmile_qr_scan"}}, {"is_disabled": 0, "fusion_lat": 0.0, "lat": 38.901161333333334, "type": "electric_scooter", "lon": -77.04229016666666, "is_reserved": 0, "fusion_lon": 0.0, "bike_id": "ab638127298b1e56b6cc96e62db1fe71", "name": "ab638127298b1e56b6cc96e62db1fe71", "rental_uris": {"ios": "https://dc.lft.to/lastmile_qr_scan", "android": "https://dc.lft.to/lastmile_qr_scan"}}, {"is_disabled": 0, "fusion_lat": 0.0, "lat": 38.896123, "type": "electric_scooter", "lon": -77.00925066666667, "is_reserved": 0, "fusion_lon": 0.0, "bike_id": "860e8074490cc7077fc0525a7d9423c7", "name": "860e8074490cc7077fc0525a7d9423c7", "rental_uris": {"ios": "https://dc.lft.to/lastmile_qr_scan", "android": "https://dc.lft.to/lastmile_qr_scan"}}, {"is_disabled": 0, "fusion_lat": 0.0, "lat": 38.90410266666667, "type": "electric_scooter", "lon": -77.04866933333334, "is_reserved": 0, "fusion_lon": 0.0, "bike_id": "45f942baf4e6cbcc6601444e959f6409", "name": "45f942baf4e6cbcc6601444e959f6409", "rental_uris": {"ios": "https://dc.lft.to/lastmile_qr_scan", "android": "https://dc.lft.to/lastmile_qr_scan"}}, {"is_disabled": 0, "fusion_lat": 0.0, "lat": 38.897972, "type": "electric_scooter", "lon": -77.01891916666666, "is_reserved": 0, "fusion_lon": 0.0, "bike_id": "c8af738ff16e24dfbc592c8e3bb422fe", "name": "c8af738ff16e24dfbc592c8e3bb422fe", "rental_uris": {"ios": "https://dc.lft.to/lastmile_qr_scan", "android": "https://dc.lft.to/lastmile_qr_scan"}}, {"is_disabled": 0, "fusion_lat": 0.0, "lat": 38.87921, "type": "electric_scooter", "lon": -76.992515, "is_reserved": 0, "fusion_lon": 0.0, "bike_id": "97f67a385838794d718eb88667a3c45c", "name": "97f67a385838794d718eb88667a3c45c", "rental_uris": {"ios": "https://dc.lft.to/lastmile_qr_scan", "android": "https://dc.lft.to/lastmile_qr_scan"}}, {"is_disabled": 0, "fusion_lat": 0.0, "lat": 38.92290033333333, "type": "electric_scooter", "lon": -77.04142333333333, "is_reserved": 0, "fusion_lon": 0.0, "bike_id": "6f305056092bb2a879c867ffc9ae5472", "name": "6f305056092bb2a879c867ffc9ae5472", "rental_uris": {"ios": "https://dc.lft.to/lastmile_qr_scan", "android": "https://dc.lft.to/lastmile_qr_scan"}}, {"is_disabled": 0, "fusion_lat": 0.0, "lat": 38.937940833333336, "type": "electric_scooter", "lon": -77.05999783333333, "is_reserved": 0, "fusion_lon": 0.0, "bike_id": "cf31702b433ec40f89da0ca9aa5d2897", "name": "cf31702b433ec40f89da0ca9aa5d2897", "rental_uris": {"ios": "https://dc.lft.to/lastmile_qr_scan", "android": "https://dc.lft.to/lastmile_qr_scan"}}, {"is_disabled": 0, "fusion_lat": 0.0, "lat": 38.912515666666664, "type": "electric_scooter", "lon": -77.02225333333334, "is_reserved": 0, "fusion_lon": 0.0, "bike_id": "f3bf58ec5a26b29f396e2029341c8313", "name": "f3bf58ec5a26b29f396e2029341c8313", "rental_uris": {"ios": "https://dc.lft.to/lastmile_qr_scan", "android": "https://dc.lft.to/lastmile_qr_scan"}}, {"is_disabled": 0, "fusion_lat": 0.0, "lat": 38.916962833333336, "type": "electric_scooter", "lon": -77.01235816666667, "is_reserved": 0, "fusion_lon": 0.0, "bike_id": "e5d09fa91883d5dc3339721635eb90f5", "name": "e5d09fa91883d5dc3339721635eb90f5", "rental_uris": {"ios": "https://dc.lft.to/lastmile_qr_scan", "android": "https://dc.lft.to/lastmile_qr_scan"}}, {"is_disabled": 0, "fusion_lat": 0.0, "lat": 38.8768925, "type": "electric_scooter", "lon": -77.00734433333334, "is_reserved": 0, "fusion_lon": 0.0, "bike_id": "fda5abf6513d0f2578c9b16daa741886", "name": "fda5abf6513d0f2578c9b16daa741886", "rental_uris": {"ios": "https://dc.lft.to/lastmile_qr_scan", "android": "https://dc.lft.to/lastmile_qr_scan"}}, {"is_disabled": 0, "fusion_lat": 0.0, "lat": 38.933636666666665, "type": "electric_scooter", "lon": -77.0344195, "is_reserved": 0, "fusion_lon": 0.0, "bike_id": "e4b3f0ceca2d19c3d40e1a94f7d97c76", "name": "e4b3f0ceca2d19c3d40e1a94f7d97c76", "rental_uris": {"ios": "https://dc.lft.to/lastmile_qr_scan", "android": "https://dc.lft.to/lastmile_qr_scan"}}, {"is_disabled": 0, "fusion_lat": 0.0, "lat": 38.913311, "type": "electric_scooter", "lon": -77.048133, "is_reserved": 0, "fusion_lon": 0.0, "bike_id": "1033605e2597f76043b4c7a0ac5bd423", "name": "1033605e2597f76043b4c7a0ac5bd423", "rental_uris": {"ios": "https://dc.lft.to/lastmile_qr_scan", "android": "https://dc.lft.to/lastmile_qr_scan"}}, {"is_disabled": 0, "fusion_lat": 0.0, "lat": 38.9130075, "type": "electric_bike", "lon": -77.08291416666667, "is_reserved": 0, "fusion_lon": 0.0, "bike_id": "398cda45703f84842217a2064243a876", "name": "398cda45703f84842217a2064243a876", "rental_uris": {"ios": "https://dc.lft.to/lastmile_qr_scan", "android": "https://dc.lft.to/lastmile_qr_scan"}}, {"is_disabled": 0, "fusion_lat": 0.0, "lat": 38.8720275, "type": "electric_scooter", "lon": -77.0060555, "is_reserved": 0, "fusion_lon": 0.0, "bike_id": "9a1a77efdf6c34213e430b693f598a1e", "name": "9a1a77efdf6c34213e430b693f598a1e", "rental_uris": {"ios": "https://dc.lft.to/lastmile_qr_scan", "android": "https://dc.lft.to/lastmile_qr_scan"}}, {"is_disabled": 0, "fusion_lat": 0.0, "lat": 38.89223883333333, "type": "electric_scooter", "lon": -77.04638216666666, "is_reserved": 0, "fusion_lon": 0.0, "bike_id": "4414eb4e6b1b2fccce2a56ee8026d672", "name": "4414eb4e6b1b2fccce2a56ee8026d672", "rental_uris": {"ios": "https://dc.lft.to/lastmile_qr_scan", "android": "https://dc.lft.to/lastmile_qr_scan"}}, {"is_disabled": 0, "fusion_lat": 0.0, "lat": 38.91822333333333, "type": "electric_scooter", "lon": -77.03842, "is_reserved": 0, "fusion_lon": 0.0, "bike_id": "61f7aee2dac109bac1dc1823a224bc3d", "name": "61f7aee2dac109bac1dc1823a224bc3d", "rental_uris": {"ios": "https://dc.lft.to/lastmile_qr_scan", "android": "https://dc.lft.to/lastmile_qr_scan"}}, {"is_disabled": 0, "fusion_lat": 0.0, "lat": 38.90510366666667, "type": "electric_scooter", "lon": -77.05909316666667, "is_reserved": 0, "fusion_lon": 0.0, "bike_id": "5ca1708f6f84c97e19e5fa4e2a358028", "name": "5ca1708f6f84c97e19e5fa4e2a358028", "rental_uris": {"ios": "https://dc.lft.to/lastmile_qr_scan", "android": "https://dc.lft.to/lastmile_qr_scan"}}, {"is_disabled": 0, "fusion_lat": 0.0, "lat": 38.902565333333335, "type": "electric_scooter", "lon": -77.04917866666666, "is_reserved": 0, "fusion_lon": 0.0, "bike_id": "8276db87c169a65f5358b52a86a02576", "name": "8276db87c169a65f5358b52a86a02576", "rental_uris": {"ios": "https://dc.lft.to/lastmile_qr_scan", "android": "https://dc.lft.to/lastmile_qr_scan"}}, {"is_disabled": 0, "fusion_lat": 0.0, "lat": 38.90493766666667, "type": "electric_scooter", "lon": -77.06783483333334, "is_reserved": 0, "fusion_lon": 0.0, "bike_id": "39a16ec418c154cfadfa7a8bd23e6564", "name": "39a16ec418c154cfadfa7a8bd23e6564", "rental_uris": {"ios": "https://dc.lft.to/lastmile_qr_scan", "android": "https://dc.lft.to/lastmile_qr_scan"}}, {"is_disabled": 0, "fusion_lat": 0.0, "lat": 38.933649333333335, "type": "electric_scooter", "lon": -77.0570915, "is_reserved": 0, "fusion_lon": 0.0, "bike_id": "df0bf09f0e246dea1c3b15c4a39a01a8", "name": "df0bf09f0e246dea1c3b15c4a39a01a8", "rental_uris": {"ios": "https://dc.lft.to/lastmile_qr_scan", "android": "https://dc.lft.to/lastmile_qr_scan"}}, {"is_disabled": 0, "fusion_lat": 0.0, "lat": 38.905123, "type": "electric_scooter", "lon": -77.06660683333334, "is_reserved": 0, "fusion_lon": 0.0, "bike_id": "dd1b5d1188c0ce5daff6ed354e54a758", "name": "dd1b5d1188c0ce5daff6ed354e54a758", "rental_uris": {"ios": "https://dc.lft.to/lastmile_qr_scan", "android": "https://dc.lft.to/lastmile_qr_scan"}}, {"is_disabled": 0, "fusion_lat": 0.0, "lat": 38.92557, "type": "electric_scooter", "lon": -77.03788766666666, "is_reserved": 0, "fusion_lon": 0.0, "bike_id": "54b8e25b9ad68c7a99c6871b2260aecd", "name": "54b8e25b9ad68c7a99c6871b2260aecd", "rental_uris": {"ios": "https://dc.lft.to/lastmile_qr_scan", "android": "https://dc.lft.to/lastmile_qr_scan"}}, {"is_disabled": 0, "fusion_lat": 0.0, "lat": 38.87656466666667, "type": "electric_scooter", "lon": -77.01578783333333, "is_reserved": 0, "fusion_lon": 0.0, "bike_id": "9551fbf7b3140a9c4514355506c625e2", "name": "9551fbf7b3140a9c4514355506c625e2", "rental_uris": {"ios": "https://dc.lft.to/lastmile_qr_scan", "android": "https://dc.lft.to/lastmile_qr_scan"}}, {"is_disabled": 0, "fusion_lat": 0.0, "lat": 38.910469166666665, "type": "electric_scooter", "lon": -77.01520383333333, "is_reserved": 0, "fusion_lon": 0.0, "bike_id": "b31d537ae22543b330118c1a98808d1d", "name": "b31d537ae22543b330118c1a98808d1d", "rental_uris": {"ios": "https://dc.lft.to/lastmile_qr_scan", "android": "https://dc.lft.to/lastmile_qr_scan"}}, {"is_disabled": 0, "fusion_lat": 0.0, "lat": 38.874869, "type": "electric_scooter", "lon": -77.00115416666667, "is_reserved": 0, "fusion_lon": 0.0, "bike_id": "c97db8f6c776a5c82d0490f18dbc369b", "name": "c97db8f6c776a5c82d0490f18dbc369b", "rental_uris": {"ios": "https://dc.lft.to/lastmile_qr_scan", "android": "https://dc.lft.to/lastmile_qr_scan"}}, {"is_disabled": 0, "fusion_lat": 0.0, "lat": 38.95637133333334, "type": "electric_scooter", "lon": -77.03298916666667, "is_reserved": 0, "fusion_lon": 0.0, "bike_id": "e11657bd34df9b42c483e47711b0203f", "name": "e11657bd34df9b42c483e47711b0203f", "rental_uris": {"ios": "https://dc.lft.to/lastmile_qr_scan", "android": "https://dc.lft.to/lastmile_qr_scan"}}, {"is_disabled": 0, "fusion_lat": 0.0, "lat": 38.900696833333335, "type": "electric_scooter", "lon": -77.05021983333333, "is_reserved": 0, "fusion_lon": 0.0, "bike_id": "9a6de52881dbb505112dcff6be9dc963", "name": "9a6de52881dbb505112dcff6be9dc963", "rental_uris": {"ios": "https://dc.lft.to/lastmile_qr_scan", "android": "https://dc.lft.to/lastmile_qr_scan"}}, {"is_disabled": 0, "fusion_lat": 0.0, "lat": 38.908698333333334, "type": "electric_scooter", "lon": -77.044954, "is_reserved": 0, "fusion_lon": 0.0, "bike_id": "5612a52a5741e97cb56e113b9f2f8ecb", "name": "5612a52a5741e97cb56e113b9f2f8ecb", "rental_uris": {"ios": "https://dc.lft.to/lastmile_qr_scan", "android": "https://dc.lft.to/lastmile_qr_scan"}}, {"is_disabled": 0, "fusion_lat": 0.0, "lat": 38.8961715, "type": "electric_scooter", "lon": -76.95591833333333, "is_reserved": 0, "fusion_lon": 0.0, "bike_id": "0fa201d54f1d2af100769554e48e3790", "name": "0fa201d54f1d2af100769554e48e3790", "rental_uris": {"ios": "https://dc.lft.to/lastmile_qr_scan", "android": "https://dc.lft.to/lastmile_qr_scan"}}, {"is_disabled": 0, "fusion_lat": 0.0, "lat": 38.8712195, "type": "electric_scooter", "lon": -77.007494, "is_reserved": 0, "fusion_lon": 0.0, "bike_id": "28f4ac3ded936feeb35898d6a69b364e", "name": "28f4ac3ded936feeb35898d6a69b364e", "rental_uris": {"ios": "https://dc.lft.to/lastmile_qr_scan", "android": "https://dc.lft.to/lastmile_qr_scan"}}, {"is_disabled": 0, "fusion_lat": 0.0, "lat": 38.91671016666667, "type": "electric_scooter", "lon": -77.02948816666667, "is_reserved": 0, "fusion_lon": 0.0, "bike_id": "fb16159bdd2166712c8cabdbe7e5b448", "name": "fb16159bdd2166712c8cabdbe7e5b448", "rental_uris": {"ios": "https://dc.lft.to/lastmile_qr_scan", "android": "https://dc.lft.to/lastmile_qr_scan"}}, {"is_disabled": 0, "fusion_lat": 0.0, "lat": 38.923198666666664, "type": "electric_scooter", "lon": -77.03949316666667, "is_reserved": 0, "fusion_lon": 0.0, "bike_id": "173dcd20cec20888a69ab84f314514de", "name": "173dcd20cec20888a69ab84f314514de", "rental_uris": {"ios": "https://dc.lft.to/lastmile_qr_scan", "android": "https://dc.lft.to/lastmile_qr_scan"}}, {"is_disabled": 0, "fusion_lat": 0.0, "lat": 38.9038755, "type": "electric_scooter", "lon": -77.04473433333334, "is_reserved": 0, "fusion_lon": 0.0, "bike_id": "eb82ca5aa276d444a106b3e44d9ef5ef", "name": "eb82ca5aa276d444a106b3e44d9ef5ef", "rental_uris": {"ios": "https://dc.lft.to/lastmile_qr_scan", "android": "https://dc.lft.to/lastmile_qr_scan"}}, {"is_disabled": 0, "fusion_lat": 0.0, "lat": 38.9083465, "type": "electric_scooter", "lon": -77.03374733333334, "is_reserved": 0, "fusion_lon": 0.0, "bike_id": "9f2e4d1fe8efd77c7677f6280c6a6a50", "name": "9f2e4d1fe8efd77c7677f6280c6a6a50", "rental_uris": {"ios": "https://dc.lft.to/lastmile_qr_scan", "android": "https://dc.lft.to/lastmile_qr_scan"}}, {"is_disabled": 0, "fusion_lat": 0.0, "lat": 38.9110425, "type": "electric_scooter", "lon": -77.002087, "is_reserved": 0, "fusion_lon": 0.0, "bike_id": "58bf3189993b19384c20f58219c01838", "name": "58bf3189993b19384c20f58219c01838", "rental_uris": {"ios": "https://dc.lft.to/lastmile_qr_scan", "android": "https://dc.lft.to/lastmile_qr_scan"}}, {"is_disabled": 0, "fusion_lat": 0.0, "lat": 38.89614916666667, "type": "electric_scooter", "lon": -77.044044, "is_reserved": 0, "fusion_lon": 0.0, "bike_id": "6c5805e507ee8f4795776ee60a71420f", "name": "6c5805e507ee8f4795776ee60a71420f", "rental_uris": {"ios": "https://dc.lft.to/lastmile_qr_scan", "android": "https://dc.lft.to/lastmile_qr_scan"}}, {"is_disabled": 0, "fusion_lat": 0.0, "lat": 38.89563783333333, "type": "electric_bike", "lon": -77.1273435, "is_reserved": 0, "fusion_lon": 0.0, "bike_id": "39ad3364a59fbcf7e1f15a792cf946c2", "name": "39ad3364a59fbcf7e1f15a792cf946c2", "rental_uris": {"ios": "https://dc.lft.to/lastmile_qr_scan", "android": "https://dc.lft.to/lastmile_qr_scan"}}, {"is_disabled": 0, "fusion_lat": 0.0, "lat": 38.918883666666666, "type": "electric_scooter", "lon": -77.03907916666667, "is_reserved": 0, "fusion_lon": 0.0, "bike_id": "21beaa33d2827d64c332a0c590051deb", "name": "21beaa33d2827d64c332a0c590051deb", "rental_uris": {"ios": "https://dc.lft.to/lastmile_qr_scan", "android": "https://dc.lft.to/lastmile_qr_scan"}}, {"is_disabled": 0, "fusion_lat": 0.0, "lat": 38.90260033333333, "type": "electric_scooter", "lon": -77.017457, "is_reserved": 0, "fusion_lon": 0.0, "bike_id": "48e36b862525c993cca6f77b39cef9bb", "name": "48e36b862525c993cca6f77b39cef9bb", "rental_uris": {"ios": "https://dc.lft.to/lastmile_qr_scan", "android": "https://dc.lft.to/lastmile_qr_scan"}}, {"is_disabled": 0, "fusion_lat": 0.0, "lat": 38.905761166666665, "type": "electric_scooter", "lon": -77.03480766666667, "is_reserved": 0, "fusion_lon": 0.0, "bike_id": "0e5667b3e1de331882e07fb6bff19e85", "name": "0e5667b3e1de331882e07fb6bff19e85", "rental_uris": {"ios": "https://dc.lft.to/lastmile_qr_scan", "android": "https://dc.lft.to/lastmile_qr_scan"}}, {"is_disabled": 0, "fusion_lat": 0.0, "lat": 38.930988666666664, "type": "electric_scooter", "lon": -77.025118, "is_reserved": 0, "fusion_lon": 0.0, "bike_id": "c194a16b4fdbd2e324fd8f828a4cee34", "name": "c194a16b4fdbd2e324fd8f828a4cee34", "rental_uris": {"ios": "https://dc.lft.to/lastmile_qr_scan", "android": "https://dc.lft.to/lastmile_qr_scan"}}, {"is_disabled": 0, "fusion_lat": 0.0, "lat": 38.92150516666667, "type": "electric_scooter", "lon": -77.04223666666667, "is_reserved": 0, "fusion_lon": 0.0, "bike_id": "909aa966532e8de8a5468ff294a4a212", "name": "909aa966532e8de8a5468ff294a4a212", "rental_uris": {"ios": "https://dc.lft.to/lastmile_qr_scan", "android": "https://dc.lft.to/lastmile_qr_scan"}}, {"is_disabled": 0, "fusion_lat": 0.0, "lat": 38.91870866666667, "type": "electric_scooter", "lon": -77.02588483333334, "is_reserved": 0, "fusion_lon": 0.0, "bike_id": "9468e1ed53d69442501689feef58ccaf", "name": "9468e1ed53d69442501689feef58ccaf", "rental_uris": {"ios": "https://dc.lft.to/lastmile_qr_scan", "android": "https://dc.lft.to/lastmile_qr_scan"}}, {"is_disabled": 0, "fusion_lat": 0.0, "lat": 38.91414183333333, "type": "electric_scooter", "lon": -77.0195545, "is_reserved": 0, "fusion_lon": 0.0, "bike_id": "d8e6ef4b9a118128378e98c39b435aa6", "name": "d8e6ef4b9a118128378e98c39b435aa6", "rental_uris": {"ios": "https://dc.lft.to/lastmile_qr_scan", "android": "https://dc.lft.to/lastmile_qr_scan"}}, {"is_disabled": 0, "fusion_lat": 0.0, "lat": 38.91403583333334, "type": "electric_scooter", "lon": -77.03257366666666, "is_reserved": 0, "fusion_lon": 0.0, "bike_id": "a15e6141f330c706bcc261db26b12bd5", "name": "a15e6141f330c706bcc261db26b12bd5", "rental_uris": {"ios": "https://dc.lft.to/lastmile_qr_scan", "android": "https://dc.lft.to/lastmile_qr_scan"}}, {"is_disabled": 0, "fusion_lat": 0.0, "lat": 38.86422533333333, "type": "electric_scooter", "lon": -77.01353916666666, "is_reserved": 0, "fusion_lon": 0.0, "bike_id": "12ee17196507b6641d2e747f4018cd60", "name": "12ee17196507b6641d2e747f4018cd60", "rental_uris": {"ios": "https://dc.lft.to/lastmile_qr_scan", "android": "https://dc.lft.to/lastmile_qr_scan"}}, {"is_disabled": 0, "fusion_lat": 0.0, "lat": 38.9017655, "type": "electric_scooter", "lon": -76.999981, "is_reserved": 0, "fusion_lon": 0.0, "bike_id": "7da2b34de30c56b2b7c2ac2466d4fafb", "name": "7da2b34de30c56b2b7c2ac2466d4fafb", "rental_uris": {"ios": "https://dc.lft.to/lastmile_qr_scan", "android": "https://dc.lft.to/lastmile_qr_scan"}}, {"is_disabled": 0, "fusion_lat": 0.0, "lat": 38.884395166666664, "type": "electric_scooter", "lon": -77.0303735, "is_reserved": 0, "fusion_lon": 0.0, "bike_id": "23937abad717e3966e2253fe58111843", "name": "23937abad717e3966e2253fe58111843", "rental_uris": {"ios": "https://dc.lft.to/lastmile_qr_scan", "android": "https://dc.lft.to/lastmile_qr_scan"}}, {"is_disabled": 0, "fusion_lat": 0.0, "lat": 38.89467283333333, "type": "electric_scooter", "lon": -77.00064383333333, "is_reserved": 0, "fusion_lon": 0.0, "bike_id": "b95d5e305e015124a94f35bd3b6bb538", "name": "b95d5e305e015124a94f35bd3b6bb538", "rental_uris": {"ios": "https://dc.lft.to/lastmile_qr_scan", "android": "https://dc.lft.to/lastmile_qr_scan"}}, {"is_disabled": 0, "fusion_lat": 0.0, "lat": 38.9001735, "type": "electric_scooter", "lon": -76.98677616666667, "is_reserved": 0, "fusion_lon": 0.0, "bike_id": "63ba32c3ed875174469769e39abfa555", "name": "63ba32c3ed875174469769e39abfa555", "rental_uris": {"ios": "https://dc.lft.to/lastmile_qr_scan", "android": "https://dc.lft.to/lastmile_qr_scan"}}, {"is_disabled": 0, "fusion_lat": 0.0, "lat": 38.9029015, "type": "electric_scooter", "lon": -77.03432616666667, "is_reserved": 0, "fusion_lon": 0.0, "bike_id": "771715d5bed03d4e39b30d2acf793bfc", "name": "771715d5bed03d4e39b30d2acf793bfc", "rental_uris": {"ios": "https://dc.lft.to/lastmile_qr_scan", "android": "https://dc.lft.to/lastmile_qr_scan"}}, {"is_disabled": 0, "fusion_lat": 0.0, "lat": 38.92581233333333, "type": "electric_scooter", "lon": -77.0576145, "is_reserved": 0, "fusion_lon": 0.0, "bike_id": "f53111c63c9aad6ea02b4bbc3fe35ddc", "name": "f53111c63c9aad6ea02b4bbc3fe35ddc", "rental_uris": {"ios": "https://dc.lft.to/lastmile_qr_scan", "android": "https://dc.lft.to/lastmile_qr_scan"}}, {"is_disabled": 0, "fusion_lat": 0.0, "lat": 38.919171, "type": "electric_scooter", "lon": -77.033418, "is_reserved": 0, "fusion_lon": 0.0, "bike_id": "8783b479d520362f383d825e487c42e6", "name": "8783b479d520362f383d825e487c42e6", "rental_uris": {"ios": "https://dc.lft.to/lastmile_qr_scan", "android": "https://dc.lft.to/lastmile_qr_scan"}}, {"is_disabled": 0, "fusion_lat": 0.0, "lat": 38.9236805, "type": "electric_scooter", "lon": -77.05754866666666, "is_reserved": 0, "fusion_lon": 0.0, "bike_id": "360d2b24c3fdc7e86e0232fc16a40247", "name": "360d2b24c3fdc7e86e0232fc16a40247", "rental_uris": {"ios": "https://dc.lft.to/lastmile_qr_scan", "android": "https://dc.lft.to/lastmile_qr_scan"}}, {"is_disabled": 0, "fusion_lat": 0.0, "lat": 38.90268583333334, "type": "electric_scooter", "lon": -77.06012016666666, "is_reserved": 0, "fusion_lon": 0.0, "bike_id": "013d2c5d520524b45adc4cc53130d807", "name": "013d2c5d520524b45adc4cc53130d807", "rental_uris": {"ios": "https://dc.lft.to/lastmile_qr_scan", "android": "https://dc.lft.to/lastmile_qr_scan"}}, {"is_disabled": 0, "fusion_lat": 0.0, "lat": 38.968266166666666, "type": "electric_scooter", "lon": -77.01791116666666, "is_reserved": 0, "fusion_lon": 0.0, "bike_id": "7fc28658b1a8ee0cc4863d9220cbf0db", "name": "7fc28658b1a8ee0cc4863d9220cbf0db", "rental_uris": {"ios": "https://dc.lft.to/lastmile_qr_scan", "android": "https://dc.lft.to/lastmile_qr_scan"}}, {"is_disabled": 0, "fusion_lat": 0.0, "lat": 38.919969333333334, "type": "electric_scooter", "lon": -77.023575, "is_reserved": 0, "fusion_lon": 0.0, "bike_id": "24a140fa224893743b92f8428eea650c", "name": "24a140fa224893743b92f8428eea650c", "rental_uris": {"ios": "https://dc.lft.to/lastmile_qr_scan", "android": "https://dc.lft.to/lastmile_qr_scan"}}, {"is_disabled": 0, "fusion_lat": 0.0, "lat": 38.905514333333336, "type": "electric_scooter", "lon": -77.05055833333333, "is_reserved": 0, "fusion_lon": 0.0, "bike_id": "eaa925d6a2246a7d6082c762446649df", "name": "eaa925d6a2246a7d6082c762446649df", "rental_uris": {"ios": "https://dc.lft.to/lastmile_qr_scan", "android": "https://dc.lft.to/lastmile_qr_scan"}}, {"is_disabled": 0, "fusion_lat": 0.0, "lat": 38.9216805, "type": "electric_scooter", "lon": -77.04024016666666, "is_reserved": 0, "fusion_lon": 0.0, "bike_id": "4cb7e0ef595a5ed4f731dd5a00050732", "name": "4cb7e0ef595a5ed4f731dd5a00050732", "rental_uris": {"ios": "https://dc.lft.to/lastmile_qr_scan", "android": "https://dc.lft.to/lastmile_qr_scan"}}, {"is_disabled": 0, "fusion_lat": 0.0, "lat": 38.87453583333333, "type": "electric_scooter", "lon": -77.003076, "is_reserved": 0, "fusion_lon": 0.0, "bike_id": "7578d80c33fde11516719e4d8f25bd5b", "name": "7578d80c33fde11516719e4d8f25bd5b", "rental_uris": {"ios": "https://dc.lft.to/lastmile_qr_scan", "android": "https://dc.lft.to/lastmile_qr_scan"}}, {"is_disabled": 0, "fusion_lat": 0.0, "lat": 38.904625, "type": "electric_scooter", "lon": -76.99500816666666, "is_reserved": 0, "fusion_lon": 0.0, "bike_id": "d15e1402cb3c5a32ccd44e000c609503", "name": "d15e1402cb3c5a32ccd44e000c609503", "rental_uris": {"ios": "https://dc.lft.to/lastmile_qr_scan", "android": "https://dc.lft.to/lastmile_qr_scan"}}, {"is_disabled": 0, "fusion_lat": 0.0, "lat": 38.84629983333333, "type": "electric_bike", "lon": -77.06930966666667, "is_reserved": 0, "fusion_lon": 0.0, "bike_id": "d6d984bb18a3b5db62c13164c4ef2cf8", "name": "d6d984bb18a3b5db62c13164c4ef2cf8", "rental_uris": {"ios": "https://dc.lft.to/lastmile_qr_scan", "android": "https://dc.lft.to/lastmile_qr_scan"}}, {"is_disabled": 0, "fusion_lat": 0.0, "lat": 38.89476166666667, "type": "electric_scooter", "lon": -77.05010616666667, "is_reserved": 0, "fusion_lon": 0.0, "bike_id": "d8e7379b020375e67436da31c69d3945", "name": "d8e7379b020375e67436da31c69d3945", "rental_uris": {"ios": "https://dc.lft.to/lastmile_qr_scan", "android": "https://dc.lft.to/lastmile_qr_scan"}}, {"is_disabled": 0, "fusion_lat": 0.0, "lat": 38.9318715, "type": "electric_bike", "lon": -77.0344915, "is_reserved": 0, "fusion_lon": 0.0, "bike_id": "fcbdad7b268c78c3ac5d908ebde89829", "name": "fcbdad7b268c78c3ac5d908ebde89829", "rental_uris": {"ios": "https://dc.lft.to/lastmile_qr_scan", "android": "https://dc.lft.to/lastmile_qr_scan"}}, {"is_disabled": 0, "fusion_lat": 0.0, "lat": 38.909920666666665, "type": "electric_scooter", "lon": -77.038528, "is_reserved": 0, "fusion_lon": 0.0, "bike_id": "b2c4bb3025f4bf82a772c7c0afe31c7f", "name": "b2c4bb3025f4bf82a772c7c0afe31c7f", "rental_uris": {"ios": "https://dc.lft.to/lastmile_qr_scan", "android": "https://dc.lft.to/lastmile_qr_scan"}}, {"is_disabled": 0, "fusion_lat": 0.0, "lat": 38.94206466666667, "type": "electric_bike", "lon": -77.01820916666667, "is_reserved": 0, "fusion_lon": 0.0, "bike_id": "8fbb53174b0f0c2ad72ebb54fdc2f5a8", "name": "8fbb53174b0f0c2ad72ebb54fdc2f5a8", "rental_uris": {"ios": "https://dc.lft.to/lastmile_qr_scan", "android": "https://dc.lft.to/lastmile_qr_scan"}}, {"is_disabled": 0, "fusion_lat": 0.0, "lat": 38.8591675, "type": "electric_scooter", "lon": -76.98978033333333, "is_reserved": 0, "fusion_lon": 0.0, "bike_id": "0e5164c984e4449f0711ddec037014ea", "name": "0e5164c984e4449f0711ddec037014ea", "rental_uris": {"ios": "https://dc.lft.to/lastmile_qr_scan", "android": "https://dc.lft.to/lastmile_qr_scan"}}, {"is_disabled": 0, "fusion_lat": 0.0, "lat": 38.90467433333333, "type": "electric_scooter", "lon": -77.04860316666667, "is_reserved": 0, "fusion_lon": 0.0, "bike_id": "bd492f15632ad1ad0c96aabd3c2083a4", "name": "bd492f15632ad1ad0c96aabd3c2083a4", "rental_uris": {"ios": "https://dc.lft.to/lastmile_qr_scan", "android": "https://dc.lft.to/lastmile_qr_scan"}}, {"is_disabled": 0, "fusion_lat": 0.0, "lat": 38.93971616666666, "type": "electric_scooter", "lon": -77.035916, "is_reserved": 0, "fusion_lon": 0.0, "bike_id": "7065f9eb1350e9803de0de71a97ad01e", "name": "7065f9eb1350e9803de0de71a97ad01e", "rental_uris": {"ios": "https://dc.lft.to/lastmile_qr_scan", "android": "https://dc.lft.to/lastmile_qr_scan"}}, {"is_disabled": 0, "fusion_lat": 0.0, "lat": 38.86659616666667, "type": "electric_scooter", "lon": -76.98877733333333, "is_reserved": 0, "fusion_lon": 0.0, "bike_id": "5bb3831fb75ea2cf76b1c926b82de1a7", "name": "5bb3831fb75ea2cf76b1c926b82de1a7", "rental_uris": {"ios": "https://dc.lft.to/lastmile_qr_scan", "android": "https://dc.lft.to/lastmile_qr_scan"}}, {"is_disabled": 0, "fusion_lat": 0.0, "lat": 38.934549833333335, "type": "electric_scooter", "lon": -77.03051383333333, "is_reserved": 0, "fusion_lon": 0.0, "bike_id": "5da28c1b5cee840ccd2cb7933f432453", "name": "5da28c1b5cee840ccd2cb7933f432453", "rental_uris": {"ios": "https://dc.lft.to/lastmile_qr_scan", "android": "https://dc.lft.to/lastmile_qr_scan"}}, {"is_disabled": 0, "fusion_lat": 0.0, "lat": 38.9235775, "type": "electric_scooter", "lon": -77.020576, "is_reserved": 0, "fusion_lon": 0.0, "bike_id": "651e1b5d2dd72634d9a972ffacf78c23", "name": "651e1b5d2dd72634d9a972ffacf78c23", "rental_uris": {"ios": "https://dc.lft.to/lastmile_qr_scan", "android": "https://dc.lft.to/lastmile_qr_scan"}}, {"is_disabled": 0, "fusion_lat": 0.0, "lat": 38.9027095, "type": "electric_scooter", "lon": -77.05999033333333, "is_reserved": 0, "fusion_lon": 0.0, "bike_id": "06a0922c6763d426e6733d9370df77a7", "name": "06a0922c6763d426e6733d9370df77a7", "rental_uris": {"ios": "https://dc.lft.to/lastmile_qr_scan", "android": "https://dc.lft.to/lastmile_qr_scan"}}, {"is_disabled": 0, "fusion_lat": 0.0, "lat": 38.933779333333334, "type": "electric_bike", "lon": -77.03995633333334, "is_reserved": 0, "fusion_lon": 0.0, "bike_id": "b7ff36f91fc586d463b078b0dbd3854b", "name": "b7ff36f91fc586d463b078b0dbd3854b", "rental_uris": {"ios": "https://dc.lft.to/lastmile_qr_scan", "android": "https://dc.lft.to/lastmile_qr_scan"}}, {"is_disabled": 0, "fusion_lat": 0.0, "lat": 38.865106833333336, "type": "electric_bike", "lon": -76.97339116666667, "is_reserved": 0, "fusion_lon": 0.0, "bike_id": "bbd09ee4bbbecc9fdc6373856137aa16", "name": "bbd09ee4bbbecc9fdc6373856137aa16", "rental_uris": {"ios": "https://dc.lft.to/lastmile_qr_scan", "android": "https://dc.lft.to/lastmile_qr_scan"}}, {"is_disabled": 0, "fusion_lat": 0.0, "lat": 38.904279, "type": "electric_scooter", "lon": -77.02629583333334, "is_reserved": 0, "fusion_lon": 0.0, "bike_id": "4875bc61ad945a64f306c80c409ec02f", "name": "4875bc61ad945a64f306c80c409ec02f", "rental_uris": {"ios": "https://dc.lft.to/lastmile_qr_scan", "android": "https://dc.lft.to/lastmile_qr_scan"}}, {"is_disabled": 0, "fusion_lat": 0.0, "lat": 38.9394065, "type": "electric_scooter", "lon": -77.061024, "is_reserved": 0, "fusion_lon": 0.0, "bike_id": "98bef49b3cc5a9a9f7bc8e0de7888640", "name": "98bef49b3cc5a9a9f7bc8e0de7888640", "rental_uris": {"ios": "https://dc.lft.to/lastmile_qr_scan", "android": "https://dc.lft.to/lastmile_qr_scan"}}, {"is_disabled": 0, "fusion_lat": 0.0, "lat": 38.900696833333335, "type": "electric_scooter", "lon": -77.05074716666667, "is_reserved": 0, "fusion_lon": 0.0, "bike_id": "7e19465add3aad0ea1fd112093b75097", "name": "7e19465add3aad0ea1fd112093b75097", "rental_uris": {"ios": "https://dc.lft.to/lastmile_qr_scan", "android": "https://dc.lft.to/lastmile_qr_scan"}}, {"is_disabled": 0, "fusion_lat": 0.0, "lat": 38.86181233333333, "type": "electric_scooter", "lon": -76.99429433333333, "is_reserved": 0, "fusion_lon": 0.0, "bike_id": "7f143465174935eedff6ade894b8bbfb", "name": "7f143465174935eedff6ade894b8bbfb", "rental_uris": {"ios": "https://dc.lft.to/lastmile_qr_scan", "android": "https://dc.lft.to/lastmile_qr_scan"}}, {"is_disabled": 0, "fusion_lat": 0.0, "lat": 38.89221216666667, "type": "electric_scooter", "lon": -77.04870616666666, "is_reserved": 0, "fusion_lon": 0.0, "bike_id": "6c6d08b20da5fd002441bd99eaf3ad4d", "name": "6c6d08b20da5fd002441bd99eaf3ad4d", "rental_uris": {"ios": "https://dc.lft.to/lastmile_qr_scan", "android": "https://dc.lft.to/lastmile_qr_scan"}}, {"is_disabled": 0, "fusion_lat": 0.0, "lat": 38.90730083333333, "type": "electric_scooter", "lon": -77.023163, "is_reserved": 0, "fusion_lon": 0.0, "bike_id": "bb17bfaa7b13e76cacc9cd76ea7c3ff2", "name": "bb17bfaa7b13e76cacc9cd76ea7c3ff2", "rental_uris": {"ios": "https://dc.lft.to/lastmile_qr_scan", "android": "https://dc.lft.to/lastmile_qr_scan"}}, {"is_disabled": 0, "fusion_lat": 0.0, "lat": 38.86521366666667, "type": "electric_scooter", "lon": -76.9903855, "is_reserved": 0, "fusion_lon": 0.0, "bike_id": "0af359bd583de9ce1d914423b5a479fe", "name": "0af359bd583de9ce1d914423b5a479fe", "rental_uris": {"ios": "https://dc.lft.to/lastmile_qr_scan", "android": "https://dc.lft.to/lastmile_qr_scan"}}, {"is_disabled": 0, "fusion_lat": 0.0, "lat": 38.9386135, "type": "electric_bike", "lon": -77.026272, "is_reserved": 0, "fusion_lon": 0.0, "bike_id": "99d63b443142859c0911aeedbf0098cd", "name": "99d63b443142859c0911aeedbf0098cd", "rental_uris": {"ios": "https://dc.lft.to/lastmile_qr_scan", "android": "https://dc.lft.to/lastmile_qr_scan"}}, {"is_disabled": 0, "fusion_lat": 0.0, "lat": 38.897274833333334, "type": "electric_scooter", "lon": -77.04987683333333, "is_reserved": 0, "fusion_lon": 0.0, "bike_id": "188706b05ac38cfe2fa1b8c2d8da68a8", "name": "188706b05ac38cfe2fa1b8c2d8da68a8", "rental_uris": {"ios": "https://dc.lft.to/lastmile_qr_scan", "android": "https://dc.lft.to/lastmile_qr_scan"}}, {"is_disabled": 0, "fusion_lat": 0.0, "lat": 38.892637666666666, "type": "electric_scooter", "lon": -77.02603383333333, "is_reserved": 0, "fusion_lon": 0.0, "bike_id": "c6f19dc3d0416def8d2a36bfcc482594", "name": "c6f19dc3d0416def8d2a36bfcc482594", "rental_uris": {"ios": "https://dc.lft.to/lastmile_qr_scan", "android": "https://dc.lft.to/lastmile_qr_scan"}}, {"is_disabled": 0, "fusion_lat": 0.0, "lat": 38.8287515, "type": "electric_bike", "lon": -77.11220566666667, "is_reserved": 0, "fusion_lon": 0.0, "bike_id": "71ba33edbb6b1685238e3fdb6908a6d9", "name": "71ba33edbb6b1685238e3fdb6908a6d9", "rental_uris": {"ios": "https://dc.lft.to/lastmile_qr_scan", "android": "https://dc.lft.to/lastmile_qr_scan"}}, {"is_disabled": 0, "fusion_lat": 0.0, "lat": 38.902594666666666, "type": "electric_scooter", "lon": -77.02647616666667, "is_reserved": 0, "fusion_lon": 0.0, "bike_id": "56c69907ce2550c1aa623e1f257c643d", "name": "56c69907ce2550c1aa623e1f257c643d", "rental_uris": {"ios": "https://dc.lft.to/lastmile_qr_scan", "android": "https://dc.lft.to/lastmile_qr_scan"}}, {"is_disabled": 0, "fusion_lat": 0.0, "lat": 38.900967666666666, "type": "electric_scooter", "lon": -76.98343066666666, "is_reserved": 0, "fusion_lon": 0.0, "bike_id": "0d22d110a760fd542ef20735b3bbf8cc", "name": "0d22d110a760fd542ef20735b3bbf8cc", "rental_uris": {"ios": "https://dc.lft.to/lastmile_qr_scan", "android": "https://dc.lft.to/lastmile_qr_scan"}}, {"is_disabled": 0, "fusion_lat": 0.0, "lat": 38.87659933333333, "type": "electric_scooter", "lon": -77.00425316666667, "is_reserved": 0, "fusion_lon": 0.0, "bike_id": "ab33e7918260692f2c9dc420f96eb2cb", "name": "ab33e7918260692f2c9dc420f96eb2cb", "rental_uris": {"ios": "https://dc.lft.to/lastmile_qr_scan", "android": "https://dc.lft.to/lastmile_qr_scan"}}, {"is_disabled": 0, "fusion_lat": 0.0, "lat": 38.892471, "type": "electric_scooter", "lon": -77.03959333333333, "is_reserved": 0, "fusion_lon": 0.0, "bike_id": "8b629ece6d403ea138ab6bb07d8e4159", "name": "8b629ece6d403ea138ab6bb07d8e4159", "rental_uris": {"ios": "https://dc.lft.to/lastmile_qr_scan", "android": "https://dc.lft.to/lastmile_qr_scan"}}, {"is_disabled": 0, "fusion_lat": 0.0, "lat": 38.91054366666667, "type": "electric_scooter", "lon": -77.0219765, "is_reserved": 0, "fusion_lon": 0.0, "bike_id": "2ca5bbb488ce87b4072e557f87d09bee", "name": "2ca5bbb488ce87b4072e557f87d09bee", "rental_uris": {"ios": "https://dc.lft.to/lastmile_qr_scan", "android": "https://dc.lft.to/lastmile_qr_scan"}}, {"is_disabled": 0, "fusion_lat": 0.0, "lat": 38.905546333333334, "type": "electric_scooter", "lon": -77.039807, "is_reserved": 0, "fusion_lon": 0.0, "bike_id": "864cc2984781b274e610226b9aaa9ae1", "name": "864cc2984781b274e610226b9aaa9ae1", "rental_uris": {"ios": "https://dc.lft.to/lastmile_qr_scan", "android": "https://dc.lft.to/lastmile_qr_scan"}}, {"is_disabled": 0, "fusion_lat": 0.0, "lat": 38.91764466666667, "type": "electric_scooter", "lon": -77.039987, "is_reserved": 0, "fusion_lon": 0.0, "bike_id": "14675cc10db8d3a1ff23ba931ec6289f", "name": "14675cc10db8d3a1ff23ba931ec6289f", "rental_uris": {"ios": "https://dc.lft.to/lastmile_qr_scan", "android": "https://dc.lft.to/lastmile_qr_scan"}}, {"is_disabled": 0, "fusion_lat": 0.0, "lat": 38.990723333333335, "type": "electric_bike", "lon": -76.87468716666666, "is_reserved": 0, "fusion_lon": 0.0, "bike_id": "be534d44667b1f7c7e538518d2c5172d", "name": "be534d44667b1f7c7e538518d2c5172d", "rental_uris": {"ios": "https://dc.lft.to/lastmile_qr_scan", "android": "https://dc.lft.to/lastmile_qr_scan"}}, {"is_disabled": 0, "fusion_lat": 0.0, "lat": 38.91414366666667, "type": "electric_scooter", "lon": -77.04548, "is_reserved": 0, "fusion_lon": 0.0, "bike_id": "027a38d951e2848c7c23afd72dfa811a", "name": "027a38d951e2848c7c23afd72dfa811a", "rental_uris": {"ios": "https://dc.lft.to/lastmile_qr_scan", "android": "https://dc.lft.to/lastmile_qr_scan"}}, {"is_disabled": 0, "fusion_lat": 0.0, "lat": 38.90325683333333, "type": "electric_scooter", "lon": -77.04335816666666, "is_reserved": 0, "fusion_lon": 0.0, "bike_id": "048c8bb00fd939004178675490f85c08", "name": "048c8bb00fd939004178675490f85c08", "rental_uris": {"ios": "https://dc.lft.to/lastmile_qr_scan", "android": "https://dc.lft.to/lastmile_qr_scan"}}, {"is_disabled": 0, "fusion_lat": 0.0, "lat": 38.8839915, "type": "electric_scooter", "lon": -77.0153435, "is_reserved": 0, "fusion_lon": 0.0, "bike_id": "3207962e480cade85b54db9a4d9793d1", "name": "3207962e480cade85b54db9a4d9793d1", "rental_uris": {"ios": "https://dc.lft.to/lastmile_qr_scan", "android": "https://dc.lft.to/lastmile_qr_scan"}}, {"is_disabled": 0, "fusion_lat": 0.0, "lat": 38.936342833333335, "type": "electric_scooter", "lon": -77.03659916666666, "is_reserved": 0, "fusion_lon": 0.0, "bike_id": "715c5af291f4bc883cf71963d7f681ad", "name": "715c5af291f4bc883cf71963d7f681ad", "rental_uris": {"ios": "https://dc.lft.to/lastmile_qr_scan", "android": "https://dc.lft.to/lastmile_qr_scan"}}, {"is_disabled": 0, "fusion_lat": 0.0, "lat": 38.935302166666666, "type": "electric_scooter", "lon": -77.02374716666667, "is_reserved": 0, "fusion_lon": 0.0, "bike_id": "104638dec4f6f66764a6e478604b2d53", "name": "104638dec4f6f66764a6e478604b2d53", "rental_uris": {"ios": "https://dc.lft.to/lastmile_qr_scan", "android": "https://dc.lft.to/lastmile_qr_scan"}}, {"is_disabled": 0, "fusion_lat": 0.0, "lat": 38.882362, "type": "electric_scooter", "lon": -76.990885, "is_reserved": 0, "fusion_lon": 0.0, "bike_id": "b74694d18596ff5ca3a00eeaeb175208", "name": "b74694d18596ff5ca3a00eeaeb175208", "rental_uris": {"ios": "https://dc.lft.to/lastmile_qr_scan", "android": "https://dc.lft.to/lastmile_qr_scan"}}, {"is_disabled": 0, "fusion_lat": 0.0, "lat": 38.95645366666667, "type": "electric_scooter", "lon": -76.99789516666667, "is_reserved": 0, "fusion_lon": 0.0, "bike_id": "a04a545c0830098635ee0caf90bf626d", "name": "a04a545c0830098635ee0caf90bf626d", "rental_uris": {"ios": "https://dc.lft.to/lastmile_qr_scan", "android": "https://dc.lft.to/lastmile_qr_scan"}}, {"is_disabled": 0, "fusion_lat": 0.0, "lat": 38.886472, "type": "electric_scooter", "lon": -77.01964733333334, "is_reserved": 0, "fusion_lon": 0.0, "bike_id": "d4837d0ac558bb782df3f655d70adf59", "name": "d4837d0ac558bb782df3f655d70adf59", "rental_uris": {"ios": "https://dc.lft.to/lastmile_qr_scan", "android": "https://dc.lft.to/lastmile_qr_scan"}}, {"is_disabled": 0, "fusion_lat": 0.0, "lat": 38.8874435, "type": "electric_scooter", "lon": -77.02023433333333, "is_reserved": 0, "fusion_lon": 0.0, "bike_id": "1efb7338a737713da474f386d55931ef", "name": "1efb7338a737713da474f386d55931ef", "rental_uris": {"ios": "https://dc.lft.to/lastmile_qr_scan", "android": "https://dc.lft.to/lastmile_qr_scan"}}, {"is_disabled": 0, "fusion_lat": 0.0, "lat": 38.99152816666667, "type": "electric_scooter", "lon": -77.04739083333334, "is_reserved": 0, "fusion_lon": 0.0, "bike_id": "3ff7a94a04a2a03dcd15177363fa7dd7", "name": "3ff7a94a04a2a03dcd15177363fa7dd7", "rental_uris": {"ios": "https://dc.lft.to/lastmile_qr_scan", "android": "https://dc.lft.to/lastmile_qr_scan"}}, {"is_disabled": 0, "fusion_lat": 0.0, "lat": 38.87969833333333, "type": "electric_scooter", "lon": -76.98533233333333, "is_reserved": 0, "fusion_lon": 0.0, "bike_id": "fb76b6f323fa6dd24695ef6cee313962", "name": "fb76b6f323fa6dd24695ef6cee313962", "rental_uris": {"ios": "https://dc.lft.to/lastmile_qr_scan", "android": "https://dc.lft.to/lastmile_qr_scan"}}, {"is_disabled": 0, "fusion_lat": 0.0, "lat": 39.0293385, "type": "electric_bike", "lon": -77.04925233333333, "is_reserved": 0, "fusion_lon": 0.0, "bike_id": "d520b36af0178b91243bd73f7c38ca6c", "name": "d520b36af0178b91243bd73f7c38ca6c", "rental_uris": {"ios": "https://dc.lft.to/lastmile_qr_scan", "android": "https://dc.lft.to/lastmile_qr_scan"}}, {"is_disabled": 0, "fusion_lat": 0.0, "lat": 38.960212166666665, "type": "electric_bike", "lon": -77.017249, "is_reserved": 0, "fusion_lon": 0.0, "bike_id": "ea171a655484f755bebc7977e2be1217", "name": "ea171a655484f755bebc7977e2be1217", "rental_uris": {"ios": "https://dc.lft.to/lastmile_qr_scan", "android": "https://dc.lft.to/lastmile_qr_scan"}}, {"is_disabled": 0, "fusion_lat": 0.0, "lat": 38.904216, "type": "electric_scooter", "lon": -77.05304966666667, "is_reserved": 0, "fusion_lon": 0.0, "bike_id": "8694286ff3de9deb3f255f08ead2d357", "name": "8694286ff3de9deb3f255f08ead2d357", "rental_uris": {"ios": "https://dc.lft.to/lastmile_qr_scan", "android": "https://dc.lft.to/lastmile_qr_scan"}}, {"is_disabled": 0, "fusion_lat": 0.0, "lat": 38.90864333333333, "type": "electric_bike", "lon": -77.0807895, "is_reserved": 0, "fusion_lon": 0.0, "bike_id": "b229b5876baaa31eeacc66a5962a2b76", "name": "b229b5876baaa31eeacc66a5962a2b76", "rental_uris": {"ios": "https://dc.lft.to/lastmile_qr_scan", "android": "https://dc.lft.to/lastmile_qr_scan"}}, {"is_disabled": 0, "fusion_lat": 0.0, "lat": 38.9199275, "type": "electric_scooter", "lon": -76.97313233333334, "is_reserved": 0, "fusion_lon": 0.0, "bike_id": "b8cc5a1846491b5321e50a36e4db5353", "name": "b8cc5a1846491b5321e50a36e4db5353", "rental_uris": {"ios": "https://dc.lft.to/lastmile_qr_scan", "android": "https://dc.lft.to/lastmile_qr_scan"}}, {"is_disabled": 0, "fusion_lat": 0.0, "lat": 38.9357025, "type": "electric_scooter", "lon": -77.03747083333333, "is_reserved": 0, "fusion_lon": 0.0, "bike_id": "5b27f1850e7ee5ddb3bb568c38a8651f", "name": "5b27f1850e7ee5ddb3bb568c38a8651f", "rental_uris": {"ios": "https://dc.lft.to/lastmile_qr_scan", "android": "https://dc.lft.to/lastmile_qr_scan"}}, {"is_disabled": 0, "fusion_lat": 0.0, "lat": 38.948005333333334, "type": "electric_bike", "lon": -77.0080875, "is_reserved": 0, "fusion_lon": 0.0, "bike_id": "16fb71a479e60bdc76abd6a1b7f6cd3c", "name": "16fb71a479e60bdc76abd6a1b7f6cd3c", "rental_uris": {"ios": "https://dc.lft.to/lastmile_qr_scan", "android": "https://dc.lft.to/lastmile_qr_scan"}}, {"is_disabled": 0, "fusion_lat": 0.0, "lat": 38.892525166666665, "type": "electric_scooter", "lon": -76.94327816666667, "is_reserved": 0, "fusion_lon": 0.0, "bike_id": "e28651c9c8b71db694399643a0eb8936", "name": "e28651c9c8b71db694399643a0eb8936", "rental_uris": {"ios": "https://dc.lft.to/lastmile_qr_scan", "android": "https://dc.lft.to/lastmile_qr_scan"}}, {"is_disabled": 0, "fusion_lat": 0.0, "lat": 38.89885616666667, "type": "electric_scooter", "lon": -77.03265733333333, "is_reserved": 0, "fusion_lon": 0.0, "bike_id": "1f735a2be7400d64f087fd61e045f037", "name": "1f735a2be7400d64f087fd61e045f037", "rental_uris": {"ios": "https://dc.lft.to/lastmile_qr_scan", "android": "https://dc.lft.to/lastmile_qr_scan"}}, {"is_disabled": 0, "fusion_lat": 0.0, "lat": 38.900059166666665, "type": "electric_scooter", "lon": -77.0058895, "is_reserved": 0, "fusion_lon": 0.0, "bike_id": "b0cd40f849d8e534271d2d97f1f61245", "name": "b0cd40f849d8e534271d2d97f1f61245", "rental_uris": {"ios": "https://dc.lft.to/lastmile_qr_scan", "android": "https://dc.lft.to/lastmile_qr_scan"}}, {"is_disabled": 0, "fusion_lat": 0.0, "lat": 38.91622566666667, "type": "electric_scooter", "lon": -77.02706733333333, "is_reserved": 0, "fusion_lon": 0.0, "bike_id": "a3a9bbd1b0b9764753d961435e5bd91c", "name": "a3a9bbd1b0b9764753d961435e5bd91c", "rental_uris": {"ios": "https://dc.lft.to/lastmile_qr_scan", "android": "https://dc.lft.to/lastmile_qr_scan"}}, {"is_disabled": 0, "fusion_lat": 0.0, "lat": 38.871489833333335, "type": "electric_bike", "lon": -76.9366585, "is_reserved": 0, "fusion_lon": 0.0, "bike_id": "df5b72099677dc0312775a55343b1bb8", "name": "df5b72099677dc0312775a55343b1bb8", "rental_uris": {"ios": "https://dc.lft.to/lastmile_qr_scan", "android": "https://dc.lft.to/lastmile_qr_scan"}}, {"is_disabled": 0, "fusion_lat": 0.0, "lat": 38.92151066666667, "type": "electric_scooter", "lon": -77.03867216666667, "is_reserved": 0, "fusion_lon": 0.0, "bike_id": "2fca354e86df535b8f07f43a47cd9bd0", "name": "2fca354e86df535b8f07f43a47cd9bd0", "rental_uris": {"ios": "https://dc.lft.to/lastmile_qr_scan", "android": "https://dc.lft.to/lastmile_qr_scan"}}, {"is_disabled": 0, "fusion_lat": 0.0, "lat": 38.95356366666667, "type": "electric_bike", "lon": -76.98093033333333, "is_reserved": 0, "fusion_lon": 0.0, "bike_id": "92fb1e58ca3dc2324a76ea3b812a42e6", "name": "92fb1e58ca3dc2324a76ea3b812a42e6", "rental_uris": {"ios": "https://dc.lft.to/lastmile_qr_scan", "android": "https://dc.lft.to/lastmile_qr_scan"}}, {"is_disabled": 0, "fusion_lat": 0.0, "lat": 38.903476, "type": "electric_scooter", "lon": -77.03860616666667, "is_reserved": 0, "fusion_lon": 0.0, "bike_id": "586995ac9a0db78e0fabc0469a642b26", "name": "586995ac9a0db78e0fabc0469a642b26", "rental_uris": {"ios": "https://dc.lft.to/lastmile_qr_scan", "android": "https://dc.lft.to/lastmile_qr_scan"}}, {"is_disabled": 0, "fusion_lat": 0.0, "lat": 38.884541666666664, "type": "electric_scooter", "lon": -77.005735, "is_reserved": 0, "fusion_lon": 0.0, "bike_id": "013f93e659a94f763c5f5f5b614c3ab1", "name": "013f93e659a94f763c5f5f5b614c3ab1", "rental_uris": {"ios": "https://dc.lft.to/lastmile_qr_scan", "android": "https://dc.lft.to/lastmile_qr_scan"}}, {"is_disabled": 0, "fusion_lat": 0.0, "lat": 38.92039316666666, "type": "electric_scooter", "lon": -77.024187, "is_reserved": 0, "fusion_lon": 0.0, "bike_id": "ab369fa40b7f7e723da482dde4e67e83", "name": "ab369fa40b7f7e723da482dde4e67e83", "rental_uris": {"ios": "https://dc.lft.to/lastmile_qr_scan", "android": "https://dc.lft.to/lastmile_qr_scan"}},