{"data": {"bikes": [{"is_disabled": 0, "is_reserved": 0, "fusion_lat": 0.0, "lat": 38.92358, "fusion_lon": 0.0, "rental_uris": {"ios": "https://dc.lft.to/lastmile_qr_scan", "android": "https://dc.lft.to/lastmile_qr_scan"}, "lon": -77.052379, "bike_id": "d816dafd27f22190a2b417912ebe1ec1", "type": "electric_scooter", "name": "d816dafd27f22190a2b417912ebe1ec1"}, {"is_disabled": 0, "is_reserved": 0, "fusion_lat": 0.0, "lat": 38.95106416666667, "fusion_lon": 0.0, "rental_uris": {"ios": "https://dc.lft.to/lastmile_qr_scan", "android": "https://dc.lft.to/lastmile_qr_scan"}, "lon": -77.018904, "bike_id": "b37f46a6eca02dba5edf85388f58ae3a", "type": "electric_scooter", "name": "b37f46a6eca02dba5edf85388f58ae3a"}, {"is_disabled": 0, "is_reserved": 0, "fusion_lat": 0.0, "lat": 38.921482, "fusion_lon": 0.0, "rental_uris": {"ios": "https://dc.lft.to/lastmile_qr_scan", "android": "https://dc.lft.to/lastmile_qr_scan"}, "lon": -77.03657783333334, "bike_id": "e205ea8542f1a2364d2d0de1416c87ef", "type": "electric_scooter", "name": "e205ea8542f1a2364d2d0de1416c87ef"}, {"is_disabled": 0, "is_reserved": 0, "fusion_lat": 0.0, "lat": 38.93609166666667, "fusion_lon": 0.0, "rental_uris": {"ios": "https://dc.lft.to/lastmile_qr_scan", "android": "https://dc.lft.to/lastmile_qr_scan"}, "lon": -77.055891, "bike_id": "622b2882a107ea7a99c444ef1aeb1a1a", "type": "electric_scooter", "name": "622b2882a107ea7a99c444ef1aeb1a1a"}, {"is_disabled": 0, "is_reserved": 0, "fusion_lat": 0.0, "lat": 38.92777683333333, "fusion_lon": 0.0, "rental_uris": {"ios": "https://dc.lft.to/lastmile_qr_scan", "android": "https://dc.lft.to/lastmile_qr_scan"}, "lon": -77.05264783333334, "bike_id": "f7d1f8a9469539bde84cdba880e5859f", "type": "electric_scooter", "name": "f7d1f8a9469539bde84cdba880e5859f"}, {"is_disabled": 0, "is_reserved": 0, "fusion_lat": 0.0, "lat": 38.87835883333333, "fusion_lon": 0.0, "rental_uris": {"ios": "https://dc.lft.to/lastmile_qr_scan", "android": "https://dc.lft.to/lastmile_qr_scan"}, "lon": -76.9860785, "bike_id": "d18b42f9f3c076b80c88b50a97254384", "type": "electric_scooter", "name": "d18b42f9f3c076b80c88b50a97254384"}, {"is_disabled": 0, "is_reserved": 0, "fusion_lat": 0.0, "lat": 38.904864833333335, "fusion_lon": 0.0, "rental_uris": {"ios": "https://dc.lft.to/lastmile_qr_scan", "android": "https://dc.lft.to/lastmile_qr_scan"}, "lon": -77.05722116666666, "bike_id": "fc12dff456b306404010a4a9bccc5b89", "type": "electric_scooter", "name": "fc12dff456b306404010a4a9bccc5b89"}, {"is_disabled": 0, "is_reserved": 0, "fusion_lat": 0.0, "lat": 38.9820245, "fusion_lon": 0.0, "rental_uris": {"ios": "https://dc.lft.to/lastmile_qr_scan", "android": "https://dc.lft.to/lastmile_qr_scan"}, "lon": -76.97819433333333, "bike_id": "b301d7000419ad5e86b8cd2957479d7e", "type": "electric_bike", "name": "b301d7000419ad5e86b8cd2957479d7e"}, {"is_disabled": 0, "is_reserved": 0, "fusion_lat": 0.0, "lat": 38.926104, "fusion_lon": 0.0, "rental_uris": {"ios": "https://dc.lft.to/lastmile_qr_scan", "android": "https://dc.lft.to/lastmile_qr_scan"}, "lon": -77.006534, "bike_id": "a2e39f21c8a547e284616e214f0a83ae", "type": "electric_scooter", "name": "a2e39f21c8a547e284616e214f0a83ae"}, {"is_disabled": 0, "is_reserved": 0, "fusion_lat": 0.0, "lat": 38.876572, "fusion_lon": 0.0, "rental_uris": {"ios": "https://dc.lft.to/lastmile_qr_scan", "android": "https://dc.lft.to/lastmile_qr_scan"}, "lon": -77.00080916666667, "bike_id": "20a76fb7febd3eae3ba97dd77ad8e9bb", "type": "electric_scooter", "name": "20a76fb7febd3eae3ba97dd77ad8e9bb"}, {"is_disabled": 0, "is_reserved": 0, "fusion_lat": 0.0, "lat": 38.8936775, "fusion_lon": 0.0, "rental_uris": {"ios": "https://dc.lft.to/lastmile_qr_scan", "android": "https://dc.lft.to/lastmile_qr_scan"}, "lon": -77.04296016666666, "bike_id": "1ced2c133bab6541c7af72cf2786d03d", "type": "electric_scooter", "name": "1ced2c133bab6541c7af72cf2786d03d"}, {"is_disabled": 0, "is_reserved": 0, "fusion_lat": 0.0, "lat": 38.918068833333336, "fusion_lon": 0.0, "rental_uris": {"ios": "https://dc.lft.to/lastmile_qr_scan", "android": "https://dc.lft.to/lastmile_qr_scan"}, "lon": -77.00007633333334, "bike_id": "a7043a7b1bcfe621c736d716b7003e46", "type": "electric_scooter", "name": "a7043a7b1bcfe621c736d716b7003e46"}, {"is_disabled": 0, "is_reserved": 0, "fusion_lat": 0.0, "lat": 38.9117855, "fusion_lon": 0.0, "rental_uris": {"ios": "https://dc.lft.to/lastmile_qr_scan", "android": "https://dc.lft.to/lastmile_qr_scan"}, "lon": -77.0121295, "bike_id": "1df3aa187cfce1dab0df5aa1775f253e", "type": "electric_scooter", "name": "1df3aa187cfce1dab0df5aa1775f253e"}, {"is_disabled": 0, "is_reserved": 0, "fusion_lat": 0.0, "lat": 38.928218333333334, "fusion_lon": 0.0, "rental_uris": {"ios": "https://dc.lft.to/lastmile_qr_scan", "android": "https://dc.lft.to/lastmile_qr_scan"}, "lon": -77.05974983333333, "bike_id": "c86ae3a10dad89f74fbf1973dbb22387", "type": "electric_bike", "name": "c86ae3a10dad89f74fbf1973dbb22387"}, {"is_disabled": 0, "is_reserved": 0, "fusion_lat": 0.0, "lat": 38.8993495, "fusion_lon": 0.0, "rental_uris": {"ios": "https://dc.lft.to/lastmile_qr_scan", "android": "https://dc.lft.to/lastmile_qr_scan"}, "lon": -76.93759116666666, "bike_id": "0629c06652acb902331830919da6a38b", "type": "electric_scooter", "name": "0629c06652acb902331830919da6a38b"}, {"is_disabled": 0, "is_reserved": 0, "fusion_lat": 0.0, "lat": 38.8897485, "fusion_lon": 0.0, "rental_uris": {"ios": "https://dc.lft.to/lastmile_qr_scan", "android": "https://dc.lft.to/lastmile_qr_scan"}, "lon": -76.98183333333333, "bike_id": "8a8352c69636727b0d2ae03d7d354f5b", "type": "electric_scooter", "name": "8a8352c69636727b0d2ae03d7d354f5b"}, {"is_disabled": 0, "is_reserved": 0, "fusion_lat": 0.0, "lat": 38.8886885, "fusion_lon": 0.0, "rental_uris": {"ios": "https://dc.lft.to/lastmile_qr_scan", "android": "https://dc.lft.to/lastmile_qr_scan"}, "lon": -77.00188966666667, "bike_id": "26161f374b85e577216444e1e133a104", "type": "electric_scooter", "name": "26161f374b85e577216444e1e133a104"}, {"is_disabled": 0, "is_reserved": 0, "fusion_lat": 0.0, "lat": 38.9049155, "fusion_lon": 0.0, "rental_uris": {"ios": "https://dc.lft.to/lastmile_qr_scan", "android": "https://dc.lft.to/lastmile_qr_scan"}, "lon": -77.02958416666667, "bike_id": "5bf375427c423d433f1e9746e32e2c8e", "type": "electric_scooter", "name": "5bf375427c423d433f1e9746e32e2c8e"}, {"is_disabled": 0, "is_reserved": 0, "fusion_lat": 0.0, "lat": 38.917461833333334, "fusion_lon": 0.0, "rental_uris": {"ios": "https://dc.lft.to/lastmile_qr_scan", "android": "https://dc.lft.to/lastmile_qr_scan"}, "lon": -77.010864, "bike_id": "884956526ec1ef886cdeef2f35d6e20c", "type": "electric_scooter", "name": "884956526ec1ef886cdeef2f35d6e20c"}, {"is_disabled": 0, "is_reserved": 0, "fusion_lat": 0.0, "lat": 38.9207355, "fusion_lon": 0.0, "rental_uris": {"ios": "https://dc.lft.to/lastmile_qr_scan", "android": "https://dc.lft.to/lastmile_qr_scan"}, "lon": -77.023108, "bike_id": "f87cbf68bae969ca17fe0cf9c1f114ab", "type": "electric_scooter", "name": "f87cbf68bae969ca17fe0cf9c1f114ab"}, {"is_disabled": 0, "is_reserved": 0, "fusion_lat": 0.0, "lat": 38.876264666666664, "fusion_lon": 0.0, "rental_uris": {"ios": "https://dc.lft.to/lastmile_qr_scan", "android": "https://dc.lft.to/lastmile_qr_scan"}, "lon": -77.00213783333334, "bike_id": "6bf888793eb6bbd7537f326582364a8a", "type": "electric_scooter", "name": "6bf888793eb6bbd7537f326582364a8a"}, {"is_disabled": 0, "is_reserved": 0, "fusion_lat": 0.0, "lat": 38.900242166666665, "fusion_lon": 0.0, "rental_uris": {"ios": "https://dc.lft.to/lastmile_qr_scan", "android": "https://dc.lft.to/lastmile_qr_scan"}, "lon": -77.036717, "bike_id": "4bf5a039775c085ee441e7de628395b6", "type": "electric_scooter", "name": "4bf5a039775c085ee441e7de628395b6"}, {"is_disabled": 0, "is_reserved": 0, "fusion_lat": 0.0, "lat": 38.90951783333333, "fusion_lon": 0.0, "rental_uris": {"ios": "https://dc.lft.to/lastmile_qr_scan", "android": "https://dc.lft.to/lastmile_qr_scan"}, "lon": -77.0240675, "bike_id": "08f2a52ea36a4840fe6d474068e59782", "type": "electric_scooter", "name": "08f2a52ea36a4840fe6d474068e59782"}, {"is_disabled": 0, "is_reserved": 0, "fusion_lat": 0.0, "lat": 38.878831166666664, "fusion_lon": 0.0, "rental_uris": {"ios": "https://dc.lft.to/lastmile_qr_scan", "android": "https://dc.lft.to/lastmile_qr_scan"}, "lon": -77.02276116666667, "bike_id": "232a76b1a4fccea4b945bb193ae4157a", "type": "electric_scooter", "name": "232a76b1a4fccea4b945bb193ae4157a"}, {"is_disabled": 0, "is_reserved": 0, "fusion_lat": 0.0, "lat": 38.89814366666667, "fusion_lon": 0.0, "rental_uris": {"ios": "https://dc.lft.to/lastmile_qr_scan", "android": "https://dc.lft.to/lastmile_qr_scan"}, "lon": -77.00215316666667, "bike_id": "e637b2c68f487ffb6390a0d4d8410f49", "type": "electric_scooter", "name": "e637b2c68f487ffb6390a0d4d8410f49"}, {"is_disabled": 0, "is_reserved": 0, "fusion_lat": 0.0, "lat": 38.920616333333335, "fusion_lon": 0.0, "rental_uris": {"ios": "https://dc.lft.to/lastmile_qr_scan", "android": "https://dc.lft.to/lastmile_qr_scan"}, "lon": -77.04384383333333, "bike_id": "561fafaed8bf709623449e7570130110", "type": "electric_scooter", "name": "561fafaed8bf709623449e7570130110"}, {"is_disabled": 0, "is_reserved": 0, "fusion_lat": 0.0, "lat": 38.916804166666665, "fusion_lon": 0.0, "rental_uris": {"ios": "https://dc.lft.to/lastmile_qr_scan", "android": "https://dc.lft.to/lastmile_qr_scan"}, "lon": -77.02533, "bike_id": "638d3fb15cd068f5c015aade7d6b8149", "type": "electric_scooter", "name": "638d3fb15cd068f5c015aade7d6b8149"}, {"is_disabled": 0, "is_reserved": 0, "fusion_lat": 0.0, "lat": 38.90001016666667, "fusion_lon": 0.0, "rental_uris": {"ios": "https://dc.lft.to/lastmile_qr_scan", "android": "https://dc.lft.to/lastmile_qr_scan"}, "lon": -77.02180933333334, "bike_id": "ede96dbbb484a971e29525d560bfc838", "type": "electric_scooter", "name": "ede96dbbb484a971e29525d560bfc838"}, {"is_disabled": 0, "is_reserved": 0, "fusion_lat": 0.0, "lat": 38.91776633333333, "fusion_lon": 0.0, "rental_uris": {"ios": "https://dc.lft.to/lastmile_qr_scan", "android": "https://dc.lft.to/lastmile_qr_scan"}, "lon": -77.02358716666667, "bike_id": "cc68ac08fe771451a3dc9f1dc1cea2cf", "type": "electric_scooter", "name": "cc68ac08fe771451a3dc9f1dc1cea2cf"}, {"is_disabled": 0, "is_reserved": 0, "fusion_lat": 0.0, "lat": 38.907982, "fusion_lon": 0.0, "rental_uris": {"ios": "https://dc.lft.to/lastmile_qr_scan", "android": "https://dc.lft.to/lastmile_qr_scan"}, "lon": -77.0384425, "bike_id": "a3e03f8998b1c5a91a7d801b9bbfc47e", "type": "electric_scooter", "name": "a3e03f8998b1c5a91a7d801b9bbfc47e"}, {"is_disabled": 0, "is_reserved": 0, "fusion_lat": 0.0, "lat": 39.074435666666666, "fusion_lon": 0.0, "rental_uris": {"ios": "https://dc.lft.to/lastmile_qr_scan", "android": "https://dc.lft.to/lastmile_qr_scan"}, "lon": -77.11526233333333, "bike_id": "36b795ca42edc59f696b2d1c87680efd", "type": "electric_bike", "name": "36b795ca42edc59f696b2d1c87680efd"}, {"is_disabled": 0, "is_reserved": 0, "fusion_lat": 0.0, "lat": 38.91815616666667, "fusion_lon": 0.0, "rental_uris": {"ios": "https://dc.lft.to/lastmile_qr_scan", "android": "https://dc.lft.to/lastmile_qr_scan"}, "lon": -77.02531283333333, "bike_id": "7abcf1e84a3fdae2930cd674bcf3b47e", "type": "electric_scooter", "name": "7abcf1e84a3fdae2930cd674bcf3b47e"}, {"is_disabled": 0, "is_reserved": 0, "fusion_lat": 0.0, "lat": 38.91518266666667, "fusion_lon": 0.0, "rental_uris": {"ios": "https://dc.lft.to/lastmile_qr_scan", "android": "https://dc.lft.to/lastmile_qr_scan"}, "lon": -77.01224816666667, "bike_id": "bbd1925867b75255d16c529560ecb71e", "type": "electric_scooter", "name": "bbd1925867b75255d16c529560ecb71e"}, {"is_disabled": 0, "is_reserved": 0, "fusion_lat": 0.0, "lat": 38.85594316666667, "fusion_lon": 0.0, "rental_uris": {"ios": "https://dc.lft.to/lastmile_qr_scan", "android": "https://dc.lft.to/lastmile_qr_scan"}, "lon": -76.972843, "bike_id": "2e8d7fd1641dab1eacc14d078a827b4e", "type": "electric_bike", "name": "2e8d7fd1641dab1eacc14d078a827b4e"}, {"is_disabled": 0, "is_reserved": 0, "fusion_lat": 0.0, "lat": 38.941411333333335, "fusion_lon": 0.0, "rental_uris": {"ios": "https://dc.lft.to/lastmile_qr_scan", "android": "https://dc.lft.to/lastmile_qr_scan"}, "lon": -77.023243, "bike_id": "85d7d2806ef865604c1e2093a1e56e7f", "type": "electric_scooter", "name": "85d7d2806ef865604c1e2093a1e56e7f"}, {"is_disabled": 0, "is_reserved": 0, "fusion_lat": 0.0, "lat": 38.804028833333334, "fusion_lon": 0.0, "rental_uris": {"ios": "https://dc.lft.to/lastmile_qr_scan", "android": "https://dc.lft.to/lastmile_qr_scan"}, "lon": -77.113351, "bike_id": "76765be238cb2096713d0b50ab8a7aa6", "type": "electric_bike", "name": "76765be238cb2096713d0b50ab8a7aa6"}, {"is_disabled": 0, "is_reserved": 0, "fusion_lat": 0.0, "lat": 38.89373666666667, "fusion_lon": 0.0, "rental_uris": {"ios": "https://dc.lft.to/lastmile_qr_scan", "android": "https://dc.lft.to/lastmile_qr_scan"}, "lon": -77.04436566666666, "bike_id": "817306bb9658a0a78bfc4642f48149f4", "type": "electric_scooter", "name": "817306bb9658a0a78bfc4642f48149f4"}, {"is_disabled": 0, "is_reserved": 0, "fusion_lat": 0.0, "lat": 38.9038185, "fusion_lon": 0.0, "rental_uris": {"ios": "https://dc.lft.to/lastmile_qr_scan", "android": "https://dc.lft.to/lastmile_qr_scan"}, "lon": -77.06023716666667, "bike_id": "06871e481dd4c9741f0263883202c85a", "type": "electric_scooter", "name": "06871e481dd4c9741f0263883202c85a"}, {"is_disabled": 0, "is_reserved": 0, "fusion_lat": 0.0, "lat": 38.93295083333334, "fusion_lon": 0.0, "rental_uris": {"ios": "https://dc.lft.to/lastmile_qr_scan", "android": "https://dc.lft.to/lastmile_qr_scan"}, "lon": -77.02318033333333, "bike_id": "fcf6945926e57bab7866c26a4dfa2dc8", "type": "electric_scooter", "name": "fcf6945926e57bab7866c26a4dfa2dc8"}, {"is_disabled": 0, "is_reserved": 0, "fusion_lat": 0.0, "lat": 38.9045315, "fusion_lon": 0.0, "rental_uris": {"ios": "https://dc.lft.to/lastmile_qr_scan", "android": "https://dc.lft.to/lastmile_qr_scan"}, "lon": -76.93274283333334, "bike_id": "5b1834eb3404a94a613e9c7d5a6d8631", "type": "electric_scooter", "name": "5b1834eb3404a94a613e9c7d5a6d8631"}, {"is_disabled": 0, "is_reserved": 0, "fusion_lat": 0.0, "lat": 38.917723333333335, "fusion_lon": 0.0, "rental_uris": {"ios": "https://dc.lft.to/lastmile_qr_scan", "android": "https://dc.lft.to/lastmile_qr_scan"}, "lon": -77.026999, "bike_id": "9bdec13ea121f2e3bf68c2ae6eea69ab", "type": "electric_scooter", "name": "9bdec13ea121f2e3bf68c2ae6eea69ab"}, {"is_disabled": 0, "is_reserved": 0, "fusion_lat": 0.0, "lat": 38.90930733333333, "fusion_lon": 0.0, "rental_uris": {"ios": "https://dc.lft.to/lastmile_qr_scan", "android": "https://dc.lft.to/lastmile_qr_scan"}, "lon": -77.04402333333333, "bike_id": "a428e47a8f6c3319ef1d7823c92215b6", "type": "electric_scooter", "name": "a428e47a8f6c3319ef1d7823c92215b6"}, {"is_disabled": 0, "is_reserved": 0, "fusion_lat": 0.0, "lat": 38.939742333333335, "fusion_lon": 0.0, "rental_uris": {"ios": "https://dc.lft.to/lastmile_qr_scan", "android": "https://dc.lft.to/lastmile_qr_scan"}, "lon": -77.02904, "bike_id": "87cd400aeb5410b6846e4db68cb1676b", "type": "electric_scooter", "name": "87cd400aeb5410b6846e4db68cb1676b"}, {"is_disabled": 0, "is_reserved": 0, "fusion_lat": 0.0, "lat": 38.898517, "fusion_lon": 0.0, "rental_uris": {"ios": "https://dc.lft.to/lastmile_qr_scan", "android": "https://dc.lft.to/lastmile_qr_scan"}, "lon": -77.02871383333333, "bike_id": "5f15c724bce40914b1b186464b3db9b2", "type": "electric_scooter", "name": "5f15c724bce40914b1b186464b3db9b2"}, {"is_disabled": 0, "is_reserved": 0, "fusion_lat": 0.0, "lat": 38.881289833333334, "fusion_lon": 0.0, "rental_uris": {"ios": "https://dc.lft.to/lastmile_qr_scan", "android": "https://dc.lft.to/lastmile_qr_scan"}, "lon": -77.02272533333333, "bike_id": "bde75ca4f52e6337229b907500bebd21", "type": "electric_scooter", "name": "bde75ca4f52e6337229b907500bebd21"}, {"is_disabled": 0, "is_reserved": 0, "fusion_lat": 0.0, "lat": 38.884487166666666, "fusion_lon": 0.0, "rental_uris": {"ios": "https://dc.lft.to/lastmile_qr_scan", "android": "https://dc.lft.to/lastmile_qr_scan"}, "lon": -76.95097166666666, "bike_id": "a30978c726bc6d7f6c493b8dbcf27894", "type": "electric_scooter", "name": "a30978c726bc6d7f6c493b8dbcf27894"}, {"is_disabled": 0, "is_reserved": 0, "fusion_lat": 0.0, "lat": 38.95223266666667, "fusion_lon": 0.0, "rental_uris": {"ios": "https://dc.lft.to/lastmile_qr_scan", "android": "https://dc.lft.to/lastmile_qr_scan"}, "lon": -77.002544, "bike_id": "64d1e2ef02a1e3fda6147c58c3390a0a", "type": "electric_bike", "name": "64d1e2ef02a1e3fda6147c58c3390a0a"}, {"is_disabled": 0, "is_reserved": 0, "fusion_lat": 0.0, "lat": 38.9028025, "fusion_lon": 0.0, "rental_uris": {"ios": "https://dc.lft.to/lastmile_qr_scan", "android": "https://dc.lft.to/lastmile_qr_scan"}, "lon": -77.01759933333334, "bike_id": "10a943966400af0f01187d67eb138036", "type": "electric_scooter", "name": "10a943966400af0f01187d67eb138036"}, {"is_disabled": 0, "is_reserved": 0, "fusion_lat": 0.0, "lat": 38.90515633333333, "fusion_lon": 0.0, "rental_uris": {"ios": "https://dc.lft.to/lastmile_qr_scan", "android": "https://dc.lft.to/lastmile_qr_scan"}, "lon": -77.06602083333334, "bike_id": "c81cc8d4f4fdf7b576b6c3ded0e0765e", "type": "electric_scooter", "name": "c81cc8d4f4fdf7b576b6c3ded0e0765e"}, {"is_disabled": 0, "is_reserved": 0, "fusion_lat": 0.0, "lat": 38.92813783333333, "fusion_lon": 0.0, "rental_uris": {"ios": "https://dc.lft.to/lastmile_qr_scan", "android": "https://dc.lft.to/lastmile_qr_scan"}, "lon": -77.01402633333333, "bike_id": "b4615b51d8eb9197f1ac8d19a586bbfe", "type": "electric_scooter", "name": "b4615b51d8eb9197f1ac8d19a586bbfe"}, {"is_disabled": 0, "is_reserved": 0, "fusion_lat": 0.0, "lat": 38.91037866666667, "fusion_lon": 0.0, "rental_uris": {"ios": "https://dc.lft.to/lastmile_qr_scan", "android": "https://dc.lft.to/lastmile_qr_scan"}, "lon": -77.03801766666666, "bike_id": "2065373e893da0f4a06037e1dba35ef5", "type": "electric_scooter", "name": "2065373e893da0f4a06037e1dba35ef5"}, {"is_disabled": 0, "is_reserved": 0, "fusion_lat": 0.0, "lat": 38.92264483333334, "fusion_lon": 0.0, "rental_uris": {"ios": "https://dc.lft.to/lastmile_qr_scan", "android": "https://dc.lft.to/lastmile_qr_scan"}, "lon": -77.03642566666667, "bike_id": "d83cfcf332c1ac118fbfb1f50c637072", "type": "electric_scooter", "name": "d83cfcf332c1ac118fbfb1f50c637072"}, {"is_disabled": 0, "is_reserved": 0, "fusion_lat": 0.0, "lat": 39.010626333333335, "fusion_lon": 0.0, "rental_uris": {"ios": "https://dc.lft.to/lastmile_qr_scan", "android": "https://dc.lft.to/lastmile_qr_scan"}, "lon": -76.92246166666666, "bike_id": "e1b19729a71bfc1b09b8463e28100ea8", "type": "electric_bike", "name": "e1b19729a71bfc1b09b8463e28100ea8"}, {"is_disabled": 0, "is_reserved": 0, "fusion_lat": 0.0, "lat": 38.88304333333333, "fusion_lon": 0.0, "rental_uris": {"ios": "https://dc.lft.to/lastmile_qr_scan", "android": "https://dc.lft.to/lastmile_qr_scan"}, "lon": -77.02562216666666, "bike_id": "40e22a837e19041ae460996a3097bd40", "type": "electric_scooter", "name": "40e22a837e19041ae460996a3097bd40"}, {"is_disabled": 0, "is_reserved": 0, "fusion_lat": 0.0, "lat": 38.930873166666665, "fusion_lon": 0.0, "rental_uris": {"ios": "https://dc.lft.to/lastmile_qr_scan", "android": "https://dc.lft.to/lastmile_qr_scan"}, "lon": -77.03453466666667, "bike_id": "e97d80b18fb6ce63b6eb0f8c0d807e52", "type": "electric_scooter", "name": "e97d80b18fb6ce63b6eb0f8c0d807e52"}, {"is_disabled": 0, "is_reserved": 0, "fusion_lat": 0.0, "lat": 38.920293, "fusion_lon": 0.0, "rental_uris": {"ios": "https://dc.lft.to/lastmile_qr_scan", "android": "https://dc.lft.to/lastmile_qr_scan"}, "lon": -77.02598883333333, "bike_id": "452ec590311cee38f565c7dfc5a2ecb6", "type": "electric_scooter", "name": "452ec590311cee38f565c7dfc5a2ecb6"}, {"is_disabled": 0, "is_reserved": 0, "fusion_lat": 0.0, "lat": 38.91675716666666, "fusion_lon": 0.0, "rental_uris": {"ios": "https://dc.lft.to/lastmile_qr_scan", "android": "https://dc.lft.to/lastmile_qr_scan"}, "lon": -77.0230805, "bike_id": "6cb2369538a6a7f5c80673bae467407f", "type": "electric_scooter", "name": "6cb2369538a6a7f5c80673bae467407f"}, {"is_disabled": 0, "is_reserved": 0, "fusion_lat": 0.0, "lat": 38.90683833333333, "fusion_lon": 0.0, "rental_uris": {"ios": "https://dc.lft.to/lastmile_qr_scan", "android": "https://dc.lft.to/lastmile_qr_scan"}, "lon": -77.02697716666667, "bike_id": "056f4465247ff33145eaa68baa3332d2", "type": "electric_scooter", "name": "056f4465247ff33145eaa68baa3332d2"}, {"is_disabled": 0, "is_reserved": 0, "fusion_lat": 0.0, "lat": 38.911321, "fusion_lon": 0.0, "rental_uris": {"ios": "https://dc.lft.to/lastmile_qr_scan", "android": "https://dc.lft.to/lastmile_qr_scan"}, "lon": -77.03196533333333, "bike_id": "ffad67044c937f2617f05ee4fdbacd9a", "type": "electric_scooter", "name": "ffad67044c937f2617f05ee4fdbacd9a"}, {"is_disabled": 0, "is_reserved": 0, "fusion_lat": 0.0, "lat": 38.8784135, "fusion_lon": 0.0, "rental_uris": {"ios": "https://dc.lft.to/lastmile_qr_scan", "android": "https://dc.lft.to/lastmile_qr_scan"}, "lon": -76.931332, "bike_id": "bc111acf14ac1f0acba0eb7517c2c9ae", "type": "electric_scooter", "name": "bc111acf14ac1f0acba0eb7517c2c9ae"}, {"is_disabled": 0, "is_reserved": 0, "fusion_lat": 0.0, "lat": 38.804798166666664, "fusion_lon": 0.0, "rental_uris": {"ios": "https://dc.lft.to/lastmile_qr_scan", "android": "https://dc.lft.to/lastmile_qr_scan"}, "lon": -76.9911105, "bike_id": "0fbace4b066f249a6992eae28702af16", "type": "electric_bike", "name": "0fbace4b066f249a6992eae28702af16"}, {"is_disabled": 0, "is_reserved": 0, "fusion_lat": 0.0, "lat": 38.90972516666667, "fusion_lon": 0.0, "rental_uris": {"ios": "https://dc.lft.to/lastmile_qr_scan", "android": "https://dc.lft.to/lastmile_qr_scan"}, "lon": -77.04236816666666, "bike_id": "bc54aaa39b7966cdab553b874df0e8d3", "type": "electric_scooter", "name": "bc54aaa39b7966cdab553b874df0e8d3"}, {"is_disabled": 0, "is_reserved": 0, "fusion_lat": 0.0, "lat": 38.922658, "fusion_lon": 0.0, "rental_uris": {"ios": "https://dc.lft.to/lastmile_qr_scan", "android": "https://dc.lft.to/lastmile_qr_scan"}, "lon": -77.03641033333334, "bike_id": "39c122a6d968351d1acc73a06f882ede", "type": "electric_scooter", "name": "39c122a6d968351d1acc73a06f882ede"}, {"is_disabled": 0, "is_reserved": 0, "fusion_lat": 0.0, "lat": 39.00095116666667, "fusion_lon": 0.0, "rental_uris": {"ios": "https://dc.lft.to/lastmile_qr_scan", "android": "https://dc.lft.to/lastmile_qr_scan"}, "lon": -76.909856, "bike_id": "e917d2f903c78540586448326f5c5a20", "type": "electric_bike", "name": "e917d2f903c78540586448326f5c5a20"}, {"is_disabled": 0, "is_reserved": 0, "fusion_lat": 0.0, "lat": 38.932091166666666, "fusion_lon": 0.0, "rental_uris": {"ios": "https://dc.lft.to/lastmile_qr_scan", "android": "https://dc.lft.to/lastmile_qr_scan"}, "lon": -77.02295766666667, "bike_id": "16b29262e490305b88d1483c44838ec6", "type": "electric_scooter", "name": "16b29262e490305b88d1483c44838ec6"}, {"is_disabled": 0, "is_reserved": 0, "fusion_lat": 0.0, "lat": 38.915523666666665, "fusion_lon": 0.0, "rental_uris": {"ios": "https://dc.lft.to/lastmile_qr_scan", "android": "https://dc.lft.to/lastmile_qr_scan"}, "lon": -77.02337483333334, "bike_id": "bcd1a6440f24e24a29e2da7f06820047", "type": "electric_scooter", "name": "bcd1a6440f24e24a29e2da7f06820047"}, {"is_disabled": 0, "is_reserved": 0, "fusion_lat": 0.0, "lat": 38.902330166666665, "fusion_lon": 0.0, "rental_uris": {"ios": "https://dc.lft.to/lastmile_qr_scan", "android": "https://dc.lft.to/lastmile_qr_scan"}, "lon": -77.0608945, "bike_id": "25f9e292ac16ab5b2848fdac30ffeff9", "type": "electric_scooter", "name": "25f9e292ac16ab5b2848fdac30ffeff9"}, {"is_disabled": 0, "is_reserved": 0, "fusion_lat": 0.0, "lat": 38.92338633333333, "fusion_lon": 0.0, "rental_uris": {"ios": "https://dc.lft.to/lastmile_qr_scan", "android": "https://dc.lft.to/lastmile_qr_scan"}, "lon": -77.027996, "bike_id": "0f5e6619d6087d19ac86f59213413c57", "type": "electric_scooter", "name": "0f5e6619d6087d19ac86f59213413c57"}, {"is_disabled": 0, "is_reserved": 0, "fusion_lat": 0.0, "lat": 38.876568166666665, "fusion_lon": 0.0, "rental_uris": {"ios": "https://dc.lft.to/lastmile_qr_scan", "android": "https://dc.lft.to/lastmile_qr_scan"}, "lon": -77.0088145, "bike_id": "00e1c208ad5cd95b28c2ec37f10bbbc0", "type": "electric_scooter", "name": "00e1c208ad5cd95b28c2ec37f10bbbc0"}, {"is_disabled": 0, "is_reserved": 0, "fusion_lat": 0.0, "lat": 38.922996166666664, "fusion_lon": 0.0, "rental_uris": {"ios": "https://dc.lft.to/lastmile_qr_scan", "android": "https://dc.lft.to/lastmile_qr_scan"}, "lon": -77.03412933333334, "bike_id": "8a21cf38bef2b00e15924e491f05adb8", "type": "electric_scooter", "name": "8a21cf38bef2b00e15924e491f05adb8"}, {"is_disabled": 0, "is_reserved": 0, "fusion_lat": 0.0, "lat": 38.898398666666665, "fusion_lon": 0.0, "rental_uris": {"ios": "https://dc.lft.to/lastmile_qr_scan", "android": "https://dc.lft.to/lastmile_qr_scan"}, "lon": -77.0020835, "bike_id": "9c860d5d19cc42d4c5dacbf66f9eb1bc", "type": "electric_scooter", "name": "9c860d5d19cc42d4c5dacbf66f9eb1bc"}, {"is_disabled": 0, "is_reserved": 0, "fusion_lat": 0.0, "lat": 38.89457266666667, "fusion_lon": 0.0, "rental_uris": {"ios": "https://dc.lft.to/lastmile_qr_scan", "android": "https://dc.lft.to/lastmile_qr_scan"}, "lon": -76.93677983333333, "bike_id": "ad0da801717a85448bf3b709466961c5", "type": "electric_bike", "name": "ad0da801717a85448bf3b709466961c5"}, {"is_disabled": 0, "is_reserved": 0, "fusion_lat": 0.0, "lat": 38.97437466666667, "fusion_lon": 0.0, "rental_uris": {"ios": "https://dc.lft.to/lastmile_qr_scan", "android": "https://dc.lft.to/lastmile_qr_scan"}, "lon": -77.09620516666666, "bike_id": "fe35c9789e709ed45a5a57b79917a553", "type": "electric_bike", "name": "fe35c9789e709ed45a5a57b79917a553"}, {"is_disabled": 0, "is_reserved": 0, "fusion_lat": 0.0, "lat": 38.915970333333334, "fusion_lon": 0.0, "rental_uris": {"ios": "https://dc.lft.to/lastmile_qr_scan", "android": "https://dc.lft.to/lastmile_qr_scan"}, "lon": -77.01223366666666, "bike_id": "494a2cdf2d2d1983ca1ec4371c82fea3", "type": "electric_scooter", "name": "494a2cdf2d2d1983ca1ec4371c82fea3"}, {"is_disabled": 0, "is_reserved": 0, "fusion_lat": 0.0, "lat": 38.91116616666667, "fusion_lon": 0.0, "rental_uris": {"ios": "https://dc.lft.to/lastmile_qr_scan", "android": "https://dc.lft.to/lastmile_qr_scan"}, "lon": -77.044635, "bike_id": "7049690847642d284b412a26d4b6bd07", "type": "electric_scooter", "name": "7049690847642d284b412a26d4b6bd07"}, {"is_disabled": 0, "is_reserved": 0, "fusion_lat": 0.0, "lat": 38.90349066666667, "fusion_lon": 0.0, "rental_uris": {"ios": "https://dc.lft.to/lastmile_qr_scan", "android": "https://dc.lft.to/lastmile_qr_scan"}, "lon": -77.0294905, "bike_id": "08785409be5a9c3bca5dcad2284c3968", "type": "electric_scooter", "name": "08785409be5a9c3bca5dcad2284c3968"}, {"is_disabled": 0, "is_reserved": 0, "fusion_lat": 0.0, "lat": 38.9111745, "fusion_lon": 0.0, "rental_uris": {"ios": "https://dc.lft.to/lastmile_qr_scan", "android": "https://dc.lft.to/lastmile_qr_scan"}, "lon": -77.01169383333334, "bike_id": "f5842d7ef06f25b890b8fd6029355896", "type": "electric_scooter", "name": "f5842d7ef06f25b890b8fd6029355896"}, {"is_disabled": 0, "is_reserved": 0, "fusion_lat": 0.0, "lat": 38.9233735, "fusion_lon": 0.0, "rental_uris": {"ios": "https://dc.lft.to/lastmile_qr_scan", "android": "https://dc.lft.to/lastmile_qr_scan"}, "lon": -77.0191795, "bike_id": "bb1f7c2bb2a2228050ae9243f196bea5", "type": "electric_scooter", "name": "bb1f7c2bb2a2228050ae9243f196bea5"}, {"is_disabled": 0, "is_reserved": 0, "fusion_lat": 0.0, "lat": 38.9153935, "fusion_lon": 0.0, "rental_uris": {"ios": "https://dc.lft.to/lastmile_qr_scan", "android": "https://dc.lft.to/lastmile_qr_scan"}, "lon": -77.0092285, "bike_id": "af61c6e63021fb94c592939d42ba52f8", "type": "electric_scooter", "name": "af61c6e63021fb94c592939d42ba52f8"}, {"is_disabled": 0, "is_reserved": 0, "fusion_lat": 0.0, "lat": 38.89607266666667, "fusion_lon": 0.0, "rental_uris": {"ios": "https://dc.lft.to/lastmile_qr_scan", "android": "https://dc.lft.to/lastmile_qr_scan"}, "lon": -76.998104, "bike_id": "ba550a38c3467c789632dfede596d440", "type": "electric_scooter", "name": "ba550a38c3467c789632dfede596d440"}, {"is_disabled": 0, "is_reserved": 0, "fusion_lat": 0.0, "lat": 38.9435465, "fusion_lon": 0.0, "rental_uris": {"ios": "https://dc.lft.to/lastmile_qr_scan", "android": "https://dc.lft.to/lastmile_qr_scan"}, "lon": -77.06131233333333, "bike_id": "92957be1a511d92d81e850feb68167e9", "type": "electric_scooter", "name": "92957be1a511d92d81e850feb68167e9"}, {"is_disabled": 0, "is_reserved": 0, "fusion_lat": 0.0, "lat": 38.90735633333333, "fusion_lon": 0.0, "rental_uris": {"ios": "https://dc.lft.to/lastmile_qr_scan", "android": "https://dc.lft.to/lastmile_qr_scan"}, "lon": -77.03360216666667, "bike_id": "03b5d857ff16d74bad214a5cb9b6dc91", "type": "electric_scooter", "name": "03b5d857ff16d74bad214a5cb9b6dc91"}, {"is_disabled": 0, "is_reserved": 0, "fusion_lat": 0.0, "lat": 38.949776166666666, "fusion_lon": 0.0, "rental_uris": {"ios": "https://dc.lft.to/lastmile_qr_scan", "android": "https://dc.lft.to/lastmile_qr_scan"}, "lon": -77.02449016666667, "bike_id": "b45136fe2ece490a4a3a94863ccbb029", "type": "electric_scooter", "name": "b45136fe2ece490a4a3a94863ccbb029"}, {"is_disabled": 0, "is_reserved": 0, "fusion_lat": 0.0, "lat": 38.93700416666667, "fusion_lon": 0.0, "rental_uris": {"ios": "https://dc.lft.to/lastmile_qr_scan", "android": "https://dc.lft.to/lastmile_qr_scan"}, "lon": -77.05687083333333, "bike_id": "dcb45f03247713b821b39dd3e0143744", "type": "electric_scooter", "name": "dcb45f03247713b821b39dd3e0143744"}, {"is_disabled": 0, "is_reserved": 0, "fusion_lat": 0.0, "lat": 38.96173133333333, "fusion_lon": 0.0, "rental_uris": {"ios": "https://dc.lft.to/lastmile_qr_scan", "android": "https://dc.lft.to/lastmile_qr_scan"}, "lon": -77.03229966666666, "bike_id": "f5c833442f9566145e4fd6a091fc4ff2", "type": "electric_scooter", "name": "f5c833442f9566145e4fd6a091fc4ff2"}, {"is_disabled": 0, "is_reserved": 0, "fusion_lat": 0.0, "lat": 38.890149666666666, "fusion_lon": 0.0, "rental_uris": {"ios": "https://dc.lft.to/lastmile_qr_scan", "android": "https://dc.lft.to/lastmile_qr_scan"}, "lon": -76.93735416666667, "bike_id": "b670807ddd722b3612cbdcbd3a265b9f", "type": "electric_scooter", "name": "b670807ddd722b3612cbdcbd3a265b9f"}, {"is_disabled": 0, "is_reserved": 0, "fusion_lat": 0.0, "lat": 38.935241833333336, "fusion_lon": 0.0, "rental_uris": {"ios": "https://dc.lft.to/lastmile_qr_scan", "android": "https://dc.lft.to/lastmile_qr_scan"}, "lon": -77.03817516666666, "bike_id": "a120f8c1d55fbf1464e15038b2cff6de", "type": "electric_scooter", "name": "a120f8c1d55fbf1464e15038b2cff6de"}, {"is_disabled": 0, "is_reserved": 0, "fusion_lat": 0.0, "lat": 38.936035833333335, "fusion_lon": 0.0, "rental_uris": {"ios": "https://dc.lft.to/lastmile_qr_scan", "android": "https://dc.lft.to/lastmile_qr_scan"}, "lon": -77.03763633333334, "bike_id": "ce8d17d48519acbe7b504a79181fc101", "type": "electric_scooter", "name": "ce8d17d48519acbe7b504a79181fc101"}, {"is_disabled": 0, "is_reserved": 0, "fusion_lat": 0.0, "lat": 38.8941515, "fusion_lon": 0.0, "rental_uris": {"ios": "https://dc.lft.to/lastmile_qr_scan", "android": "https://dc.lft.to/lastmile_qr_scan"}, "lon": -77.02128433333333, "bike_id": "6d90a51baed58f3a26065206f587da28", "type": "electric_scooter", "name": "6d90a51baed58f3a26065206f587da28"}, {"is_disabled": 0, "is_reserved": 0, "fusion_lat": 0.0, "lat": 38.895048333333335, "fusion_lon": 0.0, "rental_uris": {"ios": "https://dc.lft.to/lastmile_qr_scan", "android": "https://dc.lft.to/lastmile_qr_scan"}, "lon": -77.03961116666666, "bike_id": "75e53c47275ce94388083576c09f3fdc", "type": "electric_scooter", "name": "75e53c47275ce94388083576c09f3fdc"}, {"is_disabled": 0, "is_reserved": 0, "fusion_lat": 0.0, "lat": 38.89712466666667, "fusion_lon": 0.0, "rental_uris": {"ios": "https://dc.lft.to/lastmile_qr_scan", "android": "https://dc.lft.to/lastmile_qr_scan"}, "lon": -77.0240995, "bike_id": "87b607e4107f4d4394fc9e02c1bf7ee7", "type": "electric_scooter", "name": "87b607e4107f4d4394fc9e02c1bf7ee7"}, {"is_disabled": 0, "is_reserved": 0, "fusion_lat": 0.0, "lat": 38.906504166666664, "fusion_lon": 0.0, "rental_uris": {"ios": "https://dc.lft.to/lastmile_qr_scan", "android": "https://dc.lft.to/lastmile_qr_scan"}, "lon": -76.97943183333334, "bike_id": "abba984cab7bd2882be7fc4e034e98df", "type": "electric_scooter", "name": "abba984cab7bd2882be7fc4e034e98df"}, {"is_disabled": 0, "is_reserved": 0, "fusion_lat": 0.0, "lat": 38.8924305, "fusion_lon": 0.0, "rental_uris": {"ios": "https://dc.lft.to/lastmile_qr_scan", "android": "https://dc.lft.to/lastmile_qr_scan"}, "lon": -77.02597333333334, "bike_id": "982e266b8e49ee3113262d99aa9b64dd", "type": "electric_scooter", "name": "982e266b8e49ee3113262d99aa9b64dd"}, {"is_disabled": 0, "is_reserved": 0, "fusion_lat": 0.0, "lat": 38.9287375, "fusion_lon": 0.0, "rental_uris": {"ios": "https://dc.lft.to/lastmile_qr_scan", "android": "https://dc.lft.to/lastmile_qr_scan"}, "lon": -77.03998433333334, "bike_id": "52e13d8eb4fd7eeababd275d07f2cc83", "type": "electric_scooter", "name": "52e13d8eb4fd7eeababd275d07f2cc83"}, {"is_disabled": 0, "is_reserved": 0, "fusion_lat": 0.0, "lat": 38.905015166666665, "fusion_lon": 0.0, "rental_uris": {"ios": "https://dc.lft.to/lastmile_qr_scan", "android": "https://dc.lft.to/lastmile_qr_scan"}, "lon": -77.00896083333333, "bike_id": "cabd8cf117cc22930261d2bf12fe324b", "type": "electric_scooter", "name": "cabd8cf117cc22930261d2bf12fe324b"}, {"is_disabled": 0, "is_reserved": 0, "fusion_lat": 0.0, "lat": 38.904014833333335, "fusion_lon": 0.0, "rental_uris": {"ios": "https://dc.lft.to/lastmile_qr_scan", "android": "https://dc.lft.to/lastmile_qr_scan"}, "lon": -77.029302, "bike_id": "e057dd4baf5909886fcc4febe5b72e05", "type": "electric_scooter", "name": "e057dd4baf5909886fcc4febe5b72e05"}, {"is_disabled": 0, "is_reserved": 0, "fusion_lat": 0.0, "lat": 38.91687316666667, "fusion_lon": 0.0, "rental_uris": {"ios": "https://dc.lft.to/lastmile_qr_scan", "android": "https://dc.lft.to/lastmile_qr_scan"}, "lon": -77.03772066666667, "bike_id": "6a49e9290678361ff08d06d71b3256b6", "type": "electric_scooter", "name": "6a49e9290678361ff08d06d71b3256b6"}, {"is_disabled": 0, "is_reserved": 0, "fusion_lat": 0.0, "lat": 38.90421516666667, "fusion_lon": 0.0, "rental_uris": {"ios": "https://dc.lft.to/lastmile_qr_scan", "android": "https://dc.lft.to/lastmile_qr_scan"}, "lon": -77.06121866666666, "bike_id": "4a78b0c1c7efb14f494699ef3b76ed12", "type": "electric_scooter", "name": "4a78b0c1c7efb14f494699ef3b76ed12"}, {"is_disabled": 0, "is_reserved": 0, "fusion_lat": 0.0, "lat": 38.944486833333336, "fusion_lon": 0.0, "rental_uris": {"ios": "https://dc.lft.to/lastmile_qr_scan", "android": "https://dc.lft.to/lastmile_qr_scan"}, "lon": -77.03282983333334, "bike_id": "990d354d56a8436bc9088c85dba0fcf2", "type": "electric_scooter", "name": "990d354d56a8436bc9088c85dba0fcf2"}, {"is_disabled": 0, "is_reserved": 0, "fusion_lat": 0.0, "lat": 38.9195295, "fusion_lon": 0.0, "rental_uris": {"ios": "https://dc.lft.to/lastmile_qr_scan", "android": "https://dc.lft.to/lastmile_qr_scan"}, "lon": -77.02311733333333, "bike_id": "539807f91d1f4102217e059792b69d24", "type": "electric_scooter", "name": "539807f91d1f4102217e059792b69d24"}, {"is_disabled": 0, "is_reserved": 0, "fusion_lat": 0.0, "lat": 38.91825433333333, "fusion_lon": 0.0, "rental_uris": {"ios": "https://dc.lft.to/lastmile_qr_scan", "android": "https://dc.lft.to/lastmile_qr_scan"}, "lon": -77.02423066666667, "bike_id": "80d4d92697d93f447b01d2b6436ec947", "type": "electric_scooter", "name": "80d4d92697d93f447b01d2b6436ec947"}, {"is_disabled": 0, "is_reserved": 0, "fusion_lat": 0.0, "lat": 38.956160833333335, "fusion_lon": 0.0, "rental_uris": {"ios": "https://dc.lft.to/lastmile_qr_scan", "android": "https://dc.lft.to/lastmile_qr_scan"}, "lon": -77.0331245, "bike_id": "81574229e9d90439645d30d70e9c02f2", "type": "electric_scooter", "name": "81574229e9d90439645d30d70e9c02f2"}, {"is_disabled": 0, "is_reserved": 0, "fusion_lat": 0.0, "lat": 38.90395816666667, "fusion_lon": 0.0, "rental_uris": {"ios": "https://dc.lft.to/lastmile_qr_scan", "android": "https://dc.lft.to/lastmile_qr_scan"}, "lon": -77.06299883333334, "bike_id": "4fd03961c901dc868733da4c1c1b7f57", "type": "electric_scooter", "name": "4fd03961c901dc868733da4c1c1b7f57"}, {"is_disabled": 0, "is_reserved": 0, "fusion_lat": 0.0, "lat": 38.92116816666667, "fusion_lon": 0.0, "rental_uris": {"ios": "https://dc.lft.to/lastmile_qr_scan", "android": "https://dc.lft.to/lastmile_qr_scan"}, "lon": -77.036634, "bike_id": "1f2ab88ee25a2325f2e39eff15438786", "type": "electric_scooter", "name": "1f2ab88ee25a2325f2e39eff15438786"}, {"is_disabled": 0, "is_reserved": 0, "fusion_lat": 0.0, "lat": 38.912235333333335, "fusion_lon": 0.0, "rental_uris": {"ios": "https://dc.lft.to/lastmile_qr_scan", "android": "https://dc.lft.to/lastmile_qr_scan"}, "lon": -77.06409833333333, "bike_id": "22e570a70c6e642a0792a3f958199e0c", "type": "electric_scooter", "name": "22e570a70c6e642a0792a3f958199e0c"}, {"is_disabled": 0, "is_reserved": 0, "fusion_lat": 0.0, "lat": 38.90873883333333, "fusion_lon": 0.0, "rental_uris": {"ios": "https://dc.lft.to/lastmile_qr_scan", "android": "https://dc.lft.to/lastmile_qr_scan"}, "lon": -77.0744095, "bike_id": "dcd5378e94bc4dffc4d5c392d3d7002f", "type": "electric_scooter", "name": "dcd5378e94bc4dffc4d5c392d3d7002f"}, {"is_disabled": 0, "is_reserved": 0, "fusion_lat": 0.0, "lat": 38.9165385, "fusion_lon": 0.0, "rental_uris": {"ios": "https://dc.lft.to/lastmile_qr_scan", "android": "https://dc.lft.to/lastmile_qr_scan"}, "lon": -77.024021, "bike_id": "d3101fb52b554ea4782089179fdfe17a", "type": "electric_scooter", "name": "d3101fb52b554ea4782089179fdfe17a"}, {"is_disabled": 0, "is_reserved": 0, "fusion_lat": 0.0, "lat": 38.90651916666667, "fusion_lon": 0.0, "rental_uris": {"ios": "https://dc.lft.to/lastmile_qr_scan", "android": "https://dc.lft.to/lastmile_qr_scan"}, "lon": -76.97944566666666, "bike_id": "c85600d54a76034ce659e20be24b75e4", "type": "electric_scooter", "name": "c85600d54a76034ce659e20be24b75e4"}, {"is_disabled": 0, "is_reserved": 0, "fusion_lat": 0.0, "lat": 38.941767, "fusion_lon": 0.0, "rental_uris": {"ios": "https://dc.lft.to/lastmile_qr_scan", "android": "https://dc.lft.to/lastmile_qr_scan"}, "lon": -77.02537866666667, "bike_id": "e6f54626a30e1a5b38b880ea1f8429e0", "type": "electric_scooter", "name": "e6f54626a30e1a5b38b880ea1f8429e0"}, {"is_disabled": 0, "is_reserved": 0, "fusion_lat": 0.0, "lat": 38.921246833333335, "fusion_lon": 0.0, "rental_uris": {"ios": "https://dc.lft.to/lastmile_qr_scan", "android": "https://dc.lft.to/lastmile_qr_scan"}, "lon": -76.9937615, "bike_id": "d5227b95f9a2a3c7cb6c7d9d3b8121d9", "type": "electric_scooter", "name": "d5227b95f9a2a3c7cb6c7d9d3b8121d9"}, {"is_disabled": 0, "is_reserved": 0, "fusion_lat": 0.0, "lat": 38.92808466666666, "fusion_lon": 0.0, "rental_uris": {"ios": "https://dc.lft.to/lastmile_qr_scan", "android": "https://dc.lft.to/lastmile_qr_scan"}, "lon": -77.04342666666666, "bike_id": "aa8cc4f31e57b40521821e59b9dda6b8", "type": "electric_scooter", "name": "aa8cc4f31e57b40521821e59b9dda6b8"}, {"is_disabled": 0, "is_reserved": 0, "fusion_lat": 0.0, "lat": 38.9155965, "fusion_lon": 0.0, "rental_uris": {"ios": "https://dc.lft.to/lastmile_qr_scan", "android": "https://dc.lft.to/lastmile_qr_scan"}, "lon": -77.03193666666667, "bike_id": "582453de997aaa2633119a13e2e1b229", "type": "electric_scooter", "name": "582453de997aaa2633119a13e2e1b229"}, {"is_disabled": 0, "is_reserved": 0, "fusion_lat": 0.0, "lat": 38.9006245, "fusion_lon": 0.0, "rental_uris": {"ios": "https://dc.lft.to/lastmile_qr_scan", "android": "https://dc.lft.to/lastmile_qr_scan"}, "lon": -76.94975516666666, "bike_id": "02293242615d019f5e1764eafd096b7f", "type": "electric_scooter", "name": "02293242615d019f5e1764eafd096b7f"}, {"is_disabled": 0, "is_reserved": 0, "fusion_lat": 0.0, "lat": 38.90961816666667, "fusion_lon": 0.0, "rental_uris": {"ios": "https://dc.lft.to/lastmile_qr_scan", "android": "https://dc.lft.to/lastmile_qr_scan"}, "lon": -77.03425466666667, "bike_id": "f441f5d754668f15949ee2dab3c8a60c", "type": "electric_scooter", "name": "f441f5d754668f15949ee2dab3c8a60c"}, {"is_disabled": 0, "is_reserved": 0, "fusion_lat": 0.0, "lat": 38.92793, "fusion_lon": 0.0, "rental_uris": {"ios": "https://dc.lft.to/lastmile_qr_scan", "android": "https://dc.lft.to/lastmile_qr_scan"}, "lon": -77.02135683333333, "bike_id": "2bdbf228f212ffc5920b10e56ff6089d", "type": "electric_scooter", "name": "2bdbf228f212ffc5920b10e56ff6089d"}, {"is_disabled": 0, "is_reserved": 0, "fusion_lat": 0.0, "lat": 38.8815445, "fusion_lon": 0.0, "rental_uris": {"ios": "https://dc.lft.to/lastmile_qr_scan", "android": "https://dc.lft.to/lastmile_qr_scan"}, "lon": -77.02763383333334, "bike_id": "0e1ff3235ca4c9c831ed6dd5172383fa", "type": "electric_scooter", "name": "0e1ff3235ca4c9c831ed6dd5172383fa"}, {"is_disabled": 0, "is_reserved": 0, "fusion_lat": 0.0, "lat": 38.89098883333333, "fusion_lon": 0.0, "rental_uris": {"ios": "https://dc.lft.to/lastmile_qr_scan", "android": "https://dc.lft.to/lastmile_qr_scan"}, "lon": -77.0030245, "bike_id": "6dffb2acfe9a14439461f4ffadef47b3", "type": "electric_bike", "name": "6dffb2acfe9a14439461f4ffadef47b3"}, {"is_disabled": 0, "is_reserved": 0, "fusion_lat": 0.0, "lat": 38.9523895, "fusion_lon": 0.0, "rental_uris": {"ios": "https://dc.lft.to/lastmile_qr_scan", "android": "https://dc.lft.to/lastmile_qr_scan"}, "lon": -76.98245116666666, "bike_id": "f3d2ce6285340a10ebdc3f981655db68", "type": "electric_bike", "name": "f3d2ce6285340a10ebdc3f981655db68"}, {"is_disabled": 0, "is_reserved": 0, "fusion_lat": 0.0, "lat": 38.925037, "fusion_lon": 0.0, "rental_uris": {"ios": "https://dc.lft.to/lastmile_qr_scan", "android": "https://dc.lft.to/lastmile_qr_scan"}, "lon": -77.02443583333333, "bike_id": "17b741b15833480b5855171d85888a81", "type": "electric_scooter", "name": "17b741b15833480b5855171d85888a81"}, {"is_disabled": 0, "is_reserved": 0, "fusion_lat": 0.0, "lat": 38.8919345, "fusion_lon": 0.0, "rental_uris": {"ios": "https://dc.lft.to/lastmile_qr_scan", "android": "https://dc.lft.to/lastmile_qr_scan"}, "lon": -77.03179033333333, "bike_id": "258b2aa829ca9f18e0b0b45f7ffa5066", "type": "electric_scooter", "name": "258b2aa829ca9f18e0b0b45f7ffa5066"}, {"is_disabled": 0, "is_reserved": 0, "fusion_lat": 0.0, "lat": 38.924322833333335, "fusion_lon": 0.0, "rental_uris": {"ios": "https://dc.lft.to/lastmile_qr_scan", "android": "https://dc.lft.to/lastmile_qr_scan"}, "lon": -77.02025683333333, "bike_id": "e9d8519a0ff1a81f54ccc41aa0a5ac5b", "type": "electric_scooter", "name": "e9d8519a0ff1a81f54ccc41aa0a5ac5b"}, {"is_disabled": 0, "is_reserved": 0, "fusion_lat": 0.0, "lat": 38.9170205, "fusion_lon": 0.0, "rental_uris": {"ios": "https://dc.lft.to/lastmile_qr_scan", "android": "https://dc.lft.to/lastmile_qr_scan"}, "lon": -77.044714, "bike_id": "76a1b3924538234029e53b4a3214d2a2", "type": "electric_bike", "name": "76a1b3924538234029e53b4a3214d2a2"}, {"is_disabled": 0, "is_reserved": 0, "fusion_lat": 0.0, "lat": 38.89206033333333, "fusion_lon": 0.0, "rental_uris": {"ios": "https://dc.lft.to/lastmile_qr_scan", "android": "https://dc.lft.to/lastmile_qr_scan"}, "lon": -76.92923183333333, "bike_id": "1b2c2ee1ba4d896bb3abee97d6e8f5d6", "type": "electric_scooter", "name": "1b2c2ee1ba4d896bb3abee97d6e8f5d6"}, {"is_disabled": 0, "is_reserved": 0, "fusion_lat": 0.0, "lat": 38.909265833333336, "fusion_lon": 0.0, "rental_uris": {"ios": "https://dc.lft.to/lastmile_qr_scan", "android": "https://dc.lft.to/lastmile_qr_scan"}, "lon": -77.04576566666667, "bike_id": "144f52400e435a4fba7bf9eddc44c0a9", "type": "electric_scooter", "name": "144f52400e435a4fba7bf9eddc44c0a9"}, {"is_disabled": 0, "is_reserved": 0, "fusion_lat": 0.0, "lat": 38.9080065, "fusion_lon": 0.0, "rental_uris": {"ios": "https://dc.lft.to/lastmile_qr_scan", "android": "https://dc.lft.to/lastmile_qr_scan"}, "lon": -77.0417105, "bike_id": "a5ae59092908e7b7da769edd669ae2c5", "type": "electric_scooter", "name": "a5ae59092908e7b7da769edd669ae2c5"}, {"is_disabled": 0, "is_reserved": 0, "fusion_lat": 0.0, "lat": 38.89638333333333, "fusion_lon": 0.0, "rental_uris": {"ios": "https://dc.lft.to/lastmile_qr_scan", "android": "https://dc.lft.to/lastmile_qr_scan"}, "lon": -77.00753066666667, "bike_id": "aa7c0065b061ee725390f2dc3babf257", "type": "electric_scooter", "name": "aa7c0065b061ee725390f2dc3babf257"}, {"is_disabled": 0, "is_reserved": 0, "fusion_lat": 0.0, "lat": 38.916634333333334, "fusion_lon": 0.0, "rental_uris": {"ios": "https://dc.lft.to/lastmile_qr_scan", "android": "https://dc.lft.to/lastmile_qr_scan"}, "lon": -77.0005225, "bike_id": "d948ad2971abe4e2928f6ebdeca76c97", "type": "electric_scooter", "name": "d948ad2971abe4e2928f6ebdeca76c97"}, {"is_disabled": 0, "is_reserved": 0, "fusion_lat": 0.0, "lat": 38.930972, "fusion_lon": 0.0, "rental_uris": {"ios": "https://dc.lft.to/lastmile_qr_scan", "android": "https://dc.lft.to/lastmile_qr_scan"}, "lon": -77.02480083333333, "bike_id": "044aab87d76531e7056463295cb7435d", "type": "electric_scooter", "name": "044aab87d76531e7056463295cb7435d"}, {"is_disabled": 0, "is_reserved": 0, "fusion_lat": 0.0, "lat": 38.88006383333333, "fusion_lon": 0.0, "rental_uris": {"ios": "https://dc.lft.to/lastmile_qr_scan", "android": "https://dc.lft.to/lastmile_qr_scan"}, "lon": -76.99835, "bike_id": "12bd735e4b6b8b7513995dc8c0e48621", "type": "electric_scooter", "name": "12bd735e4b6b8b7513995dc8c0e48621"}, {"is_disabled": 0, "is_reserved": 0, "fusion_lat": 0.0, "lat": 38.911010833333336, "fusion_lon": 0.0, "rental_uris": {"ios": "https://dc.lft.to/lastmile_qr_scan", "android": "https://dc.lft.to/lastmile_qr_scan"}, "lon": -77.02239366666667, "bike_id": "77704307491099eb0eb6f76905294c95", "type": "electric_scooter", "name": "77704307491099eb0eb6f76905294c95"}, {"is_disabled": 0, "is_reserved": 0, "fusion_lat": 0.0, "lat": 38.9103715, "fusion_lon": 0.0, "rental_uris": {"ios": "https://dc.lft.to/lastmile_qr_scan", "android": "https://dc.lft.to/lastmile_qr_scan"}, "lon": -76.93837533333334, "bike_id": "5ed8dee96bca01c11e2a143cc3043cf7", "type": "electric_scooter", "name": "5ed8dee96bca01c11e2a143cc3043cf7"}, {"is_disabled": 0, "is_reserved": 0, "fusion_lat": 0.0, "lat": 38.8992405, "fusion_lon": 0.0, "rental_uris": {"ios": "https://dc.lft.to/lastmile_qr_scan", "android": "https://dc.lft.to/lastmile_qr_scan"}, "lon": -76.93755666666667, "bike_id": "0d8602a9171555aa7b4501ed981e4457", "type": "electric_scooter", "name": "0d8602a9171555aa7b4501ed981e4457"}, {"is_disabled": 0, "is_reserved": 0, "fusion_lat": 0.0, "lat": 38.902892666666666, "fusion_lon": 0.0, "rental_uris": {"ios": "https://dc.lft.to/lastmile_qr_scan", "android": "https://dc.lft.to/lastmile_qr_scan"}, "lon": -77.0242245, "bike_id": "87fff5cb2229b68102872b46952db4a5", "type": "electric_scooter", "name": "87fff5cb2229b68102872b46952db4a5"}, {"is_disabled": 0, "is_reserved": 0, "fusion_lat": 0.0, "lat": 38.896415, "fusion_lon": 0.0, "rental_uris": {"ios": "https://dc.lft.to/lastmile_qr_scan", "android": "https://dc.lft.to/lastmile_qr_scan"}, "lon": -76.929644, "bike_id": "71f7b62926488c3e66ab6cb53c3f2f2e", "type": "electric_scooter", "name": "71f7b62926488c3e66ab6cb53c3f2f2e"}, {"is_disabled": 0, "is_reserved": 0, "fusion_lat": 0.0, "lat": 38.901921333333334, "fusion_lon": 0.0, "rental_uris": {"ios": "https://dc.lft.to/lastmile_qr_scan", "android": "https://dc.lft.to/lastmile_qr_scan"}, "lon": -76.97676316666667, "bike_id": "5bb12ed195f0100f749938738972a612", "type": "electric_scooter", "name": "5bb12ed195f0100f749938738972a612"}, {"is_disabled": 0, "is_reserved": 0, "fusion_lat": 0.0, "lat": 38.89014983333333, "fusion_lon": 0.0, "rental_uris": {"ios": "https://dc.lft.to/lastmile_qr_scan", "android": "https://dc.lft.to/lastmile_qr_scan"}, "lon": -76.937358, "bike_id": "44afb8580ef7e62f8bf55e901002c8a1", "type": "electric_scooter", "name": "44afb8580ef7e62f8bf55e901002c8a1"}, {"is_disabled": 0, "is_reserved": 0, "fusion_lat": 0.0, "lat": 38.955929166666664, "fusion_lon": 0.0, "rental_uris": {"ios": "https://dc.lft.to/lastmile_qr_scan", "android": "https://dc.lft.to/lastmile_qr_scan"}, "lon": -77.010121, "bike_id": "8bb54fe9088ce6fb96eefdf774acd697", "type": "electric_bike", "name": "8bb54fe9088ce6fb96eefdf774acd697"}, {"is_disabled": 0, "is_reserved": 0, "fusion_lat": 0.0, "lat": 38.906940166666665, "fusion_lon": 0.0, "rental_uris": {"ios": "https://dc.lft.to/lastmile_qr_scan", "android": "https://dc.lft.to/lastmile_qr_scan"}, "lon": -77.063301, "bike_id": "d222bfc9448643261cf74cbd3a2112e1", "type": "electric_scooter", "name": "d222bfc9448643261cf74cbd3a2112e1"}, {"is_disabled": 0, "is_reserved": 0, "fusion_lat": 0.0, "lat": 38.91561016666667, "fusion_lon": 0.0, "rental_uris": {"ios": "https://dc.lft.to/lastmile_qr_scan", "android": "https://dc.lft.to/lastmile_qr_scan"}, "lon": -77.03197316666666, "bike_id": "dd474d0f5db9daa06114fc95dcafa7c6", "type": "electric_scooter", "name": "dd474d0f5db9daa06114fc95dcafa7c6"}, {"is_disabled": 0, "is_reserved": 0, "fusion_lat": 0.0, "lat": 38.900551, "fusion_lon": 0.0, "rental_uris": {"ios": "https://dc.lft.to/lastmile_qr_scan", "android": "https://dc.lft.to/lastmile_qr_scan"}, "lon": -77.00650433333334, "bike_id": "b042424752f2fffe00edd474f5a5febc", "type": "electric_scooter", "name": "b042424752f2fffe00edd474f5a5febc"}, {"is_disabled": 0, "is_reserved": 0, "fusion_lat": 0.0, "lat": 38.88116516666667, "fusion_lon": 0.0, "rental_uris": {"ios": "https://dc.lft.to/lastmile_qr_scan", "android": "https://dc.lft.to/lastmile_qr_scan"}, "lon": -76.99348666666667, "bike_id": "f74e3041ba334192c1e9646895c04c46", "type": "electric_scooter", "name": "f74e3041ba334192c1e9646895c04c46"}, {"is_disabled": 0, "is_reserved": 0, "fusion_lat": 0.0, "lat": 38.920048, "fusion_lon": 0.0, "rental_uris": {"ios": "https://dc.lft.to/lastmile_qr_scan", "android": "https://dc.lft.to/lastmile_qr_scan"}, "lon": -77.04174883333333, "bike_id": "b7496e3b5c86adba80d2a617a7f9da02", "type": "electric_scooter", "name": "b7496e3b5c86adba80d2a617a7f9da02"}, {"is_disabled": 0, "is_reserved": 0, "fusion_lat": 0.0, "lat": 38.90440866666667, "fusion_lon": 0.0, "rental_uris": {"ios": "https://dc.lft.to/lastmile_qr_scan", "android": "https://dc.lft.to/lastmile_qr_scan"}, "lon": -76.99633366666667, "bike_id": "f80149c41b4d73d444b660f63ebf583e", "type": "electric_scooter", "name": "f80149c41b4d73d444b660f63ebf583e"}, {"is_disabled": 0, "is_reserved": 0, "fusion_lat": 0.0, "lat": 38.974751499999996, "fusion_lon": 0.0, "rental_uris": {"ios": "https://dc.lft.to/lastmile_qr_scan", "android": "https://dc.lft.to/lastmile_qr_scan"}, "lon": -77.01490916666667, "bike_id": "91e24dd027677aeaab50caf1968b7c31", "type": "electric_scooter", "name": "91e24dd027677aeaab50caf1968b7c31"}, {"is_disabled": 0, "is_reserved": 0, "fusion_lat": 0.0, "lat": 38.894847166666665, "fusion_lon": 0.0, "rental_uris": {"ios": "https://dc.lft.to/lastmile_qr_scan", "android": "https://dc.lft.to/lastmile_qr_scan"}, "lon": -76.97879283333333, "bike_id": "efa53d9c77552200f7c51c2fcc4b4d4e", "type": "electric_scooter", "name": "efa53d9c77552200f7c51c2fcc4b4d4e"}, {"is_disabled": 0, "is_reserved": 0, "fusion_lat": 0.0, "lat": 38.89227916666667, "fusion_lon": 0.0, "rental_uris": {"ios": "https://dc.lft.to/lastmile_qr_scan", "android": "https://dc.lft.to/lastmile_qr_scan"}, "lon": -77.03341516666667, "bike_id": "70923c74f43e275f4909f8f8e57dd8a3", "type": "electric_scooter", "name": "70923c74f43e275f4909f8f8e57dd8a3"}, {"is_disabled": 0, "is_reserved": 0, "fusion_lat": 0.0, "lat": 38.86810033333333, "fusion_lon": 0.0, "rental_uris": {"ios": "https://dc.lft.to/lastmile_qr_scan", "android": "https://dc.lft.to/lastmile_qr_scan"}, "lon": -76.98028516666666, "bike_id": "98f682b2cc5f65f3a45c20530260ec37", "type": "electric_bike", "name": "98f682b2cc5f65f3a45c20530260ec37"}, {"is_disabled": 0, "is_reserved": 0, "fusion_lat": 0.0, "lat": 38.923527, "fusion_lon": 0.0, "rental_uris": {"ios": "https://dc.lft.to/lastmile_qr_scan", "android": "https://dc.lft.to/lastmile_qr_scan"}, "lon": -77.05620783333333, "bike_id": "08ef774d5ec5ec9e0ba88d742a2918e5", "type": "electric_scooter", "name": "08ef774d5ec5ec9e0ba88d742a2918e5"}, {"is_disabled": 0, "is_reserved": 0, "fusion_lat": 0.0, "lat": 38.9205445, "fusion_lon": 0.0, "rental_uris": {"ios": "https://dc.lft.to/lastmile_qr_scan", "android": "https://dc.lft.to/lastmile_qr_scan"}, "lon": -77.0330425, "bike_id": "c92112d56373cc068ab47379d285f1bb", "type": "electric_scooter", "name": "c92112d56373cc068ab47379d285f1bb"}, {"is_disabled": 0, "is_reserved": 0, "fusion_lat": 0.0, "lat": 38.91646716666666, "fusion_lon": 0.0, "rental_uris": {"ios": "https://dc.lft.to/lastmile_qr_scan", "android": "https://dc.lft.to/lastmile_qr_scan"}, "lon": -77.0238965, "bike_id": "c6fe884d7c0cfb39496dff89539d4a87", "type": "electric_scooter", "name": "c6fe884d7c0cfb39496dff89539d4a87"}, {"is_disabled": 0, "is_reserved": 0, "fusion_lat": 0.0, "lat": 38.93861883333334, "fusion_lon": 0.0, "rental_uris": {"ios": "https://dc.lft.to/lastmile_qr_scan", "android": "https://dc.lft.to/lastmile_qr_scan"}, "lon": -77.03170333333334, "bike_id": "5ec59ac917ebc12a8d10647809ee0f59", "type": "electric_scooter", "name": "5ec59ac917ebc12a8d10647809ee0f59"}, {"is_disabled": 0, "is_reserved": 0, "fusion_lat": 0.0, "lat": 38.886218166666666, "fusion_lon": 0.0, "rental_uris": {"ios": "https://dc.lft.to/lastmile_qr_scan", "android": "https://dc.lft.to/lastmile_qr_scan"}, "lon": -77.02837583333333, "bike_id": "752227fdfddb1e5f408f09d4716e853b", "type": "electric_scooter", "name": "752227fdfddb1e5f408f09d4716e853b"}, {"is_disabled": 0, "is_reserved": 0, "fusion_lat": 0.0, "lat": 38.8966795, "fusion_lon": 0.0, "rental_uris": {"ios": "https://dc.lft.to/lastmile_qr_scan", "android": "https://dc.lft.to/lastmile_qr_scan"}, "lon": -76.93213083333333, "bike_id": "9c724b54c03c009f2d88defabcb83359", "type": "electric_scooter", "name": "9c724b54c03c009f2d88defabcb83359"}, {"is_disabled": 0, "is_reserved": 0, "fusion_lat": 0.0, "lat": 38.870519333333334, "fusion_lon": 0.0, "rental_uris": {"ios": "https://dc.lft.to/lastmile_qr_scan", "android": "https://dc.lft.to/lastmile_qr_scan"}, "lon": -77.11048566666666, "bike_id": "dd00955cbff48b833e82adcb435b18cf", "type": "electric_bike", "name": "dd00955cbff48b833e82adcb435b18cf"}, {"is_disabled": 0, "is_reserved": 0, "fusion_lat": 0.0, "lat": 38.91543433333333, "fusion_lon": 0.0, "rental_uris": {"ios": "https://dc.lft.to/lastmile_qr_scan", "android": "https://dc.lft.to/lastmile_qr_scan"}, "lon": -77.02696883333333, "bike_id": "87fb0184e7b70d8d3f3b5640d5ed90fe", "type": "electric_scooter", "name": "87fb0184e7b70d8d3f3b5640d5ed90fe"}, {"is_disabled": 0, "is_reserved": 0, "fusion_lat": 0.0, "lat": 38.87929483333333, "fusion_lon": 0.0, "rental_uris": {"ios": "https://dc.lft.to/lastmile_qr_scan", "android": "https://dc.lft.to/lastmile_qr_scan"}, "lon": -77.00868216666667, "bike_id": "bfd61779ac7cb8bf873670e2a229ad95", "type": "electric_scooter", "name": "bfd61779ac7cb8bf873670e2a229ad95"}, {"is_disabled": 0, "is_reserved": 0, "fusion_lat": 0.0, "lat": 38.93111733333333, "fusion_lon": 0.0, "rental_uris": {"ios": "https://dc.lft.to/lastmile_qr_scan", "android": "https://dc.lft.to/lastmile_qr_scan"}, "lon": -77.03843833333333, "bike_id": "ad34508f8c53753a006d28efd7a8ae78", "type": "electric_scooter", "name": "ad34508f8c53753a006d28efd7a8ae78"}, {"is_disabled": 0, "is_reserved": 0, "fusion_lat": 0.0, "lat": 38.940983333333335, "fusion_lon": 0.0, "rental_uris": {"ios": "https://dc.lft.to/lastmile_qr_scan", "android": "https://dc.lft.to/lastmile_qr_scan"}, "lon": -76.95633283333333, "bike_id": "78b75c7bd8442951d384a161805d6ad1", "type": "electric_bike", "name": "78b75c7bd8442951d384a161805d6ad1"}, {"is_disabled": 0, "is_reserved": 0, "fusion_lat": 0.0, "lat": 38.9065035, "fusion_lon": 0.0, "rental_uris": {"ios": "https://dc.lft.to/lastmile_qr_scan", "android": "https://dc.lft.to/lastmile_qr_scan"}, "lon": -77.05333183333333, "bike_id": "3e604d02563129a604fb732722ee24d4", "type": "electric_scooter", "name": "3e604d02563129a604fb732722ee24d4"}, {"is_disabled": 0, "is_reserved": 0, "fusion_lat": 0.0, "lat": 38.92512966666666, "fusion_lon": 0.0, "rental_uris": {"ios": "https://dc.lft.to/lastmile_qr_scan", "android": "https://dc.lft.to/lastmile_qr_scan"}, "lon": -77.02137916666666, "bike_id": "a486ffad183070e350a06f09e6bf3298", "type": "electric_scooter", "name": "a486ffad183070e350a06f09e6bf3298"}, {"is_disabled": 0, "is_reserved": 0, "fusion_lat": 0.0, "lat": 38.921579, "fusion_lon": 0.0, "rental_uris": {"ios": "https://dc.lft.to/lastmile_qr_scan", "android": "https://dc.lft.to/lastmile_qr_scan"}, "lon": -77.03389616666666, "bike_id": "08cdffdbc1c8fca47412ea4f51d0bb99", "type": "electric_scooter", "name": "08cdffdbc1c8fca47412ea4f51d0bb99"}, {"is_disabled": 0, "is_reserved": 0, "fusion_lat": 0.0, "lat": 38.90527016666667, "fusion_lon": 0.0, "rental_uris": {"ios": "https://dc.lft.to/lastmile_qr_scan", "android": "https://dc.lft.to/lastmile_qr_scan"}, "lon": -77.02699166666666, "bike_id": "29f2a02c3566ef7dda8dac2c970d2847", "type": "electric_scooter", "name": "29f2a02c3566ef7dda8dac2c970d2847"}, {"is_disabled": 0, "is_reserved": 0, "fusion_lat": 0.0, "lat": 38.9676945, "fusion_lon": 0.0, "rental_uris": {"ios": "https://dc.lft.to/lastmile_qr_scan", "android": "https://dc.lft.to/lastmile_qr_scan"}, "lon": -77.03420766666666, "bike_id": "88a6201071d8a1243ed1f9e04a7accaa", "type": "electric_scooter", "name": "88a6201071d8a1243ed1f9e04a7accaa"}, {"is_disabled": 0, "is_reserved": 0, "fusion_lat": 0.0, "lat": 38.927805666666664, "fusion_lon": 0.0, "rental_uris": {"ios": "https://dc.lft.to/lastmile_qr_scan", "android": "https://dc.lft.to/lastmile_qr_scan"}, "lon": -77.05260533333333, "bike_id": "ad5f39a83d73b7b1c8773de98cd93a88", "type": "electric_scooter", "name": "ad5f39a83d73b7b1c8773de98cd93a88"}, {"is_disabled": 0, "is_reserved": 0, "fusion_lat": 0.0, "lat": 38.88656733333333, "fusion_lon": 0.0, "rental_uris": {"ios": "https://dc.lft.to/lastmile_qr_scan", "android": "https://dc.lft.to/lastmile_qr_scan"}, "lon": -77.16234516666667, "bike_id": "5e239c3bc5e30730e6311464e21578ea", "type": "electric_bike", "name": "5e239c3bc5e30730e6311464e21578ea"}, {"is_disabled": 0, "is_reserved": 0, "fusion_lat": 0.0, "lat": 38.907770166666666, "fusion_lon": 0.0, "rental_uris": {"ios": "https://dc.lft.to/lastmile_qr_scan", "android": "https://dc.lft.to/lastmile_qr_scan"}, "lon": -77.03549333333333, "bike_id": "922c6b4dc197895ec99ab59fcb2329d6", "type": "electric_scooter", "name": "922c6b4dc197895ec99ab59fcb2329d6"}, {"is_disabled": 0, "is_reserved": 0, "fusion_lat": 0.0, "lat": 38.92314283333333, "fusion_lon": 0.0, "rental_uris": {"ios": "https://dc.lft.to/lastmile_qr_scan", "android": "https://dc.lft.to/lastmile_qr_scan"}, "lon": -77.02805, "bike_id": "b00d9ec5c98a67f7fdb4d28adecbfb0c", "type": "electric_scooter", "name": "b00d9ec5c98a67f7fdb4d28adecbfb0c"}, {"is_disabled": 0, "is_reserved": 0, "fusion_lat": 0.0, "lat": 38.913979833333336, "fusion_lon": 0.0, "rental_uris": {"ios": "https://dc.lft.to/lastmile_qr_scan", "android": "https://dc.lft.to/lastmile_qr_scan"}, "lon": -77.0457805, "bike_id": "03368b037fd478d1495ce2640bd8cb8a", "type": "electric_scooter", "name": "03368b037fd478d1495ce2640bd8cb8a"}, {"is_disabled": 0, "is_reserved": 0, "fusion_lat": 0.0, "lat": 38.9241915, "fusion_lon": 0.0, "rental_uris": {"ios": "https://dc.lft.to/lastmile_qr_scan", "android": "https://dc.lft.to/lastmile_qr_scan"}, "lon": -77.020089, "bike_id": "382b5807b6e61be6b174cbe9d3325051", "type": "electric_scooter", "name": "382b5807b6e61be6b174cbe9d3325051"}, {"is_disabled": 0, "is_reserved": 0, "fusion_lat": 0.0, "lat": 38.902797666666665, "fusion_lon": 0.0, "rental_uris": {"ios": "https://dc.lft.to/lastmile_qr_scan", "android": "https://dc.lft.to/lastmile_qr_scan"}, "lon": -77.01722433333333, "bike_id": "1ab49f4584b025e6c9cd99363ae39ba7", "type": "electric_scooter", "name": "1ab49f4584b025e6c9cd99363ae39ba7"}, {"is_disabled": 0, "is_reserved": 0, "fusion_lat": 0.0, "lat": 38.858388, "fusion_lon": 0.0, "rental_uris": {"ios": "https://dc.lft.to/lastmile_qr_scan", "android": "https://dc.lft.to/lastmile_qr_scan"}, "lon": -76.98833766666667, "bike_id": "47a247a7b110b80f447834caac7a37ed", "type": "electric_scooter", "name": "47a247a7b110b80f447834caac7a37ed"}, {"is_disabled": 0, "is_reserved": 0, "fusion_lat": 0.0, "lat": 38.902102666666664, "fusion_lon": 0.0, "rental_uris": {"ios": "https://dc.lft.to/lastmile_qr_scan", "android": "https://dc.lft.to/lastmile_qr_scan"}, "lon": -77.03148933333334, "bike_id": "362d3778e7f7bdde33fc6e59d23a49f3", "type": "electric_scooter", "name": "362d3778e7f7bdde33fc6e59d23a49f3"}, {"is_disabled": 0, "is_reserved": 0, "fusion_lat": 0.0, "lat": 38.8579015, "fusion_lon": 0.0, "rental_uris": {"ios": "https://dc.lft.to/lastmile_qr_scan", "android": "https://dc.lft.to/lastmile_qr_scan"}, "lon": -76.98748233333333, "bike_id": "548b443c1c828c1d3c32cd320396626b", "type": "electric_bike", "name": "548b443c1c828c1d3c32cd320396626b"}, {"is_disabled": 0, "is_reserved": 0, "fusion_lat": 0.0, "lat": 38.90427583333334, "fusion_lon": 0.0, "rental_uris": {"ios": "https://dc.lft.to/lastmile_qr_scan", "android": "https://dc.lft.to/lastmile_qr_scan"}, "lon": -76.97239083333334, "bike_id": "9d7e4af2d87a8b1328e727027e3406a3", "type": "electric_bike", "name": "9d7e4af2d87a8b1328e727027e3406a3"}, {"is_disabled": 0, "is_reserved": 0, "fusion_lat": 0.0, "lat": 38.894734666666665, "fusion_lon": 0.0, "rental_uris": {"ios": "https://dc.lft.to/lastmile_qr_scan", "android": "https://dc.lft.to/lastmile_qr_scan"}, "lon": -77.02798766666666, "bike_id": "2a03b9550496780c3832defd1ee47f48", "type": "electric_bike", "name": "2a03b9550496780c3832defd1ee47f48"}, {"is_disabled": 0, "is_reserved": 0, "fusion_lat": 0.0, "lat": 38.918135666666664, "fusion_lon": 0.0, "rental_uris": {"ios": "https://dc.lft.to/lastmile_qr_scan", "android": "https://dc.lft.to/lastmile_qr_scan"}, "lon": -77.03798466666667, "bike_id": "5795952b9476218712970fef99df9a16", "type": "electric_scooter", "name": "5795952b9476218712970fef99df9a16"}, {"is_disabled": 0, "is_reserved": 0, "fusion_lat": 0.0, "lat": 38.832945, "fusion_lon": 0.0, "rental_uris": {"ios": "https://dc.lft.to/lastmile_qr_scan", "android": "https://dc.lft.to/lastmile_qr_scan"}, "lon": -77.0841465, "bike_id": "fe188e43e5149de7310728ecde51aa77", "type": "electric_bike", "name": "fe188e43e5149de7310728ecde51aa77"}, {"is_disabled": 0, "is_reserved": 0, "fusion_lat": 0.0, "lat": 38.907179, "fusion_lon": 0.0, "rental_uris": {"ios": "https://dc.lft.to/lastmile_qr_scan", "android": "https://dc.lft.to/lastmile_qr_scan"}, "lon": -77.046468, "bike_id": "21a58eb9daa94be55d58b93710fc50be", "type": "electric_scooter", "name": "21a58eb9daa94be55d58b93710fc50be"}, {"is_disabled": 0, "is_reserved": 0, "fusion_lat": 0.0, "lat": 38.898473333333335, "fusion_lon": 0.0, "rental_uris": {"ios": "https://dc.lft.to/lastmile_qr_scan", "android": "https://dc.lft.to/lastmile_qr_scan"}, "lon": -76.927478, "bike_id": "d4b653feb6f6270aaf2ecf6e992b319a", "type": "electric_scooter", "name": "d4b653feb6f6270aaf2ecf6e992b319a"}, {"is_disabled": 0, "is_reserved": 0, "fusion_lat": 0.0, "lat": 38.9170045, "fusion_lon": 0.0, "rental_uris": {"ios": "https://dc.lft.to/lastmile_qr_scan", "android": "https://dc.lft.to/lastmile_qr_scan"}, "lon": -77.03004166666666, "bike_id": "60ee962c8cd2fe9f363b4e711f889c9f", "type": "electric_scooter", "name": "60ee962c8cd2fe9f363b4e711f889c9f"}, {"is_disabled": 0, "is_reserved": 0, "fusion_lat": 0.0, "lat": 38.9153085, "fusion_lon": 0.0, "rental_uris": {"ios": "https://dc.lft.to/lastmile_qr_scan", "android": "https://dc.lft.to/lastmile_qr_scan"}, "lon": -77.01969333333334, "bike_id": "44f455b539ecd3d0b0a8b043d5a9963b", "type": "electric_scooter", "name": "44f455b539ecd3d0b0a8b043d5a9963b"}, {"is_disabled": 0, "is_reserved": 0, "fusion_lat": 0.0, "lat": 38.88370333333334, "fusion_lon": 0.0, "rental_uris": {"ios": "https://dc.lft.to/lastmile_qr_scan", "android": "https://dc.lft.to/lastmile_qr_scan"}, "lon": -76.99521316666667, "bike_id": "40af2424f2f85091318979150963120c", "type": "electric_scooter", "name": "40af2424f2f85091318979150963120c"}, {"is_disabled": 0, "is_reserved": 0, "fusion_lat": 0.0, "lat": 38.927615833333334, "fusion_lon": 0.0, "rental_uris": {"ios": "https://dc.lft.to/lastmile_qr_scan", "android": "https://dc.lft.to/lastmile_qr_scan"}, "lon": -77.029531, "bike_id": "0b72554b0f6582c6fbb91bc9577cc6fb", "type": "electric_scooter", "name": "0b72554b0f6582c6fbb91bc9577cc6fb"}, {"is_disabled": 0, "is_reserved": 0, "fusion_lat": 0.0, "lat": 38.892503166666664, "fusion_lon": 0.0, "rental_uris": {"ios": "https://dc.lft.to/lastmile_qr_scan", "android": "https://dc.lft.to/lastmile_qr_scan"}, "lon": -77.02614533333333, "bike_id": "7e01156b1a8b1baf2e6025fd7e114b8e", "type": "electric_scooter", "name": "7e01156b1a8b1baf2e6025fd7e114b8e"}, {"is_disabled": 0, "is_reserved": 0, "fusion_lat": 0.0, "lat": 38.92006, "fusion_lon": 0.0, "rental_uris": {"ios": "https://dc.lft.to/lastmile_qr_scan", "android": "https://dc.lft.to/lastmile_qr_scan"}, "lon": -77.03152716666666, "bike_id": "2b8a0bfe79c7eb62494af3f99f1fd18b", "type": "electric_scooter", "name": "2b8a0bfe79c7eb62494af3f99f1fd18b"}, {"is_disabled": 0, "is_reserved": 0, "fusion_lat": 0.0, "lat": 38.928686666666664, "fusion_lon": 0.0, "rental_uris": {"ios": "https://dc.lft.to/lastmile_qr_scan", "android": "https://dc.lft.to/lastmile_qr_scan"}, "lon": -77.0565585, "bike_id": "68161e342f046562f14acfc66857c137", "type": "electric_scooter", "name": "68161e342f046562f14acfc66857c137"}, {"is_disabled": 0, "is_reserved": 0, "fusion_lat": 0.0, "lat": 38.916739, "fusion_lon": 0.0, "rental_uris": {"ios": "https://dc.lft.to/lastmile_qr_scan", "android": "https://dc.lft.to/lastmile_qr_scan"}, "lon": -77.03202283333333, "bike_id": "a5b570c3a84da45a22b4af653f1f1b94", "type": "electric_scooter", "name": "a5b570c3a84da45a22b4af653f1f1b94"}, {"is_disabled": 0, "is_reserved": 0, "fusion_lat": 0.0, "lat": 38.88038366666667, "fusion_lon": 0.0, "rental_uris": {"ios": "https://dc.lft.to/lastmile_qr_scan", "android": "https://dc.lft.to/lastmile_qr_scan"}, "lon": -76.92727066666667, "bike_id": "40470ef766ecdea39ab7eb7f8ab5b81a", "type": "electric_scooter", "name": "40470ef766ecdea39ab7eb7f8ab5b81a"}, {"is_disabled": 0, "is_reserved": 0, "fusion_lat": 0.0, "lat": 38.89912733333333, "fusion_lon": 0.0, "rental_uris": {"ios": "https://dc.lft.to/lastmile_qr_scan", "android": "https://dc.lft.to/lastmile_qr_scan"}, "lon": -76.933667, "bike_id": "8a4e9b60d1fea1b1ec7fa3f53c3643e2", "type": "electric_scooter", "name": "8a4e9b60d1fea1b1ec7fa3f53c3643e2"}, {"is_disabled": 0, "is_reserved": 0, "fusion_lat": 0.0, "lat": 38.829211666666666, "fusion_lon": 0.0, "rental_uris": {"ios": "https://dc.lft.to/lastmile_qr_scan", "android": "https://dc.lft.to/lastmile_qr_scan"}, "lon": -77.068799, "bike_id": "e40d89e74b8c983bdc1e8d41a9e23fc9", "type": "electric_bike", "name": "e40d89e74b8c983bdc1e8d41a9e23fc9"}, {"is_disabled": 0, "is_reserved": 0, "fusion_lat": 0.0, "lat": 38.92248766666667, "fusion_lon": 0.0, "rental_uris": {"ios": "https://dc.lft.to/lastmile_qr_scan", "android": "https://dc.lft.to/lastmile_qr_scan"}, "lon": -77.072792, "bike_id": "1ff19a3e0c30e509bf19b75602df8984", "type": "electric_scooter", "name": "1ff19a3e0c30e509bf19b75602df8984"}, {"is_disabled": 0, "is_reserved": 0, "fusion_lat": 0.0, "lat": 38.896069833333335, "fusion_lon": 0.0, "rental_uris": {"ios": "https://dc.lft.to/lastmile_qr_scan", "android": "https://dc.lft.to/lastmile_qr_scan"}, "lon": -77.00340533333333, "bike_id": "5128e4e341b3330abd20decc2b82ee7a", "type": "electric_scooter", "name": "5128e4e341b3330abd20decc2b82ee7a"}, {"is_disabled": 0, "is_reserved": 0, "fusion_lat": 0.0, "lat": 38.91513783333333, "fusion_lon": 0.0, "rental_uris": {"ios": "https://dc.lft.to/lastmile_qr_scan", "android": "https://dc.lft.to/lastmile_qr_scan"}, "lon": -77.025963, "bike_id": "1a825a9203e19a2bf621c32935672ffa", "type": "electric_scooter", "name": "1a825a9203e19a2bf621c32935672ffa"}, {"is_disabled": 0, "is_reserved": 0, "fusion_lat": 0.0, "lat": 38.85503116666667, "fusion_lon": 0.0, "rental_uris": {"ios": "https://dc.lft.to/lastmile_qr_scan", "android": "https://dc.lft.to/lastmile_qr_scan"}, "lon": -77.1207085, "bike_id": "e1083840d5a872529b22d549c95a1063", "type": "electric_bike", "name": "e1083840d5a872529b22d549c95a1063"}, {"is_disabled": 0, "is_reserved": 0, "fusion_lat": 0.0, "lat": 38.8745555, "fusion_lon": 0.0, "rental_uris": {"ios": "https://dc.lft.to/lastmile_qr_scan", "android": "https://dc.lft.to/lastmile_qr_scan"}, "lon": -77.005149, "bike_id": "ec6db23f0b01da27aa4d17f7bc2b6c91", "type": "electric_scooter", "name": "ec6db23f0b01da27aa4d17f7bc2b6c91"}, {"is_disabled": 0, "is_reserved": 0, "fusion_lat": 0.0, "lat": 38.923397, "fusion_lon": 0.0, "rental_uris": {"ios": "https://dc.lft.to/lastmile_qr_scan", "android": "https://dc.lft.to/lastmile_qr_scan"}, "lon": -76.99863316666666, "bike_id": "3290ad72b71ddfe6354e1db506bd4a7e", "type": "electric_scooter", "name": "3290ad72b71ddfe6354e1db506bd4a7e"}, {"is_disabled": 0, "is_reserved": 0, "fusion_lat": 0.0, "lat": 38.92222666666667, "fusion_lon": 0.0, "rental_uris": {"ios": "https://dc.lft.to/lastmile_qr_scan", "android": "https://dc.lft.to/lastmile_qr_scan"}, "lon": -77.0187165, "bike_id": "0e1096a803a19154e181e519269017bd", "type": "electric_scooter", "name": "0e1096a803a19154e181e519269017bd"}, {"is_disabled": 0, "is_reserved": 0, "fusion_lat": 0.0, "lat": 38.90773266666667, "fusion_lon": 0.0, "rental_uris": {"ios": "https://dc.lft.to/lastmile_qr_scan", "android": "https://dc.lft.to/lastmile_qr_scan"}, "lon": -77.05674533333334, "bike_id": "597ebd690202fb1d0413a5f7acc20230", "type": "electric_bike", "name": "597ebd690202fb1d0413a5f7acc20230"}, {"is_disabled": 0, "is_reserved": 0, "fusion_lat": 0.0, "lat": 38.9025875, "fusion_lon": 0.0, "rental_uris": {"ios": "https://dc.lft.to/lastmile_qr_scan", "android": "https://dc.lft.to/lastmile_qr_scan"}, "lon": -77.01755816666666, "bike_id": "448de2190b8cd933ab23e65228e5fc2c", "type": "electric_scooter", "name": "448de2190b8cd933ab23e65228e5fc2c"}, {"is_disabled": 0, "is_reserved": 0, "fusion_lat": 0.0, "lat": 38.908299166666666, "fusion_lon": 0.0, "rental_uris": {"ios": "https://dc.lft.to/lastmile_qr_scan", "android": "https://dc.lft.to/lastmile_qr_scan"}, "lon": -76.99679483333334, "bike_id": "ee3c7d41a337b23804c7f66faf44f32e", "type": "electric_scooter", "name": "ee3c7d41a337b23804c7f66faf44f32e"}, {"is_disabled": 0, "is_reserved": 0, "fusion_lat": 0.0, "lat": 38.892329833333335, "fusion_lon": 0.0, "rental_uris": {"ios": "https://dc.lft.to/lastmile_qr_scan", "android": "https://dc.lft.to/lastmile_qr_scan"}, "lon": -77.023823, "bike_id": "bb096d58274faa1efa26f5fc505022e6", "type": "electric_scooter", "name": "bb096d58274faa1efa26f5fc505022e6"}, {"is_disabled": 0, "is_reserved": 0, "fusion_lat": 0.0, "lat": 38.923832833333336, "fusion_lon": 0.0, "rental_uris": {"ios": "https://dc.lft.to/lastmile_qr_scan", "android": "https://dc.lft.to/lastmile_qr_scan"}, "lon": -77.0408435, "bike_id": "024b631cc57e63fc5016694b74a90dc9", "type": "electric_bike", "name": "024b631cc57e63fc5016694b74a90dc9"}, {"is_disabled": 0, "is_reserved": 0, "fusion_lat": 0.0, "lat": 38.82763116666667, "fusion_lon": 0.0, "rental_uris": {"ios": "https://dc.lft.to/lastmile_qr_scan", "android": "https://dc.lft.to/lastmile_qr_scan"}, "lon": -77.060072, "bike_id": "8c651093248092d0834c440715c4dcd1", "type": "electric_bike", "name": "8c651093248092d0834c440715c4dcd1"}, {"is_disabled": 0, "is_reserved": 0, "fusion_lat": 0.0, "lat": 38.917154, "fusion_lon": 0.0, "rental_uris": {"ios": "https://dc.lft.to/lastmile_qr_scan", "android": "https://dc.lft.to/lastmile_qr_scan"}, "lon": -77.0261165, "bike_id": "6e49fab825d379e2291208b494e1117b", "type": "electric_scooter", "name": "6e49fab825d379e2291208b494e1117b"}, {"is_disabled": 0, "is_reserved": 0, "fusion_lat": 0.0, "lat": 38.929064, "fusion_lon": 0.0, "rental_uris": {"ios": "https://dc.lft.to/lastmile_qr_scan", "android": "https://dc.lft.to/lastmile_qr_scan"}, "lon": -77.05489366666667, "bike_id": "aa27bf22d72809d6d80e43c142cbeb1d", "type": "electric_scooter", "name": "aa27bf22d72809d6d80e43c142cbeb1d"}, {"is_disabled": 0, "is_reserved": 0, "fusion_lat": 0.0, "lat": 38.957294, "fusion_lon": 0.0, "rental_uris": {"ios": "https://dc.lft.to/lastmile_qr_scan", "android": "https://dc.lft.to/lastmile_qr_scan"}, "lon": -77.02405633333333, "bike_id": "02a9e5e0d527fd538d73a89486da922e", "type": "electric_scooter", "name": "02a9e5e0d527fd538d73a89486da922e"}, {"is_disabled": 0, "is_reserved": 0, "fusion_lat": 0.0, "lat": 38.900330333333336, "fusion_lon": 0.0, "rental_uris": {"ios": "https://dc.lft.to/lastmile_qr_scan", "android": "https://dc.lft.to/lastmile_qr_scan"}, "lon": -77.04892583333333, "bike_id": "01b78061586e36bcf060719645456a00", "type": "electric_scooter", "name": "01b78061586e36bcf060719645456a00"}, {"is_disabled": 0, "is_reserved": 0, "fusion_lat": 0.0, "lat": 38.93338416666667, "fusion_lon": 0.0, "rental_uris": {"ios": "https://dc.lft.to/lastmile_qr_scan", "android": "https://dc.lft.to/lastmile_qr_scan"}, "lon": -77.06047716666667, "bike_id": "a0e7b9af8539a8ff9e18a43b26049721", "type": "electric_scooter", "name": "a0e7b9af8539a8ff9e18a43b26049721"}, {"is_disabled": 0, "is_reserved": 0, "fusion_lat": 0.0, "lat": 38.923597, "fusion_lon": 0.0, "rental_uris": {"ios": "https://dc.lft.to/lastmile_qr_scan", "android": "https://dc.lft.to/lastmile_qr_scan"}, "lon": -77.05243916666667, "bike_id": "a18b46db94aaba42f419aea2aa8bfe72", "type": "electric_scooter", "name": "a18b46db94aaba42f419aea2aa8bfe72"}, {"is_disabled": 0, "is_reserved": 0, "fusion_lat": 0.0, "lat": 38.9515075, "fusion_lon": 0.0, "rental_uris": {"ios": "https://dc.lft.to/lastmile_qr_scan", "android": "https://dc.lft.to/lastmile_qr_scan"}, "lon": -77.0186905, "bike_id": "6dc3364e650fa000b129dfc70f6321c6", "type": "electric_scooter", "name": "6dc3364e650fa000b129dfc70f6321c6"}, {"is_disabled": 0, "is_reserved": 0, "fusion_lat": 0.0, "lat": 38.91648466666667, "fusion_lon": 0.0, "rental_uris": {"ios": "https://dc.lft.to/lastmile_qr_scan", "android": "https://dc.lft.to/lastmile_qr_scan"}, "lon": -77.0239575, "bike_id": "4d060247fa1cf6dc7b3870f7b6200ff1", "type": "electric_scooter", "name": "4d060247fa1cf6dc7b3870f7b6200ff1"}, {"is_disabled": 0, "is_reserved": 0, "fusion_lat": 0.0, "lat": 38.916898833333335, "fusion_lon": 0.0, "rental_uris": {"ios": "https://dc.lft.to/lastmile_qr_scan", "android": "https://dc.lft.to/lastmile_qr_scan"}, "lon": -77.02719983333333, "bike_id": "e3a6a380eb95cc2b2fad8d426b552ad3", "type": "electric_scooter", "name": "e3a6a380eb95cc2b2fad8d426b552ad3"}, {"is_disabled": 0, "is_reserved": 0, "fusion_lat": 0.0, "lat": 38.918175, "fusion_lon": 0.0, "rental_uris": {"ios": "https://dc.lft.to/lastmile_qr_scan", "android": "https://dc.lft.to/lastmile_qr_scan"}, "lon": -77.01217866666667, "bike_id": "be8d9782f445283563a90d9c6cfdb034", "type": "electric_scooter", "name": "be8d9782f445283563a90d9c6cfdb034"}, {"is_disabled": 0, "is_reserved": 0, "fusion_lat": 0.0, "lat": 38.910521333333335, "fusion_lon": 0.0, "rental_uris": {"ios": "https://dc.lft.to/lastmile_qr_scan", "android": "https://dc.lft.to/lastmile_qr_scan"}, "lon": -77.06095416666666, "bike_id": "7b1fcb29dbc6e132f570230b8cbb8487", "type": "electric_scooter", "name": "7b1fcb29dbc6e132f570230b8cbb8487"}, {"is_disabled": 0, "is_reserved": 0, "fusion_lat": 0.0, "lat": 38.918216, "fusion_lon": 0.0, "rental_uris": {"ios": "https://dc.lft.to/lastmile_qr_scan", "android": "https://dc.lft.to/lastmile_qr_scan"}, "lon": -77.01215233333333, "bike_id": "e689620caf37eaf094d9dea8f39b1283", "type": "electric_scooter", "name": "e689620caf37eaf094d9dea8f39b1283"}, {"is_disabled": 0, "is_reserved": 0, "fusion_lat": 0.0, "lat": 38.909926666666664, "fusion_lon": 0.0, "rental_uris": {"ios": "https://dc.lft.to/lastmile_qr_scan", "android": "https://dc.lft.to/lastmile_qr_scan"}, "lon": -77.04452983333333, "bike_id": "347c6b434636a8ed2b0e89e71c28c2c7", "type": "electric_scooter", "name": "347c6b434636a8ed2b0e89e71c28c2c7"}, {"is_disabled": 0, "is_reserved": 0, "fusion_lat": 0.0, "lat": 38.885155833333336, "fusion_lon": 0.0, "rental_uris": {"ios": "https://dc.lft.to/lastmile_qr_scan", "android": "https://dc.lft.to/lastmile_qr_scan"}, "lon": -77.02826283333333, "bike_id": "e34b77e36390019ac758692323f39282", "type": "electric_scooter", "name": "e34b77e36390019ac758692323f39282"}, {"is_disabled": 0, "is_reserved": 0, "fusion_lat": 0.0, "lat": 38.86370866666667, "fusion_lon": 0.0, "rental_uris": {"ios": "https://dc.lft.to/lastmile_qr_scan", "android": "https://dc.lft.to/lastmile_qr_scan"}, "lon": -77.01364933333333, "bike_id": "bfc1f6cb1f36d4c366e5d05db16786ae", "type": "electric_scooter", "name": "bfc1f6cb1f36d4c366e5d05db16786ae"}, {"is_disabled": 0, "is_reserved": 0, "fusion_lat": 0.0, "lat": 38.8926605, "fusion_lon": 0.0, "rental_uris": {"ios": "https://dc.lft.to/lastmile_qr_scan", "android": "https://dc.lft.to/lastmile_qr_scan"}, "lon": -77.04664316666667, "bike_id": "ff67d8b3260ae28c0837d15e15f284fc", "type": "electric_scooter", "name": "ff67d8b3260ae28c0837d15e15f284fc"}, {"is_disabled": 0, "is_reserved": 0, "fusion_lat": 0.0, "lat": 38.904233166666664, "fusion_lon": 0.0, "rental_uris": {"ios": "https://dc.lft.to/lastmile_qr_scan", "android": "https://dc.lft.to/lastmile_qr_scan"}, "lon": -77.0345845, "bike_id": "0bb382f460133b932c48531dc9d9067a", "type": "electric_scooter", "name": "0bb382f460133b932c48531dc9d9067a"}, {"is_disabled": 0, "is_reserved": 0, "fusion_lat": 0.0, "lat": 38.9272245, "fusion_lon": 0.0, "rental_uris": {"ios": "https://dc.lft.to/lastmile_qr_scan", "android": "https://dc.lft.to/lastmile_qr_scan"}, "lon": -77.05148333333334, "bike_id": "c0cdcb0a09c7a412fda2a8070264cda7", "type": "electric_scooter", "name": "c0cdcb0a09c7a412fda2a8070264cda7"}, {"is_disabled": 0, "is_reserved": 0, "fusion_lat": 0.0, "lat": 38.855109, "fusion_lon": 0.0, "rental_uris": {"ios": "https://dc.lft.to/lastmile_qr_scan", "android": "https://dc.lft.to/lastmile_qr_scan"}, "lon": -77.10162433333333, "bike_id": "9397a8e4f5bb9fdb7a3dd72e8418e544", "type": "electric_bike", "name": "9397a8e4f5bb9fdb7a3dd72e8418e544"}, {"is_disabled": 0, "is_reserved": 0, "fusion_lat": 0.0, "lat": 38.89226683333333, "fusion_lon": 0.0, "rental_uris": {"ios": "https://dc.lft.to/lastmile_qr_scan", "android": "https://dc.lft.to/lastmile_qr_scan"}, "lon": -77.046482, "bike_id": "7d249f8e10eae650770e68b42914a3e2", "type": "electric_scooter", "name": "7d249f8e10eae650770e68b42914a3e2"}, {"is_disabled": 0, "is_reserved": 0, "fusion_lat": 0.0, "lat": 38.8988395, "fusion_lon": 0.0, "rental_uris": {"ios": "https://dc.lft.to/lastmile_qr_scan", "android": "https://dc.lft.to/lastmile_qr_scan"}, "lon": -76.93176766666667, "bike_id": "471e5b5251fb26f3b8b7b94274590afb", "type": "electric_scooter", "name": "471e5b5251fb26f3b8b7b94274590afb"}, {"is_disabled": 0, "is_reserved": 0, "fusion_lat": 0.0, "lat": 38.95093083333333, "fusion_lon": 0.0, "rental_uris": {"ios": "https://dc.lft.to/lastmile_qr_scan", "android": "https://dc.lft.to/lastmile_qr_scan"}, "lon": -77.0190795, "bike_id": "5cce45eda2bf1764a1f4005e26d00e76", "type": "electric_scooter", "name": "5cce45eda2bf1764a1f4005e26d00e76"}, {"is_disabled": 0, "is_reserved": 0, "fusion_lat": 0.0, "lat": 38.91924183333333, "fusion_lon": 0.0, "rental_uris": {"ios": "https://dc.lft.to/lastmile_qr_scan", "android": "https://dc.lft.to/lastmile_qr_scan"}, "lon": -77.0097515, "bike_id": "bad157d16dfc99f4436c17b2e651b019", "type": "electric_scooter", "name": "bad157d16dfc99f4436c17b2e651b019"}, {"is_disabled": 0, "is_reserved": 0, "fusion_lat": 0.0, "lat": 38.913420333333335, "fusion_lon": 0.0, "rental_uris": {"ios": "https://dc.lft.to/lastmile_qr_scan", "android": "https://dc.lft.to/lastmile_qr_scan"}, "lon": -77.044256, "bike_id": "4a7930ee51e50e0cfad3d5d6c29270ca", "type": "electric_scooter", "name": "4a7930ee51e50e0cfad3d5d6c29270ca"}, {"is_disabled": 0, "is_reserved": 0, "fusion_lat": 0.0, "lat": 38.89744666666667, "fusion_lon": 0.0, "rental_uris": {"ios": "https://dc.lft.to/lastmile_qr_scan", "android": "https://dc.lft.to/lastmile_qr_scan"}, "lon": -77.04802883333333, "bike_id": "3341e524f6b5e937f87ed6ccc82caba7", "type": "electric_scooter", "name": "3341e524f6b5e937f87ed6ccc82caba7"}, {"is_disabled": 0, "is_reserved": 0, "fusion_lat": 0.0, "lat": 38.90532866666667, "fusion_lon": 0.0, "rental_uris": {"ios": "https://dc.lft.to/lastmile_qr_scan", "android": "https://dc.lft.to/lastmile_qr_scan"}, "lon": -77.05702416666666, "bike_id": "f4b88a1c53de63c9e5e8493967246072", "type": "electric_scooter", "name": "f4b88a1c53de63c9e5e8493967246072"}, {"is_disabled": 0, "is_reserved": 0, "fusion_lat": 0.0, "lat": 38.92380266666667, "fusion_lon": 0.0, "rental_uris": {"ios": "https://dc.lft.to/lastmile_qr_scan", "android": "https://dc.lft.to/lastmile_qr_scan"}, "lon": -77.02030783333333, "bike_id": "ad215a9fbd6b5e0f1c7d1a27421fb27e", "type": "electric_scooter", "name": "ad215a9fbd6b5e0f1c7d1a27421fb27e"}, {"is_disabled": 0, "is_reserved": 0, "fusion_lat": 0.0, "lat": 38.908575666666664, "fusion_lon": 0.0, "rental_uris": {"ios": "https://dc.lft.to/lastmile_qr_scan", "android": "https://dc.lft.to/lastmile_qr_scan"}, "lon": -77.06398683333333, "bike_id": "a57784df06976f34a1b21374d76d1de4", "type": "electric_scooter", "name": "a57784df06976f34a1b21374d76d1de4"}, {"is_disabled": 0, "is_reserved": 0, "fusion_lat": 0.0, "lat": 38.91015, "fusion_lon": 0.0, "rental_uris": {"ios": "https://dc.lft.to/lastmile_qr_scan", "android": "https://dc.lft.to/lastmile_qr_scan"}, "lon": -77.04396683333333, "bike_id": "e06748e21097867e23097762847c545b", "type": "electric_scooter", "name": "e06748e21097867e23097762847c545b"}, {"is_disabled": 0, "is_reserved": 0, "fusion_lat": 0.0, "lat": 38.94027216666667, "fusion_lon": 0.0, "rental_uris": {"ios": "https://dc.lft.to/lastmile_qr_scan", "android": "https://dc.lft.to/lastmile_qr_scan"}, "lon": -77.02503616666667, "bike_id": "c8a78b085b24dcea54eada657c6b418c", "type": "electric_scooter", "name": "c8a78b085b24dcea54eada657c6b418c"}, {"is_disabled": 0, "is_reserved": 0, "fusion_lat": 0.0, "lat": 38.94039316666667, "fusion_lon": 0.0, "rental_uris": {"ios": "https://dc.lft.to/lastmile_qr_scan", "android": "https://dc.lft.to/lastmile_qr_scan"}, "lon": -77.03538416666666, "bike_id": "ef0dc0d7cbd9e9c8a11ab9d834aadaef", "type": "electric_scooter", "name": "ef0dc0d7cbd9e9c8a11ab9d834aadaef"}, {"is_disabled": 0, "is_reserved": 0, "fusion_lat": 0.0, "lat": 38.930603833333336, "fusion_lon": 0.0, "rental_uris": {"ios": "https://dc.lft.to/lastmile_qr_scan", "android": "https://dc.lft.to/lastmile_qr_scan"}, "lon": -77.04218683333333, "bike_id": "6caad150a109ad83b8d02e5b160a72c0", "type": "electric_scooter", "name": "6caad150a109ad83b8d02e5b160a72c0"}, {"is_disabled": 0, "is_reserved": 0, "fusion_lat": 0.0, "lat": 38.924238833333334, "fusion_lon": 0.0, "rental_uris": {"ios": "https://dc.lft.to/lastmile_qr_scan", "android": "https://dc.lft.to/lastmile_qr_scan"}, "lon": -77.051879, "bike_id": "84b4ffe883ee8ab90e9159670eacfd3a", "type": "electric_scooter", "name": "84b4ffe883ee8ab90e9159670eacfd3a"}, {"is_disabled": 0, "is_reserved": 0, "fusion_lat": 0.0, "lat": 38.89966783333333, "fusion_lon": 0.0, "rental_uris": {"ios": "https://dc.lft.to/lastmile_qr_scan", "android": "https://dc.lft.to/lastmile_qr_scan"}, "lon": -77.01611666666666, "bike_id": "f269328ae7b76294804dfa2068f026ca", "type": "electric_scooter", "name": "f269328ae7b76294804dfa2068f026ca"}, {"is_disabled": 0, "is_reserved": 0, "fusion_lat": 0.0, "lat": 38.892198, "fusion_lon": 0.0, "rental_uris": {"ios": "https://dc.lft.to/lastmile_qr_scan", "android": "https://dc.lft.to/lastmile_qr_scan"}, "lon": -77.02775833333334, "bike_id": "f934d2a58dfdc2b45f31397ea8b52fdf", "type": "electric_scooter", "name": "f934d2a58dfdc2b45f31397ea8b52fdf"}, {"is_disabled": 0, "is_reserved": 0, "fusion_lat": 0.0, "lat": 38.963488, "fusion_lon": 0.0, "rental_uris": {"ios": "https://dc.lft.to/lastmile_qr_scan", "android": "https://dc.lft.to/lastmile_qr_scan"}, "lon": -77.03448883333333, "bike_id": "818d025a43de5a80390772faf99a8f5a", "type": "electric_scooter", "name": "818d025a43de5a80390772faf99a8f5a"}, {"is_disabled": 0, "is_reserved": 0, "fusion_lat": 0.0, "lat": 38.89225233333333, "fusion_lon": 0.0, "rental_uris": {"ios": "https://dc.lft.to/lastmile_qr_scan", "android": "https://dc.lft.to/lastmile_qr_scan"}, "lon": -77.0500845, "bike_id": "54a4854a59bfef5ed6334b3e80e9e4cc", "type": "electric_scooter", "name": "54a4854a59bfef5ed6334b3e80e9e4cc"}, {"is_disabled": 0, "is_reserved": 0, "fusion_lat": 0.0, "lat": 38.90444566666667, "fusion_lon": 0.0, "rental_uris": {"ios": "https://dc.lft.to/lastmile_qr_scan", "android": "https://dc.lft.to/lastmile_qr_scan"}, "lon": -76.97306366666666, "bike_id": "cc249ce9ccb3749573b505d325db4ab6", "type": "electric_scooter", "name": "cc249ce9ccb3749573b505d325db4ab6"}, {"is_disabled": 0, "is_reserved": 0, "fusion_lat": 0.0, "lat": 38.91561166666666, "fusion_lon": 0.0, "rental_uris": {"ios": "https://dc.lft.to/lastmile_qr_scan", "android": "https://dc.lft.to/lastmile_qr_scan"}, "lon": -77.03205033333333, "bike_id": "27c76e42bcc5b5db39e04872a1fb9b86", "type": "electric_scooter", "name": "27c76e42bcc5b5db39e04872a1fb9b86"}, {"is_disabled": 0, "is_reserved": 0, "fusion_lat": 0.0, "lat": 38.879159333333334, "fusion_lon": 0.0, "rental_uris": {"ios": "https://dc.lft.to/lastmile_qr_scan", "android": "https://dc.lft.to/lastmile_qr_scan"}, "lon": -76.99509066666667, "bike_id": "63ffe2cadb25ed328cd58264b22e6d0f", "type": "electric_scooter", "name": "63ffe2cadb25ed328cd58264b22e6d0f"}, {"is_disabled": 0, "is_reserved": 0, "fusion_lat": 0.0, "lat": 38.842683666666666, "fusion_lon": 0.0, "rental_uris": {"ios": "https://dc.lft.to/lastmile_qr_scan", "android": "https://dc.lft.to/lastmile_qr_scan"}, "lon": -76.9883535, "bike_id": "34b8efa9b1e38d3a54694929ff410e10", "type": "electric_scooter", "name": "34b8efa9b1e38d3a54694929ff410e10"}, {"is_disabled": 0, "is_reserved": 0, "fusion_lat": 0.0, "lat": 38.88103233333333, "fusion_lon": 0.0, "rental_uris": {"ios": "https://dc.lft.to/lastmile_qr_scan", "android": "https://dc.lft.to/lastmile_qr_scan"}, "lon": -77.02655333333334, "bike_id": "362a00ddf4b45d603cdf4538252b752d", "type": "electric_scooter", "name": "362a00ddf4b45d603cdf4538252b752d"}, {"is_disabled": 0, "is_reserved": 0, "fusion_lat": 0.0, "lat": 38.9159355, "fusion_lon": 0.0, "rental_uris": {"ios": "https://dc.lft.to/lastmile_qr_scan", "android": "https://dc.lft.to/lastmile_qr_scan"}, "lon": -77.01223383333334, "bike_id": "99d00bfd5b65dbcaee172823d48b2034", "type": "electric_scooter", "name": "99d00bfd5b65dbcaee172823d48b2034"}, {"is_disabled": 0, "is_reserved": 0, "fusion_lat": 0.0, "lat": 38.9155195, "fusion_lon": 0.0, "rental_uris": {"ios": "https://dc.lft.to/lastmile_qr_scan", "android": "https://dc.lft.to/lastmile_qr_scan"}, "lon": -77.05110366666666, "bike_id": "97a6ce1500e1bd48d50ffa3e82f4d259", "type": "electric_scooter", "name": "97a6ce1500e1bd48d50ffa3e82f4d259"}, {"is_disabled": 0, "is_reserved": 0, "fusion_lat": 0.0, "lat": 38.911258833333335, "fusion_lon": 0.0, "rental_uris": {"ios": "https://dc.lft.to/lastmile_qr_scan", "android": "https://dc.lft.to/lastmile_qr_scan"}, "lon": -77.021995, "bike_id": "ad1c86ff4e7b0c984248be2d13addfed", "type": "electric_scooter", "name": "ad1c86ff4e7b0c984248be2d13addfed"}, {"is_disabled": 0, "is_reserved": 0, "fusion_lat": 0.0, "lat": 38.917791333333334, "fusion_lon": 0.0, "rental_uris": {"ios": "https://dc.lft.to/lastmile_qr_scan", "android": "https://dc.lft.to/lastmile_qr_scan"}, "lon": -77.04302766666666, "bike_id": "54448e58558bf53926c0a4b9b7cd865b", "type": "electric_scooter", "name": "54448e58558bf53926c0a4b9b7cd865b"}, {"is_disabled": 0, "is_reserved": 0, "fusion_lat": 0.0, "lat": 38.8928195, "fusion_lon": 0.0, "rental_uris": {"ios": "https://dc.lft.to/lastmile_qr_scan", "android": "https://dc.lft.to/lastmile_qr_scan"}, "lon": -77.04194883333334, "bike_id": "4ca95914dc7207123ca170db098823a2", "type": "electric_scooter", "name": "4ca95914dc7207123ca170db098823a2"}, {"is_disabled": 0, "is_reserved": 0, "fusion_lat": 0.0, "lat": 38.84670883333333, "fusion_lon": 0.0, "rental_uris": {"ios": "https://dc.lft.to/lastmile_qr_scan", "android": "https://dc.lft.to/lastmile_qr_scan"}, "lon": -77.1393375, "bike_id": "3cee53ad113fb65fdef97790a9d2fd91", "type": "electric_bike", "name": "3cee53ad113fb65fdef97790a9d2fd91"}, {"is_disabled": 0, "is_reserved": 0, "fusion_lat": 0.0, "lat": 38.848577, "fusion_lon": 0.0, "rental_uris": {"ios": "https://dc.lft.to/lastmile_qr_scan", "android": "https://dc.lft.to/lastmile_qr_scan"}, "lon": -77.06833383333333, "bike_id": "d257190290ed18b8cf9d8a5f1e1c0436", "type": "electric_bike", "name": "d257190290ed18b8cf9d8a5f1e1c0436"}, {"is_disabled": 0, "is_reserved": 0, "fusion_lat": 0.0, "lat": 38.935878333333335, "fusion_lon": 0.0, "rental_uris": {"ios": "https://dc.lft.to/lastmile_qr_scan", "android": "https://dc.lft.to/lastmile_qr_scan"}, "lon": -77.02859216666667, "bike_id": "6b34048cbe398a724cda179922b0ed1d", "type": "electric_scooter", "name": "6b34048cbe398a724cda179922b0ed1d"}, {"is_disabled": 0, "is_reserved": 0, "fusion_lat": 0.0, "lat": 38.87925333333333, "fusion_lon": 0.0, "rental_uris": {"ios": "https://dc.lft.to/lastmile_qr_scan", "android": "https://dc.lft.to/lastmile_qr_scan"}, "lon": -77.007854, "bike_id": "5ecd35fcc55e824a697789286261d664", "type": "electric_scooter", "name": "5ecd35fcc55e824a697789286261d664"}, {"is_disabled": 0, "is_reserved": 0, "fusion_lat": 0.0, "lat": 38.91955983333333, "fusion_lon": 0.0, "rental_uris": {"ios": "https://dc.lft.to/lastmile_qr_scan", "android": "https://dc.lft.to/lastmile_qr_scan"}, "lon": -77.078745, "bike_id": "0c2cd0dddaa049b257920ba7e5e8416f", "type": "electric_scooter", "name": "0c2cd0dddaa049b257920ba7e5e8416f"}, {"is_disabled": 0, "is_reserved": 0, "fusion_lat": 0.0, "lat": 38.8924085, "fusion_lon": 0.0, "rental_uris": {"ios": "https://dc.lft.to/lastmile_qr_scan", "android": "https://dc.lft.to/lastmile_qr_scan"}, "lon": -77.03355816666667, "bike_id": "36f476d6a6d19e3478b85674ea5d48bc", "type": "electric_scooter", "name": "36f476d6a6d19e3478b85674ea5d48bc"}, {"is_disabled": 0, "is_reserved": 0, "fusion_lat": 0.0, "lat": 38.911655, "fusion_lon": 0.0, "rental_uris": {"ios": "https://dc.lft.to/lastmile_qr_scan", "android": "https://dc.lft.to/lastmile_qr_scan"}, "lon": -77.03858233333334, "bike_id": "7a9390b9d9d0209ca38323981733496e", "type": "electric_scooter", "name": "7a9390b9d9d0209ca38323981733496e"}, {"is_disabled": 0, "is_reserved": 0, "fusion_lat": 0.0, "lat": 38.9097715, "fusion_lon": 0.0, "rental_uris": {"ios": "https://dc.lft.to/lastmile_qr_scan", "android": "https://dc.lft.to/lastmile_qr_scan"}, "lon": -77.034068, "bike_id": "eff398c03ac571b7f3bd180516de113a", "type": "electric_scooter", "name": "eff398c03ac571b7f3bd180516de113a"}, {"is_disabled": 0, "is_reserved": 0, "fusion_lat": 0.0, "lat": 38.9024995, "fusion_lon": 0.0, "rental_uris": {"ios": "https://dc.lft.to/lastmile_qr_scan", "android": "https://dc.lft.to/lastmile_qr_scan"}, "lon": -77.06256066666667, "bike_id": "a6aea9d49427945fe8989f3d3cd4d0c1", "type": "electric_scooter", "name": "a6aea9d49427945fe8989f3d3cd4d0c1"}, {"is_disabled": 0, "is_reserved": 0, "fusion_lat": 0.0, "lat": 38.923917833333334, "fusion_lon": 0.0, "rental_uris": {"ios": "https://dc.lft.to/lastmile_qr_scan", "android": "https://dc.lft.to/lastmile_qr_scan"}, "lon": -77.05260066666666, "bike_id": "f90a576da2d853110860b4890ab76121", "type": "electric_scooter", "name": "f90a576da2d853110860b4890ab76121"}, {"is_disabled": 0, "is_reserved": 0, "fusion_lat": 0.0, "lat": 38.924238333333335, "fusion_lon": 0.0, "rental_uris": {"ios": "https://dc.lft.to/lastmile_qr_scan", "android": "https://dc.lft.to/lastmile_qr_scan"}, "lon": -77.04248866666667, "bike_id": "0e96fa8d775d29a9d58c55be2f847d07", "type": "electric_scooter", "name": "0e96fa8d775d29a9d58c55be2f847d07"}, {"is_disabled": 0, "is_reserved": 0, "fusion_lat": 0.0, "lat": 38.9002805, "fusion_lon": 0.0, "rental_uris": {"ios": "https://dc.lft.to/lastmile_qr_scan", "android": "https://dc.lft.to/lastmile_qr_scan"}, "lon": -76.9954805, "bike_id": "336ec848075571e8f1f5848e64d382fa", "type": "electric_scooter", "name": "336ec848075571e8f1f5848e64d382fa"}, {"is_disabled": 0, "is_reserved": 0, "fusion_lat": 0.0, "lat": 38.879414, "fusion_lon": 0.0, "rental_uris": {"ios": "https://dc.lft.to/lastmile_qr_scan", "android": "https://dc.lft.to/lastmile_qr_scan"}, "lon": -77.0059075, "bike_id": "dfd902295ded42585c03ce2ca1e0f57d", "type": "electric_scooter", "name": "dfd902295ded42585c03ce2ca1e0f57d"}, {"is_disabled": 0, "is_reserved": 0, "fusion_lat": 0.0, "lat": 38.97347, "fusion_lon": 0.0, "rental_uris": {"ios": "https://dc.lft.to/lastmile_qr_scan", "android": "https://dc.lft.to/lastmile_qr_scan"}, "lon": -77.017965, "bike_id": "fb3a9247dc93056a1b5aed48768fd6f5", "type": "electric_bike", "name": "fb3a9247dc93056a1b5aed48768fd6f5"}, {"is_disabled": 0, "is_reserved": 0, "fusion_lat": 0.0, "lat": 38.92347216666667, "fusion_lon": 0.0, "rental_uris": {"ios": "https://dc.lft.to/lastmile_qr_scan", "android": "https://dc.lft.to/lastmile_qr_scan"}, "lon": -77.03401, "bike_id": "6ff123243701e00f2495a2e503fdafdc", "type": "electric_scooter", "name": "6ff123243701e00f2495a2e503fdafdc"}, {"is_disabled": 0, "is_reserved": 0, "fusion_lat": 0.0, "lat": 38.91899133333333, "fusion_lon": 0.0, "rental_uris": {"ios": "https://dc.lft.to/lastmile_qr_scan", "android": "https://dc.lft.to/lastmile_qr_scan"}, "lon": -77.00051066666667, "bike_id": "5237754147dba7238b6b9a7f1f3d8102", "type": "electric_scooter", "name": "5237754147dba7238b6b9a7f1f3d8102"}, {"is_disabled": 0, "is_reserved": 0, "fusion_lat": 0.0, "lat": 38.927002, "fusion_lon": 0.0, "rental_uris": {"ios": "https://dc.lft.to/lastmile_qr_scan", "android": "https://dc.lft.to/lastmile_qr_scan"}, "lon": -76.96081066666666, "bike_id": "af2d0983a314a9224f642c61d97ff9c6", "type": "electric_scooter", "name": "af2d0983a314a9224f642c61d97ff9c6"}, {"is_disabled": 0, "is_reserved": 0, "fusion_lat": 0.0, "lat": 38.87523383333333, "fusion_lon": 0.0, "rental_uris": {"ios": "https://dc.lft.to/lastmile_qr_scan", "android": "https://dc.lft.to/lastmile_qr_scan"}, "lon": -77.01230783333334, "bike_id": "413eb13749ca0a5b6fab70c9c5c5cfe6", "type": "electric_scooter", "name": "413eb13749ca0a5b6fab70c9c5c5cfe6"}, {"is_disabled": 0, "is_reserved": 0, "fusion_lat": 0.0, "lat": 39.00075666666667, "fusion_lon": 0.0, "rental_uris": {"ios": "https://dc.lft.to/lastmile_qr_scan", "android": "https://dc.lft.to/lastmile_qr_scan"}, "lon": -77.0063805, "bike_id": "1f64dccd3edb884c5e9e8363d3d7223a", "type": "electric_bike", "name": "1f64dccd3edb884c5e9e8363d3d7223a"}, {"is_disabled": 0, "is_reserved": 0, "fusion_lat": 0.0, "lat": 38.87673766666666, "fusion_lon": 0.0, "rental_uris": {"ios": "https://dc.lft.to/lastmile_qr_scan", "android": "https://dc.lft.to/lastmile_qr_scan"}, "lon": -77.00047916666666, "bike_id": "4543e0d8e7f4460edce3473f91098404", "type": "electric_scooter", "name": "4543e0d8e7f4460edce3473f91098404"}, {"is_disabled": 0, "is_reserved": 0, "fusion_lat": 0.0, "lat": 38.93954, "fusion_lon": 0.0, "rental_uris": {"ios": "https://dc.lft.to/lastmile_qr_scan", "android": "https://dc.lft.to/lastmile_qr_scan"}, "lon": -77.02188366666667, "bike_id": "ad6bb701ae05b0113a7cc3da8e171418", "type": "electric_scooter", "name": "ad6bb701ae05b0113a7cc3da8e171418"}, {"is_disabled": 0, "is_reserved": 0, "fusion_lat": 0.0, "lat": 38.967758, "fusion_lon": 0.0, "rental_uris": {"ios": "https://dc.lft.to/lastmile_qr_scan", "android": "https://dc.lft.to/lastmile_qr_scan"}, "lon": -76.99655883333334, "bike_id": "d3f56e8361cdb1e39ca771341a1fe176", "type": "electric_bike", "name": "d3f56e8361cdb1e39ca771341a1fe176"}, {"is_disabled": 0, "is_reserved": 0, "fusion_lat": 0.0, "lat": 38.9111585, "fusion_lon": 0.0, "rental_uris": {"ios": "https://dc.lft.to/lastmile_qr_scan", "android": "https://dc.lft.to/lastmile_qr_scan"}, "lon": -76.99743616666666, "bike_id": "c04cd2b0434ee9cbea66e1ddc11753a8", "type": "electric_scooter", "name": "c04cd2b0434ee9cbea66e1ddc11753a8"}, {"is_disabled": 0, "is_reserved": 0, "fusion_lat": 0.0, "lat": 38.910780833333334, "fusion_lon": 0.0, "rental_uris": {"ios": "https://dc.lft.to/lastmile_qr_scan", "android": "https://dc.lft.to/lastmile_qr_scan"}, "lon": -77.021873, "bike_id": "60173781f09326701d4373dfdeba4da9", "type": "electric_scooter", "name": "60173781f09326701d4373dfdeba4da9"}, {"is_disabled": 0, "is_reserved": 0, "fusion_lat": 0.0, "lat": 38.90497666666667, "fusion_lon": 0.0, "rental_uris": {"ios": "https://dc.lft.to/lastmile_qr_scan", "android": "https://dc.lft.to/lastmile_qr_scan"}, "lon": -77.0612335, "bike_id": "d76bb93e62b93f2e65cb11ee52946141", "type": "electric_scooter", "name": "d76bb93e62b93f2e65cb11ee52946141"}, {"is_disabled": 0, "is_reserved": 0, "fusion_lat": 0.0, "lat": 38.89195433333333, "fusion_lon": 0.0, "rental_uris": {"ios": "https://dc.lft.to/lastmile_qr_scan", "android": "https://dc.lft.to/lastmile_qr_scan"}, "lon": -77.03175966666667, "bike_id": "168dadf131c026dbdbe6f5796b6053f0", "type": "electric_scooter", "name": "168dadf131c026dbdbe6f5796b6053f0"}, {"is_disabled": 0, "is_reserved": 0, "fusion_lat": 0.0, "lat": 38.904203333333335, "fusion_lon": 0.0, "rental_uris": {"ios": "https://dc.lft.to/lastmile_qr_scan", "android": "https://dc.lft.to/lastmile_qr_scan"}, "lon": -77.03095583333334, "bike_id": "fc91357ca5d5b9d0684d45219dd80d3e", "type": "electric_scooter", "name": "fc91357ca5d5b9d0684d45219dd80d3e"}, {"is_disabled": 0, "is_reserved": 0, "fusion_lat": 0.0, "lat": 38.91633383333333, "fusion_lon": 0.0, "rental_uris": {"ios": "https://dc.lft.to/lastmile_qr_scan", "android": "https://dc.lft.to/lastmile_qr_scan"}, "lon": -77.00513583333333, "bike_id": "260b293620c83ccb309681677ec14bcf", "type": "electric_scooter", "name": "260b293620c83ccb309681677ec14bcf"}, {"is_disabled": 0, "is_reserved": 0, "fusion_lat": 0.0, "lat": 38.9176515, "fusion_lon": 0.0, "rental_uris": {"ios": "https://dc.lft.to/lastmile_qr_scan", "android": "https://dc.lft.to/lastmile_qr_scan"}, "lon": -77.0234565, "bike_id": "76cacb02ccd2a9fcfdf73255c81e8d58", "type": "electric_scooter", "name": "76cacb02ccd2a9fcfdf73255c81e8d58"}, {"is_disabled": 0, "is_reserved": 0, "fusion_lat": 0.0, "lat": 38.908558166666666, "fusion_lon": 0.0, "rental_uris": {"ios": "https://dc.lft.to/lastmile_qr_scan", "android": "https://dc.lft.to/lastmile_qr_scan"}, "lon": -77.000899, "bike_id": "7a4f859e423c5533d01ca8ed8d016707", "type": "electric_scooter", "name": "7a4f859e423c5533d01ca8ed8d016707"}, {"is_disabled": 0, "is_reserved": 0, "fusion_lat": 0.0, "lat": 38.80556283333333, "fusion_lon": 0.0, "rental_uris": {"ios": "https://dc.lft.to/lastmile_qr_scan", "android": "https://dc.lft.to/lastmile_qr_scan"}, "lon": -77.1322865, "bike_id": "494b7feb9a5bb506f6659af831288583", "type": "electric_bike", "name": "494b7feb9a5bb506f6659af831288583"}, {"is_disabled": 0, "is_reserved": 0, "fusion_lat": 0.0, "lat": 38.93456966666667, "fusion_lon": 0.0, "rental_uris": {"ios": "https://dc.lft.to/lastmile_qr_scan", "android": "https://dc.lft.to/lastmile_qr_scan"}, "lon": -77.02412383333333, "bike_id": "1389a768f67281608a742eb2b8deafaf", "type": "electric_scooter", "name": "1389a768f67281608a742eb2b8deafaf"},