{"data": {"bikes": [{"bike_id": "8f48c206982d9c6526683c433005ffdb", "name": "8f48c206982d9c6526683c433005ffdb", "lat": 38.923451166666666, "fusion_lat": 0.0, "type": "electric_scooter", "lon": -77.0190905, "is_disabled": 0, "fusion_lon": 0.0, "rental_uris": {"android": "https://dc.lft.to/lastmile_qr_scan", "ios": "https://dc.lft.to/lastmile_qr_scan"}, "is_reserved": 0}, {"bike_id": "9553afb74d27320ca64de8aec480261a", "name": "9553afb74d27320ca64de8aec480261a", "lat": 38.924228166666666, "fusion_lat": 0.0, "type": "electric_scooter", "lon": -77.0194495, "is_disabled": 0, "fusion_lon": 0.0, "rental_uris": {"android": "https://dc.lft.to/lastmile_qr_scan", "ios": "https://dc.lft.to/lastmile_qr_scan"}, "is_reserved": 0}, {"bike_id": "932e267ffba3ad1b34cea19fd6a52aa7", "name": "932e267ffba3ad1b34cea19fd6a52aa7", "lat": 38.888905, "fusion_lat": 0.0, "type": "electric_scooter", "lon": -76.9192365, "is_disabled": 0, "fusion_lon": 0.0, "rental_uris": {"android": "https://dc.lft.to/lastmile_qr_scan", "ios": "https://dc.lft.to/lastmile_qr_scan"}, "is_reserved": 0}, {"bike_id": "e09b926ab3c40d4363a65008d79a2ff8", "name": "e09b926ab3c40d4363a65008d79a2ff8", "lat": 38.89200666666667, "fusion_lat": 0.0, "type": "electric_scooter", "lon": -77.04825733333334, "is_disabled": 0, "fusion_lon": 0.0, "rental_uris": {"android": "https://dc.lft.to/lastmile_qr_scan", "ios": "https://dc.lft.to/lastmile_qr_scan"}, "is_reserved": 0}, {"bike_id": "f030e4f9210e6c0b4c900730c2824445", "name": "f030e4f9210e6c0b4c900730c2824445", "lat": 38.92228216666667, "fusion_lat": 0.0, "type": "electric_scooter", "lon": -77.04331716666667, "is_disabled": 0, "fusion_lon": 0.0, "rental_uris": {"android": "https://dc.lft.to/lastmile_qr_scan", "ios": "https://dc.lft.to/lastmile_qr_scan"}, "is_reserved": 0}, {"bike_id": "32d98b86949bd8753052a190c078194d", "name": "32d98b86949bd8753052a190c078194d", "lat": 38.879625833333336, "fusion_lat": 0.0, "type": "electric_scooter", "lon": -77.00071633333333, "is_disabled": 0, "fusion_lon": 0.0, "rental_uris": {"android": "https://dc.lft.to/lastmile_qr_scan", "ios": "https://dc.lft.to/lastmile_qr_scan"}, "is_reserved": 0}, {"bike_id": "cbd63ec054dfdbd4692bb2966d1e67be", "name": "cbd63ec054dfdbd4692bb2966d1e67be", "lat": 38.928661, "fusion_lat": 0.0, "type": "electric_scooter", "lon": -77.01405033333333, "is_disabled": 0, "fusion_lon": 0.0, "rental_uris": {"android": "https://dc.lft.to/lastmile_qr_scan", "ios": "https://dc.lft.to/lastmile_qr_scan"}, "is_reserved": 0}, {"bike_id": "4b804a14e3a89fa554b628a9c258ea8b", "name": "4b804a14e3a89fa554b628a9c258ea8b", "lat": 38.978438, "fusion_lat": 0.0, "type": "electric_bike", "lon": -77.09088316666667, "is_disabled": 0, "fusion_lon": 0.0, "rental_uris": {"android": "https://dc.lft.to/lastmile_qr_scan", "ios": "https://dc.lft.to/lastmile_qr_scan"}, "is_reserved": 0}, {"bike_id": "f3be239f62a4c7859f7110457952bf1e", "name": "f3be239f62a4c7859f7110457952bf1e", "lat": 38.89996683333333, "fusion_lat": 0.0, "type": "electric_scooter", "lon": -76.98565, "is_disabled": 0, "fusion_lon": 0.0, "rental_uris": {"android": "https://dc.lft.to/lastmile_qr_scan", "ios": "https://dc.lft.to/lastmile_qr_scan"}, "is_reserved": 0}, {"bike_id": "aee3e2725ee3cc28411b264a6148a0fa", "name": "aee3e2725ee3cc28411b264a6148a0fa", "lat": 38.906755, "fusion_lat": 0.0, "type": "electric_scooter", "lon": -77.0501985, "is_disabled": 0, "fusion_lon": 0.0, "rental_uris": {"android": "https://dc.lft.to/lastmile_qr_scan", "ios": "https://dc.lft.to/lastmile_qr_scan"}, "is_reserved": 0}, {"bike_id": "05c5c5de0f07ebf597751cdb5fa16ab4", "name": "05c5c5de0f07ebf597751cdb5fa16ab4", "lat": 38.99933816666667, "fusion_lat": 0.0, "type": "electric_bike", "lon": -77.051343, "is_disabled": 0, "fusion_lon": 0.0, "rental_uris": {"android": "https://dc.lft.to/lastmile_qr_scan", "ios": "https://dc.lft.to/lastmile_qr_scan"}, "is_reserved": 0}, {"bike_id": "ad0ce5df489077a09836b72354b211c7", "name": "ad0ce5df489077a09836b72354b211c7", "lat": 38.893603, "fusion_lat": 0.0, "type": "electric_scooter", "lon": -77.0033355, "is_disabled": 0, "fusion_lon": 0.0, "rental_uris": {"android": "https://dc.lft.to/lastmile_qr_scan", "ios": "https://dc.lft.to/lastmile_qr_scan"}, "is_reserved": 0}, {"bike_id": "eccf237de3952617d8c65f5b53bba04e", "name": "eccf237de3952617d8c65f5b53bba04e", "lat": 38.96404483333333, "fusion_lat": 0.0, "type": "electric_scooter", "lon": -77.027675, "is_disabled": 0, "fusion_lon": 0.0, "rental_uris": {"android": "https://dc.lft.to/lastmile_qr_scan", "ios": "https://dc.lft.to/lastmile_qr_scan"}, "is_reserved": 0}, {"bike_id": "c81d049a10860fbd2a6c6c5fe11fca72", "name": "c81d049a10860fbd2a6c6c5fe11fca72", "lat": 38.91793783333333, "fusion_lat": 0.0, "type": "electric_scooter", "lon": -77.03210283333334, "is_disabled": 0, "fusion_lon": 0.0, "rental_uris": {"android": "https://dc.lft.to/lastmile_qr_scan", "ios": "https://dc.lft.to/lastmile_qr_scan"}, "is_reserved": 0}, {"bike_id": "85d04e79f56df8be8b085541715fe936", "name": "85d04e79f56df8be8b085541715fe936", "lat": 38.862652, "fusion_lat": 0.0, "type": "electric_scooter", "lon": -76.98191483333333, "is_disabled": 0, "fusion_lon": 0.0, "rental_uris": {"android": "https://dc.lft.to/lastmile_qr_scan", "ios": "https://dc.lft.to/lastmile_qr_scan"}, "is_reserved": 0}, {"bike_id": "6c7702ed228e989fbd051277472d22b3", "name": "6c7702ed228e989fbd051277472d22b3", "lat": 38.923707666666665, "fusion_lat": 0.0, "type": "electric_scooter", "lon": -77.019504, "is_disabled": 0, "fusion_lon": 0.0, "rental_uris": {"android": "https://dc.lft.to/lastmile_qr_scan", "ios": "https://dc.lft.to/lastmile_qr_scan"}, "is_reserved": 0}, {"bike_id": "025cd97a952bee00ba59197c0382fc9b", "name": "025cd97a952bee00ba59197c0382fc9b", "lat": 38.925550666666666, "fusion_lat": 0.0, "type": "electric_scooter", "lon": -77.0532525, "is_disabled": 0, "fusion_lon": 0.0, "rental_uris": {"android": "https://dc.lft.to/lastmile_qr_scan", "ios": "https://dc.lft.to/lastmile_qr_scan"}, "is_reserved": 0}, {"bike_id": "7d659ca242bfca41f905be55600e547d", "name": "7d659ca242bfca41f905be55600e547d", "lat": 38.934981, "fusion_lat": 0.0, "type": "electric_scooter", "lon": -77.0446415, "is_disabled": 0, "fusion_lon": 0.0, "rental_uris": {"android": "https://dc.lft.to/lastmile_qr_scan", "ios": "https://dc.lft.to/lastmile_qr_scan"}, "is_reserved": 0}, {"bike_id": "6979e5f0dc94fe38d609e74e6a968d52", "name": "6979e5f0dc94fe38d609e74e6a968d52", "lat": 38.913866166666665, "fusion_lat": 0.0, "type": "electric_scooter", "lon": -77.04603033333333, "is_disabled": 0, "fusion_lon": 0.0, "rental_uris": {"android": "https://dc.lft.to/lastmile_qr_scan", "ios": "https://dc.lft.to/lastmile_qr_scan"}, "is_reserved": 0}, {"bike_id": "395f471191e11a8282a17336fd80a6af", "name": "395f471191e11a8282a17336fd80a6af", "lat": 38.989907333333335, "fusion_lat": 0.0, "type": "electric_scooter", "lon": -77.03364416666666, "is_disabled": 0, "fusion_lon": 0.0, "rental_uris": {"android": "https://dc.lft.to/lastmile_qr_scan", "ios": "https://dc.lft.to/lastmile_qr_scan"}, "is_reserved": 0}, {"bike_id": "eeccaa737970b9d544b5696fc9dcd78c", "name": "eeccaa737970b9d544b5696fc9dcd78c", "lat": 38.905693666666664, "fusion_lat": 0.0, "type": "electric_scooter", "lon": -77.01715233333333, "is_disabled": 0, "fusion_lon": 0.0, "rental_uris": {"android": "https://dc.lft.to/lastmile_qr_scan", "ios": "https://dc.lft.to/lastmile_qr_scan"}, "is_reserved": 0}, {"bike_id": "24e449a1ffd7b4fa06c0d849cca53498", "name": "24e449a1ffd7b4fa06c0d849cca53498", "lat": 38.928449, "fusion_lat": 0.0, "type": "electric_scooter", "lon": -77.02492483333333, "is_disabled": 0, "fusion_lon": 0.0, "rental_uris": {"android": "https://dc.lft.to/lastmile_qr_scan", "ios": "https://dc.lft.to/lastmile_qr_scan"}, "is_reserved": 0}, {"bike_id": "309dc36ca017cd417db1dbb8d2227201", "name": "309dc36ca017cd417db1dbb8d2227201", "lat": 38.883825, "fusion_lat": 0.0, "type": "electric_scooter", "lon": -77.04613583333334, "is_disabled": 0, "fusion_lon": 0.0, "rental_uris": {"android": "https://dc.lft.to/lastmile_qr_scan", "ios": "https://dc.lft.to/lastmile_qr_scan"}, "is_reserved": 0}, {"bike_id": "5dbd10528ee26e4b570f0da573c1de27", "name": "5dbd10528ee26e4b570f0da573c1de27", "lat": 38.88613183333333, "fusion_lat": 0.0, "type": "electric_scooter", "lon": -77.00336333333334, "is_disabled": 0, "fusion_lon": 0.0, "rental_uris": {"android": "https://dc.lft.to/lastmile_qr_scan", "ios": "https://dc.lft.to/lastmile_qr_scan"}, "is_reserved": 0}, {"bike_id": "79cc7ef1815c108e0448727d03b6641c", "name": "79cc7ef1815c108e0448727d03b6641c", "lat": 38.92647566666667, "fusion_lat": 0.0, "type": "electric_scooter", "lon": -77.025107, "is_disabled": 0, "fusion_lon": 0.0, "rental_uris": {"android": "https://dc.lft.to/lastmile_qr_scan", "ios": "https://dc.lft.to/lastmile_qr_scan"}, "is_reserved": 0}, {"bike_id": "7595ed948c52ba4c9c33e974fa229955", "name": "7595ed948c52ba4c9c33e974fa229955", "lat": 38.898920333333336, "fusion_lat": 0.0, "type": "electric_scooter", "lon": -76.97698166666666, "is_disabled": 0, "fusion_lon": 0.0, "rental_uris": {"android": "https://dc.lft.to/lastmile_qr_scan", "ios": "https://dc.lft.to/lastmile_qr_scan"}, "is_reserved": 0}, {"bike_id": "bee573ca9ae7f952978ecb9fd8db1d01", "name": "bee573ca9ae7f952978ecb9fd8db1d01", "lat": 38.930643833333335, "fusion_lat": 0.0, "type": "electric_scooter", "lon": -77.0382195, "is_disabled": 0, "fusion_lon": 0.0, "rental_uris": {"android": "https://dc.lft.to/lastmile_qr_scan", "ios": "https://dc.lft.to/lastmile_qr_scan"}, "is_reserved": 0}, {"bike_id": "abbebb6a2966504129fe3cdca1838e46", "name": "abbebb6a2966504129fe3cdca1838e46", "lat": 38.89776083333334, "fusion_lat": 0.0, "type": "electric_scooter", "lon": -76.992714, "is_disabled": 0, "fusion_lon": 0.0, "rental_uris": {"android": "https://dc.lft.to/lastmile_qr_scan", "ios": "https://dc.lft.to/lastmile_qr_scan"}, "is_reserved": 0}, {"bike_id": "6b88864b6d59b2d526e267488238d124", "name": "6b88864b6d59b2d526e267488238d124", "lat": 38.898842333333334, "fusion_lat": 0.0, "type": "electric_scooter", "lon": -76.988401, "is_disabled": 0, "fusion_lon": 0.0, "rental_uris": {"android": "https://dc.lft.to/lastmile_qr_scan", "ios": "https://dc.lft.to/lastmile_qr_scan"}, "is_reserved": 0}, {"bike_id": "0ebc0061d4922f8ed3638277aae6683c", "name": "0ebc0061d4922f8ed3638277aae6683c", "lat": 38.98136133333333, "fusion_lat": 0.0, "type": "electric_bike", "lon": -77.0076735, "is_disabled": 0, "fusion_lon": 0.0, "rental_uris": {"android": "https://dc.lft.to/lastmile_qr_scan", "ios": "https://dc.lft.to/lastmile_qr_scan"}, "is_reserved": 0}, {"bike_id": "7cabdee239348084f1014bd42fc3ecd6", "name": "7cabdee239348084f1014bd42fc3ecd6", "lat": 38.907768, "fusion_lat": 0.0, "type": "electric_scooter", "lon": -77.04506716666667, "is_disabled": 0, "fusion_lon": 0.0, "rental_uris": {"android": "https://dc.lft.to/lastmile_qr_scan", "ios": "https://dc.lft.to/lastmile_qr_scan"}, "is_reserved": 0}, {"bike_id": "0dccf71656a4c07aaf4c3b7e3b632d4b", "name": "0dccf71656a4c07aaf4c3b7e3b632d4b", "lat": 38.91410116666667, "fusion_lat": 0.0, "type": "electric_scooter", "lon": -77.0390605, "is_disabled": 0, "fusion_lon": 0.0, "rental_uris": {"android": "https://dc.lft.to/lastmile_qr_scan", "ios": "https://dc.lft.to/lastmile_qr_scan"}, "is_reserved": 0}, {"bike_id": "b35530b34e0912985d1baf51160ff658", "name": "b35530b34e0912985d1baf51160ff658", "lat": 38.973699, "fusion_lat": 0.0, "type": "electric_scooter", "lon": -77.01865983333333, "is_disabled": 0, "fusion_lon": 0.0, "rental_uris": {"android": "https://dc.lft.to/lastmile_qr_scan", "ios": "https://dc.lft.to/lastmile_qr_scan"}, "is_reserved": 0}, {"bike_id": "ba952089f07b8d1daecdbfcd0c2e35df", "name": "ba952089f07b8d1daecdbfcd0c2e35df", "lat": 38.89812916666666, "fusion_lat": 0.0, "type": "electric_scooter", "lon": -77.024852, "is_disabled": 0, "fusion_lon": 0.0, "rental_uris": {"android": "https://dc.lft.to/lastmile_qr_scan", "ios": "https://dc.lft.to/lastmile_qr_scan"}, "is_reserved": 0}, {"bike_id": "05b01a1496cbd5059cb559c671b41d4d", "name": "05b01a1496cbd5059cb559c671b41d4d", "lat": 38.9521825, "fusion_lat": 0.0, "type": "electric_scooter", "lon": -77.01596316666667, "is_disabled": 0, "fusion_lon": 0.0, "rental_uris": {"android": "https://dc.lft.to/lastmile_qr_scan", "ios": "https://dc.lft.to/lastmile_qr_scan"}, "is_reserved": 0}, {"bike_id": "d8c4b9c26d1ee38d0153e500e8f5cd86", "name": "d8c4b9c26d1ee38d0153e500e8f5cd86", "lat": 38.900869666666665, "fusion_lat": 0.0, "type": "electric_scooter", "lon": -77.03452166666666, "is_disabled": 0, "fusion_lon": 0.0, "rental_uris": {"android": "https://dc.lft.to/lastmile_qr_scan", "ios": "https://dc.lft.to/lastmile_qr_scan"}, "is_reserved": 0}, {"bike_id": "4b408fa94d30d7a125850523ccd19e44", "name": "4b408fa94d30d7a125850523ccd19e44", "lat": 39.04235666666667, "fusion_lat": 0.0, "type": "electric_bike", "lon": -76.99735183333334, "is_disabled": 0, "fusion_lon": 0.0, "rental_uris": {"android": "https://dc.lft.to/lastmile_qr_scan", "ios": "https://dc.lft.to/lastmile_qr_scan"}, "is_reserved": 0}, {"bike_id": "aefcb50f0cb343b9f6f5bf0318d4aee7", "name": "aefcb50f0cb343b9f6f5bf0318d4aee7", "lat": 38.973379, "fusion_lat": 0.0, "type": "electric_bike", "lon": -76.99589216666666, "is_disabled": 0, "fusion_lon": 0.0, "rental_uris": {"android": "https://dc.lft.to/lastmile_qr_scan", "ios": "https://dc.lft.to/lastmile_qr_scan"}, "is_reserved": 0}, {"bike_id": "3357fe0bc82456a55fb1da6d6af6733b", "name": "3357fe0bc82456a55fb1da6d6af6733b", "lat": 38.9112275, "fusion_lat": 0.0, "type": "electric_scooter", "lon": -77.0592765, "is_disabled": 0, "fusion_lon": 0.0, "rental_uris": {"android": "https://dc.lft.to/lastmile_qr_scan", "ios": "https://dc.lft.to/lastmile_qr_scan"}, "is_reserved": 0}, {"bike_id": "de10729a4836e69f366fde19835fd12f", "name": "de10729a4836e69f366fde19835fd12f", "lat": 38.914175, "fusion_lat": 0.0, "type": "electric_scooter", "lon": -77.03213616666666, "is_disabled": 0, "fusion_lon": 0.0, "rental_uris": {"android": "https://dc.lft.to/lastmile_qr_scan", "ios": "https://dc.lft.to/lastmile_qr_scan"}, "is_reserved": 0}, {"bike_id": "8db3319ff88c2246f214d5a56a713cae", "name": "8db3319ff88c2246f214d5a56a713cae", "lat": 38.896218, "fusion_lat": 0.0, "type": "electric_scooter", "lon": -77.0163015, "is_disabled": 0, "fusion_lon": 0.0, "rental_uris": {"android": "https://dc.lft.to/lastmile_qr_scan", "ios": "https://dc.lft.to/lastmile_qr_scan"}, "is_reserved": 0}, {"bike_id": "a0ee1964ab8c794a672069aab6730369", "name": "a0ee1964ab8c794a672069aab6730369", "lat": 38.929505166666665, "fusion_lat": 0.0, "type": "electric_scooter", "lon": -77.03774033333333, "is_disabled": 0, "fusion_lon": 0.0, "rental_uris": {"android": "https://dc.lft.to/lastmile_qr_scan", "ios": "https://dc.lft.to/lastmile_qr_scan"}, "is_reserved": 0}, {"bike_id": "b9c76de0040520a26eb752ffe42d655b", "name": "b9c76de0040520a26eb752ffe42d655b", "lat": 38.90140666666667, "fusion_lat": 0.0, "type": "electric_scooter", "lon": -77.04652183333333, "is_disabled": 0, "fusion_lon": 0.0, "rental_uris": {"android": "https://dc.lft.to/lastmile_qr_scan", "ios": "https://dc.lft.to/lastmile_qr_scan"}, "is_reserved": 0}, {"bike_id": "043d2736a75890b5efb6c0666caf4562", "name": "043d2736a75890b5efb6c0666caf4562", "lat": 38.921629, "fusion_lat": 0.0, "type": "electric_scooter", "lon": -77.02095833333334, "is_disabled": 0, "fusion_lon": 0.0, "rental_uris": {"android": "https://dc.lft.to/lastmile_qr_scan", "ios": "https://dc.lft.to/lastmile_qr_scan"}, "is_reserved": 0}, {"bike_id": "dd4ec4051a0f1a35ed81d236876b9ffc", "name": "dd4ec4051a0f1a35ed81d236876b9ffc", "lat": 38.930379333333335, "fusion_lat": 0.0, "type": "electric_bike", "lon": -77.083064, "is_disabled": 0, "fusion_lon": 0.0, "rental_uris": {"android": "https://dc.lft.to/lastmile_qr_scan", "ios": "https://dc.lft.to/lastmile_qr_scan"}, "is_reserved": 0}, {"bike_id": "06477cb54acb53fd572b0f022b4bceba", "name": "06477cb54acb53fd572b0f022b4bceba", "lat": 38.917197333333334, "fusion_lat": 0.0, "type": "electric_scooter", "lon": -77.03172433333333, "is_disabled": 0, "fusion_lon": 0.0, "rental_uris": {"android": "https://dc.lft.to/lastmile_qr_scan", "ios": "https://dc.lft.to/lastmile_qr_scan"}, "is_reserved": 0}, {"bike_id": "6a34d51af141cbf6de56696dc3be7542", "name": "6a34d51af141cbf6de56696dc3be7542", "lat": 38.8993415, "fusion_lat": 0.0, "type": "electric_scooter", "lon": -77.027218, "is_disabled": 0, "fusion_lon": 0.0, "rental_uris": {"android": "https://dc.lft.to/lastmile_qr_scan", "ios": "https://dc.lft.to/lastmile_qr_scan"}, "is_reserved": 0}, {"bike_id": "d0824cb2622f9eff11e2c197d260ada0", "name": "d0824cb2622f9eff11e2c197d260ada0", "lat": 38.9112965, "fusion_lat": 0.0, "type": "electric_scooter", "lon": -77.04352033333333, "is_disabled": 0, "fusion_lon": 0.0, "rental_uris": {"android": "https://dc.lft.to/lastmile_qr_scan", "ios": "https://dc.lft.to/lastmile_qr_scan"}, "is_reserved": 0}, {"bike_id": "c0c35323743a70b7e714d7e3bbc0628c", "name": "c0c35323743a70b7e714d7e3bbc0628c", "lat": 38.89812, "fusion_lat": 0.0, "type": "electric_bike", "lon": -76.99058216666667, "is_disabled": 0, "fusion_lon": 0.0, "rental_uris": {"android": "https://dc.lft.to/lastmile_qr_scan", "ios": "https://dc.lft.to/lastmile_qr_scan"}, "is_reserved": 0}, {"bike_id": "a31050a827d6272f7871016f82986264", "name": "a31050a827d6272f7871016f82986264", "lat": 38.929779833333335, "fusion_lat": 0.0, "type": "electric_scooter", "lon": -77.02757033333333, "is_disabled": 0, "fusion_lon": 0.0, "rental_uris": {"android": "https://dc.lft.to/lastmile_qr_scan", "ios": "https://dc.lft.to/lastmile_qr_scan"}, "is_reserved": 0}, {"bike_id": "57e21d28c56c3217960d4fd608cb1461", "name": "57e21d28c56c3217960d4fd608cb1461", "lat": 38.897938333333336, "fusion_lat": 0.0, "type": "electric_scooter", "lon": -77.00916483333333, "is_disabled": 0, "fusion_lon": 0.0, "rental_uris": {"android": "https://dc.lft.to/lastmile_qr_scan", "ios": "https://dc.lft.to/lastmile_qr_scan"}, "is_reserved": 0}, {"bike_id": "2661a9695dd27dd2035479c77ee0e629", "name": "2661a9695dd27dd2035479c77ee0e629", "lat": 38.903437333333336, "fusion_lat": 0.0, "type": "electric_scooter", "lon": -77.02589616666667, "is_disabled": 0, "fusion_lon": 0.0, "rental_uris": {"android": "https://dc.lft.to/lastmile_qr_scan", "ios": "https://dc.lft.to/lastmile_qr_scan"}, "is_reserved": 0}, {"bike_id": "a7080d11f2b55036a14165360eb321cb", "name": "a7080d11f2b55036a14165360eb321cb", "lat": 38.911991, "fusion_lat": 0.0, "type": "electric_scooter", "lon": -77.00726266666666, "is_disabled": 0, "fusion_lon": 0.0, "rental_uris": {"android": "https://dc.lft.to/lastmile_qr_scan", "ios": "https://dc.lft.to/lastmile_qr_scan"}, "is_reserved": 0}, {"bike_id": "c300fa420650bd366cdafb16c95bc3c1", "name": "c300fa420650bd366cdafb16c95bc3c1", "lat": 38.8956165, "fusion_lat": 0.0, "type": "electric_scooter", "lon": -77.011172, "is_disabled": 0, "fusion_lon": 0.0, "rental_uris": {"android": "https://dc.lft.to/lastmile_qr_scan", "ios": "https://dc.lft.to/lastmile_qr_scan"}, "is_reserved": 0}, {"bike_id": "b3fc23e74c5f75c7a48723ac027fb0e7", "name": "b3fc23e74c5f75c7a48723ac027fb0e7", "lat": 38.877094166666666, "fusion_lat": 0.0, "type": "electric_scooter", "lon": -77.01731066666666, "is_disabled": 0, "fusion_lon": 0.0, "rental_uris": {"android": "https://dc.lft.to/lastmile_qr_scan", "ios": "https://dc.lft.to/lastmile_qr_scan"}, "is_reserved": 0}, {"bike_id": "f0e0d3fd00ca5a7b6d97a0166c51da09", "name": "f0e0d3fd00ca5a7b6d97a0166c51da09", "lat": 38.9111305, "fusion_lat": 0.0, "type": "electric_scooter", "lon": -77.0383235, "is_disabled": 0, "fusion_lon": 0.0, "rental_uris": {"android": "https://dc.lft.to/lastmile_qr_scan", "ios": "https://dc.lft.to/lastmile_qr_scan"}, "is_reserved": 0}, {"bike_id": "384c8054cef7ac6e72fee76329ce9357", "name": "384c8054cef7ac6e72fee76329ce9357", "lat": 38.9038225, "fusion_lat": 0.0, "type": "electric_scooter", "lon": -77.06858266666667, "is_disabled": 0, "fusion_lon": 0.0, "rental_uris": {"android": "https://dc.lft.to/lastmile_qr_scan", "ios": "https://dc.lft.to/lastmile_qr_scan"}, "is_reserved": 0}, {"bike_id": "5b79a14e169e367571dc2634614982e3", "name": "5b79a14e169e367571dc2634614982e3", "lat": 38.886360333333336, "fusion_lat": 0.0, "type": "electric_scooter", "lon": -77.012873, "is_disabled": 0, "fusion_lon": 0.0, "rental_uris": {"android": "https://dc.lft.to/lastmile_qr_scan", "ios": "https://dc.lft.to/lastmile_qr_scan"}, "is_reserved": 0}, {"bike_id": "1655867207114ac5bfd67558c25e67e2", "name": "1655867207114ac5bfd67558c25e67e2", "lat": 38.8950355, "fusion_lat": 0.0, "type": "electric_scooter", "lon": -77.04640016666667, "is_disabled": 0, "fusion_lon": 0.0, "rental_uris": {"android": "https://dc.lft.to/lastmile_qr_scan", "ios": "https://dc.lft.to/lastmile_qr_scan"}, "is_reserved": 0}, {"bike_id": "99511dc4ddf061dbdc79717aeca81d87", "name": "99511dc4ddf061dbdc79717aeca81d87", "lat": 38.900661166666666, "fusion_lat": 0.0, "type": "electric_scooter", "lon": -77.045348, "is_disabled": 0, "fusion_lon": 0.0, "rental_uris": {"android": "https://dc.lft.to/lastmile_qr_scan", "ios": "https://dc.lft.to/lastmile_qr_scan"}, "is_reserved": 0}, {"bike_id": "af41620ad4e01ecf671ebf7e03a4ac1b", "name": "af41620ad4e01ecf671ebf7e03a4ac1b", "lat": 38.9014175, "fusion_lat": 0.0, "type": "electric_scooter", "lon": -77.041807, "is_disabled": 0, "fusion_lon": 0.0, "rental_uris": {"android": "https://dc.lft.to/lastmile_qr_scan", "ios": "https://dc.lft.to/lastmile_qr_scan"}, "is_reserved": 0}, {"bike_id": "39ae1ec09a9d453b4cf11f8dba372537", "name": "39ae1ec09a9d453b4cf11f8dba372537", "lat": 38.92378683333333, "fusion_lat": 0.0, "type": "electric_scooter", "lon": -77.01917333333333, "is_disabled": 0, "fusion_lon": 0.0, "rental_uris": {"android": "https://dc.lft.to/lastmile_qr_scan", "ios": "https://dc.lft.to/lastmile_qr_scan"}, "is_reserved": 0}, {"bike_id": "f335273f3e3355a8a58088d754b2322c", "name": "f335273f3e3355a8a58088d754b2322c", "lat": 38.898794, "fusion_lat": 0.0, "type": "electric_scooter", "lon": -77.00829866666666, "is_disabled": 0, "fusion_lon": 0.0, "rental_uris": {"android": "https://dc.lft.to/lastmile_qr_scan", "ios": "https://dc.lft.to/lastmile_qr_scan"}, "is_reserved": 0}, {"bike_id": "81926cfa32e389a4500cfe1a90416b34", "name": "81926cfa32e389a4500cfe1a90416b34", "lat": 38.92724166666667, "fusion_lat": 0.0, "type": "electric_scooter", "lon": -77.016371, "is_disabled": 0, "fusion_lon": 0.0, "rental_uris": {"android": "https://dc.lft.to/lastmile_qr_scan", "ios": "https://dc.lft.to/lastmile_qr_scan"}, "is_reserved": 0}, {"bike_id": "8638821428390e617f4544dd4a183831", "name": "8638821428390e617f4544dd4a183831", "lat": 38.907846166666666, "fusion_lat": 0.0, "type": "electric_scooter", "lon": -77.04516833333334, "is_disabled": 0, "fusion_lon": 0.0, "rental_uris": {"android": "https://dc.lft.to/lastmile_qr_scan", "ios": "https://dc.lft.to/lastmile_qr_scan"}, "is_reserved": 0}, {"bike_id": "5f6a63d0480e6fa37eb2d361c2f97357", "name": "5f6a63d0480e6fa37eb2d361c2f97357", "lat": 38.920454166666666, "fusion_lat": 0.0, "type": "electric_scooter", "lon": -77.01679433333334, "is_disabled": 0, "fusion_lon": 0.0, "rental_uris": {"android": "https://dc.lft.to/lastmile_qr_scan", "ios": "https://dc.lft.to/lastmile_qr_scan"}, "is_reserved": 0}, {"bike_id": "aa3ea7faa63ebfee9aab064d5e5c4352", "name": "aa3ea7faa63ebfee9aab064d5e5c4352", "lat": 38.898417, "fusion_lat": 0.0, "type": "electric_scooter", "lon": -77.03243116666667, "is_disabled": 0, "fusion_lon": 0.0, "rental_uris": {"android": "https://dc.lft.to/lastmile_qr_scan", "ios": "https://dc.lft.to/lastmile_qr_scan"}, "is_reserved": 0}, {"bike_id": "d81418d76e77140209790e42bed64421", "name": "d81418d76e77140209790e42bed64421", "lat": 38.89607983333333, "fusion_lat": 0.0, "type": "electric_scooter", "lon": -77.00526766666667, "is_disabled": 0, "fusion_lon": 0.0, "rental_uris": {"android": "https://dc.lft.to/lastmile_qr_scan", "ios": "https://dc.lft.to/lastmile_qr_scan"}, "is_reserved": 0}, {"bike_id": "d05847142f1934c370b6a3392229643f", "name": "d05847142f1934c370b6a3392229643f", "lat": 38.9082985, "fusion_lat": 0.0, "type": "electric_scooter", "lon": -77.0320235, "is_disabled": 0, "fusion_lon": 0.0, "rental_uris": {"android": "https://dc.lft.to/lastmile_qr_scan", "ios": "https://dc.lft.to/lastmile_qr_scan"}, "is_reserved": 0}, {"bike_id": "335d16efeafd1be8a9765175cfb8dae6", "name": "335d16efeafd1be8a9765175cfb8dae6", "lat": 38.91833416666667, "fusion_lat": 0.0, "type": "electric_scooter", "lon": -77.02715016666667, "is_disabled": 0, "fusion_lon": 0.0, "rental_uris": {"android": "https://dc.lft.to/lastmile_qr_scan", "ios": "https://dc.lft.to/lastmile_qr_scan"}, "is_reserved": 0}, {"bike_id": "9fc51fb0d0f579f48cf01557120d043d", "name": "9fc51fb0d0f579f48cf01557120d043d", "lat": 38.97506416666667, "fusion_lat": 0.0, "type": "electric_scooter", "lon": -77.01698316666666, "is_disabled": 0, "fusion_lon": 0.0, "rental_uris": {"android": "https://dc.lft.to/lastmile_qr_scan", "ios": "https://dc.lft.to/lastmile_qr_scan"}, "is_reserved": 0}, {"bike_id": "f4966cb86d381a87cd3549a8d2182c24", "name": "f4966cb86d381a87cd3549a8d2182c24", "lat": 38.91475066666667, "fusion_lat": 0.0, "type": "electric_scooter", "lon": -77.03215783333333, "is_disabled": 0, "fusion_lon": 0.0, "rental_uris": {"android": "https://dc.lft.to/lastmile_qr_scan", "ios": "https://dc.lft.to/lastmile_qr_scan"}, "is_reserved": 0}, {"bike_id": "68182e2e164b24021689491a9f41edc4", "name": "68182e2e164b24021689491a9f41edc4", "lat": 38.92611, "fusion_lat": 0.0, "type": "electric_scooter", "lon": -77.02156966666666, "is_disabled": 0, "fusion_lon": 0.0, "rental_uris": {"android": "https://dc.lft.to/lastmile_qr_scan", "ios": "https://dc.lft.to/lastmile_qr_scan"}, "is_reserved": 0}, {"bike_id": "d5ff1549272a233c63e28207122573bc", "name": "d5ff1549272a233c63e28207122573bc", "lat": 38.893587833333335, "fusion_lat": 0.0, "type": "electric_scooter", "lon": -77.00339483333333, "is_disabled": 0, "fusion_lon": 0.0, "rental_uris": {"android": "https://dc.lft.to/lastmile_qr_scan", "ios": "https://dc.lft.to/lastmile_qr_scan"}, "is_reserved": 0}, {"bike_id": "cfc3a14afbc5eeddb829c75363caf475", "name": "cfc3a14afbc5eeddb829c75363caf475", "lat": 38.933603, "fusion_lat": 0.0, "type": "electric_scooter", "lon": -77.02405766666666, "is_disabled": 0, "fusion_lon": 0.0, "rental_uris": {"android": "https://dc.lft.to/lastmile_qr_scan", "ios": "https://dc.lft.to/lastmile_qr_scan"}, "is_reserved": 0}, {"bike_id": "54b8d50bd49e2b878ad02913df73951d", "name": "54b8d50bd49e2b878ad02913df73951d", "lat": 38.936349166666666, "fusion_lat": 0.0, "type": "electric_scooter", "lon": -77.064811, "is_disabled": 0, "fusion_lon": 0.0, "rental_uris": {"android": "https://dc.lft.to/lastmile_qr_scan", "ios": "https://dc.lft.to/lastmile_qr_scan"}, "is_reserved": 0}, {"bike_id": "7e1c54fd3c940765051a4463d143a44f", "name": "7e1c54fd3c940765051a4463d143a44f", "lat": 38.90852366666667, "fusion_lat": 0.0, "type": "electric_scooter", "lon": -77.0572825, "is_disabled": 0, "fusion_lon": 0.0, "rental_uris": {"android": "https://dc.lft.to/lastmile_qr_scan", "ios": "https://dc.lft.to/lastmile_qr_scan"}, "is_reserved": 0}, {"bike_id": "411b6e87aaf10ad69400f775f264a02b", "name": "411b6e87aaf10ad69400f775f264a02b", "lat": 38.898366, "fusion_lat": 0.0, "type": "electric_scooter", "lon": -77.0482765, "is_disabled": 0, "fusion_lon": 0.0, "rental_uris": {"android": "https://dc.lft.to/lastmile_qr_scan", "ios": "https://dc.lft.to/lastmile_qr_scan"}, "is_reserved": 0}, {"bike_id": "64d7d3c2a65f72a6a2a11ed66c0cffcb", "name": "64d7d3c2a65f72a6a2a11ed66c0cffcb", "lat": 38.94517066666667, "fusion_lat": 0.0, "type": "electric_scooter", "lon": -77.06398366666667, "is_disabled": 0, "fusion_lon": 0.0, "rental_uris": {"android": "https://dc.lft.to/lastmile_qr_scan", "ios": "https://dc.lft.to/lastmile_qr_scan"}, "is_reserved": 0}, {"bike_id": "fdc9d4cddf678cc5bd2ad2c4790e2fc5", "name": "fdc9d4cddf678cc5bd2ad2c4790e2fc5", "lat": 38.89520866666667, "fusion_lat": 0.0, "type": "electric_scooter", "lon": -76.992145, "is_disabled": 0, "fusion_lon": 0.0, "rental_uris": {"android": "https://dc.lft.to/lastmile_qr_scan", "ios": "https://dc.lft.to/lastmile_qr_scan"}, "is_reserved": 0}, {"bike_id": "d47cce3908984dc68ecf0b92a74cbed8", "name": "d47cce3908984dc68ecf0b92a74cbed8", "lat": 38.89233466666667, "fusion_lat": 0.0, "type": "electric_scooter", "lon": -77.01768366666667, "is_disabled": 0, "fusion_lon": 0.0, "rental_uris": {"android": "https://dc.lft.to/lastmile_qr_scan", "ios": "https://dc.lft.to/lastmile_qr_scan"}, "is_reserved": 0}, {"bike_id": "f827fd879e0c1bcc7a1741ef8d5b96bf", "name": "f827fd879e0c1bcc7a1741ef8d5b96bf", "lat": 38.905137333333336, "fusion_lat": 0.0, "type": "electric_scooter", "lon": -77.06360783333334, "is_disabled": 0, "fusion_lon": 0.0, "rental_uris": {"android": "https://dc.lft.to/lastmile_qr_scan", "ios": "https://dc.lft.to/lastmile_qr_scan"}, "is_reserved": 0}, {"bike_id": "916499195e23c83a04e8c71ae0f51eee", "name": "916499195e23c83a04e8c71ae0f51eee", "lat": 38.9172365, "fusion_lat": 0.0, "type": "electric_scooter", "lon": -77.02977283333334, "is_disabled": 0, "fusion_lon": 0.0, "rental_uris": {"android": "https://dc.lft.to/lastmile_qr_scan", "ios": "https://dc.lft.to/lastmile_qr_scan"}, "is_reserved": 0}, {"bike_id": "f9d91bb8d1c58afa8f735c555337dedb", "name": "f9d91bb8d1c58afa8f735c555337dedb", "lat": 38.91077, "fusion_lat": 0.0, "type": "electric_scooter", "lon": -77.03846466666667, "is_disabled": 0, "fusion_lon": 0.0, "rental_uris": {"android": "https://dc.lft.to/lastmile_qr_scan", "ios": "https://dc.lft.to/lastmile_qr_scan"}, "is_reserved": 0}, {"bike_id": "ce5830d9228bde23a9f7f9ee3cb08edd", "name": "ce5830d9228bde23a9f7f9ee3cb08edd", "lat": 38.915616, "fusion_lat": 0.0, "type": "electric_bike", "lon": -77.09492183333333, "is_disabled": 0, "fusion_lon": 0.0, "rental_uris": {"android": "https://dc.lft.to/lastmile_qr_scan", "ios": "https://dc.lft.to/lastmile_qr_scan"}, "is_reserved": 0}, {"bike_id": "22473909a2f40cc11f8593806d5f3d82", "name": "22473909a2f40cc11f8593806d5f3d82", "lat": 38.90012083333333, "fusion_lat": 0.0, "type": "electric_scooter", "lon": -77.025966, "is_disabled": 0, "fusion_lon": 0.0, "rental_uris": {"android": "https://dc.lft.to/lastmile_qr_scan", "ios": "https://dc.lft.to/lastmile_qr_scan"}, "is_reserved": 0}, {"bike_id": "60149ce0061813325cd33e8f69f15107", "name": "60149ce0061813325cd33e8f69f15107", "lat": 38.88745083333333, "fusion_lat": 0.0, "type": "electric_scooter", "lon": -76.983578, "is_disabled": 0, "fusion_lon": 0.0, "rental_uris": {"android": "https://dc.lft.to/lastmile_qr_scan", "ios": "https://dc.lft.to/lastmile_qr_scan"}, "is_reserved": 0}, {"bike_id": "e5d6fa72af9b7f0474e27cf90859564a", "name": "e5d6fa72af9b7f0474e27cf90859564a", "lat": 38.927555166666664, "fusion_lat": 0.0, "type": "electric_scooter", "lon": -77.02432416666667, "is_disabled": 0, "fusion_lon": 0.0, "rental_uris": {"android": "https://dc.lft.to/lastmile_qr_scan", "ios": "https://dc.lft.to/lastmile_qr_scan"}, "is_reserved": 0}, {"bike_id": "53aeb51f69e773da05b617a7368678b5", "name": "53aeb51f69e773da05b617a7368678b5", "lat": 38.905804, "fusion_lat": 0.0, "type": "electric_scooter", "lon": -76.98432083333333, "is_disabled": 0, "fusion_lon": 0.0, "rental_uris": {"android": "https://dc.lft.to/lastmile_qr_scan", "ios": "https://dc.lft.to/lastmile_qr_scan"}, "is_reserved": 0}, {"bike_id": "870542b13b0fb900e32911b966c506e1", "name": "870542b13b0fb900e32911b966c506e1", "lat": 38.927940166666666, "fusion_lat": 0.0, "type": "electric_scooter", "lon": -77.05333033333334, "is_disabled": 0, "fusion_lon": 0.0, "rental_uris": {"android": "https://dc.lft.to/lastmile_qr_scan", "ios": "https://dc.lft.to/lastmile_qr_scan"}, "is_reserved": 0}, {"bike_id": "0f0377789f8426fff1e823d7787d2f75", "name": "0f0377789f8426fff1e823d7787d2f75", "lat": 38.93262516666667, "fusion_lat": 0.0, "type": "electric_scooter", "lon": -77.03266733333334, "is_disabled": 0, "fusion_lon": 0.0, "rental_uris": {"android": "https://dc.lft.to/lastmile_qr_scan", "ios": "https://dc.lft.to/lastmile_qr_scan"}, "is_reserved": 0}, {"bike_id": "d98a775db9d95f62ab753444bcd5fdb6", "name": "d98a775db9d95f62ab753444bcd5fdb6", "lat": 38.924241333333335, "fusion_lat": 0.0, "type": "electric_scooter", "lon": -77.02009433333333, "is_disabled": 0, "fusion_lon": 0.0, "rental_uris": {"android": "https://dc.lft.to/lastmile_qr_scan", "ios": "https://dc.lft.to/lastmile_qr_scan"}, "is_reserved": 0}, {"bike_id": "37d3d58128fe76a68bec7325ab93ad7d", "name": "37d3d58128fe76a68bec7325ab93ad7d", "lat": 38.90241966666667, "fusion_lat": 0.0, "type": "electric_scooter", "lon": -77.026911, "is_disabled": 0, "fusion_lon": 0.0, "rental_uris": {"android": "https://dc.lft.to/lastmile_qr_scan", "ios": "https://dc.lft.to/lastmile_qr_scan"}, "is_reserved": 0}, {"bike_id": "408e21e91387f2220be5753463c82616", "name": "408e21e91387f2220be5753463c82616", "lat": 38.924954666666665, "fusion_lat": 0.0, "type": "electric_scooter", "lon": -77.03934316666667, "is_disabled": 0, "fusion_lon": 0.0, "rental_uris": {"android": "https://dc.lft.to/lastmile_qr_scan", "ios": "https://dc.lft.to/lastmile_qr_scan"}, "is_reserved": 0}, {"bike_id": "c3f41c5a8bf4b57a49f4fff26164ef78", "name": "c3f41c5a8bf4b57a49f4fff26164ef78", "lat": 38.858424666666664, "fusion_lat": 0.0, "type": "electric_bike", "lon": -77.11480533333334, "is_disabled": 0, "fusion_lon": 0.0, "rental_uris": {"android": "https://dc.lft.to/lastmile_qr_scan", "ios": "https://dc.lft.to/lastmile_qr_scan"}, "is_reserved": 0}, {"bike_id": "ebd690db05075c6f5a53ae9ba53f0d87", "name": "ebd690db05075c6f5a53ae9ba53f0d87", "lat": 38.9468615, "fusion_lat": 0.0, "type": "electric_scooter", "lon": -77.06519233333333, "is_disabled": 0, "fusion_lon": 0.0, "rental_uris": {"android": "https://dc.lft.to/lastmile_qr_scan", "ios": "https://dc.lft.to/lastmile_qr_scan"}, "is_reserved": 0}, {"bike_id": "242cc401bf3dbf91b08d1237344b3bed", "name": "242cc401bf3dbf91b08d1237344b3bed", "lat": 38.92144866666667, "fusion_lat": 0.0, "type": "electric_scooter", "lon": -77.01832533333334, "is_disabled": 0, "fusion_lon": 0.0, "rental_uris": {"android": "https://dc.lft.to/lastmile_qr_scan", "ios": "https://dc.lft.to/lastmile_qr_scan"}, "is_reserved": 0}, {"bike_id": "84daca251230ad8675284e090bddaf57", "name": "84daca251230ad8675284e090bddaf57", "lat": 38.92276433333333, "fusion_lat": 0.0, "type": "electric_scooter", "lon": -77.0212635, "is_disabled": 0, "fusion_lon": 0.0, "rental_uris": {"android": "https://dc.lft.to/lastmile_qr_scan", "ios": "https://dc.lft.to/lastmile_qr_scan"}, "is_reserved": 0}, {"bike_id": "47ec44d1729eaacd35a4576f8b791dc7", "name": "47ec44d1729eaacd35a4576f8b791dc7", "lat": 38.907472166666665, "fusion_lat": 0.0, "type": "electric_scooter", "lon": -77.0320675, "is_disabled": 0, "fusion_lon": 0.0, "rental_uris": {"android": "https://dc.lft.to/lastmile_qr_scan", "ios": "https://dc.lft.to/lastmile_qr_scan"}, "is_reserved": 0}, {"bike_id": "3a73686d0c04d7206ec7b202f2ebeca8", "name": "3a73686d0c04d7206ec7b202f2ebeca8", "lat": 38.927562333333334, "fusion_lat": 0.0, "type": "electric_scooter", "lon": -77.03308483333333, "is_disabled": 0, "fusion_lon": 0.0, "rental_uris": {"android": "https://dc.lft.to/lastmile_qr_scan", "ios": "https://dc.lft.to/lastmile_qr_scan"}, "is_reserved": 0}, {"bike_id": "c49a7551117df59e69a3324a9b5f6376", "name": "c49a7551117df59e69a3324a9b5f6376", "lat": 38.9054095, "fusion_lat": 0.0, "type": "electric_scooter", "lon": -77.05657383333333, "is_disabled": 0, "fusion_lon": 0.0, "rental_uris": {"android": "https://dc.lft.to/lastmile_qr_scan", "ios": "https://dc.lft.to/lastmile_qr_scan"}, "is_reserved": 0}, {"bike_id": "da2f7b800ea7aa5095d78888bde9130b", "name": "da2f7b800ea7aa5095d78888bde9130b", "lat": 38.901894166666665, "fusion_lat": 0.0, "type": "electric_scooter", "lon": -76.93004983333333, "is_disabled": 0, "fusion_lon": 0.0, "rental_uris": {"android": "https://dc.lft.to/lastmile_qr_scan", "ios": "https://dc.lft.to/lastmile_qr_scan"}, "is_reserved": 0}, {"bike_id": "946bb64f0dd1dd88a34175825c5c1c7d", "name": "946bb64f0dd1dd88a34175825c5c1c7d", "lat": 38.926755166666666, "fusion_lat": 0.0, "type": "electric_scooter", "lon": -77.0230565, "is_disabled": 0, "fusion_lon": 0.0, "rental_uris": {"android": "https://dc.lft.to/lastmile_qr_scan", "ios": "https://dc.lft.to/lastmile_qr_scan"}, "is_reserved": 0}, {"bike_id": "a5577c3fb49ad87524e038f1185af3ff", "name": "a5577c3fb49ad87524e038f1185af3ff", "lat": 38.898841, "fusion_lat": 0.0, "type": "electric_scooter", "lon": -76.99612833333333, "is_disabled": 0, "fusion_lon": 0.0, "rental_uris": {"android": "https://dc.lft.to/lastmile_qr_scan", "ios": "https://dc.lft.to/lastmile_qr_scan"}, "is_reserved": 0}, {"bike_id": "04456d58dca58c809144ff2a4bfd082d", "name": "04456d58dca58c809144ff2a4bfd082d", "lat": 38.86535333333333, "fusion_lat": 0.0, "type": "electric_scooter", "lon": -76.9745825, "is_disabled": 0, "fusion_lon": 0.0, "rental_uris": {"android": "https://dc.lft.to/lastmile_qr_scan", "ios": "https://dc.lft.to/lastmile_qr_scan"}, "is_reserved": 0}, {"bike_id": "322ba150e6370dafe768272938213a2a", "name": "322ba150e6370dafe768272938213a2a", "lat": 38.9226295, "fusion_lat": 0.0, "type": "electric_scooter", "lon": -77.04697183333333, "is_disabled": 0, "fusion_lon": 0.0, "rental_uris": {"android": "https://dc.lft.to/lastmile_qr_scan", "ios": "https://dc.lft.to/lastmile_qr_scan"}, "is_reserved": 0}, {"bike_id": "c068e9c66c74c99b61fa9eb9d2c438b1", "name": "c068e9c66c74c99b61fa9eb9d2c438b1", "lat": 38.9249005, "fusion_lat": 0.0, "type": "electric_scooter", "lon": -77.0213715, "is_disabled": 0, "fusion_lon": 0.0, "rental_uris": {"android": "https://dc.lft.to/lastmile_qr_scan", "ios": "https://dc.lft.to/lastmile_qr_scan"}, "is_reserved": 0}, {"bike_id": "131a2d7197aefc9df6597d1c294f2a6b", "name": "131a2d7197aefc9df6597d1c294f2a6b", "lat": 38.92682666666666, "fusion_lat": 0.0, "type": "electric_scooter", "lon": -77.03117733333333, "is_disabled": 0, "fusion_lon": 0.0, "rental_uris": {"android": "https://dc.lft.to/lastmile_qr_scan", "ios": "https://dc.lft.to/lastmile_qr_scan"}, "is_reserved": 0}, {"bike_id": "2472c88b81c2865d50c31a120cefe901", "name": "2472c88b81c2865d50c31a120cefe901", "lat": 38.927288833333336, "fusion_lat": 0.0, "type": "electric_scooter", "lon": -77.023099, "is_disabled": 0, "fusion_lon": 0.0, "rental_uris": {"android": "https://dc.lft.to/lastmile_qr_scan", "ios": "https://dc.lft.to/lastmile_qr_scan"}, "is_reserved": 0}, {"bike_id": "7894a3cfa11f0d5a569773f6fcf05737", "name": "7894a3cfa11f0d5a569773f6fcf05737", "lat": 38.88383683333333, "fusion_lat": 0.0, "type": "electric_scooter", "lon": -76.99361016666667, "is_disabled": 0, "fusion_lon": 0.0, "rental_uris": {"android": "https://dc.lft.to/lastmile_qr_scan", "ios": "https://dc.lft.to/lastmile_qr_scan"}, "is_reserved": 0}, {"bike_id": "9fb83bf14a051ecde01ab00b6e6c439e", "name": "9fb83bf14a051ecde01ab00b6e6c439e", "lat": 38.90521966666667, "fusion_lat": 0.0, "type": "electric_scooter", "lon": -77.066161, "is_disabled": 0, "fusion_lon": 0.0, "rental_uris": {"android": "https://dc.lft.to/lastmile_qr_scan", "ios": "https://dc.lft.to/lastmile_qr_scan"}, "is_reserved": 0}, {"bike_id": "ed06c76535885f62068ec74ef2650d53", "name": "ed06c76535885f62068ec74ef2650d53", "lat": 38.9133995, "fusion_lat": 0.0, "type": "electric_scooter", "lon": -77.03206716666666, "is_disabled": 0, "fusion_lon": 0.0, "rental_uris": {"android": "https://dc.lft.to/lastmile_qr_scan", "ios": "https://dc.lft.to/lastmile_qr_scan"}, "is_reserved": 0}, {"bike_id": "2c63365ad8ce52f4bbd6c1808992cfb1", "name": "2c63365ad8ce52f4bbd6c1808992cfb1", "lat": 38.917110666666666, "fusion_lat": 0.0, "type": "electric_scooter", "lon": -77.029862, "is_disabled": 0, "fusion_lon": 0.0, "rental_uris": {"android": "https://dc.lft.to/lastmile_qr_scan", "ios": "https://dc.lft.to/lastmile_qr_scan"}, "is_reserved": 0}, {"bike_id": "e0abf5456e740e50377f76c86a4294f3", "name": "e0abf5456e740e50377f76c86a4294f3", "lat": 38.900119, "fusion_lat": 0.0, "type": "electric_scooter", "lon": -77.0466445, "is_disabled": 0, "fusion_lon": 0.0, "rental_uris": {"android": "https://dc.lft.to/lastmile_qr_scan", "ios": "https://dc.lft.to/lastmile_qr_scan"}, "is_reserved": 0}, {"bike_id": "98af00749e5ec24a8301606f3c250e19", "name": "98af00749e5ec24a8301606f3c250e19", "lat": 38.88375533333333, "fusion_lat": 0.0, "type": "electric_scooter", "lon": -76.92421483333334, "is_disabled": 0, "fusion_lon": 0.0, "rental_uris": {"android": "https://dc.lft.to/lastmile_qr_scan", "ios": "https://dc.lft.to/lastmile_qr_scan"}, "is_reserved": 0}, {"bike_id": "f5ee9112759c1727b0f3fa840d7f68e3", "name": "f5ee9112759c1727b0f3fa840d7f68e3", "lat": 38.899681, "fusion_lat": 0.0, "type": "electric_scooter", "lon": -76.93852316666667, "is_disabled": 0, "fusion_lon": 0.0, "rental_uris": {"android": "https://dc.lft.to/lastmile_qr_scan", "ios": "https://dc.lft.to/lastmile_qr_scan"}, "is_reserved": 0}, {"bike_id": "88519cf0ea2b8a1e1bb2efedf0d16dfa", "name": "88519cf0ea2b8a1e1bb2efedf0d16dfa", "lat": 38.92351633333333, "fusion_lat": 0.0, "type": "electric_scooter", "lon": -77.0494855, "is_disabled": 0, "fusion_lon": 0.0, "rental_uris": {"android": "https://dc.lft.to/lastmile_qr_scan", "ios": "https://dc.lft.to/lastmile_qr_scan"}, "is_reserved": 0}, {"bike_id": "1f7ddaf201e1a5071bbfc296689cf48d", "name": "1f7ddaf201e1a5071bbfc296689cf48d", "lat": 38.8923645, "fusion_lat": 0.0, "type": "electric_scooter", "lon": -77.0489305, "is_disabled": 0, "fusion_lon": 0.0, "rental_uris": {"android": "https://dc.lft.to/lastmile_qr_scan", "ios": "https://dc.lft.to/lastmile_qr_scan"}, "is_reserved": 0}, {"bike_id": "c8fc656b3f28672a546482f5b6b6b735", "name": "c8fc656b3f28672a546482f5b6b6b735", "lat": 38.87342666666667, "fusion_lat": 0.0, "type": "electric_scooter", "lon": -76.991668, "is_disabled": 0, "fusion_lon": 0.0, "rental_uris": {"android": "https://dc.lft.to/lastmile_qr_scan", "ios": "https://dc.lft.to/lastmile_qr_scan"}, "is_reserved": 0}, {"bike_id": "15aff9e6990b3a75466c70f9167812d4", "name": "15aff9e6990b3a75466c70f9167812d4", "lat": 38.91569783333333, "fusion_lat": 0.0, "type": "electric_scooter", "lon": -77.036582, "is_disabled": 0, "fusion_lon": 0.0, "rental_uris": {"android": "https://dc.lft.to/lastmile_qr_scan", "ios": "https://dc.lft.to/lastmile_qr_scan"}, "is_reserved": 0}, {"bike_id": "c29eb1c48205ddf55d24454003ab48d0", "name": "c29eb1c48205ddf55d24454003ab48d0", "lat": 38.90083216666667, "fusion_lat": 0.0, "type": "electric_scooter", "lon": -77.01330683333333, "is_disabled": 0, "fusion_lon": 0.0, "rental_uris": {"android": "https://dc.lft.to/lastmile_qr_scan", "ios": "https://dc.lft.to/lastmile_qr_scan"}, "is_reserved": 0}, {"bike_id": "e6609ac8c70302d143f55b0e1bc22978", "name": "e6609ac8c70302d143f55b0e1bc22978", "lat": 38.8788535, "fusion_lat": 0.0, "type": "electric_scooter", "lon": -77.0229145, "is_disabled": 0, "fusion_lon": 0.0, "rental_uris": {"android": "https://dc.lft.to/lastmile_qr_scan", "ios": "https://dc.lft.to/lastmile_qr_scan"}, "is_reserved": 0}, {"bike_id": "30ed24c712d98a5372d59b4497f3483f", "name": "30ed24c712d98a5372d59b4497f3483f", "lat": 38.894294, "fusion_lat": 0.0, "type": "electric_scooter", "lon": -77.02099616666666, "is_disabled": 0, "fusion_lon": 0.0, "rental_uris": {"android": "https://dc.lft.to/lastmile_qr_scan", "ios": "https://dc.lft.to/lastmile_qr_scan"}, "is_reserved": 0}, {"bike_id": "38be3bf9448673a099cdc99dfd4aef96", "name": "38be3bf9448673a099cdc99dfd4aef96", "lat": 38.8923305, "fusion_lat": 0.0, "type": "electric_scooter", "lon": -77.05001666666666, "is_disabled": 0, "fusion_lon": 0.0, "rental_uris": {"android": "https://dc.lft.to/lastmile_qr_scan", "ios": "https://dc.lft.to/lastmile_qr_scan"}, "is_reserved": 0}, {"bike_id": "0a6db949ece3a27e41ea012b7d27740c", "name": "0a6db949ece3a27e41ea012b7d27740c", "lat": 38.9043865, "fusion_lat": 0.0, "type": "electric_scooter", "lon": -77.02589833333333, "is_disabled": 0, "fusion_lon": 0.0, "rental_uris": {"android": "https://dc.lft.to/lastmile_qr_scan", "ios": "https://dc.lft.to/lastmile_qr_scan"}, "is_reserved": 0}, {"bike_id": "92173f6fbb62df0f8bf60f093d420c8a", "name": "92173f6fbb62df0f8bf60f093d420c8a", "lat": 38.929500833333336, "fusion_lat": 0.0, "type": "electric_scooter", "lon": -77.00405833333333, "is_disabled": 0, "fusion_lon": 0.0, "rental_uris": {"android": "https://dc.lft.to/lastmile_qr_scan", "ios": "https://dc.lft.to/lastmile_qr_scan"}, "is_reserved": 0}, {"bike_id": "fea254ed156b1e159d1cbf99ef6040e3", "name": "fea254ed156b1e159d1cbf99ef6040e3", "lat": 38.899013, "fusion_lat": 0.0, "type": "electric_scooter", "lon": -77.03341116666667, "is_disabled": 0, "fusion_lon": 0.0, "rental_uris": {"android": "https://dc.lft.to/lastmile_qr_scan", "ios": "https://dc.lft.to/lastmile_qr_scan"}, "is_reserved": 0}, {"bike_id": "14905ea7093b603c8b472b563b8a4c3b", "name": "14905ea7093b603c8b472b563b8a4c3b", "lat": 38.8838925, "fusion_lat": 0.0, "type": "electric_scooter", "lon": -77.03030416666667, "is_disabled": 0, "fusion_lon": 0.0, "rental_uris": {"android": "https://dc.lft.to/lastmile_qr_scan", "ios": "https://dc.lft.to/lastmile_qr_scan"}, "is_reserved": 0}, {"bike_id": "d21222e09dc627bd9382cbaa51330351", "name": "d21222e09dc627bd9382cbaa51330351", "lat": 38.91331566666667, "fusion_lat": 0.0, "type": "electric_scooter", "lon": -77.01149816666667, "is_disabled": 0, "fusion_lon": 0.0, "rental_uris": {"android": "https://dc.lft.to/lastmile_qr_scan", "ios": "https://dc.lft.to/lastmile_qr_scan"}, "is_reserved": 0}, {"bike_id": "1962090b47ec931ae8a74696e95275cf", "name": "1962090b47ec931ae8a74696e95275cf", "lat": 38.904708, "fusion_lat": 0.0, "type": "electric_scooter", "lon": -77.03563633333333, "is_disabled": 0, "fusion_lon": 0.0, "rental_uris": {"android": "https://dc.lft.to/lastmile_qr_scan", "ios": "https://dc.lft.to/lastmile_qr_scan"}, "is_reserved": 0}, {"bike_id": "c69da26be6b1c752538729f861673801", "name": "c69da26be6b1c752538729f861673801", "lat": 38.9096055, "fusion_lat": 0.0, "type": "electric_scooter", "lon": -77.04358216666667, "is_disabled": 0, "fusion_lon": 0.0, "rental_uris": {"android": "https://dc.lft.to/lastmile_qr_scan", "ios": "https://dc.lft.to/lastmile_qr_scan"}, "is_reserved": 0}, {"bike_id": "eb57beba84ab95f4297e0bb863093f9b", "name": "eb57beba84ab95f4297e0bb863093f9b", "lat": 38.917086, "fusion_lat": 0.0, "type": "electric_scooter", "lon": -77.02382033333333, "is_disabled": 0, "fusion_lon": 0.0, "rental_uris": {"android": "https://dc.lft.to/lastmile_qr_scan", "ios": "https://dc.lft.to/lastmile_qr_scan"}, "is_reserved": 0}, {"bike_id": "bd1cbfc2bf817e266252e3a13412a8e0", "name": "bd1cbfc2bf817e266252e3a13412a8e0", "lat": 38.9207385, "fusion_lat": 0.0, "type": "electric_scooter", "lon": -77.0250845, "is_disabled": 0, "fusion_lon": 0.0, "rental_uris": {"android": "https://dc.lft.to/lastmile_qr_scan", "ios": "https://dc.lft.to/lastmile_qr_scan"}, "is_reserved": 0}, {"bike_id": "4dfe1c2fa57ce7eb5d00688eae96a55d", "name": "4dfe1c2fa57ce7eb5d00688eae96a55d", "lat": 38.95153533333333, "fusion_lat": 0.0, "type": "electric_scooter", "lon": -77.01865183333334, "is_disabled": 0, "fusion_lon": 0.0, "rental_uris": {"android": "https://dc.lft.to/lastmile_qr_scan", "ios": "https://dc.lft.to/lastmile_qr_scan"}, "is_reserved": 0}, {"bike_id": "f5d1dfcaf4b1b4bbb2cdeaf0a3acf2bb", "name": "f5d1dfcaf4b1b4bbb2cdeaf0a3acf2bb", "lat": 38.904077, "fusion_lat": 0.0, "type": "electric_scooter", "lon": -77.01814766666666, "is_disabled": 0, "fusion_lon": 0.0, "rental_uris": {"android": "https://dc.lft.to/lastmile_qr_scan", "ios": "https://dc.lft.to/lastmile_qr_scan"}, "is_reserved": 0}, {"bike_id": "a6cb73a23f471367ccd656c95cf61d63", "name": "a6cb73a23f471367ccd656c95cf61d63", "lat": 38.905822, "fusion_lat": 0.0, "type": "electric_scooter", "lon": -77.06275666666667, "is_disabled": 0, "fusion_lon": 0.0, "rental_uris": {"android": "https://dc.lft.to/lastmile_qr_scan", "ios": "https://dc.lft.to/lastmile_qr_scan"}, "is_reserved": 0}, {"bike_id": "a2202a69afb7c8915ae2e1cf335ea261", "name": "a2202a69afb7c8915ae2e1cf335ea261", "lat": 38.9135525, "fusion_lat": 0.0, "type": "electric_scooter", "lon": -77.03361216666667, "is_disabled": 0, "fusion_lon": 0.0, "rental_uris": {"android": "https://dc.lft.to/lastmile_qr_scan", "ios": "https://dc.lft.to/lastmile_qr_scan"}, "is_reserved": 0}, {"bike_id": "ceb88dc74d3312034fd5ebc1953b4262", "name": "ceb88dc74d3312034fd5ebc1953b4262", "lat": 38.918102833333336, "fusion_lat": 0.0, "type": "electric_scooter", "lon": -77.033073, "is_disabled": 0, "fusion_lon": 0.0, "rental_uris": {"android": "https://dc.lft.to/lastmile_qr_scan", "ios": "https://dc.lft.to/lastmile_qr_scan"}, "is_reserved": 0}, {"bike_id": "998a63506681e97982a3fbddb7fbece9", "name": "998a63506681e97982a3fbddb7fbece9", "lat": 38.897554, "fusion_lat": 0.0, "type": "electric_scooter", "lon": -77.03384483333333, "is_disabled": 0, "fusion_lon": 0.0, "rental_uris": {"android": "https://dc.lft.to/lastmile_qr_scan", "ios": "https://dc.lft.to/lastmile_qr_scan"}, "is_reserved": 0}, {"bike_id": "a50612b41b98acae2dceafc7874c36de", "name": "a50612b41b98acae2dceafc7874c36de", "lat": 38.911405333333335, "fusion_lat": 0.0, "type": "electric_scooter", "lon": -77.03836966666667, "is_disabled": 0, "fusion_lon": 0.0, "rental_uris": {"android": "https://dc.lft.to/lastmile_qr_scan", "ios": "https://dc.lft.to/lastmile_qr_scan"}, "is_reserved": 0}, {"bike_id": "a6dcf5f5722f3b2d1f9ac2d147c0454b", "name": "a6dcf5f5722f3b2d1f9ac2d147c0454b", "lat": 38.94541516666666, "fusion_lat": 0.0, "type": "electric_bike", "lon": -77.34460516666667, "is_disabled": 0, "fusion_lon": 0.0, "rental_uris": {"android": "https://dc.lft.to/lastmile_qr_scan", "ios": "https://dc.lft.to/lastmile_qr_scan"}, "is_reserved": 0}, {"bike_id": "f185566f9cd6d2e34105a57e184e640e", "name": "f185566f9cd6d2e34105a57e184e640e", "lat": 38.899967, "fusion_lat": 0.0, "type": "electric_scooter", "lon": -76.9901655, "is_disabled": 0, "fusion_lon": 0.0, "rental_uris": {"android": "https://dc.lft.to/lastmile_qr_scan", "ios": "https://dc.lft.to/lastmile_qr_scan"}, "is_reserved": 0}, {"bike_id": "0376289171885a2bf09a24e5198c489b", "name": "0376289171885a2bf09a24e5198c489b", "lat": 38.865106, "fusion_lat": 0.0, "type": "electric_scooter", "lon": -76.981341, "is_disabled": 0, "fusion_lon": 0.0, "rental_uris": {"android": "https://dc.lft.to/lastmile_qr_scan", "ios": "https://dc.lft.to/lastmile_qr_scan"}, "is_reserved": 0}, {"bike_id": "d83b87cb1f333ad376a5b5a5283f9177", "name": "d83b87cb1f333ad376a5b5a5283f9177", "lat": 38.9228895, "fusion_lat": 0.0, "type": "electric_scooter", "lon": -77.02961966666666, "is_disabled": 0, "fusion_lon": 0.0, "rental_uris": {"android": "https://dc.lft.to/lastmile_qr_scan", "ios": "https://dc.lft.to/lastmile_qr_scan"}, "is_reserved": 0}, {"bike_id": "1f83bd1986c6b8cfd3c0ea4e1ac1b5be", "name": "1f83bd1986c6b8cfd3c0ea4e1ac1b5be", "lat": 38.88663316666667, "fusion_lat": 0.0, "type": "electric_scooter", "lon": -76.93675016666667, "is_disabled": 0, "fusion_lon": 0.0, "rental_uris": {"android": "https://dc.lft.to/lastmile_qr_scan", "ios": "https://dc.lft.to/lastmile_qr_scan"}, "is_reserved": 0}, {"bike_id": "35e35653c56c86deec1aae55a057c115", "name": "35e35653c56c86deec1aae55a057c115", "lat": 38.924246333333336, "fusion_lat": 0.0, "type": "electric_scooter", "lon": -77.02266816666666, "is_disabled": 0, "fusion_lon": 0.0, "rental_uris": {"android": "https://dc.lft.to/lastmile_qr_scan", "ios": "https://dc.lft.to/lastmile_qr_scan"}, "is_reserved": 0}, {"bike_id": "af7308c0e899dbce0a031634ab192c7d", "name": "af7308c0e899dbce0a031634ab192c7d", "lat": 39.08436833333333, "fusion_lat": 0.0, "type": "electric_bike", "lon": -76.95147433333334, "is_disabled": 0, "fusion_lon": 0.0, "rental_uris": {"android": "https://dc.lft.to/lastmile_qr_scan", "ios": "https://dc.lft.to/lastmile_qr_scan"}, "is_reserved": 0}, {"bike_id": "21b5314c24b99e75d2bdafa73f0b0619", "name": "21b5314c24b99e75d2bdafa73f0b0619", "lat": 38.90533683333334, "fusion_lat": 0.0, "type": "electric_scooter", "lon": -77.04014466666666, "is_disabled": 0, "fusion_lon": 0.0, "rental_uris": {"android": "https://dc.lft.to/lastmile_qr_scan", "ios": "https://dc.lft.to/lastmile_qr_scan"}, "is_reserved": 0}, {"bike_id": "3c119b44038b230be18d8551d28cf801", "name": "3c119b44038b230be18d8551d28cf801", "lat": 38.92452733333333, "fusion_lat": 0.0, "type": "electric_scooter", "lon": -77.021648, "is_disabled": 0, "fusion_lon": 0.0, "rental_uris": {"android": "https://dc.lft.to/lastmile_qr_scan", "ios": "https://dc.lft.to/lastmile_qr_scan"}, "is_reserved": 0}, {"bike_id": "f8cba19e7eede27d554f2698d494a4de", "name": "f8cba19e7eede27d554f2698d494a4de", "lat": 38.917522, "fusion_lat": 0.0, "type": "electric_scooter", "lon": -77.04154716666666, "is_disabled": 0, "fusion_lon": 0.0, "rental_uris": {"android": "https://dc.lft.to/lastmile_qr_scan", "ios": "https://dc.lft.to/lastmile_qr_scan"}, "is_reserved": 0}, {"bike_id": "fba84df6ed3c4ca31eb44ea1e2c88825", "name": "fba84df6ed3c4ca31eb44ea1e2c88825", "lat": 38.877087333333336, "fusion_lat": 0.0, "type": "electric_scooter", "lon": -76.9938, "is_disabled": 0, "fusion_lon": 0.0, "rental_uris": {"android": "https://dc.lft.to/lastmile_qr_scan", "ios": "https://dc.lft.to/lastmile_qr_scan"}, "is_reserved": 0}, {"bike_id": "3ade23f7e06866d4cb706483d68dcf26", "name": "3ade23f7e06866d4cb706483d68dcf26", "lat": 38.91954166666667, "fusion_lat": 0.0, "type": "electric_scooter", "lon": -77.02480616666666, "is_disabled": 0, "fusion_lon": 0.0, "rental_uris": {"android": "https://dc.lft.to/lastmile_qr_scan", "ios": "https://dc.lft.to/lastmile_qr_scan"}, "is_reserved": 0}, {"bike_id": "6a0e3e0e97e0e6bdfa178201171c8a77", "name": "6a0e3e0e97e0e6bdfa178201171c8a77", "lat": 38.90039516666667, "fusion_lat": 0.0, "type": "electric_scooter", "lon": -77.00634933333333, "is_disabled": 0, "fusion_lon": 0.0, "rental_uris": {"android": "https://dc.lft.to/lastmile_qr_scan", "ios": "https://dc.lft.to/lastmile_qr_scan"}, "is_reserved": 0}, {"bike_id": "c9851452b45c1a25d0ca301c81582217", "name": "c9851452b45c1a25d0ca301c81582217", "lat": 38.900504166666664, "fusion_lat": 0.0, "type": "electric_scooter", "lon": -77.0343175, "is_disabled": 0, "fusion_lon": 0.0, "rental_uris": {"android": "https://dc.lft.to/lastmile_qr_scan", "ios": "https://dc.lft.to/lastmile_qr_scan"}, "is_reserved": 0}, {"bike_id": "bde67b22dcd902f177993c817077b7ba", "name": "bde67b22dcd902f177993c817077b7ba", "lat": 38.86718466666667, "fusion_lat": 0.0, "type": "electric_scooter", "lon": -76.980747, "is_disabled": 0, "fusion_lon": 0.0, "rental_uris": {"android": "https://dc.lft.to/lastmile_qr_scan", "ios": "https://dc.lft.to/lastmile_qr_scan"}, "is_reserved": 0}, {"bike_id": "576a32bcaa7d54f2b0db0714c7980c40", "name": "576a32bcaa7d54f2b0db0714c7980c40", "lat": 38.93660633333333, "fusion_lat": 0.0, "type": "electric_scooter", "lon": -77.02142916666666, "is_disabled": 0, "fusion_lon": 0.0, "rental_uris": {"android": "https://dc.lft.to/lastmile_qr_scan", "ios": "https://dc.lft.to/lastmile_qr_scan"}, "is_reserved": 0}, {"bike_id": "1cf35960c617c534d98e826032c565b1", "name": "1cf35960c617c534d98e826032c565b1", "lat": 38.919669, "fusion_lat": 0.0, "type": "electric_scooter", "lon": -77.043657, "is_disabled": 0, "fusion_lon": 0.0, "rental_uris": {"android": "https://dc.lft.to/lastmile_qr_scan", "ios": "https://dc.lft.to/lastmile_qr_scan"}, "is_reserved": 0}, {"bike_id": "9c825fd40951e1a15fd0cbfbfa454b64", "name": "9c825fd40951e1a15fd0cbfbfa454b64", "lat": 38.918078, "fusion_lat": 0.0, "type": "electric_scooter", "lon": -77.03436383333333, "is_disabled": 0, "fusion_lon": 0.0, "rental_uris": {"android": "https://dc.lft.to/lastmile_qr_scan", "ios": "https://dc.lft.to/lastmile_qr_scan"}, "is_reserved": 0}, {"bike_id": "39b82e4ae8742e0be09ba77af48fde82", "name": "39b82e4ae8742e0be09ba77af48fde82", "lat": 38.9128055, "fusion_lat": 0.0, "type": "electric_scooter", "lon": -77.03859233333333, "is_disabled": 0, "fusion_lon": 0.0, "rental_uris": {"android": "https://dc.lft.to/lastmile_qr_scan", "ios": "https://dc.lft.to/lastmile_qr_scan"}, "is_reserved": 0}, {"bike_id": "c2d14d6db07ea5c5a1b0932e84ca8fc8", "name": "c2d14d6db07ea5c5a1b0932e84ca8fc8", "lat": 38.931860666666665, "fusion_lat": 0.0, "type": "electric_bike", "lon": -77.02354016666666, "is_disabled": 0, "fusion_lon": 0.0, "rental_uris": {"android": "https://dc.lft.to/lastmile_qr_scan", "ios": "https://dc.lft.to/lastmile_qr_scan"}, "is_reserved": 0}, {"bike_id": "0225b96dbed1c78f7be4b1e9ae496558", "name": "0225b96dbed1c78f7be4b1e9ae496558", "lat": 38.91666216666667, "fusion_lat": 0.0, "type": "electric_scooter", "lon": -77.02472383333334, "is_disabled": 0, "fusion_lon": 0.0, "rental_uris": {"android": "https://dc.lft.to/lastmile_qr_scan", "ios": "https://dc.lft.to/lastmile_qr_scan"}, "is_reserved": 0}, {"bike_id": "ca90b1b30c8350c058d379cdc1f2fa28", "name": "ca90b1b30c8350c058d379cdc1f2fa28", "lat": 38.865811, "fusion_lat": 0.0, "type": "electric_scooter", "lon": -76.99027083333333, "is_disabled": 0, "fusion_lon": 0.0, "rental_uris": {"android": "https://dc.lft.to/lastmile_qr_scan", "ios": "https://dc.lft.to/lastmile_qr_scan"}, "is_reserved": 0}, {"bike_id": "1640c4b1d3699c2f6b778cc27e938593", "name": "1640c4b1d3699c2f6b778cc27e938593", "lat": 38.900505333333335, "fusion_lat": 0.0, "type": "electric_scooter", "lon": -76.98851383333333, "is_disabled": 0, "fusion_lon": 0.0, "rental_uris": {"android": "https://dc.lft.to/lastmile_qr_scan", "ios": "https://dc.lft.to/lastmile_qr_scan"}, "is_reserved": 0}, {"bike_id": "483d17ba4d892d3800a2289a92c7917f", "name": "483d17ba4d892d3800a2289a92c7917f", "lat": 38.928831333333335, "fusion_lat": 0.0, "type": "electric_scooter", "lon": -77.03759483333333, "is_disabled": 0, "fusion_lon": 0.0, "rental_uris": {"android": "https://dc.lft.to/lastmile_qr_scan", "ios": "https://dc.lft.to/lastmile_qr_scan"}, "is_reserved": 0}, {"bike_id": "c32564a53b3e97eb54479165903fa4d2", "name": "c32564a53b3e97eb54479165903fa4d2", "lat": 38.90205316666667, "fusion_lat": 0.0, "type": "electric_scooter", "lon": -77.02087433333334, "is_disabled": 0, "fusion_lon": 0.0, "rental_uris": {"android": "https://dc.lft.to/lastmile_qr_scan", "ios": "https://dc.lft.to/lastmile_qr_scan"}, "is_reserved": 0}, {"bike_id": "2ed0d7d13bb2f6fa913f249c12caf465", "name": "2ed0d7d13bb2f6fa913f249c12caf465", "lat": 38.95687133333333, "fusion_lat": 0.0, "type": "electric_bike", "lon": -77.0223135, "is_disabled": 0, "fusion_lon": 0.0, "rental_uris": {"android": "https://dc.lft.to/lastmile_qr_scan", "ios": "https://dc.lft.to/lastmile_qr_scan"}, "is_reserved": 0}, {"bike_id": "50ba2ef2f6feb987f61d72181e16c492", "name": "50ba2ef2f6feb987f61d72181e16c492", "lat": 38.934321, "fusion_lat": 0.0, "type": "electric_bike", "lon": -77.04005816666667, "is_disabled": 0, "fusion_lon": 0.0, "rental_uris": {"android": "https://dc.lft.to/lastmile_qr_scan", "ios": "https://dc.lft.to/lastmile_qr_scan"}, "is_reserved": 0}, {"bike_id": "c7d760ff33692bab2fb3ab1e6d99f94b", "name": "c7d760ff33692bab2fb3ab1e6d99f94b", "lat": 38.87657333333333, "fusion_lat": 0.0, "type": "electric_scooter", "lon": -77.0207455, "is_disabled": 0, "fusion_lon": 0.0, "rental_uris": {"android": "https://dc.lft.to/lastmile_qr_scan", "ios": "https://dc.lft.to/lastmile_qr_scan"}, "is_reserved": 0}, {"bike_id": "fac90543133e07fae5bf5ed74e2b5b60", "name": "fac90543133e07fae5bf5ed74e2b5b60", "lat": 38.90257833333333, "fusion_lat": 0.0, "type": "electric_scooter", "lon": -77.01807666666667, "is_disabled": 0, "fusion_lon": 0.0, "rental_uris": {"android": "https://dc.lft.to/lastmile_qr_scan", "ios": "https://dc.lft.to/lastmile_qr_scan"}, "is_reserved": 0}, {"bike_id": "f1338495c0bfbdaa6830787353d0c0c9", "name": "f1338495c0bfbdaa6830787353d0c0c9", "lat": 38.886758, "fusion_lat": 0.0, "type": "electric_scooter", "lon": -77.00199983333333, "is_disabled": 0, "fusion_lon": 0.0, "rental_uris": {"android": "https://dc.lft.to/lastmile_qr_scan", "ios": "https://dc.lft.to/lastmile_qr_scan"}, "is_reserved": 0}, {"bike_id": "267a281e1da34df9ef55958f66c66347", "name": "267a281e1da34df9ef55958f66c66347", "lat": 38.885353333333335, "fusion_lat": 0.0, "type": "electric_scooter", "lon": -76.98060166666667, "is_disabled": 0, "fusion_lon": 0.0, "rental_uris": {"android": "https://dc.lft.to/lastmile_qr_scan", "ios": "https://dc.lft.to/lastmile_qr_scan"}, "is_reserved": 0}, {"bike_id": "246e2597a13ade69e3c0042dfac88c37", "name": "246e2597a13ade69e3c0042dfac88c37", "lat": 38.890431166666666, "fusion_lat": 0.0, "type": "electric_scooter", "lon": -76.95246366666667, "is_disabled": 0, "fusion_lon": 0.0, "rental_uris": {"android": "https://dc.lft.to/lastmile_qr_scan", "ios": "https://dc.lft.to/lastmile_qr_scan"}, "is_reserved": 0}, {"bike_id": "8dfe75ff54482371ebfb331bec23bbfe", "name": "8dfe75ff54482371ebfb331bec23bbfe", "lat": 38.87854633333333, "fusion_lat": 0.0, "type": "electric_scooter", "lon": -76.9829295, "is_disabled": 0, "fusion_lon": 0.0, "rental_uris": {"android": "https://dc.lft.to/lastmile_qr_scan", "ios": "https://dc.lft.to/lastmile_qr_scan"}, "is_reserved": 0}, {"bike_id": "482ab3d3bdc10cbbe062eff2358edd17", "name": "482ab3d3bdc10cbbe062eff2358edd17", "lat": 38.918076166666665, "fusion_lat": 0.0, "type": "electric_scooter", "lon": -77.0315155, "is_disabled": 0, "fusion_lon": 0.0, "rental_uris": {"android": "https://dc.lft.to/lastmile_qr_scan", "ios": "https://dc.lft.to/lastmile_qr_scan"}, "is_reserved": 0}, {"bike_id": "8efabc8ab1524b92eb503ff36db97fba", "name": "8efabc8ab1524b92eb503ff36db97fba", "lat": 38.917569, "fusion_lat": 0.0, "type": "electric_scooter", "lon": -77.04769783333333, "is_disabled": 0, "fusion_lon": 0.0, "rental_uris": {"android": "https://dc.lft.to/lastmile_qr_scan", "ios": "https://dc.lft.to/lastmile_qr_scan"}, "is_reserved": 0}, {"bike_id": "aabaab785ed43dd0cbb102eacbda5a31", "name": "aabaab785ed43dd0cbb102eacbda5a31", "lat": 38.92030283333333, "fusion_lat": 0.0, "type": "electric_scooter", "lon": -77.01032616666667, "is_disabled": 0, "fusion_lon": 0.0, "rental_uris": {"android": "https://dc.lft.to/lastmile_qr_scan", "ios": "https://dc.lft.to/lastmile_qr_scan"}, "is_reserved": 0}, {"bike_id": "9eb3ab63fbbeffa809d7e35a45757fdb", "name": "9eb3ab63fbbeffa809d7e35a45757fdb", "lat": 38.909562, "fusion_lat": 0.0, "type": "electric_scooter", "lon": -77.04569016666666, "is_disabled": 0, "fusion_lon": 0.0, "rental_uris": {"android": "https://dc.lft.to/lastmile_qr_scan", "ios": "https://dc.lft.to/lastmile_qr_scan"}, "is_reserved": 0}, {"bike_id": "90e7795b1ca0c65500c4ffa6a99daea4", "name": "90e7795b1ca0c65500c4ffa6a99daea4", "lat": 38.908734333333335, "fusion_lat": 0.0, "type": "electric_scooter", "lon": -77.03861316666666, "is_disabled": 0, "fusion_lon": 0.0, "rental_uris": {"android": "https://dc.lft.to/lastmile_qr_scan", "ios": "https://dc.lft.to/lastmile_qr_scan"}, "is_reserved": 0}, {"bike_id": "e9446bebb82a0212abe3556846624a52", "name": "e9446bebb82a0212abe3556846624a52", "lat": 38.90138833333334, "fusion_lat": 0.0, "type": "electric_scooter", "lon": -77.01943533333333, "is_disabled": 0, "fusion_lon": 0.0, "rental_uris": {"android": "https://dc.lft.to/lastmile_qr_scan", "ios": "https://dc.lft.to/lastmile_qr_scan"}, "is_reserved": 0}, {"bike_id": "bdb6b2d07c2bc6d13c6772efa58a07ae", "name": "bdb6b2d07c2bc6d13c6772efa58a07ae", "lat": 38.92337583333333, "fusion_lat": 0.0, "type": "electric_scooter", "lon": -77.041534, "is_disabled": 0, "fusion_lon": 0.0, "rental_uris": {"android": "https://dc.lft.to/lastmile_qr_scan", "ios": "https://dc.lft.to/lastmile_qr_scan"}, "is_reserved": 0}, {"bike_id": "a6ed94490acf24c6cb3f6fb31a1bea2a", "name": "a6ed94490acf24c6cb3f6fb31a1bea2a", "lat": 38.937731166666666, "fusion_lat": 0.0, "type": "electric_scooter", "lon": -77.02351866666666, "is_disabled": 0, "fusion_lon": 0.0, "rental_uris": {"android": "https://dc.lft.to/lastmile_qr_scan", "ios": "https://dc.lft.to/lastmile_qr_scan"}, "is_reserved": 0}, {"bike_id": "48cc7877e7c9c4530b8fbde0edc7f64e", "name": "48cc7877e7c9c4530b8fbde0edc7f64e", "lat": 38.88816933333333, "fusion_lat": 0.0, "type": "electric_scooter", "lon": -77.0020105, "is_disabled": 0, "fusion_lon": 0.0, "rental_uris": {"android": "https://dc.lft.to/lastmile_qr_scan", "ios": "https://dc.lft.to/lastmile_qr_scan"}, "is_reserved": 0}, {"bike_id": "aa9984764944d8853a5219341e6596d5", "name": "aa9984764944d8853a5219341e6596d5", "lat": 38.87882833333333, "fusion_lat": 0.0, "type": "electric_scooter", "lon": -77.0222605, "is_disabled": 0, "fusion_lon": 0.0, "rental_uris": {"android": "https://dc.lft.to/lastmile_qr_scan", "ios": "https://dc.lft.to/lastmile_qr_scan"}, "is_reserved": 0}, {"bike_id": "134ef10f74c092a7edef9857f95db68d", "name": "134ef10f74c092a7edef9857f95db68d", "lat": 38.9430935, "fusion_lat": 0.0, "type": "electric_scooter", "lon": -77.021771, "is_disabled": 0, "fusion_lon": 0.0, "rental_uris": {"android": "https://dc.lft.to/lastmile_qr_scan", "ios": "https://dc.lft.to/lastmile_qr_scan"}, "is_reserved": 0}, {"bike_id": "009a46d03bbe0272b2823159191ce847", "name": "009a46d03bbe0272b2823159191ce847", "lat": 38.87388383333333, "fusion_lat": 0.0, "type": "electric_scooter", "lon": -77.000206, "is_disabled": 0, "fusion_lon": 0.0, "rental_uris": {"android": "https://dc.lft.to/lastmile_qr_scan", "ios": "https://dc.lft.to/lastmile_qr_scan"}, "is_reserved": 0}, {"bike_id": "6f3f68965a070cc2db02f49047d8a74e", "name": "6f3f68965a070cc2db02f49047d8a74e", "lat": 38.914206166666666, "fusion_lat": 0.0, "type": "electric_scooter", "lon": -77.03211283333333, "is_disabled": 0, "fusion_lon": 0.0, "rental_uris": {"android": "https://dc.lft.to/lastmile_qr_scan", "ios": "https://dc.lft.to/lastmile_qr_scan"}, "is_reserved": 0}, {"bike_id": "3e3e53892d313b2e4a72e4250c22c60a", "name": "3e3e53892d313b2e4a72e4250c22c60a", "lat": 38.89941683333333, "fusion_lat": 0.0, "type": "electric_scooter", "lon": -77.02675583333334, "is_disabled": 0, "fusion_lon": 0.0, "rental_uris": {"android": "https://dc.lft.to/lastmile_qr_scan", "ios": "https://dc.lft.to/lastmile_qr_scan"}, "is_reserved": 0}, {"bike_id": "2af21fd339c089ad5e25604a543134d9", "name": "2af21fd339c089ad5e25604a543134d9", "lat": 38.9356075, "fusion_lat": 0.0, "type": "electric_scooter", "lon": -77.032586, "is_disabled": 0, "fusion_lon": 0.0, "rental_uris": {"android": "https://dc.lft.to/lastmile_qr_scan", "ios": "https://dc.lft.to/lastmile_qr_scan"}, "is_reserved": 0}, {"bike_id": "d72409e31b29d9780aedca83990f438b", "name": "d72409e31b29d9780aedca83990f438b", "lat": 38.903807, "fusion_lat": 0.0, "type": "electric_scooter", "lon": -77.0057325, "is_disabled": 0, "fusion_lon": 0.0, "rental_uris": {"android": "https://dc.lft.to/lastmile_qr_scan", "ios": "https://dc.lft.to/lastmile_qr_scan"}, "is_reserved": 0}, {"bike_id": "86794c62e53039758d56ee15e2b3a9e6", "name": "86794c62e53039758d56ee15e2b3a9e6", "lat": 38.9361605, "fusion_lat": 0.0, "type": "electric_scooter", "lon": -77.03216766666667, "is_disabled": 0, "fusion_lon": 0.0, "rental_uris": {"android": "https://dc.lft.to/lastmile_qr_scan", "ios": "https://dc.lft.to/lastmile_qr_scan"}, "is_reserved": 0}, {"bike_id": "95254929abb8e8f0c6c35c8ae6ac3469", "name": "95254929abb8e8f0c6c35c8ae6ac3469", "lat": 38.913146833333336, "fusion_lat": 0.0, "type": "electric_scooter", "lon": -77.03635933333334, "is_disabled": 0, "fusion_lon": 0.0, "rental_uris": {"android": "https://dc.lft.to/lastmile_qr_scan", "ios": "https://dc.lft.to/lastmile_qr_scan"}, "is_reserved": 0}, {"bike_id": "70c7000a5e6cd0502d01ede80f1fa7db", "name": "70c7000a5e6cd0502d01ede80f1fa7db", "lat": 38.916092, "fusion_lat": 0.0, "type": "electric_scooter", "lon": -77.0230545, "is_disabled": 0, "fusion_lon": 0.0, "rental_uris": {"android": "https://dc.lft.to/lastmile_qr_scan", "ios": "https://dc.lft.to/lastmile_qr_scan"}, "is_reserved": 0}, {"bike_id": "47081b5a34ea3c9c8b1c1563764c7bb9", "name": "47081b5a34ea3c9c8b1c1563764c7bb9", "lat": 38.91930466666667, "fusion_lat": 0.0, "type": "electric_scooter", "lon": -77.049122, "is_disabled": 0, "fusion_lon": 0.0, "rental_uris": {"android": "https://dc.lft.to/lastmile_qr_scan", "ios": "https://dc.lft.to/lastmile_qr_scan"}, "is_reserved": 0}, {"bike_id": "df0733c96db25b7de225068d0790ae3c", "name": "df0733c96db25b7de225068d0790ae3c", "lat": 38.85225666666667, "fusion_lat": 0.0, "type": "electric_scooter", "lon": -76.99426083333333, "is_disabled": 0, "fusion_lon": 0.0, "rental_uris": {"android": "https://dc.lft.to/lastmile_qr_scan", "ios": "https://dc.lft.to/lastmile_qr_scan"}, "is_reserved": 0}, {"bike_id": "9fb2b2f04ff9044a4facf89d52f99d70", "name": "9fb2b2f04ff9044a4facf89d52f99d70", "lat": 38.92060516666667, "fusion_lat": 0.0, "type": "electric_scooter", "lon": -77.0172735, "is_disabled": 0, "fusion_lon": 0.0, "rental_uris": {"android": "https://dc.lft.to/lastmile_qr_scan", "ios": "https://dc.lft.to/lastmile_qr_scan"}, "is_reserved": 0}, {"bike_id": "e88dd2510e33493da14c2740087b9a08", "name": "e88dd2510e33493da14c2740087b9a08", "lat": 38.91697333333333, "fusion_lat": 0.0, "type": "electric_scooter", "lon": -77.02923083333333, "is_disabled": 0, "fusion_lon": 0.0, "rental_uris": {"android": "https://dc.lft.to/lastmile_qr_scan", "ios": "https://dc.lft.to/lastmile_qr_scan"}, "is_reserved": 0}, {"bike_id": "3b42261168b4279010572367ec720881", "name": "3b42261168b4279010572367ec720881", "lat": 38.946938, "fusion_lat": 0.0, "type": "electric_scooter", "lon": -77.02245616666667, "is_disabled": 0, "fusion_lon": 0.0, "rental_uris": {"android": "https://dc.lft.to/lastmile_qr_scan", "ios": "https://dc.lft.to/lastmile_qr_scan"}, "is_reserved": 0}, {"bike_id": "2dd2ee220a4fded5e85628a713f1a246", "name": "2dd2ee220a4fded5e85628a713f1a246", "lat": 38.901196666666664, "fusion_lat": 0.0, "type": "electric_scooter", "lon": -77.03814183333333, "is_disabled": 0, "fusion_lon": 0.0, "rental_uris": {"android": "https://dc.lft.to/lastmile_qr_scan", "ios": "https://dc.lft.to/lastmile_qr_scan"}, "is_reserved": 0}, {"bike_id": "3f37400645a19210d2a3685d1e7ed141", "name": "3f37400645a19210d2a3685d1e7ed141", "lat": 38.9039665, "fusion_lat": 0.0, "type": "electric_scooter", "lon": -77.06295533333333, "is_disabled": 0, "fusion_lon": 0.0, "rental_uris": {"android": "https://dc.lft.to/lastmile_qr_scan", "ios": "https://dc.lft.to/lastmile_qr_scan"}, "is_reserved": 0}, {"bike_id": "072546a178906c4a3ab6c4f400632325", "name": "072546a178906c4a3ab6c4f400632325", "lat": 38.920050333333336, "fusion_lat": 0.0, "type": "electric_scooter", "lon": -77.01779716666667, "is_disabled": 0, "fusion_lon": 0.0, "rental_uris": {"android": "https://dc.lft.to/lastmile_qr_scan", "ios": "https://dc.lft.to/lastmile_qr_scan"}, "is_reserved": 0}, {"bike_id": "4a699c89600d7c7c4b11161c17cce705", "name": "4a699c89600d7c7c4b11161c17cce705", "lat": 38.90792233333333, "fusion_lat": 0.0, "type": "electric_scooter", "lon": -77.06441733333334, "is_disabled": 0, "fusion_lon": 0.0, "rental_uris": {"android": "https://dc.lft.to/lastmile_qr_scan", "ios": "https://dc.lft.to/lastmile_qr_scan"}, "is_reserved": 0}, {"bike_id": "fdf9766fe5de577d2629c17b5f337e85", "name": "fdf9766fe5de577d2629c17b5f337e85", "lat": 38.906392833333335, "fusion_lat": 0.0, "type": "electric_scooter", "lon": -77.00909633333333, "is_disabled": 0, "fusion_lon": 0.0, "rental_uris": {"android": "https://dc.lft.to/lastmile_qr_scan", "ios": "https://dc.lft.to/lastmile_qr_scan"}, "is_reserved": 0}, {"bike_id": "f0c27d9b8f0fd9f4c3cae47d6bbd5e7f", "name": "f0c27d9b8f0fd9f4c3cae47d6bbd5e7f", "lat": 38.8851165, "fusion_lat": 0.0, "type": "electric_scooter", "lon": -77.011139, "is_disabled": 0, "fusion_lon": 0.0, "rental_uris": {"android": "https://dc.lft.to/lastmile_qr_scan", "ios": "https://dc.lft.to/lastmile_qr_scan"}, "is_reserved": 0}, {"bike_id": "6950160fed7b238f849c4cbe88623dc1", "name": "6950160fed7b238f849c4cbe88623dc1", "lat": 38.92125433333333, "fusion_lat": 0.0, "type": "electric_scooter", "lon": -77.03189266666666, "is_disabled": 0, "fusion_lon": 0.0, "rental_uris": {"android": "https://dc.lft.to/lastmile_qr_scan", "ios": "https://dc.lft.to/lastmile_qr_scan"}, "is_reserved": 0}, {"bike_id": "6d9fb8657ff47814c876a3ffaaaf91e4", "name": "6d9fb8657ff47814c876a3ffaaaf91e4", "lat": 38.83138266666667, "fusion_lat": 0.0, "type": "electric_bike", "lon": -77.1134835, "is_disabled": 0, "fusion_lon": 0.0, "rental_uris": {"android": "https://dc.lft.to/lastmile_qr_scan", "ios": "https://dc.lft.to/lastmile_qr_scan"}, "is_reserved": 0}, {"bike_id": "e5163d10b217d15f670f58a567c69994", "name": "e5163d10b217d15f670f58a567c69994", "lat": 38.9222775, "fusion_lat": 0.0, "type": "electric_scooter", "lon": -77.03315783333333, "is_disabled": 0, "fusion_lon": 0.0, "rental_uris": {"android": "https://dc.lft.to/lastmile_qr_scan", "ios": "https://dc.lft.to/lastmile_qr_scan"}, "is_reserved": 0}, {"bike_id": "3706505dcb2e82fd9da02af6d60e6d12", "name": "3706505dcb2e82fd9da02af6d60e6d12", "lat": 38.89755683333333, "fusion_lat": 0.0, "type": "electric_scooter", "lon": -77.02092233333333, "is_disabled": 0, "fusion_lon": 0.0, "rental_uris": {"android": "https://dc.lft.to/lastmile_qr_scan", "ios": "https://dc.lft.to/lastmile_qr_scan"}, "is_reserved": 0}, {"bike_id": "9f2e8c6e7cd8046f8d8e19460e818fb9", "name": "9f2e8c6e7cd8046f8d8e19460e818fb9", "lat": 38.906151333333334, "fusion_lat": 0.0, "type": "electric_scooter", "lon": -76.95019866666667, "is_disabled": 0, "fusion_lon": 0.0, "rental_uris": {"android": "https://dc.lft.to/lastmile_qr_scan", "ios": "https://dc.lft.to/lastmile_qr_scan"}, "is_reserved": 0}, {"bike_id": "00fa2179670a1daa06a70ed74715bc9a", "name": "00fa2179670a1daa06a70ed74715bc9a", "lat": 38.89619666666667, "fusion_lat": 0.0, "type": "electric_scooter", "lon": -77.0282955, "is_disabled": 0, "fusion_lon": 0.0, "rental_uris": {"android": "https://dc.lft.to/lastmile_qr_scan", "ios": "https://dc.lft.to/lastmile_qr_scan"}, "is_reserved": 0}, {"bike_id": "b91d59ebcee9fe29612f13a14986c23a", "name": "b91d59ebcee9fe29612f13a14986c23a", "lat": 38.8979425, "fusion_lat": 0.0, "type": "electric_scooter", "lon": -77.01195916666667, "is_disabled": 0, "fusion_lon": 0.0, "rental_uris": {"android": "https://dc.lft.to/lastmile_qr_scan", "ios": "https://dc.lft.to/lastmile_qr_scan"}, "is_reserved": 0}, {"bike_id": "af5e2a249a9b5b2425a5cfac3dff8bc7", "name": "af5e2a249a9b5b2425a5cfac3dff8bc7", "lat": 38.90267133333333, "fusion_lat": 0.0, "type": "electric_scooter", "lon": -77.03860466666667, "is_disabled": 0, "fusion_lon": 0.0, "rental_uris": {"android": "https://dc.lft.to/lastmile_qr_scan", "ios": "https://dc.lft.to/lastmile_qr_scan"}, "is_reserved": 0}, {"bike_id": "125ce6b5872434bb96ef04116f8f04eb", "name": "125ce6b5872434bb96ef04116f8f04eb", "lat": 38.831592666666666, "fusion_lat": 0.0, "type": "electric_bike", "lon": -76.99546533333333, "is_disabled": 0, "fusion_lon": 0.0, "rental_uris": {"android": "https://dc.lft.to/lastmile_qr_scan", "ios": "https://dc.lft.to/lastmile_qr_scan"}, "is_reserved": 0}, {"bike_id": "d0d2aeb688bd14ca97edbc24b3ca1879", "name": "d0d2aeb688bd14ca97edbc24b3ca1879", "lat": 38.9565465, "fusion_lat": 0.0, "type": "electric_scooter", "lon": -77.01282333333333, "is_disabled": 0, "fusion_lon": 0.0, "rental_uris": {"android": "https://dc.lft.to/lastmile_qr_scan", "ios": "https://dc.lft.to/lastmile_qr_scan"}, "is_reserved": 0}, {"bike_id": "d5c110e9da3950d32559c647bcc8f80f", "name": "d5c110e9da3950d32559c647bcc8f80f", "lat": 38.907304333333336, "fusion_lat": 0.0, "type": "electric_scooter", "lon": -77.00235066666667, "is_disabled": 0, "fusion_lon": 0.0, "rental_uris": {"android": "https://dc.lft.to/lastmile_qr_scan", "ios": "https://dc.lft.to/lastmile_qr_scan"}, "is_reserved": 0}, {"bike_id": "2d4c93425a3c6c38a4edca293094769a", "name": "2d4c93425a3c6c38a4edca293094769a", "lat": 38.88125, "fusion_lat": 0.0, "type": "electric_scooter", "lon": -77.0169805, "is_disabled": 0, "fusion_lon": 0.0, "rental_uris": {"android": "https://dc.lft.to/lastmile_qr_scan", "ios": "https://dc.lft.to/lastmile_qr_scan"}, "is_reserved": 0}, {"bike_id": "a89d93636554550faaed967099223c31", "name": "a89d93636554550faaed967099223c31", "lat": 38.89547783333333, "fusion_lat": 0.0, "type": "electric_scooter", "lon": -76.9829085, "is_disabled": 0, "fusion_lon": 0.0, "rental_uris": {"android": "https://dc.lft.to/lastmile_qr_scan", "ios": "https://dc.lft.to/lastmile_qr_scan"}, "is_reserved": 0}, {"bike_id": "93ab37fff2e7f9a2bf8927fea7a410c9", "name": "93ab37fff2e7f9a2bf8927fea7a410c9", "lat": 38.9218235, "fusion_lat": 0.0, "type": "electric_scooter", "lon": -77.042278, "is_disabled": 0, "fusion_lon": 0.0, "rental_uris": {"android": "https://dc.lft.to/lastmile_qr_scan", "ios": "https://dc.lft.to/lastmile_qr_scan"}, "is_reserved": 0}, {"bike_id": "e306c699ee2d03ed1eaf2f2fb36b9d61", "name": "e306c699ee2d03ed1eaf2f2fb36b9d61", "lat": 38.99548933333333, "fusion_lat": 0.0, "type": "electric_bike", "lon": -77.07469383333333, "is_disabled": 0, "fusion_lon": 0.0, "rental_uris": {"android": "https://dc.lft.to/lastmile_qr_scan", "ios": "https://dc.lft.to/lastmile_qr_scan"}, "is_reserved": 0}, {"bike_id": "afb3b413f875105f0419d4c7302f733c", "name": "afb3b413f875105f0419d4c7302f733c", "lat": 38.966482666666664, "fusion_lat": 0.0, "type": "electric_scooter", "lon": -77.00890183333334, "is_disabled": 0, "fusion_lon": 0.0, "rental_uris": {"android": "https://dc.lft.to/lastmile_qr_scan", "ios": "https://dc.lft.to/lastmile_qr_scan"}, "is_reserved": 0}, {"bike_id": "7f6873bb57239ef85ebeec80b86511a0", "name": "7f6873bb57239ef85ebeec80b86511a0", "lat": 38.9526055, "fusion_lat": 0.0, "type": "electric_scooter", "lon": -77.02394583333333, "is_disabled": 0, "fusion_lon": 0.0, "rental_uris": {"android": "https://dc.lft.to/lastmile_qr_scan", "ios": "https://dc.lft.to/lastmile_qr_scan"}, "is_reserved": 0}, {"bike_id": "1b365dc6f44aff204b62435a7b1e1b75", "name": "1b365dc6f44aff204b62435a7b1e1b75", "lat": 38.9002335, "fusion_lat": 0.0, "type": "electric_scooter", "lon": -77.04497083333334, "is_disabled": 0, "fusion_lon": 0.0, "rental_uris": {"android": "https://dc.lft.to/lastmile_qr_scan", "ios": "https://dc.lft.to/lastmile_qr_scan"}, "is_reserved": 0}, {"bike_id": "c13ab243bde55a3daee74c4bd6219ca4", "name": "c13ab243bde55a3daee74c4bd6219ca4", "lat": 38.928695833333336, "fusion_lat": 0.0, "type": "electric_scooter", "lon": -76.9908575, "is_disabled": 0, "fusion_lon": 0.0, "rental_uris": {"android": "https://dc.lft.to/lastmile_qr_scan", "ios": "https://dc.lft.to/lastmile_qr_scan"}, "is_reserved": 0}, {"bike_id": "63fcf29ae91b3a9012f5888abbfd4c84", "name": "63fcf29ae91b3a9012f5888abbfd4c84", "lat": 38.926156, "fusion_lat": 0.0, "type": "electric_scooter", "lon": -77.0216135, "is_disabled": 0, "fusion_lon": 0.0, "rental_uris": {"android": "https://dc.lft.to/lastmile_qr_scan", "ios": "https://dc.lft.to/lastmile_qr_scan"}, "is_reserved": 0}, {"bike_id": "3a2548fceff96fd72c8664e7b46786ed", "name": "3a2548fceff96fd72c8664e7b46786ed", "lat": 38.90593333333333, "fusion_lat": 0.0, "type": "electric_scooter", "lon": -77.03640066666667, "is_disabled": 0, "fusion_lon": 0.0, "rental_uris": {"android": "https://dc.lft.to/lastmile_qr_scan", "ios": "https://dc.lft.to/lastmile_qr_scan"}, "is_reserved": 0}, {"bike_id": "8ba78ebe6d876fbb565763558ecfbf65", "name": "8ba78ebe6d876fbb565763558ecfbf65", "lat": 38.90983116666666, "fusion_lat": 0.0, "type": "electric_scooter", "lon": -77.03041116666667, "is_disabled": 0, "fusion_lon": 0.0, "rental_uris": {"android": "https://dc.lft.to/lastmile_qr_scan", "ios": "https://dc.lft.to/lastmile_qr_scan"}, "is_reserved": 0}, {"bike_id": "15509e690206a89ac6d84131813a1263", "name": "15509e690206a89ac6d84131813a1263", "lat": 38.9186725, "fusion_lat": 0.0, "type": "electric_scooter", "lon": -77.01346033333333, "is_disabled": 0, "fusion_lon": 0.0, "rental_uris": {"android": "https://dc.lft.to/lastmile_qr_scan", "ios": "https://dc.lft.to/lastmile_qr_scan"}, "is_reserved": 0}, {"bike_id": "2e363ea9a318205bab80ac6e41df8834", "name": "2e363ea9a318205bab80ac6e41df8834", "lat": 38.921484666666665, "fusion_lat": 0.0, "type": "electric_scooter", "lon": -77.02105216666666, "is_disabled": 0, "fusion_lon": 0.0, "rental_uris": {"android": "https://dc.lft.to/lastmile_qr_scan", "ios": "https://dc.lft.to/lastmile_qr_scan"}, "is_reserved": 0}, {"bike_id": "e138cf44fb3f0d5aade8ba41b6cfa060", "name": "e138cf44fb3f0d5aade8ba41b6cfa060", "lat": 38.93520733333333, "fusion_lat": 0.0, "type": "electric_bike", "lon": -76.98346166666667, "is_disabled": 0, "fusion_lon": 0.0, "rental_uris": {"android": "https://dc.lft.to/lastmile_qr_scan", "ios": "https://dc.lft.to/lastmile_qr_scan"}, "is_reserved": 0}, {"bike_id": "80505f29edd5654c88e187c2e2bfd937", "name": "80505f29edd5654c88e187c2e2bfd937", "lat": 38.904720166666664, "fusion_lat": 0.0, "type": "electric_scooter", "lon": -77.0260095, "is_disabled": 0, "fusion_lon": 0.0, "rental_uris": {"android": "https://dc.lft.to/lastmile_qr_scan", "ios": "https://dc.lft.to/lastmile_qr_scan"}, "is_reserved": 0}, {"bike_id": "4aded7a470b15caf3176a63eea94934e", "name": "4aded7a470b15caf3176a63eea94934e", "lat": 38.92446566666667, "fusion_lat": 0.0, "type": "electric_scooter", "lon": -77.02025616666667, "is_disabled": 0, "fusion_lon": 0.0, "rental_uris": {"android": "https://dc.lft.to/lastmile_qr_scan", "ios": "https://dc.lft.to/lastmile_qr_scan"}, "is_reserved": 0}, {"bike_id": "4fc43f50ce302e30e48dc76f88b13be1", "name": "4fc43f50ce302e30e48dc76f88b13be1", "lat": 38.904494166666666, "fusion_lat": 0.0, "type": "electric_scooter", "lon": -77.05862783333333, "is_disabled": 0, "fusion_lon": 0.0, "rental_uris": {"android": "https://dc.lft.to/lastmile_qr_scan", "ios": "https://dc.lft.to/lastmile_qr_scan"}, "is_reserved": 0}, {"bike_id": "ea48d1daabae7ea404b05476bbe36f18", "name": "ea48d1daabae7ea404b05476bbe36f18", "lat": 38.900900666666665, "fusion_lat": 0.0, "type": "electric_scooter", "lon": -77.02715783333333, "is_disabled": 0, "fusion_lon": 0.0, "rental_uris": {"android": "https://dc.lft.to/lastmile_qr_scan", "ios": "https://dc.lft.to/lastmile_qr_scan"}, "is_reserved": 0}, {"bike_id": "1b030313c4581a91c95601ca549db644", "name": "1b030313c4581a91c95601ca549db644", "lat": 38.90711866666667, "fusion_lat": 0.0, "type": "electric_scooter", "lon": -77.02386166666666, "is_disabled": 0, "fusion_lon": 0.0, "rental_uris": {"android": "https://dc.lft.to/lastmile_qr_scan", "ios": "https://dc.lft.to/lastmile_qr_scan"}, "is_reserved": 0}, {"bike_id": "8be6626031554801945974a963b2fb8b", "name": "8be6626031554801945974a963b2fb8b", "lat": 38.9097065, "fusion_lat": 0.0, "type": "electric_scooter", "lon": -77.03227, "is_disabled": 0, "fusion_lon": 0.0, "rental_uris": {"android": "https://dc.lft.to/lastmile_qr_scan", "ios": "https://dc.lft.to/lastmile_qr_scan"}, "is_reserved": 0}, {"bike_id": "054680bc5f811b5cae3c2c3cbb9999d7", "name": "054680bc5f811b5cae3c2c3cbb9999d7", "lat": 38.912773666666666, "fusion_lat": 0.0, "type": "electric_scooter", "lon": -77.02256433333334, "is_disabled": 0, "fusion_lon": 0.0, "rental_uris": {"android": "https://dc.lft.to/lastmile_qr_scan", "ios": "https://dc.lft.to/lastmile_qr_scan"}, "is_reserved": 0}, {"bike_id": "ee25a01bce090269e42f44a5ec681d08", "name": "ee25a01bce090269e42f44a5ec681d08", "lat": 38.92442283333333, "fusion_lat": 0.0, "type": "electric_scooter", "lon": -77.03399383333333, "is_disabled": 0, "fusion_lon": 0.0, "rental_uris": {"android": "https://dc.lft.to/lastmile_qr_scan", "ios": "https://dc.lft.to/lastmile_qr_scan"}, "is_reserved": 0}, {"bike_id": "03e705538d3fd47dd17604cd178a1246", "name": "03e705538d3fd47dd17604cd178a1246", "lat": 38.916853333333336, "fusion_lat": 0.0, "type": "electric_scooter", "lon": -77.02825516666667, "is_disabled": 0, "fusion_lon": 0.0, "rental_uris": {"android": "https://dc.lft.to/lastmile_qr_scan", "ios": "https://dc.lft.to/lastmile_qr_scan"}, "is_reserved": 0}, {"bike_id": "7d1490b16cb5db1c852b782c2c3181ec", "name": "7d1490b16cb5db1c852b782c2c3181ec", "lat": 38.884969166666664, "fusion_lat": 0.0, "type": "electric_scooter", "lon": -77.00712283333333, "is_disabled": 0, "fusion_lon": 0.0, "rental_uris": {"android": "https://dc.lft.to/lastmile_qr_scan", "ios": "https://dc.lft.to/lastmile_qr_scan"}, "is_reserved": 0}, {"bike_id": "8d003c399e8d3ce099222831d02765e4", "name": "8d003c399e8d3ce099222831d02765e4", "lat": 38.9171065, "fusion_lat": 0.0, "type": "electric_scooter", "lon": -77.03158533333334, "is_disabled": 0, "fusion_lon": 0.0, "rental_uris": {"android": "https://dc.lft.to/lastmile_qr_scan", "ios": "https://dc.lft.to/lastmile_qr_scan"}, "is_reserved": 0}, {"bike_id": "0cbf6cf99d4ead2b563c2ac872b893bc", "name": "0cbf6cf99d4ead2b563c2ac872b893bc", "lat": 38.89423583333333, "fusion_lat": 0.0, "type": "electric_scooter", "lon": -76.99772033333333, "is_disabled": 0, "fusion_lon": 0.0, "rental_uris": {"android": "https://dc.lft.to/lastmile_qr_scan", "ios": "https://dc.lft.to/lastmile_qr_scan"}, "is_reserved": 0}, {"bike_id": "334dc77530afb63ddfe88737f4159e39", "name": "334dc77530afb63ddfe88737f4159e39", "lat": 38.92446966666667, "fusion_lat": 0.0, "type": "electric_scooter", "lon": -77.03403833333333, "is_disabled": 0, "fusion_lon": 0.0, "rental_uris": {"android": "https://dc.lft.to/lastmile_qr_scan", "ios": "https://dc.lft.to/lastmile_qr_scan"}, "is_reserved": 0}, {"bike_id": "4187925a6f39c260960d1e38bdc223cf", "name": "4187925a6f39c260960d1e38bdc223cf", "lat": 38.922618166666666, "fusion_lat": 0.0, "type": "electric_scooter", "lon": -77.02038916666666, "is_disabled": 0, "fusion_lon": 0.0, "rental_uris": {"android": "https://dc.lft.to/lastmile_qr_scan", "ios": "https://dc.lft.to/lastmile_qr_scan"}, "is_reserved": 0}, {"bike_id": "4109967caea84fbac9d7f594d3f9e3a3", "name": "4109967caea84fbac9d7f594d3f9e3a3", "lat": 38.89223616666666, "fusion_lat": 0.0, "type": "electric_scooter", "lon": -77.048718, "is_disabled": 0, "fusion_lon": 0.0, "rental_uris": {"android": "https://dc.lft.to/lastmile_qr_scan", "ios": "https://dc.lft.to/lastmile_qr_scan"}, "is_reserved": 0}, {"bike_id": "e657c23601e42ec0175c3f052b5c194f", "name": "e657c23601e42ec0175c3f052b5c194f", "lat": 38.916813166666664, "fusion_lat": 0.0, "type": "electric_scooter", "lon": -77.022997, "is_disabled": 0, "fusion_lon": 0.0, "rental_uris": {"android": "https://dc.lft.to/lastmile_qr_scan", "ios": "https://dc.lft.to/lastmile_qr_scan"}, "is_reserved": 0}, {"bike_id": "0449682c401dc1f5dc8913698a6d77da", "name": "0449682c401dc1f5dc8913698a6d77da", "lat": 38.907332, "fusion_lat": 0.0, "type": "electric_scooter", "lon": -77.04800516666667, "is_disabled": 0, "fusion_lon": 0.0, "rental_uris": {"android": "https://dc.lft.to/lastmile_qr_scan", "ios": "https://dc.lft.to/lastmile_qr_scan"}, "is_reserved": 0}, {"bike_id": "f6e6981d6082a63c50c3e5362737437e", "name": "f6e6981d6082a63c50c3e5362737437e", "lat": 38.90262116666667, "fusion_lat": 0.0, "type": "electric_scooter", "lon": -77.00223416666667, "is_disabled": 0, "fusion_lon": 0.0, "rental_uris": {"android": "https://dc.lft.to/lastmile_qr_scan", "ios": "https://dc.lft.to/lastmile_qr_scan"}, "is_reserved": 0}, {"bike_id": "bbf42cd94d2b4cffb1f36de5d620244b", "name": "bbf42cd94d2b4cffb1f36de5d620244b", "lat": 38.925732833333335, "fusion_lat": 0.0, "type": "electric_scooter", "lon": -76.99488966666667, "is_disabled": 0, "fusion_lon": 0.0, "rental_uris": {"android": "https://dc.lft.to/lastmile_qr_scan", "ios": "https://dc.lft.to/lastmile_qr_scan"}, "is_reserved": 0}, {"bike_id": "f4c77d39debfc3a83480cf75e45895a9", "name": "f4c77d39debfc3a83480cf75e45895a9", "lat": 38.902458, "fusion_lat": 0.0, "type": "electric_scooter", "lon": -76.97409133333333, "is_disabled": 0, "fusion_lon": 0.0, "rental_uris": {"android": "https://dc.lft.to/lastmile_qr_scan", "ios": "https://dc.lft.to/lastmile_qr_scan"}, "is_reserved": 0}, {"bike_id": "738950930e9a3b877a58c6e4d93272b3", "name": "738950930e9a3b877a58c6e4d93272b3", "lat": 39.038174833333336, "fusion_lat": 0.0, "type": "electric_bike", "lon": -77.04223933333333, "is_disabled": 0, "fusion_lon": 0.0, "rental_uris": {"android": "https://dc.lft.to/lastmile_qr_scan", "ios": "https://dc.lft.to/lastmile_qr_scan"}, "is_reserved": 0}, {"bike_id": "5e9359a360bb96be8fb0d504659a020f", "name": "5e9359a360bb96be8fb0d504659a020f", "lat": 38.90900966666667, "fusion_lat": 0.0, "type": "electric_scooter", "lon": -76.99622983333333, "is_disabled": 0, "fusion_lon": 0.0, "rental_uris": {"android": "https://dc.lft.to/lastmile_qr_scan", "ios": "https://dc.lft.to/lastmile_qr_scan"}, "is_reserved": 0}, {"bike_id": "4bab06557549ff52b4aa898b13deb96f", "name": "4bab06557549ff52b4aa898b13deb96f", "lat": 38.943286, "fusion_lat": 0.0, "type": "electric_scooter", "lon": -77.01259816666666, "is_disabled": 0, "fusion_lon": 0.0, "rental_uris": {"android": "https://dc.lft.to/lastmile_qr_scan", "ios": "https://dc.lft.to/lastmile_qr_scan"}, "is_reserved": 0}, {"bike_id": "a12a61f891a6f2eec124884f6fa38380", "name": "a12a61f891a6f2eec124884f6fa38380", "lat": 38.894674, "fusion_lat": 0.0, "type": "electric_scooter", "lon": -77.02620566666667, "is_disabled": 0, "fusion_lon": 0.0, "rental_uris": {"android": "https://dc.lft.to/lastmile_qr_scan", "ios": "https://dc.lft.to/lastmile_qr_scan"}, "is_reserved": 0}, {"bike_id": "c7c137143e3d04e3a45ce7e6de3f54e1", "name": "c7c137143e3d04e3a45ce7e6de3f54e1", "lat": 38.965207, "fusion_lat": 0.0, "type": "electric_scooter", "lon": -77.00199166666667, "is_disabled": 0, "fusion_lon": 0.0, "rental_uris": {"android": "https://dc.lft.to/lastmile_qr_scan", "ios": "https://dc.lft.to/lastmile_qr_scan"}, "is_reserved": 0}, {"bike_id": "4e5d99f4d59d7cd5da52c2b3ae4b2c20", "name": "4e5d99f4d59d7cd5da52c2b3ae4b2c20", "lat": 38.92142716666667, "fusion_lat": 0.0, "type": "electric_scooter", "lon": -77.018224, "is_disabled": 0, "fusion_lon": 0.0, "rental_uris": {"android": "https://dc.lft.to/lastmile_qr_scan", "ios": "https://dc.lft.to/lastmile_qr_scan"}, "is_reserved": 0}, {"bike_id": "39d70ffe02a849027b99d29941f43c8f", "name": "39d70ffe02a849027b99d29941f43c8f", "lat": 38.926369666666666, "fusion_lat": 0.0, "type": "electric_scooter", "lon": -77.04250616666667, "is_disabled": 0, "fusion_lon": 0.0, "rental_uris": {"android": "https://dc.lft.to/lastmile_qr_scan", "ios": "https://dc.lft.to/lastmile_qr_scan"}, "is_reserved": 0}, {"bike_id": "798add4148fac466cd5769dfe5c0f345", "name": "798add4148fac466cd5769dfe5c0f345", "lat": 38.9060335, "fusion_lat": 0.0, "type": "electric_scooter", "lon": -77.02983716666667, "is_disabled": 0, "fusion_lon": 0.0, "rental_uris": {"android": "https://dc.lft.to/lastmile_qr_scan", "ios": "https://dc.lft.to/lastmile_qr_scan"}, "is_reserved": 0}, {"bike_id": "8d3ed5244f1b1ef2a5d9ae07f30f8a18", "name": "8d3ed5244f1b1ef2a5d9ae07f30f8a18", "lat": 38.92278433333333, "fusion_lat": 0.0, "type": "electric_scooter", "lon": -77.02134266666667, "is_disabled": 0, "fusion_lon": 0.0, "rental_uris": {"android": "https://dc.lft.to/lastmile_qr_scan", "ios": "https://dc.lft.to/lastmile_qr_scan"}, "is_reserved": 0}, {"bike_id": "c81fe361566e43ed7421b2b465f8eb62", "name": "c81fe361566e43ed7421b2b465f8eb62", "lat": 38.9240605, "fusion_lat": 0.0, "type": "electric_scooter", "lon": -77.0426425, "is_disabled": 0, "fusion_lon": 0.0, "rental_uris": {"android": "https://dc.lft.to/lastmile_qr_scan", "ios": "https://dc.lft.to/lastmile_qr_scan"}, "is_reserved": 0}, {"bike_id": "0246a2e7ed58c12c114f772a33e80c83", "name": "0246a2e7ed58c12c114f772a33e80c83", "lat": 38.922494666666665, "fusion_lat": 0.0, "type": "electric_scooter", "lon": -77.03899916666667, "is_disabled": 0, "fusion_lon": 0.0, "rental_uris": {"android": "https://dc.lft.to/lastmile_qr_scan", "ios": "https://dc.lft.to/lastmile_qr_scan"}, "is_reserved": 0}, {"bike_id": "1e219c3f0c95f3f36f2189827202113c", "name": "1e219c3f0c95f3f36f2189827202113c", "lat": 38.8990315, "fusion_lat": 0.0, "type": "electric_scooter", "lon": -77.00739166666666, "is_disabled": 0, "fusion_lon": 0.0, "rental_uris": {"android": "https://dc.lft.to/lastmile_qr_scan", "ios": "https://dc.lft.to/lastmile_qr_scan"}, "is_reserved": 0}, {"bike_id": "311472d41f430eac50a85cb777ee725f", "name": "311472d41f430eac50a85cb777ee725f", "lat": 38.8978325, "fusion_lat": 0.0, "type": "electric_scooter", "lon": -77.0167885, "is_disabled": 0, "fusion_lon": 0.0, "rental_uris": {"android": "https://dc.lft.to/lastmile_qr_scan", "ios": "https://dc.lft.to/lastmile_qr_scan"}, "is_reserved": 0}, {"bike_id": "c426e0d9675a690fec8c612350644c17", "name": "c426e0d9675a690fec8c612350644c17", "lat": 38.908101, "fusion_lat": 0.0, "type": "electric_scooter", "lon": -77.043445, "is_disabled": 0, "fusion_lon": 0.0, "rental_uris": {"android": "https://dc.lft.to/lastmile_qr_scan", "ios": "https://dc.lft.to/lastmile_qr_scan"}, "is_reserved": 0}, {"bike_id": "0e4f4cb7f8ca6bfb8b584bae7661b57e", "name": "0e4f4cb7f8ca6bfb8b584bae7661b57e", "lat": 38.90508616666666, "fusion_lat": 0.0, "type": "electric_scooter", "lon": -77.02951183333333, "is_disabled": 0, "fusion_lon": 0.0, "rental_uris": {"android": "https://dc.lft.to/lastmile_qr_scan", "ios": "https://dc.lft.to/lastmile_qr_scan"}, "is_reserved": 0}, {"bike_id": "ddf3c1ff65b42b2b255d7f2eaf0bf724", "name": "ddf3c1ff65b42b2b255d7f2eaf0bf724", "lat": 38.92609366666667, "fusion_lat": 0.0, "type": "electric_scooter", "lon": -77.0216015, "is_disabled": 0, "fusion_lon": 0.0, "rental_uris": {"android": "https://dc.lft.to/lastmile_qr_scan", "ios": "https://dc.lft.to/lastmile_qr_scan"}, "is_reserved": 0}, {"bike_id": "2140321eaf091f4f21399ed3168a5351", "name": "2140321eaf091f4f21399ed3168a5351", "lat": 38.878710166666664, "fusion_lat": 0.0, "type": "electric_scooter", "lon": -76.96261283333334, "is_disabled": 0, "fusion_lon": 0.0, "rental_uris": {"android": "https://dc.lft.to/lastmile_qr_scan", "ios": "https://dc.lft.to/lastmile_qr_scan"}, "is_reserved": 0}, {"bike_id": "ff4104782368e02a92228133d78bad87", "name": "ff4104782368e02a92228133d78bad87", "lat": 38.924322833333335, "fusion_lat": 0.0, "type": "electric_scooter", "lon": -77.019415, "is_disabled": 0, "fusion_lon": 0.0, "rental_uris": {"android": "https://dc.lft.to/lastmile_qr_scan", "ios": "https://dc.lft.to/lastmile_qr_scan"}, "is_reserved": 0}, {"bike_id": "2648d1214e0c6283ed8b2d8b5dc17fbd", "name": "2648d1214e0c6283ed8b2d8b5dc17fbd", "lat": 38.95850133333333, "fusion_lat": 0.0, "type": "electric_bike", "lon": -76.986084, "is_disabled": 0, "fusion_lon": 0.0, "rental_uris": {"android": "https://dc.lft.to/lastmile_qr_scan", "ios": "https://dc.lft.to/lastmile_qr_scan"}, "is_reserved": 0}, {"bike_id": "3e50abc9345945ba1354fd85d0180004", "name": "3e50abc9345945ba1354fd85d0180004", "lat": 38.90055366666667, "fusion_lat": 0.0, "type": "electric_scooter", "lon": -77.00745383333333, "is_disabled": 0, "fusion_lon": 0.0, "rental_uris": {"android": "https://dc.lft.to/lastmile_qr_scan", "ios": "https://dc.lft.to/lastmile_qr_scan"}, "is_reserved": 0}, {"bike_id": "b7d6d077f4dd38fbcc8d1b1c8f5817a5", "name": "b7d6d077f4dd38fbcc8d1b1c8f5817a5", "lat": 38.9057985, "fusion_lat": 0.0, "type": "electric_scooter", "lon": -77.00588883333333, "is_disabled": 0, "fusion_lon": 0.0, "rental_uris": {"android": "https://dc.lft.to/lastmile_qr_scan", "ios": "https://dc.lft.to/lastmile_qr_scan"}, "is_reserved": 0}, {"bike_id": "d59a598b4fd5e1f6944970b3317cbc1e", "name": "d59a598b4fd5e1f6944970b3317cbc1e", "lat": 38.906893833333335, "fusion_lat": 0.0, "type": "electric_scooter", "lon": -77.03804033333333, "is_disabled": 0, "fusion_lon": 0.0, "rental_uris": {"android": "https://dc.lft.to/lastmile_qr_scan", "ios": "https://dc.lft.to/lastmile_qr_scan"}, "is_reserved": 0}, {"bike_id": "c2283104227aa9b9d7bdf405748c4b46", "name": "c2283104227aa9b9d7bdf405748c4b46", "lat": 38.92423433333333, "fusion_lat": 0.0, "type": "electric_scooter", "lon": -77.01953333333333, "is_disabled": 0, "fusion_lon": 0.0, "rental_uris": {"android": "https://dc.lft.to/lastmile_qr_scan", "ios": "https://dc.lft.to/lastmile_qr_scan"}, "is_reserved": 0}, {"bike_id": "7de0b266a6604fa3e1f1a0fe6897dfdf", "name": "7de0b266a6604fa3e1f1a0fe6897dfdf", "lat": 38.886086666666664, "fusion_lat": 0.0, "type": "electric_scooter", "lon": -76.98823066666667, "is_disabled": 0, "fusion_lon": 0.0, "rental_uris": {"android": "https://dc.lft.to/lastmile_qr_scan", "ios": "https://dc.lft.to/lastmile_qr_scan"}, "is_reserved": 0}, {"bike_id": "9d7aaae37060ac8457e49c1b15a3e5f0", "name": "9d7aaae37060ac8457e49c1b15a3e5f0", "lat": 38.922513333333335, "fusion_lat": 0.0, "type": "electric_scooter", "lon": -77.0306405, "is_disabled": 0, "fusion_lon": 0.0, "rental_uris": {"android": "https://dc.lft.to/lastmile_qr_scan", "ios": "https://dc.lft.to/lastmile_qr_scan"}, "is_reserved": 0}, {"bike_id": "ab7ec50a81a0620392f76ce90fbe930c", "name": "ab7ec50a81a0620392f76ce90fbe930c", "lat": 38.8837655, "fusion_lat": 0.0, "type": "electric_scooter", "lon": -77.00878983333334, "is_disabled": 0, "fusion_lon": 0.0, "rental_uris": {"android": "https://dc.lft.to/lastmile_qr_scan", "ios": "https://dc.lft.to/lastmile_qr_scan"}, "is_reserved": 0}, {"bike_id": "510a2be80a2c745098c421acea84e8a2", "name": "510a2be80a2c745098c421acea84e8a2", "lat": 38.92534033333333, "fusion_lat": 0.0, "type": "electric_scooter", "lon": -77.0411625, "is_disabled": 0, "fusion_lon": 0.0, "rental_uris": {"android": "https://dc.lft.to/lastmile_qr_scan", "ios": "https://dc.lft.to/lastmile_qr_scan"}, "is_reserved": 0}, {"bike_id": "a3fbc2d9c6b0110de20d681104af8844", "name": "a3fbc2d9c6b0110de20d681104af8844", "lat": 38.90688333333333, "fusion_lat": 0.0, "type": "electric_scooter", "lon": -77.03518533333333, "is_disabled": 0, "fusion_lon": 0.0, "rental_uris": {"android": "https://dc.lft.to/lastmile_qr_scan", "ios": "https://dc.lft.to/lastmile_qr_scan"}, "is_reserved": 0}, {"bike_id": "71702dc27706a3f5e4a81e4bd0ee6f11", "name": "71702dc27706a3f5e4a81e4bd0ee6f11", "lat": 38.88441816666667, "fusion_lat": 0.0, "type": "electric_scooter", "lon": -76.95770066666667, "is_disabled": 0, "fusion_lon": 0.0, "rental_uris": {"android": "https://dc.lft.to/lastmile_qr_scan", "ios": "https://dc.lft.to/lastmile_qr_scan"}, "is_reserved": 0}, {"bike_id": "e534e8e8ebc3a2526cdfdbd443fff5f8", "name": "e534e8e8ebc3a2526cdfdbd443fff5f8", "lat": 38.86225983333333, "fusion_lat": 0.0, "type": "electric_scooter", "lon": -76.97909333333334, "is_disabled": 0, "fusion_lon": 0.0, "rental_uris": {"android": "https://dc.lft.to/lastmile_qr_scan", "ios": "https://dc.lft.to/lastmile_qr_scan"}, "is_reserved": 0}, {"bike_id": "0890f727ef4a01b7efd9e9e1e8f7cce9", "name": "0890f727ef4a01b7efd9e9e1e8f7cce9", "lat": 38.895322166666666, "fusion_lat": 0.0, "type": "electric_scooter", "lon": -76.992523, "is_disabled": 0, "fusion_lon": 0.0, "rental_uris": {"android": "https://dc.lft.to/lastmile_qr_scan", "ios": "https://dc.lft.to/lastmile_qr_scan"}, "is_reserved": 0}, {"bike_id": "bbe3363583bb69bdf99868d205e7514f", "name": "bbe3363583bb69bdf99868d205e7514f", "lat": 38.916239, "fusion_lat": 0.0, "type": "electric_scooter", "lon": -77.03746483333333, "is_disabled": 0, "fusion_lon": 0.0, "rental_uris": {"android": "https://dc.lft.to/lastmile_qr_scan", "ios": "https://dc.lft.to/lastmile_qr_scan"}, "is_reserved": 0}, {"bike_id": "f049281043717253561a55cd930fd071", "name": "f049281043717253561a55cd930fd071", "lat": 38.926058166666664, "fusion_lat": 0.0, "type": "electric_scooter", "lon": -77.0215785, "is_disabled": 0, "fusion_lon": 0.0, "rental_uris": {"android": "https://dc.lft.to/lastmile_qr_scan", "ios": "https://dc.lft.to/lastmile_qr_scan"}, "is_reserved": 0}, {"bike_id": "a437d55166fbc1d55d343c27564ff5ee", "name": "a437d55166fbc1d55d343c27564ff5ee", "lat": 38.90861833333334, "fusion_lat": 0.0, "type": "electric_scooter", "lon": -77.023007, "is_disabled": 0, "fusion_lon": 0.0, "rental_uris": {"android": "https://dc.lft.to/lastmile_qr_scan", "ios": "https://dc.lft.to/lastmile_qr_scan"}, "is_reserved": 0},