{"data": {"bikes": [{"lon": -77.02469333333333, "bike_id": "6227698e23a9d6ff927eb7ff99a1822e", "lat": 38.938621499999996, "fusion_lon": 0.0, "fusion_lat": 0.0, "type": "electric_scooter", "name": "6227698e23a9d6ff927eb7ff99a1822e", "is_disabled": 0, "rental_uris": {"ios": "https://dc.lft.to/lastmile_qr_scan", "android": "https://dc.lft.to/lastmile_qr_scan"}, "is_reserved": 0}, {"lon": -76.9776785, "bike_id": "a3fb256e821fca50f24451ba434f3bed", "lat": 38.951553, "fusion_lon": 0.0, "fusion_lat": 0.0, "type": "electric_bike", "name": "a3fb256e821fca50f24451ba434f3bed", "is_disabled": 0, "rental_uris": {"ios": "https://dc.lft.to/lastmile_qr_scan", "android": "https://dc.lft.to/lastmile_qr_scan"}, "is_reserved": 0}, {"lon": -77.04387066666666, "bike_id": "f6406b0873f6f64c63a6e9156af2e5d9", "lat": 38.9209315, "fusion_lon": 0.0, "fusion_lat": 0.0, "type": "electric_scooter", "name": "f6406b0873f6f64c63a6e9156af2e5d9", "is_disabled": 0, "rental_uris": {"ios": "https://dc.lft.to/lastmile_qr_scan", "android": "https://dc.lft.to/lastmile_qr_scan"}, "is_reserved": 0}, {"lon": -77.02593516666667, "bike_id": "5cfb3dd61c4246283df45276a48a590b", "lat": 38.94199283333333, "fusion_lon": 0.0, "fusion_lat": 0.0, "type": "electric_scooter", "name": "5cfb3dd61c4246283df45276a48a590b", "is_disabled": 0, "rental_uris": {"ios": "https://dc.lft.to/lastmile_qr_scan", "android": "https://dc.lft.to/lastmile_qr_scan"}, "is_reserved": 0}, {"lon": -77.01762266666667, "bike_id": "ba4731e3c9fc387cd28dbbc288db52d8", "lat": 38.88599833333333, "fusion_lon": 0.0, "fusion_lat": 0.0, "type": "electric_scooter", "name": "ba4731e3c9fc387cd28dbbc288db52d8", "is_disabled": 0, "rental_uris": {"ios": "https://dc.lft.to/lastmile_qr_scan", "android": "https://dc.lft.to/lastmile_qr_scan"}, "is_reserved": 0}, {"lon": -77.03202966666667, "bike_id": "d3d2cc2284c1bc8da9db4e3c7b3e3631", "lat": 38.89870783333333, "fusion_lon": 0.0, "fusion_lat": 0.0, "type": "electric_scooter", "name": "d3d2cc2284c1bc8da9db4e3c7b3e3631", "is_disabled": 0, "rental_uris": {"ios": "https://dc.lft.to/lastmile_qr_scan", "android": "https://dc.lft.to/lastmile_qr_scan"}, "is_reserved": 0}, {"lon": -76.99884533333334, "bike_id": "abddf904928ff29ecef3eccb512e0013", "lat": 38.9205655, "fusion_lon": 0.0, "fusion_lat": 0.0, "type": "electric_scooter", "name": "abddf904928ff29ecef3eccb512e0013", "is_disabled": 0, "rental_uris": {"ios": "https://dc.lft.to/lastmile_qr_scan", "android": "https://dc.lft.to/lastmile_qr_scan"}, "is_reserved": 0}, {"lon": -77.0326275, "bike_id": "d19c378790896dcac4846d982fe5ea0d", "lat": 38.93891683333333, "fusion_lon": 0.0, "fusion_lat": 0.0, "type": "electric_scooter", "name": "d19c378790896dcac4846d982fe5ea0d", "is_disabled": 0, "rental_uris": {"ios": "https://dc.lft.to/lastmile_qr_scan", "android": "https://dc.lft.to/lastmile_qr_scan"}, "is_reserved": 0}, {"lon": -77.03195416666667, "bike_id": "a7340849e042c035603cd0ac598a12c9", "lat": 38.90378233333333, "fusion_lon": 0.0, "fusion_lat": 0.0, "type": "electric_scooter", "name": "a7340849e042c035603cd0ac598a12c9", "is_disabled": 0, "rental_uris": {"ios": "https://dc.lft.to/lastmile_qr_scan", "android": "https://dc.lft.to/lastmile_qr_scan"}, "is_reserved": 0}, {"lon": -77.0414525, "bike_id": "d38aee2ec180c14e0abeb649d8ef5fc8", "lat": 38.903246333333335, "fusion_lon": 0.0, "fusion_lat": 0.0, "type": "electric_scooter", "name": "d38aee2ec180c14e0abeb649d8ef5fc8", "is_disabled": 0, "rental_uris": {"ios": "https://dc.lft.to/lastmile_qr_scan", "android": "https://dc.lft.to/lastmile_qr_scan"}, "is_reserved": 0}, {"lon": -77.00653783333334, "bike_id": "96b59c70f2f5efe174157982e0bb9baa", "lat": 38.8389165, "fusion_lon": 0.0, "fusion_lat": 0.0, "type": "electric_scooter", "name": "96b59c70f2f5efe174157982e0bb9baa", "is_disabled": 0, "rental_uris": {"ios": "https://dc.lft.to/lastmile_qr_scan", "android": "https://dc.lft.to/lastmile_qr_scan"}, "is_reserved": 0}, {"lon": -76.93177, "bike_id": "b2fc7c113b7c2f3ec495b42c5a49af36", "lat": 38.89883183333333, "fusion_lon": 0.0, "fusion_lat": 0.0, "type": "electric_scooter", "name": "b2fc7c113b7c2f3ec495b42c5a49af36", "is_disabled": 0, "rental_uris": {"ios": "https://dc.lft.to/lastmile_qr_scan", "android": "https://dc.lft.to/lastmile_qr_scan"}, "is_reserved": 0}, {"lon": -76.998945, "bike_id": "a7d4407ea80af8f82e3f0c4fbde2ee38", "lat": 38.90959733333333, "fusion_lon": 0.0, "fusion_lat": 0.0, "type": "electric_scooter", "name": "a7d4407ea80af8f82e3f0c4fbde2ee38", "is_disabled": 0, "rental_uris": {"ios": "https://dc.lft.to/lastmile_qr_scan", "android": "https://dc.lft.to/lastmile_qr_scan"}, "is_reserved": 0}, {"lon": -77.03291966666667, "bike_id": "0afe79e9abbfe05f039c811c271b23dd", "lat": 38.956543333333336, "fusion_lon": 0.0, "fusion_lat": 0.0, "type": "electric_scooter", "name": "0afe79e9abbfe05f039c811c271b23dd", "is_disabled": 0, "rental_uris": {"ios": "https://dc.lft.to/lastmile_qr_scan", "android": "https://dc.lft.to/lastmile_qr_scan"}, "is_reserved": 0}, {"lon": -76.87496416666667, "bike_id": "4263d2fd86c93ead272b0c4c2047e6be", "lat": 38.99088583333333, "fusion_lon": 0.0, "fusion_lat": 0.0, "type": "electric_bike", "name": "4263d2fd86c93ead272b0c4c2047e6be", "is_disabled": 0, "rental_uris": {"ios": "https://dc.lft.to/lastmile_qr_scan", "android": "https://dc.lft.to/lastmile_qr_scan"}, "is_reserved": 0}, {"lon": -77.0385895, "bike_id": "cfbca9f61e22179b745a6d8c2d03a03c", "lat": 38.906616666666665, "fusion_lon": 0.0, "fusion_lat": 0.0, "type": "electric_scooter", "name": "cfbca9f61e22179b745a6d8c2d03a03c", "is_disabled": 0, "rental_uris": {"ios": "https://dc.lft.to/lastmile_qr_scan", "android": "https://dc.lft.to/lastmile_qr_scan"}, "is_reserved": 0}, {"lon": -77.02561333333334, "bike_id": "0bf3494b2440bf159d5d78a1c00b2fcf", "lat": 38.93867066666667, "fusion_lon": 0.0, "fusion_lat": 0.0, "type": "electric_scooter", "name": "0bf3494b2440bf159d5d78a1c00b2fcf", "is_disabled": 0, "rental_uris": {"ios": "https://dc.lft.to/lastmile_qr_scan", "android": "https://dc.lft.to/lastmile_qr_scan"}, "is_reserved": 0}, {"lon": -76.95751233333333, "bike_id": "fcbdb097e08505f729d4fc4b02f3bda1", "lat": 38.884299, "fusion_lon": 0.0, "fusion_lat": 0.0, "type": "electric_scooter", "name": "fcbdb097e08505f729d4fc4b02f3bda1", "is_disabled": 0, "rental_uris": {"ios": "https://dc.lft.to/lastmile_qr_scan", "android": "https://dc.lft.to/lastmile_qr_scan"}, "is_reserved": 0}, {"lon": -77.02719033333334, "bike_id": "1ccebe9066e5c2bf2189c6583dba6652", "lat": 38.8974125, "fusion_lon": 0.0, "fusion_lat": 0.0, "type": "electric_scooter", "name": "1ccebe9066e5c2bf2189c6583dba6652", "is_disabled": 0, "rental_uris": {"ios": "https://dc.lft.to/lastmile_qr_scan", "android": "https://dc.lft.to/lastmile_qr_scan"}, "is_reserved": 0}, {"lon": -76.9300935, "bike_id": "9c6df0ceda11bfd124b4b5c1aefd89d1", "lat": 38.89659616666667, "fusion_lon": 0.0, "fusion_lat": 0.0, "type": "electric_bike", "name": "9c6df0ceda11bfd124b4b5c1aefd89d1", "is_disabled": 0, "rental_uris": {"ios": "https://dc.lft.to/lastmile_qr_scan", "android": "https://dc.lft.to/lastmile_qr_scan"}, "is_reserved": 0}, {"lon": -77.0230715, "bike_id": "7e13c966e27ead230018290dd1c65593", "lat": 38.894989333333335, "fusion_lon": 0.0, "fusion_lat": 0.0, "type": "electric_scooter", "name": "7e13c966e27ead230018290dd1c65593", "is_disabled": 0, "rental_uris": {"ios": "https://dc.lft.to/lastmile_qr_scan", "android": "https://dc.lft.to/lastmile_qr_scan"}, "is_reserved": 0}, {"lon": -77.02246733333334, "bike_id": "127aec8e3cff249d30a33a8296cbb6bf", "lat": 38.927368333333334, "fusion_lon": 0.0, "fusion_lat": 0.0, "type": "electric_scooter", "name": "127aec8e3cff249d30a33a8296cbb6bf", "is_disabled": 0, "rental_uris": {"ios": "https://dc.lft.to/lastmile_qr_scan", "android": "https://dc.lft.to/lastmile_qr_scan"}, "is_reserved": 0}, {"lon": -77.02140683333333, "bike_id": "1095bb39385c8a2828f553233fe562b5", "lat": 38.897225, "fusion_lon": 0.0, "fusion_lat": 0.0, "type": "electric_scooter", "name": "1095bb39385c8a2828f553233fe562b5", "is_disabled": 0, "rental_uris": {"ios": "https://dc.lft.to/lastmile_qr_scan", "android": "https://dc.lft.to/lastmile_qr_scan"}, "is_reserved": 0}, {"lon": -77.04192466666667, "bike_id": "04c153b1e47f12949352e03a26186b30", "lat": 38.89987, "fusion_lon": 0.0, "fusion_lat": 0.0, "type": "electric_scooter", "name": "04c153b1e47f12949352e03a26186b30", "is_disabled": 0, "rental_uris": {"ios": "https://dc.lft.to/lastmile_qr_scan", "android": "https://dc.lft.to/lastmile_qr_scan"}, "is_reserved": 0}, {"lon": -76.99808733333333, "bike_id": "73c36befd69f51517588eed1c0e170c2", "lat": 38.82917833333333, "fusion_lon": 0.0, "fusion_lat": 0.0, "type": "electric_bike", "name": "73c36befd69f51517588eed1c0e170c2", "is_disabled": 0, "rental_uris": {"ios": "https://dc.lft.to/lastmile_qr_scan", "android": "https://dc.lft.to/lastmile_qr_scan"}, "is_reserved": 0}, {"lon": -77.0230355, "bike_id": "f350d75b4c311124bdffd60f21a01eeb", "lat": 38.91763016666667, "fusion_lon": 0.0, "fusion_lat": 0.0, "type": "electric_scooter", "name": "f350d75b4c311124bdffd60f21a01eeb", "is_disabled": 0, "rental_uris": {"ios": "https://dc.lft.to/lastmile_qr_scan", "android": "https://dc.lft.to/lastmile_qr_scan"}, "is_reserved": 0}, {"lon": -77.0343155, "bike_id": "26b702df4f63369b039da943488a09dd", "lat": 38.965284, "fusion_lon": 0.0, "fusion_lat": 0.0, "type": "electric_bike", "name": "26b702df4f63369b039da943488a09dd", "is_disabled": 0, "rental_uris": {"ios": "https://dc.lft.to/lastmile_qr_scan", "android": "https://dc.lft.to/lastmile_qr_scan"}, "is_reserved": 0}, {"lon": -77.03604616666667, "bike_id": "68e055d00072e0a5d5ea1828c60ef064", "lat": 38.93687716666667, "fusion_lon": 0.0, "fusion_lat": 0.0, "type": "electric_scooter", "name": "68e055d00072e0a5d5ea1828c60ef064", "is_disabled": 0, "rental_uris": {"ios": "https://dc.lft.to/lastmile_qr_scan", "android": "https://dc.lft.to/lastmile_qr_scan"}, "is_reserved": 0}, {"lon": -77.03076383333334, "bike_id": "d2a63a2b9b8b176614dd9543eb0d8d30", "lat": 38.920295833333334, "fusion_lon": 0.0, "fusion_lat": 0.0, "type": "electric_scooter", "name": "d2a63a2b9b8b176614dd9543eb0d8d30", "is_disabled": 0, "rental_uris": {"ios": "https://dc.lft.to/lastmile_qr_scan", "android": "https://dc.lft.to/lastmile_qr_scan"}, "is_reserved": 0}, {"lon": -77.02715833333333, "bike_id": "c346c6763f32b2d2642e6aae5847c864", "lat": 38.90956766666667, "fusion_lon": 0.0, "fusion_lat": 0.0, "type": "electric_scooter", "name": "c346c6763f32b2d2642e6aae5847c864", "is_disabled": 0, "rental_uris": {"ios": "https://dc.lft.to/lastmile_qr_scan", "android": "https://dc.lft.to/lastmile_qr_scan"}, "is_reserved": 0}, {"lon": -77.022093, "bike_id": "49b1e2a0ad9535a0b7d9a0f0b7936966", "lat": 38.9127065, "fusion_lon": 0.0, "fusion_lat": 0.0, "type": "electric_scooter", "name": "49b1e2a0ad9535a0b7d9a0f0b7936966", "is_disabled": 0, "rental_uris": {"ios": "https://dc.lft.to/lastmile_qr_scan", "android": "https://dc.lft.to/lastmile_qr_scan"}, "is_reserved": 0}, {"lon": -77.03027683333333, "bike_id": "c1bab44896dd87dc35a7d02cb17ea317", "lat": 38.88447983333333, "fusion_lon": 0.0, "fusion_lat": 0.0, "type": "electric_scooter", "name": "c1bab44896dd87dc35a7d02cb17ea317", "is_disabled": 0, "rental_uris": {"ios": "https://dc.lft.to/lastmile_qr_scan", "android": "https://dc.lft.to/lastmile_qr_scan"}, "is_reserved": 0}, {"lon": -77.02189266666667, "bike_id": "6abd8cf7b3d688a245a745b724679504", "lat": 38.909822, "fusion_lon": 0.0, "fusion_lat": 0.0, "type": "electric_scooter", "name": "6abd8cf7b3d688a245a745b724679504", "is_disabled": 0, "rental_uris": {"ios": "https://dc.lft.to/lastmile_qr_scan", "android": "https://dc.lft.to/lastmile_qr_scan"}, "is_reserved": 0}, {"lon": -77.032117, "bike_id": "0376516f0569dbff5a57a3829f6768a3", "lat": 38.91247333333333, "fusion_lon": 0.0, "fusion_lat": 0.0, "type": "electric_scooter", "name": "0376516f0569dbff5a57a3829f6768a3", "is_disabled": 0, "rental_uris": {"ios": "https://dc.lft.to/lastmile_qr_scan", "android": "https://dc.lft.to/lastmile_qr_scan"}, "is_reserved": 0}, {"lon": -77.03217666666667, "bike_id": "0e9371dcd8246efcc6bbc91c5112d7b7", "lat": 38.9068675, "fusion_lon": 0.0, "fusion_lat": 0.0, "type": "electric_scooter", "name": "0e9371dcd8246efcc6bbc91c5112d7b7", "is_disabled": 0, "rental_uris": {"ios": "https://dc.lft.to/lastmile_qr_scan", "android": "https://dc.lft.to/lastmile_qr_scan"}, "is_reserved": 0}, {"lon": -77.0762755, "bike_id": "29650370aa80ee93652d96162b3b762d", "lat": 38.965782833333336, "fusion_lon": 0.0, "fusion_lat": 0.0, "type": "electric_bike", "name": "29650370aa80ee93652d96162b3b762d", "is_disabled": 0, "rental_uris": {"ios": "https://dc.lft.to/lastmile_qr_scan", "android": "https://dc.lft.to/lastmile_qr_scan"}, "is_reserved": 0}, {"lon": -77.11710383333333, "bike_id": "ce137b143906ab2fb6a6b1ab6b2b30c2", "lat": 38.867460333333334, "fusion_lon": 0.0, "fusion_lat": 0.0, "type": "electric_bike", "name": "ce137b143906ab2fb6a6b1ab6b2b30c2", "is_disabled": 0, "rental_uris": {"ios": "https://dc.lft.to/lastmile_qr_scan", "android": "https://dc.lft.to/lastmile_qr_scan"}, "is_reserved": 0}, {"lon": -77.01755066666666, "bike_id": "51ca39efde6553e3084cb3bf7191cb48", "lat": 38.903816, "fusion_lon": 0.0, "fusion_lat": 0.0, "type": "electric_scooter", "name": "51ca39efde6553e3084cb3bf7191cb48", "is_disabled": 0, "rental_uris": {"ios": "https://dc.lft.to/lastmile_qr_scan", "android": "https://dc.lft.to/lastmile_qr_scan"}, "is_reserved": 0}, {"lon": -76.95747533333333, "bike_id": "7423df5aa56bfa06f49980b47e01510e", "lat": 38.884316166666665, "fusion_lon": 0.0, "fusion_lat": 0.0, "type": "electric_scooter", "name": "7423df5aa56bfa06f49980b47e01510e", "is_disabled": 0, "rental_uris": {"ios": "https://dc.lft.to/lastmile_qr_scan", "android": "https://dc.lft.to/lastmile_qr_scan"}, "is_reserved": 0}, {"lon": -76.9833605, "bike_id": "b9bb48708a23e07efe934f8a8c3b50b3", "lat": 38.89548466666667, "fusion_lon": 0.0, "fusion_lat": 0.0, "type": "electric_scooter", "name": "b9bb48708a23e07efe934f8a8c3b50b3", "is_disabled": 0, "rental_uris": {"ios": "https://dc.lft.to/lastmile_qr_scan", "android": "https://dc.lft.to/lastmile_qr_scan"}, "is_reserved": 0}, {"lon": -76.96153733333334, "bike_id": "21b695059bdce869892bd1d46021d131", "lat": 38.88360083333333, "fusion_lon": 0.0, "fusion_lat": 0.0, "type": "electric_scooter", "name": "21b695059bdce869892bd1d46021d131", "is_disabled": 0, "rental_uris": {"ios": "https://dc.lft.to/lastmile_qr_scan", "android": "https://dc.lft.to/lastmile_qr_scan"}, "is_reserved": 0}, {"lon": -76.96774683333334, "bike_id": "93f07eb559e6c5142345e03cb55ec326", "lat": 38.868529833333334, "fusion_lon": 0.0, "fusion_lat": 0.0, "type": "electric_scooter", "name": "93f07eb559e6c5142345e03cb55ec326", "is_disabled": 0, "rental_uris": {"ios": "https://dc.lft.to/lastmile_qr_scan", "android": "https://dc.lft.to/lastmile_qr_scan"}, "is_reserved": 0}, {"lon": -77.04661733333333, "bike_id": "dab640becf9dcabcfaabca295ceaa585", "lat": 38.8965485, "fusion_lon": 0.0, "fusion_lat": 0.0, "type": "electric_scooter", "name": "dab640becf9dcabcfaabca295ceaa585", "is_disabled": 0, "rental_uris": {"ios": "https://dc.lft.to/lastmile_qr_scan", "android": "https://dc.lft.to/lastmile_qr_scan"}, "is_reserved": 0}, {"lon": -77.067765, "bike_id": "3103b355425117cfdfeddeb20f34008b", "lat": 38.90363883333333, "fusion_lon": 0.0, "fusion_lat": 0.0, "type": "electric_scooter", "name": "3103b355425117cfdfeddeb20f34008b", "is_disabled": 0, "rental_uris": {"ios": "https://dc.lft.to/lastmile_qr_scan", "android": "https://dc.lft.to/lastmile_qr_scan"}, "is_reserved": 0}, {"lon": -76.96910583333333, "bike_id": "d4a0178e00cb32f3db728b9b5bcb7092", "lat": 38.8461345, "fusion_lon": 0.0, "fusion_lat": 0.0, "type": "electric_bike", "name": "d4a0178e00cb32f3db728b9b5bcb7092", "is_disabled": 0, "rental_uris": {"ios": "https://dc.lft.to/lastmile_qr_scan", "android": "https://dc.lft.to/lastmile_qr_scan"}, "is_reserved": 0}, {"lon": -77.03943166666667, "bike_id": "407aab0157ab78c26112ed2e7d0d1c3c", "lat": 38.9170815, "fusion_lon": 0.0, "fusion_lat": 0.0, "type": "electric_scooter", "name": "407aab0157ab78c26112ed2e7d0d1c3c", "is_disabled": 0, "rental_uris": {"ios": "https://dc.lft.to/lastmile_qr_scan", "android": "https://dc.lft.to/lastmile_qr_scan"}, "is_reserved": 0}, {"lon": -77.0461005, "bike_id": "972a1ccc8d26db85a8c6392d432373e3", "lat": 38.916414833333334, "fusion_lon": 0.0, "fusion_lat": 0.0, "type": "electric_scooter", "name": "972a1ccc8d26db85a8c6392d432373e3", "is_disabled": 0, "rental_uris": {"ios": "https://dc.lft.to/lastmile_qr_scan", "android": "https://dc.lft.to/lastmile_qr_scan"}, "is_reserved": 0}, {"lon": -77.03340316666667, "bike_id": "24fa5200e15b13ae566d98777585f2cd", "lat": 38.90126866666667, "fusion_lon": 0.0, "fusion_lat": 0.0, "type": "electric_scooter", "name": "24fa5200e15b13ae566d98777585f2cd", "is_disabled": 0, "rental_uris": {"ios": "https://dc.lft.to/lastmile_qr_scan", "android": "https://dc.lft.to/lastmile_qr_scan"}, "is_reserved": 0}, {"lon": -77.03643683333334, "bike_id": "ee744631a322be3dd4fde6642cfab51b", "lat": 38.913470833333335, "fusion_lon": 0.0, "fusion_lat": 0.0, "type": "electric_scooter", "name": "ee744631a322be3dd4fde6642cfab51b", "is_disabled": 0, "rental_uris": {"ios": "https://dc.lft.to/lastmile_qr_scan", "android": "https://dc.lft.to/lastmile_qr_scan"}, "is_reserved": 0}, {"lon": -77.017914, "bike_id": "40fa63a83a7b52a0865dc4164164c115", "lat": 38.941191, "fusion_lon": 0.0, "fusion_lat": 0.0, "type": "electric_scooter", "name": "40fa63a83a7b52a0865dc4164164c115", "is_disabled": 0, "rental_uris": {"ios": "https://dc.lft.to/lastmile_qr_scan", "android": "https://dc.lft.to/lastmile_qr_scan"}, "is_reserved": 0}, {"lon": -76.99055283333334, "bike_id": "e639c35269282cb31594854852ae1533", "lat": 38.86378166666667, "fusion_lon": 0.0, "fusion_lat": 0.0, "type": "electric_scooter", "name": "e639c35269282cb31594854852ae1533", "is_disabled": 0, "rental_uris": {"ios": "https://dc.lft.to/lastmile_qr_scan", "android": "https://dc.lft.to/lastmile_qr_scan"}, "is_reserved": 0}, {"lon": -76.948799, "bike_id": "49e7bb1f7e258410e373b80e1a6b8def", "lat": 38.8942655, "fusion_lon": 0.0, "fusion_lat": 0.0, "type": "electric_scooter", "name": "49e7bb1f7e258410e373b80e1a6b8def", "is_disabled": 0, "rental_uris": {"ios": "https://dc.lft.to/lastmile_qr_scan", "android": "https://dc.lft.to/lastmile_qr_scan"}, "is_reserved": 0}, {"lon": -77.03214683333333, "bike_id": "d490f94c4fbb515d51bb417e601d101f", "lat": 38.9126945, "fusion_lon": 0.0, "fusion_lat": 0.0, "type": "electric_scooter", "name": "d490f94c4fbb515d51bb417e601d101f", "is_disabled": 0, "rental_uris": {"ios": "https://dc.lft.to/lastmile_qr_scan", "android": "https://dc.lft.to/lastmile_qr_scan"}, "is_reserved": 0}, {"lon": -77.01984, "bike_id": "3989505c6304b48691c2376b4900b9a4", "lat": 38.92550716666667, "fusion_lon": 0.0, "fusion_lat": 0.0, "type": "electric_bike", "name": "3989505c6304b48691c2376b4900b9a4", "is_disabled": 0, "rental_uris": {"ios": "https://dc.lft.to/lastmile_qr_scan", "android": "https://dc.lft.to/lastmile_qr_scan"}, "is_reserved": 0}, {"lon": -76.9936415, "bike_id": "028a9cae7c382480d29be873267ff5d0", "lat": 38.893828666666664, "fusion_lon": 0.0, "fusion_lat": 0.0, "type": "electric_scooter", "name": "028a9cae7c382480d29be873267ff5d0", "is_disabled": 0, "rental_uris": {"ios": "https://dc.lft.to/lastmile_qr_scan", "android": "https://dc.lft.to/lastmile_qr_scan"}, "is_reserved": 0}, {"lon": -77.03440383333333, "bike_id": "b5fb6e00db6bc2d6e9a5ac4a4ffd7233", "lat": 38.909879333333336, "fusion_lon": 0.0, "fusion_lat": 0.0, "type": "electric_scooter", "name": "b5fb6e00db6bc2d6e9a5ac4a4ffd7233", "is_disabled": 0, "rental_uris": {"ios": "https://dc.lft.to/lastmile_qr_scan", "android": "https://dc.lft.to/lastmile_qr_scan"}, "is_reserved": 0}, {"lon": -77.00679366666667, "bike_id": "1d0d6f2685659f068684931c88753fa6", "lat": 38.834982, "fusion_lon": 0.0, "fusion_lat": 0.0, "type": "electric_scooter", "name": "1d0d6f2685659f068684931c88753fa6", "is_disabled": 0, "rental_uris": {"ios": "https://dc.lft.to/lastmile_qr_scan", "android": "https://dc.lft.to/lastmile_qr_scan"}, "is_reserved": 0}, {"lon": -77.03315916666666, "bike_id": "06c9f2d209ce6269a9c014fdaa027a22", "lat": 38.921606, "fusion_lon": 0.0, "fusion_lat": 0.0, "type": "electric_scooter", "name": "06c9f2d209ce6269a9c014fdaa027a22", "is_disabled": 0, "rental_uris": {"ios": "https://dc.lft.to/lastmile_qr_scan", "android": "https://dc.lft.to/lastmile_qr_scan"}, "is_reserved": 0}, {"lon": -77.03078166666667, "bike_id": "b0d9379c172bee75d1272082aab91162", "lat": 38.9008495, "fusion_lon": 0.0, "fusion_lat": 0.0, "type": "electric_scooter", "name": "b0d9379c172bee75d1272082aab91162", "is_disabled": 0, "rental_uris": {"ios": "https://dc.lft.to/lastmile_qr_scan", "android": "https://dc.lft.to/lastmile_qr_scan"}, "is_reserved": 0}, {"lon": -77.04445966666667, "bike_id": "7890d5ab7e65d21c7a45b38735fef426", "lat": 38.918037, "fusion_lon": 0.0, "fusion_lat": 0.0, "type": "electric_scooter", "name": "7890d5ab7e65d21c7a45b38735fef426", "is_disabled": 0, "rental_uris": {"ios": "https://dc.lft.to/lastmile_qr_scan", "android": "https://dc.lft.to/lastmile_qr_scan"}, "is_reserved": 0}, {"lon": -77.045483, "bike_id": "7ad7dbf3753e6cae9dca9e2c29f782ab", "lat": 38.91314333333333, "fusion_lon": 0.0, "fusion_lat": 0.0, "type": "electric_scooter", "name": "7ad7dbf3753e6cae9dca9e2c29f782ab", "is_disabled": 0, "rental_uris": {"ios": "https://dc.lft.to/lastmile_qr_scan", "android": "https://dc.lft.to/lastmile_qr_scan"}, "is_reserved": 0}, {"lon": -77.02386116666666, "bike_id": "d892bba35cd99bd5936cd2a9de05e740", "lat": 38.919830833333336, "fusion_lon": 0.0, "fusion_lat": 0.0, "type": "electric_scooter", "name": "d892bba35cd99bd5936cd2a9de05e740", "is_disabled": 0, "rental_uris": {"ios": "https://dc.lft.to/lastmile_qr_scan", "android": "https://dc.lft.to/lastmile_qr_scan"}, "is_reserved": 0}, {"lon": -77.02690716666666, "bike_id": "4afb35916702e9341a3eec2cbb7071c5", "lat": 38.908410333333336, "fusion_lon": 0.0, "fusion_lat": 0.0, "type": "electric_scooter", "name": "4afb35916702e9341a3eec2cbb7071c5", "is_disabled": 0, "rental_uris": {"ios": "https://dc.lft.to/lastmile_qr_scan", "android": "https://dc.lft.to/lastmile_qr_scan"}, "is_reserved": 0}, {"lon": -77.02768316666666, "bike_id": "82bb614f5164ad0323ebecad69ad15cc", "lat": 38.89223766666667, "fusion_lon": 0.0, "fusion_lat": 0.0, "type": "electric_scooter", "name": "82bb614f5164ad0323ebecad69ad15cc", "is_disabled": 0, "rental_uris": {"ios": "https://dc.lft.to/lastmile_qr_scan", "android": "https://dc.lft.to/lastmile_qr_scan"}, "is_reserved": 0}, {"lon": -77.02057583333334, "bike_id": "89348b9ff5def5b32d54ee1b76f39c64", "lat": 38.92914833333333, "fusion_lon": 0.0, "fusion_lat": 0.0, "type": "electric_scooter", "name": "89348b9ff5def5b32d54ee1b76f39c64", "is_disabled": 0, "rental_uris": {"ios": "https://dc.lft.to/lastmile_qr_scan", "android": "https://dc.lft.to/lastmile_qr_scan"}, "is_reserved": 0}, {"lon": -77.00056733333334, "bike_id": "141e6ea9232a7494697fce7b6db0c8aa", "lat": 38.900865333333336, "fusion_lon": 0.0, "fusion_lat": 0.0, "type": "electric_scooter", "name": "141e6ea9232a7494697fce7b6db0c8aa", "is_disabled": 0, "rental_uris": {"ios": "https://dc.lft.to/lastmile_qr_scan", "android": "https://dc.lft.to/lastmile_qr_scan"}, "is_reserved": 0}, {"lon": -76.94977966666667, "bike_id": "0b431d6813814eac061727e898da3b02", "lat": 38.89372766666666, "fusion_lon": 0.0, "fusion_lat": 0.0, "type": "electric_scooter", "name": "0b431d6813814eac061727e898da3b02", "is_disabled": 0, "rental_uris": {"ios": "https://dc.lft.to/lastmile_qr_scan", "android": "https://dc.lft.to/lastmile_qr_scan"}, "is_reserved": 0}, {"lon": -77.031886, "bike_id": "20f293aa0c4c17c56b53d7eab0dbf10a", "lat": 38.91224533333333, "fusion_lon": 0.0, "fusion_lat": 0.0, "type": "electric_scooter", "name": "20f293aa0c4c17c56b53d7eab0dbf10a", "is_disabled": 0, "rental_uris": {"ios": "https://dc.lft.to/lastmile_qr_scan", "android": "https://dc.lft.to/lastmile_qr_scan"}, "is_reserved": 0}, {"lon": -77.02386183333333, "bike_id": "de7640929e73387add85eba5daba3024", "lat": 38.9080355, "fusion_lon": 0.0, "fusion_lat": 0.0, "type": "electric_scooter", "name": "de7640929e73387add85eba5daba3024", "is_disabled": 0, "rental_uris": {"ios": "https://dc.lft.to/lastmile_qr_scan", "android": "https://dc.lft.to/lastmile_qr_scan"}, "is_reserved": 0}, {"lon": -76.935373, "bike_id": "fe959cbc4b7456dd3e83851397481ced", "lat": 38.896838, "fusion_lon": 0.0, "fusion_lat": 0.0, "type": "electric_scooter", "name": "fe959cbc4b7456dd3e83851397481ced", "is_disabled": 0, "rental_uris": {"ios": "https://dc.lft.to/lastmile_qr_scan", "android": "https://dc.lft.to/lastmile_qr_scan"}, "is_reserved": 0}, {"lon": -77.02981016666666, "bike_id": "0bf40e99a32f6432ee7da02c4fbc9330", "lat": 38.924576, "fusion_lon": 0.0, "fusion_lat": 0.0, "type": "electric_scooter", "name": "0bf40e99a32f6432ee7da02c4fbc9330", "is_disabled": 0, "rental_uris": {"ios": "https://dc.lft.to/lastmile_qr_scan", "android": "https://dc.lft.to/lastmile_qr_scan"}, "is_reserved": 0}, {"lon": -77.03447233333333, "bike_id": "319e7e7ff5e974a6ecb07d4f68bee1bd", "lat": 38.907371833333336, "fusion_lon": 0.0, "fusion_lat": 0.0, "type": "electric_scooter", "name": "319e7e7ff5e974a6ecb07d4f68bee1bd", "is_disabled": 0, "rental_uris": {"ios": "https://dc.lft.to/lastmile_qr_scan", "android": "https://dc.lft.to/lastmile_qr_scan"}, "is_reserved": 0}, {"lon": -76.99810216666667, "bike_id": "9252bff9356be4fa7a70f0190f715717", "lat": 38.9050295, "fusion_lon": 0.0, "fusion_lat": 0.0, "type": "electric_bike", "name": "9252bff9356be4fa7a70f0190f715717", "is_disabled": 0, "rental_uris": {"ios": "https://dc.lft.to/lastmile_qr_scan", "android": "https://dc.lft.to/lastmile_qr_scan"}, "is_reserved": 0}, {"lon": -77.02180566666667, "bike_id": "5b5d51bcdeeffb796689757ef2091934", "lat": 38.91533416666667, "fusion_lon": 0.0, "fusion_lat": 0.0, "type": "electric_scooter", "name": "5b5d51bcdeeffb796689757ef2091934", "is_disabled": 0, "rental_uris": {"ios": "https://dc.lft.to/lastmile_qr_scan", "android": "https://dc.lft.to/lastmile_qr_scan"}, "is_reserved": 0}, {"lon": -76.96546483333333, "bike_id": "1cb32bee4c4448972713c13dcc37f823", "lat": 38.918587333333335, "fusion_lon": 0.0, "fusion_lat": 0.0, "type": "electric_scooter", "name": "1cb32bee4c4448972713c13dcc37f823", "is_disabled": 0, "rental_uris": {"ios": "https://dc.lft.to/lastmile_qr_scan", "android": "https://dc.lft.to/lastmile_qr_scan"}, "is_reserved": 0}, {"lon": -77.0394205, "bike_id": "76eb62bf2e01e7e866458d0fd0696998", "lat": 38.8989885, "fusion_lon": 0.0, "fusion_lat": 0.0, "type": "electric_scooter", "name": "76eb62bf2e01e7e866458d0fd0696998", "is_disabled": 0, "rental_uris": {"ios": "https://dc.lft.to/lastmile_qr_scan", "android": "https://dc.lft.to/lastmile_qr_scan"}, "is_reserved": 0}, {"lon": -77.0059015, "bike_id": "27d870d111652ef2b8c2212bb7e27a26", "lat": 38.9057395, "fusion_lon": 0.0, "fusion_lat": 0.0, "type": "electric_scooter", "name": "27d870d111652ef2b8c2212bb7e27a26", "is_disabled": 0, "rental_uris": {"ios": "https://dc.lft.to/lastmile_qr_scan", "android": "https://dc.lft.to/lastmile_qr_scan"}, "is_reserved": 0}, {"lon": -76.99408616666666, "bike_id": "e36943f4843cd4497e454e345305e450", "lat": 38.8778615, "fusion_lon": 0.0, "fusion_lat": 0.0, "type": "electric_scooter", "name": "e36943f4843cd4497e454e345305e450", "is_disabled": 0, "rental_uris": {"ios": "https://dc.lft.to/lastmile_qr_scan", "android": "https://dc.lft.to/lastmile_qr_scan"}, "is_reserved": 0}, {"lon": -77.04316316666667, "bike_id": "20b99d54460ef03131b0fbdef99eadfc", "lat": 38.9083185, "fusion_lon": 0.0, "fusion_lat": 0.0, "type": "electric_scooter", "name": "20b99d54460ef03131b0fbdef99eadfc", "is_disabled": 0, "rental_uris": {"ios": "https://dc.lft.to/lastmile_qr_scan", "android": "https://dc.lft.to/lastmile_qr_scan"}, "is_reserved": 0}, {"lon": -77.03655933333333, "bike_id": "51d2928f58b08e7e6432845573895dcf", "lat": 38.936570833333334, "fusion_lon": 0.0, "fusion_lat": 0.0, "type": "electric_scooter", "name": "51d2928f58b08e7e6432845573895dcf", "is_disabled": 0, "rental_uris": {"ios": "https://dc.lft.to/lastmile_qr_scan", "android": "https://dc.lft.to/lastmile_qr_scan"}, "is_reserved": 0}, {"lon": -77.02724433333333, "bike_id": "ac2932820a119a9e937f7c6ca211bb5f", "lat": 38.951343333333334, "fusion_lon": 0.0, "fusion_lat": 0.0, "type": "electric_scooter", "name": "ac2932820a119a9e937f7c6ca211bb5f", "is_disabled": 0, "rental_uris": {"ios": "https://dc.lft.to/lastmile_qr_scan", "android": "https://dc.lft.to/lastmile_qr_scan"}, "is_reserved": 0}, {"lon": -76.9990395, "bike_id": "14995f5505f44dba06a967f74cd2856d", "lat": 38.900048166666664, "fusion_lon": 0.0, "fusion_lat": 0.0, "type": "electric_scooter", "name": "14995f5505f44dba06a967f74cd2856d", "is_disabled": 0, "rental_uris": {"ios": "https://dc.lft.to/lastmile_qr_scan", "android": "https://dc.lft.to/lastmile_qr_scan"}, "is_reserved": 0}, {"lon": -77.02405616666667, "bike_id": "c7506c89a9603bf247143953940510d9", "lat": 38.882889, "fusion_lon": 0.0, "fusion_lat": 0.0, "type": "electric_scooter", "name": "c7506c89a9603bf247143953940510d9", "is_disabled": 0, "rental_uris": {"ios": "https://dc.lft.to/lastmile_qr_scan", "android": "https://dc.lft.to/lastmile_qr_scan"}, "is_reserved": 0}, {"lon": -76.99736316666667, "bike_id": "5fd489ce2e86245c14931e2e56f97fc8", "lat": 39.04230733333333, "fusion_lon": 0.0, "fusion_lat": 0.0, "type": "electric_bike", "name": "5fd489ce2e86245c14931e2e56f97fc8", "is_disabled": 0, "rental_uris": {"ios": "https://dc.lft.to/lastmile_qr_scan", "android": "https://dc.lft.to/lastmile_qr_scan"}, "is_reserved": 0}, {"lon": -76.98564566666667, "bike_id": "6a50acbb20a3622e2ca33dab3c37ab9e", "lat": 38.90918083333333, "fusion_lon": 0.0, "fusion_lat": 0.0, "type": "electric_scooter", "name": "6a50acbb20a3622e2ca33dab3c37ab9e", "is_disabled": 0, "rental_uris": {"ios": "https://dc.lft.to/lastmile_qr_scan", "android": "https://dc.lft.to/lastmile_qr_scan"}, "is_reserved": 0}, {"lon": -77.04263116666667, "bike_id": "5da437d3a2ca392d9f603c8d913e6605", "lat": 38.9163745, "fusion_lon": 0.0, "fusion_lat": 0.0, "type": "electric_scooter", "name": "5da437d3a2ca392d9f603c8d913e6605", "is_disabled": 0, "rental_uris": {"ios": "https://dc.lft.to/lastmile_qr_scan", "android": "https://dc.lft.to/lastmile_qr_scan"}, "is_reserved": 0}, {"lon": -77.03185933333333, "bike_id": "58ccb3ba2119bd469669891a4db32581", "lat": 38.92866816666667, "fusion_lon": 0.0, "fusion_lat": 0.0, "type": "electric_scooter", "name": "58ccb3ba2119bd469669891a4db32581", "is_disabled": 0, "rental_uris": {"ios": "https://dc.lft.to/lastmile_qr_scan", "android": "https://dc.lft.to/lastmile_qr_scan"}, "is_reserved": 0}, {"lon": -77.0170175, "bike_id": "b10f180c27435547988b484d92a548c7", "lat": 38.879245166666664, "fusion_lon": 0.0, "fusion_lat": 0.0, "type": "electric_scooter", "name": "b10f180c27435547988b484d92a548c7", "is_disabled": 0, "rental_uris": {"ios": "https://dc.lft.to/lastmile_qr_scan", "android": "https://dc.lft.to/lastmile_qr_scan"}, "is_reserved": 0}, {"lon": -77.02896083333333, "bike_id": "47386feda8e2a47237240deef8eb3f53", "lat": 38.917088166666666, "fusion_lon": 0.0, "fusion_lat": 0.0, "type": "electric_scooter", "name": "47386feda8e2a47237240deef8eb3f53", "is_disabled": 0, "rental_uris": {"ios": "https://dc.lft.to/lastmile_qr_scan", "android": "https://dc.lft.to/lastmile_qr_scan"}, "is_reserved": 0}, {"lon": -77.03070966666667, "bike_id": "6da1d39980571ef365f6ec391cb1dabe", "lat": 38.916957833333335, "fusion_lon": 0.0, "fusion_lat": 0.0, "type": "electric_scooter", "name": "6da1d39980571ef365f6ec391cb1dabe", "is_disabled": 0, "rental_uris": {"ios": "https://dc.lft.to/lastmile_qr_scan", "android": "https://dc.lft.to/lastmile_qr_scan"}, "is_reserved": 0}, {"lon": -77.0334025, "bike_id": "3bc0fd93652764071bfe89e0dda4f63e", "lat": 38.899053333333335, "fusion_lon": 0.0, "fusion_lat": 0.0, "type": "electric_scooter", "name": "3bc0fd93652764071bfe89e0dda4f63e", "is_disabled": 0, "rental_uris": {"ios": "https://dc.lft.to/lastmile_qr_scan", "android": "https://dc.lft.to/lastmile_qr_scan"}, "is_reserved": 0}, {"lon": -77.03282683333333, "bike_id": "48e7330a35e978c0ce109be19419d8ff", "lat": 38.932068666666666, "fusion_lon": 0.0, "fusion_lat": 0.0, "type": "electric_scooter", "name": "48e7330a35e978c0ce109be19419d8ff", "is_disabled": 0, "rental_uris": {"ios": "https://dc.lft.to/lastmile_qr_scan", "android": "https://dc.lft.to/lastmile_qr_scan"}, "is_reserved": 0}, {"lon": -77.005958, "bike_id": "9cbb84ec1455e121f1b67aebd319de6c", "lat": 38.90567383333333, "fusion_lon": 0.0, "fusion_lat": 0.0, "type": "electric_scooter", "name": "9cbb84ec1455e121f1b67aebd319de6c", "is_disabled": 0, "rental_uris": {"ios": "https://dc.lft.to/lastmile_qr_scan", "android": "https://dc.lft.to/lastmile_qr_scan"}, "is_reserved": 0}, {"lon": -76.980876, "bike_id": "2831b4ac07df0e342324bd83c52c954d", "lat": 38.88426183333333, "fusion_lon": 0.0, "fusion_lat": 0.0, "type": "electric_scooter", "name": "2831b4ac07df0e342324bd83c52c954d", "is_disabled": 0, "rental_uris": {"ios": "https://dc.lft.to/lastmile_qr_scan", "android": "https://dc.lft.to/lastmile_qr_scan"}, "is_reserved": 0}, {"lon": -76.97334266666667, "bike_id": "d1baee2c21fec17fb41e3f7acb46cf16", "lat": 38.8651865, "fusion_lon": 0.0, "fusion_lat": 0.0, "type": "electric_bike", "name": "d1baee2c21fec17fb41e3f7acb46cf16", "is_disabled": 0, "rental_uris": {"ios": "https://dc.lft.to/lastmile_qr_scan", "android": "https://dc.lft.to/lastmile_qr_scan"}, "is_reserved": 0}, {"lon": -77.034995, "bike_id": "0074cbd7953f7f15d8f41b327a386404", "lat": 38.92142916666667, "fusion_lon": 0.0, "fusion_lat": 0.0, "type": "electric_scooter", "name": "0074cbd7953f7f15d8f41b327a386404", "is_disabled": 0, "rental_uris": {"ios": "https://dc.lft.to/lastmile_qr_scan", "android": "https://dc.lft.to/lastmile_qr_scan"}, "is_reserved": 0}, {"lon": -77.028748, "bike_id": "b2eaec330a1a10667b0cf86f63331012", "lat": 38.932689, "fusion_lon": 0.0, "fusion_lat": 0.0, "type": "electric_scooter", "name": "b2eaec330a1a10667b0cf86f63331012", "is_disabled": 0, "rental_uris": {"ios": "https://dc.lft.to/lastmile_qr_scan", "android": "https://dc.lft.to/lastmile_qr_scan"}, "is_reserved": 0}, {"lon": -77.0262685, "bike_id": "96457601774a58f87c844703d83b0f6a", "lat": 38.892183833333334, "fusion_lon": 0.0, "fusion_lat": 0.0, "type": "electric_scooter", "name": "96457601774a58f87c844703d83b0f6a", "is_disabled": 0, "rental_uris": {"ios": "https://dc.lft.to/lastmile_qr_scan", "android": "https://dc.lft.to/lastmile_qr_scan"}, "is_reserved": 0}, {"lon": -77.02955233333333, "bike_id": "02077dca23dc5becf7c05dabf77d86c9", "lat": 38.9118115, "fusion_lon": 0.0, "fusion_lat": 0.0, "type": "electric_scooter", "name": "02077dca23dc5becf7c05dabf77d86c9", "is_disabled": 0, "rental_uris": {"ios": "https://dc.lft.to/lastmile_qr_scan", "android": "https://dc.lft.to/lastmile_qr_scan"}, "is_reserved": 0}, {"lon": -77.03765966666667, "bike_id": "d44fb68b9535fe96320044c14e22735c", "lat": 38.907758, "fusion_lon": 0.0, "fusion_lat": 0.0, "type": "electric_scooter", "name": "d44fb68b9535fe96320044c14e22735c", "is_disabled": 0, "rental_uris": {"ios": "https://dc.lft.to/lastmile_qr_scan", "android": "https://dc.lft.to/lastmile_qr_scan"}, "is_reserved": 0}, {"lon": -76.992587, "bike_id": "02e51211d2f827a7f8d99479e9381375", "lat": 38.8906515, "fusion_lon": 0.0, "fusion_lat": 0.0, "type": "electric_bike", "name": "02e51211d2f827a7f8d99479e9381375", "is_disabled": 0, "rental_uris": {"ios": "https://dc.lft.to/lastmile_qr_scan", "android": "https://dc.lft.to/lastmile_qr_scan"}, "is_reserved": 0}, {"lon": -76.9317645, "bike_id": "5a8f2ad8e7729d062c1acc7fefbea350", "lat": 38.898856, "fusion_lon": 0.0, "fusion_lat": 0.0, "type": "electric_scooter", "name": "5a8f2ad8e7729d062c1acc7fefbea350", "is_disabled": 0, "rental_uris": {"ios": "https://dc.lft.to/lastmile_qr_scan", "android": "https://dc.lft.to/lastmile_qr_scan"}, "is_reserved": 0}, {"lon": -76.99570716666666, "bike_id": "8a1d21b54bc973e0bf94fc1836d0643e", "lat": 38.851799666666665, "fusion_lon": 0.0, "fusion_lat": 0.0, "type": "electric_bike", "name": "8a1d21b54bc973e0bf94fc1836d0643e", "is_disabled": 0, "rental_uris": {"ios": "https://dc.lft.to/lastmile_qr_scan", "android": "https://dc.lft.to/lastmile_qr_scan"}, "is_reserved": 0}, {"lon": -77.053405, "bike_id": "54777e31aba08747c8de7f1ea8e44e5e", "lat": 38.9064205, "fusion_lon": 0.0, "fusion_lat": 0.0, "type": "electric_scooter", "name": "54777e31aba08747c8de7f1ea8e44e5e", "is_disabled": 0, "rental_uris": {"ios": "https://dc.lft.to/lastmile_qr_scan", "android": "https://dc.lft.to/lastmile_qr_scan"}, "is_reserved": 0}, {"lon": -76.996132, "bike_id": "fb426b8f446b27c499c703b70bb291f7", "lat": 38.88317466666667, "fusion_lon": 0.0, "fusion_lat": 0.0, "type": "electric_scooter", "name": "fb426b8f446b27c499c703b70bb291f7", "is_disabled": 0, "rental_uris": {"ios": "https://dc.lft.to/lastmile_qr_scan", "android": "https://dc.lft.to/lastmile_qr_scan"}, "is_reserved": 0}, {"lon": -76.9337155, "bike_id": "cf07dc9567de96a4fc05dc6cd2fa30ef", "lat": 38.89916866666667, "fusion_lon": 0.0, "fusion_lat": 0.0, "type": "electric_scooter", "name": "cf07dc9567de96a4fc05dc6cd2fa30ef", "is_disabled": 0, "rental_uris": {"ios": "https://dc.lft.to/lastmile_qr_scan", "android": "https://dc.lft.to/lastmile_qr_scan"}, "is_reserved": 0}, {"lon": -77.02713116666666, "bike_id": "869e6e3248b190ddbc15c76131f30fca", "lat": 38.94990383333333, "fusion_lon": 0.0, "fusion_lat": 0.0, "type": "electric_scooter", "name": "869e6e3248b190ddbc15c76131f30fca", "is_disabled": 0, "rental_uris": {"ios": "https://dc.lft.to/lastmile_qr_scan", "android": "https://dc.lft.to/lastmile_qr_scan"}, "is_reserved": 0}, {"lon": -77.04409533333333, "bike_id": "f64acf3fdc55f6329cc21649afdc94d7", "lat": 38.929512833333334, "fusion_lon": 0.0, "fusion_lat": 0.0, "type": "electric_scooter", "name": "f64acf3fdc55f6329cc21649afdc94d7", "is_disabled": 0, "rental_uris": {"ios": "https://dc.lft.to/lastmile_qr_scan", "android": "https://dc.lft.to/lastmile_qr_scan"}, "is_reserved": 0}, {"lon": -76.99941233333334, "bike_id": "815002d775df88535de61c5f05a11503", "lat": 38.907005833333336, "fusion_lon": 0.0, "fusion_lat": 0.0, "type": "electric_scooter", "name": "815002d775df88535de61c5f05a11503", "is_disabled": 0, "rental_uris": {"ios": "https://dc.lft.to/lastmile_qr_scan", "android": "https://dc.lft.to/lastmile_qr_scan"}, "is_reserved": 0}, {"lon": -77.0060035, "bike_id": "00a629b32f88e83baa247231f957cb52", "lat": 38.871876, "fusion_lon": 0.0, "fusion_lat": 0.0, "type": "electric_scooter", "name": "00a629b32f88e83baa247231f957cb52", "is_disabled": 0, "rental_uris": {"ios": "https://dc.lft.to/lastmile_qr_scan", "android": "https://dc.lft.to/lastmile_qr_scan"}, "is_reserved": 0}, {"lon": -77.04453133333334, "bike_id": "ac190f87005e97cc9fc18c743d57ea9d", "lat": 38.9193925, "fusion_lon": 0.0, "fusion_lat": 0.0, "type": "electric_scooter", "name": "ac190f87005e97cc9fc18c743d57ea9d", "is_disabled": 0, "rental_uris": {"ios": "https://dc.lft.to/lastmile_qr_scan", "android": "https://dc.lft.to/lastmile_qr_scan"}, "is_reserved": 0}, {"lon": -77.0214895, "bike_id": "17977bbfe18bb008a360d2e916d6d660", "lat": 38.8874695, "fusion_lon": 0.0, "fusion_lat": 0.0, "type": "electric_scooter", "name": "17977bbfe18bb008a360d2e916d6d660", "is_disabled": 0, "rental_uris": {"ios": "https://dc.lft.to/lastmile_qr_scan", "android": "https://dc.lft.to/lastmile_qr_scan"}, "is_reserved": 0}, {"lon": -77.03179683333333, "bike_id": "6e44db49b3e86cfcdf94d058387a7dd0", "lat": 38.8873615, "fusion_lon": 0.0, "fusion_lat": 0.0, "type": "electric_scooter", "name": "6e44db49b3e86cfcdf94d058387a7dd0", "is_disabled": 0, "rental_uris": {"ios": "https://dc.lft.to/lastmile_qr_scan", "android": "https://dc.lft.to/lastmile_qr_scan"}, "is_reserved": 0}, {"lon": -77.0387925, "bike_id": "a22b4892a38cd708212616722a37da69", "lat": 38.911069, "fusion_lon": 0.0, "fusion_lat": 0.0, "type": "electric_scooter", "name": "a22b4892a38cd708212616722a37da69", "is_disabled": 0, "rental_uris": {"ios": "https://dc.lft.to/lastmile_qr_scan", "android": "https://dc.lft.to/lastmile_qr_scan"}, "is_reserved": 0}, {"lon": -76.99808066666667, "bike_id": "d678e24728506a108455cab0c52b0890", "lat": 38.9003315, "fusion_lon": 0.0, "fusion_lat": 0.0, "type": "electric_scooter", "name": "d678e24728506a108455cab0c52b0890", "is_disabled": 0, "rental_uris": {"ios": "https://dc.lft.to/lastmile_qr_scan", "android": "https://dc.lft.to/lastmile_qr_scan"}, "is_reserved": 0}, {"lon": -77.03804083333333, "bike_id": "5e766a1218c46bf128da194f1fb485f0", "lat": 38.91035133333333, "fusion_lon": 0.0, "fusion_lat": 0.0, "type": "electric_scooter", "name": "5e766a1218c46bf128da194f1fb485f0", "is_disabled": 0, "rental_uris": {"ios": "https://dc.lft.to/lastmile_qr_scan", "android": "https://dc.lft.to/lastmile_qr_scan"}, "is_reserved": 0}, {"lon": -77.000518, "bike_id": "0ab15ec21f574a3b7c74044dcb6e6d47", "lat": 38.9682865, "fusion_lon": 0.0, "fusion_lat": 0.0, "type": "electric_bike", "name": "0ab15ec21f574a3b7c74044dcb6e6d47", "is_disabled": 0, "rental_uris": {"ios": "https://dc.lft.to/lastmile_qr_scan", "android": "https://dc.lft.to/lastmile_qr_scan"}, "is_reserved": 0}, {"lon": -77.03313016666667, "bike_id": "95dcba06d46b35005a9ce35a71c9fd19", "lat": 38.90103966666667, "fusion_lon": 0.0, "fusion_lat": 0.0, "type": "electric_scooter", "name": "95dcba06d46b35005a9ce35a71c9fd19", "is_disabled": 0, "rental_uris": {"ios": "https://dc.lft.to/lastmile_qr_scan", "android": "https://dc.lft.to/lastmile_qr_scan"}, "is_reserved": 0}, {"lon": -77.0264955, "bike_id": "d6cbd624cba0f246fd800eec057fb6a1", "lat": 38.927748666666666, "fusion_lon": 0.0, "fusion_lat": 0.0, "type": "electric_scooter", "name": "d6cbd624cba0f246fd800eec057fb6a1", "is_disabled": 0, "rental_uris": {"ios": "https://dc.lft.to/lastmile_qr_scan", "android": "https://dc.lft.to/lastmile_qr_scan"}, "is_reserved": 0}, {"lon": -77.03245, "bike_id": "4afcf79ff836e9a45508d827a08e2eff", "lat": 38.92878816666666, "fusion_lon": 0.0, "fusion_lat": 0.0, "type": "electric_scooter", "name": "4afcf79ff836e9a45508d827a08e2eff", "is_disabled": 0, "rental_uris": {"ios": "https://dc.lft.to/lastmile_qr_scan", "android": "https://dc.lft.to/lastmile_qr_scan"}, "is_reserved": 0}, {"lon": -77.0501175, "bike_id": "2cc99908d75982170eed93023a65d0ee", "lat": 38.90054133333334, "fusion_lon": 0.0, "fusion_lat": 0.0, "type": "electric_scooter", "name": "2cc99908d75982170eed93023a65d0ee", "is_disabled": 0, "rental_uris": {"ios": "https://dc.lft.to/lastmile_qr_scan", "android": "https://dc.lft.to/lastmile_qr_scan"}, "is_reserved": 0}, {"lon": -77.0319205, "bike_id": "f89ac9a50c89842e55a0a9e2bf02019d", "lat": 38.91745916666667, "fusion_lon": 0.0, "fusion_lat": 0.0, "type": "electric_scooter", "name": "f89ac9a50c89842e55a0a9e2bf02019d", "is_disabled": 0, "rental_uris": {"ios": "https://dc.lft.to/lastmile_qr_scan", "android": "https://dc.lft.to/lastmile_qr_scan"}, "is_reserved": 0}, {"lon": -77.00203316666666, "bike_id": "1a913fb221da480d14ce9e91c390ea0a", "lat": 38.902409, "fusion_lon": 0.0, "fusion_lat": 0.0, "type": "electric_scooter", "name": "1a913fb221da480d14ce9e91c390ea0a", "is_disabled": 0, "rental_uris": {"ios": "https://dc.lft.to/lastmile_qr_scan", "android": "https://dc.lft.to/lastmile_qr_scan"}, "is_reserved": 0}, {"lon": -77.036628, "bike_id": "f0e5a868918750c36043f73ee7cc8caa", "lat": 38.92134033333333, "fusion_lon": 0.0, "fusion_lat": 0.0, "type": "electric_scooter", "name": "f0e5a868918750c36043f73ee7cc8caa", "is_disabled": 0, "rental_uris": {"ios": "https://dc.lft.to/lastmile_qr_scan", "android": "https://dc.lft.to/lastmile_qr_scan"}, "is_reserved": 0}, {"lon": -77.05047516666667, "bike_id": "170947a6801668b6c5bf1f21ca6dcca1", "lat": 38.92361566666666, "fusion_lon": 0.0, "fusion_lat": 0.0, "type": "electric_scooter", "name": "170947a6801668b6c5bf1f21ca6dcca1", "is_disabled": 0, "rental_uris": {"ios": "https://dc.lft.to/lastmile_qr_scan", "android": "https://dc.lft.to/lastmile_qr_scan"}, "is_reserved": 0}, {"lon": -77.0388075, "bike_id": "c7f202985546dfd5bce686679ca6d52a", "lat": 38.92965383333333, "fusion_lon": 0.0, "fusion_lat": 0.0, "type": "electric_scooter", "name": "c7f202985546dfd5bce686679ca6d52a", "is_disabled": 0, "rental_uris": {"ios": "https://dc.lft.to/lastmile_qr_scan", "android": "https://dc.lft.to/lastmile_qr_scan"}, "is_reserved": 0}, {"lon": -77.03205883333334, "bike_id": "b481111e610247e166c70a17829d2d11", "lat": 38.94410216666667, "fusion_lon": 0.0, "fusion_lat": 0.0, "type": "electric_scooter", "name": "b481111e610247e166c70a17829d2d11", "is_disabled": 0, "rental_uris": {"ios": "https://dc.lft.to/lastmile_qr_scan", "android": "https://dc.lft.to/lastmile_qr_scan"}, "is_reserved": 0}, {"lon": -77.05438333333333, "bike_id": "45c996be044d6b4d09d7244d9cf01c17", "lat": 38.836864, "fusion_lon": 0.0, "fusion_lat": 0.0, "type": "electric_bike", "name": "45c996be044d6b4d09d7244d9cf01c17", "is_disabled": 0, "rental_uris": {"ios": "https://dc.lft.to/lastmile_qr_scan", "android": "https://dc.lft.to/lastmile_qr_scan"}, "is_reserved": 0}, {"lon": -77.02800966666666, "bike_id": "e8bc5247fad925faf9ae4f470b39105e", "lat": 38.912219666666665, "fusion_lon": 0.0, "fusion_lat": 0.0, "type": "electric_scooter", "name": "e8bc5247fad925faf9ae4f470b39105e", "is_disabled": 0, "rental_uris": {"ios": "https://dc.lft.to/lastmile_qr_scan", "android": "https://dc.lft.to/lastmile_qr_scan"}, "is_reserved": 0}, {"lon": -77.05318266666667, "bike_id": "38a5568491a38e554b91395580329dda", "lat": 38.94103633333334, "fusion_lon": 0.0, "fusion_lat": 0.0, "type": "electric_bike", "name": "38a5568491a38e554b91395580329dda", "is_disabled": 0, "rental_uris": {"ios": "https://dc.lft.to/lastmile_qr_scan", "android": "https://dc.lft.to/lastmile_qr_scan"}, "is_reserved": 0}, {"lon": -76.96381816666667, "bike_id": "d084c6915b0ad8ccc32d8d35277c80b1", "lat": 38.95175283333333, "fusion_lon": 0.0, "fusion_lat": 0.0, "type": "electric_bike", "name": "d084c6915b0ad8ccc32d8d35277c80b1", "is_disabled": 0, "rental_uris": {"ios": "https://dc.lft.to/lastmile_qr_scan", "android": "https://dc.lft.to/lastmile_qr_scan"}, "is_reserved": 0}, {"lon": -77.03116133333333, "bike_id": "9bafd452c77bb7e397f4096644fe7e09", "lat": 38.988353000000004, "fusion_lon": 0.0, "fusion_lat": 0.0, "type": "electric_scooter", "name": "9bafd452c77bb7e397f4096644fe7e09", "is_disabled": 0, "rental_uris": {"ios": "https://dc.lft.to/lastmile_qr_scan", "android": "https://dc.lft.to/lastmile_qr_scan"}, "is_reserved": 0}, {"lon": -77.02798233333333, "bike_id": "0e2bf929cc6c01dc4ace87b43c3be178", "lat": 38.954158166666666, "fusion_lon": 0.0, "fusion_lat": 0.0, "type": "electric_scooter", "name": "0e2bf929cc6c01dc4ace87b43c3be178", "is_disabled": 0, "rental_uris": {"ios": "https://dc.lft.to/lastmile_qr_scan", "android": "https://dc.lft.to/lastmile_qr_scan"}, "is_reserved": 0}, {"lon": -77.228057, "bike_id": "390bbccfdf8213d270531550c38c9f0f", "lat": 38.91019633333333, "fusion_lon": 0.0, "fusion_lat": 0.0, "type": "electric_bike", "name": "390bbccfdf8213d270531550c38c9f0f", "is_disabled": 0, "rental_uris": {"ios": "https://dc.lft.to/lastmile_qr_scan", "android": "https://dc.lft.to/lastmile_qr_scan"}, "is_reserved": 0}, {"lon": -77.03185666666667, "bike_id": "7059758646ce57c9dce7306320fe3d5d", "lat": 38.90992083333333, "fusion_lon": 0.0, "fusion_lat": 0.0, "type": "electric_scooter", "name": "7059758646ce57c9dce7306320fe3d5d", "is_disabled": 0, "rental_uris": {"ios": "https://dc.lft.to/lastmile_qr_scan", "android": "https://dc.lft.to/lastmile_qr_scan"}, "is_reserved": 0}, {"lon": -77.03165966666667, "bike_id": "4de9e332642bccf3ea2b7b5390b68def", "lat": 38.9237645, "fusion_lon": 0.0, "fusion_lat": 0.0, "type": "electric_scooter", "name": "4de9e332642bccf3ea2b7b5390b68def", "is_disabled": 0, "rental_uris": {"ios": "https://dc.lft.to/lastmile_qr_scan", "android": "https://dc.lft.to/lastmile_qr_scan"}, "is_reserved": 0}, {"lon": -77.02090316666667, "bike_id": "f7193c371c08d4a371ca20803bf64edc", "lat": 38.92918616666667, "fusion_lon": 0.0, "fusion_lat": 0.0, "type": "electric_scooter", "name": "f7193c371c08d4a371ca20803bf64edc", "is_disabled": 0, "rental_uris": {"ios": "https://dc.lft.to/lastmile_qr_scan", "android": "https://dc.lft.to/lastmile_qr_scan"}, "is_reserved": 0}, {"lon": -77.03180866666666, "bike_id": "b520b498899bc9f2b12e5912e39384c9", "lat": 38.8873695, "fusion_lon": 0.0, "fusion_lat": 0.0, "type": "electric_scooter", "name": "b520b498899bc9f2b12e5912e39384c9", "is_disabled": 0, "rental_uris": {"ios": "https://dc.lft.to/lastmile_qr_scan", "android": "https://dc.lft.to/lastmile_qr_scan"}, "is_reserved": 0}, {"lon": -77.00743033333333, "bike_id": "1a3634383a56561d7b4a0a4cb20658bc", "lat": 38.925273833333335, "fusion_lon": 0.0, "fusion_lat": 0.0, "type": "electric_scooter", "name": "1a3634383a56561d7b4a0a4cb20658bc", "is_disabled": 0, "rental_uris": {"ios": "https://dc.lft.to/lastmile_qr_scan", "android": "https://dc.lft.to/lastmile_qr_scan"}, "is_reserved": 0}, {"lon": -77.00449133333333, "bike_id": "ea8a758cfe25544cf2c46935a2dd8b88", "lat": 38.912031, "fusion_lon": 0.0, "fusion_lat": 0.0, "type": "electric_scooter", "name": "ea8a758cfe25544cf2c46935a2dd8b88", "is_disabled": 0, "rental_uris": {"ios": "https://dc.lft.to/lastmile_qr_scan", "android": "https://dc.lft.to/lastmile_qr_scan"}, "is_reserved": 0}, {"lon": -77.0413865, "bike_id": "5809e79910bf8a7722d5699295c6a472", "lat": 38.922992, "fusion_lon": 0.0, "fusion_lat": 0.0, "type": "electric_scooter", "name": "5809e79910bf8a7722d5699295c6a472", "is_disabled": 0, "rental_uris": {"ios": "https://dc.lft.to/lastmile_qr_scan", "android": "https://dc.lft.to/lastmile_qr_scan"}, "is_reserved": 0}, {"lon": -77.02714983333334, "bike_id": "e1a14fc44934ec3818642cd2db510f7a", "lat": 38.897455666666666, "fusion_lon": 0.0, "fusion_lat": 0.0, "type": "electric_scooter", "name": "e1a14fc44934ec3818642cd2db510f7a", "is_disabled": 0, "rental_uris": {"ios": "https://dc.lft.to/lastmile_qr_scan", "android": "https://dc.lft.to/lastmile_qr_scan"}, "is_reserved": 0}, {"lon": -77.02712633333333, "bike_id": "5668864266880a1d09406729c66ad226", "lat": 38.90665283333333, "fusion_lon": 0.0, "fusion_lat": 0.0, "type": "electric_scooter", "name": "5668864266880a1d09406729c66ad226", "is_disabled": 0, "rental_uris": {"ios": "https://dc.lft.to/lastmile_qr_scan", "android": "https://dc.lft.to/lastmile_qr_scan"}, "is_reserved": 0}, {"lon": -77.02620016666667, "bike_id": "eb5eb8cdee79a8886ca45beda1ba2fe6", "lat": 38.89227833333333, "fusion_lon": 0.0, "fusion_lat": 0.0, "type": "electric_scooter", "name": "eb5eb8cdee79a8886ca45beda1ba2fe6", "is_disabled": 0, "rental_uris": {"ios": "https://dc.lft.to/lastmile_qr_scan", "android": "https://dc.lft.to/lastmile_qr_scan"}, "is_reserved": 0}, {"lon": -77.00536066666666, "bike_id": "624240a93480e2c58dd613a87bceedae", "lat": 38.9087415, "fusion_lon": 0.0, "fusion_lat": 0.0, "type": "electric_scooter", "name": "624240a93480e2c58dd613a87bceedae", "is_disabled": 0, "rental_uris": {"ios": "https://dc.lft.to/lastmile_qr_scan", "android": "https://dc.lft.to/lastmile_qr_scan"}, "is_reserved": 0}, {"lon": -77.0318175, "bike_id": "530dfb0f0fc7c450236f10ca825f9770", "lat": 38.892238166666665, "fusion_lon": 0.0, "fusion_lat": 0.0, "type": "electric_scooter", "name": "530dfb0f0fc7c450236f10ca825f9770", "is_disabled": 0, "rental_uris": {"ios": "https://dc.lft.to/lastmile_qr_scan", "android": "https://dc.lft.to/lastmile_qr_scan"}, "is_reserved": 0}, {"lon": -77.03181833333333, "bike_id": "9a3aaf0ffc3be9491bf1d926022c0f44", "lat": 38.89227116666667, "fusion_lon": 0.0, "fusion_lat": 0.0, "type": "electric_scooter", "name": "9a3aaf0ffc3be9491bf1d926022c0f44", "is_disabled": 0, "rental_uris": {"ios": "https://dc.lft.to/lastmile_qr_scan", "android": "https://dc.lft.to/lastmile_qr_scan"}, "is_reserved": 0}, {"lon": -77.03435, "bike_id": "5390afb3658d7ee93e49d831dfc84063", "lat": 38.90579866666667, "fusion_lon": 0.0, "fusion_lat": 0.0, "type": "electric_scooter", "name": "5390afb3658d7ee93e49d831dfc84063", "is_disabled": 0, "rental_uris": {"ios": "https://dc.lft.to/lastmile_qr_scan", "android": "https://dc.lft.to/lastmile_qr_scan"}, "is_reserved": 0}, {"lon": -76.98600383333333, "bike_id": "f25a964998037727e1ba04385c081e2f", "lat": 38.8668685, "fusion_lon": 0.0, "fusion_lat": 0.0, "type": "electric_scooter", "name": "f25a964998037727e1ba04385c081e2f", "is_disabled": 0, "rental_uris": {"ios": "https://dc.lft.to/lastmile_qr_scan", "android": "https://dc.lft.to/lastmile_qr_scan"}, "is_reserved": 0}, {"lon": -77.02512283333333, "bike_id": "372ece47d221aafbc8ffb006092e9369", "lat": 38.92094483333333, "fusion_lon": 0.0, "fusion_lat": 0.0, "type": "electric_scooter", "name": "372ece47d221aafbc8ffb006092e9369", "is_disabled": 0, "rental_uris": {"ios": "https://dc.lft.to/lastmile_qr_scan", "android": "https://dc.lft.to/lastmile_qr_scan"}, "is_reserved": 0}, {"lon": -77.04894466666667, "bike_id": "5b04da25b4d24c99327e7a73acc3e6ff", "lat": 38.89226683333333, "fusion_lon": 0.0, "fusion_lat": 0.0, "type": "electric_scooter", "name": "5b04da25b4d24c99327e7a73acc3e6ff", "is_disabled": 0, "rental_uris": {"ios": "https://dc.lft.to/lastmile_qr_scan", "android": "https://dc.lft.to/lastmile_qr_scan"}, "is_reserved": 0}, {"lon": -77.02220683333333, "bike_id": "692bdbf17dc7bbbf074e8db0e8e05ac8", "lat": 38.892227, "fusion_lon": 0.0, "fusion_lat": 0.0, "type": "electric_scooter", "name": "692bdbf17dc7bbbf074e8db0e8e05ac8", "is_disabled": 0, "rental_uris": {"ios": "https://dc.lft.to/lastmile_qr_scan", "android": "https://dc.lft.to/lastmile_qr_scan"}, "is_reserved": 0}, {"lon": -77.03188916666667, "bike_id": "67d1b45014026efb3233ad5dbb9a57e1", "lat": 38.89620583333333, "fusion_lon": 0.0, "fusion_lat": 0.0, "type": "electric_scooter", "name": "67d1b45014026efb3233ad5dbb9a57e1", "is_disabled": 0, "rental_uris": {"ios": "https://dc.lft.to/lastmile_qr_scan", "android": "https://dc.lft.to/lastmile_qr_scan"}, "is_reserved": 0}, {"lon": -77.02638766666666, "bike_id": "e9145b0111363588d8ad0bb58ebdf0d0", "lat": 38.8997005, "fusion_lon": 0.0, "fusion_lat": 0.0, "type": "electric_scooter", "name": "e9145b0111363588d8ad0bb58ebdf0d0", "is_disabled": 0, "rental_uris": {"ios": "https://dc.lft.to/lastmile_qr_scan", "android": "https://dc.lft.to/lastmile_qr_scan"}, "is_reserved": 0}, {"lon": -76.9894745, "bike_id": "aefb8a9b83f3703aa19c0216c1484d46", "lat": 38.86686183333333, "fusion_lon": 0.0, "fusion_lat": 0.0, "type": "electric_bike", "name": "aefb8a9b83f3703aa19c0216c1484d46", "is_disabled": 0, "rental_uris": {"ios": "https://dc.lft.to/lastmile_qr_scan", "android": "https://dc.lft.to/lastmile_qr_scan"}, "is_reserved": 0}, {"lon": -77.04200833333333, "bike_id": "eb0cef9d0ea4607a84be4f2e674f4fe6", "lat": 38.91144666666667, "fusion_lon": 0.0, "fusion_lat": 0.0, "type": "electric_scooter", "name": "eb0cef9d0ea4607a84be4f2e674f4fe6", "is_disabled": 0, "rental_uris": {"ios": "https://dc.lft.to/lastmile_qr_scan", "android": "https://dc.lft.to/lastmile_qr_scan"}, "is_reserved": 0}, {"lon": -77.0317365, "bike_id": "47e399b12043edd086ef315fa4c4e8c7", "lat": 38.914193, "fusion_lon": 0.0, "fusion_lat": 0.0, "type": "electric_scooter", "name": "47e399b12043edd086ef315fa4c4e8c7", "is_disabled": 0, "rental_uris": {"ios": "https://dc.lft.to/lastmile_qr_scan", "android": "https://dc.lft.to/lastmile_qr_scan"}, "is_reserved": 0}, {"lon": -77.02706116666667, "bike_id": "97001cbe5ac560bdc0d13cc3150c1b0f", "lat": 38.9093735, "fusion_lon": 0.0, "fusion_lat": 0.0, "type": "electric_scooter", "name": "97001cbe5ac560bdc0d13cc3150c1b0f", "is_disabled": 0, "rental_uris": {"ios": "https://dc.lft.to/lastmile_qr_scan", "android": "https://dc.lft.to/lastmile_qr_scan"}, "is_reserved": 0}, {"lon": -76.98460716666666, "bike_id": "cc0f3fe0aa253189cde79c453443bb61", "lat": 38.90557033333333, "fusion_lon": 0.0, "fusion_lat": 0.0, "type": "electric_scooter", "name": "cc0f3fe0aa253189cde79c453443bb61", "is_disabled": 0, "rental_uris": {"ios": "https://dc.lft.to/lastmile_qr_scan", "android": "https://dc.lft.to/lastmile_qr_scan"}, "is_reserved": 0}, {"lon": -77.03238483333334, "bike_id": "69c112abe9688047053edba9e0af482d", "lat": 38.92882916666667, "fusion_lon": 0.0, "fusion_lat": 0.0, "type": "electric_scooter", "name": "69c112abe9688047053edba9e0af482d", "is_disabled": 0, "rental_uris": {"ios": "https://dc.lft.to/lastmile_qr_scan", "android": "https://dc.lft.to/lastmile_qr_scan"}, "is_reserved": 0}, {"lon": -77.02210316666667, "bike_id": "f24080c73a09cabe2d6544a14591d587", "lat": 38.90564033333333, "fusion_lon": 0.0, "fusion_lat": 0.0, "type": "electric_scooter", "name": "f24080c73a09cabe2d6544a14591d587", "is_disabled": 0, "rental_uris": {"ios": "https://dc.lft.to/lastmile_qr_scan", "android": "https://dc.lft.to/lastmile_qr_scan"}, "is_reserved": 0}, {"lon": -77.03633733333334, "bike_id": "98cc7880d8e95f8e4ce16a2adc0dacf9", "lat": 38.91768166666667, "fusion_lon": 0.0, "fusion_lat": 0.0, "type": "electric_scooter", "name": "98cc7880d8e95f8e4ce16a2adc0dacf9", "is_disabled": 0, "rental_uris": {"ios": "https://dc.lft.to/lastmile_qr_scan", "android": "https://dc.lft.to/lastmile_qr_scan"}, "is_reserved": 0}, {"lon": -77.022268, "bike_id": "61d32820ae7bbec9150b111c9718430a", "lat": 38.9125555, "fusion_lon": 0.0, "fusion_lat": 0.0, "type": "electric_scooter", "name": "61d32820ae7bbec9150b111c9718430a", "is_disabled": 0, "rental_uris": {"ios": "https://dc.lft.to/lastmile_qr_scan", "android": "https://dc.lft.to/lastmile_qr_scan"}, "is_reserved": 0}, {"lon": -77.0330185, "bike_id": "a90ee56b88ac0fa145181652b813a2e4", "lat": 38.898136666666666, "fusion_lon": 0.0, "fusion_lat": 0.0, "type": "electric_scooter", "name": "a90ee56b88ac0fa145181652b813a2e4", "is_disabled": 0, "rental_uris": {"ios": "https://dc.lft.to/lastmile_qr_scan", "android": "https://dc.lft.to/lastmile_qr_scan"}, "is_reserved": 0}, {"lon": -77.00568616666666, "bike_id": "8474e7e17a1098fc63e83961340b3bee", "lat": 38.9020205, "fusion_lon": 0.0, "fusion_lat": 0.0, "type": "electric_scooter", "name": "8474e7e17a1098fc63e83961340b3bee", "is_disabled": 0, "rental_uris": {"ios": "https://dc.lft.to/lastmile_qr_scan", "android": "https://dc.lft.to/lastmile_qr_scan"}, "is_reserved": 0}, {"lon": -77.0759655, "bike_id": "0514a84eb2e412ce68e8f6548e695180", "lat": 38.91218683333334, "fusion_lon": 0.0, "fusion_lat": 0.0, "type": "electric_scooter", "name": "0514a84eb2e412ce68e8f6548e695180", "is_disabled": 0, "rental_uris": {"ios": "https://dc.lft.to/lastmile_qr_scan", "android": "https://dc.lft.to/lastmile_qr_scan"}, "is_reserved": 0}, {"lon": -77.00278883333333, "bike_id": "e09b77839fd3014381ffd96d87df9004", "lat": 38.9571335, "fusion_lon": 0.0, "fusion_lat": 0.0, "type": "electric_bike", "name": "e09b77839fd3014381ffd96d87df9004", "is_disabled": 0, "rental_uris": {"ios": "https://dc.lft.to/lastmile_qr_scan", "android": "https://dc.lft.to/lastmile_qr_scan"}, "is_reserved": 0}, {"lon": -77.1249075, "bike_id": "6a568c3f55f21f23fdc8e59b2f1e9387", "lat": 38.82789283333334, "fusion_lon": 0.0, "fusion_lat": 0.0, "type": "electric_bike", "name": "6a568c3f55f21f23fdc8e59b2f1e9387", "is_disabled": 0, "rental_uris": {"ios": "https://dc.lft.to/lastmile_qr_scan", "android": "https://dc.lft.to/lastmile_qr_scan"}, "is_reserved": 0}, {"lon": -77.03907716666667, "bike_id": "4b32d552820357b00b8a098c0cd5a540", "lat": 38.914247, "fusion_lon": 0.0, "fusion_lat": 0.0, "type": "electric_scooter", "name": "4b32d552820357b00b8a098c0cd5a540", "is_disabled": 0, "rental_uris": {"ios": "https://dc.lft.to/lastmile_qr_scan", "android": "https://dc.lft.to/lastmile_qr_scan"}, "is_reserved": 0}, {"lon": -77.04339583333334, "bike_id": "b43f9ba328d3718df844d8b861c1993b", "lat": 38.921487666666664, "fusion_lon": 0.0, "fusion_lat": 0.0, "type": "electric_scooter", "name": "b43f9ba328d3718df844d8b861c1993b", "is_disabled": 0, "rental_uris": {"ios": "https://dc.lft.to/lastmile_qr_scan", "android": "https://dc.lft.to/lastmile_qr_scan"}, "is_reserved": 0}, {"lon": -77.019993, "bike_id": "f2971479f26046e81ecf469ae4f7dc2b", "lat": 38.901336666666666, "fusion_lon": 0.0, "fusion_lat": 0.0, "type": "electric_scooter", "name": "f2971479f26046e81ecf469ae4f7dc2b", "is_disabled": 0, "rental_uris": {"ios": "https://dc.lft.to/lastmile_qr_scan", "android": "https://dc.lft.to/lastmile_qr_scan"}, "is_reserved": 0}, {"lon": -77.0320105, "bike_id": "db46e4dfdb4f99c4977f21b2b672517b", "lat": 38.90382483333333, "fusion_lon": 0.0, "fusion_lat": 0.0, "type": "electric_scooter", "name": "db46e4dfdb4f99c4977f21b2b672517b", "is_disabled": 0, "rental_uris": {"ios": "https://dc.lft.to/lastmile_qr_scan", "android": "https://dc.lft.to/lastmile_qr_scan"}, "is_reserved": 0}, {"lon": -76.99855983333333, "bike_id": "beca7a5435d7f28ae92fa147ee662f97", "lat": 38.841652833333335, "fusion_lon": 0.0, "fusion_lat": 0.0, "type": "electric_scooter", "name": "beca7a5435d7f28ae92fa147ee662f97", "is_disabled": 0, "rental_uris": {"ios": "https://dc.lft.to/lastmile_qr_scan", "android": "https://dc.lft.to/lastmile_qr_scan"}, "is_reserved": 0}, {"lon": -76.9856915, "bike_id": "b5aad12cb0676b6ccb74c9ac87effb16", "lat": 38.899597, "fusion_lon": 0.0, "fusion_lat": 0.0, "type": "electric_scooter", "name": "b5aad12cb0676b6ccb74c9ac87effb16", "is_disabled": 0, "rental_uris": {"ios": "https://dc.lft.to/lastmile_qr_scan", "android": "https://dc.lft.to/lastmile_qr_scan"}, "is_reserved": 0}, {"lon": -77.027224, "bike_id": "b9ce5d2a372f217484cbf0fc4d3a1b41", "lat": 38.93470116666667, "fusion_lon": 0.0, "fusion_lat": 0.0, "type": "electric_scooter", "name": "b9ce5d2a372f217484cbf0fc4d3a1b41", "is_disabled": 0, "rental_uris": {"ios": "https://dc.lft.to/lastmile_qr_scan", "android": "https://dc.lft.to/lastmile_qr_scan"}, "is_reserved": 0}, {"lon": -77.048145, "bike_id": "658544cf7bd596e58fb47a253588fecd", "lat": 38.90973, "fusion_lon": 0.0, "fusion_lat": 0.0, "type": "electric_scooter", "name": "658544cf7bd596e58fb47a253588fecd", "is_disabled": 0, "rental_uris": {"ios": "https://dc.lft.to/lastmile_qr_scan", "android": "https://dc.lft.to/lastmile_qr_scan"}, "is_reserved": 0}, {"lon": -77.04656066666666, "bike_id": "2718e806754ab854ba08092df7128285", "lat": 38.905525833333336, "fusion_lon": 0.0, "fusion_lat": 0.0, "type": "electric_scooter", "name": "2718e806754ab854ba08092df7128285", "is_disabled": 0, "rental_uris": {"ios": "https://dc.lft.to/lastmile_qr_scan", "android": "https://dc.lft.to/lastmile_qr_scan"}, "is_reserved": 0}, {"lon": -77.02982366666667, "bike_id": "3098d3c1a5ad59d93ed9bd82b8461b4a", "lat": 38.930659666666664, "fusion_lon": 0.0, "fusion_lat": 0.0, "type": "electric_scooter", "name": "3098d3c1a5ad59d93ed9bd82b8461b4a", "is_disabled": 0, "rental_uris": {"ios": "https://dc.lft.to/lastmile_qr_scan", "android": "https://dc.lft.to/lastmile_qr_scan"}, "is_reserved": 0}, {"lon": -77.02469933333333, "bike_id": "a4d997ee79a7b7d3250e9ad82eaad1e3", "lat": 38.9193375, "fusion_lon": 0.0, "fusion_lat": 0.0, "type": "electric_scooter", "name": "a4d997ee79a7b7d3250e9ad82eaad1e3", "is_disabled": 0, "rental_uris": {"ios": "https://dc.lft.to/lastmile_qr_scan", "android": "https://dc.lft.to/lastmile_qr_scan"}, "is_reserved": 0}, {"lon": -77.0728025, "bike_id": "88213a984d8b7478bfd99d4317bf2bf1", "lat": 38.9309735, "fusion_lon": 0.0, "fusion_lat": 0.0, "type": "electric_scooter", "name": "88213a984d8b7478bfd99d4317bf2bf1", "is_disabled": 0, "rental_uris": {"ios": "https://dc.lft.to/lastmile_qr_scan", "android": "https://dc.lft.to/lastmile_qr_scan"}, "is_reserved": 0}, {"lon": -77.07764783333333, "bike_id": "0d5573bbe36e2f38efe3da99f732e606", "lat": 38.92562866666667, "fusion_lon": 0.0, "fusion_lat": 0.0, "type": "electric_scooter", "name": "0d5573bbe36e2f38efe3da99f732e606", "is_disabled": 0, "rental_uris": {"ios": "https://dc.lft.to/lastmile_qr_scan", "android": "https://dc.lft.to/lastmile_qr_scan"}, "is_reserved": 0}, {"lon": -77.04431533333333, "bike_id": "4bba82b2aad77a9a1a75ebc03d8068dd", "lat": 38.921203, "fusion_lon": 0.0, "fusion_lat": 0.0, "type": "electric_scooter", "name": "4bba82b2aad77a9a1a75ebc03d8068dd", "is_disabled": 0, "rental_uris": {"ios": "https://dc.lft.to/lastmile_qr_scan", "android": "https://dc.lft.to/lastmile_qr_scan"}, "is_reserved": 0}, {"lon": -77.03350333333333, "bike_id": "a0d8c817d17ca988f74ec9687f696c7e", "lat": 38.892428, "fusion_lon": 0.0, "fusion_lat": 0.0, "type": "electric_scooter", "name": "a0d8c817d17ca988f74ec9687f696c7e", "is_disabled": 0, "rental_uris": {"ios": "https://dc.lft.to/lastmile_qr_scan", "android": "https://dc.lft.to/lastmile_qr_scan"}, "is_reserved": 0}, {"lon": -77.032276, "bike_id": "fed5e6e7c92462ef26b85272f4d18d59", "lat": 38.90956883333333, "fusion_lon": 0.0, "fusion_lat": 0.0, "type": "electric_scooter", "name": "fed5e6e7c92462ef26b85272f4d18d59", "is_disabled": 0, "rental_uris": {"ios": "https://dc.lft.to/lastmile_qr_scan", "android": "https://dc.lft.to/lastmile_qr_scan"}, "is_reserved": 0}, {"lon": -77.02168916666666, "bike_id": "5524837192c67f61baffda05622e73d9", "lat": 38.90848883333334, "fusion_lon": 0.0, "fusion_lat": 0.0, "type": "electric_scooter", "name": "5524837192c67f61baffda05622e73d9", "is_disabled": 0, "rental_uris": {"ios": "https://dc.lft.to/lastmile_qr_scan", "android": "https://dc.lft.to/lastmile_qr_scan"}, "is_reserved": 0}, {"lon": -77.02271733333333, "bike_id": "7b7bd6e10c824529abc4dfade05716eb", "lat": 38.91713583333333, "fusion_lon": 0.0, "fusion_lat": 0.0, "type": "electric_scooter", "name": "7b7bd6e10c824529abc4dfade05716eb", "is_disabled": 0, "rental_uris": {"ios": "https://dc.lft.to/lastmile_qr_scan", "android": "https://dc.lft.to/lastmile_qr_scan"}, "is_reserved": 0}, {"lon": -77.04158633333333, "bike_id": "3056ec30a783c54f42fd1d7642734ada", "lat": 38.9125205, "fusion_lon": 0.0, "fusion_lat": 0.0, "type": "electric_scooter", "name": "3056ec30a783c54f42fd1d7642734ada", "is_disabled": 0, "rental_uris": {"ios": "https://dc.lft.to/lastmile_qr_scan", "android": "https://dc.lft.to/lastmile_qr_scan"}, "is_reserved": 0}, {"lon": -77.04376583333334, "bike_id": "0e342eb4f46414d46000faa662553d41", "lat": 38.920701333333334, "fusion_lon": 0.0, "fusion_lat": 0.0, "type": "electric_scooter", "name": "0e342eb4f46414d46000faa662553d41", "is_disabled": 0, "rental_uris": {"ios": "https://dc.lft.to/lastmile_qr_scan", "android": "https://dc.lft.to/lastmile_qr_scan"}, "is_reserved": 0}, {"lon": -77.01643116666666, "bike_id": "9250da1b2b701a157a3750d60bd4cde4", "lat": 38.92899166666667, "fusion_lon": 0.0, "fusion_lat": 0.0, "type": "electric_scooter", "name": "9250da1b2b701a157a3750d60bd4cde4", "is_disabled": 0, "rental_uris": {"ios": "https://dc.lft.to/lastmile_qr_scan", "android": "https://dc.lft.to/lastmile_qr_scan"}, "is_reserved": 0}, {"lon": -77.0236295, "bike_id": "889b61d38c8df0a4035e67f3d0c116a0", "lat": 38.892206333333334, "fusion_lon": 0.0, "fusion_lat": 0.0, "type": "electric_scooter", "name": "889b61d38c8df0a4035e67f3d0c116a0", "is_disabled": 0, "rental_uris": {"ios": "https://dc.lft.to/lastmile_qr_scan", "android": "https://dc.lft.to/lastmile_qr_scan"}, "is_reserved": 0}, {"lon": -77.032025, "bike_id": "43c00780d89a922a9b56ed2a15f9fce4", "lat": 38.91220883333333, "fusion_lon": 0.0, "fusion_lat": 0.0, "type": "electric_scooter", "name": "43c00780d89a922a9b56ed2a15f9fce4", "is_disabled": 0, "rental_uris": {"ios": "https://dc.lft.to/lastmile_qr_scan", "android": "https://dc.lft.to/lastmile_qr_scan"}, "is_reserved": 0}, {"lon": -77.02592416666667, "bike_id": "5243a639555acd2bb5c91c234a26f2f0", "lat": 38.94304066666667, "fusion_lon": 0.0, "fusion_lat": 0.0, "type": "electric_scooter", "name": "5243a639555acd2bb5c91c234a26f2f0", "is_disabled": 0, "rental_uris": {"ios": "https://dc.lft.to/lastmile_qr_scan", "android": "https://dc.lft.to/lastmile_qr_scan"}, "is_reserved": 0}, {"lon": -77.03640716666666, "bike_id": "ad629c1a944eeb6357a7deb43e1e36c5", "lat": 38.923057, "fusion_lon": 0.0, "fusion_lat": 0.0, "type": "electric_scooter", "name": "ad629c1a944eeb6357a7deb43e1e36c5", "is_disabled": 0, "rental_uris": {"ios": "https://dc.lft.to/lastmile_qr_scan", "android": "https://dc.lft.to/lastmile_qr_scan"}, "is_reserved": 0}, {"lon": -76.9313075, "bike_id": "137efb30c72dc2baebbba1735fd1fa4a", "lat": 38.87851333333333, "fusion_lon": 0.0, "fusion_lat": 0.0, "type": "electric_scooter", "name": "137efb30c72dc2baebbba1735fd1fa4a", "is_disabled": 0, "rental_uris": {"ios": "https://dc.lft.to/lastmile_qr_scan", "android": "https://dc.lft.to/lastmile_qr_scan"}, "is_reserved": 0}, {"lon": -76.98087366666667, "bike_id": "1ac1c03330defe234e1a649d37d9a818", "lat": 38.90708083333333, "fusion_lon": 0.0, "fusion_lat": 0.0, "type": "electric_scooter", "name": "1ac1c03330defe234e1a649d37d9a818", "is_disabled": 0, "rental_uris": {"ios": "https://dc.lft.to/lastmile_qr_scan", "android": "https://dc.lft.to/lastmile_qr_scan"}, "is_reserved": 0}, {"lon": -77.00524, "bike_id": "cdf0424321ca07590e920d9722f68717", "lat": 38.875452833333334, "fusion_lon": 0.0, "fusion_lat": 0.0, "type": "electric_scooter", "name": "cdf0424321ca07590e920d9722f68717", "is_disabled": 0, "rental_uris": {"ios": "https://dc.lft.to/lastmile_qr_scan", "android": "https://dc.lft.to/lastmile_qr_scan"}, "is_reserved": 0}, {"lon": -77.04336183333334, "bike_id": "56fb3b4c3446d06b619839d0d5fe0e01", "lat": 38.911085166666666, "fusion_lon": 0.0, "fusion_lat": 0.0, "type": "electric_scooter", "name": "56fb3b4c3446d06b619839d0d5fe0e01", "is_disabled": 0, "rental_uris": {"ios": "https://dc.lft.to/lastmile_qr_scan", "android": "https://dc.lft.to/lastmile_qr_scan"}, "is_reserved": 0}, {"lon": -77.02701933333333, "bike_id": "21ed4c109b06df13ece16976722ffc8e", "lat": 38.90627666666666, "fusion_lon": 0.0, "fusion_lat": 0.0, "type": "electric_scooter", "name": "21ed4c109b06df13ece16976722ffc8e", "is_disabled": 0, "rental_uris": {"ios": "https://dc.lft.to/lastmile_qr_scan", "android": "https://dc.lft.to/lastmile_qr_scan"}, "is_reserved": 0}, {"lon": -77.02793466666667, "bike_id": "8d8faa44049c1fcf6acc1af8f2d36d71", "lat": 38.8937075, "fusion_lon": 0.0, "fusion_lat": 0.0, "type": "electric_scooter", "name": "8d8faa44049c1fcf6acc1af8f2d36d71", "is_disabled": 0, "rental_uris": {"ios": "https://dc.lft.to/lastmile_qr_scan", "android": "https://dc.lft.to/lastmile_qr_scan"}, "is_reserved": 0}, {"lon": -76.99006083333333, "bike_id": "8c17625237878212a434e4ffd50026bd", "lat": 38.865075833333336, "fusion_lon": 0.0, "fusion_lat": 0.0, "type": "electric_scooter", "name": "8c17625237878212a434e4ffd50026bd", "is_disabled": 0, "rental_uris": {"ios": "https://dc.lft.to/lastmile_qr_scan", "android": "https://dc.lft.to/lastmile_qr_scan"}, "is_reserved": 0}, {"lon": -77.03572616666666, "bike_id": "ba962e4ab13e05c7f2d61af26b58a871", "lat": 38.91775616666666, "fusion_lon": 0.0, "fusion_lat": 0.0, "type": "electric_scooter", "name": "ba962e4ab13e05c7f2d61af26b58a871", "is_disabled": 0, "rental_uris": {"ios": "https://dc.lft.to/lastmile_qr_scan", "android": "https://dc.lft.to/lastmile_qr_scan"}, "is_reserved": 0}, {"lon": -77.02776816666666, "bike_id": "98d60a0b66c917bde58b93b941d88fc6", "lat": 38.930057166666664, "fusion_lon": 0.0, "fusion_lat": 0.0, "type": "electric_scooter", "name": "98d60a0b66c917bde58b93b941d88fc6", "is_disabled": 0, "rental_uris": {"ios": "https://dc.lft.to/lastmile_qr_scan", "android": "https://dc.lft.to/lastmile_qr_scan"}, "is_reserved": 0}, {"lon": -77.02549183333333, "bike_id": "53c85e10fba624b5038f16ec3732f517", "lat": 38.93092683333333, "fusion_lon": 0.0, "fusion_lat": 0.0, "type": "electric_scooter", "name": "53c85e10fba624b5038f16ec3732f517", "is_disabled": 0, "rental_uris": {"ios": "https://dc.lft.to/lastmile_qr_scan", "android": "https://dc.lft.to/lastmile_qr_scan"}, "is_reserved": 0}, {"lon": -77.023793, "bike_id": "f58ce39dae229be86c7ceecbf16c29b8", "lat": 38.90206533333333, "fusion_lon": 0.0, "fusion_lat": 0.0, "type": "electric_scooter", "name": "f58ce39dae229be86c7ceecbf16c29b8", "is_disabled": 0, "rental_uris": {"ios": "https://dc.lft.to/lastmile_qr_scan", "android": "https://dc.lft.to/lastmile_qr_scan"}, "is_reserved": 0}, {"lon": -77.03956216666667, "bike_id": "273c325b15f845ef6970cfb717eade01", "lat": 38.898933, "fusion_lon": 0.0, "fusion_lat": 0.0, "type": "electric_scooter", "name": "273c325b15f845ef6970cfb717eade01", "is_disabled": 0, "rental_uris": {"ios": "https://dc.lft.to/lastmile_qr_scan", "android": "https://dc.lft.to/lastmile_qr_scan"}, "is_reserved": 0}, {"lon": -77.0367335, "bike_id": "65c1d9340bb7bbc50fc89ea055fe0a70", "lat": 38.9169205, "fusion_lon": 0.0, "fusion_lat": 0.0, "type": "electric_scooter", "name": "65c1d9340bb7bbc50fc89ea055fe0a70", "is_disabled": 0, "rental_uris": {"ios": "https://dc.lft.to/lastmile_qr_scan", "android": "https://dc.lft.to/lastmile_qr_scan"}, "is_reserved": 0}, {"lon": -77.10839266666666, "bike_id": "0828949b22828d528089266c2840f1d0", "lat": 38.812028, "fusion_lon": 0.0, "fusion_lat": 0.0, "type": "electric_bike", "name": "0828949b22828d528089266c2840f1d0", "is_disabled": 0, "rental_uris": {"ios": "https://dc.lft.to/lastmile_qr_scan", "android": "https://dc.lft.to/lastmile_qr_scan"}, "is_reserved": 0}, {"lon": -76.98906133333334, "bike_id": "1d6c679d3acaaf7cc0067b6ae58bd09a", "lat": 38.86667766666667, "fusion_lon": 0.0, "fusion_lat": 0.0, "type": "electric_scooter", "name": "1d6c679d3acaaf7cc0067b6ae58bd09a", "is_disabled": 0, "rental_uris": {"ios": "https://dc.lft.to/lastmile_qr_scan", "android": "https://dc.lft.to/lastmile_qr_scan"}, "is_reserved": 0}, {"lon": -77.03955916666666, "bike_id": "bbb492ac36c53eb69ab88e52f9c2feff", "lat": 38.89896666666667, "fusion_lon": 0.0, "fusion_lat": 0.0, "type": "electric_scooter", "name": "bbb492ac36c53eb69ab88e52f9c2feff", "is_disabled": 0, "rental_uris": {"ios": "https://dc.lft.to/lastmile_qr_scan", "android": "https://dc.lft.to/lastmile_qr_scan"}, "is_reserved": 0}, {"lon": -77.05661733333334, "bike_id": "674b25551c655811c59e3183c605f42e", "lat": 38.89550166666667, "fusion_lon": 0.0, "fusion_lat": 0.0, "type": "electric_scooter", "name": "674b25551c655811c59e3183c605f42e", "is_disabled": 0, "rental_uris": {"ios": "https://dc.lft.to/lastmile_qr_scan", "android": "https://dc.lft.to/lastmile_qr_scan"}, "is_reserved": 0}, {"lon": -77.01734316666666, "bike_id": "4d0b6c58f624e8e025196aa743e11660", "lat": 38.883985333333335, "fusion_lon": 0.0, "fusion_lat": 0.0, "type": "electric_scooter", "name": "4d0b6c58f624e8e025196aa743e11660", "is_disabled": 0, "rental_uris": {"ios": "https://dc.lft.to/lastmile_qr_scan", "android": "https://dc.lft.to/lastmile_qr_scan"}, "is_reserved": 0}, {"lon": -77.02582966666667, "bike_id": "6778fc435d755950c3a521060bddbad7", "lat": 38.887393333333335, "fusion_lon": 0.0, "fusion_lat": 0.0, "type": "electric_scooter", "name": "6778fc435d755950c3a521060bddbad7", "is_disabled": 0, "rental_uris": {"ios": "https://dc.lft.to/lastmile_qr_scan", "android": "https://dc.lft.to/lastmile_qr_scan"}, "is_reserved": 0}, {"lon": -77.04875366666667, "bike_id": "83ba065c46482195b2647433c7ab8740", "lat": 38.89232966666667, "fusion_lon": 0.0, "fusion_lat": 0.0, "type": "electric_scooter", "name": "83ba065c46482195b2647433c7ab8740", "is_disabled": 0, "rental_uris": {"ios": "https://dc.lft.to/lastmile_qr_scan", "android": "https://dc.lft.to/lastmile_qr_scan"}, "is_reserved": 0}, {"lon": -76.99481583333333, "bike_id": "09b12e63c5e8505ca929d76b7e79b84f", "lat": 38.886087, "fusion_lon": 0.0, "fusion_lat": 0.0, "type": "electric_scooter", "name": "09b12e63c5e8505ca929d76b7e79b84f", "is_disabled": 0, "rental_uris": {"ios": "https://dc.lft.to/lastmile_qr_scan", "android": "https://dc.lft.to/lastmile_qr_scan"}, "is_reserved": 0}, {"lon": -77.02377783333333, "bike_id": "f1688cb7a3b241630423de1c16b7074c", "lat": 38.90955433333333, "fusion_lon": 0.0, "fusion_lat": 0.0, "type": "electric_scooter", "name": "f1688cb7a3b241630423de1c16b7074c", "is_disabled": 0, "rental_uris": {"ios": "https://dc.lft.to/lastmile_qr_scan", "android": "https://dc.lft.to/lastmile_qr_scan"}, "is_reserved": 0}, {"lon": -77.02160816666667, "bike_id": "20eee98eebacee4ba6e6137573d144c6", "lat": 38.887293166666666, "fusion_lon": 0.0, "fusion_lat": 0.0, "type": "electric_scooter", "name": "20eee98eebacee4ba6e6137573d144c6", "is_disabled": 0, "rental_uris": {"ios": "https://dc.lft.to/lastmile_qr_scan", "android": "https://dc.lft.to/lastmile_qr_scan"}, "is_reserved": 0}, {"lon": -77.02169566666667, "bike_id": "f85eabdd1c4d931ad293faed8c3e1586", "lat": 38.91491666666667, "fusion_lon": 0.0, "fusion_lat": 0.0, "type": "electric_scooter", "name": "f85eabdd1c4d931ad293faed8c3e1586", "is_disabled": 0, "rental_uris": {"ios": "https://dc.lft.to/lastmile_qr_scan", "android": "https://dc.lft.to/lastmile_qr_scan"}, "is_reserved": 0}, {"lon": -77.0323005, "bike_id": "355ad7e28b239fafa31a7908a9c12692", "lat": 38.91408633333333, "fusion_lon": 0.0, "fusion_lat": 0.0, "type": "electric_scooter", "name": "355ad7e28b239fafa31a7908a9c12692", "is_disabled": 0, "rental_uris": {"ios": "https://dc.lft.to/lastmile_qr_scan", "android": "https://dc.lft.to/lastmile_qr_scan"}, "is_reserved": 0}, {"lon": -77.02007316666666, "bike_id": "8053db22f6beed28d299f715e20fc76e", "lat": 38.90265433333333, "fusion_lon": 0.0, "fusion_lat": 0.0, "type": "electric_scooter", "name": "8053db22f6beed28d299f715e20fc76e", "is_disabled": 0, "rental_uris": {"ios": "https://dc.lft.to/lastmile_qr_scan", "android": "https://dc.lft.to/lastmile_qr_scan"}, "is_reserved": 0}, {"lon": -77.04269816666667, "bike_id": "756aae810ffa0adfcd2f43b041f8846b", "lat": 38.922389833333334, "fusion_lon": 0.0, "fusion_lat": 0.0, "type": "electric_scooter", "name": "756aae810ffa0adfcd2f43b041f8846b", "is_disabled": 0, "rental_uris": {"ios": "https://dc.lft.to/lastmile_qr_scan", "android": "https://dc.lft.to/lastmile_qr_scan"}, "is_reserved": 0}, {"lon": -77.02716033333333, "bike_id": "48e7087485bc2401a0a8f95255de6603", "lat": 38.89777483333334, "fusion_lon": 0.0, "fusion_lat": 0.0, "type": "electric_scooter", "name": "48e7087485bc2401a0a8f95255de6603", "is_disabled": 0, "rental_uris": {"ios": "https://dc.lft.to/lastmile_qr_scan", "android": "https://dc.lft.to/lastmile_qr_scan"}, "is_reserved": 0}, {"lon": -77.0241875, "bike_id": "585fc3d1934cad28021bea9e596cbb35", "lat": 38.9192235, "fusion_lon": 0.0, "fusion_lat": 0.0, "type": "electric_scooter", "name": "585fc3d1934cad28021bea9e596cbb35", "is_disabled": 0, "rental_uris": {"ios": "https://dc.lft.to/lastmile_qr_scan", "android": "https://dc.lft.to/lastmile_qr_scan"}, "is_reserved": 0}, {"lon": -77.050063, "bike_id": "3a6236e3176020c4904407eda854e791", "lat": 38.891968166666665, "fusion_lon": 0.0, "fusion_lat": 0.0, "type": "electric_scooter", "name": "3a6236e3176020c4904407eda854e791", "is_disabled": 0, "rental_uris": {"ios": "https://dc.lft.to/lastmile_qr_scan", "android": "https://dc.lft.to/lastmile_qr_scan"}, "is_reserved": 0}, {"lon": -77.02190766666666, "bike_id": "fe77cd2a32f53dcb461c6ec4dcdb8a12", "lat": 38.933098333333334, "fusion_lon": 0.0, "fusion_lat": 0.0, "type": "electric_scooter", "name": "fe77cd2a32f53dcb461c6ec4dcdb8a12", "is_disabled": 0, "rental_uris": {"ios": "https://dc.lft.to/lastmile_qr_scan", "android": "https://dc.lft.to/lastmile_qr_scan"}, "is_reserved": 0}, {"lon": -76.933595, "bike_id": "1a8f2f5c97ba7f60941d0dfd8827355b", "lat": 38.88800483333333, "fusion_lon": 0.0, "fusion_lat": 0.0, "type": "electric_scooter", "name": "1a8f2f5c97ba7f60941d0dfd8827355b", "is_disabled": 0, "rental_uris": {"ios": "https://dc.lft.to/lastmile_qr_scan", "android": "https://dc.lft.to/lastmile_qr_scan"}, "is_reserved": 0}, {"lon": -77.01193233333333, "bike_id": "cb9825dccb59452e48250dd050d7b32f", "lat": 38.9001515, "fusion_lon": 0.0, "fusion_lat": 0.0, "type": "electric_scooter", "name": "cb9825dccb59452e48250dd050d7b32f", "is_disabled": 0, "rental_uris": {"ios": "https://dc.lft.to/lastmile_qr_scan", "android": "https://dc.lft.to/lastmile_qr_scan"}, "is_reserved": 0}, {"lon": -77.03357266666667, "bike_id": "31826e71c5a6074d5a84084c003886ab", "lat": 38.90122216666666, "fusion_lon": 0.0, "fusion_lat": 0.0, "type": "electric_scooter", "name": "31826e71c5a6074d5a84084c003886ab", "is_disabled": 0, "rental_uris": {"ios": "https://dc.lft.to/lastmile_qr_scan", "android": "https://dc.lft.to/lastmile_qr_scan"}, "is_reserved": 0}, {"lon": -77.03212816666667, "bike_id": "13dbe7b9272df74ba830df0c2d165f20", "lat": 38.90729666666667, "fusion_lon": 0.0, "fusion_lat": 0.0, "type": "electric_scooter", "name": "13dbe7b9272df74ba830df0c2d165f20", "is_disabled": 0, "rental_uris": {"ios": "https://dc.lft.to/lastmile_qr_scan", "android": "https://dc.lft.to/lastmile_qr_scan"}, "is_reserved": 0}, {"lon": -77.04311883333334, "bike_id": "4130d6efa1cb288fd5747711c3bf8f0e", "lat": 38.90827983333333, "fusion_lon": 0.0, "fusion_lat": 0.0, "type": "electric_scooter", "name": "4130d6efa1cb288fd5747711c3bf8f0e", "is_disabled": 0, "rental_uris": {"ios": "https://dc.lft.to/lastmile_qr_scan", "android": "https://dc.lft.to/lastmile_qr_scan"}, "is_reserved": 0}, {"lon": -77.02959416666667, "bike_id": "0655b4a7fc9fd8e35c8922d4904749a8", "lat": 38.916783, "fusion_lon": 0.0, "fusion_lat": 0.0, "type": "electric_scooter", "name": "0655b4a7fc9fd8e35c8922d4904749a8", "is_disabled": 0, "rental_uris": {"ios": "https://dc.lft.to/lastmile_qr_scan", "android": "https://dc.lft.to/lastmile_qr_scan"}, "is_reserved": 0}, {"lon": -77.04654566666666, "bike_id": "86a79b1a0fc06be28be13a9ae0d30241", "lat": 38.905491166666664, "fusion_lon": 0.0, "fusion_lat": 0.0, "type": "electric_scooter", "name": "86a79b1a0fc06be28be13a9ae0d30241", "is_disabled": 0, "rental_uris": {"ios": "https://dc.lft.to/lastmile_qr_scan", "android": "https://dc.lft.to/lastmile_qr_scan"}, "is_reserved": 0}, {"lon": -76.994729, "bike_id": "a1a2676cd4e2d57710270d41c410687f", "lat": 38.86227816666667, "fusion_lon": 0.0, "fusion_lat": 0.0, "type": "electric_scooter", "name": "a1a2676cd4e2d57710270d41c410687f", "is_disabled": 0, "rental_uris": {"ios": "https://dc.lft.to/lastmile_qr_scan", "android": "https://dc.lft.to/lastmile_qr_scan"}, "is_reserved": 0}, {"lon": -76.92768133333334, "bike_id": "0fc4157ed3834e60914f8736afdee83d", "lat": 38.900924333333336, "fusion_lon": 0.0, "fusion_lat": 0.0, "type": "electric_scooter", "name": "0fc4157ed3834e60914f8736afdee83d", "is_disabled": 0, "rental_uris": {"ios": "https://dc.lft.to/lastmile_qr_scan", "android": "https://dc.lft.to/lastmile_qr_scan"}, "is_reserved": 0}, {"lon": -77.00202516666667, "bike_id": "2b962beca63098a08349ee873d2d78d0", "lat": 38.90034716666667, "fusion_lon": 0.0, "fusion_lat": 0.0, "type": "electric_scooter", "name": "2b962beca63098a08349ee873d2d78d0", "is_disabled": 0, "rental_uris": {"ios": "https://dc.lft.to/lastmile_qr_scan", "android": "https://dc.lft.to/lastmile_qr_scan"}, "is_reserved": 0}, {"lon": -76.98884766666667, "bike_id": "2f796b669f81750194a1ea66d77c8518", "lat": 38.8665895, "fusion_lon": 0.0, "fusion_lat": 0.0, "type": "electric_scooter", "name": "2f796b669f81750194a1ea66d77c8518", "is_disabled": 0, "rental_uris": {"ios": "https://dc.lft.to/lastmile_qr_scan", "android": "https://dc.lft.to/lastmile_qr_scan"}, "is_reserved": 0}, {"lon": -76.9871765, "bike_id": "d2c1b7815ed8a3ac8af482131538269f", "lat": 38.866299833333336, "fusion_lon": 0.0, "fusion_lat": 0.0, "type": "electric_scooter", "name": "d2c1b7815ed8a3ac8af482131538269f", "is_disabled": 0, "rental_uris": {"ios": "https://dc.lft.to/lastmile_qr_scan", "android": "https://dc.lft.to/lastmile_qr_scan"}, "is_reserved": 0}, {"lon": -76.927717, "bike_id": "4792e6d4f3d1a5fbf198098800e5a271", "lat": 38.969270333333334, "fusion_lon": 0.0, "fusion_lat": 0.0, "type": "electric_bike", "name": "4792e6d4f3d1a5fbf198098800e5a271", "is_disabled": 0, "rental_uris": {"ios": "https://dc.lft.to/lastmile_qr_scan", "android": "https://dc.lft.to/lastmile_qr_scan"}, "is_reserved": 0}, {"lon": -77.036625, "bike_id": "bf9af6cdb503e458d00c2fb50bc54d1a", "lat": 38.91778383333333, "fusion_lon": 0.0, "fusion_lat": 0.0, "type": "electric_scooter", "name": "bf9af6cdb503e458d00c2fb50bc54d1a", "is_disabled": 0, "rental_uris": {"ios": "https://dc.lft.to/lastmile_qr_scan", "android": "https://dc.lft.to/lastmile_qr_scan"}, "is_reserved": 0}, {"lon": -77.00206233333333, "bike_id": "28e7f801b7ee183f8912cd3572e995fa", "lat": 38.988496166666664, "fusion_lon": 0.0, "fusion_lat": 0.0, "type": "electric_bike", "name": "28e7f801b7ee183f8912cd3572e995fa", "is_disabled": 0, "rental_uris": {"ios": "https://dc.lft.to/lastmile_qr_scan", "android": "https://dc.lft.to/lastmile_qr_scan"}, "is_reserved": 0}, {"lon": -77.02501983333333, "bike_id": "43f100c7c4df2be2e40e951429e6132a", "lat": 38.9207685, "fusion_lon": 0.0, "fusion_lat": 0.0, "type": "electric_scooter", "name": "43f100c7c4df2be2e40e951429e6132a", "is_disabled": 0, "rental_uris": {"ios": "https://dc.lft.to/lastmile_qr_scan", "android": "https://dc.lft.to/lastmile_qr_scan"}, "is_reserved": 0}, {"lon": -76.97908083333333, "bike_id": "7a649c723e3b22228768ea0a9ecf4404", "lat": 38.863637, "fusion_lon": 0.0, "fusion_lat": 0.0, "type": "electric_scooter", "name": "7a649c723e3b22228768ea0a9ecf4404", "is_disabled": 0, "rental_uris": {"ios": "https://dc.lft.to/lastmile_qr_scan", "android": "https://dc.lft.to/lastmile_qr_scan"}, "is_reserved": 0}, {"lon": -77.03712416666667, "bike_id": "9ea105b279eba6818a2d1c113be1fa05", "lat": 38.931960333333336, "fusion_lon": 0.0, "fusion_lat": 0.0, "type": "electric_scooter", "name": "9ea105b279eba6818a2d1c113be1fa05", "is_disabled": 0, "rental_uris": {"ios": "https://dc.lft.to/lastmile_qr_scan", "android": "https://dc.lft.to/lastmile_qr_scan"}, "is_reserved": 0}, {"lon": -77.03051766666667, "bike_id": "1c525d0634aec0b63518ebc2d2ddc2fe", "lat": 38.887653, "fusion_lon": 0.0, "fusion_lat": 0.0, "type": "electric_scooter", "name": "1c525d0634aec0b63518ebc2d2ddc2fe", "is_disabled": 0, "rental_uris": {"ios": "https://dc.lft.to/lastmile_qr_scan", "android": "https://dc.lft.to/lastmile_qr_scan"}, "is_reserved": 0}, {"lon": -77.02487166666667, "bike_id": "66517422169fbe946835749fd6ab98bb", "lat": 38.91698866666667, "fusion_lon": 0.0, "fusion_lat": 0.0, "type": "electric_scooter", "name": "66517422169fbe946835749fd6ab98bb", "is_disabled": 0, "rental_uris": {"ios": "https://dc.lft.to/lastmile_qr_scan", "android": "https://dc.lft.to/lastmile_qr_scan"}, "is_reserved": 0}, {"lon": -77.03173, "bike_id": "6b36f5365fe38fb9a794374574d8f521", "lat": 38.91420316666667, "fusion_lon": 0.0, "fusion_lat": 0.0, "type": "electric_scooter", "name": "6b36f5365fe38fb9a794374574d8f521", "is_disabled": 0, "rental_uris": {"ios": "https://dc.lft.to/lastmile_qr_scan", "android": "https://dc.lft.to/lastmile_qr_scan"}, "is_reserved": 0}, {"lon": -77.01072116666667, "bike_id": "d7017378100576d97c804266fec935db", "lat": 38.90721966666667, "fusion_lon": 0.0, "fusion_lat": 0.0, "type": "electric_bike", "name": "d7017378100576d97c804266fec935db", "is_disabled": 0, "rental_uris": {"ios": "https://dc.lft.to/lastmile_qr_scan", "android": "https://dc.lft.to/lastmile_qr_scan"}, "is_reserved": 0}, {"lon": -77.0265645, "bike_id": "855e744c0c65e913a605f304f210d7e1", "lat": 38.9169415, "fusion_lon": 0.0, "fusion_lat": 0.0, "type": "electric_scooter", "name": "855e744c0c65e913a605f304f210d7e1", "is_disabled": 0, "rental_uris": {"ios": "https://dc.lft.to/lastmile_qr_scan", "android": "https://dc.lft.to/lastmile_qr_scan"}, "is_reserved": 0}, {"lon": -77.02591866666667, "bike_id": "5d4aa299049b7284cd5e25264f7387ea", "lat": 38.90659433333333, "fusion_lon": 0.0, "fusion_lat": 0.0, "type": "electric_scooter", "name": "5d4aa299049b7284cd5e25264f7387ea", "is_disabled": 0, "rental_uris": {"ios": "https://dc.lft.to/lastmile_qr_scan", "android": "https://dc.lft.to/lastmile_qr_scan"}, "is_reserved": 0}, {"lon": -77.03213033333333, "bike_id": "c2fe003128c1664bb1fed7e6a059f676", "lat": 38.91498266666667, "fusion_lon": 0.0, "fusion_lat": 0.0, "type": "electric_scooter", "name": "c2fe003128c1664bb1fed7e6a059f676", "is_disabled": 0, "rental_uris": {"ios": "https://dc.lft.to/lastmile_qr_scan", "android": "https://dc.lft.to/lastmile_qr_scan"}, "is_reserved": 0}, {"lon": -77.02580216666667, "bike_id": "80cc4a80726dca012a3190e68909e5c4", "lat": 38.887376, "fusion_lon": 0.0, "fusion_lat": 0.0, "type": "electric_scooter", "name": "80cc4a80726dca012a3190e68909e5c4", "is_disabled": 0, "rental_uris": {"ios": "https://dc.lft.to/lastmile_qr_scan", "android": "https://dc.lft.to/lastmile_qr_scan"}, "is_reserved": 0}, {"lon": -77.008986, "bike_id": "3c82278acb28d9986a8a2f93f8146753", "lat": 38.961271833333335, "fusion_lon": 0.0, "fusion_lat": 0.0, "type": "electric_scooter", "name": "3c82278acb28d9986a8a2f93f8146753", "is_disabled": 0, "rental_uris": {"ios": "https://dc.lft.to/lastmile_qr_scan", "android": "https://dc.lft.to/lastmile_qr_scan"}, "is_reserved": 0}, {"lon": -76.98914566666667, "bike_id": "1e4c08c0bb3694c15b3080fa33479421", "lat": 38.86493983333333, "fusion_lon": 0.0, "fusion_lat": 0.0, "type": "electric_scooter", "name": "1e4c08c0bb3694c15b3080fa33479421", "is_disabled": 0, "rental_uris": {"ios": "https://dc.lft.to/lastmile_qr_scan", "android": "https://dc.lft.to/lastmile_qr_scan"}, "is_reserved": 0}, {"lon": -76.9330095, "bike_id": "acdb995926f91c2ed025509a364ee18b", "lat": 38.90101633333333, "fusion_lon": 0.0, "fusion_lat": 0.0, "type": "electric_scooter", "name": "acdb995926f91c2ed025509a364ee18b", "is_disabled": 0, "rental_uris": {"ios": "https://dc.lft.to/lastmile_qr_scan", "android": "https://dc.lft.to/lastmile_qr_scan"}, "is_reserved": 0}, {"lon": -77.0259425, "bike_id": "52616ca02b88c3f3f609c6fd7f561dea", "lat": 38.94205766666666, "fusion_lon": 0.0, "fusion_lat": 0.0, "type": "electric_scooter", "name": "52616ca02b88c3f3f609c6fd7f561dea", "is_disabled": 0, "rental_uris": {"ios": "https://dc.lft.to/lastmile_qr_scan", "android": "https://dc.lft.to/lastmile_qr_scan"}, "is_reserved": 0}, {"lon": -76.99392266666666, "bike_id": "c6656cb25d24d238b5c4207ac4480a9f", "lat": 38.89210416666667, "fusion_lon": 0.0, "fusion_lat": 0.0, "type": "electric_scooter", "name": "c6656cb25d24d238b5c4207ac4480a9f", "is_disabled": 0, "rental_uris": {"ios": "https://dc.lft.to/lastmile_qr_scan", "android": "https://dc.lft.to/lastmile_qr_scan"}, "is_reserved": 0}, {"lon": -77.0326975, "bike_id": "d4a181c986680461aea44d6c8dd89375", "lat": 38.90148033333333, "fusion_lon": 0.0, "fusion_lat": 0.0, "type": "electric_scooter", "name": "d4a181c986680461aea44d6c8dd89375", "is_disabled": 0, "rental_uris": {"ios": "https://dc.lft.to/lastmile_qr_scan", "android": "https://dc.lft.to/lastmile_qr_scan"}, "is_reserved": 0}, {"lon": -77.03251416666667, "bike_id": "69c9e829050489b9e1bc588aeea73226", "lat": 38.9199185, "fusion_lon": 0.0, "fusion_lat": 0.0, "type": "electric_scooter", "name": "69c9e829050489b9e1bc588aeea73226", "is_disabled": 0, "rental_uris": {"ios": "https://dc.lft.to/lastmile_qr_scan", "android": "https://dc.lft.to/lastmile_qr_scan"}, "is_reserved": 0}, {"lon": -77.022095, "bike_id": "70c197f5108bcd4fb6d030f8315820ee", "lat": 38.91273016666667, "fusion_lon": 0.0, "fusion_lat": 0.0, "type": "electric_scooter", "name": "70c197f5108bcd4fb6d030f8315820ee", "is_disabled": 0, "rental_uris": {"ios": "https://dc.lft.to/lastmile_qr_scan", "android": "https://dc.lft.to/lastmile_qr_scan"}, "is_reserved": 0}, {"lon": -77.0472765, "bike_id": "21b65947d3f57d728c804898f49f75a7", "lat": 38.9031055, "fusion_lon": 0.0, "fusion_lat": 0.0, "type": "electric_scooter", "name": "21b65947d3f57d728c804898f49f75a7", "is_disabled": 0, "rental_uris": {"ios": "https://dc.lft.to/lastmile_qr_scan", "android": "https://dc.lft.to/lastmile_qr_scan"}, "is_reserved": 0}, {"lon": -76.97398783333334, "bike_id": "a907afe0db30e4cd4ba4d956c8c3385b", "lat": 38.902997166666665, "fusion_lon": 0.0, "fusion_lat": 0.0, "type": "electric_scooter", "name": "a907afe0db30e4cd4ba4d956c8c3385b", "is_disabled": 0, "rental_uris": {"ios": "https://dc.lft.to/lastmile_qr_scan", "android": "https://dc.lft.to/lastmile_qr_scan"}, "is_reserved": 0}, {"lon": -77.03409266666667, "bike_id": "32f217dd0495aac245c1e0c604854b0c", "lat": 38.934192, "fusion_lon": 0.0, "fusion_lat": 0.0, "type": "electric_scooter", "name": "32f217dd0495aac245c1e0c604854b0c", "is_disabled": 0, "rental_uris": {"ios": "https://dc.lft.to/lastmile_qr_scan", "android": "https://dc.lft.to/lastmile_qr_scan"}, "is_reserved": 0}, {"lon": -77.021815, "bike_id": "3189c0dde1e0cfdd9e96899a33f9aaf6", "lat": 38.91537683333333, "fusion_lon": 0.0, "fusion_lat": 0.0, "type": "electric_scooter", "name": "3189c0dde1e0cfdd9e96899a33f9aaf6", "is_disabled": 0, "rental_uris": {"ios": "https://dc.lft.to/lastmile_qr_scan", "android": "https://dc.lft.to/lastmile_qr_scan"}, "is_reserved": 0}, {"lon": -77.0217715, "bike_id": "8752faeb342794780ef76854cd07f181", "lat": 38.89481716666667, "fusion_lon": 0.0, "fusion_lat": 0.0, "type": "electric_scooter", "name": "8752faeb342794780ef76854cd07f181", "is_disabled": 0, "rental_uris": {"ios": "https://dc.lft.to/lastmile_qr_scan", "android": "https://dc.lft.to/lastmile_qr_scan"}, "is_reserved": 0}, {"lon": -77.028334, "bike_id": "7d41d3c3d738c46affab4f7a6c93f7cf", "lat": 38.887323333333335, "fusion_lon": 0.0, "fusion_lat": 0.0, "type": "electric_scooter", "name": "7d41d3c3d738c46affab4f7a6c93f7cf", "is_disabled": 0, "rental_uris": {"ios": "https://dc.lft.to/lastmile_qr_scan", "android": "https://dc.lft.to/lastmile_qr_scan"}, "is_reserved": 0}, {"lon": -76.9459715, "bike_id": "2edcaff8644de1ff3bad12a05f8d69a6", "lat": 38.90145833333333, "fusion_lon": 0.0, "fusion_lat": 0.0, "type": "electric_scooter", "name": "2edcaff8644de1ff3bad12a05f8d69a6", "is_disabled": 0, "rental_uris": {"ios": "https://dc.lft.to/lastmile_qr_scan", "android": "https://dc.lft.to/lastmile_qr_scan"}, "is_reserved": 0}, {"lon": -77.02964833333333, "bike_id": "2add343e1342cb9f44737d80a8604142", "lat": 38.922956, "fusion_lon": 0.0, "fusion_lat": 0.0, "type": "electric_scooter", "name": "2add343e1342cb9f44737d80a8604142", "is_disabled": 0, "rental_uris": {"ios": "https://dc.lft.to/lastmile_qr_scan", "android": "https://dc.lft.to/lastmile_qr_scan"}, "is_reserved": 0}, {"lon": -77.03209816666667, "bike_id": "488ce158bffc7615811218de0dc90b4e", "lat": 38.92884766666667, "fusion_lon": 0.0, "fusion_lat": 0.0, "type": "electric_scooter", "name": "488ce158bffc7615811218de0dc90b4e", "is_disabled": 0, "rental_uris": {"ios": "https://dc.lft.to/lastmile_qr_scan", "android": "https://dc.lft.to/lastmile_qr_scan"}, "is_reserved": 0}, {"lon": -77.03279066666667, "bike_id": "da01de0b3b10c0b15eb359ca04cf04a5", "lat": 38.93493083333333, "fusion_lon": 0.0, "fusion_lat": 0.0, "type": "electric_scooter", "name": "da01de0b3b10c0b15eb359ca04cf04a5", "is_disabled": 0, "rental_uris": {"ios": "https://dc.lft.to/lastmile_qr_scan", "android": "https://dc.lft.to/lastmile_qr_scan"}, "is_reserved": 0}, {"lon": -77.0230635, "bike_id": "dc7c74915c90d4d2c27b9ea210df7ac7", "lat": 38.93285233333334, "fusion_lon": 0.0, "fusion_lat": 0.0, "type": "electric_scooter", "name": "dc7c74915c90d4d2c27b9ea210df7ac7", "is_disabled": 0, "rental_uris": {"ios": "https://dc.lft.to/lastmile_qr_scan", "android": "https://dc.lft.to/lastmile_qr_scan"}, "is_reserved": 0}, {"lon": -76.93028266666667, "bike_id": "6a68b256b445e44c8a836a24019a93ef", "lat": 38.900129, "fusion_lon": 0.0, "fusion_lat": 0.0, "type": "electric_scooter", "name": "6a68b256b445e44c8a836a24019a93ef", "is_disabled": 0, "rental_uris": {"ios": "https://dc.lft.to/lastmile_qr_scan", "android": "https://dc.lft.to/lastmile_qr_scan"}, "is_reserved": 0}, {"lon": -77.027746, "bike_id": "11e4e27349246403cacbb1cd17861975", "lat": 38.892240666666666, "fusion_lon": 0.0, "fusion_lat": 0.0, "type": "electric_scooter", "name": "11e4e27349246403cacbb1cd17861975", "is_disabled": 0, "rental_uris": {"ios": "https://dc.lft.to/lastmile_qr_scan", "android": "https://dc.lft.to/lastmile_qr_scan"}, "is_reserved": 0}, {"lon": -77.02577383333333, "bike_id": "8837b0c740702d15c4176b64dd2cd6ec", "lat": 38.903855166666666, "fusion_lon": 0.0, "fusion_lat": 0.0, "type": "electric_scooter", "name": "8837b0c740702d15c4176b64dd2cd6ec", "is_disabled": 0, "rental_uris": {"ios": "https://dc.lft.to/lastmile_qr_scan", "android": "https://dc.lft.to/lastmile_qr_scan"}, "is_reserved": 0}, {"lon": -77.0419005, "bike_id": "e0a87ae6fe7ca2fa989e362518fbb06b", "lat": 38.911216333333336, "fusion_lon": 0.0, "fusion_lat": 0.0, "type": "electric_scooter", "name": "e0a87ae6fe7ca2fa989e362518fbb06b", "is_disabled": 0, "rental_uris": {"ios": "https://dc.lft.to/lastmile_qr_scan", "android": "https://dc.lft.to/lastmile_qr_scan"}, "is_reserved": 0}, {"lon": -77.02289983333333, "bike_id": "26d73d6585eaada0a442906a92f234ea", "lat": 38.916663166666666, "fusion_lon": 0.0, "fusion_lat": 0.0, "type": "electric_scooter", "name": "26d73d6585eaada0a442906a92f234ea", "is_disabled": 0, "rental_uris": {"ios": "https://dc.lft.to/lastmile_qr_scan", "android": "https://dc.lft.to/lastmile_qr_scan"}, "is_reserved": 0}, {"lon": -77.03661316666667, "bike_id": "56285cfcb8567f2c1d5d860de29aacfc", "lat": 38.91716783333333, "fusion_lon": 0.0, "fusion_lat": 0.0, "type": "electric_scooter", "name": "56285cfcb8567f2c1d5d860de29aacfc", "is_disabled": 0, "rental_uris": {"ios": "https://dc.lft.to/lastmile_qr_scan", "android": "https://dc.lft.to/lastmile_qr_scan"}, "is_reserved": 0}, {"lon": -76.97329033333334, "bike_id": "d0bb8ad198a5d805b77528f9407e467f", "lat": 38.90481316666666, "fusion_lon": 0.0, "fusion_lat": 0.0, "type": "electric_bike", "name": "d0bb8ad198a5d805b77528f9407e467f", "is_disabled": 0, "rental_uris": {"ios": "https://dc.lft.to/lastmile_qr_scan", "android": "https://dc.lft.to/lastmile_qr_scan"}, "is_reserved": 0}, {"lon": -77.03825416666666, "bike_id": "ec0a1ae934ce7012cac68f2cc31eae93", "lat": 38.91412783333333, "fusion_lon": 0.0, "fusion_lat": 0.0, "type": "electric_scooter", "name": "ec0a1ae934ce7012cac68f2cc31eae93", "is_disabled": 0, "rental_uris": {"ios": "https://dc.lft.to/lastmile_qr_scan", "android": "https://dc.lft.to/lastmile_qr_scan"}, "is_reserved": 0}, {"lon": -77.04422016666666, "bike_id": "d0517842cb72d65bd38fde13fe7178c0", "lat": 38.911308166666664, "fusion_lon": 0.0, "fusion_lat": 0.0, "type": "electric_scooter", "name": "d0517842cb72d65bd38fde13fe7178c0", "is_disabled": 0, "rental_uris": {"ios": "https://dc.lft.to/lastmile_qr_scan", "android": "https://dc.lft.to/lastmile_qr_scan"}, "is_reserved": 0}, {"lon": -76.91599283333333, "bike_id": "e57458f10694f10ac1317cf2991b794e", "lat": 38.87985833333333, "fusion_lon": 0.0, "fusion_lat": 0.0, "type": "electric_bike", "name": "e57458f10694f10ac1317cf2991b794e", "is_disabled": 0, "rental_uris": {"ios": "https://dc.lft.to/lastmile_qr_scan", "android": "https://dc.lft.to/lastmile_qr_scan"}, "is_reserved": 0}, {"lon": -77.02812933333334, "bike_id": "deb330ad6995919a74251c720a79a53a", "lat": 38.931741833333334, "fusion_lon": 0.0, "fusion_lat": 0.0, "type": "electric_scooter", "name": "deb330ad6995919a74251c720a79a53a", "is_disabled": 0, "rental_uris": {"ios": "https://dc.lft.to/lastmile_qr_scan", "android": "https://dc.lft.to/lastmile_qr_scan"}, "is_reserved": 0}, {"lon": -77.04469016666667, "bike_id": "c23baa2757520d2ce9d6b8af09bade3a", "lat": 38.905410833333335, "fusion_lon": 0.0, "fusion_lat": 0.0, "type": "electric_scooter", "name": "c23baa2757520d2ce9d6b8af09bade3a", "is_disabled": 0, "rental_uris": {"ios": "https://dc.lft.to/lastmile_qr_scan", "android": "https://dc.lft.to/lastmile_qr_scan"}, "is_reserved": 0}, {"lon": -77.0222555, "bike_id": "1054e834bab22b3e54bbf5dcfc2d15c3", "lat": 38.8932655, "fusion_lon": 0.0, "fusion_lat": 0.0, "type": "electric_scooter", "name": "1054e834bab22b3e54bbf5dcfc2d15c3", "is_disabled": 0, "rental_uris": {"ios": "https://dc.lft.to/lastmile_qr_scan", "android": "https://dc.lft.to/lastmile_qr_scan"}, "is_reserved": 0},