{"data": {"bikes": [{"lon": -77.03344166666666, "bike_id": "81d0c6c495f82337937919f309c6c62e", "lat": 38.94724216666667, "fusion_lon": 0.0, "fusion_lat": 0.0, "type": "electric_scooter", "name": "81d0c6c495f82337937919f309c6c62e", "is_disabled": 0, "rental_uris": {"ios": "https://dc.lft.to/lastmile_qr_scan", "android": "https://dc.lft.to/lastmile_qr_scan"}, "is_reserved": 0}, {"lon": -77.03172833333333, "bike_id": "21e003cc6717cae10f44a1ec546d64cb", "lat": 38.914196, "fusion_lon": 0.0, "fusion_lat": 0.0, "type": "electric_scooter", "name": "21e003cc6717cae10f44a1ec546d64cb", "is_disabled": 0, "rental_uris": {"ios": "https://dc.lft.to/lastmile_qr_scan", "android": "https://dc.lft.to/lastmile_qr_scan"}, "is_reserved": 0}, {"lon": -76.98364283333333, "bike_id": "c1f44cc9c328bfae7c7d2ad1ee5d7f6e", "lat": 38.861096833333335, "fusion_lon": 0.0, "fusion_lat": 0.0, "type": "electric_scooter", "name": "c1f44cc9c328bfae7c7d2ad1ee5d7f6e", "is_disabled": 0, "rental_uris": {"ios": "https://dc.lft.to/lastmile_qr_scan", "android": "https://dc.lft.to/lastmile_qr_scan"}, "is_reserved": 0}, {"lon": -77.04559283333333, "bike_id": "d29b293a1865726e9eaafedd721c3688", "lat": 38.913637, "fusion_lon": 0.0, "fusion_lat": 0.0, "type": "electric_scooter", "name": "d29b293a1865726e9eaafedd721c3688", "is_disabled": 0, "rental_uris": {"ios": "https://dc.lft.to/lastmile_qr_scan", "android": "https://dc.lft.to/lastmile_qr_scan"}, "is_reserved": 0}, {"lon": -77.0376435, "bike_id": "5f39e0e5770d01ba48c69bacb2c22351", "lat": 38.90779466666667, "fusion_lon": 0.0, "fusion_lat": 0.0, "type": "electric_scooter", "name": "5f39e0e5770d01ba48c69bacb2c22351", "is_disabled": 0, "rental_uris": {"ios": "https://dc.lft.to/lastmile_qr_scan", "android": "https://dc.lft.to/lastmile_qr_scan"}, "is_reserved": 0}, {"lon": -77.03879916666666, "bike_id": "8366ed77ecb640cb9fa899553bee335c", "lat": 38.911191333333335, "fusion_lon": 0.0, "fusion_lat": 0.0, "type": "electric_scooter", "name": "8366ed77ecb640cb9fa899553bee335c", "is_disabled": 0, "rental_uris": {"ios": "https://dc.lft.to/lastmile_qr_scan", "android": "https://dc.lft.to/lastmile_qr_scan"}, "is_reserved": 0}, {"lon": -77.02953916666667, "bike_id": "74248af9066943e02afeb5fc2dadce17", "lat": 38.905036, "fusion_lon": 0.0, "fusion_lat": 0.0, "type": "electric_scooter", "name": "74248af9066943e02afeb5fc2dadce17", "is_disabled": 0, "rental_uris": {"ios": "https://dc.lft.to/lastmile_qr_scan", "android": "https://dc.lft.to/lastmile_qr_scan"}, "is_reserved": 0}, {"lon": -77.02485216666666, "bike_id": "4da1b8193276066fa4b5cf8bcf5225b2", "lat": 38.93102566666666, "fusion_lon": 0.0, "fusion_lat": 0.0, "type": "electric_scooter", "name": "4da1b8193276066fa4b5cf8bcf5225b2", "is_disabled": 0, "rental_uris": {"ios": "https://dc.lft.to/lastmile_qr_scan", "android": "https://dc.lft.to/lastmile_qr_scan"}, "is_reserved": 0}, {"lon": -77.00801233333334, "bike_id": "6daed5f28fe2f3d633e9ece4eeba02e4", "lat": 38.917038166666664, "fusion_lon": 0.0, "fusion_lat": 0.0, "type": "electric_scooter", "name": "6daed5f28fe2f3d633e9ece4eeba02e4", "is_disabled": 0, "rental_uris": {"ios": "https://dc.lft.to/lastmile_qr_scan", "android": "https://dc.lft.to/lastmile_qr_scan"}, "is_reserved": 0}, {"lon": -76.93373116666666, "bike_id": "2a1aa5618fe98b77b14ab225bbc80f60", "lat": 38.89917333333333, "fusion_lon": 0.0, "fusion_lat": 0.0, "type": "electric_scooter", "name": "2a1aa5618fe98b77b14ab225bbc80f60", "is_disabled": 0, "rental_uris": {"ios": "https://dc.lft.to/lastmile_qr_scan", "android": "https://dc.lft.to/lastmile_qr_scan"}, "is_reserved": 0}, {"lon": -77.01607766666666, "bike_id": "72748e706c63115362becd6bf7da7414", "lat": 38.9105925, "fusion_lon": 0.0, "fusion_lat": 0.0, "type": "electric_scooter", "name": "72748e706c63115362becd6bf7da7414", "is_disabled": 0, "rental_uris": {"ios": "https://dc.lft.to/lastmile_qr_scan", "android": "https://dc.lft.to/lastmile_qr_scan"}, "is_reserved": 0}, {"lon": -76.93178, "bike_id": "5bab04d7a6b3fd544a69035f57c59676", "lat": 38.89886083333333, "fusion_lon": 0.0, "fusion_lat": 0.0, "type": "electric_scooter", "name": "5bab04d7a6b3fd544a69035f57c59676", "is_disabled": 0, "rental_uris": {"ios": "https://dc.lft.to/lastmile_qr_scan", "android": "https://dc.lft.to/lastmile_qr_scan"}, "is_reserved": 0}, {"lon": -77.02949566666666, "bike_id": "1140673181eb4234a9db97082a79f334", "lat": 38.907480166666666, "fusion_lon": 0.0, "fusion_lat": 0.0, "type": "electric_scooter", "name": "1140673181eb4234a9db97082a79f334", "is_disabled": 0, "rental_uris": {"ios": "https://dc.lft.to/lastmile_qr_scan", "android": "https://dc.lft.to/lastmile_qr_scan"}, "is_reserved": 0}, {"lon": -77.01578033333334, "bike_id": "9553871f764a4f8698870ab79a7d691f", "lat": 38.8947055, "fusion_lon": 0.0, "fusion_lat": 0.0, "type": "electric_scooter", "name": "9553871f764a4f8698870ab79a7d691f", "is_disabled": 0, "rental_uris": {"ios": "https://dc.lft.to/lastmile_qr_scan", "android": "https://dc.lft.to/lastmile_qr_scan"}, "is_reserved": 0}, {"lon": -76.99734433333333, "bike_id": "180af82fc47345fd6d85644a7499946a", "lat": 38.900277333333335, "fusion_lon": 0.0, "fusion_lat": 0.0, "type": "electric_scooter", "name": "180af82fc47345fd6d85644a7499946a", "is_disabled": 0, "rental_uris": {"ios": "https://dc.lft.to/lastmile_qr_scan", "android": "https://dc.lft.to/lastmile_qr_scan"}, "is_reserved": 0}, {"lon": -76.95194583333334, "bike_id": "9719c53c202d975b1a0dfb436eb57d10", "lat": 38.9000085, "fusion_lon": 0.0, "fusion_lat": 0.0, "type": "electric_scooter", "name": "9719c53c202d975b1a0dfb436eb57d10", "is_disabled": 0, "rental_uris": {"ios": "https://dc.lft.to/lastmile_qr_scan", "android": "https://dc.lft.to/lastmile_qr_scan"}, "is_reserved": 0}, {"lon": -77.041074, "bike_id": "39669ca7db59932b1a739a46a1626c57", "lat": 38.92036516666667, "fusion_lon": 0.0, "fusion_lat": 0.0, "type": "electric_scooter", "name": "39669ca7db59932b1a739a46a1626c57", "is_disabled": 0, "rental_uris": {"ios": "https://dc.lft.to/lastmile_qr_scan", "android": "https://dc.lft.to/lastmile_qr_scan"}, "is_reserved": 0}, {"lon": -76.9961425, "bike_id": "40052e2903308503c212ce7485258b6d", "lat": 38.8831915, "fusion_lon": 0.0, "fusion_lat": 0.0, "type": "electric_scooter", "name": "40052e2903308503c212ce7485258b6d", "is_disabled": 0, "rental_uris": {"ios": "https://dc.lft.to/lastmile_qr_scan", "android": "https://dc.lft.to/lastmile_qr_scan"}, "is_reserved": 0}, {"lon": -76.9973915, "bike_id": "8e4fb7a0d4aa882ce3f9be117dec7a10", "lat": 38.90965166666667, "fusion_lon": 0.0, "fusion_lat": 0.0, "type": "electric_scooter", "name": "8e4fb7a0d4aa882ce3f9be117dec7a10", "is_disabled": 0, "rental_uris": {"ios": "https://dc.lft.to/lastmile_qr_scan", "android": "https://dc.lft.to/lastmile_qr_scan"}, "is_reserved": 0}, {"lon": -77.02376566666666, "bike_id": "2eba88239b61a8002812e970382df5d4", "lat": 38.9096025, "fusion_lon": 0.0, "fusion_lat": 0.0, "type": "electric_scooter", "name": "2eba88239b61a8002812e970382df5d4", "is_disabled": 0, "rental_uris": {"ios": "https://dc.lft.to/lastmile_qr_scan", "android": "https://dc.lft.to/lastmile_qr_scan"}, "is_reserved": 0}, {"lon": -76.99566466666667, "bike_id": "8152b6abbc106c2e261993f06518351c", "lat": 38.85181033333333, "fusion_lon": 0.0, "fusion_lat": 0.0, "type": "electric_bike", "name": "8152b6abbc106c2e261993f06518351c", "is_disabled": 0, "rental_uris": {"ios": "https://dc.lft.to/lastmile_qr_scan", "android": "https://dc.lft.to/lastmile_qr_scan"}, "is_reserved": 0}, {"lon": -77.04491516666667, "bike_id": "28cdf52869b6edfdce691b4524e00fea", "lat": 38.91946433333333, "fusion_lon": 0.0, "fusion_lat": 0.0, "type": "electric_scooter", "name": "28cdf52869b6edfdce691b4524e00fea", "is_disabled": 0, "rental_uris": {"ios": "https://dc.lft.to/lastmile_qr_scan", "android": "https://dc.lft.to/lastmile_qr_scan"}, "is_reserved": 0}, {"lon": -77.04449183333334, "bike_id": "c3209c506a7bd80046eda8a8bb13851c", "lat": 38.9193725, "fusion_lon": 0.0, "fusion_lat": 0.0, "type": "electric_scooter", "name": "c3209c506a7bd80046eda8a8bb13851c", "is_disabled": 0, "rental_uris": {"ios": "https://dc.lft.to/lastmile_qr_scan", "android": "https://dc.lft.to/lastmile_qr_scan"}, "is_reserved": 0}, {"lon": -77.0376185, "bike_id": "e7058ef8aac8a6093ecba53d77a0757f", "lat": 38.907822, "fusion_lon": 0.0, "fusion_lat": 0.0, "type": "electric_scooter", "name": "e7058ef8aac8a6093ecba53d77a0757f", "is_disabled": 0, "rental_uris": {"ios": "https://dc.lft.to/lastmile_qr_scan", "android": "https://dc.lft.to/lastmile_qr_scan"}, "is_reserved": 0}, {"lon": -77.03091, "bike_id": "5584e792f7455a98b33a606796d28108", "lat": 38.928602833333336, "fusion_lon": 0.0, "fusion_lat": 0.0, "type": "electric_scooter", "name": "5584e792f7455a98b33a606796d28108", "is_disabled": 0, "rental_uris": {"ios": "https://dc.lft.to/lastmile_qr_scan", "android": "https://dc.lft.to/lastmile_qr_scan"}, "is_reserved": 0}, {"lon": -77.012109, "bike_id": "5780367717db469030cc5d2a78f630f5", "lat": 38.921208166666666, "fusion_lon": 0.0, "fusion_lat": 0.0, "type": "electric_scooter", "name": "5780367717db469030cc5d2a78f630f5", "is_disabled": 0, "rental_uris": {"ios": "https://dc.lft.to/lastmile_qr_scan", "android": "https://dc.lft.to/lastmile_qr_scan"}, "is_reserved": 0}, {"lon": -77.05159016666667, "bike_id": "78b85ab4ce6c04ce840c3d3c5e10c98f", "lat": 39.04310383333333, "fusion_lon": 0.0, "fusion_lat": 0.0, "type": "electric_bike", "name": "78b85ab4ce6c04ce840c3d3c5e10c98f", "is_disabled": 0, "rental_uris": {"ios": "https://dc.lft.to/lastmile_qr_scan", "android": "https://dc.lft.to/lastmile_qr_scan"}, "is_reserved": 0}, {"lon": -77.03195883333333, "bike_id": "e2d67180efe9baaec8d646005093c6ce", "lat": 38.9368225, "fusion_lon": 0.0, "fusion_lat": 0.0, "type": "electric_scooter", "name": "e2d67180efe9baaec8d646005093c6ce", "is_disabled": 0, "rental_uris": {"ios": "https://dc.lft.to/lastmile_qr_scan", "android": "https://dc.lft.to/lastmile_qr_scan"}, "is_reserved": 0}, {"lon": -76.97318216666666, "bike_id": "82131872be61381155c27aca0200f477", "lat": 38.86564333333333, "fusion_lon": 0.0, "fusion_lat": 0.0, "type": "electric_scooter", "name": "82131872be61381155c27aca0200f477", "is_disabled": 0, "rental_uris": {"ios": "https://dc.lft.to/lastmile_qr_scan", "android": "https://dc.lft.to/lastmile_qr_scan"}, "is_reserved": 0}, {"lon": -77.111466, "bike_id": "d2fbb47db65a43bb0a6c1d98d2dfb62f", "lat": 38.85510466666667, "fusion_lon": 0.0, "fusion_lat": 0.0, "type": "electric_bike", "name": "d2fbb47db65a43bb0a6c1d98d2dfb62f", "is_disabled": 0, "rental_uris": {"ios": "https://dc.lft.to/lastmile_qr_scan", "android": "https://dc.lft.to/lastmile_qr_scan"}, "is_reserved": 0}, {"lon": -77.01874033333333, "bike_id": "9e43bc574677af86dc37fe25dbc09fcf", "lat": 38.9182485, "fusion_lon": 0.0, "fusion_lat": 0.0, "type": "electric_scooter", "name": "9e43bc574677af86dc37fe25dbc09fcf", "is_disabled": 0, "rental_uris": {"ios": "https://dc.lft.to/lastmile_qr_scan", "android": "https://dc.lft.to/lastmile_qr_scan"}, "is_reserved": 0}, {"lon": -77.02575133333333, "bike_id": "c7f7277ccd1e87bf33688e998eb964c6", "lat": 38.93090766666667, "fusion_lon": 0.0, "fusion_lat": 0.0, "type": "electric_scooter", "name": "c7f7277ccd1e87bf33688e998eb964c6", "is_disabled": 0, "rental_uris": {"ios": "https://dc.lft.to/lastmile_qr_scan", "android": "https://dc.lft.to/lastmile_qr_scan"}, "is_reserved": 0}, {"lon": -77.03360216666667, "bike_id": "c62c94e74b453aae07a2954ba4838eda", "lat": 38.907228, "fusion_lon": 0.0, "fusion_lat": 0.0, "type": "electric_scooter", "name": "c62c94e74b453aae07a2954ba4838eda", "is_disabled": 0, "rental_uris": {"ios": "https://dc.lft.to/lastmile_qr_scan", "android": "https://dc.lft.to/lastmile_qr_scan"}, "is_reserved": 0}, {"lon": -77.10494633333333, "bike_id": "3426f0b32dae7d8bb0a4a047571da40f", "lat": 38.85611983333333, "fusion_lon": 0.0, "fusion_lat": 0.0, "type": "electric_bike", "name": "3426f0b32dae7d8bb0a4a047571da40f", "is_disabled": 0, "rental_uris": {"ios": "https://dc.lft.to/lastmile_qr_scan", "android": "https://dc.lft.to/lastmile_qr_scan"}, "is_reserved": 0}, {"lon": -76.93012083333333, "bike_id": "bba738e17e534f545edea14a2a7f35a2", "lat": 38.891949, "fusion_lon": 0.0, "fusion_lat": 0.0, "type": "electric_scooter", "name": "bba738e17e534f545edea14a2a7f35a2", "is_disabled": 0, "rental_uris": {"ios": "https://dc.lft.to/lastmile_qr_scan", "android": "https://dc.lft.to/lastmile_qr_scan"}, "is_reserved": 0}, {"lon": -77.05697783333333, "bike_id": "2f1f49a89fb22088f26d3fca998bb51a", "lat": 38.937181, "fusion_lon": 0.0, "fusion_lat": 0.0, "type": "electric_scooter", "name": "2f1f49a89fb22088f26d3fca998bb51a", "is_disabled": 0, "rental_uris": {"ios": "https://dc.lft.to/lastmile_qr_scan", "android": "https://dc.lft.to/lastmile_qr_scan"}, "is_reserved": 0}, {"lon": -77.00632966666667, "bike_id": "a3043510f18a2c45b70b3450833f5432", "lat": 38.91268933333333, "fusion_lon": 0.0, "fusion_lat": 0.0, "type": "electric_scooter", "name": "a3043510f18a2c45b70b3450833f5432", "is_disabled": 0, "rental_uris": {"ios": "https://dc.lft.to/lastmile_qr_scan", "android": "https://dc.lft.to/lastmile_qr_scan"}, "is_reserved": 0}, {"lon": -77.05515833333334, "bike_id": "e9a953b1f1a1af8cd0e393c07b124a76", "lat": 38.89965016666667, "fusion_lon": 0.0, "fusion_lat": 0.0, "type": "electric_scooter", "name": "e9a953b1f1a1af8cd0e393c07b124a76", "is_disabled": 0, "rental_uris": {"ios": "https://dc.lft.to/lastmile_qr_scan", "android": "https://dc.lft.to/lastmile_qr_scan"}, "is_reserved": 0}, {"lon": -76.9823195, "bike_id": "996e55a8ce0578eb7baa6b3fb47d91f0", "lat": 38.88652, "fusion_lon": 0.0, "fusion_lat": 0.0, "type": "electric_scooter", "name": "996e55a8ce0578eb7baa6b3fb47d91f0", "is_disabled": 0, "rental_uris": {"ios": "https://dc.lft.to/lastmile_qr_scan", "android": "https://dc.lft.to/lastmile_qr_scan"}, "is_reserved": 0}, {"lon": -76.98235216666667, "bike_id": "4baf053be17adac095da824707a86e96", "lat": 38.916713333333334, "fusion_lon": 0.0, "fusion_lat": 0.0, "type": "electric_scooter", "name": "4baf053be17adac095da824707a86e96", "is_disabled": 0, "rental_uris": {"ios": "https://dc.lft.to/lastmile_qr_scan", "android": "https://dc.lft.to/lastmile_qr_scan"}, "is_reserved": 0}, {"lon": -77.05738083333334, "bike_id": "72ef5050cfe38d5e46d5b0bc6275c45e", "lat": 38.933664, "fusion_lon": 0.0, "fusion_lat": 0.0, "type": "electric_scooter", "name": "72ef5050cfe38d5e46d5b0bc6275c45e", "is_disabled": 0, "rental_uris": {"ios": "https://dc.lft.to/lastmile_qr_scan", "android": "https://dc.lft.to/lastmile_qr_scan"}, "is_reserved": 0}, {"lon": -77.052996, "bike_id": "81237c143635b525baec1255ad85bb61", "lat": 38.925642833333335, "fusion_lon": 0.0, "fusion_lat": 0.0, "type": "electric_scooter", "name": "81237c143635b525baec1255ad85bb61", "is_disabled": 0, "rental_uris": {"ios": "https://dc.lft.to/lastmile_qr_scan", "android": "https://dc.lft.to/lastmile_qr_scan"}, "is_reserved": 0}, {"lon": -77.0440805, "bike_id": "ebbfd709fd5c586405feab4f1ee481f9", "lat": 38.921244, "fusion_lon": 0.0, "fusion_lat": 0.0, "type": "electric_scooter", "name": "ebbfd709fd5c586405feab4f1ee481f9", "is_disabled": 0, "rental_uris": {"ios": "https://dc.lft.to/lastmile_qr_scan", "android": "https://dc.lft.to/lastmile_qr_scan"}, "is_reserved": 0}, {"lon": -76.99533566666666, "bike_id": "323171752d4d4751106b47da4f5d4cff", "lat": 38.883712333333335, "fusion_lon": 0.0, "fusion_lat": 0.0, "type": "electric_scooter", "name": "323171752d4d4751106b47da4f5d4cff", "is_disabled": 0, "rental_uris": {"ios": "https://dc.lft.to/lastmile_qr_scan", "android": "https://dc.lft.to/lastmile_qr_scan"}, "is_reserved": 0}, {"lon": -76.99510833333333, "bike_id": "026c56b180e59242417fa2d5589dd59c", "lat": 38.877801833333336, "fusion_lon": 0.0, "fusion_lat": 0.0, "type": "electric_scooter", "name": "026c56b180e59242417fa2d5589dd59c", "is_disabled": 0, "rental_uris": {"ios": "https://dc.lft.to/lastmile_qr_scan", "android": "https://dc.lft.to/lastmile_qr_scan"}, "is_reserved": 0}, {"lon": -77.00066016666666, "bike_id": "3601888a1963754b7445c95581b1fb45", "lat": 38.89497983333333, "fusion_lon": 0.0, "fusion_lat": 0.0, "type": "electric_scooter", "name": "3601888a1963754b7445c95581b1fb45", "is_disabled": 0, "rental_uris": {"ios": "https://dc.lft.to/lastmile_qr_scan", "android": "https://dc.lft.to/lastmile_qr_scan"}, "is_reserved": 0}, {"lon": -77.0251085, "bike_id": "9bb53852223ae969c3253e2bf04b31ea", "lat": 38.931061166666666, "fusion_lon": 0.0, "fusion_lat": 0.0, "type": "electric_scooter", "name": "9bb53852223ae969c3253e2bf04b31ea", "is_disabled": 0, "rental_uris": {"ios": "https://dc.lft.to/lastmile_qr_scan", "android": "https://dc.lft.to/lastmile_qr_scan"}, "is_reserved": 0}, {"lon": -77.02946566666667, "bike_id": "13902d1e6eaae0b588c20c0990aa8306", "lat": 38.923665166666666, "fusion_lon": 0.0, "fusion_lat": 0.0, "type": "electric_scooter", "name": "13902d1e6eaae0b588c20c0990aa8306", "is_disabled": 0, "rental_uris": {"ios": "https://dc.lft.to/lastmile_qr_scan", "android": "https://dc.lft.to/lastmile_qr_scan"}, "is_reserved": 0}, {"lon": -77.03168383333333, "bike_id": "209339139e9ebd01f2a97ea7115c602d", "lat": 38.914185, "fusion_lon": 0.0, "fusion_lat": 0.0, "type": "electric_scooter", "name": "209339139e9ebd01f2a97ea7115c602d", "is_disabled": 0, "rental_uris": {"ios": "https://dc.lft.to/lastmile_qr_scan", "android": "https://dc.lft.to/lastmile_qr_scan"}, "is_reserved": 0}, {"lon": -77.047941, "bike_id": "490ce31f33c7975712ca957dce9f5ed2", "lat": 38.909498, "fusion_lon": 0.0, "fusion_lat": 0.0, "type": "electric_scooter", "name": "490ce31f33c7975712ca957dce9f5ed2", "is_disabled": 0, "rental_uris": {"ios": "https://dc.lft.to/lastmile_qr_scan", "android": "https://dc.lft.to/lastmile_qr_scan"}, "is_reserved": 0}, {"lon": -77.02795033333334, "bike_id": "85c84c6866503f31608c733d507a5092", "lat": 38.929700833333335, "fusion_lon": 0.0, "fusion_lat": 0.0, "type": "electric_scooter", "name": "85c84c6866503f31608c733d507a5092", "is_disabled": 0, "rental_uris": {"ios": "https://dc.lft.to/lastmile_qr_scan", "android": "https://dc.lft.to/lastmile_qr_scan"}, "is_reserved": 0}, {"lon": -76.93353283333333, "bike_id": "6db083469e092f54a209161a9f36defe", "lat": 38.88797533333333, "fusion_lon": 0.0, "fusion_lat": 0.0, "type": "electric_scooter", "name": "6db083469e092f54a209161a9f36defe", "is_disabled": 0, "rental_uris": {"ios": "https://dc.lft.to/lastmile_qr_scan", "android": "https://dc.lft.to/lastmile_qr_scan"}, "is_reserved": 0}, {"lon": -77.04252666666666, "bike_id": "5f508e42eae595efc19487a10b09e33f", "lat": 38.9072005, "fusion_lon": 0.0, "fusion_lat": 0.0, "type": "electric_scooter", "name": "5f508e42eae595efc19487a10b09e33f", "is_disabled": 0, "rental_uris": {"ios": "https://dc.lft.to/lastmile_qr_scan", "android": "https://dc.lft.to/lastmile_qr_scan"}, "is_reserved": 0}, {"lon": -77.01000883333333, "bike_id": "89f8c47e182c13ed59d2c6f79a78c98f", "lat": 38.91926816666667, "fusion_lon": 0.0, "fusion_lat": 0.0, "type": "electric_scooter", "name": "89f8c47e182c13ed59d2c6f79a78c98f", "is_disabled": 0, "rental_uris": {"ios": "https://dc.lft.to/lastmile_qr_scan", "android": "https://dc.lft.to/lastmile_qr_scan"}, "is_reserved": 0}, {"lon": -77.03278266666666, "bike_id": "7f44502ed865f5d110fb0b63ed590f04", "lat": 38.932565, "fusion_lon": 0.0, "fusion_lat": 0.0, "type": "electric_scooter", "name": "7f44502ed865f5d110fb0b63ed590f04", "is_disabled": 0, "rental_uris": {"ios": "https://dc.lft.to/lastmile_qr_scan", "android": "https://dc.lft.to/lastmile_qr_scan"}, "is_reserved": 0}, {"lon": -76.94593066666667, "bike_id": "47c419d4fb7482aa3951d5d88b08c694", "lat": 38.901473, "fusion_lon": 0.0, "fusion_lat": 0.0, "type": "electric_scooter", "name": "47c419d4fb7482aa3951d5d88b08c694", "is_disabled": 0, "rental_uris": {"ios": "https://dc.lft.to/lastmile_qr_scan", "android": "https://dc.lft.to/lastmile_qr_scan"}, "is_reserved": 0}, {"lon": -77.037619, "bike_id": "276eec551c37fac1cf8830e1e66544c6", "lat": 38.92606466666667, "fusion_lon": 0.0, "fusion_lat": 0.0, "type": "electric_scooter", "name": "276eec551c37fac1cf8830e1e66544c6", "is_disabled": 0, "rental_uris": {"ios": "https://dc.lft.to/lastmile_qr_scan", "android": "https://dc.lft.to/lastmile_qr_scan"}, "is_reserved": 0}, {"lon": -77.03037933333333, "bike_id": "5f7fd5c12274efbbac2cb0987cc98936", "lat": 38.93712166666667, "fusion_lon": 0.0, "fusion_lat": 0.0, "type": "electric_scooter", "name": "5f7fd5c12274efbbac2cb0987cc98936", "is_disabled": 0, "rental_uris": {"ios": "https://dc.lft.to/lastmile_qr_scan", "android": "https://dc.lft.to/lastmile_qr_scan"}, "is_reserved": 0}, {"lon": -77.03342283333333, "bike_id": "eb457971d9a10670761cd25fea6f2499", "lat": 38.9203835, "fusion_lon": 0.0, "fusion_lat": 0.0, "type": "electric_scooter", "name": "eb457971d9a10670761cd25fea6f2499", "is_disabled": 0, "rental_uris": {"ios": "https://dc.lft.to/lastmile_qr_scan", "android": "https://dc.lft.to/lastmile_qr_scan"}, "is_reserved": 0}, {"lon": -76.97397416666666, "bike_id": "fa25322db63526f57fadbdbaf3e52379", "lat": 38.90298683333333, "fusion_lon": 0.0, "fusion_lat": 0.0, "type": "electric_scooter", "name": "fa25322db63526f57fadbdbaf3e52379", "is_disabled": 0, "rental_uris": {"ios": "https://dc.lft.to/lastmile_qr_scan", "android": "https://dc.lft.to/lastmile_qr_scan"}, "is_reserved": 0}, {"lon": -77.02715533333334, "bike_id": "96c42e98f8b441103497a31a6a7857a6", "lat": 38.9246795, "fusion_lon": 0.0, "fusion_lat": 0.0, "type": "electric_scooter", "name": "96c42e98f8b441103497a31a6a7857a6", "is_disabled": 0, "rental_uris": {"ios": "https://dc.lft.to/lastmile_qr_scan", "android": "https://dc.lft.to/lastmile_qr_scan"}, "is_reserved": 0}, {"lon": -77.088076, "bike_id": "e29af7b8b6d7092e5febc079f77eec1a", "lat": 38.9118505, "fusion_lon": 0.0, "fusion_lat": 0.0, "type": "electric_scooter", "name": "e29af7b8b6d7092e5febc079f77eec1a", "is_disabled": 0, "rental_uris": {"ios": "https://dc.lft.to/lastmile_qr_scan", "android": "https://dc.lft.to/lastmile_qr_scan"}, "is_reserved": 0}, {"lon": -77.03997366666667, "bike_id": "7a8480385fc0bf68eeb551b785c4e86e", "lat": 38.934325333333334, "fusion_lon": 0.0, "fusion_lat": 0.0, "type": "electric_scooter", "name": "7a8480385fc0bf68eeb551b785c4e86e", "is_disabled": 0, "rental_uris": {"ios": "https://dc.lft.to/lastmile_qr_scan", "android": "https://dc.lft.to/lastmile_qr_scan"}, "is_reserved": 0}, {"lon": -76.989085, "bike_id": "8b75c3fe8b2626b63a73ae87845f580b", "lat": 38.8649015, "fusion_lon": 0.0, "fusion_lat": 0.0, "type": "electric_scooter", "name": "8b75c3fe8b2626b63a73ae87845f580b", "is_disabled": 0, "rental_uris": {"ios": "https://dc.lft.to/lastmile_qr_scan", "android": "https://dc.lft.to/lastmile_qr_scan"}, "is_reserved": 0}, {"lon": -76.980626, "bike_id": "16c64bc161d9154bc5131d5fd8c950b2", "lat": 38.88498533333333, "fusion_lon": 0.0, "fusion_lat": 0.0, "type": "electric_scooter", "name": "16c64bc161d9154bc5131d5fd8c950b2", "is_disabled": 0, "rental_uris": {"ios": "https://dc.lft.to/lastmile_qr_scan", "android": "https://dc.lft.to/lastmile_qr_scan"}, "is_reserved": 0}, {"lon": -77.0383695, "bike_id": "d789ab6ada5262ab152e81399d18bd8d", "lat": 38.90964916666667, "fusion_lon": 0.0, "fusion_lat": 0.0, "type": "electric_scooter", "name": "d789ab6ada5262ab152e81399d18bd8d", "is_disabled": 0, "rental_uris": {"ios": "https://dc.lft.to/lastmile_qr_scan", "android": "https://dc.lft.to/lastmile_qr_scan"}, "is_reserved": 0}, {"lon": -77.02829966666667, "bike_id": "32d005251af2ea50b0107b93ff8b9a14", "lat": 38.8952615, "fusion_lon": 0.0, "fusion_lat": 0.0, "type": "electric_scooter", "name": "32d005251af2ea50b0107b93ff8b9a14", "is_disabled": 0, "rental_uris": {"ios": "https://dc.lft.to/lastmile_qr_scan", "android": "https://dc.lft.to/lastmile_qr_scan"}, "is_reserved": 0}, {"lon": -77.02709666666667, "bike_id": "4072a1915e82116b8dff2da2d45ae5ad", "lat": 38.922861833333336, "fusion_lon": 0.0, "fusion_lat": 0.0, "type": "electric_scooter", "name": "4072a1915e82116b8dff2da2d45ae5ad", "is_disabled": 0, "rental_uris": {"ios": "https://dc.lft.to/lastmile_qr_scan", "android": "https://dc.lft.to/lastmile_qr_scan"}, "is_reserved": 0}, {"lon": -77.04718533333333, "bike_id": "bccd8b6b10d476d6c31d697d32e536bd", "lat": 38.903028, "fusion_lon": 0.0, "fusion_lat": 0.0, "type": "electric_scooter", "name": "bccd8b6b10d476d6c31d697d32e536bd", "is_disabled": 0, "rental_uris": {"ios": "https://dc.lft.to/lastmile_qr_scan", "android": "https://dc.lft.to/lastmile_qr_scan"}, "is_reserved": 0}, {"lon": -77.07470033333334, "bike_id": "64bfeaf6f916660b29e5cf4c1b47cd62", "lat": 38.92067616666667, "fusion_lon": 0.0, "fusion_lat": 0.0, "type": "electric_bike", "name": "64bfeaf6f916660b29e5cf4c1b47cd62", "is_disabled": 0, "rental_uris": {"ios": "https://dc.lft.to/lastmile_qr_scan", "android": "https://dc.lft.to/lastmile_qr_scan"}, "is_reserved": 0}, {"lon": -77.03425133333333, "bike_id": "15d937fa92a47e3bc6b93ba37fdeb6da", "lat": 38.919315, "fusion_lon": 0.0, "fusion_lat": 0.0, "type": "electric_scooter", "name": "15d937fa92a47e3bc6b93ba37fdeb6da", "is_disabled": 0, "rental_uris": {"ios": "https://dc.lft.to/lastmile_qr_scan", "android": "https://dc.lft.to/lastmile_qr_scan"}, "is_reserved": 0}, {"lon": -77.04468233333333, "bike_id": "9c98c9154fa109fe669e9d84dbb30b5f", "lat": 38.924358166666664, "fusion_lon": 0.0, "fusion_lat": 0.0, "type": "electric_scooter", "name": "9c98c9154fa109fe669e9d84dbb30b5f", "is_disabled": 0, "rental_uris": {"ios": "https://dc.lft.to/lastmile_qr_scan", "android": "https://dc.lft.to/lastmile_qr_scan"}, "is_reserved": 0}, {"lon": -77.02100166666666, "bike_id": "fc7c7dfe5ca4a9fe07da91ba379a0c6d", "lat": 38.949140166666666, "fusion_lon": 0.0, "fusion_lat": 0.0, "type": "electric_scooter", "name": "fc7c7dfe5ca4a9fe07da91ba379a0c6d", "is_disabled": 0, "rental_uris": {"ios": "https://dc.lft.to/lastmile_qr_scan", "android": "https://dc.lft.to/lastmile_qr_scan"}, "is_reserved": 0}, {"lon": -77.08488483333333, "bike_id": "295d62cb0fd3b6893738c3fe0bf4ae93", "lat": 38.848526166666666, "fusion_lon": 0.0, "fusion_lat": 0.0, "type": "electric_bike", "name": "295d62cb0fd3b6893738c3fe0bf4ae93", "is_disabled": 0, "rental_uris": {"ios": "https://dc.lft.to/lastmile_qr_scan", "android": "https://dc.lft.to/lastmile_qr_scan"}, "is_reserved": 0}, {"lon": -77.03661266666667, "bike_id": "f788c9f7e7015869cc07bef3ada52ff5", "lat": 38.91753, "fusion_lon": 0.0, "fusion_lat": 0.0, "type": "electric_scooter", "name": "f788c9f7e7015869cc07bef3ada52ff5", "is_disabled": 0, "rental_uris": {"ios": "https://dc.lft.to/lastmile_qr_scan", "android": "https://dc.lft.to/lastmile_qr_scan"}, "is_reserved": 0}, {"lon": -77.01679016666667, "bike_id": "c39da30d7c5527e322dc34a110412fb0", "lat": 38.91446083333334, "fusion_lon": 0.0, "fusion_lat": 0.0, "type": "electric_scooter", "name": "c39da30d7c5527e322dc34a110412fb0", "is_disabled": 0, "rental_uris": {"ios": "https://dc.lft.to/lastmile_qr_scan", "android": "https://dc.lft.to/lastmile_qr_scan"}, "is_reserved": 0}, {"lon": -77.07416416666666, "bike_id": "21afbfb3489dba3a169aa43c9508259c", "lat": 38.9288965, "fusion_lon": 0.0, "fusion_lat": 0.0, "type": "electric_scooter", "name": "21afbfb3489dba3a169aa43c9508259c", "is_disabled": 0, "rental_uris": {"ios": "https://dc.lft.to/lastmile_qr_scan", "android": "https://dc.lft.to/lastmile_qr_scan"}, "is_reserved": 0}, {"lon": -77.026947, "bike_id": "66f34cc13027af57306beb632a62bbf1", "lat": 38.904259833333334, "fusion_lon": 0.0, "fusion_lat": 0.0, "type": "electric_scooter", "name": "66f34cc13027af57306beb632a62bbf1", "is_disabled": 0, "rental_uris": {"ios": "https://dc.lft.to/lastmile_qr_scan", "android": "https://dc.lft.to/lastmile_qr_scan"}, "is_reserved": 0}, {"lon": -77.03075766666667, "bike_id": "1c076d324bd7d77ffbf11d5988dcf247", "lat": 38.932708833333336, "fusion_lon": 0.0, "fusion_lat": 0.0, "type": "electric_bike", "name": "1c076d324bd7d77ffbf11d5988dcf247", "is_disabled": 0, "rental_uris": {"ios": "https://dc.lft.to/lastmile_qr_scan", "android": "https://dc.lft.to/lastmile_qr_scan"}, "is_reserved": 0}, {"lon": -77.02155583333334, "bike_id": "fe2d99a056b1c5faff47503d11f8cfac", "lat": 38.89731233333333, "fusion_lon": 0.0, "fusion_lat": 0.0, "type": "electric_scooter", "name": "fe2d99a056b1c5faff47503d11f8cfac", "is_disabled": 0, "rental_uris": {"ios": "https://dc.lft.to/lastmile_qr_scan", "android": "https://dc.lft.to/lastmile_qr_scan"}, "is_reserved": 0}, {"lon": -76.93187966666666, "bike_id": "86a42aee88929fab86976448637f0ac9", "lat": 38.898774833333334, "fusion_lon": 0.0, "fusion_lat": 0.0, "type": "electric_scooter", "name": "86a42aee88929fab86976448637f0ac9", "is_disabled": 0, "rental_uris": {"ios": "https://dc.lft.to/lastmile_qr_scan", "android": "https://dc.lft.to/lastmile_qr_scan"}, "is_reserved": 0}, {"lon": -77.03651616666667, "bike_id": "2072d051dad96437f23673691c21f7f6", "lat": 38.926155, "fusion_lon": 0.0, "fusion_lat": 0.0, "type": "electric_scooter", "name": "2072d051dad96437f23673691c21f7f6", "is_disabled": 0, "rental_uris": {"ios": "https://dc.lft.to/lastmile_qr_scan", "android": "https://dc.lft.to/lastmile_qr_scan"}, "is_reserved": 0}, {"lon": -77.02979266666667, "bike_id": "441f93b4c4c30dfae10ba5d6fb15463b", "lat": 38.937037, "fusion_lon": 0.0, "fusion_lat": 0.0, "type": "electric_bike", "name": "441f93b4c4c30dfae10ba5d6fb15463b", "is_disabled": 0, "rental_uris": {"ios": "https://dc.lft.to/lastmile_qr_scan", "android": "https://dc.lft.to/lastmile_qr_scan"}, "is_reserved": 0}, {"lon": -77.02516716666666, "bike_id": "c923cdc479c5fe2f927922918a15bdfc", "lat": 38.884190333333336, "fusion_lon": 0.0, "fusion_lat": 0.0, "type": "electric_scooter", "name": "c923cdc479c5fe2f927922918a15bdfc", "is_disabled": 0, "rental_uris": {"ios": "https://dc.lft.to/lastmile_qr_scan", "android": "https://dc.lft.to/lastmile_qr_scan"}, "is_reserved": 0}, {"lon": -77.061328, "bike_id": "4b281d8e70707b2ea84f1155107abf9e", "lat": 38.943622166666664, "fusion_lon": 0.0, "fusion_lat": 0.0, "type": "electric_scooter", "name": "4b281d8e70707b2ea84f1155107abf9e", "is_disabled": 0, "rental_uris": {"ios": "https://dc.lft.to/lastmile_qr_scan", "android": "https://dc.lft.to/lastmile_qr_scan"}, "is_reserved": 0}, {"lon": -76.96991183333333, "bike_id": "016d9c53d5041244d3cc8e321220e59f", "lat": 38.8737235, "fusion_lon": 0.0, "fusion_lat": 0.0, "type": "electric_scooter", "name": "016d9c53d5041244d3cc8e321220e59f", "is_disabled": 0, "rental_uris": {"ios": "https://dc.lft.to/lastmile_qr_scan", "android": "https://dc.lft.to/lastmile_qr_scan"}, "is_reserved": 0}, {"lon": -76.99619533333333, "bike_id": "eff37ec20c4797482fac9619361cde57", "lat": 38.9089875, "fusion_lon": 0.0, "fusion_lat": 0.0, "type": "electric_scooter", "name": "eff37ec20c4797482fac9619361cde57", "is_disabled": 0, "rental_uris": {"ios": "https://dc.lft.to/lastmile_qr_scan", "android": "https://dc.lft.to/lastmile_qr_scan"}, "is_reserved": 0}, {"lon": -77.01667016666667, "bike_id": "b264c7b3148b74fc1721dcdfddbe048d", "lat": 38.881127, "fusion_lon": 0.0, "fusion_lat": 0.0, "type": "electric_bike", "name": "b264c7b3148b74fc1721dcdfddbe048d", "is_disabled": 0, "rental_uris": {"ios": "https://dc.lft.to/lastmile_qr_scan", "android": "https://dc.lft.to/lastmile_qr_scan"}, "is_reserved": 0}, {"lon": -77.034785, "bike_id": "12f3bf929456b1f66d4b8b8950944be5", "lat": 38.927446, "fusion_lon": 0.0, "fusion_lat": 0.0, "type": "electric_scooter", "name": "12f3bf929456b1f66d4b8b8950944be5", "is_disabled": 0, "rental_uris": {"ios": "https://dc.lft.to/lastmile_qr_scan", "android": "https://dc.lft.to/lastmile_qr_scan"}, "is_reserved": 0}, {"lon": -77.0253745, "bike_id": "61cf9222931dea649ac7101ee8d3ec86", "lat": 38.90411266666667, "fusion_lon": 0.0, "fusion_lat": 0.0, "type": "electric_scooter", "name": "61cf9222931dea649ac7101ee8d3ec86", "is_disabled": 0, "rental_uris": {"ios": "https://dc.lft.to/lastmile_qr_scan", "android": "https://dc.lft.to/lastmile_qr_scan"}, "is_reserved": 0}, {"lon": -77.03863783333334, "bike_id": "bc05cd564421959c0a1986c29fc75aac", "lat": 38.916897666666664, "fusion_lon": 0.0, "fusion_lat": 0.0, "type": "electric_scooter", "name": "bc05cd564421959c0a1986c29fc75aac", "is_disabled": 0, "rental_uris": {"ios": "https://dc.lft.to/lastmile_qr_scan", "android": "https://dc.lft.to/lastmile_qr_scan"}, "is_reserved": 0}, {"lon": -77.03133233333334, "bike_id": "c1d08ccdcad9468b21610dcc5cc398f9", "lat": 38.915645166666664, "fusion_lon": 0.0, "fusion_lat": 0.0, "type": "electric_scooter", "name": "c1d08ccdcad9468b21610dcc5cc398f9", "is_disabled": 0, "rental_uris": {"ios": "https://dc.lft.to/lastmile_qr_scan", "android": "https://dc.lft.to/lastmile_qr_scan"}, "is_reserved": 0}, {"lon": -77.077954, "bike_id": "b1b166cb92dd0230d4f2c758323cbe2e", "lat": 38.996054666666666, "fusion_lon": 0.0, "fusion_lat": 0.0, "type": "electric_bike", "name": "b1b166cb92dd0230d4f2c758323cbe2e", "is_disabled": 0, "rental_uris": {"ios": "https://dc.lft.to/lastmile_qr_scan", "android": "https://dc.lft.to/lastmile_qr_scan"}, "is_reserved": 0}, {"lon": -77.00132333333333, "bike_id": "14ce57ecd4f421bce48163f7a18fc2dc", "lat": 38.88524533333333, "fusion_lon": 0.0, "fusion_lat": 0.0, "type": "electric_scooter", "name": "14ce57ecd4f421bce48163f7a18fc2dc", "is_disabled": 0, "rental_uris": {"ios": "https://dc.lft.to/lastmile_qr_scan", "android": "https://dc.lft.to/lastmile_qr_scan"}, "is_reserved": 0}, {"lon": -76.97773233333334, "bike_id": "4788f3d69dce1b57c6edb8b5a0d313bc", "lat": 38.89898216666667, "fusion_lon": 0.0, "fusion_lat": 0.0, "type": "electric_scooter", "name": "4788f3d69dce1b57c6edb8b5a0d313bc", "is_disabled": 0, "rental_uris": {"ios": "https://dc.lft.to/lastmile_qr_scan", "android": "https://dc.lft.to/lastmile_qr_scan"}, "is_reserved": 0}, {"lon": -77.049813, "bike_id": "f4d4466a68cfabc682245a98d39857a3", "lat": 38.89998966666667, "fusion_lon": 0.0, "fusion_lat": 0.0, "type": "electric_scooter", "name": "f4d4466a68cfabc682245a98d39857a3", "is_disabled": 0, "rental_uris": {"ios": "https://dc.lft.to/lastmile_qr_scan", "android": "https://dc.lft.to/lastmile_qr_scan"}, "is_reserved": 0}, {"lon": -77.03665883333333, "bike_id": "fa1c61fb5ddc319c05c29226df034170", "lat": 38.923306333333336, "fusion_lon": 0.0, "fusion_lat": 0.0, "type": "electric_scooter", "name": "fa1c61fb5ddc319c05c29226df034170", "is_disabled": 0, "rental_uris": {"ios": "https://dc.lft.to/lastmile_qr_scan", "android": "https://dc.lft.to/lastmile_qr_scan"}, "is_reserved": 0}, {"lon": -77.02534416666667, "bike_id": "3d91b9b8cdd855bd9ae11886b2d72668", "lat": 38.94304483333333, "fusion_lon": 0.0, "fusion_lat": 0.0, "type": "electric_scooter", "name": "3d91b9b8cdd855bd9ae11886b2d72668", "is_disabled": 0, "rental_uris": {"ios": "https://dc.lft.to/lastmile_qr_scan", "android": "https://dc.lft.to/lastmile_qr_scan"}, "is_reserved": 0}, {"lon": -77.0321745, "bike_id": "9c8b15257d4f0734fa572d66a53788df", "lat": 38.892230166666664, "fusion_lon": 0.0, "fusion_lat": 0.0, "type": "electric_scooter", "name": "9c8b15257d4f0734fa572d66a53788df", "is_disabled": 0, "rental_uris": {"ios": "https://dc.lft.to/lastmile_qr_scan", "android": "https://dc.lft.to/lastmile_qr_scan"}, "is_reserved": 0}, {"lon": -76.983577, "bike_id": "09d36004e005709d38b020a30a6b3a36", "lat": 38.90293483333333, "fusion_lon": 0.0, "fusion_lat": 0.0, "type": "electric_scooter", "name": "09d36004e005709d38b020a30a6b3a36", "is_disabled": 0, "rental_uris": {"ios": "https://dc.lft.to/lastmile_qr_scan", "android": "https://dc.lft.to/lastmile_qr_scan"}, "is_reserved": 0}, {"lon": -77.05857266666666, "bike_id": "09bc2af3d54b0906fa9511302208be2c", "lat": 38.936053, "fusion_lon": 0.0, "fusion_lat": 0.0, "type": "electric_scooter", "name": "09bc2af3d54b0906fa9511302208be2c", "is_disabled": 0, "rental_uris": {"ios": "https://dc.lft.to/lastmile_qr_scan", "android": "https://dc.lft.to/lastmile_qr_scan"}, "is_reserved": 0}, {"lon": -77.036553, "bike_id": "564def3343e82b95d8d456c4ea74f88e", "lat": 38.91241433333333, "fusion_lon": 0.0, "fusion_lat": 0.0, "type": "electric_scooter", "name": "564def3343e82b95d8d456c4ea74f88e", "is_disabled": 0, "rental_uris": {"ios": "https://dc.lft.to/lastmile_qr_scan", "android": "https://dc.lft.to/lastmile_qr_scan"}, "is_reserved": 0}, {"lon": -76.973292, "bike_id": "eb9310584044010110cf8ad7100966fd", "lat": 38.86516966666667, "fusion_lon": 0.0, "fusion_lat": 0.0, "type": "electric_bike", "name": "eb9310584044010110cf8ad7100966fd", "is_disabled": 0, "rental_uris": {"ios": "https://dc.lft.to/lastmile_qr_scan", "android": "https://dc.lft.to/lastmile_qr_scan"}, "is_reserved": 0}, {"lon": -77.02184533333333, "bike_id": "619297464f7ac8e206b27777aed1a5b0", "lat": 38.89359266666666, "fusion_lon": 0.0, "fusion_lat": 0.0, "type": "electric_scooter", "name": "619297464f7ac8e206b27777aed1a5b0", "is_disabled": 0, "rental_uris": {"ios": "https://dc.lft.to/lastmile_qr_scan", "android": "https://dc.lft.to/lastmile_qr_scan"}, "is_reserved": 0}, {"lon": -77.03463783333333, "bike_id": "5f63dfdb59521282e7cff3bb3f74d472", "lat": 38.919369333333336, "fusion_lon": 0.0, "fusion_lat": 0.0, "type": "electric_scooter", "name": "5f63dfdb59521282e7cff3bb3f74d472", "is_disabled": 0, "rental_uris": {"ios": "https://dc.lft.to/lastmile_qr_scan", "android": "https://dc.lft.to/lastmile_qr_scan"}, "is_reserved": 0}, {"lon": -76.98086133333334, "bike_id": "b692f952565caf787a014deb8a0cc621", "lat": 38.884234166666666, "fusion_lon": 0.0, "fusion_lat": 0.0, "type": "electric_scooter", "name": "b692f952565caf787a014deb8a0cc621", "is_disabled": 0, "rental_uris": {"ios": "https://dc.lft.to/lastmile_qr_scan", "android": "https://dc.lft.to/lastmile_qr_scan"}, "is_reserved": 0}, {"lon": -77.0488705, "bike_id": "277fe1d00b4f23d5a71abe989b686e1c", "lat": 38.91620233333333, "fusion_lon": 0.0, "fusion_lat": 0.0, "type": "electric_scooter", "name": "277fe1d00b4f23d5a71abe989b686e1c", "is_disabled": 0, "rental_uris": {"ios": "https://dc.lft.to/lastmile_qr_scan", "android": "https://dc.lft.to/lastmile_qr_scan"}, "is_reserved": 0}, {"lon": -76.92622433333334, "bike_id": "0ca10554384fe9e39d5ad3fffe189cde", "lat": 38.884614666666664, "fusion_lon": 0.0, "fusion_lat": 0.0, "type": "electric_scooter", "name": "0ca10554384fe9e39d5ad3fffe189cde", "is_disabled": 0, "rental_uris": {"ios": "https://dc.lft.to/lastmile_qr_scan", "android": "https://dc.lft.to/lastmile_qr_scan"}, "is_reserved": 0}, {"lon": -77.02805166666667, "bike_id": "d8578bd1475a229e6edce430513efe9e", "lat": 38.9168455, "fusion_lon": 0.0, "fusion_lat": 0.0, "type": "electric_scooter", "name": "d8578bd1475a229e6edce430513efe9e", "is_disabled": 0, "rental_uris": {"ios": "https://dc.lft.to/lastmile_qr_scan", "android": "https://dc.lft.to/lastmile_qr_scan"}, "is_reserved": 0}, {"lon": -77.02213466666667, "bike_id": "c43967a9048bb7366137e5d0d1666472", "lat": 38.893565333333335, "fusion_lon": 0.0, "fusion_lat": 0.0, "type": "electric_scooter", "name": "c43967a9048bb7366137e5d0d1666472", "is_disabled": 0, "rental_uris": {"ios": "https://dc.lft.to/lastmile_qr_scan", "android": "https://dc.lft.to/lastmile_qr_scan"}, "is_reserved": 0}, {"lon": -77.022643, "bike_id": "ee5dbdb91273cc15e1055b6543943f98", "lat": 38.937775, "fusion_lon": 0.0, "fusion_lat": 0.0, "type": "electric_scooter", "name": "ee5dbdb91273cc15e1055b6543943f98", "is_disabled": 0, "rental_uris": {"ios": "https://dc.lft.to/lastmile_qr_scan", "android": "https://dc.lft.to/lastmile_qr_scan"}, "is_reserved": 0}, {"lon": -76.97601933333334, "bike_id": "941fe6d2cfab3894f86cedcadbe89fb6", "lat": 38.90569266666667, "fusion_lon": 0.0, "fusion_lat": 0.0, "type": "electric_scooter", "name": "941fe6d2cfab3894f86cedcadbe89fb6", "is_disabled": 0, "rental_uris": {"ios": "https://dc.lft.to/lastmile_qr_scan", "android": "https://dc.lft.to/lastmile_qr_scan"}, "is_reserved": 0}, {"lon": -77.05414483333334, "bike_id": "d85f2c09916c62721fc7afc07175ffd2", "lat": 38.9505615, "fusion_lon": 0.0, "fusion_lat": 0.0, "type": "electric_scooter", "name": "d85f2c09916c62721fc7afc07175ffd2", "is_disabled": 0, "rental_uris": {"ios": "https://dc.lft.to/lastmile_qr_scan", "android": "https://dc.lft.to/lastmile_qr_scan"}, "is_reserved": 0}, {"lon": -77.01485433333333, "bike_id": "217692d1b871ca6781b5e001e665637d", "lat": 38.940674333333334, "fusion_lon": 0.0, "fusion_lat": 0.0, "type": "electric_bike", "name": "217692d1b871ca6781b5e001e665637d", "is_disabled": 0, "rental_uris": {"ios": "https://dc.lft.to/lastmile_qr_scan", "android": "https://dc.lft.to/lastmile_qr_scan"}, "is_reserved": 0}, {"lon": -77.02944583333333, "bike_id": "9300633eef62814dea1c6755fbd763a6", "lat": 38.88752566666667, "fusion_lon": 0.0, "fusion_lat": 0.0, "type": "electric_scooter", "name": "9300633eef62814dea1c6755fbd763a6", "is_disabled": 0, "rental_uris": {"ios": "https://dc.lft.to/lastmile_qr_scan", "android": "https://dc.lft.to/lastmile_qr_scan"}, "is_reserved": 0}, {"lon": -76.9827435, "bike_id": "b354ea2e2f6464d0b0c4e76e980ade77", "lat": 38.88538966666667, "fusion_lon": 0.0, "fusion_lat": 0.0, "type": "electric_scooter", "name": "b354ea2e2f6464d0b0c4e76e980ade77", "is_disabled": 0, "rental_uris": {"ios": "https://dc.lft.to/lastmile_qr_scan", "android": "https://dc.lft.to/lastmile_qr_scan"}, "is_reserved": 0}, {"lon": -77.0297945, "bike_id": "53387af4468c498a3a3de6ebe6b54ffe", "lat": 38.93934983333333, "fusion_lon": 0.0, "fusion_lat": 0.0, "type": "electric_scooter", "name": "53387af4468c498a3a3de6ebe6b54ffe", "is_disabled": 0, "rental_uris": {"ios": "https://dc.lft.to/lastmile_qr_scan", "android": "https://dc.lft.to/lastmile_qr_scan"}, "is_reserved": 0}, {"lon": -76.98340166666667, "bike_id": "d5fb3383281dfdd1d628376fe73228d6", "lat": 38.9009555, "fusion_lon": 0.0, "fusion_lat": 0.0, "type": "electric_scooter", "name": "d5fb3383281dfdd1d628376fe73228d6", "is_disabled": 0, "rental_uris": {"ios": "https://dc.lft.to/lastmile_qr_scan", "android": "https://dc.lft.to/lastmile_qr_scan"}, "is_reserved": 0}, {"lon": -77.0320015, "bike_id": "4b39044e5070010d1b93c7d5a88d78dc", "lat": 38.883977, "fusion_lon": 0.0, "fusion_lat": 0.0, "type": "electric_scooter", "name": "4b39044e5070010d1b93c7d5a88d78dc", "is_disabled": 0, "rental_uris": {"ios": "https://dc.lft.to/lastmile_qr_scan", "android": "https://dc.lft.to/lastmile_qr_scan"}, "is_reserved": 0}, {"lon": -77.00204266666667, "bike_id": "002acb6bc7bd5e445f57672f3d0a4822", "lat": 38.89546716666667, "fusion_lon": 0.0, "fusion_lat": 0.0, "type": "electric_scooter", "name": "002acb6bc7bd5e445f57672f3d0a4822", "is_disabled": 0, "rental_uris": {"ios": "https://dc.lft.to/lastmile_qr_scan", "android": "https://dc.lft.to/lastmile_qr_scan"}, "is_reserved": 0}, {"lon": -77.02040383333333, "bike_id": "507cf4725773a9b1720c551917b7c4ed", "lat": 38.908605333333334, "fusion_lon": 0.0, "fusion_lat": 0.0, "type": "electric_scooter", "name": "507cf4725773a9b1720c551917b7c4ed", "is_disabled": 0, "rental_uris": {"ios": "https://dc.lft.to/lastmile_qr_scan", "android": "https://dc.lft.to/lastmile_qr_scan"}, "is_reserved": 0}, {"lon": -77.00526266666667, "bike_id": "86715f2bf095b53badba29cf1f5e561b", "lat": 38.929794, "fusion_lon": 0.0, "fusion_lat": 0.0, "type": "electric_scooter", "name": "86715f2bf095b53badba29cf1f5e561b", "is_disabled": 0, "rental_uris": {"ios": "https://dc.lft.to/lastmile_qr_scan", "android": "https://dc.lft.to/lastmile_qr_scan"}, "is_reserved": 0}, {"lon": -77.03862166666667, "bike_id": "4709440cdc679798966c843757c6473b", "lat": 38.915518666666664, "fusion_lon": 0.0, "fusion_lat": 0.0, "type": "electric_scooter", "name": "4709440cdc679798966c843757c6473b", "is_disabled": 0, "rental_uris": {"ios": "https://dc.lft.to/lastmile_qr_scan", "android": "https://dc.lft.to/lastmile_qr_scan"}, "is_reserved": 0}, {"lon": -77.03664016666667, "bike_id": "f16b7834062cb3c830b4fa9cefcce8be", "lat": 38.918214666666664, "fusion_lon": 0.0, "fusion_lat": 0.0, "type": "electric_scooter", "name": "f16b7834062cb3c830b4fa9cefcce8be", "is_disabled": 0, "rental_uris": {"ios": "https://dc.lft.to/lastmile_qr_scan", "android": "https://dc.lft.to/lastmile_qr_scan"}, "is_reserved": 0}, {"lon": -76.931895, "bike_id": "52738950fbe7f1d69f670210b2ba7885", "lat": 38.8987335, "fusion_lon": 0.0, "fusion_lat": 0.0, "type": "electric_scooter", "name": "52738950fbe7f1d69f670210b2ba7885", "is_disabled": 0, "rental_uris": {"ios": "https://dc.lft.to/lastmile_qr_scan", "android": "https://dc.lft.to/lastmile_qr_scan"}, "is_reserved": 0}, {"lon": -77.0469525, "bike_id": "657b3ecf6966aab37d59ce1fcc8a059a", "lat": 38.92064966666667, "fusion_lon": 0.0, "fusion_lat": 0.0, "type": "electric_scooter", "name": "657b3ecf6966aab37d59ce1fcc8a059a", "is_disabled": 0, "rental_uris": {"ios": "https://dc.lft.to/lastmile_qr_scan", "android": "https://dc.lft.to/lastmile_qr_scan"}, "is_reserved": 0}, {"lon": -76.98544983333333, "bike_id": "99d193185d757b6ff9acd95e2f55828d", "lat": 38.89664166666667, "fusion_lon": 0.0, "fusion_lat": 0.0, "type": "electric_scooter", "name": "99d193185d757b6ff9acd95e2f55828d", "is_disabled": 0, "rental_uris": {"ios": "https://dc.lft.to/lastmile_qr_scan", "android": "https://dc.lft.to/lastmile_qr_scan"}, "is_reserved": 0}, {"lon": -77.02297333333334, "bike_id": "21879dc906b23b89e869771ecebcfc06", "lat": 38.92750483333333, "fusion_lon": 0.0, "fusion_lat": 0.0, "type": "electric_scooter", "name": "21879dc906b23b89e869771ecebcfc06", "is_disabled": 0, "rental_uris": {"ios": "https://dc.lft.to/lastmile_qr_scan", "android": "https://dc.lft.to/lastmile_qr_scan"}, "is_reserved": 0}, {"lon": -77.05268083333333, "bike_id": "d94dcba97719ca58201a1216cf2831bd", "lat": 38.899727, "fusion_lon": 0.0, "fusion_lat": 0.0, "type": "electric_scooter", "name": "d94dcba97719ca58201a1216cf2831bd", "is_disabled": 0, "rental_uris": {"ios": "https://dc.lft.to/lastmile_qr_scan", "android": "https://dc.lft.to/lastmile_qr_scan"}, "is_reserved": 0}, {"lon": -77.03219116666666, "bike_id": "bdeb91ef27e7d42b3ea7a1f95061a283", "lat": 38.917123, "fusion_lon": 0.0, "fusion_lat": 0.0, "type": "electric_scooter", "name": "bdeb91ef27e7d42b3ea7a1f95061a283", "is_disabled": 0, "rental_uris": {"ios": "https://dc.lft.to/lastmile_qr_scan", "android": "https://dc.lft.to/lastmile_qr_scan"}, "is_reserved": 0}, {"lon": -76.9901665, "bike_id": "60fc35dd1ebbbc16f156d3db585e687d", "lat": 38.8816115, "fusion_lon": 0.0, "fusion_lat": 0.0, "type": "electric_scooter", "name": "60fc35dd1ebbbc16f156d3db585e687d", "is_disabled": 0, "rental_uris": {"ios": "https://dc.lft.to/lastmile_qr_scan", "android": "https://dc.lft.to/lastmile_qr_scan"}, "is_reserved": 0}, {"lon": -77.05356083333334, "bike_id": "587272dc110b155315a4d7569afa87ae", "lat": 38.927438333333335, "fusion_lon": 0.0, "fusion_lat": 0.0, "type": "electric_scooter", "name": "587272dc110b155315a4d7569afa87ae", "is_disabled": 0, "rental_uris": {"ios": "https://dc.lft.to/lastmile_qr_scan", "android": "https://dc.lft.to/lastmile_qr_scan"}, "is_reserved": 0}, {"lon": -77.03855366666667, "bike_id": "a235b13ef5f9b9a9074d8d010737a7bd", "lat": 38.91784633333333, "fusion_lon": 0.0, "fusion_lat": 0.0, "type": "electric_scooter", "name": "a235b13ef5f9b9a9074d8d010737a7bd", "is_disabled": 0, "rental_uris": {"ios": "https://dc.lft.to/lastmile_qr_scan", "android": "https://dc.lft.to/lastmile_qr_scan"}, "is_reserved": 0}, {"lon": -77.01942016666666, "bike_id": "089ec008696b82e1ad7b49d0171a2776", "lat": 38.936901166666665, "fusion_lon": 0.0, "fusion_lat": 0.0, "type": "electric_scooter", "name": "089ec008696b82e1ad7b49d0171a2776", "is_disabled": 0, "rental_uris": {"ios": "https://dc.lft.to/lastmile_qr_scan", "android": "https://dc.lft.to/lastmile_qr_scan"}, "is_reserved": 0}, {"lon": -76.9953425, "bike_id": "18e89575769d6bd77f0fd6275b9ada23", "lat": 38.883724, "fusion_lon": 0.0, "fusion_lat": 0.0, "type": "electric_scooter", "name": "18e89575769d6bd77f0fd6275b9ada23", "is_disabled": 0, "rental_uris": {"ios": "https://dc.lft.to/lastmile_qr_scan", "android": "https://dc.lft.to/lastmile_qr_scan"}, "is_reserved": 0}, {"lon": -77.08067616666666, "bike_id": "1a3a16a4d121b1000ec56847e1f6c0b8", "lat": 39.052781333333336, "fusion_lon": 0.0, "fusion_lat": 0.0, "type": "electric_bike", "name": "1a3a16a4d121b1000ec56847e1f6c0b8", "is_disabled": 0, "rental_uris": {"ios": "https://dc.lft.to/lastmile_qr_scan", "android": "https://dc.lft.to/lastmile_qr_scan"}, "is_reserved": 0}, {"lon": -77.01942133333333, "bike_id": "da233c51c1de071f331eb648f96ecfbd", "lat": 38.935236333333336, "fusion_lon": 0.0, "fusion_lat": 0.0, "type": "electric_scooter", "name": "da233c51c1de071f331eb648f96ecfbd", "is_disabled": 0, "rental_uris": {"ios": "https://dc.lft.to/lastmile_qr_scan", "android": "https://dc.lft.to/lastmile_qr_scan"}, "is_reserved": 0}, {"lon": -76.99533866666667, "bike_id": "95582dfafc8fb097e3690c3e7ec95415", "lat": 38.883711, "fusion_lon": 0.0, "fusion_lat": 0.0, "type": "electric_scooter", "name": "95582dfafc8fb097e3690c3e7ec95415", "is_disabled": 0, "rental_uris": {"ios": "https://dc.lft.to/lastmile_qr_scan", "android": "https://dc.lft.to/lastmile_qr_scan"}, "is_reserved": 0}, {"lon": -76.97894666666667, "bike_id": "f2ee284ed739a22020b42419faa5d18e", "lat": 38.898961, "fusion_lon": 0.0, "fusion_lat": 0.0, "type": "electric_scooter", "name": "f2ee284ed739a22020b42419faa5d18e", "is_disabled": 0, "rental_uris": {"ios": "https://dc.lft.to/lastmile_qr_scan", "android": "https://dc.lft.to/lastmile_qr_scan"}, "is_reserved": 0}, {"lon": -77.03429883333334, "bike_id": "6ac9103d14f602e4ade34797f75bd00e", "lat": 38.90977016666667, "fusion_lon": 0.0, "fusion_lat": 0.0, "type": "electric_scooter", "name": "6ac9103d14f602e4ade34797f75bd00e", "is_disabled": 0, "rental_uris": {"ios": "https://dc.lft.to/lastmile_qr_scan", "android": "https://dc.lft.to/lastmile_qr_scan"}, "is_reserved": 0}, {"lon": -77.00225633333334, "bike_id": "0b4d17921c3455f1c3e3733c5cfb32e5", "lat": 38.9003495, "fusion_lon": 0.0, "fusion_lat": 0.0, "type": "electric_scooter", "name": "0b4d17921c3455f1c3e3733c5cfb32e5", "is_disabled": 0, "rental_uris": {"ios": "https://dc.lft.to/lastmile_qr_scan", "android": "https://dc.lft.to/lastmile_qr_scan"}, "is_reserved": 0}, {"lon": -76.97478983333333, "bike_id": "6ad81aeaeb9f8ff52eb4e3a661b720f1", "lat": 38.9035555, "fusion_lon": 0.0, "fusion_lat": 0.0, "type": "electric_scooter", "name": "6ad81aeaeb9f8ff52eb4e3a661b720f1", "is_disabled": 0, "rental_uris": {"ios": "https://dc.lft.to/lastmile_qr_scan", "android": "https://dc.lft.to/lastmile_qr_scan"}, "is_reserved": 0}, {"lon": -77.0064795, "bike_id": "b08d02bfcc17ef4d17b5ac877cfbd07d", "lat": 38.926193, "fusion_lon": 0.0, "fusion_lat": 0.0, "type": "electric_scooter", "name": "b08d02bfcc17ef4d17b5ac877cfbd07d", "is_disabled": 0, "rental_uris": {"ios": "https://dc.lft.to/lastmile_qr_scan", "android": "https://dc.lft.to/lastmile_qr_scan"}, "is_reserved": 0}, {"lon": -77.06522133333333, "bike_id": "17f286da95122a834443f7a3188322a5", "lat": 38.9038935, "fusion_lon": 0.0, "fusion_lat": 0.0, "type": "electric_scooter", "name": "17f286da95122a834443f7a3188322a5", "is_disabled": 0, "rental_uris": {"ios": "https://dc.lft.to/lastmile_qr_scan", "android": "https://dc.lft.to/lastmile_qr_scan"}, "is_reserved": 0}, {"lon": -77.03398233333333, "bike_id": "e54f7df3c91930c7f579ade21ba8e58b", "lat": 38.9054195, "fusion_lon": 0.0, "fusion_lat": 0.0, "type": "electric_scooter", "name": "e54f7df3c91930c7f579ade21ba8e58b", "is_disabled": 0, "rental_uris": {"ios": "https://dc.lft.to/lastmile_qr_scan", "android": "https://dc.lft.to/lastmile_qr_scan"}, "is_reserved": 0}, {"lon": -77.01291133333334, "bike_id": "6474044c474458b76b05a5eccc3bf764", "lat": 38.92024416666667, "fusion_lon": 0.0, "fusion_lat": 0.0, "type": "electric_scooter", "name": "6474044c474458b76b05a5eccc3bf764", "is_disabled": 0, "rental_uris": {"ios": "https://dc.lft.to/lastmile_qr_scan", "android": "https://dc.lft.to/lastmile_qr_scan"}, "is_reserved": 0}, {"lon": -77.04866266666667, "bike_id": "ce1d85ff6cf48ef3123b463e39e8d2fb", "lat": 38.892247, "fusion_lon": 0.0, "fusion_lat": 0.0, "type": "electric_scooter", "name": "ce1d85ff6cf48ef3123b463e39e8d2fb", "is_disabled": 0, "rental_uris": {"ios": "https://dc.lft.to/lastmile_qr_scan", "android": "https://dc.lft.to/lastmile_qr_scan"}, "is_reserved": 0}, {"lon": -76.99018333333333, "bike_id": "a0345fe3658e9b515508906350c39365", "lat": 38.86642883333333, "fusion_lon": 0.0, "fusion_lat": 0.0, "type": "electric_scooter", "name": "a0345fe3658e9b515508906350c39365", "is_disabled": 0, "rental_uris": {"ios": "https://dc.lft.to/lastmile_qr_scan", "android": "https://dc.lft.to/lastmile_qr_scan"}, "is_reserved": 0}, {"lon": -76.99092533333334, "bike_id": "60ac7bb03f918ad7c6976cff461fe2c0", "lat": 38.862423166666666, "fusion_lon": 0.0, "fusion_lat": 0.0, "type": "electric_bike", "name": "60ac7bb03f918ad7c6976cff461fe2c0", "is_disabled": 0, "rental_uris": {"ios": "https://dc.lft.to/lastmile_qr_scan", "android": "https://dc.lft.to/lastmile_qr_scan"}, "is_reserved": 0}, {"lon": -77.038804, "bike_id": "f17f9ae0c58cd8a2f23c08eb56157ae1", "lat": 38.91561433333333, "fusion_lon": 0.0, "fusion_lat": 0.0, "type": "electric_scooter", "name": "f17f9ae0c58cd8a2f23c08eb56157ae1", "is_disabled": 0, "rental_uris": {"ios": "https://dc.lft.to/lastmile_qr_scan", "android": "https://dc.lft.to/lastmile_qr_scan"}, "is_reserved": 0}, {"lon": -77.00350933333333, "bike_id": "412dca4d3f94b0a5c609efedb59a91be", "lat": 38.899188, "fusion_lon": 0.0, "fusion_lat": 0.0, "type": "electric_scooter", "name": "412dca4d3f94b0a5c609efedb59a91be", "is_disabled": 0, "rental_uris": {"ios": "https://dc.lft.to/lastmile_qr_scan", "android": "https://dc.lft.to/lastmile_qr_scan"}, "is_reserved": 0}, {"lon": -76.97395516666667, "bike_id": "3964dba348cdc746049a9ae7a473d736", "lat": 38.905652333333336, "fusion_lon": 0.0, "fusion_lat": 0.0, "type": "electric_scooter", "name": "3964dba348cdc746049a9ae7a473d736", "is_disabled": 0, "rental_uris": {"ios": "https://dc.lft.to/lastmile_qr_scan", "android": "https://dc.lft.to/lastmile_qr_scan"}, "is_reserved": 0}, {"lon": -77.03664766666667, "bike_id": "d7e12f8ad67de05c1190e7e6bd5c6f23", "lat": 38.922649166666666, "fusion_lon": 0.0, "fusion_lat": 0.0, "type": "electric_scooter", "name": "d7e12f8ad67de05c1190e7e6bd5c6f23", "is_disabled": 0, "rental_uris": {"ios": "https://dc.lft.to/lastmile_qr_scan", "android": "https://dc.lft.to/lastmile_qr_scan"}, "is_reserved": 0}, {"lon": -77.03422216666667, "bike_id": "6d2dd0f51962bf4f67dc7d4d19296ea9", "lat": 38.92243883333333, "fusion_lon": 0.0, "fusion_lat": 0.0, "type": "electric_scooter", "name": "6d2dd0f51962bf4f67dc7d4d19296ea9", "is_disabled": 0, "rental_uris": {"ios": "https://dc.lft.to/lastmile_qr_scan", "android": "https://dc.lft.to/lastmile_qr_scan"}, "is_reserved": 0}, {"lon": -77.03853566666666, "bike_id": "000556dd1e58725a8050f295230aca97", "lat": 38.9167355, "fusion_lon": 0.0, "fusion_lat": 0.0, "type": "electric_scooter", "name": "000556dd1e58725a8050f295230aca97", "is_disabled": 0, "rental_uris": {"ios": "https://dc.lft.to/lastmile_qr_scan", "android": "https://dc.lft.to/lastmile_qr_scan"}, "is_reserved": 0}, {"lon": -77.03272233333334, "bike_id": "2958e58e20e8dd8d59308341233cf4a9", "lat": 38.93409833333333, "fusion_lon": 0.0, "fusion_lat": 0.0, "type": "electric_scooter", "name": "2958e58e20e8dd8d59308341233cf4a9", "is_disabled": 0, "rental_uris": {"ios": "https://dc.lft.to/lastmile_qr_scan", "android": "https://dc.lft.to/lastmile_qr_scan"}, "is_reserved": 0}, {"lon": -77.0389245, "bike_id": "df43e0fe9eb0a9591e95f8dd9fcda5f2", "lat": 38.923519666666664, "fusion_lon": 0.0, "fusion_lat": 0.0, "type": "electric_scooter", "name": "df43e0fe9eb0a9591e95f8dd9fcda5f2", "is_disabled": 0, "rental_uris": {"ios": "https://dc.lft.to/lastmile_qr_scan", "android": "https://dc.lft.to/lastmile_qr_scan"}, "is_reserved": 0}, {"lon": -77.02672033333333, "bike_id": "15660f65016e308db4d714e9c44f907c", "lat": 38.8968445, "fusion_lon": 0.0, "fusion_lat": 0.0, "type": "electric_scooter", "name": "15660f65016e308db4d714e9c44f907c", "is_disabled": 0, "rental_uris": {"ios": "https://dc.lft.to/lastmile_qr_scan", "android": "https://dc.lft.to/lastmile_qr_scan"}, "is_reserved": 0}, {"lon": -77.03504516666666, "bike_id": "7269cd0f5bded9027d093b0b715df71e", "lat": 38.937562666666665, "fusion_lon": 0.0, "fusion_lat": 0.0, "type": "electric_scooter", "name": "7269cd0f5bded9027d093b0b715df71e", "is_disabled": 0, "rental_uris": {"ios": "https://dc.lft.to/lastmile_qr_scan", "android": "https://dc.lft.to/lastmile_qr_scan"}, "is_reserved": 0}, {"lon": -76.9806715, "bike_id": "d7864c9570e5bf3faa2f36bf09ec1bf2", "lat": 38.90170033333333, "fusion_lon": 0.0, "fusion_lat": 0.0, "type": "electric_scooter", "name": "d7864c9570e5bf3faa2f36bf09ec1bf2", "is_disabled": 0, "rental_uris": {"ios": "https://dc.lft.to/lastmile_qr_scan", "android": "https://dc.lft.to/lastmile_qr_scan"}, "is_reserved": 0}, {"lon": -77.031789, "bike_id": "78ef67851c699b8298d2bd55cae68f76", "lat": 38.903496833333335, "fusion_lon": 0.0, "fusion_lat": 0.0, "type": "electric_scooter", "name": "78ef67851c699b8298d2bd55cae68f76", "is_disabled": 0, "rental_uris": {"ios": "https://dc.lft.to/lastmile_qr_scan", "android": "https://dc.lft.to/lastmile_qr_scan"}, "is_reserved": 0}, {"lon": -77.084586, "bike_id": "4977959e001c13e092d18303eb905591", "lat": 38.848182, "fusion_lon": 0.0, "fusion_lat": 0.0, "type": "electric_bike", "name": "4977959e001c13e092d18303eb905591", "is_disabled": 0, "rental_uris": {"ios": "https://dc.lft.to/lastmile_qr_scan", "android": "https://dc.lft.to/lastmile_qr_scan"}, "is_reserved": 0}, {"lon": -77.0633985, "bike_id": "2c071b7ec69d528a6297821eeacff7b9", "lat": 38.906864, "fusion_lon": 0.0, "fusion_lat": 0.0, "type": "electric_scooter", "name": "2c071b7ec69d528a6297821eeacff7b9", "is_disabled": 0, "rental_uris": {"ios": "https://dc.lft.to/lastmile_qr_scan", "android": "https://dc.lft.to/lastmile_qr_scan"}, "is_reserved": 0}, {"lon": -77.03498616666667, "bike_id": "a98ff0b3c20d1cea4ec6558d4bd1f20b", "lat": 38.9247355, "fusion_lon": 0.0, "fusion_lat": 0.0, "type": "electric_scooter", "name": "a98ff0b3c20d1cea4ec6558d4bd1f20b", "is_disabled": 0, "rental_uris": {"ios": "https://dc.lft.to/lastmile_qr_scan", "android": "https://dc.lft.to/lastmile_qr_scan"}, "is_reserved": 0}, {"lon": -77.05541416666667, "bike_id": "caf5555f2e416f3a826f175c952958f9", "lat": 38.93442966666667, "fusion_lon": 0.0, "fusion_lat": 0.0, "type": "electric_scooter", "name": "caf5555f2e416f3a826f175c952958f9", "is_disabled": 0, "rental_uris": {"ios": "https://dc.lft.to/lastmile_qr_scan", "android": "https://dc.lft.to/lastmile_qr_scan"}, "is_reserved": 0}, {"lon": -77.01838966666666, "bike_id": "1b91a3b60c8697d2fd4e0f899fc870b4", "lat": 38.909346, "fusion_lon": 0.0, "fusion_lat": 0.0, "type": "electric_scooter", "name": "1b91a3b60c8697d2fd4e0f899fc870b4", "is_disabled": 0, "rental_uris": {"ios": "https://dc.lft.to/lastmile_qr_scan", "android": "https://dc.lft.to/lastmile_qr_scan"}, "is_reserved": 0}, {"lon": -77.04882683333334, "bike_id": "c35ff745c64d54bbf90ae563f7857809", "lat": 38.90613, "fusion_lon": 0.0, "fusion_lat": 0.0, "type": "electric_scooter", "name": "c35ff745c64d54bbf90ae563f7857809", "is_disabled": 0, "rental_uris": {"ios": "https://dc.lft.to/lastmile_qr_scan", "android": "https://dc.lft.to/lastmile_qr_scan"}, "is_reserved": 0}, {"lon": -77.01698216666666, "bike_id": "232733155a1ea52254e0edd60b156338", "lat": 38.90440533333334, "fusion_lon": 0.0, "fusion_lat": 0.0, "type": "electric_scooter", "name": "232733155a1ea52254e0edd60b156338", "is_disabled": 0, "rental_uris": {"ios": "https://dc.lft.to/lastmile_qr_scan", "android": "https://dc.lft.to/lastmile_qr_scan"}, "is_reserved": 0}, {"lon": -76.99074333333333, "bike_id": "26e0d6b4166d0c4cfe825fa282a5e51f", "lat": 38.89816316666667, "fusion_lon": 0.0, "fusion_lat": 0.0, "type": "electric_bike", "name": "26e0d6b4166d0c4cfe825fa282a5e51f", "is_disabled": 0, "rental_uris": {"ios": "https://dc.lft.to/lastmile_qr_scan", "android": "https://dc.lft.to/lastmile_qr_scan"}, "is_reserved": 0}, {"lon": -76.9724575, "bike_id": "0a1add0110c46526ac0d379b832315a4", "lat": 38.903443333333335, "fusion_lon": 0.0, "fusion_lat": 0.0, "type": "electric_scooter", "name": "0a1add0110c46526ac0d379b832315a4", "is_disabled": 0, "rental_uris": {"ios": "https://dc.lft.to/lastmile_qr_scan", "android": "https://dc.lft.to/lastmile_qr_scan"}, "is_reserved": 0}, {"lon": -77.0383365, "bike_id": "ad11ab47981d1e7843850f659f009ec1", "lat": 38.911176833333336, "fusion_lon": 0.0, "fusion_lat": 0.0, "type": "electric_scooter", "name": "ad11ab47981d1e7843850f659f009ec1", "is_disabled": 0, "rental_uris": {"ios": "https://dc.lft.to/lastmile_qr_scan", "android": "https://dc.lft.to/lastmile_qr_scan"}, "is_reserved": 0}, {"lon": -76.98335116666667, "bike_id": "97b7d9a3adf83c8eceb3104c3de625ce", "lat": 38.895453333333336, "fusion_lon": 0.0, "fusion_lat": 0.0, "type": "electric_scooter", "name": "97b7d9a3adf83c8eceb3104c3de625ce", "is_disabled": 0, "rental_uris": {"ios": "https://dc.lft.to/lastmile_qr_scan", "android": "https://dc.lft.to/lastmile_qr_scan"}, "is_reserved": 0}, {"lon": -77.01981783333333, "bike_id": "11a75f133173fa2042a5a1368845db48", "lat": 38.8858435, "fusion_lon": 0.0, "fusion_lat": 0.0, "type": "electric_scooter", "name": "11a75f133173fa2042a5a1368845db48", "is_disabled": 0, "rental_uris": {"ios": "https://dc.lft.to/lastmile_qr_scan", "android": "https://dc.lft.to/lastmile_qr_scan"}, "is_reserved": 0}, {"lon": -76.99713, "bike_id": "8b14c1077e0c3df5958d43b75a7b4447", "lat": 38.892557, "fusion_lon": 0.0, "fusion_lat": 0.0, "type": "electric_scooter", "name": "8b14c1077e0c3df5958d43b75a7b4447", "is_disabled": 0, "rental_uris": {"ios": "https://dc.lft.to/lastmile_qr_scan", "android": "https://dc.lft.to/lastmile_qr_scan"}, "is_reserved": 0}, {"lon": -77.023049, "bike_id": "8da93def4d9a111493264b23682257a2", "lat": 38.91679583333333, "fusion_lon": 0.0, "fusion_lat": 0.0, "type": "electric_scooter", "name": "8da93def4d9a111493264b23682257a2", "is_disabled": 0, "rental_uris": {"ios": "https://dc.lft.to/lastmile_qr_scan", "android": "https://dc.lft.to/lastmile_qr_scan"}, "is_reserved": 0}, {"lon": -77.02982183333333, "bike_id": "94e83578724e2af5c75ef2b1b60b849a", "lat": 38.94520516666667, "fusion_lon": 0.0, "fusion_lat": 0.0, "type": "electric_scooter", "name": "94e83578724e2af5c75ef2b1b60b849a", "is_disabled": 0, "rental_uris": {"ios": "https://dc.lft.to/lastmile_qr_scan", "android": "https://dc.lft.to/lastmile_qr_scan"}, "is_reserved": 0}, {"lon": -77.03830583333334, "bike_id": "5b37b7b5e3ab02469217f286e821985b", "lat": 38.91112016666666, "fusion_lon": 0.0, "fusion_lat": 0.0, "type": "electric_scooter", "name": "5b37b7b5e3ab02469217f286e821985b", "is_disabled": 0, "rental_uris": {"ios": "https://dc.lft.to/lastmile_qr_scan", "android": "https://dc.lft.to/lastmile_qr_scan"}, "is_reserved": 0}, {"lon": -77.01504516666667, "bike_id": "ead7a911c670c83422ae86e56abf4649", "lat": 38.918646833333334, "fusion_lon": 0.0, "fusion_lat": 0.0, "type": "electric_scooter", "name": "ead7a911c670c83422ae86e56abf4649", "is_disabled": 0, "rental_uris": {"ios": "https://dc.lft.to/lastmile_qr_scan", "android": "https://dc.lft.to/lastmile_qr_scan"}, "is_reserved": 0}, {"lon": -77.12484466666666, "bike_id": "d9f5f381b674427d390e27a6baeeaeec", "lat": 38.827895833333336, "fusion_lon": 0.0, "fusion_lat": 0.0, "type": "electric_bike", "name": "d9f5f381b674427d390e27a6baeeaeec", "is_disabled": 0, "rental_uris": {"ios": "https://dc.lft.to/lastmile_qr_scan", "android": "https://dc.lft.to/lastmile_qr_scan"}, "is_reserved": 0}, {"lon": -77.05179083333333, "bike_id": "a89aa54e28ea9aef7aaae189c0d7c6ad", "lat": 38.924254, "fusion_lon": 0.0, "fusion_lat": 0.0, "type": "electric_scooter", "name": "a89aa54e28ea9aef7aaae189c0d7c6ad", "is_disabled": 0, "rental_uris": {"ios": "https://dc.lft.to/lastmile_qr_scan", "android": "https://dc.lft.to/lastmile_qr_scan"}, "is_reserved": 0}, {"lon": -77.03295883333334, "bike_id": "090c633abdf6216b61791357fd485324", "lat": 38.91127433333333, "fusion_lon": 0.0, "fusion_lat": 0.0, "type": "electric_scooter", "name": "090c633abdf6216b61791357fd485324", "is_disabled": 0, "rental_uris": {"ios": "https://dc.lft.to/lastmile_qr_scan", "android": "https://dc.lft.to/lastmile_qr_scan"}, "is_reserved": 0}, {"lon": -77.02713266666666, "bike_id": "625faad43c631af7d0f8dfa065f30798", "lat": 38.93472283333333, "fusion_lon": 0.0, "fusion_lat": 0.0, "type": "electric_scooter", "name": "625faad43c631af7d0f8dfa065f30798", "is_disabled": 0, "rental_uris": {"ios": "https://dc.lft.to/lastmile_qr_scan", "android": "https://dc.lft.to/lastmile_qr_scan"}, "is_reserved": 0}, {"lon": -76.96580333333333, "bike_id": "3016717e89ade8da48f4db2bcb65a20c", "lat": 38.87144716666667, "fusion_lon": 0.0, "fusion_lat": 0.0, "type": "electric_scooter", "name": "3016717e89ade8da48f4db2bcb65a20c", "is_disabled": 0, "rental_uris": {"ios": "https://dc.lft.to/lastmile_qr_scan", "android": "https://dc.lft.to/lastmile_qr_scan"}, "is_reserved": 0}, {"lon": -77.02852483333334, "bike_id": "c212b3c7e917e32b3e089c6ac8a51739", "lat": 38.927627, "fusion_lon": 0.0, "fusion_lat": 0.0, "type": "electric_scooter", "name": "c212b3c7e917e32b3e089c6ac8a51739", "is_disabled": 0, "rental_uris": {"ios": "https://dc.lft.to/lastmile_qr_scan", "android": "https://dc.lft.to/lastmile_qr_scan"}, "is_reserved": 0}, {"lon": -76.99608416666666, "bike_id": "601a4f5963600c67b3c182fa13d2f1a4", "lat": 38.88715933333334, "fusion_lon": 0.0, "fusion_lat": 0.0, "type": "electric_scooter", "name": "601a4f5963600c67b3c182fa13d2f1a4", "is_disabled": 0, "rental_uris": {"ios": "https://dc.lft.to/lastmile_qr_scan", "android": "https://dc.lft.to/lastmile_qr_scan"}, "is_reserved": 0}, {"lon": -77.0247265, "bike_id": "e7eafb591b9944d6d954ef2e8f40e473", "lat": 38.93865533333334, "fusion_lon": 0.0, "fusion_lat": 0.0, "type": "electric_scooter", "name": "e7eafb591b9944d6d954ef2e8f40e473", "is_disabled": 0, "rental_uris": {"ios": "https://dc.lft.to/lastmile_qr_scan", "android": "https://dc.lft.to/lastmile_qr_scan"}, "is_reserved": 0}, {"lon": -77.034069, "bike_id": "577f1724d4fb01b91f193548f511b56d", "lat": 38.96029766666667, "fusion_lon": 0.0, "fusion_lat": 0.0, "type": "electric_bike", "name": "577f1724d4fb01b91f193548f511b56d", "is_disabled": 0, "rental_uris": {"ios": "https://dc.lft.to/lastmile_qr_scan", "android": "https://dc.lft.to/lastmile_qr_scan"}, "is_reserved": 0}, {"lon": -77.00281866666667, "bike_id": "865a1f41c954e1cd8c949171f4f602f3", "lat": 38.957094, "fusion_lon": 0.0, "fusion_lat": 0.0, "type": "electric_bike", "name": "865a1f41c954e1cd8c949171f4f602f3", "is_disabled": 0, "rental_uris": {"ios": "https://dc.lft.to/lastmile_qr_scan", "android": "https://dc.lft.to/lastmile_qr_scan"}, "is_reserved": 0}, {"lon": -77.0642575, "bike_id": "534636ba9c9fa3291e195d57a2757206", "lat": 38.90889816666667, "fusion_lon": 0.0, "fusion_lat": 0.0, "type": "electric_scooter", "name": "534636ba9c9fa3291e195d57a2757206", "is_disabled": 0, "rental_uris": {"ios": "https://dc.lft.to/lastmile_qr_scan", "android": "https://dc.lft.to/lastmile_qr_scan"}, "is_reserved": 0}, {"lon": -77.04319066666666, "bike_id": "50210593df2bf9a3e2c4737efa0880e1", "lat": 38.918828, "fusion_lon": 0.0, "fusion_lat": 0.0, "type": "electric_scooter", "name": "50210593df2bf9a3e2c4737efa0880e1", "is_disabled": 0, "rental_uris": {"ios": "https://dc.lft.to/lastmile_qr_scan", "android": "https://dc.lft.to/lastmile_qr_scan"}, "is_reserved": 0}, {"lon": -76.99853683333333, "bike_id": "bf6a270ea02b4724ef2d4dfc5fd54b48", "lat": 38.841629, "fusion_lon": 0.0, "fusion_lat": 0.0, "type": "electric_scooter", "name": "bf6a270ea02b4724ef2d4dfc5fd54b48", "is_disabled": 0, "rental_uris": {"ios": "https://dc.lft.to/lastmile_qr_scan", "android": "https://dc.lft.to/lastmile_qr_scan"}, "is_reserved": 0}, {"lon": -77.05770483333333, "bike_id": "2baaab7b7a79caa27a6ddd7cf61b9355", "lat": 38.9362465, "fusion_lon": 0.0, "fusion_lat": 0.0, "type": "electric_scooter", "name": "2baaab7b7a79caa27a6ddd7cf61b9355", "is_disabled": 0, "rental_uris": {"ios": "https://dc.lft.to/lastmile_qr_scan", "android": "https://dc.lft.to/lastmile_qr_scan"}, "is_reserved": 0}, {"lon": -77.03414933333333, "bike_id": "75a3a08408a9674252c690b11251e5fa", "lat": 38.927370333333336, "fusion_lon": 0.0, "fusion_lat": 0.0, "type": "electric_scooter", "name": "75a3a08408a9674252c690b11251e5fa", "is_disabled": 0, "rental_uris": {"ios": "https://dc.lft.to/lastmile_qr_scan", "android": "https://dc.lft.to/lastmile_qr_scan"}, "is_reserved": 0}, {"lon": -77.04503666666666, "bike_id": "1835e68e313e02185bb8e70abe887fa6", "lat": 38.9111855, "fusion_lon": 0.0, "fusion_lat": 0.0, "type": "electric_scooter", "name": "1835e68e313e02185bb8e70abe887fa6", "is_disabled": 0, "rental_uris": {"ios": "https://dc.lft.to/lastmile_qr_scan", "android": "https://dc.lft.to/lastmile_qr_scan"}, "is_reserved": 0}, {"lon": -76.99522083333333, "bike_id": "605abfb50136c455fdd446d240d64d5d", "lat": 38.900163666666664, "fusion_lon": 0.0, "fusion_lat": 0.0, "type": "electric_scooter", "name": "605abfb50136c455fdd446d240d64d5d", "is_disabled": 0, "rental_uris": {"ios": "https://dc.lft.to/lastmile_qr_scan", "android": "https://dc.lft.to/lastmile_qr_scan"}, "is_reserved": 0}, {"lon": -76.97330333333333, "bike_id": "fca03dca21712005509385662258c461", "lat": 38.90485233333333, "fusion_lon": 0.0, "fusion_lat": 0.0, "type": "electric_bike", "name": "fca03dca21712005509385662258c461", "is_disabled": 0, "rental_uris": {"ios": "https://dc.lft.to/lastmile_qr_scan", "android": "https://dc.lft.to/lastmile_qr_scan"}, "is_reserved": 0}, {"lon": -76.97906783333333, "bike_id": "ec43fb0adbffdd0d9aecfd547f9dca8b", "lat": 38.92463033333333, "fusion_lon": 0.0, "fusion_lat": 0.0, "type": "electric_bike", "name": "ec43fb0adbffdd0d9aecfd547f9dca8b", "is_disabled": 0, "rental_uris": {"ios": "https://dc.lft.to/lastmile_qr_scan", "android": "https://dc.lft.to/lastmile_qr_scan"}, "is_reserved": 0}, {"lon": -76.99271216666666, "bike_id": "2bef4916e3f74147ec10762f92e1530e", "lat": 38.896127166666666, "fusion_lon": 0.0, "fusion_lat": 0.0, "type": "electric_scooter", "name": "2bef4916e3f74147ec10762f92e1530e", "is_disabled": 0, "rental_uris": {"ios": "https://dc.lft.to/lastmile_qr_scan", "android": "https://dc.lft.to/lastmile_qr_scan"}, "is_reserved": 0}, {"lon": -76.99793133333333, "bike_id": "d3e7656b18c86edc41b440d8486fbeb8", "lat": 38.956417333333334, "fusion_lon": 0.0, "fusion_lat": 0.0, "type": "electric_bike", "name": "d3e7656b18c86edc41b440d8486fbeb8", "is_disabled": 0, "rental_uris": {"ios": "https://dc.lft.to/lastmile_qr_scan", "android": "https://dc.lft.to/lastmile_qr_scan"}, "is_reserved": 0}, {"lon": -77.01772566666666, "bike_id": "5048957eda83f985d69508b5f6252ab7", "lat": 38.9007305, "fusion_lon": 0.0, "fusion_lat": 0.0, "type": "electric_scooter", "name": "5048957eda83f985d69508b5f6252ab7", "is_disabled": 0, "rental_uris": {"ios": "https://dc.lft.to/lastmile_qr_scan", "android": "https://dc.lft.to/lastmile_qr_scan"}, "is_reserved": 0}, {"lon": -77.032923, "bike_id": "575fa7f30cbdab9769b743165721ddf0", "lat": 38.95651866666667, "fusion_lon": 0.0, "fusion_lat": 0.0, "type": "electric_scooter", "name": "575fa7f30cbdab9769b743165721ddf0", "is_disabled": 0, "rental_uris": {"ios": "https://dc.lft.to/lastmile_qr_scan", "android": "https://dc.lft.to/lastmile_qr_scan"}, "is_reserved": 0}, {"lon": -77.0002075, "bike_id": "3f72723acba68f7cd7788089c37e11bd", "lat": 38.87425983333333, "fusion_lon": 0.0, "fusion_lat": 0.0, "type": "electric_scooter", "name": "3f72723acba68f7cd7788089c37e11bd", "is_disabled": 0, "rental_uris": {"ios": "https://dc.lft.to/lastmile_qr_scan", "android": "https://dc.lft.to/lastmile_qr_scan"}, "is_reserved": 0}, {"lon": -77.0239315, "bike_id": "1bcb9457bb964db689a64bc27521983f", "lat": 38.88133716666667, "fusion_lon": 0.0, "fusion_lat": 0.0, "type": "electric_scooter", "name": "1bcb9457bb964db689a64bc27521983f", "is_disabled": 0, "rental_uris": {"ios": "https://dc.lft.to/lastmile_qr_scan", "android": "https://dc.lft.to/lastmile_qr_scan"}, "is_reserved": 0}, {"lon": -77.03030216666667, "bike_id": "fb5c1dbf73902334c6d43115ff8b682c", "lat": 38.931182166666666, "fusion_lon": 0.0, "fusion_lat": 0.0, "type": "electric_scooter", "name": "fb5c1dbf73902334c6d43115ff8b682c", "is_disabled": 0, "rental_uris": {"ios": "https://dc.lft.to/lastmile_qr_scan", "android": "https://dc.lft.to/lastmile_qr_scan"}, "is_reserved": 0}, {"lon": -77.04727733333333, "bike_id": "7d61d68fabf5a5db77b9c1beea5a43b4", "lat": 38.89962533333333, "fusion_lon": 0.0, "fusion_lat": 0.0, "type": "electric_scooter", "name": "7d61d68fabf5a5db77b9c1beea5a43b4", "is_disabled": 0, "rental_uris": {"ios": "https://dc.lft.to/lastmile_qr_scan", "android": "https://dc.lft.to/lastmile_qr_scan"}, "is_reserved": 0}, {"lon": -77.03181533333333, "bike_id": "6f61cafd15f5e495439cf5dadf46edeb", "lat": 38.892288, "fusion_lon": 0.0, "fusion_lat": 0.0, "type": "electric_scooter", "name": "6f61cafd15f5e495439cf5dadf46edeb", "is_disabled": 0, "rental_uris": {"ios": "https://dc.lft.to/lastmile_qr_scan", "android": "https://dc.lft.to/lastmile_qr_scan"}, "is_reserved": 0}, {"lon": -77.057248, "bike_id": "1d216eba643da0d16ac3fee9bfaa819f", "lat": 38.933657833333335, "fusion_lon": 0.0, "fusion_lat": 0.0, "type": "electric_scooter", "name": "1d216eba643da0d16ac3fee9bfaa819f", "is_disabled": 0, "rental_uris": {"ios": "https://dc.lft.to/lastmile_qr_scan", "android": "https://dc.lft.to/lastmile_qr_scan"}, "is_reserved": 0}, {"lon": -77.046394, "bike_id": "313bd7f7b0e3d103fdc0230d5d69abf0", "lat": 38.91432183333333, "fusion_lon": 0.0, "fusion_lat": 0.0, "type": "electric_scooter", "name": "313bd7f7b0e3d103fdc0230d5d69abf0", "is_disabled": 0, "rental_uris": {"ios": "https://dc.lft.to/lastmile_qr_scan", "android": "https://dc.lft.to/lastmile_qr_scan"}, "is_reserved": 0}, {"lon": -77.04502733333334, "bike_id": "c969325d40a2000a1b8db41db8357ce2", "lat": 38.9111835, "fusion_lon": 0.0, "fusion_lat": 0.0, "type": "electric_scooter", "name": "c969325d40a2000a1b8db41db8357ce2", "is_disabled": 0, "rental_uris": {"ios": "https://dc.lft.to/lastmile_qr_scan", "android": "https://dc.lft.to/lastmile_qr_scan"}, "is_reserved": 0}, {"lon": -76.99034916666666, "bike_id": "465163afdf583d48709c0bd3289281a5", "lat": 38.89856183333333, "fusion_lon": 0.0, "fusion_lat": 0.0, "type": "electric_scooter", "name": "465163afdf583d48709c0bd3289281a5", "is_disabled": 0, "rental_uris": {"ios": "https://dc.lft.to/lastmile_qr_scan", "android": "https://dc.lft.to/lastmile_qr_scan"}, "is_reserved": 0}, {"lon": -77.03784966666667, "bike_id": "4790eb9fa062d82a6e7cbee8652c7b8a", "lat": 38.92569533333333, "fusion_lon": 0.0, "fusion_lat": 0.0, "type": "electric_scooter", "name": "4790eb9fa062d82a6e7cbee8652c7b8a", "is_disabled": 0, "rental_uris": {"ios": "https://dc.lft.to/lastmile_qr_scan", "android": "https://dc.lft.to/lastmile_qr_scan"}, "is_reserved": 0}, {"lon": -76.97923, "bike_id": "3ab959717b8e08a68d68d88b42c3f040", "lat": 38.90505266666667, "fusion_lon": 0.0, "fusion_lat": 0.0, "type": "electric_scooter", "name": "3ab959717b8e08a68d68d88b42c3f040", "is_disabled": 0, "rental_uris": {"ios": "https://dc.lft.to/lastmile_qr_scan", "android": "https://dc.lft.to/lastmile_qr_scan"}, "is_reserved": 0}, {"lon": -76.98997483333333, "bike_id": "069c12227b0a06ecd011f5a754116172", "lat": 38.86512316666666, "fusion_lon": 0.0, "fusion_lat": 0.0, "type": "electric_scooter", "name": "069c12227b0a06ecd011f5a754116172", "is_disabled": 0, "rental_uris": {"ios": "https://dc.lft.to/lastmile_qr_scan", "android": "https://dc.lft.to/lastmile_qr_scan"}, "is_reserved": 0}, {"lon": -76.99366716666667, "bike_id": "3455b49353fddbb649903eb13f9b5d22", "lat": 38.87975016666667, "fusion_lon": 0.0, "fusion_lat": 0.0, "type": "electric_scooter", "name": "3455b49353fddbb649903eb13f9b5d22", "is_disabled": 0, "rental_uris": {"ios": "https://dc.lft.to/lastmile_qr_scan", "android": "https://dc.lft.to/lastmile_qr_scan"}, "is_reserved": 0}, {"lon": -77.09868416666667, "bike_id": "d6a43f4901813dab85c11406fdb805fa", "lat": 38.949659833333335, "fusion_lon": 0.0, "fusion_lat": 0.0, "type": "electric_scooter", "name": "d6a43f4901813dab85c11406fdb805fa", "is_disabled": 0, "rental_uris": {"ios": "https://dc.lft.to/lastmile_qr_scan", "android": "https://dc.lft.to/lastmile_qr_scan"}, "is_reserved": 0}, {"lon": -77.0132915, "bike_id": "a353e96a0ab0e4153ee74d9345ece82a", "lat": 38.8715955, "fusion_lon": 0.0, "fusion_lat": 0.0, "type": "electric_scooter", "name": "a353e96a0ab0e4153ee74d9345ece82a", "is_disabled": 0, "rental_uris": {"ios": "https://dc.lft.to/lastmile_qr_scan", "android": "https://dc.lft.to/lastmile_qr_scan"}, "is_reserved": 0}, {"lon": -77.03742033333333, "bike_id": "b169ad043ee0e28b3e289ff853a108e7", "lat": 38.91809933333333, "fusion_lon": 0.0, "fusion_lat": 0.0, "type": "electric_scooter", "name": "b169ad043ee0e28b3e289ff853a108e7", "is_disabled": 0, "rental_uris": {"ios": "https://dc.lft.to/lastmile_qr_scan", "android": "https://dc.lft.to/lastmile_qr_scan"}, "is_reserved": 0}, {"lon": -76.99456633333334, "bike_id": "20f845145203dd8c9fddc83c849ce24a", "lat": 38.96617766666667, "fusion_lon": 0.0, "fusion_lat": 0.0, "type": "electric_bike", "name": "20f845145203dd8c9fddc83c849ce24a", "is_disabled": 0, "rental_uris": {"ios": "https://dc.lft.to/lastmile_qr_scan", "android": "https://dc.lft.to/lastmile_qr_scan"}, "is_reserved": 0}, {"lon": -77.02703283333334, "bike_id": "2e17a67ba50f0e04eadab63e3cb9ee3d", "lat": 38.897279, "fusion_lon": 0.0, "fusion_lat": 0.0, "type": "electric_scooter", "name": "2e17a67ba50f0e04eadab63e3cb9ee3d", "is_disabled": 0, "rental_uris": {"ios": "https://dc.lft.to/lastmile_qr_scan", "android": "https://dc.lft.to/lastmile_qr_scan"}, "is_reserved": 0}, {"lon": -77.02724766666667, "bike_id": "47a315fa0467d0dda0814200a8e83261", "lat": 38.91338533333333, "fusion_lon": 0.0, "fusion_lat": 0.0, "type": "electric_scooter", "name": "47a315fa0467d0dda0814200a8e83261", "is_disabled": 0, "rental_uris": {"ios": "https://dc.lft.to/lastmile_qr_scan", "android": "https://dc.lft.to/lastmile_qr_scan"}, "is_reserved": 0}, {"lon": -77.01127833333334, "bike_id": "d8ac547f17e9ec7f2ec501eb4b363e17", "lat": 38.90028083333333, "fusion_lon": 0.0, "fusion_lat": 0.0, "type": "electric_scooter", "name": "d8ac547f17e9ec7f2ec501eb4b363e17", "is_disabled": 0, "rental_uris": {"ios": "https://dc.lft.to/lastmile_qr_scan", "android": "https://dc.lft.to/lastmile_qr_scan"}, "is_reserved": 0}, {"lon": -77.04328366666667, "bike_id": "4765dfa91e5b64c19062a73418470e70", "lat": 38.907220833333334, "fusion_lon": 0.0, "fusion_lat": 0.0, "type": "electric_scooter", "name": "4765dfa91e5b64c19062a73418470e70", "is_disabled": 0, "rental_uris": {"ios": "https://dc.lft.to/lastmile_qr_scan", "android": "https://dc.lft.to/lastmile_qr_scan"}, "is_reserved": 0}, {"lon": -77.020801, "bike_id": "4ce631daa87a7ec33b4313fe7469f000", "lat": 38.88183633333333, "fusion_lon": 0.0, "fusion_lat": 0.0, "type": "electric_scooter", "name": "4ce631daa87a7ec33b4313fe7469f000", "is_disabled": 0, "rental_uris": {"ios": "https://dc.lft.to/lastmile_qr_scan", "android": "https://dc.lft.to/lastmile_qr_scan"}, "is_reserved": 0}, {"lon": -77.02527566666667, "bike_id": "a25def2f6631adc2c42c5859c197021d", "lat": 38.92895566666667, "fusion_lon": 0.0, "fusion_lat": 0.0, "type": "electric_scooter", "name": "a25def2f6631adc2c42c5859c197021d", "is_disabled": 0, "rental_uris": {"ios": "https://dc.lft.to/lastmile_qr_scan", "android": "https://dc.lft.to/lastmile_qr_scan"}, "is_reserved": 0}, {"lon": -77.10027533333333, "bike_id": "195cf7f92592546d373a1438817b84a5", "lat": 38.87134483333333, "fusion_lon": 0.0, "fusion_lat": 0.0, "type": "electric_bike", "name": "195cf7f92592546d373a1438817b84a5", "is_disabled": 0, "rental_uris": {"ios": "https://dc.lft.to/lastmile_qr_scan", "android": "https://dc.lft.to/lastmile_qr_scan"}, "is_reserved": 0}, {"lon": -76.965262, "bike_id": "9147f31a122dcb22e654e2c9b0e8e6e5", "lat": 38.876290833333336, "fusion_lon": 0.0, "fusion_lat": 0.0, "type": "electric_scooter", "name": "9147f31a122dcb22e654e2c9b0e8e6e5", "is_disabled": 0, "rental_uris": {"ios": "https://dc.lft.to/lastmile_qr_scan", "android": "https://dc.lft.to/lastmile_qr_scan"}, "is_reserved": 0}, {"lon": -77.00570416666666, "bike_id": "b24e5508f795df1872c0949c29f65e53", "lat": 38.905606666666664, "fusion_lon": 0.0, "fusion_lat": 0.0, "type": "electric_scooter", "name": "b24e5508f795df1872c0949c29f65e53", "is_disabled": 0, "rental_uris": {"ios": "https://dc.lft.to/lastmile_qr_scan", "android": "https://dc.lft.to/lastmile_qr_scan"}, "is_reserved": 0}, {"lon": -77.03761466666667, "bike_id": "272aacf54e0b68170039f730cf998f6e", "lat": 38.90778683333333, "fusion_lon": 0.0, "fusion_lat": 0.0, "type": "electric_scooter", "name": "272aacf54e0b68170039f730cf998f6e", "is_disabled": 0, "rental_uris": {"ios": "https://dc.lft.to/lastmile_qr_scan", "android": "https://dc.lft.to/lastmile_qr_scan"}, "is_reserved": 0}, {"lon": -77.02748083333333, "bike_id": "39898101a117aa03e0f5d7641d5dfbf6", "lat": 38.928970166666666, "fusion_lon": 0.0, "fusion_lat": 0.0, "type": "electric_scooter", "name": "39898101a117aa03e0f5d7641d5dfbf6", "is_disabled": 0, "rental_uris": {"ios": "https://dc.lft.to/lastmile_qr_scan", "android": "https://dc.lft.to/lastmile_qr_scan"}, "is_reserved": 0}, {"lon": -77.02882, "bike_id": "6626c1ac9261ac48e8bbeaccd65613f2", "lat": 38.9170875, "fusion_lon": 0.0, "fusion_lat": 0.0, "type": "electric_scooter", "name": "6626c1ac9261ac48e8bbeaccd65613f2", "is_disabled": 0, "rental_uris": {"ios": "https://dc.lft.to/lastmile_qr_scan", "android": "https://dc.lft.to/lastmile_qr_scan"}, "is_reserved": 0}, {"lon": -77.0134585, "bike_id": "652f6745ccc7170e6f31850c6430e548", "lat": 38.87818516666667, "fusion_lon": 0.0, "fusion_lat": 0.0, "type": "electric_scooter", "name": "652f6745ccc7170e6f31850c6430e548", "is_disabled": 0, "rental_uris": {"ios": "https://dc.lft.to/lastmile_qr_scan", "android": "https://dc.lft.to/lastmile_qr_scan"}, "is_reserved": 0}, {"lon": -77.0267685, "bike_id": "07537e9cf343826477e19c3a4d1ec501", "lat": 38.9005485, "fusion_lon": 0.0, "fusion_lat": 0.0, "type": "electric_scooter", "name": "07537e9cf343826477e19c3a4d1ec501", "is_disabled": 0, "rental_uris": {"ios": "https://dc.lft.to/lastmile_qr_scan", "android": "https://dc.lft.to/lastmile_qr_scan"}, "is_reserved": 0}, {"lon": -77.02175366666667, "bike_id": "c1643f74c061ad237ab2199787388227", "lat": 38.89748616666667, "fusion_lon": 0.0, "fusion_lat": 0.0, "type": "electric_scooter", "name": "c1643f74c061ad237ab2199787388227", "is_disabled": 0, "rental_uris": {"ios": "https://dc.lft.to/lastmile_qr_scan", "android": "https://dc.lft.to/lastmile_qr_scan"}, "is_reserved": 0}, {"lon": -77.05857, "bike_id": "94c9c5bd2372c184e66f41594a9907bc", "lat": 38.936034666666664, "fusion_lon": 0.0, "fusion_lat": 0.0, "type": "electric_scooter", "name": "94c9c5bd2372c184e66f41594a9907bc", "is_disabled": 0, "rental_uris": {"ios": "https://dc.lft.to/lastmile_qr_scan", "android": "https://dc.lft.to/lastmile_qr_scan"}, "is_reserved": 0}, {"lon": -76.9904735, "bike_id": "6c32aea212d0b2547064cf27b5c2bd5f", "lat": 38.884201833333336, "fusion_lon": 0.0, "fusion_lat": 0.0, "type": "electric_scooter", "name": "6c32aea212d0b2547064cf27b5c2bd5f", "is_disabled": 0, "rental_uris": {"ios": "https://dc.lft.to/lastmile_qr_scan", "android": "https://dc.lft.to/lastmile_qr_scan"}, "is_reserved": 0}, {"lon": -76.9160035, "bike_id": "251df8763f3a220429cd788fda4fdab4", "lat": 38.879834, "fusion_lon": 0.0, "fusion_lat": 0.0, "type": "electric_bike", "name": "251df8763f3a220429cd788fda4fdab4", "is_disabled": 0, "rental_uris": {"ios": "https://dc.lft.to/lastmile_qr_scan", "android": "https://dc.lft.to/lastmile_qr_scan"}, "is_reserved": 0}, {"lon": -77.0425825, "bike_id": "ce4988909b16a0f5bb4eb0f4c8a23a98", "lat": 38.9243465, "fusion_lon": 0.0, "fusion_lat": 0.0, "type": "electric_scooter", "name": "ce4988909b16a0f5bb4eb0f4c8a23a98", "is_disabled": 0, "rental_uris": {"ios": "https://dc.lft.to/lastmile_qr_scan", "android": "https://dc.lft.to/lastmile_qr_scan"}, "is_reserved": 0}, {"lon": -76.982185, "bike_id": "fe20a07e4825bd2af721f03e9ae2ce57", "lat": 38.866216, "fusion_lon": 0.0, "fusion_lat": 0.0, "type": "electric_scooter", "name": "fe20a07e4825bd2af721f03e9ae2ce57", "is_disabled": 0, "rental_uris": {"ios": "https://dc.lft.to/lastmile_qr_scan", "android": "https://dc.lft.to/lastmile_qr_scan"}, "is_reserved": 0}, {"lon": -77.00270933333333, "bike_id": "897becbab57e23d8d93b06f41974ecbd", "lat": 38.911184666666664, "fusion_lon": 0.0, "fusion_lat": 0.0, "type": "electric_scooter", "name": "897becbab57e23d8d93b06f41974ecbd", "is_disabled": 0, "rental_uris": {"ios": "https://dc.lft.to/lastmile_qr_scan", "android": "https://dc.lft.to/lastmile_qr_scan"}, "is_reserved": 0}, {"lon": -76.97327066666666, "bike_id": "9875f197606575ee2c3e4830045fe035", "lat": 38.90488366666666, "fusion_lon": 0.0, "fusion_lat": 0.0, "type": "electric_bike", "name": "9875f197606575ee2c3e4830045fe035", "is_disabled": 0, "rental_uris": {"ios": "https://dc.lft.to/lastmile_qr_scan", "android": "https://dc.lft.to/lastmile_qr_scan"}, "is_reserved": 0}, {"lon": -77.05127716666667, "bike_id": "a0515dfabb38d4fd02cde9f4deb2a29d", "lat": 38.923639666666666, "fusion_lon": 0.0, "fusion_lat": 0.0, "type": "electric_scooter", "name": "a0515dfabb38d4fd02cde9f4deb2a29d", "is_disabled": 0, "rental_uris": {"ios": "https://dc.lft.to/lastmile_qr_scan", "android": "https://dc.lft.to/lastmile_qr_scan"}, "is_reserved": 0}, {"lon": -77.02125216666667, "bike_id": "15119bbed7032300c8c519509957f38a", "lat": 38.89956566666667, "fusion_lon": 0.0, "fusion_lat": 0.0, "type": "electric_scooter", "name": "15119bbed7032300c8c519509957f38a", "is_disabled": 0, "rental_uris": {"ios": "https://dc.lft.to/lastmile_qr_scan", "android": "https://dc.lft.to/lastmile_qr_scan"}, "is_reserved": 0}, {"lon": -77.05578066666666, "bike_id": "acc13369114a790c40d07bdc0143d9df", "lat": 38.916036, "fusion_lon": 0.0, "fusion_lat": 0.0, "type": "electric_scooter", "name": "acc13369114a790c40d07bdc0143d9df", "is_disabled": 0, "rental_uris": {"ios": "https://dc.lft.to/lastmile_qr_scan", "android": "https://dc.lft.to/lastmile_qr_scan"}, "is_reserved": 0}, {"lon": -76.97631533333333, "bike_id": "a0e4ed652c7e9f6338411e0a585e9011", "lat": 38.90575883333333, "fusion_lon": 0.0, "fusion_lat": 0.0, "type": "electric_scooter", "name": "a0e4ed652c7e9f6338411e0a585e9011", "is_disabled": 0, "rental_uris": {"ios": "https://dc.lft.to/lastmile_qr_scan", "android": "https://dc.lft.to/lastmile_qr_scan"}, "is_reserved": 0}, {"lon": -77.024968, "bike_id": "2ab22cf7414e7cf00763ea8452a62256", "lat": 38.939701, "fusion_lon": 0.0, "fusion_lat": 0.0, "type": "electric_scooter", "name": "2ab22cf7414e7cf00763ea8452a62256", "is_disabled": 0, "rental_uris": {"ios": "https://dc.lft.to/lastmile_qr_scan", "android": "https://dc.lft.to/lastmile_qr_scan"}, "is_reserved": 0}, {"lon": -77.03437216666667, "bike_id": "14eddd90af8cb7f9e1fa74f1d3905923", "lat": 38.90967333333333, "fusion_lon": 0.0, "fusion_lat": 0.0, "type": "electric_scooter", "name": "14eddd90af8cb7f9e1fa74f1d3905923", "is_disabled": 0, "rental_uris": {"ios": "https://dc.lft.to/lastmile_qr_scan", "android": "https://dc.lft.to/lastmile_qr_scan"}, "is_reserved": 0}, {"lon": -77.07452866666667, "bike_id": "a67d8e0c25042cc709956fd022b13032", "lat": 38.94511383333333, "fusion_lon": 0.0, "fusion_lat": 0.0, "type": "electric_scooter", "name": "a67d8e0c25042cc709956fd022b13032", "is_disabled": 0, "rental_uris": {"ios": "https://dc.lft.to/lastmile_qr_scan", "android": "https://dc.lft.to/lastmile_qr_scan"}, "is_reserved": 0}, {"lon": -76.99929983333334, "bike_id": "cceaee0cdfe725d4960b24d6e82552e0", "lat": 38.84315816666667, "fusion_lon": 0.0, "fusion_lat": 0.0, "type": "electric_scooter", "name": "cceaee0cdfe725d4960b24d6e82552e0", "is_disabled": 0, "rental_uris": {"ios": "https://dc.lft.to/lastmile_qr_scan", "android": "https://dc.lft.to/lastmile_qr_scan"}, "is_reserved": 0}, {"lon": -77.12529033333334, "bike_id": "b6fe4a5c3ab59cc8e04ce3a9b713d837", "lat": 39.05634333333333, "fusion_lon": 0.0, "fusion_lat": 0.0, "type": "electric_bike", "name": "b6fe4a5c3ab59cc8e04ce3a9b713d837", "is_disabled": 0, "rental_uris": {"ios": "https://dc.lft.to/lastmile_qr_scan", "android": "https://dc.lft.to/lastmile_qr_scan"}, "is_reserved": 0}, {"lon": -77.02708533333333, "bike_id": "d84e52e81dc8074a0a570e2e23d0edf0", "lat": 38.906675166666666, "fusion_lon": 0.0, "fusion_lat": 0.0, "type": "electric_scooter", "name": "d84e52e81dc8074a0a570e2e23d0edf0", "is_disabled": 0, "rental_uris": {"ios": "https://dc.lft.to/lastmile_qr_scan", "android": "https://dc.lft.to/lastmile_qr_scan"}, "is_reserved": 0}, {"lon": -77.04187116666667, "bike_id": "8fc183260c567d2bf645c590ce67490f", "lat": 38.9205665, "fusion_lon": 0.0, "fusion_lat": 0.0, "type": "electric_scooter", "name": "8fc183260c567d2bf645c590ce67490f", "is_disabled": 0, "rental_uris": {"ios": "https://dc.lft.to/lastmile_qr_scan", "android": "https://dc.lft.to/lastmile_qr_scan"}, "is_reserved": 0}, {"lon": -77.03658616666667, "bike_id": "4ff0679c36286e9ed1d4747c6c61a70f", "lat": 38.91751416666666, "fusion_lon": 0.0, "fusion_lat": 0.0, "type": "electric_scooter", "name": "4ff0679c36286e9ed1d4747c6c61a70f", "is_disabled": 0, "rental_uris": {"ios": "https://dc.lft.to/lastmile_qr_scan", "android": "https://dc.lft.to/lastmile_qr_scan"}, "is_reserved": 0}, {"lon": -77.036339, "bike_id": "cbd92d53c2bb51581c2c3152b4c93c72", "lat": 38.93294916666667, "fusion_lon": 0.0, "fusion_lat": 0.0, "type": "electric_scooter", "name": "cbd92d53c2bb51581c2c3152b4c93c72", "is_disabled": 0, "rental_uris": {"ios": "https://dc.lft.to/lastmile_qr_scan", "android": "https://dc.lft.to/lastmile_qr_scan"}, "is_reserved": 0}, {"lon": -77.02849983333333, "bike_id": "df0128aa4872d43731d9e42ccc2be832", "lat": 38.88754816666667, "fusion_lon": 0.0, "fusion_lat": 0.0, "type": "electric_scooter", "name": "df0128aa4872d43731d9e42ccc2be832", "is_disabled": 0, "rental_uris": {"ios": "https://dc.lft.to/lastmile_qr_scan", "android": "https://dc.lft.to/lastmile_qr_scan"}, "is_reserved": 0}, {"lon": -76.94202916666667, "bike_id": "d20e229d3af8e07749a9e030f12dd3e3", "lat": 38.893137333333335, "fusion_lon": 0.0, "fusion_lat": 0.0, "type": "electric_bike", "name": "d20e229d3af8e07749a9e030f12dd3e3", "is_disabled": 0, "rental_uris": {"ios": "https://dc.lft.to/lastmile_qr_scan", "android": "https://dc.lft.to/lastmile_qr_scan"}, "is_reserved": 0}, {"lon": -77.01624416666667, "bike_id": "a1de5ec38723dc864bd4bf97cfc61386", "lat": 38.90874383333333, "fusion_lon": 0.0, "fusion_lat": 0.0, "type": "electric_scooter", "name": "a1de5ec38723dc864bd4bf97cfc61386", "is_disabled": 0, "rental_uris": {"ios": "https://dc.lft.to/lastmile_qr_scan", "android": "https://dc.lft.to/lastmile_qr_scan"}, "is_reserved": 0}, {"lon": -77.04863816666666, "bike_id": "2da82df715f1285810863a41d59fb3e2", "lat": 38.909569166666664, "fusion_lon": 0.0, "fusion_lat": 0.0, "type": "electric_scooter", "name": "2da82df715f1285810863a41d59fb3e2", "is_disabled": 0, "rental_uris": {"ios": "https://dc.lft.to/lastmile_qr_scan", "android": "https://dc.lft.to/lastmile_qr_scan"}, "is_reserved": 0}, {"lon": -76.99871666666667, "bike_id": "c8a411b09f6270d09254384a53decad8", "lat": 38.9002965, "fusion_lon": 0.0, "fusion_lat": 0.0, "type": "electric_scooter", "name": "c8a411b09f6270d09254384a53decad8", "is_disabled": 0, "rental_uris": {"ios": "https://dc.lft.to/lastmile_qr_scan", "android": "https://dc.lft.to/lastmile_qr_scan"}, "is_reserved": 0}, {"lon": -77.02805583333334, "bike_id": "9f6fd29087386ce78d91de9c2ae5c40d", "lat": 38.95647133333333, "fusion_lon": 0.0, "fusion_lat": 0.0, "type": "electric_bike", "name": "9f6fd29087386ce78d91de9c2ae5c40d", "is_disabled": 0, "rental_uris": {"ios": "https://dc.lft.to/lastmile_qr_scan", "android": "https://dc.lft.to/lastmile_qr_scan"}, "is_reserved": 0}, {"lon": -77.00210466666667, "bike_id": "067294c6e971676e0b7a9da6203cb310", "lat": 38.914629166666664, "fusion_lon": 0.0, "fusion_lat": 0.0, "type": "electric_scooter", "name": "067294c6e971676e0b7a9da6203cb310", "is_disabled": 0, "rental_uris": {"ios": "https://dc.lft.to/lastmile_qr_scan", "android": "https://dc.lft.to/lastmile_qr_scan"}, "is_reserved": 0}, {"lon": -77.04485266666667, "bike_id": "401ce6aa80ae0ef293af1e07f4e1d19f", "lat": 38.913653, "fusion_lon": 0.0, "fusion_lat": 0.0, "type": "electric_scooter", "name": "401ce6aa80ae0ef293af1e07f4e1d19f", "is_disabled": 0, "rental_uris": {"ios": "https://dc.lft.to/lastmile_qr_scan", "android": "https://dc.lft.to/lastmile_qr_scan"}, "is_reserved": 0}, {"lon": -77.04163283333334, "bike_id": "bfe997d6cff6052c081947c8665175e3", "lat": 38.931474, "fusion_lon": 0.0, "fusion_lat": 0.0, "type": "electric_scooter", "name": "bfe997d6cff6052c081947c8665175e3", "is_disabled": 0, "rental_uris": {"ios": "https://dc.lft.to/lastmile_qr_scan", "android": "https://dc.lft.to/lastmile_qr_scan"}, "is_reserved": 0}, {"lon": -77.02620716666667, "bike_id": "c1971e3c62f57aab2af0abf3548679de", "lat": 38.90568666666667, "fusion_lon": 0.0, "fusion_lat": 0.0, "type": "electric_scooter", "name": "c1971e3c62f57aab2af0abf3548679de", "is_disabled": 0, "rental_uris": {"ios": "https://dc.lft.to/lastmile_qr_scan", "android": "https://dc.lft.to/lastmile_qr_scan"}, "is_reserved": 0}, {"lon": -77.0350325, "bike_id": "e5ec5daa4878c35aaf69a41caf0ea6ce", "lat": 38.932710666666665, "fusion_lon": 0.0, "fusion_lat": 0.0, "type": "electric_scooter", "name": "e5ec5daa4878c35aaf69a41caf0ea6ce", "is_disabled": 0, "rental_uris": {"ios": "https://dc.lft.to/lastmile_qr_scan", "android": "https://dc.lft.to/lastmile_qr_scan"}, "is_reserved": 0}, {"lon": -77.01480016666666, "bike_id": "3c2f75617797764f34c0d53b35ebca27", "lat": 38.9192785, "fusion_lon": 0.0, "fusion_lat": 0.0, "type": "electric_scooter", "name": "3c2f75617797764f34c0d53b35ebca27", "is_disabled": 0, "rental_uris": {"ios": "https://dc.lft.to/lastmile_qr_scan", "android": "https://dc.lft.to/lastmile_qr_scan"}, "is_reserved": 0}, {"lon": -77.00188366666667, "bike_id": "8f82a21a3b58518e09e0e7690ad5d480", "lat": 38.894739333333334, "fusion_lon": 0.0, "fusion_lat": 0.0, "type": "electric_scooter", "name": "8f82a21a3b58518e09e0e7690ad5d480", "is_disabled": 0, "rental_uris": {"ios": "https://dc.lft.to/lastmile_qr_scan", "android": "https://dc.lft.to/lastmile_qr_scan"}, "is_reserved": 0}, {"lon": -76.99785083333333, "bike_id": "f131704a697d3f37e0284066abd89afa", "lat": 38.891044, "fusion_lon": 0.0, "fusion_lat": 0.0, "type": "electric_scooter", "name": "f131704a697d3f37e0284066abd89afa", "is_disabled": 0, "rental_uris": {"ios": "https://dc.lft.to/lastmile_qr_scan", "android": "https://dc.lft.to/lastmile_qr_scan"}, "is_reserved": 0}, {"lon": -76.98110216666667, "bike_id": "329672f9f1c31d74280b002115780fcf", "lat": 38.87732666666667, "fusion_lon": 0.0, "fusion_lat": 0.0, "type": "electric_bike", "name": "329672f9f1c31d74280b002115780fcf", "is_disabled": 0, "rental_uris": {"ios": "https://dc.lft.to/lastmile_qr_scan", "android": "https://dc.lft.to/lastmile_qr_scan"}, "is_reserved": 0}, {"lon": -77.0268665, "bike_id": "ab7ba5766356b8d4dfec797da6903686", "lat": 38.903989, "fusion_lon": 0.0, "fusion_lat": 0.0, "type": "electric_scooter", "name": "ab7ba5766356b8d4dfec797da6903686", "is_disabled": 0, "rental_uris": {"ios": "https://dc.lft.to/lastmile_qr_scan", "android": "https://dc.lft.to/lastmile_qr_scan"}, "is_reserved": 0}, {"lon": -76.99879983333334, "bike_id": "7a3110c5a4085adb36b5fca13cda83b3", "lat": 38.90021, "fusion_lon": 0.0, "fusion_lat": 0.0, "type": "electric_scooter", "name": "7a3110c5a4085adb36b5fca13cda83b3", "is_disabled": 0, "rental_uris": {"ios": "https://dc.lft.to/lastmile_qr_scan", "android": "https://dc.lft.to/lastmile_qr_scan"}, "is_reserved": 0}, {"lon": -77.00957216666667, "bike_id": "0ef8439a1b8330790aee8a2cb8422e54", "lat": 38.921366166666665, "fusion_lon": 0.0, "fusion_lat": 0.0, "type": "electric_scooter", "name": "0ef8439a1b8330790aee8a2cb8422e54", "is_disabled": 0, "rental_uris": {"ios": "https://dc.lft.to/lastmile_qr_scan", "android": "https://dc.lft.to/lastmile_qr_scan"}, "is_reserved": 0}, {"lon": -76.99921033333334, "bike_id": "ab9fb5b05a1966a66dd1a13be01fdcb0", "lat": 38.8898, "fusion_lon": 0.0, "fusion_lat": 0.0, "type": "electric_scooter", "name": "ab9fb5b05a1966a66dd1a13be01fdcb0", "is_disabled": 0, "rental_uris": {"ios": "https://dc.lft.to/lastmile_qr_scan", "android": "https://dc.lft.to/lastmile_qr_scan"}, "is_reserved": 0}, {"lon": -77.02734033333333, "bike_id": "27185408b4163a47f315f4dd7c977602", "lat": 38.8977815, "fusion_lon": 0.0, "fusion_lat": 0.0, "type": "electric_scooter", "name": "27185408b4163a47f315f4dd7c977602", "is_disabled": 0, "rental_uris": {"ios": "https://dc.lft.to/lastmile_qr_scan", "android": "https://dc.lft.to/lastmile_qr_scan"}, "is_reserved": 0}, {"lon": -77.0365325, "bike_id": "4dc1887c27db61c065412721b78f4265", "lat": 38.9332635, "fusion_lon": 0.0, "fusion_lat": 0.0, "type": "electric_scooter", "name": "4dc1887c27db61c065412721b78f4265", "is_disabled": 0, "rental_uris": {"ios": "https://dc.lft.to/lastmile_qr_scan", "android": "https://dc.lft.to/lastmile_qr_scan"}, "is_reserved": 0}, {"lon": -77.03203916666666, "bike_id": "603eb892b6cfe3e73f8cfa1e90b3fc66", "lat": 38.90977216666667, "fusion_lon": 0.0, "fusion_lat": 0.0, "type": "electric_scooter", "name": "603eb892b6cfe3e73f8cfa1e90b3fc66", "is_disabled": 0, "rental_uris": {"ios": "https://dc.lft.to/lastmile_qr_scan", "android": "https://dc.lft.to/lastmile_qr_scan"}, "is_reserved": 0}, {"lon": -76.98247416666666, "bike_id": "87ce92d52826c2c6a092e681cefaa505", "lat": 38.864610166666665, "fusion_lon": 0.0, "fusion_lat": 0.0, "type": "electric_scooter", "name": "87ce92d52826c2c6a092e681cefaa505", "is_disabled": 0, "rental_uris": {"ios": "https://dc.lft.to/lastmile_qr_scan", "android": "https://dc.lft.to/lastmile_qr_scan"}, "is_reserved": 0}, {"lon": -77.03343416666667, "bike_id": "0e137d531aff0f1482c094c3a3fb968c", "lat": 38.935149833333334, "fusion_lon": 0.0, "fusion_lat": 0.0, "type": "electric_scooter", "name": "0e137d531aff0f1482c094c3a3fb968c", "is_disabled": 0, "rental_uris": {"ios": "https://dc.lft.to/lastmile_qr_scan", "android": "https://dc.lft.to/lastmile_qr_scan"}, "is_reserved": 0}, {"lon": -77.0470565, "bike_id": "835540c346d11f98b3efc08b30593340", "lat": 38.91901983333333, "fusion_lon": 0.0, "fusion_lat": 0.0, "type": "electric_scooter", "name": "835540c346d11f98b3efc08b30593340", "is_disabled": 0, "rental_uris": {"ios": "https://dc.lft.to/lastmile_qr_scan", "android": "https://dc.lft.to/lastmile_qr_scan"}, "is_reserved": 0}, {"lon": -77.0366475, "bike_id": "7d78c64254b5545bf36da1a80d08e674", "lat": 38.93337566666667, "fusion_lon": 0.0, "fusion_lat": 0.0, "type": "electric_scooter", "name": "7d78c64254b5545bf36da1a80d08e674", "is_disabled": 0, "rental_uris": {"ios": "https://dc.lft.to/lastmile_qr_scan", "android": "https://dc.lft.to/lastmile_qr_scan"}, "is_reserved": 0}, {"lon": -77.047054, "bike_id": "7d4ec60f97c4f45d25344ff9d61e81e8", "lat": 38.920648666666665, "fusion_lon": 0.0, "fusion_lat": 0.0, "type": "electric_scooter", "name": "7d4ec60f97c4f45d25344ff9d61e81e8", "is_disabled": 0, "rental_uris": {"ios": "https://dc.lft.to/lastmile_qr_scan", "android": "https://dc.lft.to/lastmile_qr_scan"}, "is_reserved": 0}, {"lon": -76.94936316666667, "bike_id": "3ef7f1153a4683974779be81471c1a9c", "lat": 38.90370883333333, "fusion_lon": 0.0, "fusion_lat": 0.0, "type": "electric_scooter", "name": "3ef7f1153a4683974779be81471c1a9c", "is_disabled": 0, "rental_uris": {"ios": "https://dc.lft.to/lastmile_qr_scan", "android": "https://dc.lft.to/lastmile_qr_scan"}, "is_reserved": 0}, {"lon": -77.03266483333333, "bike_id": "a5663c303f22fcffa22aa1f06d26b29a", "lat": 38.932232166666665, "fusion_lon": 0.0, "fusion_lat": 0.0, "type": "electric_scooter", "name": "a5663c303f22fcffa22aa1f06d26b29a", "is_disabled": 0, "rental_uris": {"ios": "https://dc.lft.to/lastmile_qr_scan", "android": "https://dc.lft.to/lastmile_qr_scan"}, "is_reserved": 0},