{"data": {"bikes": [{"name": "40fda1c09110629f3d68092c5e8ed6a8", "lon": -76.98507566666666, "lat": 38.88082033333333, "type": "electric_bike", "fusion_lon": 0.0, "is_reserved": 0, "bike_id": "40fda1c09110629f3d68092c5e8ed6a8", "fusion_lat": 0.0, "is_disabled": 0, "rental_uris": {"ios": "https://dc.lft.to/lastmile_qr_scan", "android": "https://dc.lft.to/lastmile_qr_scan"}}, {"name": "f052dd3138a1501fb38a9fd968e09223", "lon": -77.02507716666666, "lat": 38.9073125, "type": "electric_scooter", "fusion_lon": 0.0, "is_reserved": 0, "bike_id": "f052dd3138a1501fb38a9fd968e09223", "fusion_lat": 0.0, "is_disabled": 0, "rental_uris": {"ios": "https://dc.lft.to/lastmile_qr_scan", "android": "https://dc.lft.to/lastmile_qr_scan"}}, {"name": "82da59cd44ea3c0ee077bcb4dc16c2db", "lon": -77.00369716666667, "lat": 38.876158, "type": "electric_scooter", "fusion_lon": 0.0, "is_reserved": 0, "bike_id": "82da59cd44ea3c0ee077bcb4dc16c2db", "fusion_lat": 0.0, "is_disabled": 0, "rental_uris": {"ios": "https://dc.lft.to/lastmile_qr_scan", "android": "https://dc.lft.to/lastmile_qr_scan"}}, {"name": "6603e2ebfee308d2421737afb7ab07a0", "lon": -77.04197683333334, "lat": 38.918745666666666, "type": "electric_scooter", "fusion_lon": 0.0, "is_reserved": 0, "bike_id": "6603e2ebfee308d2421737afb7ab07a0", "fusion_lat": 0.0, "is_disabled": 0, "rental_uris": {"ios": "https://dc.lft.to/lastmile_qr_scan", "android": "https://dc.lft.to/lastmile_qr_scan"}}, {"name": "78dc61401ce955072c402180e3eef5f4", "lon": -77.0297665, "lat": 38.9519465, "type": "electric_scooter", "fusion_lon": 0.0, "is_reserved": 0, "bike_id": "78dc61401ce955072c402180e3eef5f4", "fusion_lat": 0.0, "is_disabled": 0, "rental_uris": {"ios": "https://dc.lft.to/lastmile_qr_scan", "android": "https://dc.lft.to/lastmile_qr_scan"}}, {"name": "1474dfba72e2b1eee90a8c2675b25f97", "lon": -77.04479416666666, "lat": 38.921429833333335, "type": "electric_scooter", "fusion_lon": 0.0, "is_reserved": 0, "bike_id": "1474dfba72e2b1eee90a8c2675b25f97", "fusion_lat": 0.0, "is_disabled": 0, "rental_uris": {"ios": "https://dc.lft.to/lastmile_qr_scan", "android": "https://dc.lft.to/lastmile_qr_scan"}}, {"name": "dc61a848ffb198d266233c181683a6f7", "lon": -77.02718683333333, "lat": 38.909074833333335, "type": "electric_scooter", "fusion_lon": 0.0, "is_reserved": 0, "bike_id": "dc61a848ffb198d266233c181683a6f7", "fusion_lat": 0.0, "is_disabled": 0, "rental_uris": {"ios": "https://dc.lft.to/lastmile_qr_scan", "android": "https://dc.lft.to/lastmile_qr_scan"}}, {"name": "9cdb8e204ad4e516770e4d2b3505d07d", "lon": -77.0122915, "lat": 38.91694, "type": "electric_scooter", "fusion_lon": 0.0, "is_reserved": 0, "bike_id": "9cdb8e204ad4e516770e4d2b3505d07d", "fusion_lat": 0.0, "is_disabled": 0, "rental_uris": {"ios": "https://dc.lft.to/lastmile_qr_scan", "android": "https://dc.lft.to/lastmile_qr_scan"}}, {"name": "532f02ab354e779cb9cc41943ab73b3f", "lon": -77.026935, "lat": 38.908416833333334, "type": "electric_scooter", "fusion_lon": 0.0, "is_reserved": 0, "bike_id": "532f02ab354e779cb9cc41943ab73b3f", "fusion_lat": 0.0, "is_disabled": 0, "rental_uris": {"ios": "https://dc.lft.to/lastmile_qr_scan", "android": "https://dc.lft.to/lastmile_qr_scan"}}, {"name": "9ff6d09d93766d244c7eed6db814fb59", "lon": -77.02696833333333, "lat": 38.91133516666667, "type": "electric_scooter", "fusion_lon": 0.0, "is_reserved": 0, "bike_id": "9ff6d09d93766d244c7eed6db814fb59", "fusion_lat": 0.0, "is_disabled": 0, "rental_uris": {"ios": "https://dc.lft.to/lastmile_qr_scan", "android": "https://dc.lft.to/lastmile_qr_scan"}}, {"name": "7ee91c8a795688afe3c2e58433389526", "lon": -76.99935016666667, "lat": 38.905682, "type": "electric_scooter", "fusion_lon": 0.0, "is_reserved": 0, "bike_id": "7ee91c8a795688afe3c2e58433389526", "fusion_lat": 0.0, "is_disabled": 0, "rental_uris": {"ios": "https://dc.lft.to/lastmile_qr_scan", "android": "https://dc.lft.to/lastmile_qr_scan"}}, {"name": "822dff6da9cb68e66ac1cc0699dc34b9", "lon": -77.02567233333333, "lat": 38.91815183333333, "type": "electric_scooter", "fusion_lon": 0.0, "is_reserved": 0, "bike_id": "822dff6da9cb68e66ac1cc0699dc34b9", "fusion_lat": 0.0, "is_disabled": 0, "rental_uris": {"ios": "https://dc.lft.to/lastmile_qr_scan", "android": "https://dc.lft.to/lastmile_qr_scan"}}, {"name": "fb9d272929435fb6b5ae55a84065f88a", "lon": -77.041757, "lat": 38.9154785, "type": "electric_scooter", "fusion_lon": 0.0, "is_reserved": 0, "bike_id": "fb9d272929435fb6b5ae55a84065f88a", "fusion_lat": 0.0, "is_disabled": 0, "rental_uris": {"ios": "https://dc.lft.to/lastmile_qr_scan", "android": "https://dc.lft.to/lastmile_qr_scan"}}, {"name": "6e95fab297698bda079a8d3d3b1772c8", "lon": -76.9375515, "lat": 38.8904455, "type": "electric_scooter", "fusion_lon": 0.0, "is_reserved": 0, "bike_id": "6e95fab297698bda079a8d3d3b1772c8", "fusion_lat": 0.0, "is_disabled": 0, "rental_uris": {"ios": "https://dc.lft.to/lastmile_qr_scan", "android": "https://dc.lft.to/lastmile_qr_scan"}}, {"name": "83134e153046f4d3ec4be1e565c60a73", "lon": -77.0373665, "lat": 38.92918383333333, "type": "electric_scooter", "fusion_lon": 0.0, "is_reserved": 0, "bike_id": "83134e153046f4d3ec4be1e565c60a73", "fusion_lat": 0.0, "is_disabled": 0, "rental_uris": {"ios": "https://dc.lft.to/lastmile_qr_scan", "android": "https://dc.lft.to/lastmile_qr_scan"}}, {"name": "366169fe59886fec3d3790ab2c36e4bc", "lon": -76.9782875, "lat": 38.843685, "type": "electric_bike", "fusion_lon": 0.0, "is_reserved": 0, "bike_id": "366169fe59886fec3d3790ab2c36e4bc", "fusion_lat": 0.0, "is_disabled": 0, "rental_uris": {"ios": "https://dc.lft.to/lastmile_qr_scan", "android": "https://dc.lft.to/lastmile_qr_scan"}}, {"name": "f5d012d64598dbb6b49bee63402fe014", "lon": -76.9977635, "lat": 38.84426533333333, "type": "electric_scooter", "fusion_lon": 0.0, "is_reserved": 0, "bike_id": "f5d012d64598dbb6b49bee63402fe014", "fusion_lat": 0.0, "is_disabled": 0, "rental_uris": {"ios": "https://dc.lft.to/lastmile_qr_scan", "android": "https://dc.lft.to/lastmile_qr_scan"}}, {"name": "155f7246a0376ceda00e8e0f3d25493e", "lon": -77.021842, "lat": 38.899806833333336, "type": "electric_scooter", "fusion_lon": 0.0, "is_reserved": 0, "bike_id": "155f7246a0376ceda00e8e0f3d25493e", "fusion_lat": 0.0, "is_disabled": 0, "rental_uris": {"ios": "https://dc.lft.to/lastmile_qr_scan", "android": "https://dc.lft.to/lastmile_qr_scan"}}, {"name": "701084a6e96392593f79db5deb3dcb89", "lon": -76.9876405, "lat": 38.85768683333333, "type": "electric_bike", "fusion_lon": 0.0, "is_reserved": 0, "bike_id": "701084a6e96392593f79db5deb3dcb89", "fusion_lat": 0.0, "is_disabled": 0, "rental_uris": {"ios": "https://dc.lft.to/lastmile_qr_scan", "android": "https://dc.lft.to/lastmile_qr_scan"}}, {"name": "767472037357c67b8d11ffbdc066f641", "lon": -77.02091583333333, "lat": 38.921417, "type": "electric_scooter", "fusion_lon": 0.0, "is_reserved": 0, "bike_id": "767472037357c67b8d11ffbdc066f641", "fusion_lat": 0.0, "is_disabled": 0, "rental_uris": {"ios": "https://dc.lft.to/lastmile_qr_scan", "android": "https://dc.lft.to/lastmile_qr_scan"}}, {"name": "2f5526ea8293f3a4b4260b0cd0c48ae4", "lon": -76.9978065, "lat": 38.8443085, "type": "electric_scooter", "fusion_lon": 0.0, "is_reserved": 0, "bike_id": "2f5526ea8293f3a4b4260b0cd0c48ae4", "fusion_lat": 0.0, "is_disabled": 0, "rental_uris": {"ios": "https://dc.lft.to/lastmile_qr_scan", "android": "https://dc.lft.to/lastmile_qr_scan"}}, {"name": "38451f96d9354212967e8f29a1ee0eb4", "lon": -76.95753566666667, "lat": 38.88429133333333, "type": "electric_scooter", "fusion_lon": 0.0, "is_reserved": 0, "bike_id": "38451f96d9354212967e8f29a1ee0eb4", "fusion_lat": 0.0, "is_disabled": 0, "rental_uris": {"ios": "https://dc.lft.to/lastmile_qr_scan", "android": "https://dc.lft.to/lastmile_qr_scan"}}, {"name": "b4c0fe324d661ec051141418386d9697", "lon": -77.03827483333333, "lat": 38.888079166666664, "type": "electric_bike", "fusion_lon": 0.0, "is_reserved": 0, "bike_id": "b4c0fe324d661ec051141418386d9697", "fusion_lat": 0.0, "is_disabled": 0, "rental_uris": {"ios": "https://dc.lft.to/lastmile_qr_scan", "android": "https://dc.lft.to/lastmile_qr_scan"}}, {"name": "7915798f78437b0bd2d9b419d4a642b1", "lon": -77.01229683333334, "lat": 38.9310795, "type": "electric_scooter", "fusion_lon": 0.0, "is_reserved": 0, "bike_id": "7915798f78437b0bd2d9b419d4a642b1", "fusion_lat": 0.0, "is_disabled": 0, "rental_uris": {"ios": "https://dc.lft.to/lastmile_qr_scan", "android": "https://dc.lft.to/lastmile_qr_scan"}}, {"name": "82401fef4e66c05d00b6bea1ee09fad7", "lon": -77.0347725, "lat": 38.925406333333335, "type": "electric_scooter", "fusion_lon": 0.0, "is_reserved": 0, "bike_id": "82401fef4e66c05d00b6bea1ee09fad7", "fusion_lat": 0.0, "is_disabled": 0, "rental_uris": {"ios": "https://dc.lft.to/lastmile_qr_scan", "android": "https://dc.lft.to/lastmile_qr_scan"}}, {"name": "183bc5f189987f802196105ae72ec327", "lon": -77.08589183333333, "lat": 38.844376, "type": "electric_bike", "fusion_lon": 0.0, "is_reserved": 0, "bike_id": "183bc5f189987f802196105ae72ec327", "fusion_lat": 0.0, "is_disabled": 0, "rental_uris": {"ios": "https://dc.lft.to/lastmile_qr_scan", "android": "https://dc.lft.to/lastmile_qr_scan"}}, {"name": "6f8d29a98f8aa61f643f4a757b60ede0", "lon": -76.98481933333333, "lat": 38.915176, "type": "electric_scooter", "fusion_lon": 0.0, "is_reserved": 0, "bike_id": "6f8d29a98f8aa61f643f4a757b60ede0", "fusion_lat": 0.0, "is_disabled": 0, "rental_uris": {"ios": "https://dc.lft.to/lastmile_qr_scan", "android": "https://dc.lft.to/lastmile_qr_scan"}}, {"name": "a609a3484a43c6694706499eecae5267", "lon": -77.03659366666666, "lat": 38.918016333333334, "type": "electric_scooter", "fusion_lon": 0.0, "is_reserved": 0, "bike_id": "a609a3484a43c6694706499eecae5267", "fusion_lat": 0.0, "is_disabled": 0, "rental_uris": {"ios": "https://dc.lft.to/lastmile_qr_scan", "android": "https://dc.lft.to/lastmile_qr_scan"}}, {"name": "d5229645b1125cdf5588d6e01bb7d0f5", "lon": -77.03704833333333, "lat": 38.920370166666665, "type": "electric_bike", "fusion_lon": 0.0, "is_reserved": 0, "bike_id": "d5229645b1125cdf5588d6e01bb7d0f5", "fusion_lat": 0.0, "is_disabled": 0, "rental_uris": {"ios": "https://dc.lft.to/lastmile_qr_scan", "android": "https://dc.lft.to/lastmile_qr_scan"}}, {"name": "d6b6d2797ddb49c77819cbc7a98d6d4e", "lon": -77.05519366666667, "lat": 38.929673, "type": "electric_scooter", "fusion_lon": 0.0, "is_reserved": 0, "bike_id": "d6b6d2797ddb49c77819cbc7a98d6d4e", "fusion_lat": 0.0, "is_disabled": 0, "rental_uris": {"ios": "https://dc.lft.to/lastmile_qr_scan", "android": "https://dc.lft.to/lastmile_qr_scan"}}, {"name": "c6034f987b2ca341afebd58ca9fc4aba", "lon": -77.0298155, "lat": 38.9346065, "type": "electric_scooter", "fusion_lon": 0.0, "is_reserved": 0, "bike_id": "c6034f987b2ca341afebd58ca9fc4aba", "fusion_lat": 0.0, "is_disabled": 0, "rental_uris": {"ios": "https://dc.lft.to/lastmile_qr_scan", "android": "https://dc.lft.to/lastmile_qr_scan"}}, {"name": "2e985887b7da4be889404850752a9c97", "lon": -77.02203133333333, "lat": 38.8864015, "type": "electric_scooter", "fusion_lon": 0.0, "is_reserved": 0, "bike_id": "2e985887b7da4be889404850752a9c97", "fusion_lat": 0.0, "is_disabled": 0, "rental_uris": {"ios": "https://dc.lft.to/lastmile_qr_scan", "android": "https://dc.lft.to/lastmile_qr_scan"}}, {"name": "e154943c612c99dee1ffc45474f1b755", "lon": -76.97240916666667, "lat": 38.949047166666666, "type": "electric_bike", "fusion_lon": 0.0, "is_reserved": 0, "bike_id": "e154943c612c99dee1ffc45474f1b755", "fusion_lat": 0.0, "is_disabled": 0, "rental_uris": {"ios": "https://dc.lft.to/lastmile_qr_scan", "android": "https://dc.lft.to/lastmile_qr_scan"}}, {"name": "e8a634d9451b0eeb89936a55f26fe237", "lon": -76.99331133333334, "lat": 38.92446866666667, "type": "electric_scooter", "fusion_lon": 0.0, "is_reserved": 0, "bike_id": "e8a634d9451b0eeb89936a55f26fe237", "fusion_lat": 0.0, "is_disabled": 0, "rental_uris": {"ios": "https://dc.lft.to/lastmile_qr_scan", "android": "https://dc.lft.to/lastmile_qr_scan"}}, {"name": "59bf8ed0add75fd514a35b0d50b47553", "lon": -76.98990533333334, "lat": 38.8638615, "type": "electric_bike", "fusion_lon": 0.0, "is_reserved": 0, "bike_id": "59bf8ed0add75fd514a35b0d50b47553", "fusion_lat": 0.0, "is_disabled": 0, "rental_uris": {"ios": "https://dc.lft.to/lastmile_qr_scan", "android": "https://dc.lft.to/lastmile_qr_scan"}}, {"name": "8823127c4b9a249ff6a511c602a37263", "lon": -77.0282415, "lat": 38.88735616666666, "type": "electric_scooter", "fusion_lon": 0.0, "is_reserved": 0, "bike_id": "8823127c4b9a249ff6a511c602a37263", "fusion_lat": 0.0, "is_disabled": 0, "rental_uris": {"ios": "https://dc.lft.to/lastmile_qr_scan", "android": "https://dc.lft.to/lastmile_qr_scan"}}, {"name": "7fc9c4eb0f22dd59da42f06227c7f2f9", "lon": -77.027704, "lat": 38.954287, "type": "electric_scooter", "fusion_lon": 0.0, "is_reserved": 0, "bike_id": "7fc9c4eb0f22dd59da42f06227c7f2f9", "fusion_lat": 0.0, "is_disabled": 0, "rental_uris": {"ios": "https://dc.lft.to/lastmile_qr_scan", "android": "https://dc.lft.to/lastmile_qr_scan"}}, {"name": "842160decd5728ce0737f1e537045753", "lon": -77.05233683333333, "lat": 38.92466966666667, "type": "electric_scooter", "fusion_lon": 0.0, "is_reserved": 0, "bike_id": "842160decd5728ce0737f1e537045753", "fusion_lat": 0.0, "is_disabled": 0, "rental_uris": {"ios": "https://dc.lft.to/lastmile_qr_scan", "android": "https://dc.lft.to/lastmile_qr_scan"}}, {"name": "6dc2c8aead4942e95e066a91dbb2b973", "lon": -77.03307266666667, "lat": 38.956384, "type": "electric_scooter", "fusion_lon": 0.0, "is_reserved": 0, "bike_id": "6dc2c8aead4942e95e066a91dbb2b973", "fusion_lat": 0.0, "is_disabled": 0, "rental_uris": {"ios": "https://dc.lft.to/lastmile_qr_scan", "android": "https://dc.lft.to/lastmile_qr_scan"}}, {"name": "006bb6d377c47d850565272cd2473f11", "lon": -77.0418365, "lat": 38.92036016666667, "type": "electric_scooter", "fusion_lon": 0.0, "is_reserved": 0, "bike_id": "006bb6d377c47d850565272cd2473f11", "fusion_lat": 0.0, "is_disabled": 0, "rental_uris": {"ios": "https://dc.lft.to/lastmile_qr_scan", "android": "https://dc.lft.to/lastmile_qr_scan"}}, {"name": "531ab52a0626fb634ff8e9a659fedf21", "lon": -77.05858966666666, "lat": 38.936075, "type": "electric_scooter", "fusion_lon": 0.0, "is_reserved": 0, "bike_id": "531ab52a0626fb634ff8e9a659fedf21", "fusion_lat": 0.0, "is_disabled": 0, "rental_uris": {"ios": "https://dc.lft.to/lastmile_qr_scan", "android": "https://dc.lft.to/lastmile_qr_scan"}}, {"name": "b14a340728b27410695bda225a4485ab", "lon": -77.04621916666666, "lat": 38.902687, "type": "electric_scooter", "fusion_lon": 0.0, "is_reserved": 0, "bike_id": "b14a340728b27410695bda225a4485ab", "fusion_lat": 0.0, "is_disabled": 0, "rental_uris": {"ios": "https://dc.lft.to/lastmile_qr_scan", "android": "https://dc.lft.to/lastmile_qr_scan"}}, {"name": "58ee48b2f296b70b1f60d0a893273d24", "lon": -77.16090283333334, "lat": 38.886868, "type": "electric_bike", "fusion_lon": 0.0, "is_reserved": 0, "bike_id": "58ee48b2f296b70b1f60d0a893273d24", "fusion_lat": 0.0, "is_disabled": 0, "rental_uris": {"ios": "https://dc.lft.to/lastmile_qr_scan", "android": "https://dc.lft.to/lastmile_qr_scan"}}, {"name": "b216279d35740499ddd3a52985d29e50", "lon": -77.0223685, "lat": 38.92246333333333, "type": "electric_scooter", "fusion_lon": 0.0, "is_reserved": 0, "bike_id": "b216279d35740499ddd3a52985d29e50", "fusion_lat": 0.0, "is_disabled": 0, "rental_uris": {"ios": "https://dc.lft.to/lastmile_qr_scan", "android": "https://dc.lft.to/lastmile_qr_scan"}}, {"name": "003e6e41913a3df924cce3090ed73435", "lon": -77.026453, "lat": 38.8921895, "type": "electric_scooter", "fusion_lon": 0.0, "is_reserved": 0, "bike_id": "003e6e41913a3df924cce3090ed73435", "fusion_lat": 0.0, "is_disabled": 0, "rental_uris": {"ios": "https://dc.lft.to/lastmile_qr_scan", "android": "https://dc.lft.to/lastmile_qr_scan"}}, {"name": "e6c9ad9d1d547afcc52cfc8dfaa79570", "lon": -77.02503733333333, "lat": 38.90563083333333, "type": "electric_scooter", "fusion_lon": 0.0, "is_reserved": 0, "bike_id": "e6c9ad9d1d547afcc52cfc8dfaa79570", "fusion_lat": 0.0, "is_disabled": 0, "rental_uris": {"ios": "https://dc.lft.to/lastmile_qr_scan", "android": "https://dc.lft.to/lastmile_qr_scan"}}, {"name": "fe69d87290232e7b218b32d0011a7b12", "lon": -76.98060733333334, "lat": 38.9570095, "type": "electric_bike", "fusion_lon": 0.0, "is_reserved": 0, "bike_id": "fe69d87290232e7b218b32d0011a7b12", "fusion_lat": 0.0, "is_disabled": 0, "rental_uris": {"ios": "https://dc.lft.to/lastmile_qr_scan", "android": "https://dc.lft.to/lastmile_qr_scan"}}, {"name": "ceb8ca4909dd6e3175d57178765d8d26", "lon": -77.0227145, "lat": 38.92457866666667, "type": "electric_scooter", "fusion_lon": 0.0, "is_reserved": 0, "bike_id": "ceb8ca4909dd6e3175d57178765d8d26", "fusion_lat": 0.0, "is_disabled": 0, "rental_uris": {"ios": "https://dc.lft.to/lastmile_qr_scan", "android": "https://dc.lft.to/lastmile_qr_scan"}}, {"name": "d6c2dc3b40c7b011da275d674fe87761", "lon": -76.98882716666667, "lat": 38.86661933333333, "type": "electric_scooter", "fusion_lon": 0.0, "is_reserved": 0, "bike_id": "d6c2dc3b40c7b011da275d674fe87761", "fusion_lat": 0.0, "is_disabled": 0, "rental_uris": {"ios": "https://dc.lft.to/lastmile_qr_scan", "android": "https://dc.lft.to/lastmile_qr_scan"}}, {"name": "430c09def6d1d7098878bd7fcb2549be", "lon": -77.07918333333333, "lat": 38.80224183333333, "type": "electric_bike", "fusion_lon": 0.0, "is_reserved": 0, "bike_id": "430c09def6d1d7098878bd7fcb2549be", "fusion_lat": 0.0, "is_disabled": 0, "rental_uris": {"ios": "https://dc.lft.to/lastmile_qr_scan", "android": "https://dc.lft.to/lastmile_qr_scan"}}, {"name": "328689066cbc3586570c53ab159f57f7", "lon": -77.03287366666666, "lat": 38.93420716666667, "type": "electric_scooter", "fusion_lon": 0.0, "is_reserved": 0, "bike_id": "328689066cbc3586570c53ab159f57f7", "fusion_lat": 0.0, "is_disabled": 0, "rental_uris": {"ios": "https://dc.lft.to/lastmile_qr_scan", "android": "https://dc.lft.to/lastmile_qr_scan"}}, {"name": "c8d6205b5d9de44a626ab44548102b1f", "lon": -77.05294783333333, "lat": 38.927917, "type": "electric_scooter", "fusion_lon": 0.0, "is_reserved": 0, "bike_id": "c8d6205b5d9de44a626ab44548102b1f", "fusion_lat": 0.0, "is_disabled": 0, "rental_uris": {"ios": "https://dc.lft.to/lastmile_qr_scan", "android": "https://dc.lft.to/lastmile_qr_scan"}}, {"name": "fadc1b9521ea1b8071db3508becbf44f", "lon": -77.0346315, "lat": 38.922552, "type": "electric_scooter", "fusion_lon": 0.0, "is_reserved": 0, "bike_id": "fadc1b9521ea1b8071db3508becbf44f", "fusion_lat": 0.0, "is_disabled": 0, "rental_uris": {"ios": "https://dc.lft.to/lastmile_qr_scan", "android": "https://dc.lft.to/lastmile_qr_scan"}}, {"name": "8b913388f1de9785898dddcc4049e681", "lon": -76.93755433333334, "lat": 38.890496666666664, "type": "electric_scooter", "fusion_lon": 0.0, "is_reserved": 0, "bike_id": "8b913388f1de9785898dddcc4049e681", "fusion_lat": 0.0, "is_disabled": 0, "rental_uris": {"ios": "https://dc.lft.to/lastmile_qr_scan", "android": "https://dc.lft.to/lastmile_qr_scan"}}, {"name": "595ca68aeb89ee7cb0d4ebba66e36747", "lon": -77.02844816666666, "lat": 38.9341775, "type": "electric_scooter", "fusion_lon": 0.0, "is_reserved": 0, "bike_id": "595ca68aeb89ee7cb0d4ebba66e36747", "fusion_lat": 0.0, "is_disabled": 0, "rental_uris": {"ios": "https://dc.lft.to/lastmile_qr_scan", "android": "https://dc.lft.to/lastmile_qr_scan"}}, {"name": "9f2738f4e3dc3af1a10a1c5f56658f04", "lon": -77.0097155, "lat": 38.9141105, "type": "electric_scooter", "fusion_lon": 0.0, "is_reserved": 0, "bike_id": "9f2738f4e3dc3af1a10a1c5f56658f04", "fusion_lat": 0.0, "is_disabled": 0, "rental_uris": {"ios": "https://dc.lft.to/lastmile_qr_scan", "android": "https://dc.lft.to/lastmile_qr_scan"}}, {"name": "4982061857b52ba67d0b6cef2ee244b7", "lon": -77.02886766666667, "lat": 38.909320666666666, "type": "electric_scooter", "fusion_lon": 0.0, "is_reserved": 0, "bike_id": "4982061857b52ba67d0b6cef2ee244b7", "fusion_lat": 0.0, "is_disabled": 0, "rental_uris": {"ios": "https://dc.lft.to/lastmile_qr_scan", "android": "https://dc.lft.to/lastmile_qr_scan"}}, {"name": "319daff8ccba953072d09990fa360bd1", "lon": -77.0670665, "lat": 38.9506755, "type": "electric_scooter", "fusion_lon": 0.0, "is_reserved": 0, "bike_id": "319daff8ccba953072d09990fa360bd1", "fusion_lat": 0.0, "is_disabled": 0, "rental_uris": {"ios": "https://dc.lft.to/lastmile_qr_scan", "android": "https://dc.lft.to/lastmile_qr_scan"}}, {"name": "012ca330ae79696f8911dfa8dd820e81", "lon": -77.055134, "lat": 38.909384833333334, "type": "electric_scooter", "fusion_lon": 0.0, "is_reserved": 0, "bike_id": "012ca330ae79696f8911dfa8dd820e81", "fusion_lat": 0.0, "is_disabled": 0, "rental_uris": {"ios": "https://dc.lft.to/lastmile_qr_scan", "android": "https://dc.lft.to/lastmile_qr_scan"}}, {"name": "2d98410a5d2cabaf378e6629225961be", "lon": -76.99853916666666, "lat": 38.887649, "type": "electric_scooter", "fusion_lon": 0.0, "is_reserved": 0, "bike_id": "2d98410a5d2cabaf378e6629225961be", "fusion_lat": 0.0, "is_disabled": 0, "rental_uris": {"ios": "https://dc.lft.to/lastmile_qr_scan", "android": "https://dc.lft.to/lastmile_qr_scan"}}, {"name": "8917075566cff68e97ed3604ee994b57", "lon": -77.09962266666666, "lat": 38.857895166666665, "type": "electric_bike", "fusion_lon": 0.0, "is_reserved": 0, "bike_id": "8917075566cff68e97ed3604ee994b57", "fusion_lat": 0.0, "is_disabled": 0, "rental_uris": {"ios": "https://dc.lft.to/lastmile_qr_scan", "android": "https://dc.lft.to/lastmile_qr_scan"}}, {"name": "16623cbfcc7eddb84bf84ef3c067ec09", "lon": -77.02819933333333, "lat": 38.914032666666664, "type": "electric_scooter", "fusion_lon": 0.0, "is_reserved": 0, "bike_id": "16623cbfcc7eddb84bf84ef3c067ec09", "fusion_lat": 0.0, "is_disabled": 0, "rental_uris": {"ios": "https://dc.lft.to/lastmile_qr_scan", "android": "https://dc.lft.to/lastmile_qr_scan"}}, {"name": "7d7a3183249f75ef0bb50050e7d81c1c", "lon": -77.02135433333333, "lat": 38.9248805, "type": "electric_scooter", "fusion_lon": 0.0, "is_reserved": 0, "bike_id": "7d7a3183249f75ef0bb50050e7d81c1c", "fusion_lat": 0.0, "is_disabled": 0, "rental_uris": {"ios": "https://dc.lft.to/lastmile_qr_scan", "android": "https://dc.lft.to/lastmile_qr_scan"}}, {"name": "5dccc857fc59d1ccc3e0ac97aa623076", "lon": -77.02375033333334, "lat": 38.886751, "type": "electric_scooter", "fusion_lon": 0.0, "is_reserved": 0, "bike_id": "5dccc857fc59d1ccc3e0ac97aa623076", "fusion_lat": 0.0, "is_disabled": 0, "rental_uris": {"ios": "https://dc.lft.to/lastmile_qr_scan", "android": "https://dc.lft.to/lastmile_qr_scan"}}, {"name": "6b7906ab6130beb62a11d72a06a41e60", "lon": -77.04689816666667, "lat": 38.900520666666665, "type": "electric_scooter", "fusion_lon": 0.0, "is_reserved": 0, "bike_id": "6b7906ab6130beb62a11d72a06a41e60", "fusion_lat": 0.0, "is_disabled": 0, "rental_uris": {"ios": "https://dc.lft.to/lastmile_qr_scan", "android": "https://dc.lft.to/lastmile_qr_scan"}}, {"name": "40a31e443538cbca06349ec3e07af9ce", "lon": -77.06698183333333, "lat": 38.831743333333335, "type": "electric_bike", "fusion_lon": 0.0, "is_reserved": 0, "bike_id": "40a31e443538cbca06349ec3e07af9ce", "fusion_lat": 0.0, "is_disabled": 0, "rental_uris": {"ios": "https://dc.lft.to/lastmile_qr_scan", "android": "https://dc.lft.to/lastmile_qr_scan"}}, {"name": "5b38a0803b2273709e2b69de10b04217", "lon": -77.03860333333333, "lat": 38.916888666666665, "type": "electric_scooter", "fusion_lon": 0.0, "is_reserved": 0, "bike_id": "5b38a0803b2273709e2b69de10b04217", "fusion_lat": 0.0, "is_disabled": 0, "rental_uris": {"ios": "https://dc.lft.to/lastmile_qr_scan", "android": "https://dc.lft.to/lastmile_qr_scan"}}, {"name": "b092beea43583a82411d32b519c8124f", "lon": -77.02843983333334, "lat": 38.91703, "type": "electric_scooter", "fusion_lon": 0.0, "is_reserved": 0, "bike_id": "b092beea43583a82411d32b519c8124f", "fusion_lat": 0.0, "is_disabled": 0, "rental_uris": {"ios": "https://dc.lft.to/lastmile_qr_scan", "android": "https://dc.lft.to/lastmile_qr_scan"}}, {"name": "32c6687797188383262c9deabcdfabcd", "lon": -77.01769083333333, "lat": 38.919118166666664, "type": "electric_scooter", "fusion_lon": 0.0, "is_reserved": 0, "bike_id": "32c6687797188383262c9deabcdfabcd", "fusion_lat": 0.0, "is_disabled": 0, "rental_uris": {"ios": "https://dc.lft.to/lastmile_qr_scan", "android": "https://dc.lft.to/lastmile_qr_scan"}}, {"name": "4250867bbda1c26d0815320272eb3d61", "lon": -77.06407466666667, "lat": 38.91299566666667, "type": "electric_scooter", "fusion_lon": 0.0, "is_reserved": 0, "bike_id": "4250867bbda1c26d0815320272eb3d61", "fusion_lat": 0.0, "is_disabled": 0, "rental_uris": {"ios": "https://dc.lft.to/lastmile_qr_scan", "android": "https://dc.lft.to/lastmile_qr_scan"}}, {"name": "6cda290f05b0b0641ef861a38ab4be18", "lon": -77.04267933333334, "lat": 38.9229625, "type": "electric_scooter", "fusion_lon": 0.0, "is_reserved": 0, "bike_id": "6cda290f05b0b0641ef861a38ab4be18", "fusion_lat": 0.0, "is_disabled": 0, "rental_uris": {"ios": "https://dc.lft.to/lastmile_qr_scan", "android": "https://dc.lft.to/lastmile_qr_scan"}}, {"name": "6c784f94a43655083060369d5a1e0781", "lon": -77.02374233333333, "lat": 38.898461833333336, "type": "electric_bike", "fusion_lon": 0.0, "is_reserved": 0, "bike_id": "6c784f94a43655083060369d5a1e0781", "fusion_lat": 0.0, "is_disabled": 0, "rental_uris": {"ios": "https://dc.lft.to/lastmile_qr_scan", "android": "https://dc.lft.to/lastmile_qr_scan"}}, {"name": "8a5d5ac8aa41c258d9a414513a7c5c04", "lon": -76.987121, "lat": 38.867028, "type": "electric_scooter", "fusion_lon": 0.0, "is_reserved": 0, "bike_id": "8a5d5ac8aa41c258d9a414513a7c5c04", "fusion_lat": 0.0, "is_disabled": 0, "rental_uris": {"ios": "https://dc.lft.to/lastmile_qr_scan", "android": "https://dc.lft.to/lastmile_qr_scan"}}, {"name": "4714ec2f9ddda013cea388bbc706177a", "lon": -76.98003033333333, "lat": 38.85321416666667, "type": "electric_scooter", "fusion_lon": 0.0, "is_reserved": 0, "bike_id": "4714ec2f9ddda013cea388bbc706177a", "fusion_lat": 0.0, "is_disabled": 0, "rental_uris": {"ios": "https://dc.lft.to/lastmile_qr_scan", "android": "https://dc.lft.to/lastmile_qr_scan"}}, {"name": "bc4d34c1f3174a1c415cc1c4b78930dd", "lon": -77.002459, "lat": 38.90258933333333, "type": "electric_scooter", "fusion_lon": 0.0, "is_reserved": 0, "bike_id": "bc4d34c1f3174a1c415cc1c4b78930dd", "fusion_lat": 0.0, "is_disabled": 0, "rental_uris": {"ios": "https://dc.lft.to/lastmile_qr_scan", "android": "https://dc.lft.to/lastmile_qr_scan"}}, {"name": "331104fccf066dec9e95cac27e959138", "lon": -77.057136, "lat": 38.90618816666667, "type": "electric_scooter", "fusion_lon": 0.0, "is_reserved": 0, "bike_id": "331104fccf066dec9e95cac27e959138", "fusion_lat": 0.0, "is_disabled": 0, "rental_uris": {"ios": "https://dc.lft.to/lastmile_qr_scan", "android": "https://dc.lft.to/lastmile_qr_scan"}}, {"name": "4e843106bc26cf8838da30ce96485c62", "lon": -76.94840583333334, "lat": 38.895875, "type": "electric_scooter", "fusion_lon": 0.0, "is_reserved": 0, "bike_id": "4e843106bc26cf8838da30ce96485c62", "fusion_lat": 0.0, "is_disabled": 0, "rental_uris": {"ios": "https://dc.lft.to/lastmile_qr_scan", "android": "https://dc.lft.to/lastmile_qr_scan"}}, {"name": "d6cddec6b419b42301a209a454e18d9e", "lon": -76.945786, "lat": 38.9374515, "type": "electric_bike", "fusion_lon": 0.0, "is_reserved": 0, "bike_id": "d6cddec6b419b42301a209a454e18d9e", "fusion_lat": 0.0, "is_disabled": 0, "rental_uris": {"ios": "https://dc.lft.to/lastmile_qr_scan", "android": "https://dc.lft.to/lastmile_qr_scan"}}, {"name": "b3fe2d6482d1f36d0754cb11c44b62c7", "lon": -77.0349605, "lat": 38.924805166666665, "type": "electric_scooter", "fusion_lon": 0.0, "is_reserved": 0, "bike_id": "b3fe2d6482d1f36d0754cb11c44b62c7", "fusion_lat": 0.0, "is_disabled": 0, "rental_uris": {"ios": "https://dc.lft.to/lastmile_qr_scan", "android": "https://dc.lft.to/lastmile_qr_scan"}}, {"name": "97d854054b48d4c1c98d04f2fa65d5c2", "lon": -77.0176395, "lat": 38.902256666666666, "type": "electric_scooter", "fusion_lon": 0.0, "is_reserved": 0, "bike_id": "97d854054b48d4c1c98d04f2fa65d5c2", "fusion_lat": 0.0, "is_disabled": 0, "rental_uris": {"ios": "https://dc.lft.to/lastmile_qr_scan", "android": "https://dc.lft.to/lastmile_qr_scan"}}, {"name": "812b2edb24631314616fba5c1ba251f1", "lon": -77.02773866666666, "lat": 38.91696566666667, "type": "electric_scooter", "fusion_lon": 0.0, "is_reserved": 0, "bike_id": "812b2edb24631314616fba5c1ba251f1", "fusion_lat": 0.0, "is_disabled": 0, "rental_uris": {"ios": "https://dc.lft.to/lastmile_qr_scan", "android": "https://dc.lft.to/lastmile_qr_scan"}}, {"name": "7a57c6ed8816492d3b4ce1eec7bae50b", "lon": -77.0237825, "lat": 38.91676983333333, "type": "electric_scooter", "fusion_lon": 0.0, "is_reserved": 0, "bike_id": "7a57c6ed8816492d3b4ce1eec7bae50b", "fusion_lat": 0.0, "is_disabled": 0, "rental_uris": {"ios": "https://dc.lft.to/lastmile_qr_scan", "android": "https://dc.lft.to/lastmile_qr_scan"}}, {"name": "15020b55648b2b003f923e54dfa973f5", "lon": -77.04162633333334, "lat": 38.914869333333336, "type": "electric_scooter", "fusion_lon": 0.0, "is_reserved": 0, "bike_id": "15020b55648b2b003f923e54dfa973f5", "fusion_lat": 0.0, "is_disabled": 0, "rental_uris": {"ios": "https://dc.lft.to/lastmile_qr_scan", "android": "https://dc.lft.to/lastmile_qr_scan"}}, {"name": "49419a37fcb53ed5766d13d8be46a1f2", "lon": -77.022477, "lat": 38.912719, "type": "electric_scooter", "fusion_lon": 0.0, "is_reserved": 0, "bike_id": "49419a37fcb53ed5766d13d8be46a1f2", "fusion_lat": 0.0, "is_disabled": 0, "rental_uris": {"ios": "https://dc.lft.to/lastmile_qr_scan", "android": "https://dc.lft.to/lastmile_qr_scan"}}, {"name": "99977dc59a96a861b094a98b475defc5", "lon": -77.0576905, "lat": 38.905329333333334, "type": "electric_scooter", "fusion_lon": 0.0, "is_reserved": 0, "bike_id": "99977dc59a96a861b094a98b475defc5", "fusion_lat": 0.0, "is_disabled": 0, "rental_uris": {"ios": "https://dc.lft.to/lastmile_qr_scan", "android": "https://dc.lft.to/lastmile_qr_scan"}}, {"name": "0cbd5b0efa90d6e2bfda5b9dda9bb430", "lon": -77.05050216666666, "lat": 38.92357233333333, "type": "electric_scooter", "fusion_lon": 0.0, "is_reserved": 0, "bike_id": "0cbd5b0efa90d6e2bfda5b9dda9bb430", "fusion_lat": 0.0, "is_disabled": 0, "rental_uris": {"ios": "https://dc.lft.to/lastmile_qr_scan", "android": "https://dc.lft.to/lastmile_qr_scan"}}, {"name": "1c12748291d82f79a713aa65eb863a22", "lon": -77.05236033333334, "lat": 38.92465516666667, "type": "electric_scooter", "fusion_lon": 0.0, "is_reserved": 0, "bike_id": "1c12748291d82f79a713aa65eb863a22", "fusion_lat": 0.0, "is_disabled": 0, "rental_uris": {"ios": "https://dc.lft.to/lastmile_qr_scan", "android": "https://dc.lft.to/lastmile_qr_scan"}}, {"name": "371fb52773a39a956b9502bf0fbe9e29", "lon": -77.06924516666666, "lat": 38.91360316666667, "type": "electric_scooter", "fusion_lon": 0.0, "is_reserved": 0, "bike_id": "371fb52773a39a956b9502bf0fbe9e29", "fusion_lat": 0.0, "is_disabled": 0, "rental_uris": {"ios": "https://dc.lft.to/lastmile_qr_scan", "android": "https://dc.lft.to/lastmile_qr_scan"}}, {"name": "2c1347650ed9e5449dc10e4cfa02f011", "lon": -76.9828685, "lat": 38.899847333333334, "type": "electric_scooter", "fusion_lon": 0.0, "is_reserved": 0, "bike_id": "2c1347650ed9e5449dc10e4cfa02f011", "fusion_lat": 0.0, "is_disabled": 0, "rental_uris": {"ios": "https://dc.lft.to/lastmile_qr_scan", "android": "https://dc.lft.to/lastmile_qr_scan"}}, {"name": "3fd00f0b730753ea6e388e875b477b1f", "lon": -77.0174835, "lat": 38.917154333333336, "type": "electric_scooter", "fusion_lon": 0.0, "is_reserved": 0, "bike_id": "3fd00f0b730753ea6e388e875b477b1f", "fusion_lat": 0.0, "is_disabled": 0, "rental_uris": {"ios": "https://dc.lft.to/lastmile_qr_scan", "android": "https://dc.lft.to/lastmile_qr_scan"}}, {"name": "8b81f1a6e9d9a2783d30f6001131f91a", "lon": -77.02693616666667, "lat": 38.908706, "type": "electric_scooter", "fusion_lon": 0.0, "is_reserved": 0, "bike_id": "8b81f1a6e9d9a2783d30f6001131f91a", "fusion_lat": 0.0, "is_disabled": 0, "rental_uris": {"ios": "https://dc.lft.to/lastmile_qr_scan", "android": "https://dc.lft.to/lastmile_qr_scan"}}, {"name": "b7c7b3e8319589f56b1b11321058d23b", "lon": -76.998798, "lat": 38.90126733333334, "type": "electric_scooter", "fusion_lon": 0.0, "is_reserved": 0, "bike_id": "b7c7b3e8319589f56b1b11321058d23b", "fusion_lat": 0.0, "is_disabled": 0, "rental_uris": {"ios": "https://dc.lft.to/lastmile_qr_scan", "android": "https://dc.lft.to/lastmile_qr_scan"}}, {"name": "47fdd9514f9dde4d028f7e3b097bb601", "lon": -77.00893366666666, "lat": 38.91088633333333, "type": "electric_bike", "fusion_lon": 0.0, "is_reserved": 0, "bike_id": "47fdd9514f9dde4d028f7e3b097bb601", "fusion_lat": 0.0, "is_disabled": 0, "rental_uris": {"ios": "https://dc.lft.to/lastmile_qr_scan", "android": "https://dc.lft.to/lastmile_qr_scan"}}, {"name": "d4c7babbcbcf14eb44af100257ce97c6", "lon": -77.0123945, "lat": 38.91695966666666, "type": "electric_scooter", "fusion_lon": 0.0, "is_reserved": 0, "bike_id": "d4c7babbcbcf14eb44af100257ce97c6", "fusion_lat": 0.0, "is_disabled": 0, "rental_uris": {"ios": "https://dc.lft.to/lastmile_qr_scan", "android": "https://dc.lft.to/lastmile_qr_scan"}}, {"name": "98be1278c61f83ee6e813f4443cceb92", "lon": -77.03848116666667, "lat": 38.91046333333333, "type": "electric_scooter", "fusion_lon": 0.0, "is_reserved": 0, "bike_id": "98be1278c61f83ee6e813f4443cceb92", "fusion_lat": 0.0, "is_disabled": 0, "rental_uris": {"ios": "https://dc.lft.to/lastmile_qr_scan", "android": "https://dc.lft.to/lastmile_qr_scan"}}, {"name": "d05d182e047e293a228f3cdd311dc58d", "lon": -76.94423066666667, "lat": 38.966198, "type": "electric_bike", "fusion_lon": 0.0, "is_reserved": 0, "bike_id": "d05d182e047e293a228f3cdd311dc58d", "fusion_lat": 0.0, "is_disabled": 0, "rental_uris": {"ios": "https://dc.lft.to/lastmile_qr_scan", "android": "https://dc.lft.to/lastmile_qr_scan"}}, {"name": "efa10c0ac4dfaada9f990fb9bc36cb5e", "lon": -77.02479083333333, "lat": 38.92052483333333, "type": "electric_scooter", "fusion_lon": 0.0, "is_reserved": 0, "bike_id": "efa10c0ac4dfaada9f990fb9bc36cb5e", "fusion_lat": 0.0, "is_disabled": 0, "rental_uris": {"ios": "https://dc.lft.to/lastmile_qr_scan", "android": "https://dc.lft.to/lastmile_qr_scan"}}, {"name": "3f4f88416368d12b3cd3ec9d8a6da5a9", "lon": -77.02179733333334, "lat": 38.91434816666667, "type": "electric_scooter", "fusion_lon": 0.0, "is_reserved": 0, "bike_id": "3f4f88416368d12b3cd3ec9d8a6da5a9", "fusion_lat": 0.0, "is_disabled": 0, "rental_uris": {"ios": "https://dc.lft.to/lastmile_qr_scan", "android": "https://dc.lft.to/lastmile_qr_scan"}}, {"name": "bb72df741a8276a959da7728cda9256b", "lon": -77.05207466666667, "lat": 38.9037365, "type": "electric_scooter", "fusion_lon": 0.0, "is_reserved": 0, "bike_id": "bb72df741a8276a959da7728cda9256b", "fusion_lat": 0.0, "is_disabled": 0, "rental_uris": {"ios": "https://dc.lft.to/lastmile_qr_scan", "android": "https://dc.lft.to/lastmile_qr_scan"}}, {"name": "d2534a679815a2e50b900030f398f157", "lon": -77.03243883333333, "lat": 38.9235575, "type": "electric_scooter", "fusion_lon": 0.0, "is_reserved": 0, "bike_id": "d2534a679815a2e50b900030f398f157", "fusion_lat": 0.0, "is_disabled": 0, "rental_uris": {"ios": "https://dc.lft.to/lastmile_qr_scan", "android": "https://dc.lft.to/lastmile_qr_scan"}}, {"name": "545630fe5f1c94c96153529e6e81268d", "lon": -77.02885466666666, "lat": 38.904221166666666, "type": "electric_scooter", "fusion_lon": 0.0, "is_reserved": 0, "bike_id": "545630fe5f1c94c96153529e6e81268d", "fusion_lat": 0.0, "is_disabled": 0, "rental_uris": {"ios": "https://dc.lft.to/lastmile_qr_scan", "android": "https://dc.lft.to/lastmile_qr_scan"}}, {"name": "ad02156ff2809fdd505b90c3ae6589d3", "lon": -77.02802366666667, "lat": 38.932982, "type": "electric_scooter", "fusion_lon": 0.0, "is_reserved": 0, "bike_id": "ad02156ff2809fdd505b90c3ae6589d3", "fusion_lat": 0.0, "is_disabled": 0, "rental_uris": {"ios": "https://dc.lft.to/lastmile_qr_scan", "android": "https://dc.lft.to/lastmile_qr_scan"}}, {"name": "2f2897d3c67b769682bbead336a768f4", "lon": -77.00267866666667, "lat": 38.8871695, "type": "electric_scooter", "fusion_lon": 0.0, "is_reserved": 0, "bike_id": "2f2897d3c67b769682bbead336a768f4", "fusion_lat": 0.0, "is_disabled": 0, "rental_uris": {"ios": "https://dc.lft.to/lastmile_qr_scan", "android": "https://dc.lft.to/lastmile_qr_scan"}}, {"name": "a9b9e66bbd2602014707361993047b51", "lon": -77.0336195, "lat": 38.92891066666667, "type": "electric_scooter", "fusion_lon": 0.0, "is_reserved": 0, "bike_id": "a9b9e66bbd2602014707361993047b51", "fusion_lat": 0.0, "is_disabled": 0, "rental_uris": {"ios": "https://dc.lft.to/lastmile_qr_scan", "android": "https://dc.lft.to/lastmile_qr_scan"}}, {"name": "756cffacc8c4da920cf746cb3a102835", "lon": -77.023962, "lat": 38.917420166666666, "type": "electric_scooter", "fusion_lon": 0.0, "is_reserved": 0, "bike_id": "756cffacc8c4da920cf746cb3a102835", "fusion_lat": 0.0, "is_disabled": 0, "rental_uris": {"ios": "https://dc.lft.to/lastmile_qr_scan", "android": "https://dc.lft.to/lastmile_qr_scan"}}, {"name": "aeca4ea7d485bf6f4e318274ee44d78c", "lon": -77.04701716666666, "lat": 38.90230783333333, "type": "electric_scooter", "fusion_lon": 0.0, "is_reserved": 0, "bike_id": "aeca4ea7d485bf6f4e318274ee44d78c", "fusion_lat": 0.0, "is_disabled": 0, "rental_uris": {"ios": "https://dc.lft.to/lastmile_qr_scan", "android": "https://dc.lft.to/lastmile_qr_scan"}}, {"name": "8cf18bdb5c2cbaeb3cf4c6f41857a6c6", "lon": -76.96713566666666, "lat": 38.847987833333335, "type": "electric_scooter", "fusion_lon": 0.0, "is_reserved": 0, "bike_id": "8cf18bdb5c2cbaeb3cf4c6f41857a6c6", "fusion_lat": 0.0, "is_disabled": 0, "rental_uris": {"ios": "https://dc.lft.to/lastmile_qr_scan", "android": "https://dc.lft.to/lastmile_qr_scan"}}, {"name": "9139249e897c22507a81e474f9facd3c", "lon": -77.03459316666667, "lat": 38.9049135, "type": "electric_scooter", "fusion_lon": 0.0, "is_reserved": 0, "bike_id": "9139249e897c22507a81e474f9facd3c", "fusion_lat": 0.0, "is_disabled": 0, "rental_uris": {"ios": "https://dc.lft.to/lastmile_qr_scan", "android": "https://dc.lft.to/lastmile_qr_scan"}}, {"name": "2662758ece337a012b065c3ef30c8755", "lon": -77.02347316666666, "lat": 38.94615133333333, "type": "electric_scooter", "fusion_lon": 0.0, "is_reserved": 0, "bike_id": "2662758ece337a012b065c3ef30c8755", "fusion_lat": 0.0, "is_disabled": 0, "rental_uris": {"ios": "https://dc.lft.to/lastmile_qr_scan", "android": "https://dc.lft.to/lastmile_qr_scan"}}, {"name": "f9884d4602554d70323f01bece41535c", "lon": -77.051326, "lat": 38.907149, "type": "electric_scooter", "fusion_lon": 0.0, "is_reserved": 0, "bike_id": "f9884d4602554d70323f01bece41535c", "fusion_lat": 0.0, "is_disabled": 0, "rental_uris": {"ios": "https://dc.lft.to/lastmile_qr_scan", "android": "https://dc.lft.to/lastmile_qr_scan"}}, {"name": "0fd43a3b4f062e270202d295afc57418", "lon": -76.9233245, "lat": 38.87111633333333, "type": "electric_bike", "fusion_lon": 0.0, "is_reserved": 0, "bike_id": "0fd43a3b4f062e270202d295afc57418", "fusion_lat": 0.0, "is_disabled": 0, "rental_uris": {"ios": "https://dc.lft.to/lastmile_qr_scan", "android": "https://dc.lft.to/lastmile_qr_scan"}}, {"name": "8f33eaa3559baa41e2cb2fdd732ba444", "lon": -76.98098683333333, "lat": 38.9210365, "type": "electric_bike", "fusion_lon": 0.0, "is_reserved": 0, "bike_id": "8f33eaa3559baa41e2cb2fdd732ba444", "fusion_lat": 0.0, "is_disabled": 0, "rental_uris": {"ios": "https://dc.lft.to/lastmile_qr_scan", "android": "https://dc.lft.to/lastmile_qr_scan"}}, {"name": "5511d5c6304467a518b713d59613843a", "lon": -77.0317965, "lat": 38.91684016666667, "type": "electric_scooter", "fusion_lon": 0.0, "is_reserved": 0, "bike_id": "5511d5c6304467a518b713d59613843a", "fusion_lat": 0.0, "is_disabled": 0, "rental_uris": {"ios": "https://dc.lft.to/lastmile_qr_scan", "android": "https://dc.lft.to/lastmile_qr_scan"}}, {"name": "cf43cbf19b4e0a9491b6ecb5783a2a8e", "lon": -77.02684766666667, "lat": 38.881293666666664, "type": "electric_scooter", "fusion_lon": 0.0, "is_reserved": 0, "bike_id": "cf43cbf19b4e0a9491b6ecb5783a2a8e", "fusion_lat": 0.0, "is_disabled": 0, "rental_uris": {"ios": "https://dc.lft.to/lastmile_qr_scan", "android": "https://dc.lft.to/lastmile_qr_scan"}}, {"name": "a1328f24ead7ee10d777b260563dac78", "lon": -77.04008083333333, "lat": 38.904223333333334, "type": "electric_scooter", "fusion_lon": 0.0, "is_reserved": 0, "bike_id": "a1328f24ead7ee10d777b260563dac78", "fusion_lat": 0.0, "is_disabled": 0, "rental_uris": {"ios": "https://dc.lft.to/lastmile_qr_scan", "android": "https://dc.lft.to/lastmile_qr_scan"}}, {"name": "9e6bab84b58caedcc9d9e0d9e833ee71", "lon": -77.04191433333334, "lat": 38.901217833333334, "type": "electric_scooter", "fusion_lon": 0.0, "is_reserved": 0, "bike_id": "9e6bab84b58caedcc9d9e0d9e833ee71", "fusion_lat": 0.0, "is_disabled": 0, "rental_uris": {"ios": "https://dc.lft.to/lastmile_qr_scan", "android": "https://dc.lft.to/lastmile_qr_scan"}}, {"name": "6a40ab41a068dddbc1d41f5fed979e21", "lon": -77.0264555, "lat": 38.9844955, "type": "electric_scooter", "fusion_lon": 0.0, "is_reserved": 0, "bike_id": "6a40ab41a068dddbc1d41f5fed979e21", "fusion_lat": 0.0, "is_disabled": 0, "rental_uris": {"ios": "https://dc.lft.to/lastmile_qr_scan", "android": "https://dc.lft.to/lastmile_qr_scan"}}, {"name": "f1e987dc0d2ffe8dc0b23bd80d303ec2", "lon": -77.02811983333334, "lat": 38.9104325, "type": "electric_scooter", "fusion_lon": 0.0, "is_reserved": 0, "bike_id": "f1e987dc0d2ffe8dc0b23bd80d303ec2", "fusion_lat": 0.0, "is_disabled": 0, "rental_uris": {"ios": "https://dc.lft.to/lastmile_qr_scan", "android": "https://dc.lft.to/lastmile_qr_scan"}}, {"name": "ab820afb75a92c6ce2f90c86483d535e", "lon": -77.00482316666667, "lat": 38.874775666666665, "type": "electric_scooter", "fusion_lon": 0.0, "is_reserved": 0, "bike_id": "ab820afb75a92c6ce2f90c86483d535e", "fusion_lat": 0.0, "is_disabled": 0, "rental_uris": {"ios": "https://dc.lft.to/lastmile_qr_scan", "android": "https://dc.lft.to/lastmile_qr_scan"}}, {"name": "c3387b77be38b103abaaab9e0721cd74", "lon": -77.0281745, "lat": 38.91691866666667, "type": "electric_scooter", "fusion_lon": 0.0, "is_reserved": 0, "bike_id": "c3387b77be38b103abaaab9e0721cd74", "fusion_lat": 0.0, "is_disabled": 0, "rental_uris": {"ios": "https://dc.lft.to/lastmile_qr_scan", "android": "https://dc.lft.to/lastmile_qr_scan"}}, {"name": "f1e769c7b1f46833e0d5c46a26314387", "lon": -76.909822, "lat": 38.85431033333333, "type": "electric_bike", "fusion_lon": 0.0, "is_reserved": 0, "bike_id": "f1e769c7b1f46833e0d5c46a26314387", "fusion_lat": 0.0, "is_disabled": 0, "rental_uris": {"ios": "https://dc.lft.to/lastmile_qr_scan", "android": "https://dc.lft.to/lastmile_qr_scan"}}, {"name": "403d7a6b4779dd383e8d78f0aa453cfc", "lon": -77.0409605, "lat": 38.91785266666667, "type": "electric_scooter", "fusion_lon": 0.0, "is_reserved": 0, "bike_id": "403d7a6b4779dd383e8d78f0aa453cfc", "fusion_lat": 0.0, "is_disabled": 0, "rental_uris": {"ios": "https://dc.lft.to/lastmile_qr_scan", "android": "https://dc.lft.to/lastmile_qr_scan"}}, {"name": "c146dcc3b8d168caf6106b6e6225772b", "lon": -77.0432795, "lat": 38.892225833333335, "type": "electric_scooter", "fusion_lon": 0.0, "is_reserved": 0, "bike_id": "c146dcc3b8d168caf6106b6e6225772b", "fusion_lat": 0.0, "is_disabled": 0, "rental_uris": {"ios": "https://dc.lft.to/lastmile_qr_scan", "android": "https://dc.lft.to/lastmile_qr_scan"}}, {"name": "a448487bfde877766e485c6d6acd927d", "lon": -77.03263483333333, "lat": 38.9462515, "type": "electric_scooter", "fusion_lon": 0.0, "is_reserved": 0, "bike_id": "a448487bfde877766e485c6d6acd927d", "fusion_lat": 0.0, "is_disabled": 0, "rental_uris": {"ios": "https://dc.lft.to/lastmile_qr_scan", "android": "https://dc.lft.to/lastmile_qr_scan"}}, {"name": "db4d72381db94c4ca4e32289b81062f0", "lon": -77.03211183333333, "lat": 38.919721333333335, "type": "electric_scooter", "fusion_lon": 0.0, "is_reserved": 0, "bike_id": "db4d72381db94c4ca4e32289b81062f0", "fusion_lat": 0.0, "is_disabled": 0, "rental_uris": {"ios": "https://dc.lft.to/lastmile_qr_scan", "android": "https://dc.lft.to/lastmile_qr_scan"}}, {"name": "a4997d238e49fb4e2a1b79eb68899b7f", "lon": -77.04625483333334, "lat": 38.91585366666666, "type": "electric_scooter", "fusion_lon": 0.0, "is_reserved": 0, "bike_id": "a4997d238e49fb4e2a1b79eb68899b7f", "fusion_lat": 0.0, "is_disabled": 0, "rental_uris": {"ios": "https://dc.lft.to/lastmile_qr_scan", "android": "https://dc.lft.to/lastmile_qr_scan"}}, {"name": "042f0161f8d7f721aaff98c4a4bf0f12", "lon": -77.04100116666666, "lat": 38.91773666666667, "type": "electric_scooter", "fusion_lon": 0.0, "is_reserved": 0, "bike_id": "042f0161f8d7f721aaff98c4a4bf0f12", "fusion_lat": 0.0, "is_disabled": 0, "rental_uris": {"ios": "https://dc.lft.to/lastmile_qr_scan", "android": "https://dc.lft.to/lastmile_qr_scan"}}, {"name": "1f050e9b3f7cfdb3527a9a14ae2a2135", "lon": -77.069245, "lat": 38.90773683333333, "type": "electric_scooter", "fusion_lon": 0.0, "is_reserved": 0, "bike_id": "1f050e9b3f7cfdb3527a9a14ae2a2135", "fusion_lat": 0.0, "is_disabled": 0, "rental_uris": {"ios": "https://dc.lft.to/lastmile_qr_scan", "android": "https://dc.lft.to/lastmile_qr_scan"}}, {"name": "76ad99a56005b81b3ddc1b79eb52a574", "lon": -77.02143066666666, "lat": 38.93762016666667, "type": "electric_scooter", "fusion_lon": 0.0, "is_reserved": 0, "bike_id": "76ad99a56005b81b3ddc1b79eb52a574", "fusion_lat": 0.0, "is_disabled": 0, "rental_uris": {"ios": "https://dc.lft.to/lastmile_qr_scan", "android": "https://dc.lft.to/lastmile_qr_scan"}}, {"name": "1f42182426adff0c5e078592b1d37b11", "lon": -77.05018916666667, "lat": 38.90519916666667, "type": "electric_scooter", "fusion_lon": 0.0, "is_reserved": 0, "bike_id": "1f42182426adff0c5e078592b1d37b11", "fusion_lat": 0.0, "is_disabled": 0, "rental_uris": {"ios": "https://dc.lft.to/lastmile_qr_scan", "android": "https://dc.lft.to/lastmile_qr_scan"}}, {"name": "cc8576a6a642791f47bb3a8a3e7e014b", "lon": -77.0271225, "lat": 38.908436333333334, "type": "electric_bike", "fusion_lon": 0.0, "is_reserved": 0, "bike_id": "cc8576a6a642791f47bb3a8a3e7e014b", "fusion_lat": 0.0, "is_disabled": 0, "rental_uris": {"ios": "https://dc.lft.to/lastmile_qr_scan", "android": "https://dc.lft.to/lastmile_qr_scan"}}, {"name": "90a9264d2783c5c05799efec7b772893", "lon": -77.030946, "lat": 38.93169183333333, "type": "electric_scooter", "fusion_lon": 0.0, "is_reserved": 0, "bike_id": "90a9264d2783c5c05799efec7b772893", "fusion_lat": 0.0, "is_disabled": 0, "rental_uris": {"ios": "https://dc.lft.to/lastmile_qr_scan", "android": "https://dc.lft.to/lastmile_qr_scan"}}, {"name": "bf50c21717eef562f0415769616db20e", "lon": -77.0281065, "lat": 38.8817915, "type": "electric_scooter", "fusion_lon": 0.0, "is_reserved": 0, "bike_id": "bf50c21717eef562f0415769616db20e", "fusion_lat": 0.0, "is_disabled": 0, "rental_uris": {"ios": "https://dc.lft.to/lastmile_qr_scan", "android": "https://dc.lft.to/lastmile_qr_scan"}}, {"name": "8540beac552cc41c87ee0414429074a2", "lon": -76.98688733333333, "lat": 38.94472783333333, "type": "electric_bike", "fusion_lon": 0.0, "is_reserved": 0, "bike_id": "8540beac552cc41c87ee0414429074a2", "fusion_lat": 0.0, "is_disabled": 0, "rental_uris": {"ios": "https://dc.lft.to/lastmile_qr_scan", "android": "https://dc.lft.to/lastmile_qr_scan"}}, {"name": "54eaf0c4a9da9389443cc885cb073474", "lon": -77.0366955, "lat": 38.927230333333334, "type": "electric_scooter", "fusion_lon": 0.0, "is_reserved": 0, "bike_id": "54eaf0c4a9da9389443cc885cb073474", "fusion_lat": 0.0, "is_disabled": 0, "rental_uris": {"ios": "https://dc.lft.to/lastmile_qr_scan", "android": "https://dc.lft.to/lastmile_qr_scan"}}, {"name": "297f9e284d53b5666df8b9013d479b71", "lon": -77.02423166666667, "lat": 38.905990333333335, "type": "electric_scooter", "fusion_lon": 0.0, "is_reserved": 0, "bike_id": "297f9e284d53b5666df8b9013d479b71", "fusion_lat": 0.0, "is_disabled": 0, "rental_uris": {"ios": "https://dc.lft.to/lastmile_qr_scan", "android": "https://dc.lft.to/lastmile_qr_scan"}}, {"name": "e04cdb19aad01759e6d0de3865bb5f30", "lon": -77.043474, "lat": 38.90661516666667, "type": "electric_scooter", "fusion_lon": 0.0, "is_reserved": 0, "bike_id": "e04cdb19aad01759e6d0de3865bb5f30", "fusion_lat": 0.0, "is_disabled": 0, "rental_uris": {"ios": "https://dc.lft.to/lastmile_qr_scan", "android": "https://dc.lft.to/lastmile_qr_scan"}}, {"name": "1b917aa9a6e5e5d35294545e2e32e0ad", "lon": -77.01413516666666, "lat": 38.92870033333333, "type": "electric_scooter", "fusion_lon": 0.0, "is_reserved": 0, "bike_id": "1b917aa9a6e5e5d35294545e2e32e0ad", "fusion_lat": 0.0, "is_disabled": 0, "rental_uris": {"ios": "https://dc.lft.to/lastmile_qr_scan", "android": "https://dc.lft.to/lastmile_qr_scan"}}, {"name": "dc7cf603b515fe36e8142932238a3b21", "lon": -76.999071, "lat": 38.948233, "type": "electric_scooter", "fusion_lon": 0.0, "is_reserved": 0, "bike_id": "dc7cf603b515fe36e8142932238a3b21", "fusion_lat": 0.0, "is_disabled": 0, "rental_uris": {"ios": "https://dc.lft.to/lastmile_qr_scan", "android": "https://dc.lft.to/lastmile_qr_scan"}}, {"name": "2b2975c73991a6dcf34562f1731023ca", "lon": -77.04032466666666, "lat": 38.918410333333334, "type": "electric_scooter", "fusion_lon": 0.0, "is_reserved": 0, "bike_id": "2b2975c73991a6dcf34562f1731023ca", "fusion_lat": 0.0, "is_disabled": 0, "rental_uris": {"ios": "https://dc.lft.to/lastmile_qr_scan", "android": "https://dc.lft.to/lastmile_qr_scan"}}, {"name": "a40e1d6c54e2942d8a2cb72c05250840", "lon": -77.03209116666666, "lat": 38.89221333333333, "type": "electric_scooter", "fusion_lon": 0.0, "is_reserved": 0, "bike_id": "a40e1d6c54e2942d8a2cb72c05250840", "fusion_lat": 0.0, "is_disabled": 0, "rental_uris": {"ios": "https://dc.lft.to/lastmile_qr_scan", "android": "https://dc.lft.to/lastmile_qr_scan"}}, {"name": "39f183f56643f85ae151ac658d978cd9", "lon": -77.002442, "lat": 38.957178166666665, "type": "electric_scooter", "fusion_lon": 0.0, "is_reserved": 0, "bike_id": "39f183f56643f85ae151ac658d978cd9", "fusion_lat": 0.0, "is_disabled": 0, "rental_uris": {"ios": "https://dc.lft.to/lastmile_qr_scan", "android": "https://dc.lft.to/lastmile_qr_scan"}}, {"name": "cef439f7d3af2a75adc46f029d21da48", "lon": -77.05994783333334, "lat": 38.901847833333335, "type": "electric_scooter", "fusion_lon": 0.0, "is_reserved": 0, "bike_id": "cef439f7d3af2a75adc46f029d21da48", "fusion_lat": 0.0, "is_disabled": 0, "rental_uris": {"ios": "https://dc.lft.to/lastmile_qr_scan", "android": "https://dc.lft.to/lastmile_qr_scan"}}, {"name": "8dd8a0faa4ad7f9ef0c0cf69573ce5ed", "lon": -77.02493133333333, "lat": 38.943110833333336, "type": "electric_scooter", "fusion_lon": 0.0, "is_reserved": 0, "bike_id": "8dd8a0faa4ad7f9ef0c0cf69573ce5ed", "fusion_lat": 0.0, "is_disabled": 0, "rental_uris": {"ios": "https://dc.lft.to/lastmile_qr_scan", "android": "https://dc.lft.to/lastmile_qr_scan"}}, {"name": "7cecc0885a2d649974511ae782e9f328", "lon": -77.07578666666667, "lat": 38.93861833333333, "type": "electric_scooter", "fusion_lon": 0.0, "is_reserved": 0, "bike_id": "7cecc0885a2d649974511ae782e9f328", "fusion_lat": 0.0, "is_disabled": 0, "rental_uris": {"ios": "https://dc.lft.to/lastmile_qr_scan", "android": "https://dc.lft.to/lastmile_qr_scan"}}, {"name": "53d7d653a05be6bc2ceead7586b4abc9", "lon": -77.02985133333334, "lat": 38.89755983333333, "type": "electric_scooter", "fusion_lon": 0.0, "is_reserved": 0, "bike_id": "53d7d653a05be6bc2ceead7586b4abc9", "fusion_lat": 0.0, "is_disabled": 0, "rental_uris": {"ios": "https://dc.lft.to/lastmile_qr_scan", "android": "https://dc.lft.to/lastmile_qr_scan"}}, {"name": "b20819a4c72e6d17d2922315d2a845d7", "lon": -76.99678966666667, "lat": 38.9248755, "type": "electric_bike", "fusion_lon": 0.0, "is_reserved": 0, "bike_id": "b20819a4c72e6d17d2922315d2a845d7", "fusion_lat": 0.0, "is_disabled": 0, "rental_uris": {"ios": "https://dc.lft.to/lastmile_qr_scan", "android": "https://dc.lft.to/lastmile_qr_scan"}}, {"name": "09b60349f43807f81c1919683f53fa2c", "lon": -77.02330016666667, "lat": 38.878981333333336, "type": "electric_scooter", "fusion_lon": 0.0, "is_reserved": 0, "bike_id": "09b60349f43807f81c1919683f53fa2c", "fusion_lat": 0.0, "is_disabled": 0, "rental_uris": {"ios": "https://dc.lft.to/lastmile_qr_scan", "android": "https://dc.lft.to/lastmile_qr_scan"}}, {"name": "f9ff20a1437b96dd0ad67f8eb3baa08b", "lon": -77.03194283333333, "lat": 38.915728333333334, "type": "electric_scooter", "fusion_lon": 0.0, "is_reserved": 0, "bike_id": "f9ff20a1437b96dd0ad67f8eb3baa08b", "fusion_lat": 0.0, "is_disabled": 0, "rental_uris": {"ios": "https://dc.lft.to/lastmile_qr_scan", "android": "https://dc.lft.to/lastmile_qr_scan"}}, {"name": "3e4751f1fb69c25d4cd8b64e130dc70b", "lon": -77.02199033333333, "lat": 38.91297266666667, "type": "electric_scooter", "fusion_lon": 0.0, "is_reserved": 0, "bike_id": "3e4751f1fb69c25d4cd8b64e130dc70b", "fusion_lat": 0.0, "is_disabled": 0, "rental_uris": {"ios": "https://dc.lft.to/lastmile_qr_scan", "android": "https://dc.lft.to/lastmile_qr_scan"}}, {"name": "2d87b348c426e17aaf232ba7c5f4f958", "lon": -77.06111233333333, "lat": 38.939917333333334, "type": "electric_scooter", "fusion_lon": 0.0, "is_reserved": 0, "bike_id": "2d87b348c426e17aaf232ba7c5f4f958", "fusion_lat": 0.0, "is_disabled": 0, "rental_uris": {"ios": "https://dc.lft.to/lastmile_qr_scan", "android": "https://dc.lft.to/lastmile_qr_scan"}}, {"name": "0fc5eda163bcba7440541bb48f5420fc", "lon": -77.0253085, "lat": 38.94255583333333, "type": "electric_scooter", "fusion_lon": 0.0, "is_reserved": 0, "bike_id": "0fc5eda163bcba7440541bb48f5420fc", "fusion_lat": 0.0, "is_disabled": 0, "rental_uris": {"ios": "https://dc.lft.to/lastmile_qr_scan", "android": "https://dc.lft.to/lastmile_qr_scan"}}, {"name": "c6eb61c0f087b2dd6d407dde4e37a3da", "lon": -77.0230015, "lat": 38.920845666666665, "type": "electric_scooter", "fusion_lon": 0.0, "is_reserved": 0, "bike_id": "c6eb61c0f087b2dd6d407dde4e37a3da", "fusion_lat": 0.0, "is_disabled": 0, "rental_uris": {"ios": "https://dc.lft.to/lastmile_qr_scan", "android": "https://dc.lft.to/lastmile_qr_scan"}}, {"name": "f2cd3e626b61d5764fab1bc77e4a257e", "lon": -76.99113516666667, "lat": 38.91018233333333, "type": "electric_scooter", "fusion_lon": 0.0, "is_reserved": 0, "bike_id": "f2cd3e626b61d5764fab1bc77e4a257e", "fusion_lat": 0.0, "is_disabled": 0, "rental_uris": {"ios": "https://dc.lft.to/lastmile_qr_scan", "android": "https://dc.lft.to/lastmile_qr_scan"}}, {"name": "2bd8b021fd4fe44acd8a82e806e8fc4f", "lon": -77.04949866666666, "lat": 38.905209, "type": "electric_scooter", "fusion_lon": 0.0, "is_reserved": 0, "bike_id": "2bd8b021fd4fe44acd8a82e806e8fc4f", "fusion_lat": 0.0, "is_disabled": 0, "rental_uris": {"ios": "https://dc.lft.to/lastmile_qr_scan", "android": "https://dc.lft.to/lastmile_qr_scan"}}, {"name": "07413b01aedd211b2486cb5b1c2f4afd", "lon": -76.98656266666667, "lat": 38.900209833333335, "type": "electric_scooter", "fusion_lon": 0.0, "is_reserved": 0, "bike_id": "07413b01aedd211b2486cb5b1c2f4afd", "fusion_lat": 0.0, "is_disabled": 0, "rental_uris": {"ios": "https://dc.lft.to/lastmile_qr_scan", "android": "https://dc.lft.to/lastmile_qr_scan"}}, {"name": "27ac6c5c3bd61d893e948449c97a35d4", "lon": -77.01524933333333, "lat": 38.8865345, "type": "electric_scooter", "fusion_lon": 0.0, "is_reserved": 0, "bike_id": "27ac6c5c3bd61d893e948449c97a35d4", "fusion_lat": 0.0, "is_disabled": 0, "rental_uris": {"ios": "https://dc.lft.to/lastmile_qr_scan", "android": "https://dc.lft.to/lastmile_qr_scan"}}, {"name": "ea014d56d0f0bf927fef2ab184c41b34", "lon": -76.982301, "lat": 38.864685333333334, "type": "electric_scooter", "fusion_lon": 0.0, "is_reserved": 0, "bike_id": "ea014d56d0f0bf927fef2ab184c41b34", "fusion_lat": 0.0, "is_disabled": 0, "rental_uris": {"ios": "https://dc.lft.to/lastmile_qr_scan", "android": "https://dc.lft.to/lastmile_qr_scan"}}, {"name": "503ee0928b62ac247fc0bcddc3dc8f99", "lon": -77.044071, "lat": 38.91412533333333, "type": "electric_scooter", "fusion_lon": 0.0, "is_reserved": 0, "bike_id": "503ee0928b62ac247fc0bcddc3dc8f99", "fusion_lat": 0.0, "is_disabled": 0, "rental_uris": {"ios": "https://dc.lft.to/lastmile_qr_scan", "android": "https://dc.lft.to/lastmile_qr_scan"}}, {"name": "2bdc9ef073515c2d89db8a78410a18ab", "lon": -77.04074383333334, "lat": 38.917117833333336, "type": "electric_scooter", "fusion_lon": 0.0, "is_reserved": 0, "bike_id": "2bdc9ef073515c2d89db8a78410a18ab", "fusion_lat": 0.0, "is_disabled": 0, "rental_uris": {"ios": "https://dc.lft.to/lastmile_qr_scan", "android": "https://dc.lft.to/lastmile_qr_scan"}}, {"name": "4677dbc2d2e309d28c7576bca71f193e", "lon": -77.04341833333334, "lat": 38.905645666666665, "type": "electric_scooter", "fusion_lon": 0.0, "is_reserved": 0, "bike_id": "4677dbc2d2e309d28c7576bca71f193e", "fusion_lat": 0.0, "is_disabled": 0, "rental_uris": {"ios": "https://dc.lft.to/lastmile_qr_scan", "android": "https://dc.lft.to/lastmile_qr_scan"}}, {"name": "8a3433a735d4ea5bc1c73b9c89669d49", "lon": -77.03360666666667, "lat": 38.903817833333335, "type": "electric_scooter", "fusion_lon": 0.0, "is_reserved": 0, "bike_id": "8a3433a735d4ea5bc1c73b9c89669d49", "fusion_lat": 0.0, "is_disabled": 0, "rental_uris": {"ios": "https://dc.lft.to/lastmile_qr_scan", "android": "https://dc.lft.to/lastmile_qr_scan"}}, {"name": "22aeb913f87c22e9b72abf5cc445f461", "lon": -77.030374, "lat": 38.9132885, "type": "electric_scooter", "fusion_lon": 0.0, "is_reserved": 0, "bike_id": "22aeb913f87c22e9b72abf5cc445f461", "fusion_lat": 0.0, "is_disabled": 0, "rental_uris": {"ios": "https://dc.lft.to/lastmile_qr_scan", "android": "https://dc.lft.to/lastmile_qr_scan"}}, {"name": "fee5c9bb88da1f25333854d6518bb3ef", "lon": -77.03691933333333, "lat": 38.930669, "type": "electric_scooter", "fusion_lon": 0.0, "is_reserved": 0, "bike_id": "fee5c9bb88da1f25333854d6518bb3ef", "fusion_lat": 0.0, "is_disabled": 0, "rental_uris": {"ios": "https://dc.lft.to/lastmile_qr_scan", "android": "https://dc.lft.to/lastmile_qr_scan"}}, {"name": "cc6223c3c6b8db374e7622146c20bd61", "lon": -77.026397, "lat": 38.88104416666667, "type": "electric_scooter", "fusion_lon": 0.0, "is_reserved": 0, "bike_id": "cc6223c3c6b8db374e7622146c20bd61", "fusion_lat": 0.0, "is_disabled": 0, "rental_uris": {"ios": "https://dc.lft.to/lastmile_qr_scan", "android": "https://dc.lft.to/lastmile_qr_scan"}}, {"name": "c88b8597b4fb791b5ea1f68d7a375803", "lon": -77.02717866666667, "lat": 38.90888733333333, "type": "electric_scooter", "fusion_lon": 0.0, "is_reserved": 0, "bike_id": "c88b8597b4fb791b5ea1f68d7a375803", "fusion_lat": 0.0, "is_disabled": 0, "rental_uris": {"ios": "https://dc.lft.to/lastmile_qr_scan", "android": "https://dc.lft.to/lastmile_qr_scan"}}, {"name": "6b0dd41cd25148cf73495745ba5f41f6", "lon": -77.02082766666666, "lat": 38.911163, "type": "electric_scooter", "fusion_lon": 0.0, "is_reserved": 0, "bike_id": "6b0dd41cd25148cf73495745ba5f41f6", "fusion_lat": 0.0, "is_disabled": 0, "rental_uris": {"ios": "https://dc.lft.to/lastmile_qr_scan", "android": "https://dc.lft.to/lastmile_qr_scan"}}, {"name": "2bedcab0f7d0ea6486d8a89cd8c9c6a6", "lon": -77.0257955, "lat": 38.9159875, "type": "electric_scooter", "fusion_lon": 0.0, "is_reserved": 0, "bike_id": "2bedcab0f7d0ea6486d8a89cd8c9c6a6", "fusion_lat": 0.0, "is_disabled": 0, "rental_uris": {"ios": "https://dc.lft.to/lastmile_qr_scan", "android": "https://dc.lft.to/lastmile_qr_scan"}}, {"name": "b125819e9604ab2999e7295b99a77402", "lon": -76.98476683333334, "lat": 38.910933666666665, "type": "electric_bike", "fusion_lon": 0.0, "is_reserved": 0, "bike_id": "b125819e9604ab2999e7295b99a77402", "fusion_lat": 0.0, "is_disabled": 0, "rental_uris": {"ios": "https://dc.lft.to/lastmile_qr_scan", "android": "https://dc.lft.to/lastmile_qr_scan"}}, {"name": "db2d584269ffb4e267326c9e4e8e9cde", "lon": -76.9984215, "lat": 38.890817166666665, "type": "electric_scooter", "fusion_lon": 0.0, "is_reserved": 0, "bike_id": "db2d584269ffb4e267326c9e4e8e9cde", "fusion_lat": 0.0, "is_disabled": 0, "rental_uris": {"ios": "https://dc.lft.to/lastmile_qr_scan", "android": "https://dc.lft.to/lastmile_qr_scan"}}, {"name": "22656b5b4ae39cef673b757b3c8db402", "lon": -77.04639033333333, "lat": 38.91926866666667, "type": "electric_scooter", "fusion_lon": 0.0, "is_reserved": 0, "bike_id": "22656b5b4ae39cef673b757b3c8db402", "fusion_lat": 0.0, "is_disabled": 0, "rental_uris": {"ios": "https://dc.lft.to/lastmile_qr_scan", "android": "https://dc.lft.to/lastmile_qr_scan"}}, {"name": "f76316ce9fe73c1b625c89a3f68a5c55", "lon": -76.98602466666667, "lat": 38.90625633333333, "type": "electric_bike", "fusion_lon": 0.0, "is_reserved": 0, "bike_id": "f76316ce9fe73c1b625c89a3f68a5c55", "fusion_lat": 0.0, "is_disabled": 0, "rental_uris": {"ios": "https://dc.lft.to/lastmile_qr_scan", "android": "https://dc.lft.to/lastmile_qr_scan"}}, {"name": "9d9cab0e13d2f5599d53552f287b8ca4", "lon": -77.0276715, "lat": 38.9396045, "type": "electric_scooter", "fusion_lon": 0.0, "is_reserved": 0, "bike_id": "9d9cab0e13d2f5599d53552f287b8ca4", "fusion_lat": 0.0, "is_disabled": 0, "rental_uris": {"ios": "https://dc.lft.to/lastmile_qr_scan", "android": "https://dc.lft.to/lastmile_qr_scan"}}, {"name": "7cfe188c12d24fe16f760f3b290062c7", "lon": -77.03227466666667, "lat": 38.91704266666667, "type": "electric_scooter", "fusion_lon": 0.0, "is_reserved": 0, "bike_id": "7cfe188c12d24fe16f760f3b290062c7", "fusion_lat": 0.0, "is_disabled": 0, "rental_uris": {"ios": "https://dc.lft.to/lastmile_qr_scan", "android": "https://dc.lft.to/lastmile_qr_scan"}}, {"name": "f798d5a1ee310080ef1086c76b9ab401", "lon": -77.023352, "lat": 38.92612733333333, "type": "electric_scooter", "fusion_lon": 0.0, "is_reserved": 0, "bike_id": "f798d5a1ee310080ef1086c76b9ab401", "fusion_lat": 0.0, "is_disabled": 0, "rental_uris": {"ios": "https://dc.lft.to/lastmile_qr_scan", "android": "https://dc.lft.to/lastmile_qr_scan"}}, {"name": "a9aa255f365d7af7f6cee2ba8bbbd54b", "lon": -77.042654, "lat": 38.90563266666667, "type": "electric_scooter", "fusion_lon": 0.0, "is_reserved": 0, "bike_id": "a9aa255f365d7af7f6cee2ba8bbbd54b", "fusion_lat": 0.0, "is_disabled": 0, "rental_uris": {"ios": "https://dc.lft.to/lastmile_qr_scan", "android": "https://dc.lft.to/lastmile_qr_scan"}}, {"name": "3f27044583895d5c9a2832420f6d653b", "lon": -77.02595666666667, "lat": 38.91694316666667, "type": "electric_scooter", "fusion_lon": 0.0, "is_reserved": 0, "bike_id": "3f27044583895d5c9a2832420f6d653b", "fusion_lat": 0.0, "is_disabled": 0, "rental_uris": {"ios": "https://dc.lft.to/lastmile_qr_scan", "android": "https://dc.lft.to/lastmile_qr_scan"}}, {"name": "47d238ed8348b460525e2008d9e82772", "lon": -76.98846166666667, "lat": 38.901961, "type": "electric_scooter", "fusion_lon": 0.0, "is_reserved": 0, "bike_id": "47d238ed8348b460525e2008d9e82772", "fusion_lat": 0.0, "is_disabled": 0, "rental_uris": {"ios": "https://dc.lft.to/lastmile_qr_scan", "android": "https://dc.lft.to/lastmile_qr_scan"}}, {"name": "5ec8fa4e2b5c47fcd09d6e45844f51ad", "lon": -77.04356666666666, "lat": 38.92145883333333, "type": "electric_scooter", "fusion_lon": 0.0, "is_reserved": 0, "bike_id": "5ec8fa4e2b5c47fcd09d6e45844f51ad", "fusion_lat": 0.0, "is_disabled": 0, "rental_uris": {"ios": "https://dc.lft.to/lastmile_qr_scan", "android": "https://dc.lft.to/lastmile_qr_scan"}}, {"name": "9a1b414c637c6b7f51931cd5ffd4a70c", "lon": -77.05040066666666, "lat": 38.90628066666667, "type": "electric_scooter", "fusion_lon": 0.0, "is_reserved": 0, "bike_id": "9a1b414c637c6b7f51931cd5ffd4a70c", "fusion_lat": 0.0, "is_disabled": 0, "rental_uris": {"ios": "https://dc.lft.to/lastmile_qr_scan", "android": "https://dc.lft.to/lastmile_qr_scan"}}, {"name": "a99ca7b91bc891d43b343c841dfa628e", "lon": -77.03276916666667, "lat": 38.9206235, "type": "electric_scooter", "fusion_lon": 0.0, "is_reserved": 0, "bike_id": "a99ca7b91bc891d43b343c841dfa628e", "fusion_lat": 0.0, "is_disabled": 0, "rental_uris": {"ios": "https://dc.lft.to/lastmile_qr_scan", "android": "https://dc.lft.to/lastmile_qr_scan"}}, {"name": "44915bc0f57e9455a0974528201f56b6", "lon": -77.04477333333334, "lat": 38.923874, "type": "electric_scooter", "fusion_lon": 0.0, "is_reserved": 0, "bike_id": "44915bc0f57e9455a0974528201f56b6", "fusion_lat": 0.0, "is_disabled": 0, "rental_uris": {"ios": "https://dc.lft.to/lastmile_qr_scan", "android": "https://dc.lft.to/lastmile_qr_scan"}}, {"name": "e4f23637c9bd151437eb9dbdb36d40f2", "lon": -77.02790866666666, "lat": 38.95423016666667, "type": "electric_scooter", "fusion_lon": 0.0, "is_reserved": 0, "bike_id": "e4f23637c9bd151437eb9dbdb36d40f2", "fusion_lat": 0.0, "is_disabled": 0, "rental_uris": {"ios": "https://dc.lft.to/lastmile_qr_scan", "android": "https://dc.lft.to/lastmile_qr_scan"}}, {"name": "dbd61bb66db076d7b3565331ad7a1f79", "lon": -77.05124083333334, "lat": 38.9234485, "type": "electric_scooter", "fusion_lon": 0.0, "is_reserved": 0, "bike_id": "dbd61bb66db076d7b3565331ad7a1f79", "fusion_lat": 0.0, "is_disabled": 0, "rental_uris": {"ios": "https://dc.lft.to/lastmile_qr_scan", "android": "https://dc.lft.to/lastmile_qr_scan"}}, {"name": "504a39578129946099c7a1c0fb7ebe88", "lon": -77.02103466666667, "lat": 38.92177616666667, "type": "electric_scooter", "fusion_lon": 0.0, "is_reserved": 0, "bike_id": "504a39578129946099c7a1c0fb7ebe88", "fusion_lat": 0.0, "is_disabled": 0, "rental_uris": {"ios": "https://dc.lft.to/lastmile_qr_scan", "android": "https://dc.lft.to/lastmile_qr_scan"}}, {"name": "107399e1ae6988a7dc7fd232e7b39814", "lon": -77.0298765, "lat": 38.902536, "type": "electric_scooter", "fusion_lon": 0.0, "is_reserved": 0, "bike_id": "107399e1ae6988a7dc7fd232e7b39814", "fusion_lat": 0.0, "is_disabled": 0, "rental_uris": {"ios": "https://dc.lft.to/lastmile_qr_scan", "android": "https://dc.lft.to/lastmile_qr_scan"}}, {"name": "fdce3266cbe3735d9a7ed779807c2c61", "lon": -77.03946533333334, "lat": 38.924579666666666, "type": "electric_scooter", "fusion_lon": 0.0, "is_reserved": 0, "bike_id": "fdce3266cbe3735d9a7ed779807c2c61", "fusion_lat": 0.0, "is_disabled": 0, "rental_uris": {"ios": "https://dc.lft.to/lastmile_qr_scan", "android": "https://dc.lft.to/lastmile_qr_scan"}}, {"name": "9ada0d80a13efa032599a35def0ce661", "lon": -77.05239366666666, "lat": 38.923567, "type": "electric_scooter", "fusion_lon": 0.0, "is_reserved": 0, "bike_id": "9ada0d80a13efa032599a35def0ce661", "fusion_lat": 0.0, "is_disabled": 0, "rental_uris": {"ios": "https://dc.lft.to/lastmile_qr_scan", "android": "https://dc.lft.to/lastmile_qr_scan"}}, {"name": "83a2ba26bfd8ffec07e489abc3c8d9b2", "lon": -77.0460525, "lat": 38.91724833333333, "type": "electric_scooter", "fusion_lon": 0.0, "is_reserved": 0, "bike_id": "83a2ba26bfd8ffec07e489abc3c8d9b2", "fusion_lat": 0.0, "is_disabled": 0, "rental_uris": {"ios": "https://dc.lft.to/lastmile_qr_scan", "android": "https://dc.lft.to/lastmile_qr_scan"}}, {"name": "73968105a5fcb0fe5841a222d45ee06e", "lon": -77.02969066666667, "lat": 38.923357833333334, "type": "electric_scooter", "fusion_lon": 0.0, "is_reserved": 0, "bike_id": "73968105a5fcb0fe5841a222d45ee06e", "fusion_lat": 0.0, "is_disabled": 0, "rental_uris": {"ios": "https://dc.lft.to/lastmile_qr_scan", "android": "https://dc.lft.to/lastmile_qr_scan"}}, {"name": "3cbe7495ac699c50edc55d70fcb45d0c", "lon": -77.00069516666667, "lat": 38.916006333333335, "type": "electric_scooter", "fusion_lon": 0.0, "is_reserved": 0, "bike_id": "3cbe7495ac699c50edc55d70fcb45d0c", "fusion_lat": 0.0, "is_disabled": 0, "rental_uris": {"ios": "https://dc.lft.to/lastmile_qr_scan", "android": "https://dc.lft.to/lastmile_qr_scan"}}, {"name": "034f5b580969f641f919f1d78f65fe13", "lon": -77.07697, "lat": 38.84086116666667, "type": "electric_bike", "fusion_lon": 0.0, "is_reserved": 0, "bike_id": "034f5b580969f641f919f1d78f65fe13", "fusion_lat": 0.0, "is_disabled": 0, "rental_uris": {"ios": "https://dc.lft.to/lastmile_qr_scan", "android": "https://dc.lft.to/lastmile_qr_scan"}}, {"name": "a4e638d0a70ddeb6142f6b4efac95e63", "lon": -77.02038783333333, "lat": 38.89272033333334, "type": "electric_scooter", "fusion_lon": 0.0, "is_reserved": 0, "bike_id": "a4e638d0a70ddeb6142f6b4efac95e63", "fusion_lat": 0.0, "is_disabled": 0, "rental_uris": {"ios": "https://dc.lft.to/lastmile_qr_scan", "android": "https://dc.lft.to/lastmile_qr_scan"}}, {"name": "d02e3c8c49f7ea6ae40ef014f72166bb", "lon": -77.01540016666667, "lat": 38.8841175, "type": "electric_scooter", "fusion_lon": 0.0, "is_reserved": 0, "bike_id": "d02e3c8c49f7ea6ae40ef014f72166bb", "fusion_lat": 0.0, "is_disabled": 0, "rental_uris": {"ios": "https://dc.lft.to/lastmile_qr_scan", "android": "https://dc.lft.to/lastmile_qr_scan"}}, {"name": "3ed9c58184a4d90ef3c81ba88dd91d98", "lon": -77.0433235, "lat": 38.892230166666664, "type": "electric_scooter", "fusion_lon": 0.0, "is_reserved": 0, "bike_id": "3ed9c58184a4d90ef3c81ba88dd91d98", "fusion_lat": 0.0, "is_disabled": 0, "rental_uris": {"ios": "https://dc.lft.to/lastmile_qr_scan", "android": "https://dc.lft.to/lastmile_qr_scan"}}, {"name": "ede8fa196fa4af3fe0a4b6b75bd71984", "lon": -77.0312045, "lat": 38.91415083333333, "type": "electric_scooter", "fusion_lon": 0.0, "is_reserved": 0, "bike_id": "ede8fa196fa4af3fe0a4b6b75bd71984", "fusion_lat": 0.0, "is_disabled": 0, "rental_uris": {"ios": "https://dc.lft.to/lastmile_qr_scan", "android": "https://dc.lft.to/lastmile_qr_scan"}}, {"name": "80d94021f0643d0d147b8a1ad3604949", "lon": -77.01287316666667, "lat": 38.92020516666667, "type": "electric_scooter", "fusion_lon": 0.0, "is_reserved": 0, "bike_id": "80d94021f0643d0d147b8a1ad3604949", "fusion_lat": 0.0, "is_disabled": 0, "rental_uris": {"ios": "https://dc.lft.to/lastmile_qr_scan", "android": "https://dc.lft.to/lastmile_qr_scan"}}, {"name": "00af1da728c0aacb54503c85460de38e", "lon": -77.0417815, "lat": 38.91727566666667, "type": "electric_scooter", "fusion_lon": 0.0, "is_reserved": 0, "bike_id": "00af1da728c0aacb54503c85460de38e", "fusion_lat": 0.0, "is_disabled": 0, "rental_uris": {"ios": "https://dc.lft.to/lastmile_qr_scan", "android": "https://dc.lft.to/lastmile_qr_scan"}}, {"name": "cbf9f444996ad80649e85134f54a3710", "lon": -77.00453066666667, "lat": 38.9208345, "type": "electric_scooter", "fusion_lon": 0.0, "is_reserved": 0, "bike_id": "cbf9f444996ad80649e85134f54a3710", "fusion_lat": 0.0, "is_disabled": 0, "rental_uris": {"ios": "https://dc.lft.to/lastmile_qr_scan", "android": "https://dc.lft.to/lastmile_qr_scan"}}, {"name": "4b1544d812044493a6dd7a6e508cb4f4", "lon": -76.98777466666667, "lat": 38.865960666666666, "type": "electric_bike", "fusion_lon": 0.0, "is_reserved": 0, "bike_id": "4b1544d812044493a6dd7a6e508cb4f4", "fusion_lat": 0.0, "is_disabled": 0, "rental_uris": {"ios": "https://dc.lft.to/lastmile_qr_scan", "android": "https://dc.lft.to/lastmile_qr_scan"}}, {"name": "e16becee846e52b13ce66beea4bd0a5f", "lon": -77.0317475, "lat": 38.90967666666667, "type": "electric_scooter", "fusion_lon": 0.0, "is_reserved": 0, "bike_id": "e16becee846e52b13ce66beea4bd0a5f", "fusion_lat": 0.0, "is_disabled": 0, "rental_uris": {"ios": "https://dc.lft.to/lastmile_qr_scan", "android": "https://dc.lft.to/lastmile_qr_scan"}}, {"name": "098754885f8e557643d42164de2d7835", "lon": -77.002636, "lat": 38.9224205, "type": "electric_scooter", "fusion_lon": 0.0, "is_reserved": 0, "bike_id": "098754885f8e557643d42164de2d7835", "fusion_lat": 0.0, "is_disabled": 0, "rental_uris": {"ios": "https://dc.lft.to/lastmile_qr_scan", "android": "https://dc.lft.to/lastmile_qr_scan"}}, {"name": "45503a53c4d5893563682fc2b1c78b00", "lon": -77.01679383333334, "lat": 38.88119016666667, "type": "electric_scooter", "fusion_lon": 0.0, "is_reserved": 0, "bike_id": "45503a53c4d5893563682fc2b1c78b00", "fusion_lat": 0.0, "is_disabled": 0, "rental_uris": {"ios": "https://dc.lft.to/lastmile_qr_scan", "android": "https://dc.lft.to/lastmile_qr_scan"}}, {"name": "3f60df19520faa065adb35864775efa9", "lon": -76.98559416666667, "lat": 38.899574, "type": "electric_bike", "fusion_lon": 0.0, "is_reserved": 0, "bike_id": "3f60df19520faa065adb35864775efa9", "fusion_lat": 0.0, "is_disabled": 0, "rental_uris": {"ios": "https://dc.lft.to/lastmile_qr_scan", "android": "https://dc.lft.to/lastmile_qr_scan"}}, {"name": "1ee8f03331637cf927596d325c0aef2c", "lon": -77.03858566666666, "lat": 38.91692166666667, "type": "electric_scooter", "fusion_lon": 0.0, "is_reserved": 0, "bike_id": "1ee8f03331637cf927596d325c0aef2c", "fusion_lat": 0.0, "is_disabled": 0, "rental_uris": {"ios": "https://dc.lft.to/lastmile_qr_scan", "android": "https://dc.lft.to/lastmile_qr_scan"}}, {"name": "3c6eda1753a5350dc97f21808b29cc1f", "lon": -77.00888883333333, "lat": 38.92488066666667, "type": "electric_scooter", "fusion_lon": 0.0, "is_reserved": 0, "bike_id": "3c6eda1753a5350dc97f21808b29cc1f", "fusion_lat": 0.0, "is_disabled": 0, "rental_uris": {"ios": "https://dc.lft.to/lastmile_qr_scan", "android": "https://dc.lft.to/lastmile_qr_scan"}}, {"name": "c3c5b5608d932caea3cec013433503e5", "lon": -77.071435, "lat": 38.920418, "type": "electric_scooter", "fusion_lon": 0.0, "is_reserved": 0, "bike_id": "c3c5b5608d932caea3cec013433503e5", "fusion_lat": 0.0, "is_disabled": 0, "rental_uris": {"ios": "https://dc.lft.to/lastmile_qr_scan", "android": "https://dc.lft.to/lastmile_qr_scan"}}, {"name": "b81bba62d638cddda18ab364bb3f4404", "lon": -77.049249, "lat": 39.0293395, "type": "electric_bike", "fusion_lon": 0.0, "is_reserved": 0, "bike_id": "b81bba62d638cddda18ab364bb3f4404", "fusion_lat": 0.0, "is_disabled": 0, "rental_uris": {"ios": "https://dc.lft.to/lastmile_qr_scan", "android": "https://dc.lft.to/lastmile_qr_scan"}}, {"name": "180506ecfbedf4440c493de30afe1cbf", "lon": -77.04357866666666, "lat": 38.90510233333333, "type": "electric_scooter", "fusion_lon": 0.0, "is_reserved": 0, "bike_id": "180506ecfbedf4440c493de30afe1cbf", "fusion_lat": 0.0, "is_disabled": 0, "rental_uris": {"ios": "https://dc.lft.to/lastmile_qr_scan", "android": "https://dc.lft.to/lastmile_qr_scan"}}, {"name": "964ccba72822ad64a37c3ed2864ac538", "lon": -77.02978866666666, "lat": 38.93122316666667, "type": "electric_scooter", "fusion_lon": 0.0, "is_reserved": 0, "bike_id": "964ccba72822ad64a37c3ed2864ac538", "fusion_lat": 0.0, "is_disabled": 0, "rental_uris": {"ios": "https://dc.lft.to/lastmile_qr_scan", "android": "https://dc.lft.to/lastmile_qr_scan"}}, {"name": "e0584a7566c6aed2c8359434d7a06d43", "lon": -77.02725883333333, "lat": 38.915622166666665, "type": "electric_scooter", "fusion_lon": 0.0, "is_reserved": 0, "bike_id": "e0584a7566c6aed2c8359434d7a06d43", "fusion_lat": 0.0, "is_disabled": 0, "rental_uris": {"ios": "https://dc.lft.to/lastmile_qr_scan", "android": "https://dc.lft.to/lastmile_qr_scan"}}, {"name": "0a90cb7eb674560115f9ae78aab98530", "lon": -76.998011, "lat": 38.908503, "type": "electric_scooter", "fusion_lon": 0.0, "is_reserved": 0, "bike_id": "0a90cb7eb674560115f9ae78aab98530", "fusion_lat": 0.0, "is_disabled": 0, "rental_uris": {"ios": "https://dc.lft.to/lastmile_qr_scan", "android": "https://dc.lft.to/lastmile_qr_scan"}}, {"name": "baea863462e9682d2eb3710e1cdca05f", "lon": -76.9945035, "lat": 38.90826216666667, "type": "electric_scooter", "fusion_lon": 0.0, "is_reserved": 0, "bike_id": "baea863462e9682d2eb3710e1cdca05f", "fusion_lat": 0.0, "is_disabled": 0, "rental_uris": {"ios": "https://dc.lft.to/lastmile_qr_scan", "android": "https://dc.lft.to/lastmile_qr_scan"}}, {"name": "e9a1a442cbbef39c33cae30f359e20b6", "lon": -77.04335116666667, "lat": 38.8952625, "type": "electric_scooter", "fusion_lon": 0.0, "is_reserved": 0, "bike_id": "e9a1a442cbbef39c33cae30f359e20b6", "fusion_lat": 0.0, "is_disabled": 0, "rental_uris": {"ios": "https://dc.lft.to/lastmile_qr_scan", "android": "https://dc.lft.to/lastmile_qr_scan"}}, {"name": "a409df54e87a30e6f0e7106be6fd216d", "lon": -77.05577333333333, "lat": 38.90025116666666, "type": "electric_scooter", "fusion_lon": 0.0, "is_reserved": 0, "bike_id": "a409df54e87a30e6f0e7106be6fd216d", "fusion_lat": 0.0, "is_disabled": 0, "rental_uris": {"ios": "https://dc.lft.to/lastmile_qr_scan", "android": "https://dc.lft.to/lastmile_qr_scan"}}, {"name": "5a463a9bf010ac4384845cab3eef12fa", "lon": -77.03999366666666, "lat": 38.914133, "type": "electric_scooter", "fusion_lon": 0.0, "is_reserved": 0, "bike_id": "5a463a9bf010ac4384845cab3eef12fa", "fusion_lat": 0.0, "is_disabled": 0, "rental_uris": {"ios": "https://dc.lft.to/lastmile_qr_scan", "android": "https://dc.lft.to/lastmile_qr_scan"}}, {"name": "1e3e02dae3d71f227c28c0e678992f20", "lon": -76.98159183333334, "lat": 38.92262866666667, "type": "electric_bike", "fusion_lon": 0.0, "is_reserved": 0, "bike_id": "1e3e02dae3d71f227c28c0e678992f20", "fusion_lat": 0.0, "is_disabled": 0, "rental_uris": {"ios": "https://dc.lft.to/lastmile_qr_scan", "android": "https://dc.lft.to/lastmile_qr_scan"}}, {"name": "62425a4643b8772ae4188b440c580e20", "lon": -77.0442355, "lat": 38.92131966666667, "type": "electric_scooter", "fusion_lon": 0.0, "is_reserved": 0, "bike_id": "62425a4643b8772ae4188b440c580e20", "fusion_lat": 0.0, "is_disabled": 0, "rental_uris": {"ios": "https://dc.lft.to/lastmile_qr_scan", "android": "https://dc.lft.to/lastmile_qr_scan"}}, {"name": "9412b34a31d1fb4d8b261431a29d326f", "lon": -76.98864733333333, "lat": 38.95481566666667, "type": "electric_bike", "fusion_lon": 0.0, "is_reserved": 0, "bike_id": "9412b34a31d1fb4d8b261431a29d326f", "fusion_lat": 0.0, "is_disabled": 0, "rental_uris": {"ios": "https://dc.lft.to/lastmile_qr_scan", "android": "https://dc.lft.to/lastmile_qr_scan"}}, {"name": "962423375dec2b11081ae093d031d025", "lon": -76.993336, "lat": 38.8714405, "type": "electric_scooter", "fusion_lon": 0.0, "is_reserved": 0, "bike_id": "962423375dec2b11081ae093d031d025", "fusion_lat": 0.0, "is_disabled": 0, "rental_uris": {"ios": "https://dc.lft.to/lastmile_qr_scan", "android": "https://dc.lft.to/lastmile_qr_scan"}}, {"name": "4404c2a62f61f478961ca1ad8cc0420f", "lon": -77.058184, "lat": 38.93563433333333, "type": "electric_scooter", "fusion_lon": 0.0, "is_reserved": 0, "bike_id": "4404c2a62f61f478961ca1ad8cc0420f", "fusion_lat": 0.0, "is_disabled": 0, "rental_uris": {"ios": "https://dc.lft.to/lastmile_qr_scan", "android": "https://dc.lft.to/lastmile_qr_scan"}}, {"name": "a3e0e8fb5f22394bbc92f16e8802e399", "lon": -77.03343766666667, "lat": 38.92056916666667, "type": "electric_scooter", "fusion_lon": 0.0, "is_reserved": 0, "bike_id": "a3e0e8fb5f22394bbc92f16e8802e399", "fusion_lat": 0.0, "is_disabled": 0, "rental_uris": {"ios": "https://dc.lft.to/lastmile_qr_scan", "android": "https://dc.lft.to/lastmile_qr_scan"}}, {"name": "799f5be43782a5e97dea727c74c9dcf4", "lon": -77.03267283333334, "lat": 38.93542033333333, "type": "electric_scooter", "fusion_lon": 0.0, "is_reserved": 0, "bike_id": "799f5be43782a5e97dea727c74c9dcf4", "fusion_lat": 0.0, "is_disabled": 0, "rental_uris": {"ios": "https://dc.lft.to/lastmile_qr_scan", "android": "https://dc.lft.to/lastmile_qr_scan"}}, {"name": "9ea59e9f453859d76744d3e6e6210616", "lon": -77.01696566666666, "lat": 38.97500266666667, "type": "electric_scooter", "fusion_lon": 0.0, "is_reserved": 0, "bike_id": "9ea59e9f453859d76744d3e6e6210616", "fusion_lat": 0.0, "is_disabled": 0, "rental_uris": {"ios": "https://dc.lft.to/lastmile_qr_scan", "android": "https://dc.lft.to/lastmile_qr_scan"}}, {"name": "b9182ee7a1d162dd33fb0c5b2a0b9ef6", "lon": -76.92917383333334, "lat": 38.89296233333334, "type": "electric_scooter", "fusion_lon": 0.0, "is_reserved": 0, "bike_id": "b9182ee7a1d162dd33fb0c5b2a0b9ef6", "fusion_lat": 0.0, "is_disabled": 0, "rental_uris": {"ios": "https://dc.lft.to/lastmile_qr_scan", "android": "https://dc.lft.to/lastmile_qr_scan"}}, {"name": "9fbed57b6202128df942eaf0284af521", "lon": -76.94798016666667, "lat": 38.893977166666666, "type": "electric_bike", "fusion_lon": 0.0, "is_reserved": 0, "bike_id": "9fbed57b6202128df942eaf0284af521", "fusion_lat": 0.0, "is_disabled": 0, "rental_uris": {"ios": "https://dc.lft.to/lastmile_qr_scan", "android": "https://dc.lft.to/lastmile_qr_scan"}}, {"name": "3a6bf205b84f08839c174500f4175026", "lon": -77.02206633333333, "lat": 38.910538333333335, "type": "electric_scooter", "fusion_lon": 0.0, "is_reserved": 0, "bike_id": "3a6bf205b84f08839c174500f4175026", "fusion_lat": 0.0, "is_disabled": 0, "rental_uris": {"ios": "https://dc.lft.to/lastmile_qr_scan", "android": "https://dc.lft.to/lastmile_qr_scan"}}, {"name": "4354fbd7491521d003634f92d1115bd5", "lon": -77.0385525, "lat": 38.86748083333333, "type": "electric_scooter", "fusion_lon": 0.0, "is_reserved": 0, "bike_id": "4354fbd7491521d003634f92d1115bd5", "fusion_lat": 0.0, "is_disabled": 0, "rental_uris": {"ios": "https://dc.lft.to/lastmile_qr_scan", "android": "https://dc.lft.to/lastmile_qr_scan"}}, {"name": "e0d126b16efe41c5e54dc90209cbdd34", "lon": -76.9606125, "lat": 38.8840435, "type": "electric_bike", "fusion_lon": 0.0, "is_reserved": 0, "bike_id": "e0d126b16efe41c5e54dc90209cbdd34", "fusion_lat": 0.0, "is_disabled": 0, "rental_uris": {"ios": "https://dc.lft.to/lastmile_qr_scan", "android": "https://dc.lft.to/lastmile_qr_scan"}}, {"name": "850a89a889d025052a2ecb2aedb3ca83", "lon": -77.01364083333333, "lat": 38.887069833333335, "type": "electric_scooter", "fusion_lon": 0.0, "is_reserved": 0, "bike_id": "850a89a889d025052a2ecb2aedb3ca83", "fusion_lat": 0.0, "is_disabled": 0, "rental_uris": {"ios": "https://dc.lft.to/lastmile_qr_scan", "android": "https://dc.lft.to/lastmile_qr_scan"}}, {"name": "c34f3b1afdd87f43de033592294b55c7", "lon": -77.01362933333333, "lat": 38.86374, "type": "electric_bike", "fusion_lon": 0.0, "is_reserved": 0, "bike_id": "c34f3b1afdd87f43de033592294b55c7", "fusion_lat": 0.0, "is_disabled": 0, "rental_uris": {"ios": "https://dc.lft.to/lastmile_qr_scan", "android": "https://dc.lft.to/lastmile_qr_scan"}}, {"name": "4663b8f2ffceb444bf408ecf8d2e9910", "lon": -77.07309416666666, "lat": 38.933567333333336, "type": "electric_scooter", "fusion_lon": 0.0, "is_reserved": 0, "bike_id": "4663b8f2ffceb444bf408ecf8d2e9910", "fusion_lat": 0.0, "is_disabled": 0, "rental_uris": {"ios": "https://dc.lft.to/lastmile_qr_scan", "android": "https://dc.lft.to/lastmile_qr_scan"}}, {"name": "5c6b3d849b72fb04dd0e3fe4603d3faa", "lon": -76.93227766666666, "lat": 38.89888783333333, "type": "electric_scooter", "fusion_lon": 0.0, "is_reserved": 0, "bike_id": "5c6b3d849b72fb04dd0e3fe4603d3faa", "fusion_lat": 0.0, "is_disabled": 0, "rental_uris": {"ios": "https://dc.lft.to/lastmile_qr_scan", "android": "https://dc.lft.to/lastmile_qr_scan"}}, {"name": "56c795f416fb5138e215961dcf2bf949", "lon": -77.03211616666667, "lat": 38.9090235, "type": "electric_scooter", "fusion_lon": 0.0, "is_reserved": 0, "bike_id": "56c795f416fb5138e215961dcf2bf949", "fusion_lat": 0.0, "is_disabled": 0, "rental_uris": {"ios": "https://dc.lft.to/lastmile_qr_scan", "android": "https://dc.lft.to/lastmile_qr_scan"}}, {"name": "981829a446d133bb2c60b8f3ae66c6bc", "lon": -77.04791866666666, "lat": 38.91873566666666, "type": "electric_scooter", "fusion_lon": 0.0, "is_reserved": 0, "bike_id": "981829a446d133bb2c60b8f3ae66c6bc", "fusion_lat": 0.0, "is_disabled": 0, "rental_uris": {"ios": "https://dc.lft.to/lastmile_qr_scan", "android": "https://dc.lft.to/lastmile_qr_scan"}}, {"name": "43b5a46f2ddb7044508fd980fe8dbecf", "lon": -77.032083, "lat": 38.89589083333333, "type": "electric_scooter", "fusion_lon": 0.0, "is_reserved": 0, "bike_id": "43b5a46f2ddb7044508fd980fe8dbecf", "fusion_lat": 0.0, "is_disabled": 0, "rental_uris": {"ios": "https://dc.lft.to/lastmile_qr_scan", "android": "https://dc.lft.to/lastmile_qr_scan"}}, {"name": "4ca70bfb544e76e75e4aaec71b2c70c3", "lon": -77.03040216666666, "lat": 38.884005, "type": "electric_scooter", "fusion_lon": 0.0, "is_reserved": 0, "bike_id": "4ca70bfb544e76e75e4aaec71b2c70c3", "fusion_lat": 0.0, "is_disabled": 0, "rental_uris": {"ios": "https://dc.lft.to/lastmile_qr_scan", "android": "https://dc.lft.to/lastmile_qr_scan"}}, {"name": "9f31cef64ef30b08bee77a7c0a4f58a4", "lon": -77.0575775, "lat": 38.92436333333333, "type": "electric_scooter", "fusion_lon": 0.0, "is_reserved": 0, "bike_id": "9f31cef64ef30b08bee77a7c0a4f58a4", "fusion_lat": 0.0, "is_disabled": 0, "rental_uris": {"ios": "https://dc.lft.to/lastmile_qr_scan", "android": "https://dc.lft.to/lastmile_qr_scan"}}, {"name": "282482bb197dd0039a4cde7fe2908104", "lon": -77.0344025, "lat": 38.908893166666665, "type": "electric_scooter", "fusion_lon": 0.0, "is_reserved": 0, "bike_id": "282482bb197dd0039a4cde7fe2908104", "fusion_lat": 0.0, "is_disabled": 0, "rental_uris": {"ios": "https://dc.lft.to/lastmile_qr_scan", "android": "https://dc.lft.to/lastmile_qr_scan"}}, {"name": "acaca6f8c234057b8ff966ac0aa70651", "lon": -77.00072116666666, "lat": 38.91630633333333, "type": "electric_scooter", "fusion_lon": 0.0, "is_reserved": 0, "bike_id": "acaca6f8c234057b8ff966ac0aa70651", "fusion_lat": 0.0, "is_disabled": 0, "rental_uris": {"ios": "https://dc.lft.to/lastmile_qr_scan", "android": "https://dc.lft.to/lastmile_qr_scan"}}, {"name": "c47587dd913b22d5158af55a08e92602", "lon": -77.02587983333333, "lat": 38.92035116666667, "type": "electric_scooter", "fusion_lon": 0.0, "is_reserved": 0, "bike_id": "c47587dd913b22d5158af55a08e92602", "fusion_lat": 0.0, "is_disabled": 0, "rental_uris": {"ios": "https://dc.lft.to/lastmile_qr_scan", "android": "https://dc.lft.to/lastmile_qr_scan"}}, {"name": "cd535c837067dacea3245c4175cc0b3e", "lon": -77.01746, "lat": 38.90125916666667, "type": "electric_scooter", "fusion_lon": 0.0, "is_reserved": 0, "bike_id": "cd535c837067dacea3245c4175cc0b3e", "fusion_lat": 0.0, "is_disabled": 0, "rental_uris": {"ios": "https://dc.lft.to/lastmile_qr_scan", "android": "https://dc.lft.to/lastmile_qr_scan"}}, {"name": "a613a5f3ab623f4c2d555ed56f344fa3", "lon": -77.0261515, "lat": 38.883629, "type": "electric_scooter", "fusion_lon": 0.0, "is_reserved": 0, "bike_id": "a613a5f3ab623f4c2d555ed56f344fa3", "fusion_lat": 0.0, "is_disabled": 0, "rental_uris": {"ios": "https://dc.lft.to/lastmile_qr_scan", "android": "https://dc.lft.to/lastmile_qr_scan"}}, {"name": "d22aa6e242a9ce26a8517360e912d7bb", "lon": -76.9964135, "lat": 38.925648833333334, "type": "electric_scooter", "fusion_lon": 0.0, "is_reserved": 0, "bike_id": "d22aa6e242a9ce26a8517360e912d7bb", "fusion_lat": 0.0, "is_disabled": 0, "rental_uris": {"ios": "https://dc.lft.to/lastmile_qr_scan", "android": "https://dc.lft.to/lastmile_qr_scan"}}, {"name": "8d2c332857e8af60859265f0b77dd63d", "lon": -77.04028066666666, "lat": 38.91283216666667, "type": "electric_scooter", "fusion_lon": 0.0, "is_reserved": 0, "bike_id": "8d2c332857e8af60859265f0b77dd63d", "fusion_lat": 0.0, "is_disabled": 0, "rental_uris": {"ios": "https://dc.lft.to/lastmile_qr_scan", "android": "https://dc.lft.to/lastmile_qr_scan"}}, {"name": "ca484fef3f555f29323e4c4519219a63", "lon": -77.02532183333334, "lat": 38.931847166666664, "type": "electric_scooter", "fusion_lon": 0.0, "is_reserved": 0, "bike_id": "ca484fef3f555f29323e4c4519219a63", "fusion_lat": 0.0, "is_disabled": 0, "rental_uris": {"ios": "https://dc.lft.to/lastmile_qr_scan", "android": "https://dc.lft.to/lastmile_qr_scan"}}, {"name": "a1f04bc13dc7557e9ca8381cdbd909cd", "lon": -77.01583033333333, "lat": 38.91674183333333, "type": "electric_scooter", "fusion_lon": 0.0, "is_reserved": 0, "bike_id": "a1f04bc13dc7557e9ca8381cdbd909cd", "fusion_lat": 0.0, "is_disabled": 0, "rental_uris": {"ios": "https://dc.lft.to/lastmile_qr_scan", "android": "https://dc.lft.to/lastmile_qr_scan"}}, {"name": "a47c5f5841112ef70dadabf5df6de2e9", "lon": -77.03703383333334, "lat": 38.92646116666667, "type": "electric_scooter", "fusion_lon": 0.0, "is_reserved": 0, "bike_id": "a47c5f5841112ef70dadabf5df6de2e9", "fusion_lat": 0.0, "is_disabled": 0, "rental_uris": {"ios": "https://dc.lft.to/lastmile_qr_scan", "android": "https://dc.lft.to/lastmile_qr_scan"}}, {"name": "bb51ee5c6b8847b4076eedf9b4cee111", "lon": -77.0396045, "lat": 38.90619783333333, "type": "electric_scooter", "fusion_lon": 0.0, "is_reserved": 0, "bike_id": "bb51ee5c6b8847b4076eedf9b4cee111", "fusion_lat": 0.0, "is_disabled": 0, "rental_uris": {"ios": "https://dc.lft.to/lastmile_qr_scan", "android": "https://dc.lft.to/lastmile_qr_scan"}}, {"name": "3fe78aa296cdb684d93fb750253bcf42", "lon": -76.93196566666667, "lat": 38.89877716666667, "type": "electric_scooter", "fusion_lon": 0.0, "is_reserved": 0, "bike_id": "3fe78aa296cdb684d93fb750253bcf42", "fusion_lat": 0.0, "is_disabled": 0, "rental_uris": {"ios": "https://dc.lft.to/lastmile_qr_scan", "android": "https://dc.lft.to/lastmile_qr_scan"}}, {"name": "ce5723fe4b7089f752fb353c5ffd2dfa", "lon": -77.02704366666667, "lat": 38.928773166666666, "type": "electric_scooter", "fusion_lon": 0.0, "is_reserved": 0, "bike_id": "ce5723fe4b7089f752fb353c5ffd2dfa", "fusion_lat": 0.0, "is_disabled": 0, "rental_uris": {"ios": "https://dc.lft.to/lastmile_qr_scan", "android": "https://dc.lft.to/lastmile_qr_scan"}}, {"name": "2ea0d7209cc28184fbb4388639c1b12d", "lon": -77.03637433333333, "lat": 38.92747283333333, "type": "electric_scooter", "fusion_lon": 0.0, "is_reserved": 0, "bike_id": "2ea0d7209cc28184fbb4388639c1b12d", "fusion_lat": 0.0, "is_disabled": 0, "rental_uris": {"ios": "https://dc.lft.to/lastmile_qr_scan", "android": "https://dc.lft.to/lastmile_qr_scan"}}, {"name": "eea1b40494e83df68ad51805298312d6", "lon": -76.979545, "lat": 38.91691633333333, "type": "electric_scooter", "fusion_lon": 0.0, "is_reserved": 0, "bike_id": "eea1b40494e83df68ad51805298312d6", "fusion_lat": 0.0, "is_disabled": 0, "rental_uris": {"ios": "https://dc.lft.to/lastmile_qr_scan", "android": "https://dc.lft.to/lastmile_qr_scan"}}, {"name": "0329b2277b86a730eef38bde57547311", "lon": -77.11063166666666, "lat": 38.87072116666667, "type": "electric_bike", "fusion_lon": 0.0, "is_reserved": 0, "bike_id": "0329b2277b86a730eef38bde57547311", "fusion_lat": 0.0, "is_disabled": 0, "rental_uris": {"ios": "https://dc.lft.to/lastmile_qr_scan", "android": "https://dc.lft.to/lastmile_qr_scan"}}, {"name": "6d558528bf92e057b6467c0b243e3295", "lon": -76.99894883333333, "lat": 38.948184166666664, "type": "electric_scooter", "fusion_lon": 0.0, "is_reserved": 0, "bike_id": "6d558528bf92e057b6467c0b243e3295", "fusion_lat": 0.0, "is_disabled": 0, "rental_uris": {"ios": "https://dc.lft.to/lastmile_qr_scan", "android": "https://dc.lft.to/lastmile_qr_scan"}}, {"name": "11d9146af10d68382c744be2cea055e5", "lon": -77.04091633333333, "lat": 38.92394633333333, "type": "electric_scooter", "fusion_lon": 0.0, "is_reserved": 0, "bike_id": "11d9146af10d68382c744be2cea055e5", "fusion_lat": 0.0, "is_disabled": 0, "rental_uris": {"ios": "https://dc.lft.to/lastmile_qr_scan", "android": "https://dc.lft.to/lastmile_qr_scan"}}, {"name": "6f0c0fd1c7f89ad3ad0fd652a1a6ec16", "lon": -77.04184366666667, "lat": 38.918756333333334, "type": "electric_scooter", "fusion_lon": 0.0, "is_reserved": 0, "bike_id": "6f0c0fd1c7f89ad3ad0fd652a1a6ec16", "fusion_lat": 0.0, "is_disabled": 0, "rental_uris": {"ios": "https://dc.lft.to/lastmile_qr_scan", "android": "https://dc.lft.to/lastmile_qr_scan"}}, {"name": "c30708a0c6b3c15db058083f9a526c65", "lon": -77.0296265, "lat": 38.899323, "type": "electric_scooter", "fusion_lon": 0.0, "is_reserved": 0, "bike_id": "c30708a0c6b3c15db058083f9a526c65", "fusion_lat": 0.0, "is_disabled": 0, "rental_uris": {"ios": "https://dc.lft.to/lastmile_qr_scan", "android": "https://dc.lft.to/lastmile_qr_scan"}}, {"name": "1a45021c449995684ad1fc9bcfa68768", "lon": -77.0703615, "lat": 38.9063325, "type": "electric_scooter", "fusion_lon": 0.0, "is_reserved": 0, "bike_id": "1a45021c449995684ad1fc9bcfa68768", "fusion_lat": 0.0, "is_disabled": 0, "rental_uris": {"ios": "https://dc.lft.to/lastmile_qr_scan", "android": "https://dc.lft.to/lastmile_qr_scan"}}, {"name": "b10aae0739cd1e8fcd5d4d62a088e6cd", "lon": -77.02291216666667, "lat": 38.916144333333335, "type": "electric_scooter", "fusion_lon": 0.0, "is_reserved": 0, "bike_id": "b10aae0739cd1e8fcd5d4d62a088e6cd", "fusion_lat": 0.0, "is_disabled": 0, "rental_uris": {"ios": "https://dc.lft.to/lastmile_qr_scan", "android": "https://dc.lft.to/lastmile_qr_scan"}}, {"name": "30bc8b88b96a72e08e90d5d6ca1df1d1", "lon": -77.02392683333333, "lat": 38.9275655, "type": "electric_bike", "fusion_lon": 0.0, "is_reserved": 0, "bike_id": "30bc8b88b96a72e08e90d5d6ca1df1d1", "fusion_lat": 0.0, "is_disabled": 0, "rental_uris": {"ios": "https://dc.lft.to/lastmile_qr_scan", "android": "https://dc.lft.to/lastmile_qr_scan"}}, {"name": "13049cf5ab413b78a0a78d521bc81d97", "lon": -77.00696716666667, "lat": 38.89722883333334, "type": "electric_scooter", "fusion_lon": 0.0, "is_reserved": 0, "bike_id": "13049cf5ab413b78a0a78d521bc81d97", "fusion_lat": 0.0, "is_disabled": 0, "rental_uris": {"ios": "https://dc.lft.to/lastmile_qr_scan", "android": "https://dc.lft.to/lastmile_qr_scan"}}, {"name": "68ae318715c6cf5d46c2381a17650d5b", "lon": -77.13878383333333, "lat": 38.896799333333334, "type": "electric_bike", "fusion_lon": 0.0, "is_reserved": 0, "bike_id": "68ae318715c6cf5d46c2381a17650d5b", "fusion_lat": 0.0, "is_disabled": 0, "rental_uris": {"ios": "https://dc.lft.to/lastmile_qr_scan", "android": "https://dc.lft.to/lastmile_qr_scan"}}, {"name": "03c256a13891c3fe4c4bc06d64afdadc", "lon": -77.04608633333334, "lat": 38.91693983333333, "type": "electric_scooter", "fusion_lon": 0.0, "is_reserved": 0, "bike_id": "03c256a13891c3fe4c4bc06d64afdadc", "fusion_lat": 0.0, "is_disabled": 0, "rental_uris": {"ios": "https://dc.lft.to/lastmile_qr_scan", "android": "https://dc.lft.to/lastmile_qr_scan"}}, {"name": "a2a697fe7c5b6bfcad58a51cf67c0ae8", "lon": -77.09254866666667, "lat": 38.941562833333336, "type": "electric_scooter", "fusion_lon": 0.0, "is_reserved": 0, "bike_id": "a2a697fe7c5b6bfcad58a51cf67c0ae8", "fusion_lat": 0.0, "is_disabled": 0, "rental_uris": {"ios": "https://dc.lft.to/lastmile_qr_scan", "android": "https://dc.lft.to/lastmile_qr_scan"}}, {"name": "5c7797617bc692dc1725c819774d6f50", "lon": -77.03733633333333, "lat": 38.935710666666665, "type": "electric_scooter", "fusion_lon": 0.0, "is_reserved": 0, "bike_id": "5c7797617bc692dc1725c819774d6f50", "fusion_lat": 0.0, "is_disabled": 0, "rental_uris": {"ios": "https://dc.lft.to/lastmile_qr_scan", "android": "https://dc.lft.to/lastmile_qr_scan"}}, {"name": "df65b6fd8f328bdd66f2bae6cc5f6f3d", "lon": -77.04914666666667, "lat": 38.90086316666667, "type": "electric_scooter", "fusion_lon": 0.0, "is_reserved": 0, "bike_id": "df65b6fd8f328bdd66f2bae6cc5f6f3d", "fusion_lat": 0.0, "is_disabled": 0, "rental_uris": {"ios": "https://dc.lft.to/lastmile_qr_scan", "android": "https://dc.lft.to/lastmile_qr_scan"}}, {"name": "4a24fd8276fa1361bda9dbd970feada2", "lon": -77.03130633333333, "lat": 38.91564916666667, "type": "electric_scooter", "fusion_lon": 0.0, "is_reserved": 0, "bike_id": "4a24fd8276fa1361bda9dbd970feada2", "fusion_lat": 0.0, "is_disabled": 0, "rental_uris": {"ios": "https://dc.lft.to/lastmile_qr_scan", "android": "https://dc.lft.to/lastmile_qr_scan"}}, {"name": "0643bb0511d3cecf97237548f7c88377", "lon": -77.02281433333333, "lat": 38.94473583333333, "type": "electric_bike", "fusion_lon": 0.0, "is_reserved": 0, "bike_id": "0643bb0511d3cecf97237548f7c88377", "fusion_lat": 0.0, "is_disabled": 0, "rental_uris": {"ios": "https://dc.lft.to/lastmile_qr_scan", "android": "https://dc.lft.to/lastmile_qr_scan"}}, {"name": "67bd01637a953dc22604fe6160419702", "lon": -77.00296116666667, "lat": 38.891979, "type": "electric_scooter", "fusion_lon": 0.0, "is_reserved": 0, "bike_id": "67bd01637a953dc22604fe6160419702", "fusion_lat": 0.0, "is_disabled": 0, "rental_uris": {"ios": "https://dc.lft.to/lastmile_qr_scan", "android": "https://dc.lft.to/lastmile_qr_scan"}}, {"name": "7cb4165b445f6a93f1ed714483e44b29", "lon": -77.047559, "lat": 38.90557283333333, "type": "electric_scooter", "fusion_lon": 0.0, "is_reserved": 0, "bike_id": "7cb4165b445f6a93f1ed714483e44b29", "fusion_lat": 0.0, "is_disabled": 0, "rental_uris": {"ios": "https://dc.lft.to/lastmile_qr_scan", "android": "https://dc.lft.to/lastmile_qr_scan"}}, {"name": "7346f9e37c11b860f2e4b16a1d010742", "lon": -77.03850316666667, "lat": 38.931807666666664, "type": "electric_scooter", "fusion_lon": 0.0, "is_reserved": 0, "bike_id": "7346f9e37c11b860f2e4b16a1d010742", "fusion_lat": 0.0, "is_disabled": 0, "rental_uris": {"ios": "https://dc.lft.to/lastmile_qr_scan", "android": "https://dc.lft.to/lastmile_qr_scan"}}, {"name": "34b5822b474003971fc9604e116aae28", "lon": -77.040305, "lat": 38.92414633333333, "type": "electric_scooter", "fusion_lon": 0.0, "is_reserved": 0, "bike_id": "34b5822b474003971fc9604e116aae28", "fusion_lat": 0.0, "is_disabled": 0, "rental_uris": {"ios": "https://dc.lft.to/lastmile_qr_scan", "android": "https://dc.lft.to/lastmile_qr_scan"}}, {"name": "fab3e0ce11dc810cb980ac7882095445", "lon": -76.975889, "lat": 38.840236, "type": "electric_bike", "fusion_lon": 0.0, "is_reserved": 0, "bike_id": "fab3e0ce11dc810cb980ac7882095445", "fusion_lat": 0.0, "is_disabled": 0, "rental_uris": {"ios": "https://dc.lft.to/lastmile_qr_scan", "android": "https://dc.lft.to/lastmile_qr_scan"}}, {"name": "6285c3597ba7c1566103fb8c29372673", "lon": -77.02473266666667, "lat": 38.9181685, "type": "electric_scooter", "fusion_lon": 0.0, "is_reserved": 0, "bike_id": "6285c3597ba7c1566103fb8c29372673", "fusion_lat": 0.0, "is_disabled": 0, "rental_uris": {"ios": "https://dc.lft.to/lastmile_qr_scan", "android": "https://dc.lft.to/lastmile_qr_scan"}}, {"name": "f5a82a12f31312e59da7bc482e36e30e", "lon": -77.01106133333333, "lat": 38.903564833333334, "type": "electric_scooter", "fusion_lon": 0.0, "is_reserved": 0, "bike_id": "f5a82a12f31312e59da7bc482e36e30e", "fusion_lat": 0.0, "is_disabled": 0, "rental_uris": {"ios": "https://dc.lft.to/lastmile_qr_scan", "android": "https://dc.lft.to/lastmile_qr_scan"}}, {"name": "fb6065db3fc36633d838204beecfb16d", "lon": -77.04902633333333, "lat": 38.888397, "type": "electric_scooter", "fusion_lon": 0.0, "is_reserved": 0, "bike_id": "fb6065db3fc36633d838204beecfb16d", "fusion_lat": 0.0, "is_disabled": 0, "rental_uris": {"ios": "https://dc.lft.to/lastmile_qr_scan", "android": "https://dc.lft.to/lastmile_qr_scan"}}, {"name": "2c816b9fadfd59d9fb3820fc408397a9", "lon": -76.99478266666667, "lat": 38.9029615, "type": "electric_scooter", "fusion_lon": 0.0, "is_reserved": 0, "bike_id": "2c816b9fadfd59d9fb3820fc408397a9", "fusion_lat": 0.0, "is_disabled": 0, "rental_uris": {"ios": "https://dc.lft.to/lastmile_qr_scan", "android": "https://dc.lft.to/lastmile_qr_scan"}}, {"name": "f04435775546e55a5e202d1741dc9cda", "lon": -76.93546133333334, "lat": 38.955547833333334, "type": "electric_bike", "fusion_lon": 0.0, "is_reserved": 0, "bike_id": "f04435775546e55a5e202d1741dc9cda", "fusion_lat": 0.0, "is_disabled": 0, "rental_uris": {"ios": "https://dc.lft.to/lastmile_qr_scan", "android": "https://dc.lft.to/lastmile_qr_scan"}}, {"name": "112510d5a0ee8065f1883031512c0138", "lon": -76.98502833333333, "lat": 38.86665466666667, "type": "electric_scooter", "fusion_lon": 0.0, "is_reserved": 0, "bike_id": "112510d5a0ee8065f1883031512c0138", "fusion_lat": 0.0, "is_disabled": 0, "rental_uris": {"ios": "https://dc.lft.to/lastmile_qr_scan", "android": "https://dc.lft.to/lastmile_qr_scan"}}, {"name": "c4cb09229a76cb1b422159c6c4982f56", "lon": -77.03351566666667, "lat": 38.89242983333333, "type": "electric_scooter", "fusion_lon": 0.0, "is_reserved": 0, "bike_id": "c4cb09229a76cb1b422159c6c4982f56", "fusion_lat": 0.0, "is_disabled": 0, "rental_uris": {"ios": "https://dc.lft.to/lastmile_qr_scan", "android": "https://dc.lft.to/lastmile_qr_scan"}}, {"name": "dc55321d403b07dc5c808af976d6e76e", "lon": -77.04480616666666, "lat": 38.918663, "type": "electric_scooter", "fusion_lon": 0.0, "is_reserved": 0, "bike_id": "dc55321d403b07dc5c808af976d6e76e", "fusion_lat": 0.0, "is_disabled": 0, "rental_uris": {"ios": "https://dc.lft.to/lastmile_qr_scan", "android": "https://dc.lft.to/lastmile_qr_scan"}},