{"data": {"bikes": [{"type": "electric_scooter", "rental_uris": {"ios": "https://dc.lft.to/lastmile_qr_scan", "android": "https://dc.lft.to/lastmile_qr_scan"}, "lon": -77.03534483333334, "fusion_lon": 0.0, "is_disabled": 0, "lat": 38.923883000000004, "bike_id": "c995f23bdb5239e8f9cfcf865ad8b7a6", "name": "c995f23bdb5239e8f9cfcf865ad8b7a6", "is_reserved": 0, "fusion_lat": 0.0}, {"type": "electric_scooter", "rental_uris": {"ios": "https://dc.lft.to/lastmile_qr_scan", "android": "https://dc.lft.to/lastmile_qr_scan"}, "lon": -77.04157133333334, "fusion_lon": 0.0, "is_disabled": 0, "lat": 38.91917083333333, "bike_id": "e3512260a58caf88ebe1a02dc2e1ee93", "name": "e3512260a58caf88ebe1a02dc2e1ee93", "is_reserved": 0, "fusion_lat": 0.0}, {"type": "electric_bike", "rental_uris": {"ios": "https://dc.lft.to/lastmile_qr_scan", "android": "https://dc.lft.to/lastmile_qr_scan"}, "lon": -77.0563655, "fusion_lon": 0.0, "is_disabled": 0, "lat": 38.9864625, "bike_id": "e858907644689189d2e2139f8eb58cbc", "name": "e858907644689189d2e2139f8eb58cbc", "is_reserved": 0, "fusion_lat": 0.0}, {"type": "electric_scooter", "rental_uris": {"ios": "https://dc.lft.to/lastmile_qr_scan", "android": "https://dc.lft.to/lastmile_qr_scan"}, "lon": -77.02512233333333, "fusion_lon": 0.0, "is_disabled": 0, "lat": 38.946191666666664, "bike_id": "92aedcccb08eda6d0035df068681ce5f", "name": "92aedcccb08eda6d0035df068681ce5f", "is_reserved": 0, "fusion_lat": 0.0}, {"type": "electric_scooter", "rental_uris": {"ios": "https://dc.lft.to/lastmile_qr_scan", "android": "https://dc.lft.to/lastmile_qr_scan"}, "lon": -77.0334745, "fusion_lon": 0.0, "is_disabled": 0, "lat": 38.91704416666666, "bike_id": "de056b4387feb45e4b3a26e2638da7a4", "name": "de056b4387feb45e4b3a26e2638da7a4", "is_reserved": 0, "fusion_lat": 0.0}, {"type": "electric_scooter", "rental_uris": {"ios": "https://dc.lft.to/lastmile_qr_scan", "android": "https://dc.lft.to/lastmile_qr_scan"}, "lon": -77.046879, "fusion_lon": 0.0, "is_disabled": 0, "lat": 38.89732033333333, "bike_id": "9d88447c2edd560705a9969a2c47877f", "name": "9d88447c2edd560705a9969a2c47877f", "is_reserved": 0, "fusion_lat": 0.0}, {"type": "electric_bike", "rental_uris": {"ios": "https://dc.lft.to/lastmile_qr_scan", "android": "https://dc.lft.to/lastmile_qr_scan"}, "lon": -77.02770133333334, "fusion_lon": 0.0, "is_disabled": 0, "lat": 38.9042865, "bike_id": "062cdd3e6ccb98202728782a104e1024", "name": "062cdd3e6ccb98202728782a104e1024", "is_reserved": 0, "fusion_lat": 0.0}, {"type": "electric_scooter", "rental_uris": {"ios": "https://dc.lft.to/lastmile_qr_scan", "android": "https://dc.lft.to/lastmile_qr_scan"}, "lon": -77.03182166666667, "fusion_lon": 0.0, "is_disabled": 0, "lat": 38.896292333333335, "bike_id": "0c1ca885fc98766f13547539be40a3a5", "name": "0c1ca885fc98766f13547539be40a3a5", "is_reserved": 0, "fusion_lat": 0.0}, {"type": "electric_bike", "rental_uris": {"ios": "https://dc.lft.to/lastmile_qr_scan", "android": "https://dc.lft.to/lastmile_qr_scan"}, "lon": -77.12483833333333, "fusion_lon": 0.0, "is_disabled": 0, "lat": 38.85394616666667, "bike_id": "3fc31f9b23abe4f96ec29dcf5617c7f3", "name": "3fc31f9b23abe4f96ec29dcf5617c7f3", "is_reserved": 0, "fusion_lat": 0.0}, {"type": "electric_scooter", "rental_uris": {"ios": "https://dc.lft.to/lastmile_qr_scan", "android": "https://dc.lft.to/lastmile_qr_scan"}, "lon": -76.99515983333333, "fusion_lon": 0.0, "is_disabled": 0, "lat": 38.883733666666664, "bike_id": "eb259ace6b542b3f7a65bf35f541342a", "name": "eb259ace6b542b3f7a65bf35f541342a", "is_reserved": 0, "fusion_lat": 0.0}, {"type": "electric_scooter", "rental_uris": {"ios": "https://dc.lft.to/lastmile_qr_scan", "android": "https://dc.lft.to/lastmile_qr_scan"}, "lon": -77.0304225, "fusion_lon": 0.0, "is_disabled": 0, "lat": 38.9312345, "bike_id": "9799410d8ef081152bd50baa2b50b73e", "name": "9799410d8ef081152bd50baa2b50b73e", "is_reserved": 0, "fusion_lat": 0.0}, {"type": "electric_bike", "rental_uris": {"ios": "https://dc.lft.to/lastmile_qr_scan", "android": "https://dc.lft.to/lastmile_qr_scan"}, "lon": -76.97530516666667, "fusion_lon": 0.0, "is_disabled": 0, "lat": 38.8401275, "bike_id": "54b0835ed698d928241c6d46f7c407f2", "name": "54b0835ed698d928241c6d46f7c407f2", "is_reserved": 0, "fusion_lat": 0.0}, {"type": "electric_scooter", "rental_uris": {"ios": "https://dc.lft.to/lastmile_qr_scan", "android": "https://dc.lft.to/lastmile_qr_scan"}, "lon": -76.98179333333333, "fusion_lon": 0.0, "is_disabled": 0, "lat": 38.89579066666667, "bike_id": "42452e6aeeed3f84a67901f546f31af5", "name": "42452e6aeeed3f84a67901f546f31af5", "is_reserved": 0, "fusion_lat": 0.0}, {"type": "electric_scooter", "rental_uris": {"ios": "https://dc.lft.to/lastmile_qr_scan", "android": "https://dc.lft.to/lastmile_qr_scan"}, "lon": -77.04293616666666, "fusion_lon": 0.0, "is_disabled": 0, "lat": 38.910366, "bike_id": "a7d7fe980c93af6a72bd40bdf2c97009", "name": "a7d7fe980c93af6a72bd40bdf2c97009", "is_reserved": 0, "fusion_lat": 0.0}, {"type": "electric_scooter", "rental_uris": {"ios": "https://dc.lft.to/lastmile_qr_scan", "android": "https://dc.lft.to/lastmile_qr_scan"}, "lon": -76.93374933333334, "fusion_lon": 0.0, "is_disabled": 0, "lat": 38.895517166666664, "bike_id": "6fdfa6619f136cc0a79013b13fb9ba5b", "name": "6fdfa6619f136cc0a79013b13fb9ba5b", "is_reserved": 0, "fusion_lat": 0.0}, {"type": "electric_bike", "rental_uris": {"ios": "https://dc.lft.to/lastmile_qr_scan", "android": "https://dc.lft.to/lastmile_qr_scan"}, "lon": -77.00280216666667, "fusion_lon": 0.0, "is_disabled": 0, "lat": 38.91185883333333, "bike_id": "9aed545e1cecdcdeca1fef15ef7f5575", "name": "9aed545e1cecdcdeca1fef15ef7f5575", "is_reserved": 0, "fusion_lat": 0.0}, {"type": "electric_scooter", "rental_uris": {"ios": "https://dc.lft.to/lastmile_qr_scan", "android": "https://dc.lft.to/lastmile_qr_scan"}, "lon": -77.03496983333334, "fusion_lon": 0.0, "is_disabled": 0, "lat": 38.92477366666667, "bike_id": "22311f740bb576ea5628f2eaad0df4b3", "name": "22311f740bb576ea5628f2eaad0df4b3", "is_reserved": 0, "fusion_lat": 0.0}, {"type": "electric_scooter", "rental_uris": {"ios": "https://dc.lft.to/lastmile_qr_scan", "android": "https://dc.lft.to/lastmile_qr_scan"}, "lon": -76.98008683333333, "fusion_lon": 0.0, "is_disabled": 0, "lat": 38.853222, "bike_id": "03e16e2c8833efdd3c5206eee9290317", "name": "03e16e2c8833efdd3c5206eee9290317", "is_reserved": 0, "fusion_lat": 0.0}, {"type": "electric_scooter", "rental_uris": {"ios": "https://dc.lft.to/lastmile_qr_scan", "android": "https://dc.lft.to/lastmile_qr_scan"}, "lon": -77.033471, "fusion_lon": 0.0, "is_disabled": 0, "lat": 38.892515333333336, "bike_id": "30696a3a41f35c7beb667794c894a5a3", "name": "30696a3a41f35c7beb667794c894a5a3", "is_reserved": 0, "fusion_lat": 0.0}, {"type": "electric_scooter", "rental_uris": {"ios": "https://dc.lft.to/lastmile_qr_scan", "android": "https://dc.lft.to/lastmile_qr_scan"}, "lon": -76.9373645, "fusion_lon": 0.0, "is_disabled": 0, "lat": 38.89016316666667, "bike_id": "b0d87cd32fa60647841aab822f6ff549", "name": "b0d87cd32fa60647841aab822f6ff549", "is_reserved": 0, "fusion_lat": 0.0}, {"type": "electric_scooter", "rental_uris": {"ios": "https://dc.lft.to/lastmile_qr_scan", "android": "https://dc.lft.to/lastmile_qr_scan"}, "lon": -77.0219155, "fusion_lon": 0.0, "is_disabled": 0, "lat": 38.911303333333336, "bike_id": "afc49851cb1142c529567c362029f067", "name": "afc49851cb1142c529567c362029f067", "is_reserved": 0, "fusion_lat": 0.0}, {"type": "electric_scooter", "rental_uris": {"ios": "https://dc.lft.to/lastmile_qr_scan", "android": "https://dc.lft.to/lastmile_qr_scan"}, "lon": -77.03203, "fusion_lon": 0.0, "is_disabled": 0, "lat": 38.914258833333335, "bike_id": "e02b3c92dedf9181d531f5e458f1dc32", "name": "e02b3c92dedf9181d531f5e458f1dc32", "is_reserved": 0, "fusion_lat": 0.0}, {"type": "electric_scooter", "rental_uris": {"ios": "https://dc.lft.to/lastmile_qr_scan", "android": "https://dc.lft.to/lastmile_qr_scan"}, "lon": -77.0197575, "fusion_lon": 0.0, "is_disabled": 0, "lat": 38.902366, "bike_id": "e1ab75bb90e17bbe850c17550cd11768", "name": "e1ab75bb90e17bbe850c17550cd11768", "is_reserved": 0, "fusion_lat": 0.0}, {"type": "electric_scooter", "rental_uris": {"ios": "https://dc.lft.to/lastmile_qr_scan", "android": "https://dc.lft.to/lastmile_qr_scan"}, "lon": -77.00611266666667, "fusion_lon": 0.0, "is_disabled": 0, "lat": 38.87181183333333, "bike_id": "6e212b7a3ba320b82cbaa369b36d29ad", "name": "6e212b7a3ba320b82cbaa369b36d29ad", "is_reserved": 0, "fusion_lat": 0.0}, {"type": "electric_bike", "rental_uris": {"ios": "https://dc.lft.to/lastmile_qr_scan", "android": "https://dc.lft.to/lastmile_qr_scan"}, "lon": -77.03409216666667, "fusion_lon": 0.0, "is_disabled": 0, "lat": 38.91927483333333, "bike_id": "81ea36f002f166d1d53cb920298ddec5", "name": "81ea36f002f166d1d53cb920298ddec5", "is_reserved": 0, "fusion_lat": 0.0}, {"type": "electric_scooter", "rental_uris": {"ios": "https://dc.lft.to/lastmile_qr_scan", "android": "https://dc.lft.to/lastmile_qr_scan"}, "lon": -77.04681, "fusion_lon": 0.0, "is_disabled": 0, "lat": 38.91710633333334, "bike_id": "9ebc16fadd64a78b80efad1b8d52cf6b", "name": "9ebc16fadd64a78b80efad1b8d52cf6b", "is_reserved": 0, "fusion_lat": 0.0}, {"type": "electric_scooter", "rental_uris": {"ios": "https://dc.lft.to/lastmile_qr_scan", "android": "https://dc.lft.to/lastmile_qr_scan"}, "lon": -77.02972083333333, "fusion_lon": 0.0, "is_disabled": 0, "lat": 38.923204, "bike_id": "53a2217be4e6e324cfb90e54266214d5", "name": "53a2217be4e6e324cfb90e54266214d5", "is_reserved": 0, "fusion_lat": 0.0}, {"type": "electric_scooter", "rental_uris": {"ios": "https://dc.lft.to/lastmile_qr_scan", "android": "https://dc.lft.to/lastmile_qr_scan"}, "lon": -77.04363333333333, "fusion_lon": 0.0, "is_disabled": 0, "lat": 38.902423666666664, "bike_id": "dac93dc999b2227dbf33735c8b1b4dc3", "name": "dac93dc999b2227dbf33735c8b1b4dc3", "is_reserved": 0, "fusion_lat": 0.0}, {"type": "electric_scooter", "rental_uris": {"ios": "https://dc.lft.to/lastmile_qr_scan", "android": "https://dc.lft.to/lastmile_qr_scan"}, "lon": -77.01777633333333, "fusion_lon": 0.0, "is_disabled": 0, "lat": 38.88718316666667, "bike_id": "8911ff65abb442403f3f76624e15af9a", "name": "8911ff65abb442403f3f76624e15af9a", "is_reserved": 0, "fusion_lat": 0.0}, {"type": "electric_scooter", "rental_uris": {"ios": "https://dc.lft.to/lastmile_qr_scan", "android": "https://dc.lft.to/lastmile_qr_scan"}, "lon": -76.98888133333334, "fusion_lon": 0.0, "is_disabled": 0, "lat": 38.86649333333333, "bike_id": "c6b73ed3d6e046d5e46c35e32dcb85e4", "name": "c6b73ed3d6e046d5e46c35e32dcb85e4", "is_reserved": 0, "fusion_lat": 0.0}, {"type": "electric_scooter", "rental_uris": {"ios": "https://dc.lft.to/lastmile_qr_scan", "android": "https://dc.lft.to/lastmile_qr_scan"}, "lon": -77.03294866666667, "fusion_lon": 0.0, "is_disabled": 0, "lat": 38.95640616666667, "bike_id": "454aed48fdd4953c388c9d6c90e9c1cd", "name": "454aed48fdd4953c388c9d6c90e9c1cd", "is_reserved": 0, "fusion_lat": 0.0}, {"type": "electric_scooter", "rental_uris": {"ios": "https://dc.lft.to/lastmile_qr_scan", "android": "https://dc.lft.to/lastmile_qr_scan"}, "lon": -77.05265616666667, "fusion_lon": 0.0, "is_disabled": 0, "lat": 38.925421166666666, "bike_id": "4ba003b95f7b75996dcec9c877725b8f", "name": "4ba003b95f7b75996dcec9c877725b8f", "is_reserved": 0, "fusion_lat": 0.0}, {"type": "electric_bike", "rental_uris": {"ios": "https://dc.lft.to/lastmile_qr_scan", "android": "https://dc.lft.to/lastmile_qr_scan"}, "lon": -77.12732766666667, "fusion_lon": 0.0, "is_disabled": 0, "lat": 38.895608333333335, "bike_id": "b9e2aa817be03ebda7e0842b0fdfa480", "name": "b9e2aa817be03ebda7e0842b0fdfa480", "is_reserved": 0, "fusion_lat": 0.0}, {"type": "electric_scooter", "rental_uris": {"ios": "https://dc.lft.to/lastmile_qr_scan", "android": "https://dc.lft.to/lastmile_qr_scan"}, "lon": -77.052414, "fusion_lon": 0.0, "is_disabled": 0, "lat": 38.92339233333333, "bike_id": "1e2ef4ef71e0a9846c723456b025b53c", "name": "1e2ef4ef71e0a9846c723456b025b53c", "is_reserved": 0, "fusion_lat": 0.0}, {"type": "electric_scooter", "rental_uris": {"ios": "https://dc.lft.to/lastmile_qr_scan", "android": "https://dc.lft.to/lastmile_qr_scan"}, "lon": -77.04227766666666, "fusion_lon": 0.0, "is_disabled": 0, "lat": 38.922036, "bike_id": "7540719f2822e4ba95f5115f18f02cca", "name": "7540719f2822e4ba95f5115f18f02cca", "is_reserved": 0, "fusion_lat": 0.0}, {"type": "electric_scooter", "rental_uris": {"ios": "https://dc.lft.to/lastmile_qr_scan", "android": "https://dc.lft.to/lastmile_qr_scan"}, "lon": -77.04148416666666, "fusion_lon": 0.0, "is_disabled": 0, "lat": 38.892225833333335, "bike_id": "042e2b8efa7fc762b19a3fd865b32957", "name": "042e2b8efa7fc762b19a3fd865b32957", "is_reserved": 0, "fusion_lat": 0.0}, {"type": "electric_scooter", "rental_uris": {"ios": "https://dc.lft.to/lastmile_qr_scan", "android": "https://dc.lft.to/lastmile_qr_scan"}, "lon": -77.02692183333333, "fusion_lon": 0.0, "is_disabled": 0, "lat": 38.911215, "bike_id": "16a1c56fbf29f6edb4e4330b6439ede3", "name": "16a1c56fbf29f6edb4e4330b6439ede3", "is_reserved": 0, "fusion_lat": 0.0}, {"type": "electric_scooter", "rental_uris": {"ios": "https://dc.lft.to/lastmile_qr_scan", "android": "https://dc.lft.to/lastmile_qr_scan"}, "lon": -77.0262745, "fusion_lon": 0.0, "is_disabled": 0, "lat": 38.89221783333333, "bike_id": "40af2b9c5d4d08e2dba37363009eba7b", "name": "40af2b9c5d4d08e2dba37363009eba7b", "is_reserved": 0, "fusion_lat": 0.0}, {"type": "electric_bike", "rental_uris": {"ios": "https://dc.lft.to/lastmile_qr_scan", "android": "https://dc.lft.to/lastmile_qr_scan"}, "lon": -77.1180705, "fusion_lon": 0.0, "is_disabled": 0, "lat": 38.873731, "bike_id": "2d2ce003eff8b0071111fa4e6a210c56", "name": "2d2ce003eff8b0071111fa4e6a210c56", "is_reserved": 0, "fusion_lat": 0.0}, {"type": "electric_scooter", "rental_uris": {"ios": "https://dc.lft.to/lastmile_qr_scan", "android": "https://dc.lft.to/lastmile_qr_scan"}, "lon": -77.02109733333333, "fusion_lon": 0.0, "is_disabled": 0, "lat": 38.9409925, "bike_id": "e558422999a26028f85c09409532002d", "name": "e558422999a26028f85c09409532002d", "is_reserved": 0, "fusion_lat": 0.0}, {"type": "electric_scooter", "rental_uris": {"ios": "https://dc.lft.to/lastmile_qr_scan", "android": "https://dc.lft.to/lastmile_qr_scan"}, "lon": -76.99518133333333, "fusion_lon": 0.0, "is_disabled": 0, "lat": 38.897310166666664, "bike_id": "f40a695803597685880daa3edee8c632", "name": "f40a695803597685880daa3edee8c632", "is_reserved": 0, "fusion_lat": 0.0}, {"type": "electric_bike", "rental_uris": {"ios": "https://dc.lft.to/lastmile_qr_scan", "android": "https://dc.lft.to/lastmile_qr_scan"}, "lon": -76.972383, "fusion_lon": 0.0, "is_disabled": 0, "lat": 38.94901983333333, "bike_id": "625a213e96d534af5d114fcac4820689", "name": "625a213e96d534af5d114fcac4820689", "is_reserved": 0, "fusion_lat": 0.0}, {"type": "electric_bike", "rental_uris": {"ios": "https://dc.lft.to/lastmile_qr_scan", "android": "https://dc.lft.to/lastmile_qr_scan"}, "lon": -77.03652783333334, "fusion_lon": 0.0, "is_disabled": 0, "lat": 38.9301865, "bike_id": "2f977a6ffc66e7235f36a76759787bd6", "name": "2f977a6ffc66e7235f36a76759787bd6", "is_reserved": 0, "fusion_lat": 0.0}, {"type": "electric_scooter", "rental_uris": {"ios": "https://dc.lft.to/lastmile_qr_scan", "android": "https://dc.lft.to/lastmile_qr_scan"}, "lon": -77.03186733333334, "fusion_lon": 0.0, "is_disabled": 0, "lat": 38.913283166666666, "bike_id": "0da795a3dcf8433093c27d832c57265b", "name": "0da795a3dcf8433093c27d832c57265b", "is_reserved": 0, "fusion_lat": 0.0}, {"type": "electric_scooter", "rental_uris": {"ios": "https://dc.lft.to/lastmile_qr_scan", "android": "https://dc.lft.to/lastmile_qr_scan"}, "lon": -77.02831966666666, "fusion_lon": 0.0, "is_disabled": 0, "lat": 38.9319, "bike_id": "6e7610dcf9e304684d0ceff2d259e69a", "name": "6e7610dcf9e304684d0ceff2d259e69a", "is_reserved": 0, "fusion_lat": 0.0}, {"type": "electric_scooter", "rental_uris": {"ios": "https://dc.lft.to/lastmile_qr_scan", "android": "https://dc.lft.to/lastmile_qr_scan"}, "lon": -77.03284366666666, "fusion_lon": 0.0, "is_disabled": 0, "lat": 38.89897233333333, "bike_id": "67cf6fffb9059e6e6b6cfd212f246e3e", "name": "67cf6fffb9059e6e6b6cfd212f246e3e", "is_reserved": 0, "fusion_lat": 0.0}, {"type": "electric_scooter", "rental_uris": {"ios": "https://dc.lft.to/lastmile_qr_scan", "android": "https://dc.lft.to/lastmile_qr_scan"}, "lon": -77.03219683333333, "fusion_lon": 0.0, "is_disabled": 0, "lat": 38.9179165, "bike_id": "70167d4098d1c85cb641ea18176bc564", "name": "70167d4098d1c85cb641ea18176bc564", "is_reserved": 0, "fusion_lat": 0.0}, {"type": "electric_scooter", "rental_uris": {"ios": "https://dc.lft.to/lastmile_qr_scan", "android": "https://dc.lft.to/lastmile_qr_scan"}, "lon": -77.03476683333334, "fusion_lon": 0.0, "is_disabled": 0, "lat": 38.929182833333336, "bike_id": "8dcd28af9034aaad7c0fc3320d335369", "name": "8dcd28af9034aaad7c0fc3320d335369", "is_reserved": 0, "fusion_lat": 0.0}, {"type": "electric_bike", "rental_uris": {"ios": "https://dc.lft.to/lastmile_qr_scan", "android": "https://dc.lft.to/lastmile_qr_scan"}, "lon": -77.0402165, "fusion_lon": 0.0, "is_disabled": 0, "lat": 38.793244333333334, "bike_id": "11cad15559e587e1dec1179daa1141fe", "name": "11cad15559e587e1dec1179daa1141fe", "is_reserved": 0, "fusion_lat": 0.0}, {"type": "electric_scooter", "rental_uris": {"ios": "https://dc.lft.to/lastmile_qr_scan", "android": "https://dc.lft.to/lastmile_qr_scan"}, "lon": -77.00933733333333, "fusion_lon": 0.0, "is_disabled": 0, "lat": 38.883396833333336, "bike_id": "fc96dc3794bd40952b23d48b95f99de0", "name": "fc96dc3794bd40952b23d48b95f99de0", "is_reserved": 0, "fusion_lat": 0.0}, {"type": "electric_scooter", "rental_uris": {"ios": "https://dc.lft.to/lastmile_qr_scan", "android": "https://dc.lft.to/lastmile_qr_scan"}, "lon": -77.03186566666666, "fusion_lon": 0.0, "is_disabled": 0, "lat": 38.914215166666665, "bike_id": "b27e1d7ded277754a8edfe947057ceda", "name": "b27e1d7ded277754a8edfe947057ceda", "is_reserved": 0, "fusion_lat": 0.0}, {"type": "electric_scooter", "rental_uris": {"ios": "https://dc.lft.to/lastmile_qr_scan", "android": "https://dc.lft.to/lastmile_qr_scan"}, "lon": -77.02694166666667, "fusion_lon": 0.0, "is_disabled": 0, "lat": 38.90686266666667, "bike_id": "c64261cb26e1df50727e8a7e7e112733", "name": "c64261cb26e1df50727e8a7e7e112733", "is_reserved": 0, "fusion_lat": 0.0}, {"type": "electric_scooter", "rental_uris": {"ios": "https://dc.lft.to/lastmile_qr_scan", "android": "https://dc.lft.to/lastmile_qr_scan"}, "lon": -77.03297333333333, "fusion_lon": 0.0, "is_disabled": 0, "lat": 38.95639, "bike_id": "5aae16997e5e9ee36ad4e33c58576a63", "name": "5aae16997e5e9ee36ad4e33c58576a63", "is_reserved": 0, "fusion_lat": 0.0}, {"type": "electric_bike", "rental_uris": {"ios": "https://dc.lft.to/lastmile_qr_scan", "android": "https://dc.lft.to/lastmile_qr_scan"}, "lon": -77.11499233333333, "fusion_lon": 0.0, "is_disabled": 0, "lat": 39.06922733333333, "bike_id": "801b16deae083cdab5f97aedf12e3042", "name": "801b16deae083cdab5f97aedf12e3042", "is_reserved": 0, "fusion_lat": 0.0}, {"type": "electric_scooter", "rental_uris": {"ios": "https://dc.lft.to/lastmile_qr_scan", "android": "https://dc.lft.to/lastmile_qr_scan"}, "lon": -77.02409383333334, "fusion_lon": 0.0, "is_disabled": 0, "lat": 38.92896566666667, "bike_id": "7195c58be33fb8570e41541e9d394463", "name": "7195c58be33fb8570e41541e9d394463", "is_reserved": 0, "fusion_lat": 0.0}, {"type": "electric_scooter", "rental_uris": {"ios": "https://dc.lft.to/lastmile_qr_scan", "android": "https://dc.lft.to/lastmile_qr_scan"}, "lon": -77.04159133333333, "fusion_lon": 0.0, "is_disabled": 0, "lat": 38.92796716666667, "bike_id": "948eafc11c340a2f3a9075fcf737a2cf", "name": "948eafc11c340a2f3a9075fcf737a2cf", "is_reserved": 0, "fusion_lat": 0.0}, {"type": "electric_scooter", "rental_uris": {"ios": "https://dc.lft.to/lastmile_qr_scan", "android": "https://dc.lft.to/lastmile_qr_scan"}, "lon": -77.044231, "fusion_lon": 0.0, "is_disabled": 0, "lat": 38.91008333333333, "bike_id": "d606fdf48a6df13aa693964111c0e959", "name": "d606fdf48a6df13aa693964111c0e959", "is_reserved": 0, "fusion_lat": 0.0}, {"type": "electric_bike", "rental_uris": {"ios": "https://dc.lft.to/lastmile_qr_scan", "android": "https://dc.lft.to/lastmile_qr_scan"}, "lon": -77.00799133333334, "fusion_lon": 0.0, "is_disabled": 0, "lat": 38.9492205, "bike_id": "a0897bfb02cd5a74ff2af24c691aa4bb", "name": "a0897bfb02cd5a74ff2af24c691aa4bb", "is_reserved": 0, "fusion_lat": 0.0}, {"type": "electric_scooter", "rental_uris": {"ios": "https://dc.lft.to/lastmile_qr_scan", "android": "https://dc.lft.to/lastmile_qr_scan"}, "lon": -77.03166083333333, "fusion_lon": 0.0, "is_disabled": 0, "lat": 38.92371283333333, "bike_id": "26c5fb9cfa700c3350322495cbf4fead", "name": "26c5fb9cfa700c3350322495cbf4fead", "is_reserved": 0, "fusion_lat": 0.0}, {"type": "electric_scooter", "rental_uris": {"ios": "https://dc.lft.to/lastmile_qr_scan", "android": "https://dc.lft.to/lastmile_qr_scan"}, "lon": -77.0282495, "fusion_lon": 0.0, "is_disabled": 0, "lat": 38.93186583333333, "bike_id": "a49bb5c9e797c028a6c6a82f52928e01", "name": "a49bb5c9e797c028a6c6a82f52928e01", "is_reserved": 0, "fusion_lat": 0.0}, {"type": "electric_scooter", "rental_uris": {"ios": "https://dc.lft.to/lastmile_qr_scan", "android": "https://dc.lft.to/lastmile_qr_scan"}, "lon": -77.04136483333333, "fusion_lon": 0.0, "is_disabled": 0, "lat": 38.912081666666666, "bike_id": "9b86ed5906ae0d44579a28f705be84da", "name": "9b86ed5906ae0d44579a28f705be84da", "is_reserved": 0, "fusion_lat": 0.0}, {"type": "electric_bike", "rental_uris": {"ios": "https://dc.lft.to/lastmile_qr_scan", "android": "https://dc.lft.to/lastmile_qr_scan"}, "lon": -77.09961716666666, "fusion_lon": 0.0, "is_disabled": 0, "lat": 38.933556333333335, "bike_id": "dc9f106257aba58604f39e4d3146a359", "name": "dc9f106257aba58604f39e4d3146a359", "is_reserved": 0, "fusion_lat": 0.0}, {"type": "electric_scooter", "rental_uris": {"ios": "https://dc.lft.to/lastmile_qr_scan", "android": "https://dc.lft.to/lastmile_qr_scan"}, "lon": -77.04025366666667, "fusion_lon": 0.0, "is_disabled": 0, "lat": 38.921723166666666, "bike_id": "df678db415aeaa0f8cda10f6178adb20", "name": "df678db415aeaa0f8cda10f6178adb20", "is_reserved": 0, "fusion_lat": 0.0}, {"type": "electric_scooter", "rental_uris": {"ios": "https://dc.lft.to/lastmile_qr_scan", "android": "https://dc.lft.to/lastmile_qr_scan"}, "lon": -77.0381125, "fusion_lon": 0.0, "is_disabled": 0, "lat": 38.9206655, "bike_id": "18a4f9afc24fd61437151a8ef30d0e7e", "name": "18a4f9afc24fd61437151a8ef30d0e7e", "is_reserved": 0, "fusion_lat": 0.0}, {"type": "electric_scooter", "rental_uris": {"ios": "https://dc.lft.to/lastmile_qr_scan", "android": "https://dc.lft.to/lastmile_qr_scan"}, "lon": -77.03804166666667, "fusion_lon": 0.0, "is_disabled": 0, "lat": 38.91263583333333, "bike_id": "45ed4fa2b6f11e003e932ba261b10a6b", "name": "45ed4fa2b6f11e003e932ba261b10a6b", "is_reserved": 0, "fusion_lat": 0.0}, {"type": "electric_scooter", "rental_uris": {"ios": "https://dc.lft.to/lastmile_qr_scan", "android": "https://dc.lft.to/lastmile_qr_scan"}, "lon": -77.03211166666667, "fusion_lon": 0.0, "is_disabled": 0, "lat": 38.915729, "bike_id": "05ab08dff4c51b367c6a9f9a28d46679", "name": "05ab08dff4c51b367c6a9f9a28d46679", "is_reserved": 0, "fusion_lat": 0.0}, {"type": "electric_scooter", "rental_uris": {"ios": "https://dc.lft.to/lastmile_qr_scan", "android": "https://dc.lft.to/lastmile_qr_scan"}, "lon": -77.03150316666667, "fusion_lon": 0.0, "is_disabled": 0, "lat": 38.915586833333336, "bike_id": "d88b112ba39fc8f21b0aff6af58e8fd6", "name": "d88b112ba39fc8f21b0aff6af58e8fd6", "is_reserved": 0, "fusion_lat": 0.0}, {"type": "electric_bike", "rental_uris": {"ios": "https://dc.lft.to/lastmile_qr_scan", "android": "https://dc.lft.to/lastmile_qr_scan"}, "lon": -77.02392366666666, "fusion_lon": 0.0, "is_disabled": 0, "lat": 38.96277283333333, "bike_id": "54a12ce4d94fb9002d940db0679d35f6", "name": "54a12ce4d94fb9002d940db0679d35f6", "is_reserved": 0, "fusion_lat": 0.0}, {"type": "electric_scooter", "rental_uris": {"ios": "https://dc.lft.to/lastmile_qr_scan", "android": "https://dc.lft.to/lastmile_qr_scan"}, "lon": -77.051369, "fusion_lon": 0.0, "is_disabled": 0, "lat": 38.90579683333333, "bike_id": "5c381799a035d879b19089a9e5f807a7", "name": "5c381799a035d879b19089a9e5f807a7", "is_reserved": 0, "fusion_lat": 0.0}, {"type": "electric_scooter", "rental_uris": {"ios": "https://dc.lft.to/lastmile_qr_scan", "android": "https://dc.lft.to/lastmile_qr_scan"}, "lon": -77.0439135, "fusion_lon": 0.0, "is_disabled": 0, "lat": 38.910727, "bike_id": "a54d86c0fa52018834fe1321750a7566", "name": "a54d86c0fa52018834fe1321750a7566", "is_reserved": 0, "fusion_lat": 0.0}, {"type": "electric_bike", "rental_uris": {"ios": "https://dc.lft.to/lastmile_qr_scan", "android": "https://dc.lft.to/lastmile_qr_scan"}, "lon": -76.947981, "fusion_lon": 0.0, "is_disabled": 0, "lat": 38.89399866666667, "bike_id": "5563bc2e0a88e2918e92cdd6ad2b2ef0", "name": "5563bc2e0a88e2918e92cdd6ad2b2ef0", "is_reserved": 0, "fusion_lat": 0.0}, {"type": "electric_bike", "rental_uris": {"ios": "https://dc.lft.to/lastmile_qr_scan", "android": "https://dc.lft.to/lastmile_qr_scan"}, "lon": -76.99018633333333, "fusion_lon": 0.0, "is_disabled": 0, "lat": 38.95478, "bike_id": "2a481e78c07d64f6f0dbf67286ab7fdf", "name": "2a481e78c07d64f6f0dbf67286ab7fdf", "is_reserved": 0, "fusion_lat": 0.0}, {"type": "electric_bike", "rental_uris": {"ios": "https://dc.lft.to/lastmile_qr_scan", "android": "https://dc.lft.to/lastmile_qr_scan"}, "lon": -77.0066865, "fusion_lon": 0.0, "is_disabled": 0, "lat": 38.94509266666667, "bike_id": "1da9f8566f745de0fbcc98a295780f7f", "name": "1da9f8566f745de0fbcc98a295780f7f", "is_reserved": 0, "fusion_lat": 0.0}, {"type": "electric_bike", "rental_uris": {"ios": "https://dc.lft.to/lastmile_qr_scan", "android": "https://dc.lft.to/lastmile_qr_scan"}, "lon": -76.9626085, "fusion_lon": 0.0, "is_disabled": 0, "lat": 38.882457333333335, "bike_id": "ea0af60522c4935e987cd63bdaf6e3e8", "name": "ea0af60522c4935e987cd63bdaf6e3e8", "is_reserved": 0, "fusion_lat": 0.0}, {"type": "electric_scooter", "rental_uris": {"ios": "https://dc.lft.to/lastmile_qr_scan", "android": "https://dc.lft.to/lastmile_qr_scan"}, "lon": -77.03209133333333, "fusion_lon": 0.0, "is_disabled": 0, "lat": 38.917055500000004, "bike_id": "01d3aa9f1b1a09c6b09c407d902fe0e0", "name": "01d3aa9f1b1a09c6b09c407d902fe0e0", "is_reserved": 0, "fusion_lat": 0.0}, {"type": "electric_scooter", "rental_uris": {"ios": "https://dc.lft.to/lastmile_qr_scan", "android": "https://dc.lft.to/lastmile_qr_scan"}, "lon": -76.954145, "fusion_lon": 0.0, "is_disabled": 0, "lat": 38.890645, "bike_id": "a7e493cdd2f14c25eb1c068b2de35b03", "name": "a7e493cdd2f14c25eb1c068b2de35b03", "is_reserved": 0, "fusion_lat": 0.0}, {"type": "electric_scooter", "rental_uris": {"ios": "https://dc.lft.to/lastmile_qr_scan", "android": "https://dc.lft.to/lastmile_qr_scan"}, "lon": -76.98347016666666, "fusion_lon": 0.0, "is_disabled": 0, "lat": 38.90749433333333, "bike_id": "6fa3727a51cb8c2062e6ec77c74fb430", "name": "6fa3727a51cb8c2062e6ec77c74fb430", "is_reserved": 0, "fusion_lat": 0.0}, {"type": "electric_scooter", "rental_uris": {"ios": "https://dc.lft.to/lastmile_qr_scan", "android": "https://dc.lft.to/lastmile_qr_scan"}, "lon": -77.04442066666667, "fusion_lon": 0.0, "is_disabled": 0, "lat": 38.912563, "bike_id": "7e6635ee34fb024f901c5c95622dc7e1", "name": "7e6635ee34fb024f901c5c95622dc7e1", "is_reserved": 0, "fusion_lat": 0.0}, {"type": "electric_scooter", "rental_uris": {"ios": "https://dc.lft.to/lastmile_qr_scan", "android": "https://dc.lft.to/lastmile_qr_scan"}, "lon": -77.0061215, "fusion_lon": 0.0, "is_disabled": 0, "lat": 38.87182083333333, "bike_id": "efa639ba7f72d0990da940ed255928f2", "name": "efa639ba7f72d0990da940ed255928f2", "is_reserved": 0, "fusion_lat": 0.0}, {"type": "electric_scooter", "rental_uris": {"ios": "https://dc.lft.to/lastmile_qr_scan", "android": "https://dc.lft.to/lastmile_qr_scan"}, "lon": -77.03214533333333, "fusion_lon": 0.0, "is_disabled": 0, "lat": 38.91993766666667, "bike_id": "f8d221b6ff63eeafdeae2cec34623d90", "name": "f8d221b6ff63eeafdeae2cec34623d90", "is_reserved": 0, "fusion_lat": 0.0}, {"type": "electric_scooter", "rental_uris": {"ios": "https://dc.lft.to/lastmile_qr_scan", "android": "https://dc.lft.to/lastmile_qr_scan"}, "lon": -77.03856316666666, "fusion_lon": 0.0, "is_disabled": 0, "lat": 38.86753316666667, "bike_id": "1d8fef3ca677e1c5e50a65bc40a31de5", "name": "1d8fef3ca677e1c5e50a65bc40a31de5", "is_reserved": 0, "fusion_lat": 0.0}, {"type": "electric_scooter", "rental_uris": {"ios": "https://dc.lft.to/lastmile_qr_scan", "android": "https://dc.lft.to/lastmile_qr_scan"}, "lon": -77.0343875, "fusion_lon": 0.0, "is_disabled": 0, "lat": 38.90727616666667, "bike_id": "83f8a40c29fee251b6a75f946fed9d7f", "name": "83f8a40c29fee251b6a75f946fed9d7f", "is_reserved": 0, "fusion_lat": 0.0}, {"type": "electric_scooter", "rental_uris": {"ios": "https://dc.lft.to/lastmile_qr_scan", "android": "https://dc.lft.to/lastmile_qr_scan"}, "lon": -77.02228333333333, "fusion_lon": 0.0, "is_disabled": 0, "lat": 38.91255133333333, "bike_id": "3e2aa14fc990de546f9ab213af83192f", "name": "3e2aa14fc990de546f9ab213af83192f", "is_reserved": 0, "fusion_lat": 0.0}, {"type": "electric_bike", "rental_uris": {"ios": "https://dc.lft.to/lastmile_qr_scan", "android": "https://dc.lft.to/lastmile_qr_scan"}, "lon": -76.97832666666666, "fusion_lon": 0.0, "is_disabled": 0, "lat": 38.87067916666667, "bike_id": "518cba5d2f601774f983837214b59ad1", "name": "518cba5d2f601774f983837214b59ad1", "is_reserved": 0, "fusion_lat": 0.0}, {"type": "electric_scooter", "rental_uris": {"ios": "https://dc.lft.to/lastmile_qr_scan", "android": "https://dc.lft.to/lastmile_qr_scan"}, "lon": -77.006115, "fusion_lon": 0.0, "is_disabled": 0, "lat": 38.871806, "bike_id": "862b42dc2f718c6224fb048bbab561c1", "name": "862b42dc2f718c6224fb048bbab561c1", "is_reserved": 0, "fusion_lat": 0.0}, {"type": "electric_scooter", "rental_uris": {"ios": "https://dc.lft.to/lastmile_qr_scan", "android": "https://dc.lft.to/lastmile_qr_scan"}, "lon": -77.03156983333334, "fusion_lon": 0.0, "is_disabled": 0, "lat": 38.915633166666666, "bike_id": "7ee477578c8c14ab78ee1818e86590f8", "name": "7ee477578c8c14ab78ee1818e86590f8", "is_reserved": 0, "fusion_lat": 0.0}, {"type": "electric_scooter", "rental_uris": {"ios": "https://dc.lft.to/lastmile_qr_scan", "android": "https://dc.lft.to/lastmile_qr_scan"}, "lon": -77.03697466666667, "fusion_lon": 0.0, "is_disabled": 0, "lat": 38.926157333333336, "bike_id": "276dc5663a5c59176ce00d983b9867af", "name": "276dc5663a5c59176ce00d983b9867af", "is_reserved": 0, "fusion_lat": 0.0}, {"type": "electric_scooter", "rental_uris": {"ios": "https://dc.lft.to/lastmile_qr_scan", "android": "https://dc.lft.to/lastmile_qr_scan"}, "lon": -77.02492516666666, "fusion_lon": 0.0, "is_disabled": 0, "lat": 38.94186083333334, "bike_id": "2bc1b1259e9f19b173e4038b75c10f91", "name": "2bc1b1259e9f19b173e4038b75c10f91", "is_reserved": 0, "fusion_lat": 0.0}, {"type": "electric_scooter", "rental_uris": {"ios": "https://dc.lft.to/lastmile_qr_scan", "android": "https://dc.lft.to/lastmile_qr_scan"}, "lon": -77.03211016666667, "fusion_lon": 0.0, "is_disabled": 0, "lat": 38.912053, "bike_id": "8dabe5212e127822097a79ab74766c16", "name": "8dabe5212e127822097a79ab74766c16", "is_reserved": 0, "fusion_lat": 0.0}, {"type": "electric_scooter", "rental_uris": {"ios": "https://dc.lft.to/lastmile_qr_scan", "android": "https://dc.lft.to/lastmile_qr_scan"}, "lon": -77.05863516666666, "fusion_lon": 0.0, "is_disabled": 0, "lat": 38.9355095, "bike_id": "bd0fbbc60a99dbfe848cd14ef8350df2", "name": "bd0fbbc60a99dbfe848cd14ef8350df2", "is_reserved": 0, "fusion_lat": 0.0}, {"type": "electric_scooter", "rental_uris": {"ios": "https://dc.lft.to/lastmile_qr_scan", "android": "https://dc.lft.to/lastmile_qr_scan"}, "lon": -77.04847016666666, "fusion_lon": 0.0, "is_disabled": 0, "lat": 38.9046495, "bike_id": "f7761481dd3f35eb2756fcf1f9c37b04", "name": "f7761481dd3f35eb2756fcf1f9c37b04", "is_reserved": 0, "fusion_lat": 0.0}, {"type": "electric_scooter", "rental_uris": {"ios": "https://dc.lft.to/lastmile_qr_scan", "android": "https://dc.lft.to/lastmile_qr_scan"}, "lon": -77.03264683333333, "fusion_lon": 0.0, "is_disabled": 0, "lat": 38.915680333333334, "bike_id": "f656187dc6f2228fa458c4cd14ccd83e", "name": "f656187dc6f2228fa458c4cd14ccd83e", "is_reserved": 0, "fusion_lat": 0.0}, {"type": "electric_scooter", "rental_uris": {"ios": "https://dc.lft.to/lastmile_qr_scan", "android": "https://dc.lft.to/lastmile_qr_scan"}, "lon": -77.02178816666667, "fusion_lon": 0.0, "is_disabled": 0, "lat": 38.893013333333336, "bike_id": "87003b8a8c16e9144902ca5bf1860ff1", "name": "87003b8a8c16e9144902ca5bf1860ff1", "is_reserved": 0, "fusion_lat": 0.0}, {"type": "electric_scooter", "rental_uris": {"ios": "https://dc.lft.to/lastmile_qr_scan", "android": "https://dc.lft.to/lastmile_qr_scan"}, "lon": -76.9781115, "fusion_lon": 0.0, "is_disabled": 0, "lat": 38.8945385, "bike_id": "668dc78e8c588b8be7ebe9d2c7f32e1e", "name": "668dc78e8c588b8be7ebe9d2c7f32e1e", "is_reserved": 0, "fusion_lat": 0.0}, {"type": "electric_bike", "rental_uris": {"ios": "https://dc.lft.to/lastmile_qr_scan", "android": "https://dc.lft.to/lastmile_qr_scan"}, "lon": -77.07907483333334, "fusion_lon": 0.0, "is_disabled": 0, "lat": 38.8393625, "bike_id": "4713e80084dbe302e0220fe4d932fc6e", "name": "4713e80084dbe302e0220fe4d932fc6e", "is_reserved": 0, "fusion_lat": 0.0}, {"type": "electric_bike", "rental_uris": {"ios": "https://dc.lft.to/lastmile_qr_scan", "android": "https://dc.lft.to/lastmile_qr_scan"}, "lon": -77.03331266666666, "fusion_lon": 0.0, "is_disabled": 0, "lat": 38.963210833333335, "bike_id": "20de0546fce1c3f086947040c34aa7f9", "name": "20de0546fce1c3f086947040c34aa7f9", "is_reserved": 0, "fusion_lat": 0.0}, {"type": "electric_scooter", "rental_uris": {"ios": "https://dc.lft.to/lastmile_qr_scan", "android": "https://dc.lft.to/lastmile_qr_scan"}, "lon": -77.03194383333333, "fusion_lon": 0.0, "is_disabled": 0, "lat": 38.916146, "bike_id": "bd6826efd69d6378de47fb048c8e21c5", "name": "bd6826efd69d6378de47fb048c8e21c5", "is_reserved": 0, "fusion_lat": 0.0}, {"type": "electric_bike", "rental_uris": {"ios": "https://dc.lft.to/lastmile_qr_scan", "android": "https://dc.lft.to/lastmile_qr_scan"}, "lon": -76.98203, "fusion_lon": 0.0, "is_disabled": 0, "lat": 38.9850045, "bike_id": "7feec1f1c65e84f543be1779d8633e75", "name": "7feec1f1c65e84f543be1779d8633e75", "is_reserved": 0, "fusion_lat": 0.0}, {"type": "electric_scooter", "rental_uris": {"ios": "https://dc.lft.to/lastmile_qr_scan", "android": "https://dc.lft.to/lastmile_qr_scan"}, "lon": -77.02168483333334, "fusion_lon": 0.0, "is_disabled": 0, "lat": 38.94698666666667, "bike_id": "38354e6de7315a2e1553884f179e38b4", "name": "38354e6de7315a2e1553884f179e38b4", "is_reserved": 0, "fusion_lat": 0.0}, {"type": "electric_scooter", "rental_uris": {"ios": "https://dc.lft.to/lastmile_qr_scan", "android": "https://dc.lft.to/lastmile_qr_scan"}, "lon": -77.05001666666666, "fusion_lon": 0.0, "is_disabled": 0, "lat": 38.892291666666665, "bike_id": "7524a6ba1c946521acee734be919415d", "name": "7524a6ba1c946521acee734be919415d", "is_reserved": 0, "fusion_lat": 0.0}, {"type": "electric_scooter", "rental_uris": {"ios": "https://dc.lft.to/lastmile_qr_scan", "android": "https://dc.lft.to/lastmile_qr_scan"}, "lon": -77.03226516666666, "fusion_lon": 0.0, "is_disabled": 0, "lat": 38.917164666666665, "bike_id": "119f96a0004e2eb3f7e9cb88b065bda4", "name": "119f96a0004e2eb3f7e9cb88b065bda4", "is_reserved": 0, "fusion_lat": 0.0}, {"type": "electric_scooter", "rental_uris": {"ios": "https://dc.lft.to/lastmile_qr_scan", "android": "https://dc.lft.to/lastmile_qr_scan"}, "lon": -77.03127583333334, "fusion_lon": 0.0, "is_disabled": 0, "lat": 38.95935683333333, "bike_id": "751b0c78ad1e085f8c97b8e731ec5ac2", "name": "751b0c78ad1e085f8c97b8e731ec5ac2", "is_reserved": 0, "fusion_lat": 0.0}, {"type": "electric_bike", "rental_uris": {"ios": "https://dc.lft.to/lastmile_qr_scan", "android": "https://dc.lft.to/lastmile_qr_scan"}, "lon": -77.01772266666667, "fusion_lon": 0.0, "is_disabled": 0, "lat": 38.982738166666664, "bike_id": "9da5fc6399c5e289989083538e3d6a8f", "name": "9da5fc6399c5e289989083538e3d6a8f", "is_reserved": 0, "fusion_lat": 0.0}, {"type": "electric_bike", "rental_uris": {"ios": "https://dc.lft.to/lastmile_qr_scan", "android": "https://dc.lft.to/lastmile_qr_scan"}, "lon": -77.06860116666667, "fusion_lon": 0.0, "is_disabled": 0, "lat": 38.805749666666664, "bike_id": "a592ef374ed2188586fae3b1c76c989f", "name": "a592ef374ed2188586fae3b1c76c989f", "is_reserved": 0, "fusion_lat": 0.0}, {"type": "electric_scooter", "rental_uris": {"ios": "https://dc.lft.to/lastmile_qr_scan", "android": "https://dc.lft.to/lastmile_qr_scan"}, "lon": -77.02287683333333, "fusion_lon": 0.0, "is_disabled": 0, "lat": 38.91671016666667, "bike_id": "ec5d7d4245e909b961049267907ac553", "name": "ec5d7d4245e909b961049267907ac553", "is_reserved": 0, "fusion_lat": 0.0}, {"type": "electric_scooter", "rental_uris": {"ios": "https://dc.lft.to/lastmile_qr_scan", "android": "https://dc.lft.to/lastmile_qr_scan"}, "lon": -77.02505683333334, "fusion_lon": 0.0, "is_disabled": 0, "lat": 38.919723, "bike_id": "932ccf2b01362d5c40f6e546ad11b7d4", "name": "932ccf2b01362d5c40f6e546ad11b7d4", "is_reserved": 0, "fusion_lat": 0.0}, {"type": "electric_bike", "rental_uris": {"ios": "https://dc.lft.to/lastmile_qr_scan", "android": "https://dc.lft.to/lastmile_qr_scan"}, "lon": -77.010341, "fusion_lon": 0.0, "is_disabled": 0, "lat": 38.958796, "bike_id": "44c936ec402894f8c760acc214f6dea8", "name": "44c936ec402894f8c760acc214f6dea8", "is_reserved": 0, "fusion_lat": 0.0}, {"type": "electric_scooter", "rental_uris": {"ios": "https://dc.lft.to/lastmile_qr_scan", "android": "https://dc.lft.to/lastmile_qr_scan"}, "lon": -77.02440283333334, "fusion_lon": 0.0, "is_disabled": 0, "lat": 38.937932833333335, "bike_id": "bd7d155139cf283527ddd458b49c3aef", "name": "bd7d155139cf283527ddd458b49c3aef", "is_reserved": 0, "fusion_lat": 0.0}, {"type": "electric_scooter", "rental_uris": {"ios": "https://dc.lft.to/lastmile_qr_scan", "android": "https://dc.lft.to/lastmile_qr_scan"}, "lon": -77.03268033333333, "fusion_lon": 0.0, "is_disabled": 0, "lat": 38.919114666666665, "bike_id": "f30b7acbc54ae87d00ff89c1bc7933e6", "name": "f30b7acbc54ae87d00ff89c1bc7933e6", "is_reserved": 0, "fusion_lat": 0.0}, {"type": "electric_scooter", "rental_uris": {"ios": "https://dc.lft.to/lastmile_qr_scan", "android": "https://dc.lft.to/lastmile_qr_scan"}, "lon": -77.02754483333334, "fusion_lon": 0.0, "is_disabled": 0, "lat": 38.92771833333333, "bike_id": "38562f7e2c6486d6c3eb137ed2b66878", "name": "38562f7e2c6486d6c3eb137ed2b66878", "is_reserved": 0, "fusion_lat": 0.0}, {"type": "electric_scooter", "rental_uris": {"ios": "https://dc.lft.to/lastmile_qr_scan", "android": "https://dc.lft.to/lastmile_qr_scan"}, "lon": -77.03209333333334, "fusion_lon": 0.0, "is_disabled": 0, "lat": 38.90969783333333, "bike_id": "86938243318c1d66483dac68c5e652f4", "name": "86938243318c1d66483dac68c5e652f4", "is_reserved": 0, "fusion_lat": 0.0}, {"type": "electric_bike", "rental_uris": {"ios": "https://dc.lft.to/lastmile_qr_scan", "android": "https://dc.lft.to/lastmile_qr_scan"}, "lon": -77.10776883333334, "fusion_lon": 0.0, "is_disabled": 0, "lat": 38.892191833333335, "bike_id": "a71f247b84729ea3eca6674c80b73309", "name": "a71f247b84729ea3eca6674c80b73309", "is_reserved": 0, "fusion_lat": 0.0}, {"type": "electric_scooter", "rental_uris": {"ios": "https://dc.lft.to/lastmile_qr_scan", "android": "https://dc.lft.to/lastmile_qr_scan"}, "lon": -76.9653025, "fusion_lon": 0.0, "is_disabled": 0, "lat": 38.87631183333333, "bike_id": "2ee123463c22e9a97608004b4e72046a", "name": "2ee123463c22e9a97608004b4e72046a", "is_reserved": 0, "fusion_lat": 0.0}, {"type": "electric_scooter", "rental_uris": {"ios": "https://dc.lft.to/lastmile_qr_scan", "android": "https://dc.lft.to/lastmile_qr_scan"}, "lon": -77.00456966666667, "fusion_lon": 0.0, "is_disabled": 0, "lat": 38.9114585, "bike_id": "42d21d29070013c59b44305d15836e27", "name": "42d21d29070013c59b44305d15836e27", "is_reserved": 0, "fusion_lat": 0.0}, {"type": "electric_scooter", "rental_uris": {"ios": "https://dc.lft.to/lastmile_qr_scan", "android": "https://dc.lft.to/lastmile_qr_scan"}, "lon": -77.038381, "fusion_lon": 0.0, "is_disabled": 0, "lat": 38.910150333333334, "bike_id": "16b226299d3b7cc5589d63b9c2560d74", "name": "16b226299d3b7cc5589d63b9c2560d74", "is_reserved": 0, "fusion_lat": 0.0}, {"type": "electric_scooter", "rental_uris": {"ios": "https://dc.lft.to/lastmile_qr_scan", "android": "https://dc.lft.to/lastmile_qr_scan"}, "lon": -77.00604933333334, "fusion_lon": 0.0, "is_disabled": 0, "lat": 38.90657066666667, "bike_id": "49f9a049d7e625ebebe80960635bdf12", "name": "49f9a049d7e625ebebe80960635bdf12", "is_reserved": 0, "fusion_lat": 0.0}, {"type": "electric_scooter", "rental_uris": {"ios": "https://dc.lft.to/lastmile_qr_scan", "android": "https://dc.lft.to/lastmile_qr_scan"}, "lon": -77.02324833333333, "fusion_lon": 0.0, "is_disabled": 0, "lat": 38.902094166666664, "bike_id": "937b36ddb7df381c1119899d30e78911", "name": "937b36ddb7df381c1119899d30e78911", "is_reserved": 0, "fusion_lat": 0.0}, {"type": "electric_scooter", "rental_uris": {"ios": "https://dc.lft.to/lastmile_qr_scan", "android": "https://dc.lft.to/lastmile_qr_scan"}, "lon": -77.02173683333334, "fusion_lon": 0.0, "is_disabled": 0, "lat": 38.94290183333333, "bike_id": "15705535f7cd685da2883bee832d15c4", "name": "15705535f7cd685da2883bee832d15c4", "is_reserved": 0, "fusion_lat": 0.0}, {"type": "electric_scooter", "rental_uris": {"ios": "https://dc.lft.to/lastmile_qr_scan", "android": "https://dc.lft.to/lastmile_qr_scan"}, "lon": -76.9314345, "fusion_lon": 0.0, "is_disabled": 0, "lat": 38.89341816666666, "bike_id": "8f2d312927ec0d6de6785498791937e9", "name": "8f2d312927ec0d6de6785498791937e9", "is_reserved": 0, "fusion_lat": 0.0}, {"type": "electric_scooter", "rental_uris": {"ios": "https://dc.lft.to/lastmile_qr_scan", "android": "https://dc.lft.to/lastmile_qr_scan"}, "lon": -77.03195183333334, "fusion_lon": 0.0, "is_disabled": 0, "lat": 38.9117015, "bike_id": "fdc6401abf93bf878389109c6ae47224", "name": "fdc6401abf93bf878389109c6ae47224", "is_reserved": 0, "fusion_lat": 0.0}, {"type": "electric_bike", "rental_uris": {"ios": "https://dc.lft.to/lastmile_qr_scan", "android": "https://dc.lft.to/lastmile_qr_scan"}, "lon": -77.03347366666667, "fusion_lon": 0.0, "is_disabled": 0, "lat": 38.96941183333333, "bike_id": "5a4abb0e8d05398af6f49db57fa6bdb4", "name": "5a4abb0e8d05398af6f49db57fa6bdb4", "is_reserved": 0, "fusion_lat": 0.0}, {"type": "electric_scooter", "rental_uris": {"ios": "https://dc.lft.to/lastmile_qr_scan", "android": "https://dc.lft.to/lastmile_qr_scan"}, "lon": -77.0057615, "fusion_lon": 0.0, "is_disabled": 0, "lat": 38.90882783333333, "bike_id": "b9baee02f099ea324fbdf389c8a207a0", "name": "b9baee02f099ea324fbdf389c8a207a0", "is_reserved": 0, "fusion_lat": 0.0}, {"type": "electric_scooter", "rental_uris": {"ios": "https://dc.lft.to/lastmile_qr_scan", "android": "https://dc.lft.to/lastmile_qr_scan"}, "lon": -76.999377, "fusion_lon": 0.0, "is_disabled": 0, "lat": 38.889766333333334, "bike_id": "99dd2094774d2918e92d64ca646570c3", "name": "99dd2094774d2918e92d64ca646570c3", "is_reserved": 0, "fusion_lat": 0.0}, {"type": "electric_scooter", "rental_uris": {"ios": "https://dc.lft.to/lastmile_qr_scan", "android": "https://dc.lft.to/lastmile_qr_scan"}, "lon": -76.985816, "fusion_lon": 0.0, "is_disabled": 0, "lat": 38.85448233333334, "bike_id": "50a1b87914f787e112fc84cd5c1e8e1b", "name": "50a1b87914f787e112fc84cd5c1e8e1b", "is_reserved": 0, "fusion_lat": 0.0}, {"type": "electric_scooter", "rental_uris": {"ios": "https://dc.lft.to/lastmile_qr_scan", "android": "https://dc.lft.to/lastmile_qr_scan"}, "lon": -77.05757383333334, "fusion_lon": 0.0, "is_disabled": 0, "lat": 38.92385183333333, "bike_id": "32edd4f402fc9559f1c8aff57e40006f", "name": "32edd4f402fc9559f1c8aff57e40006f", "is_reserved": 0, "fusion_lat": 0.0}, {"type": "electric_bike", "rental_uris": {"ios": "https://dc.lft.to/lastmile_qr_scan", "android": "https://dc.lft.to/lastmile_qr_scan"}, "lon": -77.02629083333333, "fusion_lon": 0.0, "is_disabled": 0, "lat": 38.962341, "bike_id": "03dfb1a8efb8bcf3c79a64b4419a11ae", "name": "03dfb1a8efb8bcf3c79a64b4419a11ae", "is_reserved": 0, "fusion_lat": 0.0}, {"type": "electric_scooter", "rental_uris": {"ios": "https://dc.lft.to/lastmile_qr_scan", "android": "https://dc.lft.to/lastmile_qr_scan"}, "lon": -77.01359216666667, "fusion_lon": 0.0, "is_disabled": 0, "lat": 38.886658833333335, "bike_id": "4992a108828c2d7f2e231bc8c1dfe4e8", "name": "4992a108828c2d7f2e231bc8c1dfe4e8", "is_reserved": 0, "fusion_lat": 0.0}, {"type": "electric_scooter", "rental_uris": {"ios": "https://dc.lft.to/lastmile_qr_scan", "android": "https://dc.lft.to/lastmile_qr_scan"}, "lon": -77.036657, "fusion_lon": 0.0, "is_disabled": 0, "lat": 38.9224645, "bike_id": "db9f8884553fbffcbf505d3f7f1d367e", "name": "db9f8884553fbffcbf505d3f7f1d367e", "is_reserved": 0, "fusion_lat": 0.0}, {"type": "electric_scooter", "rental_uris": {"ios": "https://dc.lft.to/lastmile_qr_scan", "android": "https://dc.lft.to/lastmile_qr_scan"}, "lon": -77.020099, "fusion_lon": 0.0, "is_disabled": 0, "lat": 38.924151333333334, "bike_id": "32c42751444230f02b2ef021df25b1aa", "name": "32c42751444230f02b2ef021df25b1aa", "is_reserved": 0, "fusion_lat": 0.0}, {"type": "electric_bike", "rental_uris": {"ios": "https://dc.lft.to/lastmile_qr_scan", "android": "https://dc.lft.to/lastmile_qr_scan"}, "lon": -77.08123083333334, "fusion_lon": 0.0, "is_disabled": 0, "lat": 38.80681633333333, "bike_id": "d5b58e93ce56b7ff94c03dc6919816ed", "name": "d5b58e93ce56b7ff94c03dc6919816ed", "is_reserved": 0, "fusion_lat": 0.0}, {"type": "electric_scooter", "rental_uris": {"ios": "https://dc.lft.to/lastmile_qr_scan", "android": "https://dc.lft.to/lastmile_qr_scan"}, "lon": -77.04896766666667, "fusion_lon": 0.0, "is_disabled": 0, "lat": 38.892262333333335, "bike_id": "d11f2f154e81f86932e06efc9423d231", "name": "d11f2f154e81f86932e06efc9423d231", "is_reserved": 0, "fusion_lat": 0.0}, {"type": "electric_scooter", "rental_uris": {"ios": "https://dc.lft.to/lastmile_qr_scan", "android": "https://dc.lft.to/lastmile_qr_scan"}, "lon": -77.036671, "fusion_lon": 0.0, "is_disabled": 0, "lat": 38.92601883333333, "bike_id": "ef017c36f8b80dc8722733c78a6fcfa4", "name": "ef017c36f8b80dc8722733c78a6fcfa4", "is_reserved": 0, "fusion_lat": 0.0}, {"type": "electric_scooter", "rental_uris": {"ios": "https://dc.lft.to/lastmile_qr_scan", "android": "https://dc.lft.to/lastmile_qr_scan"}, "lon": -77.0234345, "fusion_lon": 0.0, "is_disabled": 0, "lat": 38.917800166666666, "bike_id": "3ac79f812a1f8926efd227f288f09dee", "name": "3ac79f812a1f8926efd227f288f09dee", "is_reserved": 0, "fusion_lat": 0.0}, {"type": "electric_scooter", "rental_uris": {"ios": "https://dc.lft.to/lastmile_qr_scan", "android": "https://dc.lft.to/lastmile_qr_scan"}, "lon": -77.04012183333333, "fusion_lon": 0.0, "is_disabled": 0, "lat": 38.92431766666667, "bike_id": "23b0129df4855ed47328406c38ab917d", "name": "23b0129df4855ed47328406c38ab917d", "is_reserved": 0, "fusion_lat": 0.0}, {"type": "electric_bike", "rental_uris": {"ios": "https://dc.lft.to/lastmile_qr_scan", "android": "https://dc.lft.to/lastmile_qr_scan"}, "lon": -76.91606716666666, "fusion_lon": 0.0, "is_disabled": 0, "lat": 38.879705666666666, "bike_id": "8f306081001f1f187c32d5f4510c9a15", "name": "8f306081001f1f187c32d5f4510c9a15", "is_reserved": 0, "fusion_lat": 0.0}, {"type": "electric_scooter", "rental_uris": {"ios": "https://dc.lft.to/lastmile_qr_scan", "android": "https://dc.lft.to/lastmile_qr_scan"}, "lon": -76.98005066666667, "fusion_lon": 0.0, "is_disabled": 0, "lat": 38.901171833333336, "bike_id": "8a1eeb320ecb6d434311d992dd640fe2", "name": "8a1eeb320ecb6d434311d992dd640fe2", "is_reserved": 0, "fusion_lat": 0.0}, {"type": "electric_scooter", "rental_uris": {"ios": "https://dc.lft.to/lastmile_qr_scan", "android": "https://dc.lft.to/lastmile_qr_scan"}, "lon": -77.05559633333333, "fusion_lon": 0.0, "is_disabled": 0, "lat": 38.90016633333333, "bike_id": "487ae8ddf5f8eb2dc286195bb5464634", "name": "487ae8ddf5f8eb2dc286195bb5464634", "is_reserved": 0, "fusion_lat": 0.0}, {"type": "electric_scooter", "rental_uris": {"ios": "https://dc.lft.to/lastmile_qr_scan", "android": "https://dc.lft.to/lastmile_qr_scan"}, "lon": -77.03639416666667, "fusion_lon": 0.0, "is_disabled": 0, "lat": 38.913032333333334, "bike_id": "668c30a7bd64d93863a5ae103916a4ad", "name": "668c30a7bd64d93863a5ae103916a4ad", "is_reserved": 0, "fusion_lat": 0.0}, {"type": "electric_scooter", "rental_uris": {"ios": "https://dc.lft.to/lastmile_qr_scan", "android": "https://dc.lft.to/lastmile_qr_scan"}, "lon": -77.03178216666667, "fusion_lon": 0.0, "is_disabled": 0, "lat": 38.909796, "bike_id": "a6ac6cf236abce802cc7dbf6e98f9a25", "name": "a6ac6cf236abce802cc7dbf6e98f9a25", "is_reserved": 0, "fusion_lat": 0.0}, {"type": "electric_scooter", "rental_uris": {"ios": "https://dc.lft.to/lastmile_qr_scan", "android": "https://dc.lft.to/lastmile_qr_scan"}, "lon": -77.0269715, "fusion_lon": 0.0, "is_disabled": 0, "lat": 38.9257075, "bike_id": "ee3d3eafbd455ac675b2fc19ba4e11ea", "name": "ee3d3eafbd455ac675b2fc19ba4e11ea", "is_reserved": 0, "fusion_lat": 0.0}, {"type": "electric_scooter", "rental_uris": {"ios": "https://dc.lft.to/lastmile_qr_scan", "android": "https://dc.lft.to/lastmile_qr_scan"}, "lon": -77.00466866666666, "fusion_lon": 0.0, "is_disabled": 0, "lat": 38.87668, "bike_id": "aa8ae5c8ea7404706116d91f0e98a6a1", "name": "aa8ae5c8ea7404706116d91f0e98a6a1", "is_reserved": 0, "fusion_lat": 0.0}, {"type": "electric_scooter", "rental_uris": {"ios": "https://dc.lft.to/lastmile_qr_scan", "android": "https://dc.lft.to/lastmile_qr_scan"}, "lon": -77.03210933333334, "fusion_lon": 0.0, "is_disabled": 0, "lat": 38.91846666666667, "bike_id": "2f5d8f1fab2cba9f26937d7418b96be5", "name": "2f5d8f1fab2cba9f26937d7418b96be5", "is_reserved": 0, "fusion_lat": 0.0}, {"type": "electric_scooter", "rental_uris": {"ios": "https://dc.lft.to/lastmile_qr_scan", "android": "https://dc.lft.to/lastmile_qr_scan"}, "lon": -77.0167925, "fusion_lon": 0.0, "is_disabled": 0, "lat": 38.88121116666667, "bike_id": "f9e87d161e64d990987b648fbb49ee4c", "name": "f9e87d161e64d990987b648fbb49ee4c", "is_reserved": 0, "fusion_lat": 0.0}, {"type": "electric_bike", "rental_uris": {"ios": "https://dc.lft.to/lastmile_qr_scan", "android": "https://dc.lft.to/lastmile_qr_scan"}, "lon": -77.08091, "fusion_lon": 0.0, "is_disabled": 0, "lat": 38.9085845, "bike_id": "78fd431c6efe1a5126258c3bc66e505a", "name": "78fd431c6efe1a5126258c3bc66e505a", "is_reserved": 0, "fusion_lat": 0.0}, {"type": "electric_scooter", "rental_uris": {"ios": "https://dc.lft.to/lastmile_qr_scan", "android": "https://dc.lft.to/lastmile_qr_scan"}, "lon": -77.038286, "fusion_lon": 0.0, "is_disabled": 0, "lat": 38.921726166666666, "bike_id": "3aa8a7a8bed5e34e7c3a5671ee5e9eb1", "name": "3aa8a7a8bed5e34e7c3a5671ee5e9eb1", "is_reserved": 0, "fusion_lat": 0.0}, {"type": "electric_scooter", "rental_uris": {"ios": "https://dc.lft.to/lastmile_qr_scan", "android": "https://dc.lft.to/lastmile_qr_scan"}, "lon": -77.0455085, "fusion_lon": 0.0, "is_disabled": 0, "lat": 38.93409916666667, "bike_id": "607b40a2f075ddfd42e113be2bbcedf4", "name": "607b40a2f075ddfd42e113be2bbcedf4", "is_reserved": 0, "fusion_lat": 0.0}, {"type": "electric_scooter", "rental_uris": {"ios": "https://dc.lft.to/lastmile_qr_scan", "android": "https://dc.lft.to/lastmile_qr_scan"}, "lon": -77.02285533333334, "fusion_lon": 0.0, "is_disabled": 0, "lat": 38.91683483333333, "bike_id": "5171e2eca3b522ca359e6d2a7346a6bb", "name": "5171e2eca3b522ca359e6d2a7346a6bb", "is_reserved": 0, "fusion_lat": 0.0}, {"type": "electric_scooter", "rental_uris": {"ios": "https://dc.lft.to/lastmile_qr_scan", "android": "https://dc.lft.to/lastmile_qr_scan"}, "lon": -77.0301035, "fusion_lon": 0.0, "is_disabled": 0, "lat": 38.939697833333334, "bike_id": "32ae0e0b94bd384b0727bf30dfafa2e4", "name": "32ae0e0b94bd384b0727bf30dfafa2e4", "is_reserved": 0, "fusion_lat": 0.0}, {"type": "electric_scooter", "rental_uris": {"ios": "https://dc.lft.to/lastmile_qr_scan", "android": "https://dc.lft.to/lastmile_qr_scan"}, "lon": -77.01946983333333, "fusion_lon": 0.0, "is_disabled": 0, "lat": 38.949252666666666, "bike_id": "3ef416622ce85c84df5eda5523f7d5cd", "name": "3ef416622ce85c84df5eda5523f7d5cd", "is_reserved": 0, "fusion_lat": 0.0}, {"type": "electric_scooter", "rental_uris": {"ios": "https://dc.lft.to/lastmile_qr_scan", "android": "https://dc.lft.to/lastmile_qr_scan"}, "lon": -76.94190716666667, "fusion_lon": 0.0, "is_disabled": 0, "lat": 38.897536, "bike_id": "28d1e6c394a0b5336d7d5151d91cb16d", "name": "28d1e6c394a0b5336d7d5151d91cb16d", "is_reserved": 0, "fusion_lat": 0.0}, {"type": "electric_scooter", "rental_uris": {"ios": "https://dc.lft.to/lastmile_qr_scan", "android": "https://dc.lft.to/lastmile_qr_scan"}, "lon": -77.02602616666667, "fusion_lon": 0.0, "is_disabled": 0, "lat": 38.91689516666667, "bike_id": "e4a81b3867315473bc3366bfc628cbc5", "name": "e4a81b3867315473bc3366bfc628cbc5", "is_reserved": 0, "fusion_lat": 0.0}, {"type": "electric_scooter", "rental_uris": {"ios": "https://dc.lft.to/lastmile_qr_scan", "android": "https://dc.lft.to/lastmile_qr_scan"}, "lon": -77.040348, "fusion_lon": 0.0, "is_disabled": 0, "lat": 38.91805183333334, "bike_id": "6d09a204c3e82890645b5a7aa014fca8", "name": "6d09a204c3e82890645b5a7aa014fca8", "is_reserved": 0, "fusion_lat": 0.0}, {"type": "electric_scooter", "rental_uris": {"ios": "https://dc.lft.to/lastmile_qr_scan", "android": "https://dc.lft.to/lastmile_qr_scan"}, "lon": -77.02580783333333, "fusion_lon": 0.0, "is_disabled": 0, "lat": 38.909620333333336, "bike_id": "a44ba2238d55acdc2969504ea40f45a6", "name": "a44ba2238d55acdc2969504ea40f45a6", "is_reserved": 0, "fusion_lat": 0.0}, {"type": "electric_bike", "rental_uris": {"ios": "https://dc.lft.to/lastmile_qr_scan", "android": "https://dc.lft.to/lastmile_qr_scan"}, "lon": -77.12058216666667, "fusion_lon": 0.0, "is_disabled": 0, "lat": 38.8550915, "bike_id": "a55b9604b464fc67a910b404481e4e23", "name": "a55b9604b464fc67a910b404481e4e23", "is_reserved": 0, "fusion_lat": 0.0}, {"type": "electric_scooter", "rental_uris": {"ios": "https://dc.lft.to/lastmile_qr_scan", "android": "https://dc.lft.to/lastmile_qr_scan"}, "lon": -77.03418183333334, "fusion_lon": 0.0, "is_disabled": 0, "lat": 38.922410666666664, "bike_id": "c4cb825f5c38542d6bc0fc15ebe35f65", "name": "c4cb825f5c38542d6bc0fc15ebe35f65", "is_reserved": 0, "fusion_lat": 0.0}, {"type": "electric_scooter", "rental_uris": {"ios": "https://dc.lft.to/lastmile_qr_scan", "android": "https://dc.lft.to/lastmile_qr_scan"}, "lon": -77.02285, "fusion_lon": 0.0, "is_disabled": 0, "lat": 38.9173875, "bike_id": "f5cb46e20460fc9084c61c20d73c1ce8", "name": "f5cb46e20460fc9084c61c20d73c1ce8", "is_reserved": 0, "fusion_lat": 0.0}, {"type": "electric_scooter", "rental_uris": {"ios": "https://dc.lft.to/lastmile_qr_scan", "android": "https://dc.lft.to/lastmile_qr_scan"}, "lon": -77.03431566666667, "fusion_lon": 0.0, "is_disabled": 0, "lat": 38.90721966666667, "bike_id": "1f26977487924321c12efd0f3780fa03", "name": "1f26977487924321c12efd0f3780fa03", "is_reserved": 0, "fusion_lat": 0.0}, {"type": "electric_scooter", "rental_uris": {"ios": "https://dc.lft.to/lastmile_qr_scan", "android": "https://dc.lft.to/lastmile_qr_scan"}, "lon": -77.031475, "fusion_lon": 0.0, "is_disabled": 0, "lat": 38.9156265, "bike_id": "5f3a96c076fa7bd90e360a119587038d", "name": "5f3a96c076fa7bd90e360a119587038d", "is_reserved": 0, "fusion_lat": 0.0}, {"type": "electric_scooter", "rental_uris": {"ios": "https://dc.lft.to/lastmile_qr_scan", "android": "https://dc.lft.to/lastmile_qr_scan"}, "lon": -77.02350016666666, "fusion_lon": 0.0, "is_disabled": 0, "lat": 38.91782833333333, "bike_id": "a0eb0e85981363094ec38e708f3525f5", "name": "a0eb0e85981363094ec38e708f3525f5", "is_reserved": 0, "fusion_lat": 0.0}, {"type": "electric_scooter", "rental_uris": {"ios": "https://dc.lft.to/lastmile_qr_scan", "android": "https://dc.lft.to/lastmile_qr_scan"}, "lon": -77.03186833333334, "fusion_lon": 0.0, "is_disabled": 0, "lat": 38.90787566666667, "bike_id": "86fcd4e52937f39c2f3453336e66b899", "name": "86fcd4e52937f39c2f3453336e66b899", "is_reserved": 0, "fusion_lat": 0.0}, {"type": "electric_bike", "rental_uris": {"ios": "https://dc.lft.to/lastmile_qr_scan", "android": "https://dc.lft.to/lastmile_qr_scan"}, "lon": -76.96906166666666, "fusion_lon": 0.0, "is_disabled": 0, "lat": 38.84609416666667, "bike_id": "9cd35f91c1a729226a244410aa757a15", "name": "9cd35f91c1a729226a244410aa757a15", "is_reserved": 0, "fusion_lat": 0.0}, {"type": "electric_scooter", "rental_uris": {"ios": "https://dc.lft.to/lastmile_qr_scan", "android": "https://dc.lft.to/lastmile_qr_scan"}, "lon": -77.03855283333333, "fusion_lon": 0.0, "is_disabled": 0, "lat": 38.902621333333336, "bike_id": "ea4645db309798862ac7413b53c18c17", "name": "ea4645db309798862ac7413b53c18c17", "is_reserved": 0, "fusion_lat": 0.0}, {"type": "electric_scooter", "rental_uris": {"ios": "https://dc.lft.to/lastmile_qr_scan", "android": "https://dc.lft.to/lastmile_qr_scan"}, "lon": -77.03711266666667, "fusion_lon": 0.0, "is_disabled": 0, "lat": 38.928617, "bike_id": "0efe4b80cfd6cf5a10b61319a2487041", "name": "0efe4b80cfd6cf5a10b61319a2487041", "is_reserved": 0, "fusion_lat": 0.0}, {"type": "electric_scooter", "rental_uris": {"ios": "https://dc.lft.to/lastmile_qr_scan", "android": "https://dc.lft.to/lastmile_qr_scan"}, "lon": -76.97658633333333, "fusion_lon": 0.0, "is_disabled": 0, "lat": 38.898559166666665, "bike_id": "096aa9184b3395900b2a96dab90d6354", "name": "096aa9184b3395900b2a96dab90d6354", "is_reserved": 0, "fusion_lat": 0.0}, {"type": "electric_scooter", "rental_uris": {"ios": "https://dc.lft.to/lastmile_qr_scan", "android": "https://dc.lft.to/lastmile_qr_scan"}, "lon": -77.04335683333333, "fusion_lon": 0.0, "is_disabled": 0, "lat": 38.91120466666667, "bike_id": "2b06da63c63f839c88ea433d877e2a9d", "name": "2b06da63c63f839c88ea433d877e2a9d", "is_reserved": 0, "fusion_lat": 0.0}, {"type": "electric_bike", "rental_uris": {"ios": "https://dc.lft.to/lastmile_qr_scan", "android": "https://dc.lft.to/lastmile_qr_scan"}, "lon": -77.010025, "fusion_lon": 0.0, "is_disabled": 0, "lat": 38.955992, "bike_id": "a6a1a8334066dca636a594dbab5e759c", "name": "a6a1a8334066dca636a594dbab5e759c", "is_reserved": 0, "fusion_lat": 0.0}, {"type": "electric_scooter", "rental_uris": {"ios": "https://dc.lft.to/lastmile_qr_scan", "android": "https://dc.lft.to/lastmile_qr_scan"}, "lon": -77.03883733333333, "fusion_lon": 0.0, "is_disabled": 0, "lat": 38.902478, "bike_id": "0ba39f39de90ebf329560400edc62eb7", "name": "0ba39f39de90ebf329560400edc62eb7", "is_reserved": 0, "fusion_lat": 0.0}, {"type": "electric_scooter", "rental_uris": {"ios": "https://dc.lft.to/lastmile_qr_scan", "android": "https://dc.lft.to/lastmile_qr_scan"}, "lon": -77.0395825, "fusion_lon": 0.0, "is_disabled": 0, "lat": 38.892438, "bike_id": "c08815de0248562bfe9a352d59c48ceb", "name": "c08815de0248562bfe9a352d59c48ceb", "is_reserved": 0, "fusion_lat": 0.0}, {"type": "electric_scooter", "rental_uris": {"ios": "https://dc.lft.to/lastmile_qr_scan", "android": "https://dc.lft.to/lastmile_qr_scan"}, "lon": -77.04370283333333, "fusion_lon": 0.0, "is_disabled": 0, "lat": 38.933200666666664, "bike_id": "cc50430196979e5ebec14cae55f875f7", "name": "cc50430196979e5ebec14cae55f875f7", "is_reserved": 0, "fusion_lat": 0.0}, {"type": "electric_scooter", "rental_uris": {"ios": "https://dc.lft.to/lastmile_qr_scan", "android": "https://dc.lft.to/lastmile_qr_scan"}, "lon": -77.0423225, "fusion_lon": 0.0, "is_disabled": 0, "lat": 38.92169466666667, "bike_id": "984c442df91a22130b7607187b22a7ae", "name": "984c442df91a22130b7607187b22a7ae", "is_reserved": 0, "fusion_lat": 0.0}, {"type": "electric_scooter", "rental_uris": {"ios": "https://dc.lft.to/lastmile_qr_scan", "android": "https://dc.lft.to/lastmile_qr_scan"}, "lon": -77.01136966666667, "fusion_lon": 0.0, "is_disabled": 0, "lat": 38.8852625, "bike_id": "55f614bed2687cd056ef53a52dac1c16", "name": "55f614bed2687cd056ef53a52dac1c16", "is_reserved": 0, "fusion_lat": 0.0}, {"type": "electric_scooter", "rental_uris": {"ios": "https://dc.lft.to/lastmile_qr_scan", "android": "https://dc.lft.to/lastmile_qr_scan"}, "lon": -77.02990283333334, "fusion_lon": 0.0, "is_disabled": 0, "lat": 38.90505616666667, "bike_id": "4b9e1561a25c1f7f2ec9d8ea61f756d1", "name": "4b9e1561a25c1f7f2ec9d8ea61f756d1", "is_reserved": 0, "fusion_lat": 0.0}, {"type": "electric_scooter", "rental_uris": {"ios": "https://dc.lft.to/lastmile_qr_scan", "android": "https://dc.lft.to/lastmile_qr_scan"}, "lon": -77.03431216666667, "fusion_lon": 0.0, "is_disabled": 0, "lat": 38.930807333333334, "bike_id": "99aa0227ad21538380bc61dfec653baa", "name": "99aa0227ad21538380bc61dfec653baa", "is_reserved": 0, "fusion_lat": 0.0}, {"type": "electric_scooter", "rental_uris": {"ios": "https://dc.lft.to/lastmile_qr_scan", "android": "https://dc.lft.to/lastmile_qr_scan"}, "lon": -76.98084433333334, "fusion_lon": 0.0, "is_disabled": 0, "lat": 38.919525, "bike_id": "6960d04456f97f10cc571b657833d0aa", "name": "6960d04456f97f10cc571b657833d0aa", "is_reserved": 0, "fusion_lat": 0.0}, {"type": "electric_scooter", "rental_uris": {"ios": "https://dc.lft.to/lastmile_qr_scan", "android": "https://dc.lft.to/lastmile_qr_scan"}, "lon": -76.97706933333333, "fusion_lon": 0.0, "is_disabled": 0, "lat": 38.902538166666666, "bike_id": "e5457bccee521160e5bba572d40e024a", "name": "e5457bccee521160e5bba572d40e024a", "is_reserved": 0, "fusion_lat": 0.0}, {"type": "electric_scooter", "rental_uris": {"ios": "https://dc.lft.to/lastmile_qr_scan", "android": "https://dc.lft.to/lastmile_qr_scan"}, "lon": -77.03136416666666, "fusion_lon": 0.0, "is_disabled": 0, "lat": 38.89226383333333, "bike_id": "9c0bb9da3eaf07385a4fc1503a263ae8", "name": "9c0bb9da3eaf07385a4fc1503a263ae8", "is_reserved": 0, "fusion_lat": 0.0}, {"type": "electric_scooter", "rental_uris": {"ios": "https://dc.lft.to/lastmile_qr_scan", "android": "https://dc.lft.to/lastmile_qr_scan"}, "lon": -77.02760583333334, "fusion_lon": 0.0, "is_disabled": 0, "lat": 38.90730033333333, "bike_id": "f91f37f56b3951fa358f6ab3f07f6b7f", "name": "f91f37f56b3951fa358f6ab3f07f6b7f", "is_reserved": 0, "fusion_lat": 0.0}, {"type": "electric_scooter", "rental_uris": {"ios": "https://dc.lft.to/lastmile_qr_scan", "android": "https://dc.lft.to/lastmile_qr_scan"}, "lon": -77.02586033333333, "fusion_lon": 0.0, "is_disabled": 0, "lat": 38.9041405, "bike_id": "889cbc0dc3ebc93216dd5920598c5089", "name": "889cbc0dc3ebc93216dd5920598c5089", "is_reserved": 0, "fusion_lat": 0.0}, {"type": "electric_scooter", "rental_uris": {"ios": "https://dc.lft.to/lastmile_qr_scan", "android": "https://dc.lft.to/lastmile_qr_scan"}, "lon": -77.02765066666667, "fusion_lon": 0.0, "is_disabled": 0, "lat": 38.907296, "bike_id": "d7c05faa363859aa9d4df820a6046dd0", "name": "d7c05faa363859aa9d4df820a6046dd0", "is_reserved": 0, "fusion_lat": 0.0}, {"type": "electric_bike", "rental_uris": {"ios": "https://dc.lft.to/lastmile_qr_scan", "android": "https://dc.lft.to/lastmile_qr_scan"}, "lon": -76.9354475, "fusion_lon": 0.0, "is_disabled": 0, "lat": 38.9518555, "bike_id": "2bf552af099e2093a8a882e976655f07", "name": "2bf552af099e2093a8a882e976655f07", "is_reserved": 0, "fusion_lat": 0.0}, {"type": "electric_scooter", "rental_uris": {"ios": "https://dc.lft.to/lastmile_qr_scan", "android": "https://dc.lft.to/lastmile_qr_scan"}, "lon": -77.08029416666666, "fusion_lon": 0.0, "is_disabled": 0, "lat": 38.909232833333334, "bike_id": "1f0e02281bf38086c8bcddfa90c9579b", "name": "1f0e02281bf38086c8bcddfa90c9579b", "is_reserved": 0, "fusion_lat": 0.0}, {"type": "electric_scooter", "rental_uris": {"ios": "https://dc.lft.to/lastmile_qr_scan", "android": "https://dc.lft.to/lastmile_qr_scan"}, "lon": -77.018444, "fusion_lon": 0.0, "is_disabled": 0, "lat": 38.94633683333333, "bike_id": "e9a93330f536cc2b7b0bc91dc6c6b6e5", "name": "e9a93330f536cc2b7b0bc91dc6c6b6e5", "is_reserved": 0, "fusion_lat": 0.0}, {"type": "electric_scooter", "rental_uris": {"ios": "https://dc.lft.to/lastmile_qr_scan", "android": "https://dc.lft.to/lastmile_qr_scan"}, "lon": -77.04524833333333, "fusion_lon": 0.0, "is_disabled": 0, "lat": 38.91821, "bike_id": "c2f517bd67d4088890528300c1b66f44", "name": "c2f517bd67d4088890528300c1b66f44", "is_reserved": 0, "fusion_lat": 0.0}, {"type": "electric_bike", "rental_uris": {"ios": "https://dc.lft.to/lastmile_qr_scan", "android": "https://dc.lft.to/lastmile_qr_scan"}, "lon": -77.1346715, "fusion_lon": 0.0, "is_disabled": 0, "lat": 38.8535175, "bike_id": "d01c97f5fa9c88612f7fe09c00681d6a", "name": "d01c97f5fa9c88612f7fe09c00681d6a", "is_reserved": 0, "fusion_lat": 0.0}, {"type": "electric_bike", "rental_uris": {"ios": "https://dc.lft.to/lastmile_qr_scan", "android": "https://dc.lft.to/lastmile_qr_scan"}, "lon": -76.92482616666666, "fusion_lon": 0.0, "is_disabled": 0, "lat": 38.958877333333334, "bike_id": "d6575aa19ea4d2c71f94b1d4d38840d0", "name": "d6575aa19ea4d2c71f94b1d4d38840d0", "is_reserved": 0, "fusion_lat": 0.0}, {"type": "electric_scooter", "rental_uris": {"ios": "https://dc.lft.to/lastmile_qr_scan", "android": "https://dc.lft.to/lastmile_qr_scan"}, "lon": -76.93176783333334, "fusion_lon": 0.0, "is_disabled": 0, "lat": 38.898867, "bike_id": "b85906eff4c74509de4850b5b9c1b1ba", "name": "b85906eff4c74509de4850b5b9c1b1ba", "is_reserved": 0, "fusion_lat": 0.0}, {"type": "electric_scooter", "rental_uris": {"ios": "https://dc.lft.to/lastmile_qr_scan", "android": "https://dc.lft.to/lastmile_qr_scan"}, "lon": -77.03404166666667, "fusion_lon": 0.0, "is_disabled": 0, "lat": 38.931226, "bike_id": "2327e82763dde357ee511fe672286f87", "name": "2327e82763dde357ee511fe672286f87", "is_reserved": 0, "fusion_lat": 0.0}, {"type": "electric_scooter", "rental_uris": {"ios": "https://dc.lft.to/lastmile_qr_scan", "android": "https://dc.lft.to/lastmile_qr_scan"}, "lon": -77.01225866666667, "fusion_lon": 0.0, "is_disabled": 0, "lat": 38.9149905, "bike_id": "5eca4942ac58896b0ba2508d3383d896", "name": "5eca4942ac58896b0ba2508d3383d896", "is_reserved": 0, "fusion_lat": 0.0}, {"type": "electric_bike", "rental_uris": {"ios": "https://dc.lft.to/lastmile_qr_scan", "android": "https://dc.lft.to/lastmile_qr_scan"}, "lon": -76.98024566666666, "fusion_lon": 0.0, "is_disabled": 0, "lat": 38.957541, "bike_id": "c7a0b846fdd9ed6eea7cedef8288e43e", "name": "c7a0b846fdd9ed6eea7cedef8288e43e", "is_reserved": 0, "fusion_lat": 0.0}, {"type": "electric_scooter", "rental_uris": {"ios": "https://dc.lft.to/lastmile_qr_scan", "android": "https://dc.lft.to/lastmile_qr_scan"}, "lon": -77.01367083333334, "fusion_lon": 0.0, "is_disabled": 0, "lat": 38.9286265, "bike_id": "65c1e5d36c610c3a0659b7e693824ccb", "name": "65c1e5d36c610c3a0659b7e693824ccb", "is_reserved": 0, "fusion_lat": 0.0}, {"type": "electric_scooter", "rental_uris": {"ios": "https://dc.lft.to/lastmile_qr_scan", "android": "https://dc.lft.to/lastmile_qr_scan"}, "lon": -77.0249305, "fusion_lon": 0.0, "is_disabled": 0, "lat": 38.91806666666667, "bike_id": "38293a570a03844ecde2361240762c05", "name": "38293a570a03844ecde2361240762c05", "is_reserved": 0, "fusion_lat": 0.0}, {"type": "electric_scooter", "rental_uris": {"ios": "https://dc.lft.to/lastmile_qr_scan", "android": "https://dc.lft.to/lastmile_qr_scan"}, "lon": -77.034777, "fusion_lon": 0.0, "is_disabled": 0, "lat": 38.909650166666665, "bike_id": "ea11a93df0d0eca3ba58235048ec1260", "name": "ea11a93df0d0eca3ba58235048ec1260", "is_reserved": 0, "fusion_lat": 0.0}, {"type": "electric_scooter", "rental_uris": {"ios": "https://dc.lft.to/lastmile_qr_scan", "android": "https://dc.lft.to/lastmile_qr_scan"}, "lon": -77.040047, "fusion_lon": 0.0, "is_disabled": 0, "lat": 38.90779633333333, "bike_id": "68b2d846efe62a6c4b9ffd723e7369be", "name": "68b2d846efe62a6c4b9ffd723e7369be", "is_reserved": 0, "fusion_lat": 0.0}, {"type": "electric_scooter", "rental_uris": {"ios": "https://dc.lft.to/lastmile_qr_scan", "android": "https://dc.lft.to/lastmile_qr_scan"}, "lon": -77.0341775, "fusion_lon": 0.0, "is_disabled": 0, "lat": 38.91928883333333, "bike_id": "1b2fe5f123d7e187026fbfb7ce5a64a8", "name": "1b2fe5f123d7e187026fbfb7ce5a64a8", "is_reserved": 0, "fusion_lat": 0.0}, {"type": "electric_scooter", "rental_uris": {"ios": "https://dc.lft.to/lastmile_qr_scan", "android": "https://dc.lft.to/lastmile_qr_scan"}, "lon": -77.03173783333334, "fusion_lon": 0.0, "is_disabled": 0, "lat": 38.91913, "bike_id": "42fa0b775973b79b325d026b2e6ff518", "name": "42fa0b775973b79b325d026b2e6ff518", "is_reserved": 0, "fusion_lat": 0.0}, {"type": "electric_scooter", "rental_uris": {"ios": "https://dc.lft.to/lastmile_qr_scan", "android": "https://dc.lft.to/lastmile_qr_scan"}, "lon": -77.03362383333334, "fusion_lon": 0.0, "is_disabled": 0, "lat": 38.887630333333334, "bike_id": "a392fe8cbe0a622ec20fdb6964eefe88", "name": "a392fe8cbe0a622ec20fdb6964eefe88", "is_reserved": 0, "fusion_lat": 0.0}, {"type": "electric_scooter", "rental_uris": {"ios": "https://dc.lft.to/lastmile_qr_scan", "android": "https://dc.lft.to/lastmile_qr_scan"}, "lon": -77.03475816666666, "fusion_lon": 0.0, "is_disabled": 0, "lat": 38.91690216666667, "bike_id": "813cf9d449bceac7786576c958a0f853", "name": "813cf9d449bceac7786576c958a0f853", "is_reserved": 0, "fusion_lat": 0.0}, {"type": "electric_scooter", "rental_uris": {"ios": "https://dc.lft.to/lastmile_qr_scan", "android": "https://dc.lft.to/lastmile_qr_scan"}, "lon": -77.03855433333334, "fusion_lon": 0.0, "is_disabled": 0, "lat": 38.910145666666665, "bike_id": "6b0d7cf13807a5248ef2237c81e5c8b3", "name": "6b0d7cf13807a5248ef2237c81e5c8b3", "is_reserved": 0, "fusion_lat": 0.0}, {"type": "electric_scooter", "rental_uris": {"ios": "https://dc.lft.to/lastmile_qr_scan", "android": "https://dc.lft.to/lastmile_qr_scan"}, "lon": -77.0227125, "fusion_lon": 0.0, "is_disabled": 0, "lat": 38.91634833333333, "bike_id": "8f6b0ae1187720712537aa982698a759", "name": "8f6b0ae1187720712537aa982698a759", "is_reserved": 0, "fusion_lat": 0.0}, {"type": "electric_scooter", "rental_uris": {"ios": "https://dc.lft.to/lastmile_qr_scan", "android": "https://dc.lft.to/lastmile_qr_scan"}, "lon": -77.032625, "fusion_lon": 0.0, "is_disabled": 0, "lat": 38.907369833333334, "bike_id": "cde9f55be492a7a19eabde4e4ab1cae3", "name": "cde9f55be492a7a19eabde4e4ab1cae3", "is_reserved": 0, "fusion_lat": 0.0}, {"type": "electric_scooter", "rental_uris": {"ios": "https://dc.lft.to/lastmile_qr_scan", "android": "https://dc.lft.to/lastmile_qr_scan"}, "lon": -77.01654716666667, "fusion_lon": 0.0, "is_disabled": 0, "lat": 38.91054233333333, "bike_id": "2ffa5b8595d2966e743fdbd05f7f15af", "name": "2ffa5b8595d2966e743fdbd05f7f15af", "is_reserved": 0, "fusion_lat": 0.0}, {"type": "electric_scooter", "rental_uris": {"ios": "https://dc.lft.to/lastmile_qr_scan", "android": "https://dc.lft.to/lastmile_qr_scan"}, "lon": -77.05223733333334, "fusion_lon": 0.0, "is_disabled": 0, "lat": 38.92499166666666, "bike_id": "dd29de4be95b34858ac1800a6bf44a8f", "name": "dd29de4be95b34858ac1800a6bf44a8f", "is_reserved": 0, "fusion_lat": 0.0}, {"type": "electric_scooter", "rental_uris": {"ios": "https://dc.lft.to/lastmile_qr_scan", "android": "https://dc.lft.to/lastmile_qr_scan"}, "lon": -77.04169183333333, "fusion_lon": 0.0, "is_disabled": 0, "lat": 38.90153683333333, "bike_id": "81e1278b410993d4ea057d7d221695ef", "name": "81e1278b410993d4ea057d7d221695ef", "is_reserved": 0, "fusion_lat": 0.0}, {"type": "electric_scooter", "rental_uris": {"ios": "https://dc.lft.to/lastmile_qr_scan", "android": "https://dc.lft.to/lastmile_qr_scan"}, "lon": -77.019098, "fusion_lon": 0.0, "is_disabled": 0, "lat": 38.902967333333336, "bike_id": "86abd339d57a7927ed0b6983e2923eb6", "name": "86abd339d57a7927ed0b6983e2923eb6", "is_reserved": 0, "fusion_lat": 0.0}, {"type": "electric_scooter", "rental_uris": {"ios": "https://dc.lft.to/lastmile_qr_scan", "android": "https://dc.lft.to/lastmile_qr_scan"}, "lon": -77.03951533333333, "fusion_lon": 0.0, "is_disabled": 0, "lat": 38.90720366666667, "bike_id": "d03e27343365ca89df89f9bedcec9c21", "name": "d03e27343365ca89df89f9bedcec9c21", "is_reserved": 0, "fusion_lat": 0.0}, {"type": "electric_scooter", "rental_uris": {"ios": "https://dc.lft.to/lastmile_qr_scan", "android": "https://dc.lft.to/lastmile_qr_scan"}, "lon": -76.97948233333334, "fusion_lon": 0.0, "is_disabled": 0, "lat": 38.94525683333333, "bike_id": "89233ea3eef6d31482738bc71b8fe988", "name": "89233ea3eef6d31482738bc71b8fe988", "is_reserved": 0, "fusion_lat": 0.0}, {"type": "electric_scooter", "rental_uris": {"ios": "https://dc.lft.to/lastmile_qr_scan", "android": "https://dc.lft.to/lastmile_qr_scan"}, "lon": -76.928828, "fusion_lon": 0.0, "is_disabled": 0, "lat": 38.88525216666667, "bike_id": "164c30f355e8d33222dc538c10a22e5e", "name": "164c30f355e8d33222dc538c10a22e5e", "is_reserved": 0, "fusion_lat": 0.0}, {"type": "electric_scooter", "rental_uris": {"ios": "https://dc.lft.to/lastmile_qr_scan", "android": "https://dc.lft.to/lastmile_qr_scan"}, "lon": -77.02223266666667, "fusion_lon": 0.0, "is_disabled": 0, "lat": 38.892210666666664, "bike_id": "6153648160077417dfbe542fbdac938a", "name": "6153648160077417dfbe542fbdac938a", "is_reserved": 0, "fusion_lat": 0.0}, {"type": "electric_scooter", "rental_uris": {"ios": "https://dc.lft.to/lastmile_qr_scan", "android": "https://dc.lft.to/lastmile_qr_scan"}, "lon": -77.0024905, "fusion_lon": 0.0, "is_disabled": 0, "lat": 38.880227833333336, "bike_id": "edfff72f00a82b528980b70cb353fc38", "name": "edfff72f00a82b528980b70cb353fc38", "is_reserved": 0, "fusion_lat": 0.0}, {"type": "electric_bike", "rental_uris": {"ios": "https://dc.lft.to/lastmile_qr_scan", "android": "https://dc.lft.to/lastmile_qr_scan"}, "lon": -77.09804083333333, "fusion_lon": 0.0, "is_disabled": 0, "lat": 38.85028333333333, "bike_id": "545611828576b61770d161048f024fb1", "name": "545611828576b61770d161048f024fb1", "is_reserved": 0, "fusion_lat": 0.0}, {"type": "electric_bike", "rental_uris": {"ios": "https://dc.lft.to/lastmile_qr_scan", "android": "https://dc.lft.to/lastmile_qr_scan"}, "lon": -77.02067716666667, "fusion_lon": 0.0, "is_disabled": 0, "lat": 38.964444666666665, "bike_id": "9813c1f26fff9faa8388f387e39c4258", "name": "9813c1f26fff9faa8388f387e39c4258", "is_reserved": 0, "fusion_lat": 0.0}, {"type": "electric_scooter", "rental_uris": {"ios": "https://dc.lft.to/lastmile_qr_scan", "android": "https://dc.lft.to/lastmile_qr_scan"}, "lon": -77.01868566666667, "fusion_lon": 0.0, "is_disabled": 0, "lat": 38.931528166666666, "bike_id": "23eef775cbb85c7d1f56f8d9b5a7a15a", "name": "23eef775cbb85c7d1f56f8d9b5a7a15a", "is_reserved": 0, "fusion_lat": 0.0}, {"type": "electric_scooter", "rental_uris": {"ios": "https://dc.lft.to/lastmile_qr_scan", "android": "https://dc.lft.to/lastmile_qr_scan"}, "lon": -77.02175183333334, "fusion_lon": 0.0, "is_disabled": 0, "lat": 38.897361, "bike_id": "c9d9eeb4f96ba4ff38a9ec843ac01bb8", "name": "c9d9eeb4f96ba4ff38a9ec843ac01bb8", "is_reserved": 0, "fusion_lat": 0.0}, {"type": "electric_scooter", "rental_uris": {"ios": "https://dc.lft.to/lastmile_qr_scan", "android": "https://dc.lft.to/lastmile_qr_scan"}, "lon": -77.03795866666667, "fusion_lon": 0.0, "is_disabled": 0, "lat": 38.926388333333335, "bike_id": "c8b863cc11a50945af1907ebe2e058e8", "name": "c8b863cc11a50945af1907ebe2e058e8", "is_reserved": 0, "fusion_lat": 0.0}, {"type": "electric_scooter", "rental_uris": {"ios": "https://dc.lft.to/lastmile_qr_scan", "android": "https://dc.lft.to/lastmile_qr_scan"}, "lon": -77.022871, "fusion_lon": 0.0, "is_disabled": 0, "lat": 38.916359666666665, "bike_id": "6e6f119d8ddea06e0d77ce487b9f8374", "name": "6e6f119d8ddea06e0d77ce487b9f8374", "is_reserved": 0, "fusion_lat": 0.0}, {"type": "electric_scooter", "rental_uris": {"ios": "https://dc.lft.to/lastmile_qr_scan", "android": "https://dc.lft.to/lastmile_qr_scan"}, "lon": -77.03174566666667, "fusion_lon": 0.0, "is_disabled": 0, "lat": 38.897631, "bike_id": "4b618fc9c69b1f3242764f4420ad303d", "name": "4b618fc9c69b1f3242764f4420ad303d", "is_reserved": 0, "fusion_lat": 0.0}, {"type": "electric_scooter", "rental_uris": {"ios": "https://dc.lft.to/lastmile_qr_scan", "android": "https://dc.lft.to/lastmile_qr_scan"}, "lon": -77.03627033333333, "fusion_lon": 0.0, "is_disabled": 0, "lat": 38.93683333333333, "bike_id": "e62a9c80730185ffb5a1280d51469ce3", "name": "e62a9c80730185ffb5a1280d51469ce3", "is_reserved": 0, "fusion_lat": 0.0}, {"type": "electric_scooter", "rental_uris": {"ios": "https://dc.lft.to/lastmile_qr_scan", "android": "https://dc.lft.to/lastmile_qr_scan"}, "lon": -77.04195033333333, "fusion_lon": 0.0, "is_disabled": 0, "lat": 38.92051416666666, "bike_id": "4897d03811001e63a2ff247e5d4c3568", "name": "4897d03811001e63a2ff247e5d4c3568", "is_reserved": 0, "fusion_lat": 0.0}, {"type": "electric_scooter", "rental_uris": {"ios": "https://dc.lft.to/lastmile_qr_scan", "android": "https://dc.lft.to/lastmile_qr_scan"}, "lon": -77.02089033333333, "fusion_lon": 0.0, "is_disabled": 0, "lat": 38.931180166666664, "bike_id": "289571207b12cf132408d2b08be71bb8", "name": "289571207b12cf132408d2b08be71bb8", "is_reserved": 0, "fusion_lat": 0.0}, {"type": "electric_scooter", "rental_uris": {"ios": "https://dc.lft.to/lastmile_qr_scan", "android": "https://dc.lft.to/lastmile_qr_scan"}, "lon": -77.03252233333333, "fusion_lon": 0.0, "is_disabled": 0, "lat": 38.929398166666665, "bike_id": "9aa973d8c6373c905afbd8f1f91f1a97", "name": "9aa973d8c6373c905afbd8f1f91f1a97", "is_reserved": 0, "fusion_lat": 0.0}, {"type": "electric_scooter", "rental_uris": {"ios": "https://dc.lft.to/lastmile_qr_scan", "android": "https://dc.lft.to/lastmile_qr_scan"}, "lon": -77.03189416666666, "fusion_lon": 0.0, "is_disabled": 0, "lat": 38.9174375, "bike_id": "411af81fa4640563af6c4bef8d60320c", "name": "411af81fa4640563af6c4bef8d60320c", "is_reserved": 0, "fusion_lat": 0.0}, {"type": "electric_scooter", "rental_uris": {"ios": "https://dc.lft.to/lastmile_qr_scan", "android": "https://dc.lft.to/lastmile_qr_scan"}, "lon": -77.036927, "fusion_lon": 0.0, "is_disabled": 0, "lat": 38.9168195, "bike_id": "ba5cc921649f8dcd101473873f0de0eb", "name": "ba5cc921649f8dcd101473873f0de0eb", "is_reserved": 0, "fusion_lat": 0.0}, {"type": "electric_scooter", "rental_uris": {"ios": "https://dc.lft.to/lastmile_qr_scan", "android": "https://dc.lft.to/lastmile_qr_scan"}, "lon": -77.04245983333334, "fusion_lon": 0.0, "is_disabled": 0, "lat": 38.922217833333335, "bike_id": "c74efa659f7d7edb087a76b4199373cd", "name": "c74efa659f7d7edb087a76b4199373cd", "is_reserved": 0, "fusion_lat": 0.0}, {"type": "electric_scooter", "rental_uris": {"ios": "https://dc.lft.to/lastmile_qr_scan", "android": "https://dc.lft.to/lastmile_qr_scan"}, "lon": -76.98729733333333, "fusion_lon": 0.0, "is_disabled": 0, "lat": 38.86709833333333, "bike_id": "5ae7c75659e0e727b37524f77f8e5c71", "name": "5ae7c75659e0e727b37524f77f8e5c71", "is_reserved": 0, "fusion_lat": 0.0}, {"type": "electric_scooter", "rental_uris": {"ios": "https://dc.lft.to/lastmile_qr_scan", "android": "https://dc.lft.to/lastmile_qr_scan"}, "lon": -77.02669083333333, "fusion_lon": 0.0, "is_disabled": 0, "lat": 38.91704716666667, "bike_id": "38f75781d80c443bcdedad925235348c", "name": "38f75781d80c443bcdedad925235348c", "is_reserved": 0, "fusion_lat": 0.0}, {"type": "electric_scooter", "rental_uris": {"ios": "https://dc.lft.to/lastmile_qr_scan", "android": "https://dc.lft.to/lastmile_qr_scan"}, "lon": -77.01770966666666, "fusion_lon": 0.0, "is_disabled": 0, "lat": 38.90559833333333, "bike_id": "ac06e040286bb11c9085db2ee67fdcf6", "name": "ac06e040286bb11c9085db2ee67fdcf6", "is_reserved": 0, "fusion_lat": 0.0}, {"type": "electric_scooter", "rental_uris": {"ios": "https://dc.lft.to/lastmile_qr_scan", "android": "https://dc.lft.to/lastmile_qr_scan"}, "lon": -77.03172783333333, "fusion_lon": 0.0, "is_disabled": 0, "lat": 38.9142065, "bike_id": "8235bb351e185acca1e7a7f14daf6274", "name": "8235bb351e185acca1e7a7f14daf6274", "is_reserved": 0, "fusion_lat": 0.0}, {"type": "electric_scooter", "rental_uris": {"ios": "https://dc.lft.to/lastmile_qr_scan", "android": "https://dc.lft.to/lastmile_qr_scan"}, "lon": -77.02412166666667, "fusion_lon": 0.0, "is_disabled": 0, "lat": 38.891957166666664, "bike_id": "44e01768af9220f264ea227c09920467", "name": "44e01768af9220f264ea227c09920467", "is_reserved": 0, "fusion_lat": 0.0}, {"type": "electric_scooter", "rental_uris": {"ios": "https://dc.lft.to/lastmile_qr_scan", "android": "https://dc.lft.to/lastmile_qr_scan"}, "lon": -77.0550155, "fusion_lon": 0.0, "is_disabled": 0, "lat": 38.936611, "bike_id": "34a794801a6934291387bed1381c42c8", "name": "34a794801a6934291387bed1381c42c8", "is_reserved": 0, "fusion_lat": 0.0}, {"type": "electric_scooter", "rental_uris": {"ios": "https://dc.lft.to/lastmile_qr_scan", "android": "https://dc.lft.to/lastmile_qr_scan"}, "lon": -77.02962383333333, "fusion_lon": 0.0, "is_disabled": 0, "lat": 38.934738833333334, "bike_id": "3290e439d7a0d44287cf5113e6290b49", "name": "3290e439d7a0d44287cf5113e6290b49", "is_reserved": 0, "fusion_lat": 0.0}, {"type": "electric_bike", "rental_uris": {"ios": "https://dc.lft.to/lastmile_qr_scan", "android": "https://dc.lft.to/lastmile_qr_scan"}, "lon": -77.13147116666667, "fusion_lon": 0.0, "is_disabled": 0, "lat": 38.861691, "bike_id": "073ac0ea443cd7309c39d5229b265c12", "name": "073ac0ea443cd7309c39d5229b265c12", "is_reserved": 0, "fusion_lat": 0.0}, {"type": "electric_scooter", "rental_uris": {"ios": "https://dc.lft.to/lastmile_qr_scan", "android": "https://dc.lft.to/lastmile_qr_scan"}, "lon": -77.02630833333333, "fusion_lon": 0.0, "is_disabled": 0, "lat": 38.88744633333334, "bike_id": "579eed3e825a038eabfddca53265d272", "name": "579eed3e825a038eabfddca53265d272", "is_reserved": 0, "fusion_lat": 0.0}, {"type": "electric_scooter", "rental_uris": {"ios": "https://dc.lft.to/lastmile_qr_scan", "android": "https://dc.lft.to/lastmile_qr_scan"}, "lon": -77.024909, "fusion_lon": 0.0, "is_disabled": 0, "lat": 38.941859, "bike_id": "8f0f4ea5f3e76f3ba156c09fe7f01be1", "name": "8f0f4ea5f3e76f3ba156c09fe7f01be1", "is_reserved": 0, "fusion_lat": 0.0}, {"type": "electric_scooter", "rental_uris": {"ios": "https://dc.lft.to/lastmile_qr_scan", "android": "https://dc.lft.to/lastmile_qr_scan"}, "lon": -77.026938, "fusion_lon": 0.0, "is_disabled": 0, "lat": 38.90677983333333, "bike_id": "15ef059bbf1efdd4df939311c94cb3fc", "name": "15ef059bbf1efdd4df939311c94cb3fc", "is_reserved": 0, "fusion_lat": 0.0}, {"type": "electric_bike", "rental_uris": {"ios": "https://dc.lft.to/lastmile_qr_scan", "android": "https://dc.lft.to/lastmile_qr_scan"}, "lon": -76.971848, "fusion_lon": 0.0, "is_disabled": 0, "lat": 38.917882, "bike_id": "d55aba0a15b1b274fa703175034e23f7", "name": "d55aba0a15b1b274fa703175034e23f7", "is_reserved": 0, "fusion_lat": 0.0}, {"type": "electric_scooter", "rental_uris": {"ios": "https://dc.lft.to/lastmile_qr_scan", "android": "https://dc.lft.to/lastmile_qr_scan"}, "lon": -76.98701583333333, "fusion_lon": 0.0, "is_disabled": 0, "lat": 38.86533433333334, "bike_id": "f93f7cf266e1f7b5eda0cc15b2050c9b", "name": "f93f7cf266e1f7b5eda0cc15b2050c9b", "is_reserved": 0, "fusion_lat": 0.0}, {"type": "electric_scooter", "rental_uris": {"ios": "https://dc.lft.to/lastmile_qr_scan", "android": "https://dc.lft.to/lastmile_qr_scan"}, "lon": -77.01135833333333, "fusion_lon": 0.0, "is_disabled": 0, "lat": 38.88526933333333, "bike_id": "550368f8935bc1354e860ef2bbb6ee43", "name": "550368f8935bc1354e860ef2bbb6ee43", "is_reserved": 0, "fusion_lat": 0.0}, {"type": "electric_scooter", "rental_uris": {"ios": "https://dc.lft.to/lastmile_qr_scan", "android": "https://dc.lft.to/lastmile_qr_scan"}, "lon": -77.0350745, "fusion_lon": 0.0, "is_disabled": 0, "lat": 38.921484666666665, "bike_id": "4369561f13a448656b5c3be98326cc7f", "name": "4369561f13a448656b5c3be98326cc7f", "is_reserved": 0, "fusion_lat": 0.0}, {"type": "electric_scooter", "rental_uris": {"ios": "https://dc.lft.to/lastmile_qr_scan", "android": "https://dc.lft.to/lastmile_qr_scan"}, "lon": -77.04160833333333, "fusion_lon": 0.0, "is_disabled": 0, "lat": 38.916110333333336, "bike_id": "9495f49067d92b6938229d74e5543ac5", "name": "9495f49067d92b6938229d74e5543ac5", "is_reserved": 0, "fusion_lat": 0.0}, {"type": "electric_scooter", "rental_uris": {"ios": "https://dc.lft.to/lastmile_qr_scan", "android": "https://dc.lft.to/lastmile_qr_scan"}, "lon": -77.01763866666667, "fusion_lon": 0.0, "is_disabled": 0, "lat": 38.87673933333333, "bike_id": "f8bf509ab96340b67eaadf39242ddf7e", "name": "f8bf509ab96340b67eaadf39242ddf7e", "is_reserved": 0, "fusion_lat": 0.0}, {"type": "electric_scooter", "rental_uris": {"ios": "https://dc.lft.to/lastmile_qr_scan", "android": "https://dc.lft.to/lastmile_qr_scan"}, "lon": -77.03161933333334, "fusion_lon": 0.0, "is_disabled": 0, "lat": 38.892233166666664, "bike_id": "b01c8d5fe103f6777f291f05daf96961", "name": "b01c8d5fe103f6777f291f05daf96961", "is_reserved": 0, "fusion_lat": 0.0}, {"type": "electric_scooter", "rental_uris": {"ios": "https://dc.lft.to/lastmile_qr_scan", "android": "https://dc.lft.to/lastmile_qr_scan"}, "lon": -77.0362965, "fusion_lon": 0.0, "is_disabled": 0, "lat": 38.93739883333333, "bike_id": "3e170b168966bf5d39ad8cd51bdbbb61", "name": "3e170b168966bf5d39ad8cd51bdbbb61", "is_reserved": 0, "fusion_lat": 0.0}, {"type": "electric_scooter", "rental_uris": {"ios": "https://dc.lft.to/lastmile_qr_scan", "android": "https://dc.lft.to/lastmile_qr_scan"}, "lon": -77.04662266666666, "fusion_lon": 0.0, "is_disabled": 0, "lat": 38.896455833333334, "bike_id": "31b8c8952824a0070b5c977a2f585c97", "name": "31b8c8952824a0070b5c977a2f585c97", "is_reserved": 0, "fusion_lat": 0.0}, {"type": "electric_scooter", "rental_uris": {"ios": "https://dc.lft.to/lastmile_qr_scan", "android": "https://dc.lft.to/lastmile_qr_scan"}, "lon": -77.053168, "fusion_lon": 0.0, "is_disabled": 0, "lat": 38.900781, "bike_id": "e0b5208dab9ff624c980ad914760c9ac", "name": "e0b5208dab9ff624c980ad914760c9ac", "is_reserved": 0, "fusion_lat": 0.0}, {"type": "electric_scooter", "rental_uris": {"ios": "https://dc.lft.to/lastmile_qr_scan", "android": "https://dc.lft.to/lastmile_qr_scan"}, "lon": -77.03997883333334, "fusion_lon": 0.0, "is_disabled": 0, "lat": 38.91414733333333, "bike_id": "28ce7ddca2db6ec5a0f9aa7c28c432e5", "name": "28ce7ddca2db6ec5a0f9aa7c28c432e5", "is_reserved": 0, "fusion_lat": 0.0}, {"type": "electric_scooter", "rental_uris": {"ios": "https://dc.lft.to/lastmile_qr_scan", "android": "https://dc.lft.to/lastmile_qr_scan"}, "lon": -77.04664466666667, "fusion_lon": 0.0, "is_disabled": 0, "lat": 38.90545, "bike_id": "1283d87381505bbf5249c991d31c6cb2", "name": "1283d87381505bbf5249c991d31c6cb2", "is_reserved": 0, "fusion_lat": 0.0}, {"type": "electric_scooter", "rental_uris": {"ios": "https://dc.lft.to/lastmile_qr_scan", "android": "https://dc.lft.to/lastmile_qr_scan"}, "lon": -77.04664733333334, "fusion_lon": 0.0, "is_disabled": 0, "lat": 38.89241216666667, "bike_id": "33eb6f7ce402db5bc94dba4bd5928773", "name": "33eb6f7ce402db5bc94dba4bd5928773", "is_reserved": 0, "fusion_lat": 0.0}, {"type": "electric_scooter", "rental_uris": {"ios": "https://dc.lft.to/lastmile_qr_scan", "android": "https://dc.lft.to/lastmile_qr_scan"}, "lon": -77.039749, "fusion_lon": 0.0, "is_disabled": 0, "lat": 38.89905683333333, "bike_id": "0cf67f9415caaa63e1cebc284a7cfae6", "name": "0cf67f9415caaa63e1cebc284a7cfae6", "is_reserved": 0, "fusion_lat": 0.0}, {"type": "electric_scooter", "rental_uris": {"ios": "https://dc.lft.to/lastmile_qr_scan", "android": "https://dc.lft.to/lastmile_qr_scan"}, "lon": -76.94641633333333, "fusion_lon": 0.0, "is_disabled": 0, "lat": 38.89844733333334, "bike_id": "8cf53054b5edf10d8d6e9f95705ab380", "name": "8cf53054b5edf10d8d6e9f95705ab380", "is_reserved": 0, "fusion_lat": 0.0}, {"type": "electric_scooter", "rental_uris": {"ios": "https://dc.lft.to/lastmile_qr_scan", "android": "https://dc.lft.to/lastmile_qr_scan"}, "lon": -77.04644683333333, "fusion_lon": 0.0, "is_disabled": 0, "lat": 38.8922235, "bike_id": "333c8097e7b39449acd82f79686fd76f", "name": "333c8097e7b39449acd82f79686fd76f", "is_reserved": 0, "fusion_lat": 0.0}, {"type": "electric_scooter", "rental_uris": {"ios": "https://dc.lft.to/lastmile_qr_scan", "android": "https://dc.lft.to/lastmile_qr_scan"}, "lon": -77.02652016666667, "fusion_lon": 0.0, "is_disabled": 0, "lat": 38.924793666666666, "bike_id": "50e57b636fcd10552096e1445d478dae", "name": "50e57b636fcd10552096e1445d478dae", "is_reserved": 0, "fusion_lat": 0.0}, {"type": "electric_scooter", "rental_uris": {"ios": "https://dc.lft.to/lastmile_qr_scan", "android": "https://dc.lft.to/lastmile_qr_scan"}, "lon": -76.98689266666666, "fusion_lon": 0.0, "is_disabled": 0, "lat": 38.86721516666667, "bike_id": "20357b7ec9d1fb572c6fd53d6984a324", "name": "20357b7ec9d1fb572c6fd53d6984a324", "is_reserved": 0, "fusion_lat": 0.0}, {"type": "electric_scooter", "rental_uris": {"ios": "https://dc.lft.to/lastmile_qr_scan", "android": "https://dc.lft.to/lastmile_qr_scan"}, "lon": -77.03170333333334, "fusion_lon": 0.0, "is_disabled": 0, "lat": 38.89775383333333, "bike_id": "0c8394c06cf186bf81c67740f9897e27", "name": "0c8394c06cf186bf81c67740f9897e27", "is_reserved": 0, "fusion_lat": 0.0}, {"type": "electric_scooter", "rental_uris": {"ios": "https://dc.lft.to/lastmile_qr_scan", "android": "https://dc.lft.to/lastmile_qr_scan"}, "lon": -77.0393685, "fusion_lon": 0.0, "is_disabled": 0, "lat": 38.915642166666665, "bike_id": "8edd689619824a552110a18208bb535a", "name": "8edd689619824a552110a18208bb535a", "is_reserved": 0, "fusion_lat": 0.0}, {"type": "electric_bike", "rental_uris": {"ios": "https://dc.lft.to/lastmile_qr_scan", "android": "https://dc.lft.to/lastmile_qr_scan"}, "lon": -76.946249, "fusion_lon": 0.0, "is_disabled": 0, "lat": 38.832320833333334, "bike_id": "aabfb560aff860d9c44f9ab429e275f4", "name": "aabfb560aff860d9c44f9ab429e275f4", "is_reserved": 0, "fusion_lat": 0.0}, {"type": "electric_bike", "rental_uris": {"ios": "https://dc.lft.to/lastmile_qr_scan", "android": "https://dc.lft.to/lastmile_qr_scan"}, "lon": -77.05342616666667, "fusion_lon": 0.0, "is_disabled": 0, "lat": 38.903832, "bike_id": "d603c9e1f045a09093be4e1b37954baf", "name": "d603c9e1f045a09093be4e1b37954baf", "is_reserved": 0, "fusion_lat": 0.0}, {"type": "electric_scooter", "rental_uris": {"ios": "https://dc.lft.to/lastmile_qr_scan", "android": "https://dc.lft.to/lastmile_qr_scan"}, "lon": -76.9774475, "fusion_lon": 0.0, "is_disabled": 0, "lat": 38.868337833333335, "bike_id": "95d3997a90275244304ee037e213a83e", "name": "95d3997a90275244304ee037e213a83e", "is_reserved": 0, "fusion_lat": 0.0}, {"type": "electric_scooter", "rental_uris": {"ios": "https://dc.lft.to/lastmile_qr_scan", "android": "https://dc.lft.to/lastmile_qr_scan"}, "lon": -77.04147316666666, "fusion_lon": 0.0, "is_disabled": 0, "lat": 38.892214833333334, "bike_id": "a279613c2b6d087464d7f4d305c9b76f", "name": "a279613c2b6d087464d7f4d305c9b76f", "is_reserved": 0, "fusion_lat": 0.0}, {"type": "electric_scooter", "rental_uris": {"ios": "https://dc.lft.to/lastmile_qr_scan", "android": "https://dc.lft.to/lastmile_qr_scan"}, "lon": -77.0364185, "fusion_lon": 0.0, "is_disabled": 0, "lat": 38.92345816666667, "bike_id": "77d0fa62887a1855359da8719645433a", "name": "77d0fa62887a1855359da8719645433a", "is_reserved": 0, "fusion_lat": 0.0}, {"type": "electric_scooter", "rental_uris": {"ios": "https://dc.lft.to/lastmile_qr_scan", "android": "https://dc.lft.to/lastmile_qr_scan"}, "lon": -77.02800383333333, "fusion_lon": 0.0, "is_disabled": 0, "lat": 38.954043166666665, "bike_id": "6744bdb4509796621c3c4ab90ec3bd5d", "name": "6744bdb4509796621c3c4ab90ec3bd5d", "is_reserved": 0, "fusion_lat": 0.0}, {"type": "electric_scooter", "rental_uris": {"ios": "https://dc.lft.to/lastmile_qr_scan", "android": "https://dc.lft.to/lastmile_qr_scan"}, "lon": -77.0416145, "fusion_lon": 0.0, "is_disabled": 0, "lat": 38.905137333333336, "bike_id": "38b2f8486c6aeb8b680bab949727bd5c", "name": "38b2f8486c6aeb8b680bab949727bd5c", "is_reserved": 0, "fusion_lat": 0.0}, {"type": "electric_scooter", "rental_uris": {"ios": "https://dc.lft.to/lastmile_qr_scan", "android": "https://dc.lft.to/lastmile_qr_scan"}, "lon": -77.02745183333333, "fusion_lon": 0.0, "is_disabled": 0, "lat": 38.957783666666664, "bike_id": "659c80cfc4a305a729ee4f1654577cd7", "name": "659c80cfc4a305a729ee4f1654577cd7", "is_reserved": 0, "fusion_lat": 0.0}, {"type": "electric_scooter", "rental_uris": {"ios": "https://dc.lft.to/lastmile_qr_scan", "android": "https://dc.lft.to/lastmile_qr_scan"}, "lon": -77.01768716666666, "fusion_lon": 0.0, "is_disabled": 0, "lat": 38.881395, "bike_id": "cd492bdbd5ab2b6de724f91ac907da5f", "name": "cd492bdbd5ab2b6de724f91ac907da5f", "is_reserved": 0, "fusion_lat": 0.0}, {"type": "electric_scooter", "rental_uris": {"ios": "https://dc.lft.to/lastmile_qr_scan", "android": "https://dc.lft.to/lastmile_qr_scan"}, "lon": -77.02827666666667, "fusion_lon": 0.0, "is_disabled": 0, "lat": 38.887313, "bike_id": "47510ef6e2c4bf151baf434120d13ad8", "name": "47510ef6e2c4bf151baf434120d13ad8", "is_reserved": 0, "fusion_lat": 0.0}, {"type": "electric_scooter", "rental_uris": {"ios": "https://dc.lft.to/lastmile_qr_scan", "android": "https://dc.lft.to/lastmile_qr_scan"}, "lon": -77.04649116666667, "fusion_lon": 0.0, "is_disabled": 0, "lat": 38.8922255, "bike_id": "bb968021dd501d32c7b0ffae94d1d4cf", "name": "bb968021dd501d32c7b0ffae94d1d4cf", "is_reserved": 0, "fusion_lat": 0.0}, {"type": "electric_scooter", "rental_uris": {"ios": "https://dc.lft.to/lastmile_qr_scan", "android": "https://dc.lft.to/lastmile_qr_scan"}, "lon": -77.03838616666667, "fusion_lon": 0.0, "is_disabled": 0, "lat": 38.91181383333333, "bike_id": "4bcd3c67a116465dc8991d02f4d21870", "name": "4bcd3c67a116465dc8991d02f4d21870", "is_reserved": 0, "fusion_lat": 0.0}, {"type": "electric_scooter", "rental_uris": {"ios": "https://dc.lft.to/lastmile_qr_scan", "android": "https://dc.lft.to/lastmile_qr_scan"}, "lon": -77.025524, "fusion_lon": 0.0, "is_disabled": 0, "lat": 38.92425933333333, "bike_id": "751f88ed1a62614454707c3d3629022a", "name": "751f88ed1a62614454707c3d3629022a", "is_reserved": 0, "fusion_lat": 0.0}, {"type": "electric_scooter", "rental_uris": {"ios": "https://dc.lft.to/lastmile_qr_scan", "android": "https://dc.lft.to/lastmile_qr_scan"}, "lon": -77.01221216666667, "fusion_lon": 0.0, "is_disabled": 0, "lat": 38.915023166666664, "bike_id": "927e573cf1249cf38c6648c8aac2350a", "name": "927e573cf1249cf38c6648c8aac2350a", "is_reserved": 0, "fusion_lat": 0.0}, {"type": "electric_scooter", "rental_uris": {"ios": "https://dc.lft.to/lastmile_qr_scan", "android": "https://dc.lft.to/lastmile_qr_scan"}, "lon": -77.05472583333334, "fusion_lon": 0.0, "is_disabled": 0, "lat": 38.89607916666667, "bike_id": "3e54c235d0a0f701a250a8f8b0a68ad9", "name": "3e54c235d0a0f701a250a8f8b0a68ad9", "is_reserved": 0, "fusion_lat": 0.0}, {"type": "electric_scooter", "rental_uris": {"ios": "https://dc.lft.to/lastmile_qr_scan", "android": "https://dc.lft.to/lastmile_qr_scan"}, "lon": -77.04898383333334, "fusion_lon": 0.0, "is_disabled": 0, "lat": 38.8922455, "bike_id": "0fe4084fd91df3c6b275182cd0d9525f", "name": "0fe4084fd91df3c6b275182cd0d9525f", "is_reserved": 0, "fusion_lat": 0.0}, {"type": "electric_scooter", "rental_uris": {"ios": "https://dc.lft.to/lastmile_qr_scan", "android": "https://dc.lft.to/lastmile_qr_scan"}, "lon": -77.02279616666667, "fusion_lon": 0.0, "is_disabled": 0, "lat": 38.92416466666667, "bike_id": "1551eff6176f86ef821c6ed4f8d665c1", "name": "1551eff6176f86ef821c6ed4f8d665c1", "is_reserved": 0, "fusion_lat": 0.0}, {"type": "electric_scooter", "rental_uris": {"ios": "https://dc.lft.to/lastmile_qr_scan", "android": "https://dc.lft.to/lastmile_qr_scan"}, "lon": -77.02505366666666, "fusion_lon": 0.0, "is_disabled": 0, "lat": 38.91975883333333, "bike_id": "ec8f7f5b08aaa2997b5743d05c38ddbc", "name": "ec8f7f5b08aaa2997b5743d05c38ddbc", "is_reserved": 0, "fusion_lat": 0.0}, {"type": "electric_scooter", "rental_uris": {"ios": "https://dc.lft.to/lastmile_qr_scan", "android": "https://dc.lft.to/lastmile_qr_scan"}, "lon": -77.03914, "fusion_lon": 0.0, "is_disabled": 0, "lat": 38.924745, "bike_id": "9f3f673e7be67fb3f01f4b2759a23bf0", "name": "9f3f673e7be67fb3f01f4b2759a23bf0", "is_reserved": 0, "fusion_lat": 0.0}, {"type": "electric_scooter", "rental_uris": {"ios": "https://dc.lft.to/lastmile_qr_scan", "android": "https://dc.lft.to/lastmile_qr_scan"}, "lon": -76.9949095, "fusion_lon": 0.0, "is_disabled": 0, "lat": 38.86244083333333, "bike_id": "9f310eb52fe46dd9f3201d65cbe7e3ad", "name": "9f310eb52fe46dd9f3201d65cbe7e3ad", "is_reserved": 0, "fusion_lat": 0.0}, {"type": "electric_scooter", "rental_uris": {"ios": "https://dc.lft.to/lastmile_qr_scan", "android": "https://dc.lft.to/lastmile_qr_scan"}, "lon": -77.05757233333334, "fusion_lon": 0.0, "is_disabled": 0, "lat": 38.924526666666665, "bike_id": "366e765ed1b3b4c5e755566bc053b887", "name": "366e765ed1b3b4c5e755566bc053b887", "is_reserved": 0, "fusion_lat": 0.0}, {"type": "electric_scooter", "rental_uris": {"ios": "https://dc.lft.to/lastmile_qr_scan", "android": "https://dc.lft.to/lastmile_qr_scan"}, "lon": -77.036421, "fusion_lon": 0.0, "is_disabled": 0, "lat": 38.91685966666667, "bike_id": "a95eec799017b2773196dc708e74ed94", "name": "a95eec799017b2773196dc708e74ed94", "is_reserved": 0, "fusion_lat": 0.0}, {"type": "electric_scooter", "rental_uris": {"ios": "https://dc.lft.to/lastmile_qr_scan", "android": "https://dc.lft.to/lastmile_qr_scan"}, "lon": -76.99585433333333, "fusion_lon": 0.0, "is_disabled": 0, "lat": 38.8517455, "bike_id": "dd644fc16c6d35623e2f50017b0c290c", "name": "dd644fc16c6d35623e2f50017b0c290c", "is_reserved": 0, "fusion_lat": 0.0}, {"type": "electric_scooter", "rental_uris": {"ios": "https://dc.lft.to/lastmile_qr_scan", "android": "https://dc.lft.to/lastmile_qr_scan"}, "lon": -77.03874716666667, "fusion_lon": 0.0, "is_disabled": 0, "lat": 38.910458, "bike_id": "d55adb537f8dc6ff761c2f8fcc1c0705", "name": "d55adb537f8dc6ff761c2f8fcc1c0705", "is_reserved": 0, "fusion_lat": 0.0}, {"type": "electric_scooter", "rental_uris": {"ios": "https://dc.lft.to/lastmile_qr_scan", "android": "https://dc.lft.to/lastmile_qr_scan"}, "lon": -76.98520183333333, "fusion_lon": 0.0, "is_disabled": 0, "lat": 38.915424333333334, "bike_id": "e8a84ba596204448257800fb15065632", "name": "e8a84ba596204448257800fb15065632", "is_reserved": 0, "fusion_lat": 0.0}, {"type": "electric_scooter", "rental_uris": {"ios": "https://dc.lft.to/lastmile_qr_scan", "android": "https://dc.lft.to/lastmile_qr_scan"}, "lon": -77.029855, "fusion_lon": 0.0, "is_disabled": 0, "lat": 38.90508033333333, "bike_id": "c4d15bb884bc1a607ef455d53f7cfe74", "name": "c4d15bb884bc1a607ef455d53f7cfe74", "is_reserved": 0, "fusion_lat": 0.0}, {"type": "electric_scooter", "rental_uris": {"ios": "https://dc.lft.to/lastmile_qr_scan", "android": "https://dc.lft.to/lastmile_qr_scan"}, "lon": -77.05016566666667, "fusion_lon": 0.0, "is_disabled": 0, "lat": 38.906639166666665, "bike_id": "bdde6cb3b5a136c5022a0912725e71d2", "name": "bdde6cb3b5a136c5022a0912725e71d2", "is_reserved": 0, "fusion_lat": 0.0}, {"type": "electric_scooter", "rental_uris": {"ios": "https://dc.lft.to/lastmile_qr_scan", "android": "https://dc.lft.to/lastmile_qr_scan"}, "lon": -77.04410533333333, "fusion_lon": 0.0, "is_disabled": 0, "lat": 38.926013833333336, "bike_id": "697796475926f54116a5abb6f57ee50f", "name": "697796475926f54116a5abb6f57ee50f", "is_reserved": 0, "fusion_lat": 0.0},