{"data": {"bikes": [{"rental_uris": {"ios": "https://dc.lft.to/lastmile_qr_scan", "android": "https://dc.lft.to/lastmile_qr_scan"}, "lon": -77.02722416666667, "type": "electric_scooter", "fusion_lat": 0.0, "lat": 38.916785833333336, "name": "607a26115ef771efff99995bf0c66358", "fusion_lon": 0.0, "bike_id": "607a26115ef771efff99995bf0c66358", "is_disabled": 0, "is_reserved": 0}, {"rental_uris": {"ios": "https://dc.lft.to/lastmile_qr_scan", "android": "https://dc.lft.to/lastmile_qr_scan"}, "lon": -76.99440066666666, "type": "electric_scooter", "fusion_lat": 0.0, "lat": 38.899948, "name": "7262fac353edc89baf5aed9b606f38ea", "fusion_lon": 0.0, "bike_id": "7262fac353edc89baf5aed9b606f38ea", "is_disabled": 0, "is_reserved": 0}, {"rental_uris": {"ios": "https://dc.lft.to/lastmile_qr_scan", "android": "https://dc.lft.to/lastmile_qr_scan"}, "lon": -77.05290916666667, "type": "electric_scooter", "fusion_lat": 0.0, "lat": 38.910577333333336, "name": "2ce651f71d669c8a9d4817f8a7c9f003", "fusion_lon": 0.0, "bike_id": "2ce651f71d669c8a9d4817f8a7c9f003", "is_disabled": 0, "is_reserved": 0}, {"rental_uris": {"ios": "https://dc.lft.to/lastmile_qr_scan", "android": "https://dc.lft.to/lastmile_qr_scan"}, "lon": -77.04381533333333, "type": "electric_scooter", "fusion_lat": 0.0, "lat": 38.920665, "name": "f927295b97bee0d2e8a0b3c986c5f9e6", "fusion_lon": 0.0, "bike_id": "f927295b97bee0d2e8a0b3c986c5f9e6", "is_disabled": 0, "is_reserved": 0}, {"rental_uris": {"ios": "https://dc.lft.to/lastmile_qr_scan", "android": "https://dc.lft.to/lastmile_qr_scan"}, "lon": -77.02203216666666, "type": "electric_scooter", "fusion_lat": 0.0, "lat": 38.91612766666667, "name": "8d051e7778150f750cb102e8b979fa1f", "fusion_lon": 0.0, "bike_id": "8d051e7778150f750cb102e8b979fa1f", "is_disabled": 0, "is_reserved": 0}, {"rental_uris": {"ios": "https://dc.lft.to/lastmile_qr_scan", "android": "https://dc.lft.to/lastmile_qr_scan"}, "lon": -77.04389683333333, "type": "electric_scooter", "fusion_lat": 0.0, "lat": 38.91031433333333, "name": "7b9c2742291ed3949ce3e36c8d265058", "fusion_lon": 0.0, "bike_id": "7b9c2742291ed3949ce3e36c8d265058", "is_disabled": 0, "is_reserved": 0}, {"rental_uris": {"ios": "https://dc.lft.to/lastmile_qr_scan", "android": "https://dc.lft.to/lastmile_qr_scan"}, "lon": -77.04566966666667, "type": "electric_scooter", "fusion_lat": 0.0, "lat": 38.913995, "name": "e52ace397c3e35a40e5ba2a77f578b50", "fusion_lon": 0.0, "bike_id": "e52ace397c3e35a40e5ba2a77f578b50", "is_disabled": 0, "is_reserved": 0}, {"rental_uris": {"ios": "https://dc.lft.to/lastmile_qr_scan", "android": "https://dc.lft.to/lastmile_qr_scan"}, "lon": -76.8954145, "type": "electric_bike", "fusion_lat": 0.0, "lat": 38.945535666666665, "name": "b3ff1eaa44f75c6d5dfde6c23ad67aa1", "fusion_lon": 0.0, "bike_id": "b3ff1eaa44f75c6d5dfde6c23ad67aa1", "is_disabled": 0, "is_reserved": 0}, {"rental_uris": {"ios": "https://dc.lft.to/lastmile_qr_scan", "android": "https://dc.lft.to/lastmile_qr_scan"}, "lon": -77.04882566666667, "type": "electric_scooter", "fusion_lat": 0.0, "lat": 38.90628066666667, "name": "502dbdf3bac71b32df28f4548729f94b", "fusion_lon": 0.0, "bike_id": "502dbdf3bac71b32df28f4548729f94b", "is_disabled": 0, "is_reserved": 0}, {"rental_uris": {"ios": "https://dc.lft.to/lastmile_qr_scan", "android": "https://dc.lft.to/lastmile_qr_scan"}, "lon": -76.9487505, "type": "electric_scooter", "fusion_lat": 0.0, "lat": 38.89481383333333, "name": "bb2a8688fca78aa6d3aee16652362be3", "fusion_lon": 0.0, "bike_id": "bb2a8688fca78aa6d3aee16652362be3", "is_disabled": 0, "is_reserved": 0}, {"rental_uris": {"ios": "https://dc.lft.to/lastmile_qr_scan", "android": "https://dc.lft.to/lastmile_qr_scan"}, "lon": -77.02271916666666, "type": "electric_scooter", "fusion_lat": 0.0, "lat": 38.8961675, "name": "1a4e009e57c35d8901d2ca8a16e978b4", "fusion_lon": 0.0, "bike_id": "1a4e009e57c35d8901d2ca8a16e978b4", "is_disabled": 0, "is_reserved": 0}, {"rental_uris": {"ios": "https://dc.lft.to/lastmile_qr_scan", "android": "https://dc.lft.to/lastmile_qr_scan"}, "lon": -77.04314033333333, "type": "electric_scooter", "fusion_lat": 0.0, "lat": 38.90543733333333, "name": "82e438001fa4884ac022ded450e0085c", "fusion_lon": 0.0, "bike_id": "82e438001fa4884ac022ded450e0085c", "is_disabled": 0, "is_reserved": 0}, {"rental_uris": {"ios": "https://dc.lft.to/lastmile_qr_scan", "android": "https://dc.lft.to/lastmile_qr_scan"}, "lon": -76.9914715, "type": "electric_scooter", "fusion_lat": 0.0, "lat": 38.89337733333333, "name": "0fe5b92fbf66411fe7cc3e38027d8f2d", "fusion_lon": 0.0, "bike_id": "0fe5b92fbf66411fe7cc3e38027d8f2d", "is_disabled": 0, "is_reserved": 0}, {"rental_uris": {"ios": "https://dc.lft.to/lastmile_qr_scan", "android": "https://dc.lft.to/lastmile_qr_scan"}, "lon": -77.04534116666666, "type": "electric_scooter", "fusion_lat": 0.0, "lat": 38.90367833333333, "name": "49575ad9baff7dd1f34abf215122d644", "fusion_lon": 0.0, "bike_id": "49575ad9baff7dd1f34abf215122d644", "is_disabled": 0, "is_reserved": 0}, {"rental_uris": {"ios": "https://dc.lft.to/lastmile_qr_scan", "android": "https://dc.lft.to/lastmile_qr_scan"}, "lon": -77.00153083333333, "type": "electric_scooter", "fusion_lat": 0.0, "lat": 38.872867666666664, "name": "9bd2bac1233c8f0f326b270f42273aa2", "fusion_lon": 0.0, "bike_id": "9bd2bac1233c8f0f326b270f42273aa2", "is_disabled": 0, "is_reserved": 0}, {"rental_uris": {"ios": "https://dc.lft.to/lastmile_qr_scan", "android": "https://dc.lft.to/lastmile_qr_scan"}, "lon": -77.01212016666666, "type": "electric_scooter", "fusion_lat": 0.0, "lat": 38.920332, "name": "85310e785dbf7ca7362e55b99f5fb486", "fusion_lon": 0.0, "bike_id": "85310e785dbf7ca7362e55b99f5fb486", "is_disabled": 0, "is_reserved": 0}, {"rental_uris": {"ios": "https://dc.lft.to/lastmile_qr_scan", "android": "https://dc.lft.to/lastmile_qr_scan"}, "lon": -77.03258383333333, "type": "electric_bike", "fusion_lat": 0.0, "lat": 38.91549633333333, "name": "197163b4fd54d2badce0c4924c5f7310", "fusion_lon": 0.0, "bike_id": "197163b4fd54d2badce0c4924c5f7310", "is_disabled": 0, "is_reserved": 0}, {"rental_uris": {"ios": "https://dc.lft.to/lastmile_qr_scan", "android": "https://dc.lft.to/lastmile_qr_scan"}, "lon": -77.03657366666667, "type": "electric_scooter", "fusion_lat": 0.0, "lat": 38.923269, "name": "ad2d95fb7418fe2c3b39bb326042e8da", "fusion_lon": 0.0, "bike_id": "ad2d95fb7418fe2c3b39bb326042e8da", "is_disabled": 0, "is_reserved": 0}, {"rental_uris": {"ios": "https://dc.lft.to/lastmile_qr_scan", "android": "https://dc.lft.to/lastmile_qr_scan"}, "lon": -77.02147116666667, "type": "electric_bike", "fusion_lat": 0.0, "lat": 38.973254833333336, "name": "c3c10174b9012929510a266b3af816a9", "fusion_lon": 0.0, "bike_id": "c3c10174b9012929510a266b3af816a9", "is_disabled": 0, "is_reserved": 0}, {"rental_uris": {"ios": "https://dc.lft.to/lastmile_qr_scan", "android": "https://dc.lft.to/lastmile_qr_scan"}, "lon": -76.9767355, "type": "electric_scooter", "fusion_lat": 0.0, "lat": 38.89614316666667, "name": "c3fcb1c28953f8513ac7597fd6137d35", "fusion_lon": 0.0, "bike_id": "c3fcb1c28953f8513ac7597fd6137d35", "is_disabled": 0, "is_reserved": 0}, {"rental_uris": {"ios": "https://dc.lft.to/lastmile_qr_scan", "android": "https://dc.lft.to/lastmile_qr_scan"}, "lon": -77.0029645, "type": "electric_scooter", "fusion_lat": 0.0, "lat": 38.905575666666664, "name": "133f6470d6fad53b859d02bfac20d93f", "fusion_lon": 0.0, "bike_id": "133f6470d6fad53b859d02bfac20d93f", "is_disabled": 0, "is_reserved": 0}, {"rental_uris": {"ios": "https://dc.lft.to/lastmile_qr_scan", "android": "https://dc.lft.to/lastmile_qr_scan"}, "lon": -77.06484683333333, "type": "electric_bike", "fusion_lat": 0.0, "lat": 38.9649215, "name": "46f53ce27e229e14f83674ef87e21324", "fusion_lon": 0.0, "bike_id": "46f53ce27e229e14f83674ef87e21324", "is_disabled": 0, "is_reserved": 0}, {"rental_uris": {"ios": "https://dc.lft.to/lastmile_qr_scan", "android": "https://dc.lft.to/lastmile_qr_scan"}, "lon": -77.03473516666666, "type": "electric_scooter", "fusion_lat": 0.0, "lat": 38.90707483333333, "name": "efcc90b4949934c9cf108141e672a156", "fusion_lon": 0.0, "bike_id": "efcc90b4949934c9cf108141e672a156", "is_disabled": 0, "is_reserved": 0}, {"rental_uris": {"ios": "https://dc.lft.to/lastmile_qr_scan", "android": "https://dc.lft.to/lastmile_qr_scan"}, "lon": -76.94419433333333, "type": "electric_scooter", "fusion_lat": 0.0, "lat": 38.89791366666667, "name": "c80293620e030e19e1cd17c1d7ded985", "fusion_lon": 0.0, "bike_id": "c80293620e030e19e1cd17c1d7ded985", "is_disabled": 0, "is_reserved": 0}, {"rental_uris": {"ios": "https://dc.lft.to/lastmile_qr_scan", "android": "https://dc.lft.to/lastmile_qr_scan"}, "lon": -77.02116966666667, "type": "electric_scooter", "fusion_lat": 0.0, "lat": 38.930217166666665, "name": "e2e712330d994023eece574d9b5ab96b", "fusion_lon": 0.0, "bike_id": "e2e712330d994023eece574d9b5ab96b", "is_disabled": 0, "is_reserved": 0}, {"rental_uris": {"ios": "https://dc.lft.to/lastmile_qr_scan", "android": "https://dc.lft.to/lastmile_qr_scan"}, "lon": -77.032078, "type": "electric_scooter", "fusion_lat": 0.0, "lat": 38.91584316666667, "name": "2f20a21bfaf2d8eee7534946c1b0d226", "fusion_lon": 0.0, "bike_id": "2f20a21bfaf2d8eee7534946c1b0d226", "is_disabled": 0, "is_reserved": 0}, {"rental_uris": {"ios": "https://dc.lft.to/lastmile_qr_scan", "android": "https://dc.lft.to/lastmile_qr_scan"}, "lon": -77.00914433333334, "type": "electric_scooter", "fusion_lat": 0.0, "lat": 38.912337, "name": "74ef5ff78c34e477d2e7504f9234d6aa", "fusion_lon": 0.0, "bike_id": "74ef5ff78c34e477d2e7504f9234d6aa", "is_disabled": 0, "is_reserved": 0}, {"rental_uris": {"ios": "https://dc.lft.to/lastmile_qr_scan", "android": "https://dc.lft.to/lastmile_qr_scan"}, "lon": -77.05019766666666, "type": "electric_scooter", "fusion_lat": 0.0, "lat": 38.91795183333333, "name": "de0759a6c63b7009cf1c5bd884206173", "fusion_lon": 0.0, "bike_id": "de0759a6c63b7009cf1c5bd884206173", "is_disabled": 0, "is_reserved": 0}, {"rental_uris": {"ios": "https://dc.lft.to/lastmile_qr_scan", "android": "https://dc.lft.to/lastmile_qr_scan"}, "lon": -77.02404833333334, "type": "electric_scooter", "fusion_lat": 0.0, "lat": 38.936925333333335, "name": "6831f10a12b350210dfabe69fdc2b692", "fusion_lon": 0.0, "bike_id": "6831f10a12b350210dfabe69fdc2b692", "is_disabled": 0, "is_reserved": 0}, {"rental_uris": {"ios": "https://dc.lft.to/lastmile_qr_scan", "android": "https://dc.lft.to/lastmile_qr_scan"}, "lon": -77.0412115, "type": "electric_scooter", "fusion_lat": 0.0, "lat": 38.9212525, "name": "7ae7e11a7b294e2bebdb2824cb61b813", "fusion_lon": 0.0, "bike_id": "7ae7e11a7b294e2bebdb2824cb61b813", "is_disabled": 0, "is_reserved": 0}, {"rental_uris": {"ios": "https://dc.lft.to/lastmile_qr_scan", "android": "https://dc.lft.to/lastmile_qr_scan"}, "lon": -77.0322655, "type": "electric_scooter", "fusion_lat": 0.0, "lat": 38.926665, "name": "3aebc4862a0080f4e19fe37d91ac983f", "fusion_lon": 0.0, "bike_id": "3aebc4862a0080f4e19fe37d91ac983f", "is_disabled": 0, "is_reserved": 0}, {"rental_uris": {"ios": "https://dc.lft.to/lastmile_qr_scan", "android": "https://dc.lft.to/lastmile_qr_scan"}, "lon": -77.06657883333334, "type": "electric_bike", "fusion_lat": 0.0, "lat": 38.93245866666667, "name": "be8e2b3c1e8d037a632cccf60ec6cc32", "fusion_lon": 0.0, "bike_id": "be8e2b3c1e8d037a632cccf60ec6cc32", "is_disabled": 0, "is_reserved": 0}, {"rental_uris": {"ios": "https://dc.lft.to/lastmile_qr_scan", "android": "https://dc.lft.to/lastmile_qr_scan"}, "lon": -77.065985, "type": "electric_scooter", "fusion_lat": 0.0, "lat": 38.903440333333336, "name": "6c68f0c2e973c48d3a210b401338c1e3", "fusion_lon": 0.0, "bike_id": "6c68f0c2e973c48d3a210b401338c1e3", "is_disabled": 0, "is_reserved": 0}, {"rental_uris": {"ios": "https://dc.lft.to/lastmile_qr_scan", "android": "https://dc.lft.to/lastmile_qr_scan"}, "lon": -77.0228765, "type": "electric_scooter", "fusion_lat": 0.0, "lat": 38.8970485, "name": "017c846cdf6abf77b8cb81f44e29ee7c", "fusion_lon": 0.0, "bike_id": "017c846cdf6abf77b8cb81f44e29ee7c", "is_disabled": 0, "is_reserved": 0}, {"rental_uris": {"ios": "https://dc.lft.to/lastmile_qr_scan", "android": "https://dc.lft.to/lastmile_qr_scan"}, "lon": -77.06329766666667, "type": "electric_bike", "fusion_lat": 0.0, "lat": 38.921050666666666, "name": "3cfd941801d0221996037af9b60e11f8", "fusion_lon": 0.0, "bike_id": "3cfd941801d0221996037af9b60e11f8", "is_disabled": 0, "is_reserved": 0}, {"rental_uris": {"ios": "https://dc.lft.to/lastmile_qr_scan", "android": "https://dc.lft.to/lastmile_qr_scan"}, "lon": -77.0616875, "type": "electric_scooter", "fusion_lat": 0.0, "lat": 38.94800166666667, "name": "16db6947ccf99e7c431378a7d4e72a82", "fusion_lon": 0.0, "bike_id": "16db6947ccf99e7c431378a7d4e72a82", "is_disabled": 0, "is_reserved": 0}, {"rental_uris": {"ios": "https://dc.lft.to/lastmile_qr_scan", "android": "https://dc.lft.to/lastmile_qr_scan"}, "lon": -77.03586333333334, "type": "electric_scooter", "fusion_lat": 0.0, "lat": 38.93233016666667, "name": "e9f22311961b8d720b0e55ced77506a1", "fusion_lon": 0.0, "bike_id": "e9f22311961b8d720b0e55ced77506a1", "is_disabled": 0, "is_reserved": 0}, {"rental_uris": {"ios": "https://dc.lft.to/lastmile_qr_scan", "android": "https://dc.lft.to/lastmile_qr_scan"}, "lon": -76.98654516666667, "type": "electric_scooter", "fusion_lat": 0.0, "lat": 38.913061666666664, "name": "94d34a83e0eeb7b35b8986b88a28de51", "fusion_lon": 0.0, "bike_id": "94d34a83e0eeb7b35b8986b88a28de51", "is_disabled": 0, "is_reserved": 0}, {"rental_uris": {"ios": "https://dc.lft.to/lastmile_qr_scan", "android": "https://dc.lft.to/lastmile_qr_scan"}, "lon": -77.03208866666667, "type": "electric_scooter", "fusion_lat": 0.0, "lat": 38.91603766666667, "name": "11ea94d56c100e7ac46e48a1b08df07d", "fusion_lon": 0.0, "bike_id": "11ea94d56c100e7ac46e48a1b08df07d", "is_disabled": 0, "is_reserved": 0}, {"rental_uris": {"ios": "https://dc.lft.to/lastmile_qr_scan", "android": "https://dc.lft.to/lastmile_qr_scan"}, "lon": -76.9463435, "type": "electric_scooter", "fusion_lat": 0.0, "lat": 38.89843833333333, "name": "7f63888d757a0ac1ec299376d8d9f7e0", "fusion_lon": 0.0, "bike_id": "7f63888d757a0ac1ec299376d8d9f7e0", "is_disabled": 0, "is_reserved": 0}, {"rental_uris": {"ios": "https://dc.lft.to/lastmile_qr_scan", "android": "https://dc.lft.to/lastmile_qr_scan"}, "lon": -77.02316716666667, "type": "electric_scooter", "fusion_lat": 0.0, "lat": 38.91791383333333, "name": "f8e44651df27613155b55ac1d81caaad", "fusion_lon": 0.0, "bike_id": "f8e44651df27613155b55ac1d81caaad", "is_disabled": 0, "is_reserved": 0}, {"rental_uris": {"ios": "https://dc.lft.to/lastmile_qr_scan", "android": "https://dc.lft.to/lastmile_qr_scan"}, "lon": -77.02168283333333, "type": "electric_scooter", "fusion_lat": 0.0, "lat": 38.942893, "name": "28261d02ba2ef9d7c6b182c8da7eaca6", "fusion_lon": 0.0, "bike_id": "28261d02ba2ef9d7c6b182c8da7eaca6", "is_disabled": 0, "is_reserved": 0}, {"rental_uris": {"ios": "https://dc.lft.to/lastmile_qr_scan", "android": "https://dc.lft.to/lastmile_qr_scan"}, "lon": -77.04825433333333, "type": "electric_scooter", "fusion_lat": 0.0, "lat": 38.907808, "name": "a885cfbe809640f971354a3efab8ba35", "fusion_lon": 0.0, "bike_id": "a885cfbe809640f971354a3efab8ba35", "is_disabled": 0, "is_reserved": 0}, {"rental_uris": {"ios": "https://dc.lft.to/lastmile_qr_scan", "android": "https://dc.lft.to/lastmile_qr_scan"}, "lon": -77.01370033333333, "type": "electric_scooter", "fusion_lat": 0.0, "lat": 38.863685833333335, "name": "e17008bb2dad82587c442f45f16b10fa", "fusion_lon": 0.0, "bike_id": "e17008bb2dad82587c442f45f16b10fa", "is_disabled": 0, "is_reserved": 0}, {"rental_uris": {"ios": "https://dc.lft.to/lastmile_qr_scan", "android": "https://dc.lft.to/lastmile_qr_scan"}, "lon": -77.12900383333333, "type": "electric_bike", "fusion_lat": 0.0, "lat": 38.863758833333335, "name": "b85a90c250b7092de800fcb44649e1a7", "fusion_lon": 0.0, "bike_id": "b85a90c250b7092de800fcb44649e1a7", "is_disabled": 0, "is_reserved": 0}, {"rental_uris": {"ios": "https://dc.lft.to/lastmile_qr_scan", "android": "https://dc.lft.to/lastmile_qr_scan"}, "lon": -77.02280483333334, "type": "electric_scooter", "fusion_lat": 0.0, "lat": 38.878454, "name": "19f5fb3b0ebb67c2bc67b89a5f4ad7f7", "fusion_lon": 0.0, "bike_id": "19f5fb3b0ebb67c2bc67b89a5f4ad7f7", "is_disabled": 0, "is_reserved": 0}, {"rental_uris": {"ios": "https://dc.lft.to/lastmile_qr_scan", "android": "https://dc.lft.to/lastmile_qr_scan"}, "lon": -77.04197916666666, "type": "electric_scooter", "fusion_lat": 0.0, "lat": 38.911349, "name": "c2b767234430d9ac126bfb6a67c85c19", "fusion_lon": 0.0, "bike_id": "c2b767234430d9ac126bfb6a67c85c19", "is_disabled": 0, "is_reserved": 0}, {"rental_uris": {"ios": "https://dc.lft.to/lastmile_qr_scan", "android": "https://dc.lft.to/lastmile_qr_scan"}, "lon": -77.06774633333333, "type": "electric_bike", "fusion_lat": 0.0, "lat": 38.91543083333333, "name": "ae390fb173097822bd48c8a08061e97f", "fusion_lon": 0.0, "bike_id": "ae390fb173097822bd48c8a08061e97f", "is_disabled": 0, "is_reserved": 0}, {"rental_uris": {"ios": "https://dc.lft.to/lastmile_qr_scan", "android": "https://dc.lft.to/lastmile_qr_scan"}, "lon": -76.98954633333334, "type": "electric_scooter", "fusion_lat": 0.0, "lat": 38.90040416666667, "name": "70086a3d1e4002e17a703fa5305a6ef0", "fusion_lon": 0.0, "bike_id": "70086a3d1e4002e17a703fa5305a6ef0", "is_disabled": 0, "is_reserved": 0}, {"rental_uris": {"ios": "https://dc.lft.to/lastmile_qr_scan", "android": "https://dc.lft.to/lastmile_qr_scan"}, "lon": -77.03226116666667, "type": "electric_scooter", "fusion_lat": 0.0, "lat": 38.926658333333336, "name": "1c9149295542c347c4d613e1fb030a88", "fusion_lon": 0.0, "bike_id": "1c9149295542c347c4d613e1fb030a88", "is_disabled": 0, "is_reserved": 0}, {"rental_uris": {"ios": "https://dc.lft.to/lastmile_qr_scan", "android": "https://dc.lft.to/lastmile_qr_scan"}, "lon": -77.0229095, "type": "electric_scooter", "fusion_lat": 0.0, "lat": 38.9167885, "name": "720c58cc320fdf07757555bb7b17ae80", "fusion_lon": 0.0, "bike_id": "720c58cc320fdf07757555bb7b17ae80", "is_disabled": 0, "is_reserved": 0}, {"rental_uris": {"ios": "https://dc.lft.to/lastmile_qr_scan", "android": "https://dc.lft.to/lastmile_qr_scan"}, "lon": -77.08528716666666, "type": "electric_bike", "fusion_lat": 0.0, "lat": 38.9611735, "name": "9f4244d460bd5047ad70ef38152ff546", "fusion_lon": 0.0, "bike_id": "9f4244d460bd5047ad70ef38152ff546", "is_disabled": 0, "is_reserved": 0}, {"rental_uris": {"ios": "https://dc.lft.to/lastmile_qr_scan", "android": "https://dc.lft.to/lastmile_qr_scan"}, "lon": -77.00560133333333, "type": "electric_bike", "fusion_lat": 0.0, "lat": 38.839762666666665, "name": "6c82d8faeafd5a9593d145e9c4193a65", "fusion_lon": 0.0, "bike_id": "6c82d8faeafd5a9593d145e9c4193a65", "is_disabled": 0, "is_reserved": 0}, {"rental_uris": {"ios": "https://dc.lft.to/lastmile_qr_scan", "android": "https://dc.lft.to/lastmile_qr_scan"}, "lon": -77.05305683333333, "type": "electric_scooter", "fusion_lat": 0.0, "lat": 38.89929933333333, "name": "aef49f07db9eb9808aeef4983c088e00", "fusion_lon": 0.0, "bike_id": "aef49f07db9eb9808aeef4983c088e00", "is_disabled": 0, "is_reserved": 0}, {"rental_uris": {"ios": "https://dc.lft.to/lastmile_qr_scan", "android": "https://dc.lft.to/lastmile_qr_scan"}, "lon": -77.04913983333333, "type": "electric_scooter", "fusion_lat": 0.0, "lat": 38.919231833333335, "name": "2b3e8c80e2d19e38e88e3b6e73b3966e", "fusion_lon": 0.0, "bike_id": "2b3e8c80e2d19e38e88e3b6e73b3966e", "is_disabled": 0, "is_reserved": 0}, {"rental_uris": {"ios": "https://dc.lft.to/lastmile_qr_scan", "android": "https://dc.lft.to/lastmile_qr_scan"}, "lon": -77.00568383333334, "type": "electric_scooter", "fusion_lat": 0.0, "lat": 38.8850275, "name": "0a26035a552cf77cbfbd424467cd81ea", "fusion_lon": 0.0, "bike_id": "0a26035a552cf77cbfbd424467cd81ea", "is_disabled": 0, "is_reserved": 0}, {"rental_uris": {"ios": "https://dc.lft.to/lastmile_qr_scan", "android": "https://dc.lft.to/lastmile_qr_scan"}, "lon": -76.9949845, "type": "electric_scooter", "fusion_lat": 0.0, "lat": 38.862412666666664, "name": "35f74d3bb4398832826e651c83916dbb", "fusion_lon": 0.0, "bike_id": "35f74d3bb4398832826e651c83916dbb", "is_disabled": 0, "is_reserved": 0}, {"rental_uris": {"ios": "https://dc.lft.to/lastmile_qr_scan", "android": "https://dc.lft.to/lastmile_qr_scan"}, "lon": -76.99346716666666, "type": "electric_scooter", "fusion_lat": 0.0, "lat": 38.90006733333333, "name": "105dd27cc37037c21c7fb3dec74317d7", "fusion_lon": 0.0, "bike_id": "105dd27cc37037c21c7fb3dec74317d7", "is_disabled": 0, "is_reserved": 0}, {"rental_uris": {"ios": "https://dc.lft.to/lastmile_qr_scan", "android": "https://dc.lft.to/lastmile_qr_scan"}, "lon": -77.04007116666666, "type": "electric_scooter", "fusion_lat": 0.0, "lat": 38.93247, "name": "838f7371a966be713d1af9f00036c1ac", "fusion_lon": 0.0, "bike_id": "838f7371a966be713d1af9f00036c1ac", "is_disabled": 0, "is_reserved": 0}, {"rental_uris": {"ios": "https://dc.lft.to/lastmile_qr_scan", "android": "https://dc.lft.to/lastmile_qr_scan"}, "lon": -77.05754966666667, "type": "electric_scooter", "fusion_lat": 0.0, "lat": 38.92458883333333, "name": "a54bb6108dfe51d34a847caae0ec8f03", "fusion_lon": 0.0, "bike_id": "a54bb6108dfe51d34a847caae0ec8f03", "is_disabled": 0, "is_reserved": 0}, {"rental_uris": {"ios": "https://dc.lft.to/lastmile_qr_scan", "android": "https://dc.lft.to/lastmile_qr_scan"}, "lon": -77.01450433333333, "type": "electric_scooter", "fusion_lat": 0.0, "lat": 38.929835, "name": "322b12b7d7d1240a100ea13312919437", "fusion_lon": 0.0, "bike_id": "322b12b7d7d1240a100ea13312919437", "is_disabled": 0, "is_reserved": 0}, {"rental_uris": {"ios": "https://dc.lft.to/lastmile_qr_scan", "android": "https://dc.lft.to/lastmile_qr_scan"}, "lon": -76.90090083333334, "type": "electric_bike", "fusion_lat": 0.0, "lat": 38.887548833333334, "name": "6e420b8862e4ef674ed6ddd4595a00f6", "fusion_lon": 0.0, "bike_id": "6e420b8862e4ef674ed6ddd4595a00f6", "is_disabled": 0, "is_reserved": 0}, {"rental_uris": {"ios": "https://dc.lft.to/lastmile_qr_scan", "android": "https://dc.lft.to/lastmile_qr_scan"}, "lon": -77.024005, "type": "electric_scooter", "fusion_lat": 0.0, "lat": 38.937037, "name": "ad93fb5a0bdb266a7360e1a94cf1bc82", "fusion_lon": 0.0, "bike_id": "ad93fb5a0bdb266a7360e1a94cf1bc82", "is_disabled": 0, "is_reserved": 0}, {"rental_uris": {"ios": "https://dc.lft.to/lastmile_qr_scan", "android": "https://dc.lft.to/lastmile_qr_scan"}, "lon": -77.03073183333333, "type": "electric_scooter", "fusion_lat": 0.0, "lat": 38.91814, "name": "f6c73e0e205c36e35f77704c333a1627", "fusion_lon": 0.0, "bike_id": "f6c73e0e205c36e35f77704c333a1627", "is_disabled": 0, "is_reserved": 0}, {"rental_uris": {"ios": "https://dc.lft.to/lastmile_qr_scan", "android": "https://dc.lft.to/lastmile_qr_scan"}, "lon": -77.06941083333334, "type": "electric_scooter", "fusion_lat": 0.0, "lat": 38.90509183333333, "name": "eabaf4859370130aef0ea126827a5b8a", "fusion_lon": 0.0, "bike_id": "eabaf4859370130aef0ea126827a5b8a", "is_disabled": 0, "is_reserved": 0}, {"rental_uris": {"ios": "https://dc.lft.to/lastmile_qr_scan", "android": "https://dc.lft.to/lastmile_qr_scan"}, "lon": -77.00186, "type": "electric_scooter", "fusion_lat": 0.0, "lat": 38.873706, "name": "0150b1d96789957af2f680063f255ac0", "fusion_lon": 0.0, "bike_id": "0150b1d96789957af2f680063f255ac0", "is_disabled": 0, "is_reserved": 0}, {"rental_uris": {"ios": "https://dc.lft.to/lastmile_qr_scan", "android": "https://dc.lft.to/lastmile_qr_scan"}, "lon": -77.04446716666666, "type": "electric_scooter", "fusion_lat": 0.0, "lat": 38.91018833333333, "name": "24d8f1bd5100aaa7eb2374d6277eae50", "fusion_lon": 0.0, "bike_id": "24d8f1bd5100aaa7eb2374d6277eae50", "is_disabled": 0, "is_reserved": 0}, {"rental_uris": {"ios": "https://dc.lft.to/lastmile_qr_scan", "android": "https://dc.lft.to/lastmile_qr_scan"}, "lon": -77.03683983333333, "type": "electric_scooter", "fusion_lat": 0.0, "lat": 38.918078333333334, "name": "cf1b33a2c6dc2b577f371bd5a09d6286", "fusion_lon": 0.0, "bike_id": "cf1b33a2c6dc2b577f371bd5a09d6286", "is_disabled": 0, "is_reserved": 0}, {"rental_uris": {"ios": "https://dc.lft.to/lastmile_qr_scan", "android": "https://dc.lft.to/lastmile_qr_scan"}, "lon": -77.04336016666667, "type": "electric_scooter", "fusion_lat": 0.0, "lat": 38.89222066666667, "name": "c24ade4712d739e84dee1a17b3383502", "fusion_lon": 0.0, "bike_id": "c24ade4712d739e84dee1a17b3383502", "is_disabled": 0, "is_reserved": 0}, {"rental_uris": {"ios": "https://dc.lft.to/lastmile_qr_scan", "android": "https://dc.lft.to/lastmile_qr_scan"}, "lon": -77.02471066666666, "type": "electric_scooter", "fusion_lat": 0.0, "lat": 38.9382065, "name": "3e16e41a131d6cf7cba0ddd5b9992b28", "fusion_lon": 0.0, "bike_id": "3e16e41a131d6cf7cba0ddd5b9992b28", "is_disabled": 0, "is_reserved": 0}, {"rental_uris": {"ios": "https://dc.lft.to/lastmile_qr_scan", "android": "https://dc.lft.to/lastmile_qr_scan"}, "lon": -77.03525783333333, "type": "electric_scooter", "fusion_lat": 0.0, "lat": 38.917093666666666, "name": "9c8f16c714a518a3cdb4532c2d4cf4d0", "fusion_lon": 0.0, "bike_id": "9c8f16c714a518a3cdb4532c2d4cf4d0", "is_disabled": 0, "is_reserved": 0}, {"rental_uris": {"ios": "https://dc.lft.to/lastmile_qr_scan", "android": "https://dc.lft.to/lastmile_qr_scan"}, "lon": -77.098741, "type": "electric_bike", "fusion_lat": 0.0, "lat": 38.85364116666667, "name": "251b674ed1552cf9741789d4905b2552", "fusion_lon": 0.0, "bike_id": "251b674ed1552cf9741789d4905b2552", "is_disabled": 0, "is_reserved": 0}, {"rental_uris": {"ios": "https://dc.lft.to/lastmile_qr_scan", "android": "https://dc.lft.to/lastmile_qr_scan"}, "lon": -77.01084516666667, "type": "electric_scooter", "fusion_lat": 0.0, "lat": 38.8939995, "name": "0f9cd69e423b4af83552a5b7d57b507b", "fusion_lon": 0.0, "bike_id": "0f9cd69e423b4af83552a5b7d57b507b", "is_disabled": 0, "is_reserved": 0}, {"rental_uris": {"ios": "https://dc.lft.to/lastmile_qr_scan", "android": "https://dc.lft.to/lastmile_qr_scan"}, "lon": -77.04747516666667, "type": "electric_scooter", "fusion_lat": 0.0, "lat": 38.917648166666666, "name": "39ebf4347af67e9d7d7947bb7e6cae43", "fusion_lon": 0.0, "bike_id": "39ebf4347af67e9d7d7947bb7e6cae43", "is_disabled": 0, "is_reserved": 0}, {"rental_uris": {"ios": "https://dc.lft.to/lastmile_qr_scan", "android": "https://dc.lft.to/lastmile_qr_scan"}, "lon": -77.0058855, "type": "electric_scooter", "fusion_lat": 0.0, "lat": 38.90625466666667, "name": "11832de23439042356ad938772a224c9", "fusion_lon": 0.0, "bike_id": "11832de23439042356ad938772a224c9", "is_disabled": 0, "is_reserved": 0}, {"rental_uris": {"ios": "https://dc.lft.to/lastmile_qr_scan", "android": "https://dc.lft.to/lastmile_qr_scan"}, "lon": -77.0242695, "type": "electric_scooter", "fusion_lat": 0.0, "lat": 38.9057305, "name": "5d4cb9eb43035a0142be6340cae8c659", "fusion_lon": 0.0, "bike_id": "5d4cb9eb43035a0142be6340cae8c659", "is_disabled": 0, "is_reserved": 0}, {"rental_uris": {"ios": "https://dc.lft.to/lastmile_qr_scan", "android": "https://dc.lft.to/lastmile_qr_scan"}, "lon": -77.03045366666667, "type": "electric_scooter", "fusion_lat": 0.0, "lat": 38.898325166666666, "name": "f5fde49169f0112e7395b267860b784e", "fusion_lon": 0.0, "bike_id": "f5fde49169f0112e7395b267860b784e", "is_disabled": 0, "is_reserved": 0}, {"rental_uris": {"ios": "https://dc.lft.to/lastmile_qr_scan", "android": "https://dc.lft.to/lastmile_qr_scan"}, "lon": -77.00610983333333, "type": "electric_scooter", "fusion_lat": 0.0, "lat": 38.90570566666667, "name": "c643684755bf5908400b8d207f7c3ec7", "fusion_lon": 0.0, "bike_id": "c643684755bf5908400b8d207f7c3ec7", "is_disabled": 0, "is_reserved": 0}, {"rental_uris": {"ios": "https://dc.lft.to/lastmile_qr_scan", "android": "https://dc.lft.to/lastmile_qr_scan"}, "lon": -77.03267633333333, "type": "electric_scooter", "fusion_lat": 0.0, "lat": 38.936636166666666, "name": "a6776c1028e68f6615342d24a01022b8", "fusion_lon": 0.0, "bike_id": "a6776c1028e68f6615342d24a01022b8", "is_disabled": 0, "is_reserved": 0}, {"rental_uris": {"ios": "https://dc.lft.to/lastmile_qr_scan", "android": "https://dc.lft.to/lastmile_qr_scan"}, "lon": -77.02318233333334, "type": "electric_scooter", "fusion_lat": 0.0, "lat": 38.930531, "name": "65392d4046e46a68a948b6d069b86acf", "fusion_lon": 0.0, "bike_id": "65392d4046e46a68a948b6d069b86acf", "is_disabled": 0, "is_reserved": 0}, {"rental_uris": {"ios": "https://dc.lft.to/lastmile_qr_scan", "android": "https://dc.lft.to/lastmile_qr_scan"}, "lon": -77.03935016666667, "type": "electric_scooter", "fusion_lat": 0.0, "lat": 38.924882, "name": "e76f945bee7a9c1ae37e432d3bd85c11", "fusion_lon": 0.0, "bike_id": "e76f945bee7a9c1ae37e432d3bd85c11", "is_disabled": 0, "is_reserved": 0}, {"rental_uris": {"ios": "https://dc.lft.to/lastmile_qr_scan", "android": "https://dc.lft.to/lastmile_qr_scan"}, "lon": -77.04644916666666, "type": "electric_bike", "fusion_lat": 0.0, "lat": 38.852121, "name": "bf9523fdfa88ef34baecf72f1b05d9a3", "fusion_lon": 0.0, "bike_id": "bf9523fdfa88ef34baecf72f1b05d9a3", "is_disabled": 0, "is_reserved": 0}, {"rental_uris": {"ios": "https://dc.lft.to/lastmile_qr_scan", "android": "https://dc.lft.to/lastmile_qr_scan"}, "lon": -77.01949733333333, "type": "electric_scooter", "fusion_lat": 0.0, "lat": 38.946928166666666, "name": "4a61f8a9ebeb9761f513b6957b04368f", "fusion_lon": 0.0, "bike_id": "4a61f8a9ebeb9761f513b6957b04368f", "is_disabled": 0, "is_reserved": 0}, {"rental_uris": {"ios": "https://dc.lft.to/lastmile_qr_scan", "android": "https://dc.lft.to/lastmile_qr_scan"}, "lon": -77.05197016666666, "type": "electric_scooter", "fusion_lat": 0.0, "lat": 38.9245185, "name": "3ca2e110a3c923fbd5ed12c13e8bc988", "fusion_lon": 0.0, "bike_id": "3ca2e110a3c923fbd5ed12c13e8bc988", "is_disabled": 0, "is_reserved": 0}, {"rental_uris": {"ios": "https://dc.lft.to/lastmile_qr_scan", "android": "https://dc.lft.to/lastmile_qr_scan"}, "lon": -77.0275335, "type": "electric_scooter", "fusion_lat": 0.0, "lat": 38.88157533333333, "name": "de8d33859bafb011a1d1a3c1a0273327", "fusion_lon": 0.0, "bike_id": "de8d33859bafb011a1d1a3c1a0273327", "is_disabled": 0, "is_reserved": 0}, {"rental_uris": {"ios": "https://dc.lft.to/lastmile_qr_scan", "android": "https://dc.lft.to/lastmile_qr_scan"}, "lon": -77.04656916666667, "type": "electric_scooter", "fusion_lat": 0.0, "lat": 38.93289266666667, "name": "1da94f6122f9d7bb9021664d0a76e567", "fusion_lon": 0.0, "bike_id": "1da94f6122f9d7bb9021664d0a76e567", "is_disabled": 0, "is_reserved": 0}, {"rental_uris": {"ios": "https://dc.lft.to/lastmile_qr_scan", "android": "https://dc.lft.to/lastmile_qr_scan"}, "lon": -77.12963316666666, "type": "electric_bike", "fusion_lat": 0.0, "lat": 38.807913, "name": "25d666d3eb40001f3d3abdcb0dc8b007", "fusion_lon": 0.0, "bike_id": "25d666d3eb40001f3d3abdcb0dc8b007", "is_disabled": 0, "is_reserved": 0}, {"rental_uris": {"ios": "https://dc.lft.to/lastmile_qr_scan", "android": "https://dc.lft.to/lastmile_qr_scan"}, "lon": -77.054311, "type": "electric_scooter", "fusion_lat": 0.0, "lat": 38.92356733333333, "name": "ff8d0ee5375216deec90124565a76eea", "fusion_lon": 0.0, "bike_id": "ff8d0ee5375216deec90124565a76eea", "is_disabled": 0, "is_reserved": 0}, {"rental_uris": {"ios": "https://dc.lft.to/lastmile_qr_scan", "android": "https://dc.lft.to/lastmile_qr_scan"}, "lon": -77.02983916666666, "type": "electric_scooter", "fusion_lat": 0.0, "lat": 38.908256333333334, "name": "2dd3cb8f7ca4c2705ef1ac7532dc3228", "fusion_lon": 0.0, "bike_id": "2dd3cb8f7ca4c2705ef1ac7532dc3228", "is_disabled": 0, "is_reserved": 0}, {"rental_uris": {"ios": "https://dc.lft.to/lastmile_qr_scan", "android": "https://dc.lft.to/lastmile_qr_scan"}, "lon": -77.01298333333334, "type": "electric_bike", "fusion_lat": 0.0, "lat": 39.003832833333334, "name": "e819bb6ca4a40162f862876fd3de811c", "fusion_lon": 0.0, "bike_id": "e819bb6ca4a40162f862876fd3de811c", "is_disabled": 0, "is_reserved": 0}, {"rental_uris": {"ios": "https://dc.lft.to/lastmile_qr_scan", "android": "https://dc.lft.to/lastmile_qr_scan"}, "lon": -76.99043433333334, "type": "electric_scooter", "fusion_lat": 0.0, "lat": 38.856624, "name": "45e40b4268bfabfe14747a55d41287d1", "fusion_lon": 0.0, "bike_id": "45e40b4268bfabfe14747a55d41287d1", "is_disabled": 0, "is_reserved": 0}, {"rental_uris": {"ios": "https://dc.lft.to/lastmile_qr_scan", "android": "https://dc.lft.to/lastmile_qr_scan"}, "lon": -77.02278816666667, "type": "electric_scooter", "fusion_lat": 0.0, "lat": 38.87840333333333, "name": "0b790fdecf5ec82045631e3189caa1f3", "fusion_lon": 0.0, "bike_id": "0b790fdecf5ec82045631e3189caa1f3", "is_disabled": 0, "is_reserved": 0}, {"rental_uris": {"ios": "https://dc.lft.to/lastmile_qr_scan", "android": "https://dc.lft.to/lastmile_qr_scan"}, "lon": -76.932467, "type": "electric_scooter", "fusion_lat": 0.0, "lat": 38.89405333333333, "name": "5731dd6b78db8df970b2cf8a849fa114", "fusion_lon": 0.0, "bike_id": "5731dd6b78db8df970b2cf8a849fa114", "is_disabled": 0, "is_reserved": 0}, {"rental_uris": {"ios": "https://dc.lft.to/lastmile_qr_scan", "android": "https://dc.lft.to/lastmile_qr_scan"}, "lon": -77.07371516666667, "type": "electric_scooter", "fusion_lat": 0.0, "lat": 38.96177266666667, "name": "ea9976001adf2e59891060008b80d91b", "fusion_lon": 0.0, "bike_id": "ea9976001adf2e59891060008b80d91b", "is_disabled": 0, "is_reserved": 0}, {"rental_uris": {"ios": "https://dc.lft.to/lastmile_qr_scan", "android": "https://dc.lft.to/lastmile_qr_scan"}, "lon": -77.0387415, "type": "electric_scooter", "fusion_lat": 0.0, "lat": 38.934361, "name": "a22f5f8521e24355c668ee787fd5f834", "fusion_lon": 0.0, "bike_id": "a22f5f8521e24355c668ee787fd5f834", "is_disabled": 0, "is_reserved": 0}, {"rental_uris": {"ios": "https://dc.lft.to/lastmile_qr_scan", "android": "https://dc.lft.to/lastmile_qr_scan"}, "lon": -77.03901283333333, "type": "electric_scooter", "fusion_lat": 0.0, "lat": 38.9326755, "name": "da300a7a95f8440e5d34f166599eb8bc", "fusion_lon": 0.0, "bike_id": "da300a7a95f8440e5d34f166599eb8bc", "is_disabled": 0, "is_reserved": 0}, {"rental_uris": {"ios": "https://dc.lft.to/lastmile_qr_scan", "android": "https://dc.lft.to/lastmile_qr_scan"}, "lon": -77.0212675, "type": "electric_scooter", "fusion_lat": 0.0, "lat": 38.916053, "name": "40d4791b6995ec44bf38f8441052fef8", "fusion_lon": 0.0, "bike_id": "40d4791b6995ec44bf38f8441052fef8", "is_disabled": 0, "is_reserved": 0}, {"rental_uris": {"ios": "https://dc.lft.to/lastmile_qr_scan", "android": "https://dc.lft.to/lastmile_qr_scan"}, "lon": -77.048663, "type": "electric_scooter", "fusion_lat": 0.0, "lat": 38.892173166666666, "name": "d886cda761b76b5bd591eadd4a80b338", "fusion_lon": 0.0, "bike_id": "d886cda761b76b5bd591eadd4a80b338", "is_disabled": 0, "is_reserved": 0}, {"rental_uris": {"ios": "https://dc.lft.to/lastmile_qr_scan", "android": "https://dc.lft.to/lastmile_qr_scan"}, "lon": -77.02161616666666, "type": "electric_scooter", "fusion_lat": 0.0, "lat": 38.902697333333336, "name": "4f22e6758952a42791a584140ea79dc0", "fusion_lon": 0.0, "bike_id": "4f22e6758952a42791a584140ea79dc0", "is_disabled": 0, "is_reserved": 0}, {"rental_uris": {"ios": "https://dc.lft.to/lastmile_qr_scan", "android": "https://dc.lft.to/lastmile_qr_scan"}, "lon": -77.03214566666666, "type": "electric_scooter", "fusion_lat": 0.0, "lat": 38.918077833333335, "name": "53206606bf7b78c914d564b663fdaff4", "fusion_lon": 0.0, "bike_id": "53206606bf7b78c914d564b663fdaff4", "is_disabled": 0, "is_reserved": 0}, {"rental_uris": {"ios": "https://dc.lft.to/lastmile_qr_scan", "android": "https://dc.lft.to/lastmile_qr_scan"}, "lon": -77.03840783333334, "type": "electric_scooter", "fusion_lat": 0.0, "lat": 38.931123666666664, "name": "809e498c54fb538d7091c82a13907206", "fusion_lon": 0.0, "bike_id": "809e498c54fb538d7091c82a13907206", "is_disabled": 0, "is_reserved": 0}, {"rental_uris": {"ios": "https://dc.lft.to/lastmile_qr_scan", "android": "https://dc.lft.to/lastmile_qr_scan"}, "lon": -76.933644, "type": "electric_scooter", "fusion_lat": 0.0, "lat": 38.899172, "name": "3a61fe510484ef2af120272c1a8d797d", "fusion_lon": 0.0, "bike_id": "3a61fe510484ef2af120272c1a8d797d", "is_disabled": 0, "is_reserved": 0}, {"rental_uris": {"ios": "https://dc.lft.to/lastmile_qr_scan", "android": "https://dc.lft.to/lastmile_qr_scan"}, "lon": -77.01124, "type": "electric_scooter", "fusion_lat": 0.0, "lat": 38.91177016666666, "name": "cf70576a2e3621a66cd2aa032a4e2bd6", "fusion_lon": 0.0, "bike_id": "cf70576a2e3621a66cd2aa032a4e2bd6", "is_disabled": 0, "is_reserved": 0}, {"rental_uris": {"ios": "https://dc.lft.to/lastmile_qr_scan", "android": "https://dc.lft.to/lastmile_qr_scan"}, "lon": -76.956042, "type": "electric_scooter", "fusion_lat": 0.0, "lat": 38.887592, "name": "94d72ef0effc897b9a0f4b24bb2a5132", "fusion_lon": 0.0, "bike_id": "94d72ef0effc897b9a0f4b24bb2a5132", "is_disabled": 0, "is_reserved": 0}, {"rental_uris": {"ios": "https://dc.lft.to/lastmile_qr_scan", "android": "https://dc.lft.to/lastmile_qr_scan"}, "lon": -77.02977033333333, "type": "electric_scooter", "fusion_lat": 0.0, "lat": 38.936071, "name": "29d696c832d33dd0ad729573d7f5a4a9", "fusion_lon": 0.0, "bike_id": "29d696c832d33dd0ad729573d7f5a4a9", "is_disabled": 0, "is_reserved": 0}, {"rental_uris": {"ios": "https://dc.lft.to/lastmile_qr_scan", "android": "https://dc.lft.to/lastmile_qr_scan"}, "lon": -77.03214766666666, "type": "electric_scooter", "fusion_lat": 0.0, "lat": 38.91812566666667, "name": "7c1f815ea94e9a773954943689bf6fad", "fusion_lon": 0.0, "bike_id": "7c1f815ea94e9a773954943689bf6fad", "is_disabled": 0, "is_reserved": 0}, {"rental_uris": {"ios": "https://dc.lft.to/lastmile_qr_scan", "android": "https://dc.lft.to/lastmile_qr_scan"}, "lon": -77.03999516666667, "type": "electric_scooter", "fusion_lat": 0.0, "lat": 38.91816766666667, "name": "f2ca3cdd9d36a40a18b24bdac358ac3e", "fusion_lon": 0.0, "bike_id": "f2ca3cdd9d36a40a18b24bdac358ac3e", "is_disabled": 0, "is_reserved": 0}, {"rental_uris": {"ios": "https://dc.lft.to/lastmile_qr_scan", "android": "https://dc.lft.to/lastmile_qr_scan"}, "lon": -77.05596583333333, "type": "electric_scooter", "fusion_lat": 0.0, "lat": 38.936908, "name": "5b8edf082a108eecce8b912ecb213e44", "fusion_lon": 0.0, "bike_id": "5b8edf082a108eecce8b912ecb213e44", "is_disabled": 0, "is_reserved": 0}, {"rental_uris": {"ios": "https://dc.lft.to/lastmile_qr_scan", "android": "https://dc.lft.to/lastmile_qr_scan"}, "lon": -77.0028885, "type": "electric_scooter", "fusion_lat": 0.0, "lat": 38.90888966666667, "name": "f53507203d6fcfe8f281ca0ae57a9df5", "fusion_lon": 0.0, "bike_id": "f53507203d6fcfe8f281ca0ae57a9df5", "is_disabled": 0, "is_reserved": 0}, {"rental_uris": {"ios": "https://dc.lft.to/lastmile_qr_scan", "android": "https://dc.lft.to/lastmile_qr_scan"}, "lon": -77.001948, "type": "electric_scooter", "fusion_lat": 0.0, "lat": 38.900339, "name": "462e37c5b003c457e854a26a8ef9b685", "fusion_lon": 0.0, "bike_id": "462e37c5b003c457e854a26a8ef9b685", "is_disabled": 0, "is_reserved": 0}, {"rental_uris": {"ios": "https://dc.lft.to/lastmile_qr_scan", "android": "https://dc.lft.to/lastmile_qr_scan"}, "lon": -77.0344295, "type": "electric_scooter", "fusion_lat": 0.0, "lat": 38.90969416666667, "name": "ee171211fd49120c2537864774157744", "fusion_lon": 0.0, "bike_id": "ee171211fd49120c2537864774157744", "is_disabled": 0, "is_reserved": 0}, {"rental_uris": {"ios": "https://dc.lft.to/lastmile_qr_scan", "android": "https://dc.lft.to/lastmile_qr_scan"}, "lon": -77.05001516666667, "type": "electric_scooter", "fusion_lat": 0.0, "lat": 38.89226983333333, "name": "95796e64cde3cbbe501b4c2f55d66262", "fusion_lon": 0.0, "bike_id": "95796e64cde3cbbe501b4c2f55d66262", "is_disabled": 0, "is_reserved": 0}, {"rental_uris": {"ios": "https://dc.lft.to/lastmile_qr_scan", "android": "https://dc.lft.to/lastmile_qr_scan"}, "lon": -77.03862516666666, "type": "electric_scooter", "fusion_lat": 0.0, "lat": 38.92022016666667, "name": "21560181851be4c70b49178d95c52006", "fusion_lon": 0.0, "bike_id": "21560181851be4c70b49178d95c52006", "is_disabled": 0, "is_reserved": 0}, {"rental_uris": {"ios": "https://dc.lft.to/lastmile_qr_scan", "android": "https://dc.lft.to/lastmile_qr_scan"}, "lon": -76.9951825, "type": "electric_scooter", "fusion_lat": 0.0, "lat": 38.86260033333333, "name": "898d94ea57e4f062ce896ecccf6f1fb9", "fusion_lon": 0.0, "bike_id": "898d94ea57e4f062ce896ecccf6f1fb9", "is_disabled": 0, "is_reserved": 0}, {"rental_uris": {"ios": "https://dc.lft.to/lastmile_qr_scan", "android": "https://dc.lft.to/lastmile_qr_scan"}, "lon": -77.03163533333333, "type": "electric_scooter", "fusion_lat": 0.0, "lat": 38.91560333333334, "name": "426d0f8eaa9211aa8f92348005195fc9", "fusion_lon": 0.0, "bike_id": "426d0f8eaa9211aa8f92348005195fc9", "is_disabled": 0, "is_reserved": 0}, {"rental_uris": {"ios": "https://dc.lft.to/lastmile_qr_scan", "android": "https://dc.lft.to/lastmile_qr_scan"}, "lon": -77.036701, "type": "electric_scooter", "fusion_lat": 0.0, "lat": 38.93201, "name": "885685dab1eb4120c0e6d3f5085d465e", "fusion_lon": 0.0, "bike_id": "885685dab1eb4120c0e6d3f5085d465e", "is_disabled": 0, "is_reserved": 0}, {"rental_uris": {"ios": "https://dc.lft.to/lastmile_qr_scan", "android": "https://dc.lft.to/lastmile_qr_scan"}, "lon": -77.02357666666667, "type": "electric_scooter", "fusion_lat": 0.0, "lat": 38.9451315, "name": "f0836e48bc9b2bba6a03e4a5e7febcd3", "fusion_lon": 0.0, "bike_id": "f0836e48bc9b2bba6a03e4a5e7febcd3", "is_disabled": 0, "is_reserved": 0}, {"rental_uris": {"ios": "https://dc.lft.to/lastmile_qr_scan", "android": "https://dc.lft.to/lastmile_qr_scan"}, "lon": -76.99671616666667, "type": "electric_scooter", "fusion_lat": 0.0, "lat": 38.910149, "name": "865557de9b4d782782531965ddffd28a", "fusion_lon": 0.0, "bike_id": "865557de9b4d782782531965ddffd28a", "is_disabled": 0, "is_reserved": 0}, {"rental_uris": {"ios": "https://dc.lft.to/lastmile_qr_scan", "android": "https://dc.lft.to/lastmile_qr_scan"}, "lon": -77.06107633333333, "type": "electric_scooter", "fusion_lat": 0.0, "lat": 38.937103666666665, "name": "3f78f482e7d0ce0b2d34771e34c5310d", "fusion_lon": 0.0, "bike_id": "3f78f482e7d0ce0b2d34771e34c5310d", "is_disabled": 0, "is_reserved": 0}, {"rental_uris": {"ios": "https://dc.lft.to/lastmile_qr_scan", "android": "https://dc.lft.to/lastmile_qr_scan"}, "lon": -77.04483366666666, "type": "electric_scooter", "fusion_lat": 0.0, "lat": 38.900038333333335, "name": "9d0515de6c4acd56dbc51c548cc8f461", "fusion_lon": 0.0, "bike_id": "9d0515de6c4acd56dbc51c548cc8f461", "is_disabled": 0, "is_reserved": 0}, {"rental_uris": {"ios": "https://dc.lft.to/lastmile_qr_scan", "android": "https://dc.lft.to/lastmile_qr_scan"}, "lon": -76.98653433333334, "type": "electric_scooter", "fusion_lat": 0.0, "lat": 38.858027166666666, "name": "4a6128d2a52ba067be9eb5c0d0671ef0", "fusion_lon": 0.0, "bike_id": "4a6128d2a52ba067be9eb5c0d0671ef0", "is_disabled": 0, "is_reserved": 0}, {"rental_uris": {"ios": "https://dc.lft.to/lastmile_qr_scan", "android": "https://dc.lft.to/lastmile_qr_scan"}, "lon": -77.0272475, "type": "electric_scooter", "fusion_lat": 0.0, "lat": 38.93428683333333, "name": "137cf80781f807f7cfbb6e641d21914c", "fusion_lon": 0.0, "bike_id": "137cf80781f807f7cfbb6e641d21914c", "is_disabled": 0, "is_reserved": 0}, {"rental_uris": {"ios": "https://dc.lft.to/lastmile_qr_scan", "android": "https://dc.lft.to/lastmile_qr_scan"}, "lon": -76.9605055, "type": "electric_bike", "fusion_lat": 0.0, "lat": 38.884047333333335, "name": "f223346db51da0c15dbec63142540599", "fusion_lon": 0.0, "bike_id": "f223346db51da0c15dbec63142540599", "is_disabled": 0, "is_reserved": 0}, {"rental_uris": {"ios": "https://dc.lft.to/lastmile_qr_scan", "android": "https://dc.lft.to/lastmile_qr_scan"}, "lon": -76.95902616666666, "type": "electric_scooter", "fusion_lat": 0.0, "lat": 38.926875833333334, "name": "5f4a01884d236b46b525b9540a2a2cc2", "fusion_lon": 0.0, "bike_id": "5f4a01884d236b46b525b9540a2a2cc2", "is_disabled": 0, "is_reserved": 0}, {"rental_uris": {"ios": "https://dc.lft.to/lastmile_qr_scan", "android": "https://dc.lft.to/lastmile_qr_scan"}, "lon": -77.01380283333333, "type": "electric_scooter", "fusion_lat": 0.0, "lat": 38.886524, "name": "56c44b3ffce865a5482c77b26a1b0042", "fusion_lon": 0.0, "bike_id": "56c44b3ffce865a5482c77b26a1b0042", "is_disabled": 0, "is_reserved": 0}, {"rental_uris": {"ios": "https://dc.lft.to/lastmile_qr_scan", "android": "https://dc.lft.to/lastmile_qr_scan"}, "lon": -76.93174983333333, "type": "electric_scooter", "fusion_lat": 0.0, "lat": 38.89878233333334, "name": "7e075111b246af0bf0a478450a4bcdc1", "fusion_lon": 0.0, "bike_id": "7e075111b246af0bf0a478450a4bcdc1", "is_disabled": 0, "is_reserved": 0}, {"rental_uris": {"ios": "https://dc.lft.to/lastmile_qr_scan", "android": "https://dc.lft.to/lastmile_qr_scan"}, "lon": -77.03446983333333, "type": "electric_scooter", "fusion_lat": 0.0, "lat": 38.909352166666665, "name": "fe725b11dc5f66b6ee88579ad7178962", "fusion_lon": 0.0, "bike_id": "fe725b11dc5f66b6ee88579ad7178962", "is_disabled": 0, "is_reserved": 0}, {"rental_uris": {"ios": "https://dc.lft.to/lastmile_qr_scan", "android": "https://dc.lft.to/lastmile_qr_scan"}, "lon": -76.95189616666667, "type": "electric_bike", "fusion_lat": 0.0, "lat": 38.90687883333333, "name": "bb16a614fe78947b0a73b70d9c13bec3", "fusion_lon": 0.0, "bike_id": "bb16a614fe78947b0a73b70d9c13bec3", "is_disabled": 0, "is_reserved": 0}, {"rental_uris": {"ios": "https://dc.lft.to/lastmile_qr_scan", "android": "https://dc.lft.to/lastmile_qr_scan"}, "lon": -76.99959033333333, "type": "electric_scooter", "fusion_lat": 0.0, "lat": 38.904861833333335, "name": "65db7a600528e1e3dd7e1ba770cfe83f", "fusion_lon": 0.0, "bike_id": "65db7a600528e1e3dd7e1ba770cfe83f", "is_disabled": 0, "is_reserved": 0}, {"rental_uris": {"ios": "https://dc.lft.to/lastmile_qr_scan", "android": "https://dc.lft.to/lastmile_qr_scan"}, "lon": -77.01103566666667, "type": "electric_scooter", "fusion_lat": 0.0, "lat": 38.90354716666667, "name": "82387d8bda47109a3cf05e92b1f6ae71", "fusion_lon": 0.0, "bike_id": "82387d8bda47109a3cf05e92b1f6ae71", "is_disabled": 0, "is_reserved": 0}, {"rental_uris": {"ios": "https://dc.lft.to/lastmile_qr_scan", "android": "https://dc.lft.to/lastmile_qr_scan"}, "lon": -77.08190883333333, "type": "electric_bike", "fusion_lat": 0.0, "lat": 38.92202983333333, "name": "6d811fe83ccb2eac11026be50beb2795", "fusion_lon": 0.0, "bike_id": "6d811fe83ccb2eac11026be50beb2795", "is_disabled": 0, "is_reserved": 0}, {"rental_uris": {"ios": "https://dc.lft.to/lastmile_qr_scan", "android": "https://dc.lft.to/lastmile_qr_scan"}, "lon": -77.03189566666667, "type": "electric_scooter", "fusion_lat": 0.0, "lat": 38.915622, "name": "ed2d270de3f72931b7987e3c417d6409", "fusion_lon": 0.0, "bike_id": "ed2d270de3f72931b7987e3c417d6409", "is_disabled": 0, "is_reserved": 0}, {"rental_uris": {"ios": "https://dc.lft.to/lastmile_qr_scan", "android": "https://dc.lft.to/lastmile_qr_scan"}, "lon": -77.03621266666667, "type": "electric_scooter", "fusion_lat": 0.0, "lat": 38.91867033333333, "name": "852611f8c27aa60d78604b66266d65aa", "fusion_lon": 0.0, "bike_id": "852611f8c27aa60d78604b66266d65aa", "is_disabled": 0, "is_reserved": 0}, {"rental_uris": {"ios": "https://dc.lft.to/lastmile_qr_scan", "android": "https://dc.lft.to/lastmile_qr_scan"}, "lon": -77.07145933333334, "type": "electric_scooter", "fusion_lat": 0.0, "lat": 38.95269483333333, "name": "d3ed92b7abdab692eb9aef3ef8a66c6f", "fusion_lon": 0.0, "bike_id": "d3ed92b7abdab692eb9aef3ef8a66c6f", "is_disabled": 0, "is_reserved": 0}, {"rental_uris": {"ios": "https://dc.lft.to/lastmile_qr_scan", "android": "https://dc.lft.to/lastmile_qr_scan"}, "lon": -77.04292016666666, "type": "electric_scooter", "fusion_lat": 0.0, "lat": 38.895287, "name": "ba4e3a10b8e48d3cd3075ce447e04d6a", "fusion_lon": 0.0, "bike_id": "ba4e3a10b8e48d3cd3075ce447e04d6a", "is_disabled": 0, "is_reserved": 0}, {"rental_uris": {"ios": "https://dc.lft.to/lastmile_qr_scan", "android": "https://dc.lft.to/lastmile_qr_scan"}, "lon": -77.02699966666667, "type": "electric_scooter", "fusion_lat": 0.0, "lat": 38.90837466666667, "name": "a1dd8b41233ff426712f2be11c64a513", "fusion_lon": 0.0, "bike_id": "a1dd8b41233ff426712f2be11c64a513", "is_disabled": 0, "is_reserved": 0}, {"rental_uris": {"ios": "https://dc.lft.to/lastmile_qr_scan", "android": "https://dc.lft.to/lastmile_qr_scan"}, "lon": -77.02736083333333, "type": "electric_scooter", "fusion_lat": 0.0, "lat": 38.881518166666666, "name": "a6d2e2a09f886a90b96b5eed4b035a08", "fusion_lon": 0.0, "bike_id": "a6d2e2a09f886a90b96b5eed4b035a08", "is_disabled": 0, "is_reserved": 0}, {"rental_uris": {"ios": "https://dc.lft.to/lastmile_qr_scan", "android": "https://dc.lft.to/lastmile_qr_scan"}, "lon": -76.87495283333334, "type": "electric_bike", "fusion_lat": 0.0, "lat": 38.990895333333334, "name": "4b7be7bc87628f42ddc302e5233c3015", "fusion_lon": 0.0, "bike_id": "4b7be7bc87628f42ddc302e5233c3015", "is_disabled": 0, "is_reserved": 0}, {"rental_uris": {"ios": "https://dc.lft.to/lastmile_qr_scan", "android": "https://dc.lft.to/lastmile_qr_scan"}, "lon": -77.01768533333333, "type": "electric_scooter", "fusion_lat": 0.0, "lat": 38.9027375, "name": "ffd26c4beebbe08defe26bfd3d254599", "fusion_lon": 0.0, "bike_id": "ffd26c4beebbe08defe26bfd3d254599", "is_disabled": 0, "is_reserved": 0}, {"rental_uris": {"ios": "https://dc.lft.to/lastmile_qr_scan", "android": "https://dc.lft.to/lastmile_qr_scan"}, "lon": -77.02389183333334, "type": "electric_scooter", "fusion_lat": 0.0, "lat": 38.903546166666665, "name": "3ebe3e9a281025642b5a6cb360ece851", "fusion_lon": 0.0, "bike_id": "3ebe3e9a281025642b5a6cb360ece851", "is_disabled": 0, "is_reserved": 0}, {"rental_uris": {"ios": "https://dc.lft.to/lastmile_qr_scan", "android": "https://dc.lft.to/lastmile_qr_scan"}, "lon": -77.0730365, "type": "electric_scooter", "fusion_lat": 0.0, "lat": 38.93625933333333, "name": "acf23a5cc1fa958becde340889759a2c", "fusion_lon": 0.0, "bike_id": "acf23a5cc1fa958becde340889759a2c", "is_disabled": 0, "is_reserved": 0}, {"rental_uris": {"ios": "https://dc.lft.to/lastmile_qr_scan", "android": "https://dc.lft.to/lastmile_qr_scan"}, "lon": -77.00827883333334, "type": "electric_scooter", "fusion_lat": 0.0, "lat": 38.876295166666665, "name": "c00ef2147e0f4e4d1af563581b732976", "fusion_lon": 0.0, "bike_id": "c00ef2147e0f4e4d1af563581b732976", "is_disabled": 0, "is_reserved": 0}, {"rental_uris": {"ios": "https://dc.lft.to/lastmile_qr_scan", "android": "https://dc.lft.to/lastmile_qr_scan"}, "lon": -77.11221783333333, "type": "electric_bike", "fusion_lat": 0.0, "lat": 38.82866766666667, "name": "0c0e7aa61e28acb98043f5c7620f9d56", "fusion_lon": 0.0, "bike_id": "0c0e7aa61e28acb98043f5c7620f9d56", "is_disabled": 0, "is_reserved": 0}, {"rental_uris": {"ios": "https://dc.lft.to/lastmile_qr_scan", "android": "https://dc.lft.to/lastmile_qr_scan"}, "lon": -77.02152866666667, "type": "electric_scooter", "fusion_lat": 0.0, "lat": 38.92604166666667, "name": "b932e2b7da2b19a8f8e6a05bebc12ce1", "fusion_lon": 0.0, "bike_id": "b932e2b7da2b19a8f8e6a05bebc12ce1", "is_disabled": 0, "is_reserved": 0}, {"rental_uris": {"ios": "https://dc.lft.to/lastmile_qr_scan", "android": "https://dc.lft.to/lastmile_qr_scan"}, "lon": -77.03199833333333, "type": "electric_scooter", "fusion_lat": 0.0, "lat": 38.911748333333335, "name": "9a669df93c2720165b834df3ed9a6028", "fusion_lon": 0.0, "bike_id": "9a669df93c2720165b834df3ed9a6028", "is_disabled": 0, "is_reserved": 0}, {"rental_uris": {"ios": "https://dc.lft.to/lastmile_qr_scan", "android": "https://dc.lft.to/lastmile_qr_scan"}, "lon": -76.99881133333334, "type": "electric_scooter", "fusion_lat": 0.0, "lat": 38.9075225, "name": "d949ad9980f414bee8c4278c3931ee6f", "fusion_lon": 0.0, "bike_id": "d949ad9980f414bee8c4278c3931ee6f", "is_disabled": 0, "is_reserved": 0}, {"rental_uris": {"ios": "https://dc.lft.to/lastmile_qr_scan", "android": "https://dc.lft.to/lastmile_qr_scan"}, "lon": -77.04506566666667, "type": "electric_scooter", "fusion_lat": 0.0, "lat": 38.911838, "name": "4199ef1484069debfbbfb8c27744f596", "fusion_lon": 0.0, "bike_id": "4199ef1484069debfbbfb8c27744f596", "is_disabled": 0, "is_reserved": 0}, {"rental_uris": {"ios": "https://dc.lft.to/lastmile_qr_scan", "android": "https://dc.lft.to/lastmile_qr_scan"}, "lon": -77.04359533333333, "type": "electric_scooter", "fusion_lat": 0.0, "lat": 38.908204, "name": "4140f64647b8e935db01c15560466299", "fusion_lon": 0.0, "bike_id": "4140f64647b8e935db01c15560466299", "is_disabled": 0, "is_reserved": 0}, {"rental_uris": {"ios": "https://dc.lft.to/lastmile_qr_scan", "android": "https://dc.lft.to/lastmile_qr_scan"}, "lon": -76.9462655, "type": "electric_bike", "fusion_lat": 0.0, "lat": 38.946246333333335, "name": "9ae9fde0bb1d81b63cf6fd317d5e9641", "fusion_lon": 0.0, "bike_id": "9ae9fde0bb1d81b63cf6fd317d5e9641", "is_disabled": 0, "is_reserved": 0}, {"rental_uris": {"ios": "https://dc.lft.to/lastmile_qr_scan", "android": "https://dc.lft.to/lastmile_qr_scan"}, "lon": -77.05331266666667, "type": "electric_scooter", "fusion_lat": 0.0, "lat": 38.9065055, "name": "908f78a2c331bf558c562dcde0eb7284", "fusion_lon": 0.0, "bike_id": "908f78a2c331bf558c562dcde0eb7284", "is_disabled": 0, "is_reserved": 0}, {"rental_uris": {"ios": "https://dc.lft.to/lastmile_qr_scan", "android": "https://dc.lft.to/lastmile_qr_scan"}, "lon": -77.04002783333334, "type": "electric_scooter", "fusion_lat": 0.0, "lat": 38.90032933333333, "name": "f05c4ecac0c9af8cb8a62e28cc34f249", "fusion_lon": 0.0, "bike_id": "f05c4ecac0c9af8cb8a62e28cc34f249", "is_disabled": 0, "is_reserved": 0}, {"rental_uris": {"ios": "https://dc.lft.to/lastmile_qr_scan", "android": "https://dc.lft.to/lastmile_qr_scan"}, "lon": -77.03919433333333, "type": "electric_scooter", "fusion_lat": 0.0, "lat": 38.89895516666667, "name": "59f9378c5f23f945b1de1d0503196942", "fusion_lon": 0.0, "bike_id": "59f9378c5f23f945b1de1d0503196942", "is_disabled": 0, "is_reserved": 0}, {"rental_uris": {"ios": "https://dc.lft.to/lastmile_qr_scan", "android": "https://dc.lft.to/lastmile_qr_scan"}, "lon": -76.972113, "type": "electric_scooter", "fusion_lat": 0.0, "lat": 38.85495733333333, "name": "e9aa2a4304b3232639b61c1b5cc7556e", "fusion_lon": 0.0, "bike_id": "e9aa2a4304b3232639b61c1b5cc7556e", "is_disabled": 0, "is_reserved": 0}, {"rental_uris": {"ios": "https://dc.lft.to/lastmile_qr_scan", "android": "https://dc.lft.to/lastmile_qr_scan"}, "lon": -77.02918533333333, "type": "electric_scooter", "fusion_lat": 0.0, "lat": 38.89554566666666, "name": "96772554741c9ee06fd4e75378296038", "fusion_lon": 0.0, "bike_id": "96772554741c9ee06fd4e75378296038", "is_disabled": 0, "is_reserved": 0}, {"rental_uris": {"ios": "https://dc.lft.to/lastmile_qr_scan", "android": "https://dc.lft.to/lastmile_qr_scan"}, "lon": -77.0425565, "type": "electric_scooter", "fusion_lat": 0.0, "lat": 38.9159725, "name": "3e3074a731082539f08e0057d7bd3a23", "fusion_lon": 0.0, "bike_id": "3e3074a731082539f08e0057d7bd3a23", "is_disabled": 0, "is_reserved": 0}, {"rental_uris": {"ios": "https://dc.lft.to/lastmile_qr_scan", "android": "https://dc.lft.to/lastmile_qr_scan"}, "lon": -77.03718183333334, "type": "electric_scooter", "fusion_lat": 0.0, "lat": 38.905678333333334, "name": "4dcebad963f07fbf1595bd8d7af9a6cd", "fusion_lon": 0.0, "bike_id": "4dcebad963f07fbf1595bd8d7af9a6cd", "is_disabled": 0, "is_reserved": 0}, {"rental_uris": {"ios": "https://dc.lft.to/lastmile_qr_scan", "android": "https://dc.lft.to/lastmile_qr_scan"}, "lon": -77.05881933333333, "type": "electric_scooter", "fusion_lat": 0.0, "lat": 38.93633966666667, "name": "563453aeaa407985bb462cd412de201e", "fusion_lon": 0.0, "bike_id": "563453aeaa407985bb462cd412de201e", "is_disabled": 0, "is_reserved": 0}, {"rental_uris": {"ios": "https://dc.lft.to/lastmile_qr_scan", "android": "https://dc.lft.to/lastmile_qr_scan"}, "lon": -77.00579766666667, "type": "electric_scooter", "fusion_lat": 0.0, "lat": 38.8723045, "name": "ea501c465aa445e5c58eec9fc712d4c0", "fusion_lon": 0.0, "bike_id": "ea501c465aa445e5c58eec9fc712d4c0", "is_disabled": 0, "is_reserved": 0}, {"rental_uris": {"ios": "https://dc.lft.to/lastmile_qr_scan", "android": "https://dc.lft.to/lastmile_qr_scan"}, "lon": -77.02163183333333, "type": "electric_scooter", "fusion_lat": 0.0, "lat": 38.92609066666667, "name": "1fec186277f5ff9b53c7ecc191738422", "fusion_lon": 0.0, "bike_id": "1fec186277f5ff9b53c7ecc191738422", "is_disabled": 0, "is_reserved": 0}, {"rental_uris": {"ios": "https://dc.lft.to/lastmile_qr_scan", "android": "https://dc.lft.to/lastmile_qr_scan"}, "lon": -77.02222783333333, "type": "electric_scooter", "fusion_lat": 0.0, "lat": 38.938685, "name": "5c20906603f14abdaaf4e07327362d81", "fusion_lon": 0.0, "bike_id": "5c20906603f14abdaaf4e07327362d81", "is_disabled": 0, "is_reserved": 0}, {"rental_uris": {"ios": "https://dc.lft.to/lastmile_qr_scan", "android": "https://dc.lft.to/lastmile_qr_scan"}, "lon": -76.98614433333333, "type": "electric_scooter", "fusion_lat": 0.0, "lat": 38.86825616666667, "name": "5c3bd75ece154a6e1975592073de45e5", "fusion_lon": 0.0, "bike_id": "5c3bd75ece154a6e1975592073de45e5", "is_disabled": 0, "is_reserved": 0}, {"rental_uris": {"ios": "https://dc.lft.to/lastmile_qr_scan", "android": "https://dc.lft.to/lastmile_qr_scan"}, "lon": -77.03481116666667, "type": "electric_scooter", "fusion_lat": 0.0, "lat": 38.920437666666665, "name": "ea78f77765d4de89ad566d000ba45be8", "fusion_lon": 0.0, "bike_id": "ea78f77765d4de89ad566d000ba45be8", "is_disabled": 0, "is_reserved": 0}, {"rental_uris": {"ios": "https://dc.lft.to/lastmile_qr_scan", "android": "https://dc.lft.to/lastmile_qr_scan"}, "lon": -77.04510783333333, "type": "electric_scooter", "fusion_lat": 0.0, "lat": 38.91195583333333, "name": "18b685fe69d26380b19bfede9974fa76", "fusion_lon": 0.0, "bike_id": "18b685fe69d26380b19bfede9974fa76", "is_disabled": 0, "is_reserved": 0}, {"rental_uris": {"ios": "https://dc.lft.to/lastmile_qr_scan", "android": "https://dc.lft.to/lastmile_qr_scan"}, "lon": -77.03109433333333, "type": "electric_scooter", "fusion_lat": 0.0, "lat": 38.91415683333334, "name": "45b71b41a4f784787d42cc164edf3ca5", "fusion_lon": 0.0, "bike_id": "45b71b41a4f784787d42cc164edf3ca5", "is_disabled": 0, "is_reserved": 0}, {"rental_uris": {"ios": "https://dc.lft.to/lastmile_qr_scan", "android": "https://dc.lft.to/lastmile_qr_scan"}, "lon": -77.0652105, "type": "electric_bike", "fusion_lat": 0.0, "lat": 38.904561, "name": "6645e47c631ca9e4b2d592ae37edf28b", "fusion_lon": 0.0, "bike_id": "6645e47c631ca9e4b2d592ae37edf28b", "is_disabled": 0, "is_reserved": 0}, {"rental_uris": {"ios": "https://dc.lft.to/lastmile_qr_scan", "android": "https://dc.lft.to/lastmile_qr_scan"}, "lon": -77.06538216666667, "type": "electric_scooter", "fusion_lat": 0.0, "lat": 38.9047705, "name": "d787ed840cc6993e1f2220b90cf99cbd", "fusion_lon": 0.0, "bike_id": "d787ed840cc6993e1f2220b90cf99cbd", "is_disabled": 0, "is_reserved": 0}, {"rental_uris": {"ios": "https://dc.lft.to/lastmile_qr_scan", "android": "https://dc.lft.to/lastmile_qr_scan"}, "lon": -76.95759316666667, "type": "electric_scooter", "fusion_lat": 0.0, "lat": 38.886808, "name": "71589ac2240d33aeb2424350602bc9bc", "fusion_lon": 0.0, "bike_id": "71589ac2240d33aeb2424350602bc9bc", "is_disabled": 0, "is_reserved": 0}, {"rental_uris": {"ios": "https://dc.lft.to/lastmile_qr_scan", "android": "https://dc.lft.to/lastmile_qr_scan"}, "lon": -76.99494616666667, "type": "electric_scooter", "fusion_lat": 0.0, "lat": 38.862427, "name": "23c481cd09792fb32e2ec2f8665f6c9b", "fusion_lon": 0.0, "bike_id": "23c481cd09792fb32e2ec2f8665f6c9b", "is_disabled": 0, "is_reserved": 0}, {"rental_uris": {"ios": "https://dc.lft.to/lastmile_qr_scan", "android": "https://dc.lft.to/lastmile_qr_scan"}, "lon": -77.00339266666667, "type": "electric_scooter", "fusion_lat": 0.0, "lat": 38.88768866666667, "name": "772becd13db8462b90efd3b184b7da03", "fusion_lon": 0.0, "bike_id": "772becd13db8462b90efd3b184b7da03", "is_disabled": 0, "is_reserved": 0}, {"rental_uris": {"ios": "https://dc.lft.to/lastmile_qr_scan", "android": "https://dc.lft.to/lastmile_qr_scan"}, "lon": -77.025855, "type": "electric_scooter", "fusion_lat": 0.0, "lat": 38.920317833333335, "name": "b7646050b596acd3419b40035f001fa1", "fusion_lon": 0.0, "bike_id": "b7646050b596acd3419b40035f001fa1", "is_disabled": 0, "is_reserved": 0}, {"rental_uris": {"ios": "https://dc.lft.to/lastmile_qr_scan", "android": "https://dc.lft.to/lastmile_qr_scan"}, "lon": -77.04606916666667, "type": "electric_scooter", "fusion_lat": 0.0, "lat": 38.90953833333333, "name": "c21e9146f563a141cb5ea9cc4bfaf49c", "fusion_lon": 0.0, "bike_id": "c21e9146f563a141cb5ea9cc4bfaf49c", "is_disabled": 0, "is_reserved": 0}, {"rental_uris": {"ios": "https://dc.lft.to/lastmile_qr_scan", "android": "https://dc.lft.to/lastmile_qr_scan"}, "lon": -76.95882266666666, "type": "electric_scooter", "fusion_lat": 0.0, "lat": 38.858421, "name": "d988334c8fae436b6e41b290a37211e6", "fusion_lon": 0.0, "bike_id": "d988334c8fae436b6e41b290a37211e6", "is_disabled": 0, "is_reserved": 0}, {"rental_uris": {"ios": "https://dc.lft.to/lastmile_qr_scan", "android": "https://dc.lft.to/lastmile_qr_scan"}, "lon": -77.02783983333333, "type": "electric_scooter", "fusion_lat": 0.0, "lat": 38.917058, "name": "17c84931f0a21677aa488f746223036e", "fusion_lon": 0.0, "bike_id": "17c84931f0a21677aa488f746223036e", "is_disabled": 0, "is_reserved": 0}, {"rental_uris": {"ios": "https://dc.lft.to/lastmile_qr_scan", "android": "https://dc.lft.to/lastmile_qr_scan"}, "lon": -77.0400665, "type": "electric_scooter", "fusion_lat": 0.0, "lat": 38.921359833333334, "name": "28042fa08b937fb10b90b93b43fd62db", "fusion_lon": 0.0, "bike_id": "28042fa08b937fb10b90b93b43fd62db", "is_disabled": 0, "is_reserved": 0}, {"rental_uris": {"ios": "https://dc.lft.to/lastmile_qr_scan", "android": "https://dc.lft.to/lastmile_qr_scan"}, "lon": -77.02417283333334, "type": "electric_scooter", "fusion_lat": 0.0, "lat": 38.93609683333333, "name": "dd266ecb1db169eaae4ead3ec561fa11", "fusion_lon": 0.0, "bike_id": "dd266ecb1db169eaae4ead3ec561fa11", "is_disabled": 0, "is_reserved": 0}, {"rental_uris": {"ios": "https://dc.lft.to/lastmile_qr_scan", "android": "https://dc.lft.to/lastmile_qr_scan"}, "lon": -77.034436, "type": "electric_scooter", "fusion_lat": 0.0, "lat": 38.909476, "name": "fd30e7b08ed827cffbd799e35e734742", "fusion_lon": 0.0, "bike_id": "fd30e7b08ed827cffbd799e35e734742", "is_disabled": 0, "is_reserved": 0}, {"rental_uris": {"ios": "https://dc.lft.to/lastmile_qr_scan", "android": "https://dc.lft.to/lastmile_qr_scan"}, "lon": -77.00201716666666, "type": "electric_scooter", "fusion_lat": 0.0, "lat": 38.90037366666667, "name": "29318c8d3d3d47af9ce610c0ed3fe4eb", "fusion_lon": 0.0, "bike_id": "29318c8d3d3d47af9ce610c0ed3fe4eb", "is_disabled": 0, "is_reserved": 0}, {"rental_uris": {"ios": "https://dc.lft.to/lastmile_qr_scan", "android": "https://dc.lft.to/lastmile_qr_scan"}, "lon": -77.01947083333333, "type": "electric_scooter", "fusion_lat": 0.0, "lat": 38.94998983333333, "name": "7f5ce1f0bde9adf07f3039a655bef015", "fusion_lon": 0.0, "bike_id": "7f5ce1f0bde9adf07f3039a655bef015", "is_disabled": 0, "is_reserved": 0}, {"rental_uris": {"ios": "https://dc.lft.to/lastmile_qr_scan", "android": "https://dc.lft.to/lastmile_qr_scan"}, "lon": -77.02356033333334, "type": "electric_scooter", "fusion_lat": 0.0, "lat": 38.92503416666667, "name": "df312d866039814928bad0da5f1ae619", "fusion_lon": 0.0, "bike_id": "df312d866039814928bad0da5f1ae619", "is_disabled": 0, "is_reserved": 0}, {"rental_uris": {"ios": "https://dc.lft.to/lastmile_qr_scan", "android": "https://dc.lft.to/lastmile_qr_scan"}, "lon": -77.03418416666666, "type": "electric_scooter", "fusion_lat": 0.0, "lat": 38.93536566666667, "name": "ff6a206fb918a1644bd9ebbd6992eac8", "fusion_lon": 0.0, "bike_id": "ff6a206fb918a1644bd9ebbd6992eac8", "is_disabled": 0, "is_reserved": 0}, {"rental_uris": {"ios": "https://dc.lft.to/lastmile_qr_scan", "android": "https://dc.lft.to/lastmile_qr_scan"}, "lon": -77.033864, "type": "electric_scooter", "fusion_lat": 0.0, "lat": 38.9215835, "name": "22c36149d26aaf87bff8f7a0c4de5c31", "fusion_lon": 0.0, "bike_id": "22c36149d26aaf87bff8f7a0c4de5c31", "is_disabled": 0, "is_reserved": 0}, {"rental_uris": {"ios": "https://dc.lft.to/lastmile_qr_scan", "android": "https://dc.lft.to/lastmile_qr_scan"}, "lon": -77.01283216666667, "type": "electric_scooter", "fusion_lat": 0.0, "lat": 38.9003545, "name": "9266d4db933dd9f1f1641f436135a011", "fusion_lon": 0.0, "bike_id": "9266d4db933dd9f1f1641f436135a011", "is_disabled": 0, "is_reserved": 0}, {"rental_uris": {"ios": "https://dc.lft.to/lastmile_qr_scan", "android": "https://dc.lft.to/lastmile_qr_scan"}, "lon": -77.04806883333333, "type": "electric_scooter", "fusion_lat": 0.0, "lat": 38.920379, "name": "dba0143d052a3aef3cec4edb97dd53ef", "fusion_lon": 0.0, "bike_id": "dba0143d052a3aef3cec4edb97dd53ef", "is_disabled": 0, "is_reserved": 0}, {"rental_uris": {"ios": "https://dc.lft.to/lastmile_qr_scan", "android": "https://dc.lft.to/lastmile_qr_scan"}, "lon": -76.94174966666667, "type": "electric_scooter", "fusion_lat": 0.0, "lat": 38.88217433333333, "name": "7b4aa009dfca2107cfe89a97b5155bb0", "fusion_lon": 0.0, "bike_id": "7b4aa009dfca2107cfe89a97b5155bb0", "is_disabled": 0, "is_reserved": 0}, {"rental_uris": {"ios": "https://dc.lft.to/lastmile_qr_scan", "android": "https://dc.lft.to/lastmile_qr_scan"}, "lon": -76.98715433333334, "type": "electric_scooter", "fusion_lat": 0.0, "lat": 38.862571333333335, "name": "59ea0f0d17a1afdd8ca7a11e8dd57365", "fusion_lon": 0.0, "bike_id": "59ea0f0d17a1afdd8ca7a11e8dd57365", "is_disabled": 0, "is_reserved": 0}, {"rental_uris": {"ios": "https://dc.lft.to/lastmile_qr_scan", "android": "https://dc.lft.to/lastmile_qr_scan"}, "lon": -77.03263866666667, "type": "electric_scooter", "fusion_lat": 0.0, "lat": 38.93518666666667, "name": "36fe3a0e07dccda0a2befa497f13cfc8", "fusion_lon": 0.0, "bike_id": "36fe3a0e07dccda0a2befa497f13cfc8", "is_disabled": 0, "is_reserved": 0}, {"rental_uris": {"ios": "https://dc.lft.to/lastmile_qr_scan", "android": "https://dc.lft.to/lastmile_qr_scan"}, "lon": -76.95421033333334, "type": "electric_scooter", "fusion_lat": 0.0, "lat": 38.8899095, "name": "89c765fa8e78594c8a7fd615e5f6b7f0", "fusion_lon": 0.0, "bike_id": "89c765fa8e78594c8a7fd615e5f6b7f0", "is_disabled": 0, "is_reserved": 0}, {"rental_uris": {"ios": "https://dc.lft.to/lastmile_qr_scan", "android": "https://dc.lft.to/lastmile_qr_scan"}, "lon": -77.044442, "type": "electric_scooter", "fusion_lat": 0.0, "lat": 38.9101725, "name": "4eff35d39669e0e43b03a47b8f8aa4e9", "fusion_lon": 0.0, "bike_id": "4eff35d39669e0e43b03a47b8f8aa4e9", "is_disabled": 0, "is_reserved": 0}, {"rental_uris": {"ios": "https://dc.lft.to/lastmile_qr_scan", "android": "https://dc.lft.to/lastmile_qr_scan"}, "lon": -77.04567733333333, "type": "electric_scooter", "fusion_lat": 0.0, "lat": 38.921346666666665, "name": "92d5c36009f06b82305fea5a099bdaa2", "fusion_lon": 0.0, "bike_id": "92d5c36009f06b82305fea5a099bdaa2", "is_disabled": 0, "is_reserved": 0}, {"rental_uris": {"ios": "https://dc.lft.to/lastmile_qr_scan", "android": "https://dc.lft.to/lastmile_qr_scan"}, "lon": -77.00090083333333, "type": "electric_scooter", "fusion_lat": 0.0, "lat": 38.8737755, "name": "304632197ba0880adb0d870c96066c68", "fusion_lon": 0.0, "bike_id": "304632197ba0880adb0d870c96066c68", "is_disabled": 0, "is_reserved": 0}, {"rental_uris": {"ios": "https://dc.lft.to/lastmile_qr_scan", "android": "https://dc.lft.to/lastmile_qr_scan"}, "lon": -77.04675783333333, "type": "electric_scooter", "fusion_lat": 0.0, "lat": 38.90971783333333, "name": "e5d93b33d99aabacf92fbb5fe22bd7a4", "fusion_lon": 0.0, "bike_id": "e5d93b33d99aabacf92fbb5fe22bd7a4", "is_disabled": 0, "is_reserved": 0}, {"rental_uris": {"ios": "https://dc.lft.to/lastmile_qr_scan", "android": "https://dc.lft.to/lastmile_qr_scan"}, "lon": -77.0409315, "type": "electric_scooter", "fusion_lat": 0.0, "lat": 38.923730166666665, "name": "57518c0fdff5e20171a244baec56895e", "fusion_lon": 0.0, "bike_id": "57518c0fdff5e20171a244baec56895e", "is_disabled": 0, "is_reserved": 0}, {"rental_uris": {"ios": "https://dc.lft.to/lastmile_qr_scan", "android": "https://dc.lft.to/lastmile_qr_scan"}, "lon": -77.04264216666667, "type": "electric_scooter", "fusion_lat": 0.0, "lat": 38.9220225, "name": "7b937b23755f1ad37379d735db82bb46", "fusion_lon": 0.0, "bike_id": "7b937b23755f1ad37379d735db82bb46", "is_disabled": 0, "is_reserved": 0}, {"rental_uris": {"ios": "https://dc.lft.to/lastmile_qr_scan", "android": "https://dc.lft.to/lastmile_qr_scan"}, "lon": -77.0547665, "type": "electric_scooter", "fusion_lat": 0.0, "lat": 38.920944, "name": "7ca64afa7afcc80549121d1473802596", "fusion_lon": 0.0, "bike_id": "7ca64afa7afcc80549121d1473802596", "is_disabled": 0, "is_reserved": 0}, {"rental_uris": {"ios": "https://dc.lft.to/lastmile_qr_scan", "android": "https://dc.lft.to/lastmile_qr_scan"}, "lon": -77.00135816666666, "type": "electric_scooter", "fusion_lat": 0.0, "lat": 38.90407883333334, "name": "da9c3ee7123db7b019dc93fea5b984ea", "fusion_lon": 0.0, "bike_id": "da9c3ee7123db7b019dc93fea5b984ea", "is_disabled": 0, "is_reserved": 0}, {"rental_uris": {"ios": "https://dc.lft.to/lastmile_qr_scan", "android": "https://dc.lft.to/lastmile_qr_scan"}, "lon": -77.02220783333334, "type": "electric_scooter", "fusion_lat": 0.0, "lat": 38.9056095, "name": "231f5e2fa328c6e95f72a1af06df5613", "fusion_lon": 0.0, "bike_id": "231f5e2fa328c6e95f72a1af06df5613", "is_disabled": 0, "is_reserved": 0}, {"rental_uris": {"ios": "https://dc.lft.to/lastmile_qr_scan", "android": "https://dc.lft.to/lastmile_qr_scan"}, "lon": -77.0297865, "type": "electric_scooter", "fusion_lat": 0.0, "lat": 38.962284333333336, "name": "72eafc0e2ea8e5630e548af4a55e920f", "fusion_lon": 0.0, "bike_id": "72eafc0e2ea8e5630e548af4a55e920f", "is_disabled": 0, "is_reserved": 0}, {"rental_uris": {"ios": "https://dc.lft.to/lastmile_qr_scan", "android": "https://dc.lft.to/lastmile_qr_scan"}, "lon": -76.94665666666667, "type": "electric_scooter", "fusion_lat": 0.0, "lat": 38.8980055, "name": "ba410ac443565f5d96a0846c95340506", "fusion_lon": 0.0, "bike_id": "ba410ac443565f5d96a0846c95340506", "is_disabled": 0, "is_reserved": 0}, {"rental_uris": {"ios": "https://dc.lft.to/lastmile_qr_scan", "android": "https://dc.lft.to/lastmile_qr_scan"}, "lon": -76.92725266666666, "type": "electric_scooter", "fusion_lat": 0.0, "lat": 38.88039083333334, "name": "5cbc04c40737deabc3fe4cd464620639", "fusion_lon": 0.0, "bike_id": "5cbc04c40737deabc3fe4cd464620639", "is_disabled": 0, "is_reserved": 0}, {"rental_uris": {"ios": "https://dc.lft.to/lastmile_qr_scan", "android": "https://dc.lft.to/lastmile_qr_scan"}, "lon": -77.10337616666666, "type": "electric_bike", "fusion_lat": 0.0, "lat": 38.85230583333333, "name": "93ee2ea6668e243c4df3b6e8d625542b", "fusion_lon": 0.0, "bike_id": "93ee2ea6668e243c4df3b6e8d625542b", "is_disabled": 0, "is_reserved": 0}, {"rental_uris": {"ios": "https://dc.lft.to/lastmile_qr_scan", "android": "https://dc.lft.to/lastmile_qr_scan"}, "lon": -77.01277366666666, "type": "electric_bike", "fusion_lat": 0.0, "lat": 38.88119916666667, "name": "1b7481b10e4e246037127226300113bf", "fusion_lon": 0.0, "bike_id": "1b7481b10e4e246037127226300113bf", "is_disabled": 0, "is_reserved": 0}, {"rental_uris": {"ios": "https://dc.lft.to/lastmile_qr_scan", "android": "https://dc.lft.to/lastmile_qr_scan"}, "lon": -77.02674716666667, "type": "electric_scooter", "fusion_lat": 0.0, "lat": 38.881280333333336, "name": "9b37c6b898e93c18854a0664b06c39ac", "fusion_lon": 0.0, "bike_id": "9b37c6b898e93c18854a0664b06c39ac", "is_disabled": 0, "is_reserved": 0}, {"rental_uris": {"ios": "https://dc.lft.to/lastmile_qr_scan", "android": "https://dc.lft.to/lastmile_qr_scan"}, "lon": -77.03038583333333, "type": "electric_scooter", "fusion_lat": 0.0, "lat": 38.89687416666666, "name": "0288c43dbb7c6024cf618fefb966a4bc", "fusion_lon": 0.0, "bike_id": "0288c43dbb7c6024cf618fefb966a4bc", "is_disabled": 0, "is_reserved": 0}, {"rental_uris": {"ios": "https://dc.lft.to/lastmile_qr_scan", "android": "https://dc.lft.to/lastmile_qr_scan"}, "lon": -77.00710766666667, "type": "electric_scooter", "fusion_lat": 0.0, "lat": 38.884874833333335, "name": "ee8b7ee140a76242ff72f2d97f5cd402", "fusion_lon": 0.0, "bike_id": "ee8b7ee140a76242ff72f2d97f5cd402", "is_disabled": 0, "is_reserved": 0}, {"rental_uris": {"ios": "https://dc.lft.to/lastmile_qr_scan", "android": "https://dc.lft.to/lastmile_qr_scan"}, "lon": -77.02724816666667, "type": "electric_scooter", "fusion_lat": 0.0, "lat": 38.934001, "name": "f66f0d3e36721be95b2d5036e65a61b1", "fusion_lon": 0.0, "bike_id": "f66f0d3e36721be95b2d5036e65a61b1", "is_disabled": 0, "is_reserved": 0}, {"rental_uris": {"ios": "https://dc.lft.to/lastmile_qr_scan", "android": "https://dc.lft.to/lastmile_qr_scan"}, "lon": -77.03172833333333, "type": "electric_scooter", "fusion_lat": 0.0, "lat": 38.928688666666666, "name": "d2baa074db3dfce903a405043eb33b2a", "fusion_lon": 0.0, "bike_id": "d2baa074db3dfce903a405043eb33b2a", "is_disabled": 0, "is_reserved": 0}, {"rental_uris": {"ios": "https://dc.lft.to/lastmile_qr_scan", "android": "https://dc.lft.to/lastmile_qr_scan"}, "lon": -76.94699383333334, "type": "electric_scooter", "fusion_lat": 0.0, "lat": 38.897274, "name": "512aca1442d343e37cddff0a220c776e", "fusion_lon": 0.0, "bike_id": "512aca1442d343e37cddff0a220c776e", "is_disabled": 0, "is_reserved": 0}, {"rental_uris": {"ios": "https://dc.lft.to/lastmile_qr_scan", "android": "https://dc.lft.to/lastmile_qr_scan"}, "lon": -77.02171816666667, "type": "electric_scooter", "fusion_lat": 0.0, "lat": 38.89900733333333, "name": "fc852d59c770073cbc103751c20e0059", "fusion_lon": 0.0, "bike_id": "fc852d59c770073cbc103751c20e0059", "is_disabled": 0, "is_reserved": 0}, {"rental_uris": {"ios": "https://dc.lft.to/lastmile_qr_scan", "android": "https://dc.lft.to/lastmile_qr_scan"}, "lon": -77.00580816666667, "type": "electric_scooter", "fusion_lat": 0.0, "lat": 38.87277916666667, "name": "fbaa1867dc0a7b0bab30a9585f1d1472", "fusion_lon": 0.0, "bike_id": "fbaa1867dc0a7b0bab30a9585f1d1472", "is_disabled": 0, "is_reserved": 0}, {"rental_uris": {"ios": "https://dc.lft.to/lastmile_qr_scan", "android": "https://dc.lft.to/lastmile_qr_scan"}, "lon": -76.93737283333333, "type": "electric_scooter", "fusion_lat": 0.0, "lat": 38.890133666666664, "name": "f5c546258821d59de02f4a14d3901f8b", "fusion_lon": 0.0, "bike_id": "f5c546258821d59de02f4a14d3901f8b", "is_disabled": 0, "is_reserved": 0}, {"rental_uris": {"ios": "https://dc.lft.to/lastmile_qr_scan", "android": "https://dc.lft.to/lastmile_qr_scan"}, "lon": -77.0455345, "type": "electric_scooter", "fusion_lat": 0.0, "lat": 38.9340345, "name": "dff3897f6f3cce7d01f26c3ffb594b30", "fusion_lon": 0.0, "bike_id": "dff3897f6f3cce7d01f26c3ffb594b30", "is_disabled": 0, "is_reserved": 0}, {"rental_uris": {"ios": "https://dc.lft.to/lastmile_qr_scan", "android": "https://dc.lft.to/lastmile_qr_scan"}, "lon": -77.0339745, "type": "electric_scooter", "fusion_lat": 0.0, "lat": 38.923442, "name": "dd82454844865673151bbd45212deb05", "fusion_lon": 0.0, "bike_id": "dd82454844865673151bbd45212deb05", "is_disabled": 0, "is_reserved": 0}, {"rental_uris": {"ios": "https://dc.lft.to/lastmile_qr_scan", "android": "https://dc.lft.to/lastmile_qr_scan"}, "lon": -76.98526183333334, "type": "electric_scooter", "fusion_lat": 0.0, "lat": 38.9045365, "name": "0de19e7f6e1ceec44d6f01ba7aeea33c", "fusion_lon": 0.0, "bike_id": "0de19e7f6e1ceec44d6f01ba7aeea33c", "is_disabled": 0, "is_reserved": 0}, {"rental_uris": {"ios": "https://dc.lft.to/lastmile_qr_scan", "android": "https://dc.lft.to/lastmile_qr_scan"}, "lon": -76.98844316666667, "type": "electric_bike", "fusion_lat": 0.0, "lat": 38.89603483333333, "name": "464f0837122dfe07e6274bc2c39f7ab0", "fusion_lon": 0.0, "bike_id": "464f0837122dfe07e6274bc2c39f7ab0", "is_disabled": 0, "is_reserved": 0}, {"rental_uris": {"ios": "https://dc.lft.to/lastmile_qr_scan", "android": "https://dc.lft.to/lastmile_qr_scan"}, "lon": -77.029522, "type": "electric_scooter", "fusion_lat": 0.0, "lat": 38.9126615, "name": "619f3b989f3a121947da59801e202d9b", "fusion_lon": 0.0, "bike_id": "619f3b989f3a121947da59801e202d9b", "is_disabled": 0, "is_reserved": 0}, {"rental_uris": {"ios": "https://dc.lft.to/lastmile_qr_scan", "android": "https://dc.lft.to/lastmile_qr_scan"}, "lon": -77.104547, "type": "electric_bike", "fusion_lat": 0.0, "lat": 38.89637316666666, "name": "fb0154dc169bb817b36ebac70ac098d3", "fusion_lon": 0.0, "bike_id": "fb0154dc169bb817b36ebac70ac098d3", "is_disabled": 0, "is_reserved": 0}, {"rental_uris": {"ios": "https://dc.lft.to/lastmile_qr_scan", "android": "https://dc.lft.to/lastmile_qr_scan"}, "lon": -77.02465333333333, "type": "electric_scooter", "fusion_lat": 0.0, "lat": 38.93709533333333, "name": "e0c142c6e1e54f3a44daaff398535b3f", "fusion_lon": 0.0, "bike_id": "e0c142c6e1e54f3a44daaff398535b3f", "is_disabled": 0, "is_reserved": 0}, {"rental_uris": {"ios": "https://dc.lft.to/lastmile_qr_scan", "android": "https://dc.lft.to/lastmile_qr_scan"}, "lon": -77.054017, "type": "electric_scooter", "fusion_lat": 0.0, "lat": 38.901575, "name": "a5761823830ef76a112aa766959d3cd0", "fusion_lon": 0.0, "bike_id": "a5761823830ef76a112aa766959d3cd0", "is_disabled": 0, "is_reserved": 0}, {"rental_uris": {"ios": "https://dc.lft.to/lastmile_qr_scan", "android": "https://dc.lft.to/lastmile_qr_scan"}, "lon": -77.01020233333334, "type": "electric_scooter", "fusion_lat": 0.0, "lat": 38.91807933333333, "name": "42313b0f29f317903fb124b31f70f258", "fusion_lon": 0.0, "bike_id": "42313b0f29f317903fb124b31f70f258", "is_disabled": 0, "is_reserved": 0}, {"rental_uris": {"ios": "https://dc.lft.to/lastmile_qr_scan", "android": "https://dc.lft.to/lastmile_qr_scan"}, "lon": -76.9899515, "type": "electric_scooter", "fusion_lat": 0.0, "lat": 38.903789833333335, "name": "35f5acf08ba700440dbef2f44a2560ee", "fusion_lon": 0.0, "bike_id": "35f5acf08ba700440dbef2f44a2560ee", "is_disabled": 0, "is_reserved": 0}, {"rental_uris": {"ios": "https://dc.lft.to/lastmile_qr_scan", "android": "https://dc.lft.to/lastmile_qr_scan"}, "lon": -77.03439233333333, "type": "electric_scooter", "fusion_lat": 0.0, "lat": 38.90970166666666, "name": "c4e899c1b5a48385f71968351025b4d4", "fusion_lon": 0.0, "bike_id": "c4e899c1b5a48385f71968351025b4d4", "is_disabled": 0, "is_reserved": 0}, {"rental_uris": {"ios": "https://dc.lft.to/lastmile_qr_scan", "android": "https://dc.lft.to/lastmile_qr_scan"}, "lon": -77.03778566666666, "type": "electric_scooter", "fusion_lat": 0.0, "lat": 38.93608416666667, "name": "afce085893f39ea00eb8c837f3486a49", "fusion_lon": 0.0, "bike_id": "afce085893f39ea00eb8c837f3486a49", "is_disabled": 0, "is_reserved": 0}, {"rental_uris": {"ios": "https://dc.lft.to/lastmile_qr_scan", "android": "https://dc.lft.to/lastmile_qr_scan"}, "lon": -77.0252725, "type": "electric_scooter", "fusion_lat": 0.0, "lat": 38.941425333333335, "name": "b29d9a98ab846870165507ee7cf8139a", "fusion_lon": 0.0, "bike_id": "b29d9a98ab846870165507ee7cf8139a", "is_disabled": 0, "is_reserved": 0}, {"rental_uris": {"ios": "https://dc.lft.to/lastmile_qr_scan", "android": "https://dc.lft.to/lastmile_qr_scan"}, "lon": -77.0428925, "type": "electric_bike", "fusion_lat": 0.0, "lat": 38.907316, "name": "d3c36be294cc862619e57603cd26f2a2", "fusion_lon": 0.0, "bike_id": "d3c36be294cc862619e57603cd26f2a2", "is_disabled": 0, "is_reserved": 0}, {"rental_uris": {"ios": "https://dc.lft.to/lastmile_qr_scan", "android": "https://dc.lft.to/lastmile_qr_scan"}, "lon": -77.01637916666667, "type": "electric_scooter", "fusion_lat": 0.0, "lat": 38.9293855, "name": "4e7668b772816ed99e20696731faa294", "fusion_lon": 0.0, "bike_id": "4e7668b772816ed99e20696731faa294", "is_disabled": 0, "is_reserved": 0}, {"rental_uris": {"ios": "https://dc.lft.to/lastmile_qr_scan", "android": "https://dc.lft.to/lastmile_qr_scan"}, "lon": -77.03843516666667, "type": "electric_scooter", "fusion_lat": 0.0, "lat": 38.931051333333336, "name": "a3e64190515d782457009ea2e586f701", "fusion_lon": 0.0, "bike_id": "a3e64190515d782457009ea2e586f701", "is_disabled": 0, "is_reserved": 0}, {"rental_uris": {"ios": "https://dc.lft.to/lastmile_qr_scan", "android": "https://dc.lft.to/lastmile_qr_scan"}, "lon": -76.99699016666666, "type": "electric_scooter", "fusion_lat": 0.0, "lat": 38.9079435, "name": "18c3510a1175fd05d03401189c71693b", "fusion_lon": 0.0, "bike_id": "18c3510a1175fd05d03401189c71693b", "is_disabled": 0, "is_reserved": 0}, {"rental_uris": {"ios": "https://dc.lft.to/lastmile_qr_scan", "android": "https://dc.lft.to/lastmile_qr_scan"}, "lon": -77.0825905, "type": "electric_bike", "fusion_lat": 0.0, "lat": 38.9356285, "name": "6d1705cba3c0ae3d5fb73381a4ab20cd", "fusion_lon": 0.0, "bike_id": "6d1705cba3c0ae3d5fb73381a4ab20cd", "is_disabled": 0, "is_reserved": 0}, {"rental_uris": {"ios": "https://dc.lft.to/lastmile_qr_scan", "android": "https://dc.lft.to/lastmile_qr_scan"}, "lon": -77.06940266666666, "type": "electric_scooter", "fusion_lat": 0.0, "lat": 38.905131, "name": "ba13eb05c0f3a515cb1a6fb730451de8", "fusion_lon": 0.0, "bike_id": "ba13eb05c0f3a515cb1a6fb730451de8", "is_disabled": 0, "is_reserved": 0}, {"rental_uris": {"ios": "https://dc.lft.to/lastmile_qr_scan", "android": "https://dc.lft.to/lastmile_qr_scan"}, "lon": -77.021874, "type": "electric_bike", "fusion_lat": 0.0, "lat": 38.879989333333334, "name": "9a1e5af8a2a8b7ff85130fbe1af81d13", "fusion_lon": 0.0, "bike_id": "9a1e5af8a2a8b7ff85130fbe1af81d13", "is_disabled": 0, "is_reserved": 0}, {"rental_uris": {"ios": "https://dc.lft.to/lastmile_qr_scan", "android": "https://dc.lft.to/lastmile_qr_scan"}, "lon": -77.04130333333333, "type": "electric_scooter", "fusion_lat": 0.0, "lat": 38.9104375, "name": "88236f6a44f0c709988a3f3cf855672f", "fusion_lon": 0.0, "bike_id": "88236f6a44f0c709988a3f3cf855672f", "is_disabled": 0, "is_reserved": 0}, {"rental_uris": {"ios": "https://dc.lft.to/lastmile_qr_scan", "android": "https://dc.lft.to/lastmile_qr_scan"}, "lon": -77.06984366666667, "type": "electric_scooter", "fusion_lat": 0.0, "lat": 38.95485166666667, "name": "386bcda32b98b3247d7ae3645d51b11b", "fusion_lon": 0.0, "bike_id": "386bcda32b98b3247d7ae3645d51b11b", "is_disabled": 0, "is_reserved": 0}, {"rental_uris": {"ios": "https://dc.lft.to/lastmile_qr_scan", "android": "https://dc.lft.to/lastmile_qr_scan"}, "lon": -77.00219283333334, "type": "electric_scooter", "fusion_lat": 0.0, "lat": 38.900149166666665, "name": "6f7e40ae417f75f021e3acf50f986e9e", "fusion_lon": 0.0, "bike_id": "6f7e40ae417f75f021e3acf50f986e9e", "is_disabled": 0, "is_reserved": 0}, {"rental_uris": {"ios": "https://dc.lft.to/lastmile_qr_scan", "android": "https://dc.lft.to/lastmile_qr_scan"}, "lon": -77.0633345, "type": "electric_scooter", "fusion_lat": 0.0, "lat": 38.907574333333336, "name": "b1f241b7c201ca6a21b38973b5dad257", "fusion_lon": 0.0, "bike_id": "b1f241b7c201ca6a21b38973b5dad257", "is_disabled": 0, "is_reserved": 0}, {"rental_uris": {"ios": "https://dc.lft.to/lastmile_qr_scan", "android": "https://dc.lft.to/lastmile_qr_scan"}, "lon": -77.04896483333333, "type": "electric_scooter", "fusion_lat": 0.0, "lat": 38.900564, "name": "4d0b2c50388a28b8ebf781d7a944f5ca", "fusion_lon": 0.0, "bike_id": "4d0b2c50388a28b8ebf781d7a944f5ca", "is_disabled": 0, "is_reserved": 0}, {"rental_uris": {"ios": "https://dc.lft.to/lastmile_qr_scan", "android": "https://dc.lft.to/lastmile_qr_scan"}, "lon": -76.96527983333333, "type": "electric_scooter", "fusion_lat": 0.0, "lat": 38.8786755, "name": "c9fdacd827216833018b8615f0b4d2a8", "fusion_lon": 0.0, "bike_id": "c9fdacd827216833018b8615f0b4d2a8", "is_disabled": 0, "is_reserved": 0}, {"rental_uris": {"ios": "https://dc.lft.to/lastmile_qr_scan", "android": "https://dc.lft.to/lastmile_qr_scan"}, "lon": -76.99499783333333, "type": "electric_bike", "fusion_lat": 0.0, "lat": 38.99998933333333, "name": "553f6dc472f69a8f16fb2e9a7139743a", "fusion_lon": 0.0, "bike_id": "553f6dc472f69a8f16fb2e9a7139743a", "is_disabled": 0, "is_reserved": 0}, {"rental_uris": {"ios": "https://dc.lft.to/lastmile_qr_scan", "android": "https://dc.lft.to/lastmile_qr_scan"}, "lon": -77.03851783333333, "type": "electric_scooter", "fusion_lat": 0.0, "lat": 38.915396333333334, "name": "f52071b8e24e7aab8a3d4fda3685d80e", "fusion_lon": 0.0, "bike_id": "f52071b8e24e7aab8a3d4fda3685d80e", "is_disabled": 0, "is_reserved": 0}, {"rental_uris": {"ios": "https://dc.lft.to/lastmile_qr_scan", "android": "https://dc.lft.to/lastmile_qr_scan"}, "lon": -76.999761, "type": "electric_scooter", "fusion_lat": 0.0, "lat": 38.8382555, "name": "0925221d54c7f177eb8a94d8c8f00412", "fusion_lon": 0.0, "bike_id": "0925221d54c7f177eb8a94d8c8f00412", "is_disabled": 0, "is_reserved": 0}, {"rental_uris": {"ios": "https://dc.lft.to/lastmile_qr_scan", "android": "https://dc.lft.to/lastmile_qr_scan"}, "lon": -77.00431116666667, "type": "electric_scooter", "fusion_lat": 0.0, "lat": 38.905596, "name": "0eb747dbbde2dd321ec97b29016327ac", "fusion_lon": 0.0, "bike_id": "0eb747dbbde2dd321ec97b29016327ac", "is_disabled": 0, "is_reserved": 0}, {"rental_uris": {"ios": "https://dc.lft.to/lastmile_qr_scan", "android": "https://dc.lft.to/lastmile_qr_scan"}, "lon": -77.05155466666666, "type": "electric_scooter", "fusion_lat": 0.0, "lat": 38.9011845, "name": "251145a656798c65a590320a0ed58d59", "fusion_lon": 0.0, "bike_id": "251145a656798c65a590320a0ed58d59", "is_disabled": 0, "is_reserved": 0}, {"rental_uris": {"ios": "https://dc.lft.to/lastmile_qr_scan", "android": "https://dc.lft.to/lastmile_qr_scan"}, "lon": -77.0228925, "type": "electric_scooter", "fusion_lat": 0.0, "lat": 38.91673316666667, "name": "6c0389d176b5078f5587ed1cc1ff5daf", "fusion_lon": 0.0, "bike_id": "6c0389d176b5078f5587ed1cc1ff5daf", "is_disabled": 0, "is_reserved": 0}, {"rental_uris": {"ios": "https://dc.lft.to/lastmile_qr_scan", "android": "https://dc.lft.to/lastmile_qr_scan"}, "lon": -76.93099516666666, "type": "electric_scooter", "fusion_lat": 0.0, "lat": 38.9013825, "name": "85f73c9b9dddda30fbaeb9fd4351cef0", "fusion_lon": 0.0, "bike_id": "85f73c9b9dddda30fbaeb9fd4351cef0", "is_disabled": 0, "is_reserved": 0}, {"rental_uris": {"ios": "https://dc.lft.to/lastmile_qr_scan", "android": "https://dc.lft.to/lastmile_qr_scan"}, "lon": -76.99184383333333, "type": "electric_scooter", "fusion_lat": 0.0, "lat": 38.90124816666667, "name": "c8635f1fb9694eae3ac08646049f7ff8", "fusion_lon": 0.0, "bike_id": "c8635f1fb9694eae3ac08646049f7ff8", "is_disabled": 0, "is_reserved": 0}, {"rental_uris": {"ios": "https://dc.lft.to/lastmile_qr_scan", "android": "https://dc.lft.to/lastmile_qr_scan"}, "lon": -77.05353766666667, "type": "electric_scooter", "fusion_lat": 0.0, "lat": 38.90239566666666, "name": "c9ced2341a916da484f30e86a1965900", "fusion_lon": 0.0, "bike_id": "c9ced2341a916da484f30e86a1965900", "is_disabled": 0, "is_reserved": 0}, {"rental_uris": {"ios": "https://dc.lft.to/lastmile_qr_scan", "android": "https://dc.lft.to/lastmile_qr_scan"}, "lon": -77.01592616666667, "type": "electric_scooter", "fusion_lat": 0.0, "lat": 38.91642266666667, "name": "6f83d8675f9ce510d5fb9722ee0ae835", "fusion_lon": 0.0, "bike_id": "6f83d8675f9ce510d5fb9722ee0ae835", "is_disabled": 0, "is_reserved": 0}, {"rental_uris": {"ios": "https://dc.lft.to/lastmile_qr_scan", "android": "https://dc.lft.to/lastmile_qr_scan"}, "lon": -77.02718783333333, "type": "electric_scooter", "fusion_lat": 0.0, "lat": 38.91814016666667, "name": "14871636a715faa2a282902f79b4743d", "fusion_lon": 0.0, "bike_id": "14871636a715faa2a282902f79b4743d", "is_disabled": 0, "is_reserved": 0}, {"rental_uris": {"ios": "https://dc.lft.to/lastmile_qr_scan", "android": "https://dc.lft.to/lastmile_qr_scan"}, "lon": -77.014114, "type": "electric_scooter", "fusion_lat": 0.0, "lat": 38.91561183333334, "name": "ae367618663b79c1c40f31d51cb6411b", "fusion_lon": 0.0, "bike_id": "ae367618663b79c1c40f31d51cb6411b", "is_disabled": 0, "is_reserved": 0}, {"rental_uris": {"ios": "https://dc.lft.to/lastmile_qr_scan", "android": "https://dc.lft.to/lastmile_qr_scan"}, "lon": -76.98000266666666, "type": "electric_bike", "fusion_lat": 0.0, "lat": 38.86285933333333, "name": "e126fac242e9f06b7fd05423fd1d9880", "fusion_lon": 0.0, "bike_id": "e126fac242e9f06b7fd05423fd1d9880", "is_disabled": 0, "is_reserved": 0}, {"rental_uris": {"ios": "https://dc.lft.to/lastmile_qr_scan", "android": "https://dc.lft.to/lastmile_qr_scan"}, "lon": -77.023648, "type": "electric_scooter", "fusion_lat": 0.0, "lat": 38.8950555, "name": "3bb5bccd31451639122a2f6432a1ea58", "fusion_lon": 0.0, "bike_id": "3bb5bccd31451639122a2f6432a1ea58", "is_disabled": 0, "is_reserved": 0}, {"rental_uris": {"ios": "https://dc.lft.to/lastmile_qr_scan", "android": "https://dc.lft.to/lastmile_qr_scan"}, "lon": -76.97900566666667, "type": "electric_bike", "fusion_lat": 0.0, "lat": 38.93579916666667, "name": "67f067b1afbb6038313c5c6618114634", "fusion_lon": 0.0, "bike_id": "67f067b1afbb6038313c5c6618114634", "is_disabled": 0, "is_reserved": 0}, {"rental_uris": {"ios": "https://dc.lft.to/lastmile_qr_scan", "android": "https://dc.lft.to/lastmile_qr_scan"}, "lon": -76.990004, "type": "electric_scooter", "fusion_lat": 0.0, "lat": 38.86505066666667, "name": "2639639b1c0f0cc2e1a84d797871e377", "fusion_lon": 0.0, "bike_id": "2639639b1c0f0cc2e1a84d797871e377", "is_disabled": 0, "is_reserved": 0}, {"rental_uris": {"ios": "https://dc.lft.to/lastmile_qr_scan", "android": "https://dc.lft.to/lastmile_qr_scan"}, "lon": -77.023767, "type": "electric_scooter", "fusion_lat": 0.0, "lat": 38.894782, "name": "215e1515433019a12ac0f4308ca86383", "fusion_lon": 0.0, "bike_id": "215e1515433019a12ac0f4308ca86383", "is_disabled": 0, "is_reserved": 0}, {"rental_uris": {"ios": "https://dc.lft.to/lastmile_qr_scan", "android": "https://dc.lft.to/lastmile_qr_scan"}, "lon": -76.94890416666667, "type": "electric_scooter", "fusion_lat": 0.0, "lat": 38.89527783333333, "name": "35a57cd2f0725d31532303a3968aebbc", "fusion_lon": 0.0, "bike_id": "35a57cd2f0725d31532303a3968aebbc", "is_disabled": 0, "is_reserved": 0}, {"rental_uris": {"ios": "https://dc.lft.to/lastmile_qr_scan", "android": "https://dc.lft.to/lastmile_qr_scan"}, "lon": -77.070694, "type": "electric_scooter", "fusion_lat": 0.0, "lat": 38.95217616666667, "name": "8052d0347a12639a672c73ccd310a76c", "fusion_lon": 0.0, "bike_id": "8052d0347a12639a672c73ccd310a76c", "is_disabled": 0, "is_reserved": 0}, {"rental_uris": {"ios": "https://dc.lft.to/lastmile_qr_scan", "android": "https://dc.lft.to/lastmile_qr_scan"}, "lon": -77.05437233333333, "type": "electric_scooter", "fusion_lat": 0.0, "lat": 38.92323866666667, "name": "422aa2573f2657fcd11a6139243b852b", "fusion_lon": 0.0, "bike_id": "422aa2573f2657fcd11a6139243b852b", "is_disabled": 0, "is_reserved": 0}, {"rental_uris": {"ios": "https://dc.lft.to/lastmile_qr_scan", "android": "https://dc.lft.to/lastmile_qr_scan"}, "lon": -77.02426283333334, "type": "electric_scooter", "fusion_lat": 0.0, "lat": 38.879835166666666, "name": "b0effd3819960631f8a56772e38afbe5", "fusion_lon": 0.0, "bike_id": "b0effd3819960631f8a56772e38afbe5", "is_disabled": 0, "is_reserved": 0}, {"rental_uris": {"ios": "https://dc.lft.to/lastmile_qr_scan", "android": "https://dc.lft.to/lastmile_qr_scan"}, "lon": -77.04582516666666, "type": "electric_scooter", "fusion_lat": 0.0, "lat": 38.910497666666664, "name": "b80236d8e4096e6a6a8b4e0e5f18a06f", "fusion_lon": 0.0, "bike_id": "b80236d8e4096e6a6a8b4e0e5f18a06f", "is_disabled": 0, "is_reserved": 0}, {"rental_uris": {"ios": "https://dc.lft.to/lastmile_qr_scan", "android": "https://dc.lft.to/lastmile_qr_scan"}, "lon": -77.0529155, "type": "electric_scooter", "fusion_lat": 0.0, "lat": 38.9189195, "name": "aa117daa500d6efca560b038d9f95bf2", "fusion_lon": 0.0, "bike_id": "aa117daa500d6efca560b038d9f95bf2", "is_disabled": 0, "is_reserved": 0}, {"rental_uris": {"ios": "https://dc.lft.to/lastmile_qr_scan", "android": "https://dc.lft.to/lastmile_qr_scan"}, "lon": -77.03406583333333, "type": "electric_scooter", "fusion_lat": 0.0, "lat": 38.922640666666666, "name": "79765cfcd8fc8a1e30cf430c2a69ad8c", "fusion_lon": 0.0, "bike_id": "79765cfcd8fc8a1e30cf430c2a69ad8c", "is_disabled": 0, "is_reserved": 0}, {"rental_uris": {"ios": "https://dc.lft.to/lastmile_qr_scan", "android": "https://dc.lft.to/lastmile_qr_scan"}, "lon": -77.04711866666666, "type": "electric_scooter", "fusion_lat": 0.0, "lat": 38.92233183333333, "name": "5d0d4977e2dc1c41ba3dc67bf66cbd01", "fusion_lon": 0.0, "bike_id": "5d0d4977e2dc1c41ba3dc67bf66cbd01", "is_disabled": 0, "is_reserved": 0}, {"rental_uris": {"ios": "https://dc.lft.to/lastmile_qr_scan", "android": "https://dc.lft.to/lastmile_qr_scan"}, "lon": -76.9487075, "type": "electric_scooter", "fusion_lat": 0.0, "lat": 38.89481116666666, "name": "71e3efffb265c91f894121564c6600ff", "fusion_lon": 0.0, "bike_id": "71e3efffb265c91f894121564c6600ff", "is_disabled": 0, "is_reserved": 0}, {"rental_uris": {"ios": "https://dc.lft.to/lastmile_qr_scan", "android": "https://dc.lft.to/lastmile_qr_scan"}, "lon": -77.00866433333333, "type": "electric_bike", "fusion_lat": 0.0, "lat": 38.82725716666667, "name": "4baf038ffcebc87373f9109a0a8e5b04", "fusion_lon": 0.0, "bike_id": "4baf038ffcebc87373f9109a0a8e5b04", "is_disabled": 0, "is_reserved": 0}, {"rental_uris": {"ios": "https://dc.lft.to/lastmile_qr_scan", "android": "https://dc.lft.to/lastmile_qr_scan"}, "lon": -77.01096616666666, "type": "electric_scooter", "fusion_lat": 0.0, "lat": 38.8948545, "name": "5065f1f3b00b9bd958d49cf74ed30a26", "fusion_lon": 0.0, "bike_id": "5065f1f3b00b9bd958d49cf74ed30a26", "is_disabled": 0, "is_reserved": 0}, {"rental_uris": {"ios": "https://dc.lft.to/lastmile_qr_scan", "android": "https://dc.lft.to/lastmile_qr_scan"}, "lon": -77.00333916666666, "type": "electric_scooter", "fusion_lat": 0.0, "lat": 38.90815216666667, "name": "7b4d9626e6ea955382ba7b5d6dbba9f4", "fusion_lon": 0.0, "bike_id": "7b4d9626e6ea955382ba7b5d6dbba9f4", "is_disabled": 0, "is_reserved": 0}, {"rental_uris": {"ios": "https://dc.lft.to/lastmile_qr_scan", "android": "https://dc.lft.to/lastmile_qr_scan"}, "lon": -76.97561, "type": "electric_scooter", "fusion_lat": 0.0, "lat": 38.90439283333333, "name": "1babf0a0e58f7912576ed66295a10279", "fusion_lon": 0.0, "bike_id": "1babf0a0e58f7912576ed66295a10279", "is_disabled": 0, "is_reserved": 0}, {"rental_uris": {"ios": "https://dc.lft.to/lastmile_qr_scan", "android": "https://dc.lft.to/lastmile_qr_scan"}, "lon": -77.023889, "type": "electric_scooter", "fusion_lat": 0.0, "lat": 38.916832, "name": "c6512a74e237bdde1e68ef26cf665b5a", "fusion_lon": 0.0, "bike_id": "c6512a74e237bdde1e68ef26cf665b5a", "is_disabled": 0, "is_reserved": 0}, {"rental_uris": {"ios": "https://dc.lft.to/lastmile_qr_scan", "android": "https://dc.lft.to/lastmile_qr_scan"}, "lon": -77.00558666666667, "type": "electric_scooter", "fusion_lat": 0.0, "lat": 38.87552433333333, "name": "23334ff44c0ec17aba6adb8bcbf55558", "fusion_lon": 0.0, "bike_id": "23334ff44c0ec17aba6adb8bcbf55558", "is_disabled": 0, "is_reserved": 0}, {"rental_uris": {"ios": "https://dc.lft.to/lastmile_qr_scan", "android": "https://dc.lft.to/lastmile_qr_scan"}, "lon": -77.04300866666667, "type": "electric_scooter", "fusion_lat": 0.0, "lat": 38.90535116666667, "name": "3849b8e1df79c06429ba72e0f47f62eb", "fusion_lon": 0.0, "bike_id": "3849b8e1df79c06429ba72e0f47f62eb", "is_disabled": 0, "is_reserved": 0}, {"rental_uris": {"ios": "https://dc.lft.to/lastmile_qr_scan", "android": "https://dc.lft.to/lastmile_qr_scan"}, "lon": -76.98889566666666, "type": "electric_scooter", "fusion_lat": 0.0, "lat": 38.86653733333333, "name": "28457e4c6e364403758b7874514ed366", "fusion_lon": 0.0, "bike_id": "28457e4c6e364403758b7874514ed366", "is_disabled": 0, "is_reserved": 0}, {"rental_uris": {"ios": "https://dc.lft.to/lastmile_qr_scan", "android": "https://dc.lft.to/lastmile_qr_scan"}, "lon": -76.978019, "type": "electric_scooter", "fusion_lat": 0.0, "lat": 38.90306833333333, "name": "8dc0b1f4d1fb2251f85c9106fd95b7c1", "fusion_lon": 0.0, "bike_id": "8dc0b1f4d1fb2251f85c9106fd95b7c1", "is_disabled": 0, "is_reserved": 0}, {"rental_uris": {"ios": "https://dc.lft.to/lastmile_qr_scan", "android": "https://dc.lft.to/lastmile_qr_scan"}, "lon": -76.98580416666667, "type": "electric_scooter", "fusion_lat": 0.0, "lat": 38.86155133333333, "name": "b3d8ff9d58a940258c542f03fbebab4c", "fusion_lon": 0.0, "bike_id": "b3d8ff9d58a940258c542f03fbebab4c", "is_disabled": 0, "is_reserved": 0}, {"rental_uris": {"ios": "https://dc.lft.to/lastmile_qr_scan", "android": "https://dc.lft.to/lastmile_qr_scan"}, "lon": -77.0231555, "type": "electric_scooter", "fusion_lat": 0.0, "lat": 38.878785666666666, "name": "89863280b393a13d71d9d8dad9098965", "fusion_lon": 0.0, "bike_id": "89863280b393a13d71d9d8dad9098965", "is_disabled": 0, "is_reserved": 0}, {"rental_uris": {"ios": "https://dc.lft.to/lastmile_qr_scan", "android": "https://dc.lft.to/lastmile_qr_scan"}, "lon": -77.01148416666666, "type": "electric_scooter", "fusion_lat": 0.0, "lat": 38.90022116666667, "name": "4180686d7e4a3aa500c8de3d9f022d76", "fusion_lon": 0.0, "bike_id": "4180686d7e4a3aa500c8de3d9f022d76", "is_disabled": 0, "is_reserved": 0}, {"rental_uris": {"ios": "https://dc.lft.to/lastmile_qr_scan", "android": "https://dc.lft.to/lastmile_qr_scan"}, "lon": -77.02700866666666, "type": "electric_scooter", "fusion_lat": 0.0, "lat": 38.90835366666667, "name": "b4628c667fd46243f1b24f66f32407ba", "fusion_lon": 0.0, "bike_id": "b4628c667fd46243f1b24f66f32407ba", "is_disabled": 0, "is_reserved": 0}, {"rental_uris": {"ios": "https://dc.lft.to/lastmile_qr_scan", "android": "https://dc.lft.to/lastmile_qr_scan"}, "lon": -77.05806616666666, "type": "electric_scooter", "fusion_lat": 0.0, "lat": 38.901003333333335, "name": "d4d4c3534b244f89fc46e302bbf2810a", "fusion_lon": 0.0, "bike_id": "d4d4c3534b244f89fc46e302bbf2810a", "is_disabled": 0, "is_reserved": 0}, {"rental_uris": {"ios": "https://dc.lft.to/lastmile_qr_scan", "android": "https://dc.lft.to/lastmile_qr_scan"}, "lon": -77.02658983333333, "type": "electric_scooter", "fusion_lat": 0.0, "lat": 38.91699466666667, "name": "0d895042c968f68300de071fc760e8c1", "fusion_lon": 0.0, "bike_id": "0d895042c968f68300de071fc760e8c1", "is_disabled": 0, "is_reserved": 0}, {"rental_uris": {"ios": "https://dc.lft.to/lastmile_qr_scan", "android": "https://dc.lft.to/lastmile_qr_scan"}, "lon": -77.08541916666667, "type": "electric_bike", "fusion_lat": 0.0, "lat": 38.856217, "name": "e37433779f67cae648a29c3060efde26", "fusion_lon": 0.0, "bike_id": "e37433779f67cae648a29c3060efde26", "is_disabled": 0, "is_reserved": 0}, {"rental_uris": {"ios": "https://dc.lft.to/lastmile_qr_scan", "android": "https://dc.lft.to/lastmile_qr_scan"}, "lon": -77.02080183333334, "type": "electric_scooter", "fusion_lat": 0.0, "lat": 38.899728, "name": "e3b7873ce053b50fb66fbbd8cfa3e2b7", "fusion_lon": 0.0, "bike_id": "e3b7873ce053b50fb66fbbd8cfa3e2b7", "is_disabled": 0, "is_reserved": 0}, {"rental_uris": {"ios": "https://dc.lft.to/lastmile_qr_scan", "android": "https://dc.lft.to/lastmile_qr_scan"}, "lon": -76.98891766666667, "type": "electric_scooter", "fusion_lat": 0.0, "lat": 38.86648566666667, "name": "d568fe628c12399ea4ba17190acae984", "fusion_lon": 0.0, "bike_id": "d568fe628c12399ea4ba17190acae984", "is_disabled": 0, "is_reserved": 0}, {"rental_uris": {"ios": "https://dc.lft.to/lastmile_qr_scan", "android": "https://dc.lft.to/lastmile_qr_scan"}, "lon": -77.02965616666667, "type": "electric_scooter", "fusion_lat": 0.0, "lat": 38.923148, "name": "a6b0373b70391bff03618918e3798f6d", "fusion_lon": 0.0, "bike_id": "a6b0373b70391bff03618918e3798f6d", "is_disabled": 0, "is_reserved": 0}, {"rental_uris": {"ios": "https://dc.lft.to/lastmile_qr_scan", "android": "https://dc.lft.to/lastmile_qr_scan"}, "lon": -77.017125, "type": "electric_scooter", "fusion_lat": 0.0, "lat": 38.909609, "name": "b57b4f56f00f2ed030ff0967d9eb3ac5", "fusion_lon": 0.0, "bike_id": "b57b4f56f00f2ed030ff0967d9eb3ac5", "is_disabled": 0, "is_reserved": 0},