{"data": {"bikes": [{"rental_uris": {"android": "https://dc.lft.to/lastmile_qr_scan", "ios": "https://dc.lft.to/lastmile_qr_scan"}, "lon": -77.023885, "name": "a499bf19bbc845fd6e1605821e558a4f", "lat": 38.91146583333333, "is_reserved": 0, "fusion_lat": 0.0, "bike_id": "a499bf19bbc845fd6e1605821e558a4f", "type": "electric_scooter", "is_disabled": 0, "fusion_lon": 0.0}, {"rental_uris": {"android": "https://dc.lft.to/lastmile_qr_scan", "ios": "https://dc.lft.to/lastmile_qr_scan"}, "lon": -77.0421775, "name": "9a6f10d391ba66d412d4fa04257385bb", "lat": 38.901224666666664, "is_reserved": 0, "fusion_lat": 0.0, "bike_id": "9a6f10d391ba66d412d4fa04257385bb", "type": "electric_scooter", "is_disabled": 0, "fusion_lon": 0.0}, {"rental_uris": {"android": "https://dc.lft.to/lastmile_qr_scan", "ios": "https://dc.lft.to/lastmile_qr_scan"}, "lon": -76.95098033333333, "name": "e5a558eba2543cfc35b97462c389e79d", "lat": 38.88452633333333, "is_reserved": 0, "fusion_lat": 0.0, "bike_id": "e5a558eba2543cfc35b97462c389e79d", "type": "electric_scooter", "is_disabled": 0, "fusion_lon": 0.0}, {"rental_uris": {"android": "https://dc.lft.to/lastmile_qr_scan", "ios": "https://dc.lft.to/lastmile_qr_scan"}, "lon": -77.027948, "name": "56cedd99651172196ce76641dcc98b12", "lat": 38.9603945, "is_reserved": 0, "fusion_lat": 0.0, "bike_id": "56cedd99651172196ce76641dcc98b12", "type": "electric_scooter", "is_disabled": 0, "fusion_lon": 0.0}, {"rental_uris": {"android": "https://dc.lft.to/lastmile_qr_scan", "ios": "https://dc.lft.to/lastmile_qr_scan"}, "lon": -77.01876733333333, "name": "57c0672133346a002a901172a1c40b7c", "lat": 38.896607333333336, "is_reserved": 0, "fusion_lat": 0.0, "bike_id": "57c0672133346a002a901172a1c40b7c", "type": "electric_scooter", "is_disabled": 0, "fusion_lon": 0.0}, {"rental_uris": {"android": "https://dc.lft.to/lastmile_qr_scan", "ios": "https://dc.lft.to/lastmile_qr_scan"}, "lon": -76.99836733333333, "name": "4406c0b8947936c61d6ba559e9037dcd", "lat": 38.902384166666664, "is_reserved": 0, "fusion_lat": 0.0, "bike_id": "4406c0b8947936c61d6ba559e9037dcd", "type": "electric_scooter", "is_disabled": 0, "fusion_lon": 0.0}, {"rental_uris": {"android": "https://dc.lft.to/lastmile_qr_scan", "ios": "https://dc.lft.to/lastmile_qr_scan"}, "lon": -76.96555866666667, "name": "a4e3e71bd1a4a52870548fb75fe0dba7", "lat": 38.918533833333335, "is_reserved": 0, "fusion_lat": 0.0, "bike_id": "a4e3e71bd1a4a52870548fb75fe0dba7", "type": "electric_scooter", "is_disabled": 0, "fusion_lon": 0.0}, {"rental_uris": {"android": "https://dc.lft.to/lastmile_qr_scan", "ios": "https://dc.lft.to/lastmile_qr_scan"}, "lon": -76.99002233333333, "name": "48e77cd76a66f6527cb2e6a3fcc772ff", "lat": 38.865062, "is_reserved": 0, "fusion_lat": 0.0, "bike_id": "48e77cd76a66f6527cb2e6a3fcc772ff", "type": "electric_scooter", "is_disabled": 0, "fusion_lon": 0.0}, {"rental_uris": {"android": "https://dc.lft.to/lastmile_qr_scan", "ios": "https://dc.lft.to/lastmile_qr_scan"}, "lon": -77.03277016666667, "name": "eaa578e17ee9f175b950ff9c3acb84cc", "lat": 38.8989225, "is_reserved": 0, "fusion_lat": 0.0, "bike_id": "eaa578e17ee9f175b950ff9c3acb84cc", "type": "electric_scooter", "is_disabled": 0, "fusion_lon": 0.0}, {"rental_uris": {"android": "https://dc.lft.to/lastmile_qr_scan", "ios": "https://dc.lft.to/lastmile_qr_scan"}, "lon": -77.0486375, "name": "d0a809c53f25ea94068bdf170235e9fa", "lat": 38.91299566666667, "is_reserved": 0, "fusion_lat": 0.0, "bike_id": "d0a809c53f25ea94068bdf170235e9fa", "type": "electric_scooter", "is_disabled": 0, "fusion_lon": 0.0}, {"rental_uris": {"android": "https://dc.lft.to/lastmile_qr_scan", "ios": "https://dc.lft.to/lastmile_qr_scan"}, "lon": -77.01556866666667, "name": "ead79fcd3fe0f8a7cf42dfba3974f470", "lat": 38.91408283333333, "is_reserved": 0, "fusion_lat": 0.0, "bike_id": "ead79fcd3fe0f8a7cf42dfba3974f470", "type": "electric_scooter", "is_disabled": 0, "fusion_lon": 0.0}, {"rental_uris": {"android": "https://dc.lft.to/lastmile_qr_scan", "ios": "https://dc.lft.to/lastmile_qr_scan"}, "lon": -77.046705, "name": "54a1848f9439090ece58bad9b6d4c5b9", "lat": 38.907823666666665, "is_reserved": 0, "fusion_lat": 0.0, "bike_id": "54a1848f9439090ece58bad9b6d4c5b9", "type": "electric_scooter", "is_disabled": 0, "fusion_lon": 0.0}, {"rental_uris": {"android": "https://dc.lft.to/lastmile_qr_scan", "ios": "https://dc.lft.to/lastmile_qr_scan"}, "lon": -77.07599266666666, "name": "21de4e6caade028b255d4130f16796dd", "lat": 38.94107483333333, "is_reserved": 0, "fusion_lat": 0.0, "bike_id": "21de4e6caade028b255d4130f16796dd", "type": "electric_scooter", "is_disabled": 0, "fusion_lon": 0.0}, {"rental_uris": {"android": "https://dc.lft.to/lastmile_qr_scan", "ios": "https://dc.lft.to/lastmile_qr_scan"}, "lon": -77.037526, "name": "0ee4a088142169fc0a8cd47a3032b0e7", "lat": 38.90781583333333, "is_reserved": 0, "fusion_lat": 0.0, "bike_id": "0ee4a088142169fc0a8cd47a3032b0e7", "type": "electric_scooter", "is_disabled": 0, "fusion_lon": 0.0}, {"rental_uris": {"android": "https://dc.lft.to/lastmile_qr_scan", "ios": "https://dc.lft.to/lastmile_qr_scan"}, "lon": -77.03961466666667, "name": "f6ef43b8a8c60d2097c287e481fe83e4", "lat": 38.92609733333333, "is_reserved": 0, "fusion_lat": 0.0, "bike_id": "f6ef43b8a8c60d2097c287e481fe83e4", "type": "electric_scooter", "is_disabled": 0, "fusion_lon": 0.0}, {"rental_uris": {"android": "https://dc.lft.to/lastmile_qr_scan", "ios": "https://dc.lft.to/lastmile_qr_scan"}, "lon": -77.04305216666667, "name": "242d144cad56f2c64e7cc242dc1501b5", "lat": 38.931814, "is_reserved": 0, "fusion_lat": 0.0, "bike_id": "242d144cad56f2c64e7cc242dc1501b5", "type": "electric_scooter", "is_disabled": 0, "fusion_lon": 0.0}, {"rental_uris": {"android": "https://dc.lft.to/lastmile_qr_scan", "ios": "https://dc.lft.to/lastmile_qr_scan"}, "lon": -76.91926683333334, "name": "bc7fbcbd782f8705cd5e236f7f4f60f3", "lat": 38.890876, "is_reserved": 0, "fusion_lat": 0.0, "bike_id": "bc7fbcbd782f8705cd5e236f7f4f60f3", "type": "electric_scooter", "is_disabled": 0, "fusion_lon": 0.0}, {"rental_uris": {"android": "https://dc.lft.to/lastmile_qr_scan", "ios": "https://dc.lft.to/lastmile_qr_scan"}, "lon": -76.98827616666667, "name": "3566a2a57ab676186a0570c6e7e93e88", "lat": 38.890825, "is_reserved": 0, "fusion_lat": 0.0, "bike_id": "3566a2a57ab676186a0570c6e7e93e88", "type": "electric_scooter", "is_disabled": 0, "fusion_lon": 0.0}, {"rental_uris": {"android": "https://dc.lft.to/lastmile_qr_scan", "ios": "https://dc.lft.to/lastmile_qr_scan"}, "lon": -76.98216133333334, "name": "f4df30331cc07a6b5647cd9c44f7e4c4", "lat": 38.9019865, "is_reserved": 0, "fusion_lat": 0.0, "bike_id": "f4df30331cc07a6b5647cd9c44f7e4c4", "type": "electric_scooter", "is_disabled": 0, "fusion_lon": 0.0}, {"rental_uris": {"android": "https://dc.lft.to/lastmile_qr_scan", "ios": "https://dc.lft.to/lastmile_qr_scan"}, "lon": -77.01538016666667, "name": "f5626de58123e3c3a1aefb5832ee73bc", "lat": 38.94125183333333, "is_reserved": 0, "fusion_lat": 0.0, "bike_id": "f5626de58123e3c3a1aefb5832ee73bc", "type": "electric_scooter", "is_disabled": 0, "fusion_lon": 0.0}, {"rental_uris": {"android": "https://dc.lft.to/lastmile_qr_scan", "ios": "https://dc.lft.to/lastmile_qr_scan"}, "lon": -76.94632466666667, "name": "1ea2c343023956ee83359849e86db024", "lat": 38.89867, "is_reserved": 0, "fusion_lat": 0.0, "bike_id": "1ea2c343023956ee83359849e86db024", "type": "electric_scooter", "is_disabled": 0, "fusion_lon": 0.0}, {"rental_uris": {"android": "https://dc.lft.to/lastmile_qr_scan", "ios": "https://dc.lft.to/lastmile_qr_scan"}, "lon": -77.03113633333334, "name": "64ba07ad30f770c1676a105984b27d00", "lat": 38.9192095, "is_reserved": 0, "fusion_lat": 0.0, "bike_id": "64ba07ad30f770c1676a105984b27d00", "type": "electric_scooter", "is_disabled": 0, "fusion_lon": 0.0}, {"rental_uris": {"android": "https://dc.lft.to/lastmile_qr_scan", "ios": "https://dc.lft.to/lastmile_qr_scan"}, "lon": -77.04864733333334, "name": "0f8b204c07a3a5f56fb06bf5018ee71d", "lat": 38.91613683333333, "is_reserved": 0, "fusion_lat": 0.0, "bike_id": "0f8b204c07a3a5f56fb06bf5018ee71d", "type": "electric_scooter", "is_disabled": 0, "fusion_lon": 0.0}, {"rental_uris": {"android": "https://dc.lft.to/lastmile_qr_scan", "ios": "https://dc.lft.to/lastmile_qr_scan"}, "lon": -77.031465, "name": "cd4fa85502f1f15936da99693c4feefc", "lat": 38.91560666666667, "is_reserved": 0, "fusion_lat": 0.0, "bike_id": "cd4fa85502f1f15936da99693c4feefc", "type": "electric_scooter", "is_disabled": 0, "fusion_lon": 0.0}, {"rental_uris": {"android": "https://dc.lft.to/lastmile_qr_scan", "ios": "https://dc.lft.to/lastmile_qr_scan"}, "lon": -77.02700083333333, "name": "33b9d2c96c58e2fb2c36bccc855b8dd7", "lat": 38.916324833333334, "is_reserved": 0, "fusion_lat": 0.0, "bike_id": "33b9d2c96c58e2fb2c36bccc855b8dd7", "type": "electric_scooter", "is_disabled": 0, "fusion_lon": 0.0}, {"rental_uris": {"android": "https://dc.lft.to/lastmile_qr_scan", "ios": "https://dc.lft.to/lastmile_qr_scan"}, "lon": -77.040412, "name": "97b2ec4207829f59c1e50fb821a1ae54", "lat": 38.902423166666665, "is_reserved": 0, "fusion_lat": 0.0, "bike_id": "97b2ec4207829f59c1e50fb821a1ae54", "type": "electric_scooter", "is_disabled": 0, "fusion_lon": 0.0}, {"rental_uris": {"android": "https://dc.lft.to/lastmile_qr_scan", "ios": "https://dc.lft.to/lastmile_qr_scan"}, "lon": -77.03423816666667, "name": "77c43e043d7fe49be2483695866adccc", "lat": 38.965342166666666, "is_reserved": 0, "fusion_lat": 0.0, "bike_id": "77c43e043d7fe49be2483695866adccc", "type": "electric_bike", "is_disabled": 0, "fusion_lon": 0.0}, {"rental_uris": {"android": "https://dc.lft.to/lastmile_qr_scan", "ios": "https://dc.lft.to/lastmile_qr_scan"}, "lon": -77.045638, "name": "efd73ec831c8ef026db2daf4ccf50f39", "lat": 38.89878983333333, "is_reserved": 0, "fusion_lat": 0.0, "bike_id": "efd73ec831c8ef026db2daf4ccf50f39", "type": "electric_scooter", "is_disabled": 0, "fusion_lon": 0.0}, {"rental_uris": {"android": "https://dc.lft.to/lastmile_qr_scan", "ios": "https://dc.lft.to/lastmile_qr_scan"}, "lon": -77.04338216666666, "name": "755c9a97e7a230f46d768973acdfa378", "lat": 38.92351816666667, "is_reserved": 0, "fusion_lat": 0.0, "bike_id": "755c9a97e7a230f46d768973acdfa378", "type": "electric_scooter", "is_disabled": 0, "fusion_lon": 0.0}, {"rental_uris": {"android": "https://dc.lft.to/lastmile_qr_scan", "ios": "https://dc.lft.to/lastmile_qr_scan"}, "lon": -77.06473766666667, "name": "3f9ed3f19fd17f82dc1ad14014eb142e", "lat": 38.97385583333333, "is_reserved": 0, "fusion_lat": 0.0, "bike_id": "3f9ed3f19fd17f82dc1ad14014eb142e", "type": "electric_bike", "is_disabled": 0, "fusion_lon": 0.0}, {"rental_uris": {"android": "https://dc.lft.to/lastmile_qr_scan", "ios": "https://dc.lft.to/lastmile_qr_scan"}, "lon": -77.0552345, "name": "0951a86f7733b34e7400279ec3dbff83", "lat": 38.89728783333333, "is_reserved": 0, "fusion_lat": 0.0, "bike_id": "0951a86f7733b34e7400279ec3dbff83", "type": "electric_scooter", "is_disabled": 0, "fusion_lon": 0.0}, {"rental_uris": {"android": "https://dc.lft.to/lastmile_qr_scan", "ios": "https://dc.lft.to/lastmile_qr_scan"}, "lon": -77.036606, "name": "5cfc547f0512750398e371636f3a2e1e", "lat": 38.918730833333335, "is_reserved": 0, "fusion_lat": 0.0, "bike_id": "5cfc547f0512750398e371636f3a2e1e", "type": "electric_scooter", "is_disabled": 0, "fusion_lon": 0.0}, {"rental_uris": {"android": "https://dc.lft.to/lastmile_qr_scan", "ios": "https://dc.lft.to/lastmile_qr_scan"}, "lon": -76.98571033333333, "name": "5b4225b11d2423260e8563d31d8bae6e", "lat": 38.883758, "is_reserved": 0, "fusion_lat": 0.0, "bike_id": "5b4225b11d2423260e8563d31d8bae6e", "type": "electric_scooter", "is_disabled": 0, "fusion_lon": 0.0}, {"rental_uris": {"android": "https://dc.lft.to/lastmile_qr_scan", "ios": "https://dc.lft.to/lastmile_qr_scan"}, "lon": -77.03210533333333, "name": "5e30348e4d5926189fc797b93713275a", "lat": 38.9162425, "is_reserved": 0, "fusion_lat": 0.0, "bike_id": "5e30348e4d5926189fc797b93713275a", "type": "electric_scooter", "is_disabled": 0, "fusion_lon": 0.0}, {"rental_uris": {"android": "https://dc.lft.to/lastmile_qr_scan", "ios": "https://dc.lft.to/lastmile_qr_scan"}, "lon": -76.97776883333333, "name": "5cd49f31dde69b1cd7681f816990519d", "lat": 38.891903166666665, "is_reserved": 0, "fusion_lat": 0.0, "bike_id": "5cd49f31dde69b1cd7681f816990519d", "type": "electric_bike", "is_disabled": 0, "fusion_lon": 0.0}, {"rental_uris": {"android": "https://dc.lft.to/lastmile_qr_scan", "ios": "https://dc.lft.to/lastmile_qr_scan"}, "lon": -77.0384905, "name": "dd74b862285207f1bb86a5e1cd856efe", "lat": 38.902675, "is_reserved": 0, "fusion_lat": 0.0, "bike_id": "dd74b862285207f1bb86a5e1cd856efe", "type": "electric_scooter", "is_disabled": 0, "fusion_lon": 0.0}, {"rental_uris": {"android": "https://dc.lft.to/lastmile_qr_scan", "ios": "https://dc.lft.to/lastmile_qr_scan"}, "lon": -76.9857435, "name": "ae9b2e19571a89b5315622fc2d830c66", "lat": 38.8668965, "is_reserved": 0, "fusion_lat": 0.0, "bike_id": "ae9b2e19571a89b5315622fc2d830c66", "type": "electric_scooter", "is_disabled": 0, "fusion_lon": 0.0}, {"rental_uris": {"android": "https://dc.lft.to/lastmile_qr_scan", "ios": "https://dc.lft.to/lastmile_qr_scan"}, "lon": -77.02149783333333, "name": "58db34e110992e3bbe451b76ee7b3e5a", "lat": 38.92337883333333, "is_reserved": 0, "fusion_lat": 0.0, "bike_id": "58db34e110992e3bbe451b76ee7b3e5a", "type": "electric_scooter", "is_disabled": 0, "fusion_lon": 0.0}, {"rental_uris": {"android": "https://dc.lft.to/lastmile_qr_scan", "ios": "https://dc.lft.to/lastmile_qr_scan"}, "lon": -76.9871545, "name": "13064449123e6cef76a81b2688a2e34e", "lat": 38.86628416666667, "is_reserved": 0, "fusion_lat": 0.0, "bike_id": "13064449123e6cef76a81b2688a2e34e", "type": "electric_scooter", "is_disabled": 0, "fusion_lon": 0.0}, {"rental_uris": {"android": "https://dc.lft.to/lastmile_qr_scan", "ios": "https://dc.lft.to/lastmile_qr_scan"}, "lon": -77.0326795, "name": "bd005821969425fa30a14f0df5782d32", "lat": 38.93253933333333, "is_reserved": 0, "fusion_lat": 0.0, "bike_id": "bd005821969425fa30a14f0df5782d32", "type": "electric_scooter", "is_disabled": 0, "fusion_lon": 0.0}, {"rental_uris": {"android": "https://dc.lft.to/lastmile_qr_scan", "ios": "https://dc.lft.to/lastmile_qr_scan"}, "lon": -76.99832883333333, "name": "17a9fe74fe4900598382e580d956e6ae", "lat": 38.9000245, "is_reserved": 0, "fusion_lat": 0.0, "bike_id": "17a9fe74fe4900598382e580d956e6ae", "type": "electric_bike", "is_disabled": 0, "fusion_lon": 0.0}, {"rental_uris": {"android": "https://dc.lft.to/lastmile_qr_scan", "ios": "https://dc.lft.to/lastmile_qr_scan"}, "lon": -77.017187, "name": "da0676c9defcde33730a3e90cdab7019", "lat": 38.892314166666665, "is_reserved": 0, "fusion_lat": 0.0, "bike_id": "da0676c9defcde33730a3e90cdab7019", "type": "electric_scooter", "is_disabled": 0, "fusion_lon": 0.0}, {"rental_uris": {"android": "https://dc.lft.to/lastmile_qr_scan", "ios": "https://dc.lft.to/lastmile_qr_scan"}, "lon": -77.01570116666667, "name": "37d4bf7df62dac29b6af1bfec6040d74", "lat": 38.926858833333334, "is_reserved": 0, "fusion_lat": 0.0, "bike_id": "37d4bf7df62dac29b6af1bfec6040d74", "type": "electric_scooter", "is_disabled": 0, "fusion_lon": 0.0}, {"rental_uris": {"android": "https://dc.lft.to/lastmile_qr_scan", "ios": "https://dc.lft.to/lastmile_qr_scan"}, "lon": -77.059041, "name": "813bf41b2027efbd9ba95c55f64bc8fd", "lat": 38.9047815, "is_reserved": 0, "fusion_lat": 0.0, "bike_id": "813bf41b2027efbd9ba95c55f64bc8fd", "type": "electric_scooter", "is_disabled": 0, "fusion_lon": 0.0}, {"rental_uris": {"android": "https://dc.lft.to/lastmile_qr_scan", "ios": "https://dc.lft.to/lastmile_qr_scan"}, "lon": -76.98657166666666, "name": "33db962a52943f70dd74c180d2427f0c", "lat": 38.85807783333333, "is_reserved": 0, "fusion_lat": 0.0, "bike_id": "33db962a52943f70dd74c180d2427f0c", "type": "electric_scooter", "is_disabled": 0, "fusion_lon": 0.0}, {"rental_uris": {"android": "https://dc.lft.to/lastmile_qr_scan", "ios": "https://dc.lft.to/lastmile_qr_scan"}, "lon": -77.04865833333334, "name": "d553907e20ab6ca3f9c6b8438afb1da0", "lat": 38.9095915, "is_reserved": 0, "fusion_lat": 0.0, "bike_id": "d553907e20ab6ca3f9c6b8438afb1da0", "type": "electric_scooter", "is_disabled": 0, "fusion_lon": 0.0}, {"rental_uris": {"android": "https://dc.lft.to/lastmile_qr_scan", "ios": "https://dc.lft.to/lastmile_qr_scan"}, "lon": -77.02950833333334, "name": "3dcbd5bbb8c2eea5d00b7ac0ed25fb25", "lat": 38.904908666666664, "is_reserved": 0, "fusion_lat": 0.0, "bike_id": "3dcbd5bbb8c2eea5d00b7ac0ed25fb25", "type": "electric_scooter", "is_disabled": 0, "fusion_lon": 0.0}, {"rental_uris": {"android": "https://dc.lft.to/lastmile_qr_scan", "ios": "https://dc.lft.to/lastmile_qr_scan"}, "lon": -77.01504516666667, "name": "d9a0acf89e5437945e0b7268dab07d58", "lat": 38.88414683333333, "is_reserved": 0, "fusion_lat": 0.0, "bike_id": "d9a0acf89e5437945e0b7268dab07d58", "type": "electric_scooter", "is_disabled": 0, "fusion_lon": 0.0}, {"rental_uris": {"android": "https://dc.lft.to/lastmile_qr_scan", "ios": "https://dc.lft.to/lastmile_qr_scan"}, "lon": -77.12487233333333, "name": "3d57209828f18323a644f35756b2d6c0", "lat": 38.8279445, "is_reserved": 0, "fusion_lat": 0.0, "bike_id": "3d57209828f18323a644f35756b2d6c0", "type": "electric_bike", "is_disabled": 0, "fusion_lon": 0.0}, {"rental_uris": {"android": "https://dc.lft.to/lastmile_qr_scan", "ios": "https://dc.lft.to/lastmile_qr_scan"}, "lon": -77.02501883333333, "name": "3b4b1994a75822e081362d2a3eee9e39", "lat": 38.94173, "is_reserved": 0, "fusion_lat": 0.0, "bike_id": "3b4b1994a75822e081362d2a3eee9e39", "type": "electric_scooter", "is_disabled": 0, "fusion_lon": 0.0}, {"rental_uris": {"android": "https://dc.lft.to/lastmile_qr_scan", "ios": "https://dc.lft.to/lastmile_qr_scan"}, "lon": -77.03243083333334, "name": "ec04b104e8e17e6f59032ad6c7f2f182", "lat": 38.9273235, "is_reserved": 0, "fusion_lat": 0.0, "bike_id": "ec04b104e8e17e6f59032ad6c7f2f182", "type": "electric_scooter", "is_disabled": 0, "fusion_lon": 0.0}, {"rental_uris": {"android": "https://dc.lft.to/lastmile_qr_scan", "ios": "https://dc.lft.to/lastmile_qr_scan"}, "lon": -77.02977983333334, "name": "cc80f98315af5cfc7b7941809bebf78c", "lat": 38.92360716666666, "is_reserved": 0, "fusion_lat": 0.0, "bike_id": "cc80f98315af5cfc7b7941809bebf78c", "type": "electric_scooter", "is_disabled": 0, "fusion_lon": 0.0}, {"rental_uris": {"android": "https://dc.lft.to/lastmile_qr_scan", "ios": "https://dc.lft.to/lastmile_qr_scan"}, "lon": -76.99556616666666, "name": "39eba8498ac8f1feb018e7062c2c8598", "lat": 38.92069816666667, "is_reserved": 0, "fusion_lat": 0.0, "bike_id": "39eba8498ac8f1feb018e7062c2c8598", "type": "electric_scooter", "is_disabled": 0, "fusion_lon": 0.0}, {"rental_uris": {"android": "https://dc.lft.to/lastmile_qr_scan", "ios": "https://dc.lft.to/lastmile_qr_scan"}, "lon": -77.00178833333334, "name": "09add4108e6ab083e9b2b3d805b17ca7", "lat": 38.9061025, "is_reserved": 0, "fusion_lat": 0.0, "bike_id": "09add4108e6ab083e9b2b3d805b17ca7", "type": "electric_scooter", "is_disabled": 0, "fusion_lon": 0.0}, {"rental_uris": {"android": "https://dc.lft.to/lastmile_qr_scan", "ios": "https://dc.lft.to/lastmile_qr_scan"}, "lon": -77.02280383333333, "name": "ed9fcddc4a9ca178e6c15e975edd375f", "lat": 38.914176833333336, "is_reserved": 0, "fusion_lat": 0.0, "bike_id": "ed9fcddc4a9ca178e6c15e975edd375f", "type": "electric_scooter", "is_disabled": 0, "fusion_lon": 0.0}, {"rental_uris": {"android": "https://dc.lft.to/lastmile_qr_scan", "ios": "https://dc.lft.to/lastmile_qr_scan"}, "lon": -77.0346645, "name": "bfe35b51ce7ebb26069ab1877d8a6435", "lat": 38.9068225, "is_reserved": 0, "fusion_lat": 0.0, "bike_id": "bfe35b51ce7ebb26069ab1877d8a6435", "type": "electric_scooter", "is_disabled": 0, "fusion_lon": 0.0}, {"rental_uris": {"android": "https://dc.lft.to/lastmile_qr_scan", "ios": "https://dc.lft.to/lastmile_qr_scan"}, "lon": -77.00206716666666, "name": "5bd4a8ec4d37dc49640cbb3b516329a9", "lat": 38.8952015, "is_reserved": 0, "fusion_lat": 0.0, "bike_id": "5bd4a8ec4d37dc49640cbb3b516329a9", "type": "electric_scooter", "is_disabled": 0, "fusion_lon": 0.0}, {"rental_uris": {"android": "https://dc.lft.to/lastmile_qr_scan", "ios": "https://dc.lft.to/lastmile_qr_scan"}, "lon": -77.05049416666667, "name": "4e049742111a377b017dc9265b1c026b", "lat": 38.9004695, "is_reserved": 0, "fusion_lat": 0.0, "bike_id": "4e049742111a377b017dc9265b1c026b", "type": "electric_scooter", "is_disabled": 0, "fusion_lon": 0.0}, {"rental_uris": {"android": "https://dc.lft.to/lastmile_qr_scan", "ios": "https://dc.lft.to/lastmile_qr_scan"}, "lon": -77.0326295, "name": "814e5516fefc5f06ee5b15d361204064", "lat": 38.939802666666665, "is_reserved": 0, "fusion_lat": 0.0, "bike_id": "814e5516fefc5f06ee5b15d361204064", "type": "electric_scooter", "is_disabled": 0, "fusion_lon": 0.0}, {"rental_uris": {"android": "https://dc.lft.to/lastmile_qr_scan", "ios": "https://dc.lft.to/lastmile_qr_scan"}, "lon": -77.02483116666667, "name": "1536d47ff7f8bb648457765a5e234028", "lat": 38.90393066666667, "is_reserved": 0, "fusion_lat": 0.0, "bike_id": "1536d47ff7f8bb648457765a5e234028", "type": "electric_scooter", "is_disabled": 0, "fusion_lon": 0.0}, {"rental_uris": {"android": "https://dc.lft.to/lastmile_qr_scan", "ios": "https://dc.lft.to/lastmile_qr_scan"}, "lon": -77.02627866666667, "name": "66ef71c6f16fd27e52f10dad8bc2ff9e", "lat": 38.8877135, "is_reserved": 0, "fusion_lat": 0.0, "bike_id": "66ef71c6f16fd27e52f10dad8bc2ff9e", "type": "electric_scooter", "is_disabled": 0, "fusion_lon": 0.0}, {"rental_uris": {"android": "https://dc.lft.to/lastmile_qr_scan", "ios": "https://dc.lft.to/lastmile_qr_scan"}, "lon": -77.01824716666667, "name": "5b8899320669e18f540e88b37dd2adfd", "lat": 38.908190166666664, "is_reserved": 0, "fusion_lat": 0.0, "bike_id": "5b8899320669e18f540e88b37dd2adfd", "type": "electric_bike", "is_disabled": 0, "fusion_lon": 0.0}, {"rental_uris": {"android": "https://dc.lft.to/lastmile_qr_scan", "ios": "https://dc.lft.to/lastmile_qr_scan"}, "lon": -76.9926355, "name": "400b411046bf606c81751839761c3764", "lat": 38.89436516666667, "is_reserved": 0, "fusion_lat": 0.0, "bike_id": "400b411046bf606c81751839761c3764", "type": "electric_scooter", "is_disabled": 0, "fusion_lon": 0.0}, {"rental_uris": {"android": "https://dc.lft.to/lastmile_qr_scan", "ios": "https://dc.lft.to/lastmile_qr_scan"}, "lon": -77.024843, "name": "499bef865814fd2aa4be5f4c60d28e5a", "lat": 38.938462, "is_reserved": 0, "fusion_lat": 0.0, "bike_id": "499bef865814fd2aa4be5f4c60d28e5a", "type": "electric_scooter", "is_disabled": 0, "fusion_lon": 0.0}, {"rental_uris": {"android": "https://dc.lft.to/lastmile_qr_scan", "ios": "https://dc.lft.to/lastmile_qr_scan"}, "lon": -77.02379516666667, "name": "000c464f6e1fc4450da60083ad3a3e4e", "lat": 38.95252466666667, "is_reserved": 0, "fusion_lat": 0.0, "bike_id": "000c464f6e1fc4450da60083ad3a3e4e", "type": "electric_scooter", "is_disabled": 0, "fusion_lon": 0.0}, {"rental_uris": {"android": "https://dc.lft.to/lastmile_qr_scan", "ios": "https://dc.lft.to/lastmile_qr_scan"}, "lon": -77.00936366666667, "name": "a5623747304e8924faac01624a28eed8", "lat": 38.905582333333335, "is_reserved": 0, "fusion_lat": 0.0, "bike_id": "a5623747304e8924faac01624a28eed8", "type": "electric_scooter", "is_disabled": 0, "fusion_lon": 0.0}, {"rental_uris": {"android": "https://dc.lft.to/lastmile_qr_scan", "ios": "https://dc.lft.to/lastmile_qr_scan"}, "lon": -77.07035333333333, "name": "b0e42023016106b48b27487a3813b11c", "lat": 38.92254333333333, "is_reserved": 0, "fusion_lat": 0.0, "bike_id": "b0e42023016106b48b27487a3813b11c", "type": "electric_scooter", "is_disabled": 0, "fusion_lon": 0.0}, {"rental_uris": {"android": "https://dc.lft.to/lastmile_qr_scan", "ios": "https://dc.lft.to/lastmile_qr_scan"}, "lon": -76.9831755, "name": "fa75330c97a80b9a555e4fb7fb666366", "lat": 38.90438266666666, "is_reserved": 0, "fusion_lat": 0.0, "bike_id": "fa75330c97a80b9a555e4fb7fb666366", "type": "electric_scooter", "is_disabled": 0, "fusion_lon": 0.0}, {"rental_uris": {"android": "https://dc.lft.to/lastmile_qr_scan", "ios": "https://dc.lft.to/lastmile_qr_scan"}, "lon": -77.07526433333334, "name": "3fea3675cf6e4558fa305540bfb0c21e", "lat": 38.939652333333335, "is_reserved": 0, "fusion_lat": 0.0, "bike_id": "3fea3675cf6e4558fa305540bfb0c21e", "type": "electric_scooter", "is_disabled": 0, "fusion_lon": 0.0}, {"rental_uris": {"android": "https://dc.lft.to/lastmile_qr_scan", "ios": "https://dc.lft.to/lastmile_qr_scan"}, "lon": -77.03466983333334, "name": "6a9825c450348a4f3e6177924b2812a7", "lat": 38.91703016666666, "is_reserved": 0, "fusion_lat": 0.0, "bike_id": "6a9825c450348a4f3e6177924b2812a7", "type": "electric_scooter", "is_disabled": 0, "fusion_lon": 0.0}, {"rental_uris": {"android": "https://dc.lft.to/lastmile_qr_scan", "ios": "https://dc.lft.to/lastmile_qr_scan"}, "lon": -77.0458165, "name": "24ee3177f08138f20a1bea90da1e4b13", "lat": 38.908653, "is_reserved": 0, "fusion_lat": 0.0, "bike_id": "24ee3177f08138f20a1bea90da1e4b13", "type": "electric_scooter", "is_disabled": 0, "fusion_lon": 0.0}, {"rental_uris": {"android": "https://dc.lft.to/lastmile_qr_scan", "ios": "https://dc.lft.to/lastmile_qr_scan"}, "lon": -77.018773, "name": "a50b32e4fd20addb19814a00af3c5a6f", "lat": 38.9056185, "is_reserved": 0, "fusion_lat": 0.0, "bike_id": "a50b32e4fd20addb19814a00af3c5a6f", "type": "electric_scooter", "is_disabled": 0, "fusion_lon": 0.0}, {"rental_uris": {"android": "https://dc.lft.to/lastmile_qr_scan", "ios": "https://dc.lft.to/lastmile_qr_scan"}, "lon": -77.003407, "name": "1fd59493d24e41cafe1c487223f9e784", "lat": 38.89465883333333, "is_reserved": 0, "fusion_lat": 0.0, "bike_id": "1fd59493d24e41cafe1c487223f9e784", "type": "electric_scooter", "is_disabled": 0, "fusion_lon": 0.0}, {"rental_uris": {"android": "https://dc.lft.to/lastmile_qr_scan", "ios": "https://dc.lft.to/lastmile_qr_scan"}, "lon": -77.00400383333333, "name": "28db26cb22ab9923762b3c38ec846927", "lat": 38.92915516666667, "is_reserved": 0, "fusion_lat": 0.0, "bike_id": "28db26cb22ab9923762b3c38ec846927", "type": "electric_scooter", "is_disabled": 0, "fusion_lon": 0.0}, {"rental_uris": {"android": "https://dc.lft.to/lastmile_qr_scan", "ios": "https://dc.lft.to/lastmile_qr_scan"}, "lon": -76.99626783333333, "name": "9213e8d049f4497bfb1d2cf6f341fd3b", "lat": 38.927801333333335, "is_reserved": 0, "fusion_lat": 0.0, "bike_id": "9213e8d049f4497bfb1d2cf6f341fd3b", "type": "electric_scooter", "is_disabled": 0, "fusion_lon": 0.0}, {"rental_uris": {"android": "https://dc.lft.to/lastmile_qr_scan", "ios": "https://dc.lft.to/lastmile_qr_scan"}, "lon": -77.09456283333333, "name": "331409b88b3c5f03e4d5e8b1b9440d9c", "lat": 38.807589, "is_reserved": 0, "fusion_lat": 0.0, "bike_id": "331409b88b3c5f03e4d5e8b1b9440d9c", "type": "electric_bike", "is_disabled": 0, "fusion_lon": 0.0}, {"rental_uris": {"android": "https://dc.lft.to/lastmile_qr_scan", "ios": "https://dc.lft.to/lastmile_qr_scan"}, "lon": -76.987102, "name": "580ecb5fb15e6034e56997f2d646863d", "lat": 38.867020833333335, "is_reserved": 0, "fusion_lat": 0.0, "bike_id": "580ecb5fb15e6034e56997f2d646863d", "type": "electric_scooter", "is_disabled": 0, "fusion_lon": 0.0}, {"rental_uris": {"android": "https://dc.lft.to/lastmile_qr_scan", "ios": "https://dc.lft.to/lastmile_qr_scan"}, "lon": -77.03161066666667, "name": "8743628352baca5d0441b450b862a221", "lat": 38.908943, "is_reserved": 0, "fusion_lat": 0.0, "bike_id": "8743628352baca5d0441b450b862a221", "type": "electric_scooter", "is_disabled": 0, "fusion_lon": 0.0}, {"rental_uris": {"android": "https://dc.lft.to/lastmile_qr_scan", "ios": "https://dc.lft.to/lastmile_qr_scan"}, "lon": -77.023564, "name": "5da0411cdab98549c5b8f811c4b27f96", "lat": 38.920480833333336, "is_reserved": 0, "fusion_lat": 0.0, "bike_id": "5da0411cdab98549c5b8f811c4b27f96", "type": "electric_scooter", "is_disabled": 0, "fusion_lon": 0.0}, {"rental_uris": {"android": "https://dc.lft.to/lastmile_qr_scan", "ios": "https://dc.lft.to/lastmile_qr_scan"}, "lon": -77.03882216666666, "name": "4df17eba530c72f27a71f8f46971a102", "lat": 38.922594333333336, "is_reserved": 0, "fusion_lat": 0.0, "bike_id": "4df17eba530c72f27a71f8f46971a102", "type": "electric_scooter", "is_disabled": 0, "fusion_lon": 0.0}, {"rental_uris": {"android": "https://dc.lft.to/lastmile_qr_scan", "ios": "https://dc.lft.to/lastmile_qr_scan"}, "lon": -77.02339016666667, "name": "63f0f5b1fcca276b90b5426d210531ed", "lat": 38.914161666666665, "is_reserved": 0, "fusion_lat": 0.0, "bike_id": "63f0f5b1fcca276b90b5426d210531ed", "type": "electric_scooter", "is_disabled": 0, "fusion_lon": 0.0}, {"rental_uris": {"android": "https://dc.lft.to/lastmile_qr_scan", "ios": "https://dc.lft.to/lastmile_qr_scan"}, "lon": -77.00979883333333, "name": "a3a5fa3fa94baf107b7b95a125f82931", "lat": 38.8974015, "is_reserved": 0, "fusion_lat": 0.0, "bike_id": "a3a5fa3fa94baf107b7b95a125f82931", "type": "electric_scooter", "is_disabled": 0, "fusion_lon": 0.0}, {"rental_uris": {"android": "https://dc.lft.to/lastmile_qr_scan", "ios": "https://dc.lft.to/lastmile_qr_scan"}, "lon": -77.02337783333333, "name": "c17f3317b06b9be672074edca4873193", "lat": 38.930181833333336, "is_reserved": 0, "fusion_lat": 0.0, "bike_id": "c17f3317b06b9be672074edca4873193", "type": "electric_scooter", "is_disabled": 0, "fusion_lon": 0.0}, {"rental_uris": {"android": "https://dc.lft.to/lastmile_qr_scan", "ios": "https://dc.lft.to/lastmile_qr_scan"}, "lon": -77.039119, "name": "8b158799140510287229cc6d887d8891", "lat": 38.92176, "is_reserved": 0, "fusion_lat": 0.0, "bike_id": "8b158799140510287229cc6d887d8891", "type": "electric_scooter", "is_disabled": 0, "fusion_lon": 0.0}, {"rental_uris": {"android": "https://dc.lft.to/lastmile_qr_scan", "ios": "https://dc.lft.to/lastmile_qr_scan"}, "lon": -77.0215045, "name": "c9706e1f966b5845d3e81d3c2e6ecd93", "lat": 38.879321833333336, "is_reserved": 0, "fusion_lat": 0.0, "bike_id": "c9706e1f966b5845d3e81d3c2e6ecd93", "type": "electric_scooter", "is_disabled": 0, "fusion_lon": 0.0}, {"rental_uris": {"android": "https://dc.lft.to/lastmile_qr_scan", "ios": "https://dc.lft.to/lastmile_qr_scan"}, "lon": -77.03376, "name": "bafceb97b3b6753fa2dca0460a6b5bc2", "lat": 38.92159066666667, "is_reserved": 0, "fusion_lat": 0.0, "bike_id": "bafceb97b3b6753fa2dca0460a6b5bc2", "type": "electric_scooter", "is_disabled": 0, "fusion_lon": 0.0}, {"rental_uris": {"android": "https://dc.lft.to/lastmile_qr_scan", "ios": "https://dc.lft.to/lastmile_qr_scan"}, "lon": -76.93870616666666, "name": "3531457e8d49af54058c0c8b71d81347", "lat": 38.956395666666666, "is_reserved": 0, "fusion_lat": 0.0, "bike_id": "3531457e8d49af54058c0c8b71d81347", "type": "electric_bike", "is_disabled": 0, "fusion_lon": 0.0}, {"rental_uris": {"android": "https://dc.lft.to/lastmile_qr_scan", "ios": "https://dc.lft.to/lastmile_qr_scan"}, "lon": -77.0240015, "name": "945f319e79aac2742a314e1a6ca16f39", "lat": 38.92087633333333, "is_reserved": 0, "fusion_lat": 0.0, "bike_id": "945f319e79aac2742a314e1a6ca16f39", "type": "electric_scooter", "is_disabled": 0, "fusion_lon": 0.0}, {"rental_uris": {"android": "https://dc.lft.to/lastmile_qr_scan", "ios": "https://dc.lft.to/lastmile_qr_scan"}, "lon": -77.01210866666666, "name": "9d5b3e3b97ba2a5b95e4f7997481a270", "lat": 38.870896, "is_reserved": 0, "fusion_lat": 0.0, "bike_id": "9d5b3e3b97ba2a5b95e4f7997481a270", "type": "electric_bike", "is_disabled": 0, "fusion_lon": 0.0}, {"rental_uris": {"android": "https://dc.lft.to/lastmile_qr_scan", "ios": "https://dc.lft.to/lastmile_qr_scan"}, "lon": -77.01507433333333, "name": "20c16aae70c8873f536f9972f00c2d9a", "lat": 38.890142833333336, "is_reserved": 0, "fusion_lat": 0.0, "bike_id": "20c16aae70c8873f536f9972f00c2d9a", "type": "electric_scooter", "is_disabled": 0, "fusion_lon": 0.0}, {"rental_uris": {"android": "https://dc.lft.to/lastmile_qr_scan", "ios": "https://dc.lft.to/lastmile_qr_scan"}, "lon": -77.03805533333333, "name": "c60639efcc17675b6449057e5c3e85d9", "lat": 38.93118883333333, "is_reserved": 0, "fusion_lat": 0.0, "bike_id": "c60639efcc17675b6449057e5c3e85d9", "type": "electric_scooter", "is_disabled": 0, "fusion_lon": 0.0}, {"rental_uris": {"android": "https://dc.lft.to/lastmile_qr_scan", "ios": "https://dc.lft.to/lastmile_qr_scan"}, "lon": -76.98961666666666, "name": "14b5cc0e7bfb5e83f2a89c3b9575d294", "lat": 38.901392333333334, "is_reserved": 0, "fusion_lat": 0.0, "bike_id": "14b5cc0e7bfb5e83f2a89c3b9575d294", "type": "electric_scooter", "is_disabled": 0, "fusion_lon": 0.0}, {"rental_uris": {"android": "https://dc.lft.to/lastmile_qr_scan", "ios": "https://dc.lft.to/lastmile_qr_scan"}, "lon": -77.029624, "name": "60c01094eac9d2106be239febacc19ba", "lat": 38.92426916666667, "is_reserved": 0, "fusion_lat": 0.0, "bike_id": "60c01094eac9d2106be239febacc19ba", "type": "electric_scooter", "is_disabled": 0, "fusion_lon": 0.0}, {"rental_uris": {"android": "https://dc.lft.to/lastmile_qr_scan", "ios": "https://dc.lft.to/lastmile_qr_scan"}, "lon": -77.033273, "name": "d1d3a07a9df3745e3dd28a8d1c404f10", "lat": 38.898238666666664, "is_reserved": 0, "fusion_lat": 0.0, "bike_id": "d1d3a07a9df3745e3dd28a8d1c404f10", "type": "electric_scooter", "is_disabled": 0, "fusion_lon": 0.0}, {"rental_uris": {"android": "https://dc.lft.to/lastmile_qr_scan", "ios": "https://dc.lft.to/lastmile_qr_scan"}, "lon": -77.01781116666666, "name": "ada2aace6a7c71a6a93637a38f12e43b", "lat": 38.944217333333334, "is_reserved": 0, "fusion_lat": 0.0, "bike_id": "ada2aace6a7c71a6a93637a38f12e43b", "type": "electric_scooter", "is_disabled": 0, "fusion_lon": 0.0}, {"rental_uris": {"android": "https://dc.lft.to/lastmile_qr_scan", "ios": "https://dc.lft.to/lastmile_qr_scan"}, "lon": -77.012112, "name": "f5ad3adb759cb1d1fbd4bffea1ad3db7", "lat": 38.9212125, "is_reserved": 0, "fusion_lat": 0.0, "bike_id": "f5ad3adb759cb1d1fbd4bffea1ad3db7", "type": "electric_scooter", "is_disabled": 0, "fusion_lon": 0.0}, {"rental_uris": {"android": "https://dc.lft.to/lastmile_qr_scan", "ios": "https://dc.lft.to/lastmile_qr_scan"}, "lon": -76.98881883333334, "name": "97e0fb2b1e1f3be34040558f1dc7c16b", "lat": 38.86664666666667, "is_reserved": 0, "fusion_lat": 0.0, "bike_id": "97e0fb2b1e1f3be34040558f1dc7c16b", "type": "electric_scooter", "is_disabled": 0, "fusion_lon": 0.0}, {"rental_uris": {"android": "https://dc.lft.to/lastmile_qr_scan", "ios": "https://dc.lft.to/lastmile_qr_scan"}, "lon": -77.04409333333334, "name": "1f09099d21760034567254d2391efe4f", "lat": 38.934275166666666, "is_reserved": 0, "fusion_lat": 0.0, "bike_id": "1f09099d21760034567254d2391efe4f", "type": "electric_scooter", "is_disabled": 0, "fusion_lon": 0.0}, {"rental_uris": {"android": "https://dc.lft.to/lastmile_qr_scan", "ios": "https://dc.lft.to/lastmile_qr_scan"}, "lon": -77.02985833333334, "name": "d9946a74f1a5a3f090d12d15496aece5", "lat": 38.906138, "is_reserved": 0, "fusion_lat": 0.0, "bike_id": "d9946a74f1a5a3f090d12d15496aece5", "type": "electric_scooter", "is_disabled": 0, "fusion_lon": 0.0}, {"rental_uris": {"android": "https://dc.lft.to/lastmile_qr_scan", "ios": "https://dc.lft.to/lastmile_qr_scan"}, "lon": -77.03102966666667, "name": "97720d67011b3c5fad6aa664b9aebb4d", "lat": 38.923875333333335, "is_reserved": 0, "fusion_lat": 0.0, "bike_id": "97720d67011b3c5fad6aa664b9aebb4d", "type": "electric_scooter", "is_disabled": 0, "fusion_lon": 0.0}, {"rental_uris": {"android": "https://dc.lft.to/lastmile_qr_scan", "ios": "https://dc.lft.to/lastmile_qr_scan"}, "lon": -77.02180816666667, "name": "81f3c547d06b60b012b8e3043479144e", "lat": 38.919728166666665, "is_reserved": 0, "fusion_lat": 0.0, "bike_id": "81f3c547d06b60b012b8e3043479144e", "type": "electric_scooter", "is_disabled": 0, "fusion_lon": 0.0}, {"rental_uris": {"android": "https://dc.lft.to/lastmile_qr_scan", "ios": "https://dc.lft.to/lastmile_qr_scan"}, "lon": -77.03216966666666, "name": "2693ca8a15ccf7229a6fb80d0042b545", "lat": 38.91994416666667, "is_reserved": 0, "fusion_lat": 0.0, "bike_id": "2693ca8a15ccf7229a6fb80d0042b545", "type": "electric_scooter", "is_disabled": 0, "fusion_lon": 0.0}, {"rental_uris": {"android": "https://dc.lft.to/lastmile_qr_scan", "ios": "https://dc.lft.to/lastmile_qr_scan"}, "lon": -77.05150433333333, "name": "cbe828d088bafd915cb8b243e1136f0c", "lat": 38.905172666666665, "is_reserved": 0, "fusion_lat": 0.0, "bike_id": "cbe828d088bafd915cb8b243e1136f0c", "type": "electric_scooter", "is_disabled": 0, "fusion_lon": 0.0}, {"rental_uris": {"android": "https://dc.lft.to/lastmile_qr_scan", "ios": "https://dc.lft.to/lastmile_qr_scan"}, "lon": -77.22889816666667, "name": "209240dc37515420d42549e6944f0494", "lat": 38.90957683333333, "is_reserved": 0, "fusion_lat": 0.0, "bike_id": "209240dc37515420d42549e6944f0494", "type": "electric_bike", "is_disabled": 0, "fusion_lon": 0.0}, {"rental_uris": {"android": "https://dc.lft.to/lastmile_qr_scan", "ios": "https://dc.lft.to/lastmile_qr_scan"}, "lon": -77.02537316666667, "name": "25a1ddafbb8db15ccbdbeb8bfb502fff", "lat": 38.930938833333336, "is_reserved": 0, "fusion_lat": 0.0, "bike_id": "25a1ddafbb8db15ccbdbeb8bfb502fff", "type": "electric_scooter", "is_disabled": 0, "fusion_lon": 0.0}, {"rental_uris": {"android": "https://dc.lft.to/lastmile_qr_scan", "ios": "https://dc.lft.to/lastmile_qr_scan"}, "lon": -76.9903335, "name": "bcd1dc4ad52be1d27cb2cf4232298818", "lat": 38.901562, "is_reserved": 0, "fusion_lat": 0.0, "bike_id": "bcd1dc4ad52be1d27cb2cf4232298818", "type": "electric_scooter", "is_disabled": 0, "fusion_lon": 0.0}, {"rental_uris": {"android": "https://dc.lft.to/lastmile_qr_scan", "ios": "https://dc.lft.to/lastmile_qr_scan"}, "lon": -77.04516866666667, "name": "b0d76ef29ca24c37f106399194c60eeb", "lat": 38.8960815, "is_reserved": 0, "fusion_lat": 0.0, "bike_id": "b0d76ef29ca24c37f106399194c60eeb", "type": "electric_scooter", "is_disabled": 0, "fusion_lon": 0.0}, {"rental_uris": {"android": "https://dc.lft.to/lastmile_qr_scan", "ios": "https://dc.lft.to/lastmile_qr_scan"}, "lon": -76.9808955, "name": "0f04e17692a146c6102a9f6a8a5be2cd", "lat": 38.9575615, "is_reserved": 0, "fusion_lat": 0.0, "bike_id": "0f04e17692a146c6102a9f6a8a5be2cd", "type": "electric_bike", "is_disabled": 0, "fusion_lon": 0.0}, {"rental_uris": {"android": "https://dc.lft.to/lastmile_qr_scan", "ios": "https://dc.lft.to/lastmile_qr_scan"}, "lon": -76.969358, "name": "f1e9617205106fa391f9377258f8beef", "lat": 38.95987066666667, "is_reserved": 0, "fusion_lat": 0.0, "bike_id": "f1e9617205106fa391f9377258f8beef", "type": "electric_bike", "is_disabled": 0, "fusion_lon": 0.0}, {"rental_uris": {"android": "https://dc.lft.to/lastmile_qr_scan", "ios": "https://dc.lft.to/lastmile_qr_scan"}, "lon": -77.04250133333333, "name": "aa9b986e23447a89bf0242444b10da37", "lat": 38.92208733333333, "is_reserved": 0, "fusion_lat": 0.0, "bike_id": "aa9b986e23447a89bf0242444b10da37", "type": "electric_scooter", "is_disabled": 0, "fusion_lon": 0.0}, {"rental_uris": {"android": "https://dc.lft.to/lastmile_qr_scan", "ios": "https://dc.lft.to/lastmile_qr_scan"}, "lon": -77.03099416666667, "name": "5a0f1dbce2c36960ad300b0c0e4e3b99", "lat": 38.931901, "is_reserved": 0, "fusion_lat": 0.0, "bike_id": "5a0f1dbce2c36960ad300b0c0e4e3b99", "type": "electric_scooter", "is_disabled": 0, "fusion_lon": 0.0}, {"rental_uris": {"android": "https://dc.lft.to/lastmile_qr_scan", "ios": "https://dc.lft.to/lastmile_qr_scan"}, "lon": -77.01512616666666, "name": "112e659ed0ebf974808d32036e2a93ff", "lat": 38.9100385, "is_reserved": 0, "fusion_lat": 0.0, "bike_id": "112e659ed0ebf974808d32036e2a93ff", "type": "electric_scooter", "is_disabled": 0, "fusion_lon": 0.0}, {"rental_uris": {"android": "https://dc.lft.to/lastmile_qr_scan", "ios": "https://dc.lft.to/lastmile_qr_scan"}, "lon": -77.04245833333333, "name": "bfe6623cf5d37348779a0f86ab711673", "lat": 38.9222515, "is_reserved": 0, "fusion_lat": 0.0, "bike_id": "bfe6623cf5d37348779a0f86ab711673", "type": "electric_scooter", "is_disabled": 0, "fusion_lon": 0.0}, {"rental_uris": {"android": "https://dc.lft.to/lastmile_qr_scan", "ios": "https://dc.lft.to/lastmile_qr_scan"}, "lon": -77.00210333333334, "name": "8449f9e2e807f37580ec61ca42108769", "lat": 38.91997716666667, "is_reserved": 0, "fusion_lat": 0.0, "bike_id": "8449f9e2e807f37580ec61ca42108769", "type": "electric_scooter", "is_disabled": 0, "fusion_lon": 0.0}, {"rental_uris": {"android": "https://dc.lft.to/lastmile_qr_scan", "ios": "https://dc.lft.to/lastmile_qr_scan"}, "lon": -77.0018425, "name": "5559531ea56ec0efef7f50ce231b7a9b", "lat": 38.912289666666666, "is_reserved": 0, "fusion_lat": 0.0, "bike_id": "5559531ea56ec0efef7f50ce231b7a9b", "type": "electric_scooter", "is_disabled": 0, "fusion_lon": 0.0}, {"rental_uris": {"android": "https://dc.lft.to/lastmile_qr_scan", "ios": "https://dc.lft.to/lastmile_qr_scan"}, "lon": -77.0216695, "name": "329275439041ae502500842257ba7e4a", "lat": 38.894886666666665, "is_reserved": 0, "fusion_lat": 0.0, "bike_id": "329275439041ae502500842257ba7e4a", "type": "electric_scooter", "is_disabled": 0, "fusion_lon": 0.0}, {"rental_uris": {"android": "https://dc.lft.to/lastmile_qr_scan", "ios": "https://dc.lft.to/lastmile_qr_scan"}, "lon": -77.02821216666666, "name": "a8b3e12f0dd1425772de0fb232603345", "lat": 38.91702, "is_reserved": 0, "fusion_lat": 0.0, "bike_id": "a8b3e12f0dd1425772de0fb232603345", "type": "electric_scooter", "is_disabled": 0, "fusion_lon": 0.0}, {"rental_uris": {"android": "https://dc.lft.to/lastmile_qr_scan", "ios": "https://dc.lft.to/lastmile_qr_scan"}, "lon": -77.02737316666666, "name": "580df6003945fddf39731cd78a1ca765", "lat": 38.92874533333333, "is_reserved": 0, "fusion_lat": 0.0, "bike_id": "580df6003945fddf39731cd78a1ca765", "type": "electric_scooter", "is_disabled": 0, "fusion_lon": 0.0}, {"rental_uris": {"android": "https://dc.lft.to/lastmile_qr_scan", "ios": "https://dc.lft.to/lastmile_qr_scan"}, "lon": -77.03407333333334, "name": "bb72b0ea9f31cbfce7a2938541dfe3d9", "lat": 38.924457, "is_reserved": 0, "fusion_lat": 0.0, "bike_id": "bb72b0ea9f31cbfce7a2938541dfe3d9", "type": "electric_scooter", "is_disabled": 0, "fusion_lon": 0.0}, {"rental_uris": {"android": "https://dc.lft.to/lastmile_qr_scan", "ios": "https://dc.lft.to/lastmile_qr_scan"}, "lon": -77.0102575, "name": "df304b7e442d8af6068a02544a5194fd", "lat": 38.920289833333335, "is_reserved": 0, "fusion_lat": 0.0, "bike_id": "df304b7e442d8af6068a02544a5194fd", "type": "electric_scooter", "is_disabled": 0, "fusion_lon": 0.0}, {"rental_uris": {"android": "https://dc.lft.to/lastmile_qr_scan", "ios": "https://dc.lft.to/lastmile_qr_scan"}, "lon": -77.0252675, "name": "939d5d53bac8b8bd47bccbef660f3a79", "lat": 38.937523166666665, "is_reserved": 0, "fusion_lat": 0.0, "bike_id": "939d5d53bac8b8bd47bccbef660f3a79", "type": "electric_scooter", "is_disabled": 0, "fusion_lon": 0.0}, {"rental_uris": {"android": "https://dc.lft.to/lastmile_qr_scan", "ios": "https://dc.lft.to/lastmile_qr_scan"}, "lon": -76.98888016666666, "name": "a1c9b41f6535f9f8aeff811b288e430e", "lat": 38.86660533333333, "is_reserved": 0, "fusion_lat": 0.0, "bike_id": "a1c9b41f6535f9f8aeff811b288e430e", "type": "electric_scooter", "is_disabled": 0, "fusion_lon": 0.0}, {"rental_uris": {"android": "https://dc.lft.to/lastmile_qr_scan", "ios": "https://dc.lft.to/lastmile_qr_scan"}, "lon": -77.0180415, "name": "5ec73e1de488ccadb738761eec06575e", "lat": 38.92031983333333, "is_reserved": 0, "fusion_lat": 0.0, "bike_id": "5ec73e1de488ccadb738761eec06575e", "type": "electric_scooter", "is_disabled": 0, "fusion_lon": 0.0}, {"rental_uris": {"android": "https://dc.lft.to/lastmile_qr_scan", "ios": "https://dc.lft.to/lastmile_qr_scan"}, "lon": -76.98160166666666, "name": "a1e8e4ce4b0ca53602b7d3c35af5bebf", "lat": 38.89944166666667, "is_reserved": 0, "fusion_lat": 0.0, "bike_id": "a1e8e4ce4b0ca53602b7d3c35af5bebf", "type": "electric_scooter", "is_disabled": 0, "fusion_lon": 0.0}, {"rental_uris": {"android": "https://dc.lft.to/lastmile_qr_scan", "ios": "https://dc.lft.to/lastmile_qr_scan"}, "lon": -77.02708233333334, "name": "3d9086e51bbb2fe78b6d723e8ffd20e0", "lat": 38.907803333333334, "is_reserved": 0, "fusion_lat": 0.0, "bike_id": "3d9086e51bbb2fe78b6d723e8ffd20e0", "type": "electric_scooter", "is_disabled": 0, "fusion_lon": 0.0}, {"rental_uris": {"android": "https://dc.lft.to/lastmile_qr_scan", "ios": "https://dc.lft.to/lastmile_qr_scan"}, "lon": -77.03642866666667, "name": "98e24afb035625182b69fdabfe438d5c", "lat": 38.92301466666667, "is_reserved": 0, "fusion_lat": 0.0, "bike_id": "98e24afb035625182b69fdabfe438d5c", "type": "electric_scooter", "is_disabled": 0, "fusion_lon": 0.0}, {"rental_uris": {"android": "https://dc.lft.to/lastmile_qr_scan", "ios": "https://dc.lft.to/lastmile_qr_scan"}, "lon": -76.952468, "name": "33c04671e400886b93323bfdef422f1c", "lat": 38.890465, "is_reserved": 0, "fusion_lat": 0.0, "bike_id": "33c04671e400886b93323bfdef422f1c", "type": "electric_scooter", "is_disabled": 0, "fusion_lon": 0.0}, {"rental_uris": {"android": "https://dc.lft.to/lastmile_qr_scan", "ios": "https://dc.lft.to/lastmile_qr_scan"}, "lon": -77.02209033333334, "name": "89b38515ab412876df88ece2b01d8af9", "lat": 38.903076666666664, "is_reserved": 0, "fusion_lat": 0.0, "bike_id": "89b38515ab412876df88ece2b01d8af9", "type": "electric_scooter", "is_disabled": 0, "fusion_lon": 0.0}, {"rental_uris": {"android": "https://dc.lft.to/lastmile_qr_scan", "ios": "https://dc.lft.to/lastmile_qr_scan"}, "lon": -76.92657866666667, "name": "a86aafb24dd957ac4e7cf93d642e00e2", "lat": 38.901731166666664, "is_reserved": 0, "fusion_lat": 0.0, "bike_id": "a86aafb24dd957ac4e7cf93d642e00e2", "type": "electric_scooter", "is_disabled": 0, "fusion_lon": 0.0}, {"rental_uris": {"android": "https://dc.lft.to/lastmile_qr_scan", "ios": "https://dc.lft.to/lastmile_qr_scan"}, "lon": -77.02395, "name": "0777339b0558f6365364be4460b51c7b", "lat": 38.91961366666666, "is_reserved": 0, "fusion_lat": 0.0, "bike_id": "0777339b0558f6365364be4460b51c7b", "type": "electric_scooter", "is_disabled": 0, "fusion_lon": 0.0}, {"rental_uris": {"android": "https://dc.lft.to/lastmile_qr_scan", "ios": "https://dc.lft.to/lastmile_qr_scan"}, "lon": -77.03644233333333, "name": "436643bbb36d8a58ae6fa2c06acb92ae", "lat": 38.914649, "is_reserved": 0, "fusion_lat": 0.0, "bike_id": "436643bbb36d8a58ae6fa2c06acb92ae", "type": "electric_scooter", "is_disabled": 0, "fusion_lon": 0.0}, {"rental_uris": {"android": "https://dc.lft.to/lastmile_qr_scan", "ios": "https://dc.lft.to/lastmile_qr_scan"}, "lon": -77.0136045, "name": "b22f9f4dcd6045019f8a6a5e0fc509ed", "lat": 38.897839, "is_reserved": 0, "fusion_lat": 0.0, "bike_id": "b22f9f4dcd6045019f8a6a5e0fc509ed", "type": "electric_scooter", "is_disabled": 0, "fusion_lon": 0.0}, {"rental_uris": {"android": "https://dc.lft.to/lastmile_qr_scan", "ios": "https://dc.lft.to/lastmile_qr_scan"}, "lon": -77.03180533333334, "name": "f7aca3e8adeb954c3d67d5b2638ac6b1", "lat": 38.907275166666665, "is_reserved": 0, "fusion_lat": 0.0, "bike_id": "f7aca3e8adeb954c3d67d5b2638ac6b1", "type": "electric_scooter", "is_disabled": 0, "fusion_lon": 0.0}, {"rental_uris": {"android": "https://dc.lft.to/lastmile_qr_scan", "ios": "https://dc.lft.to/lastmile_qr_scan"}, "lon": -77.03521833333333, "name": "5117f917da345deeb93fd1e0e23a8de1", "lat": 38.92244733333333, "is_reserved": 0, "fusion_lat": 0.0, "bike_id": "5117f917da345deeb93fd1e0e23a8de1", "type": "electric_scooter", "is_disabled": 0, "fusion_lon": 0.0}, {"rental_uris": {"android": "https://dc.lft.to/lastmile_qr_scan", "ios": "https://dc.lft.to/lastmile_qr_scan"}, "lon": -77.0264055, "name": "187cb3422e90feefcc14259f80d549dc", "lat": 38.90416416666667, "is_reserved": 0, "fusion_lat": 0.0, "bike_id": "187cb3422e90feefcc14259f80d549dc", "type": "electric_scooter", "is_disabled": 0, "fusion_lon": 0.0}, {"rental_uris": {"android": "https://dc.lft.to/lastmile_qr_scan", "ios": "https://dc.lft.to/lastmile_qr_scan"}, "lon": -77.0384375, "name": "17464c55df26ef935e210790c0e06ad4", "lat": 38.902504, "is_reserved": 0, "fusion_lat": 0.0, "bike_id": "17464c55df26ef935e210790c0e06ad4", "type": "electric_scooter", "is_disabled": 0, "fusion_lon": 0.0}, {"rental_uris": {"android": "https://dc.lft.to/lastmile_qr_scan", "ios": "https://dc.lft.to/lastmile_qr_scan"}, "lon": -77.04518716666666, "name": "3d11caf3c1073f6633fc6ec74a6e3723", "lat": 38.89609166666666, "is_reserved": 0, "fusion_lat": 0.0, "bike_id": "3d11caf3c1073f6633fc6ec74a6e3723", "type": "electric_scooter", "is_disabled": 0, "fusion_lon": 0.0}, {"rental_uris": {"android": "https://dc.lft.to/lastmile_qr_scan", "ios": "https://dc.lft.to/lastmile_qr_scan"}, "lon": -76.9705525, "name": "24214a2d3a5b5b5220c42e01b1108e0a", "lat": 38.958721, "is_reserved": 0, "fusion_lat": 0.0, "bike_id": "24214a2d3a5b5b5220c42e01b1108e0a", "type": "electric_bike", "is_disabled": 0, "fusion_lon": 0.0}, {"rental_uris": {"android": "https://dc.lft.to/lastmile_qr_scan", "ios": "https://dc.lft.to/lastmile_qr_scan"}, "lon": -77.032351, "name": "45029bb4cd9c8db257997112c82fa40e", "lat": 38.92687083333333, "is_reserved": 0, "fusion_lat": 0.0, "bike_id": "45029bb4cd9c8db257997112c82fa40e", "type": "electric_scooter", "is_disabled": 0, "fusion_lon": 0.0}, {"rental_uris": {"android": "https://dc.lft.to/lastmile_qr_scan", "ios": "https://dc.lft.to/lastmile_qr_scan"}, "lon": -77.040229, "name": "72b5517bfaee4e3b48726087cceef46d", "lat": 38.903129166666666, "is_reserved": 0, "fusion_lat": 0.0, "bike_id": "72b5517bfaee4e3b48726087cceef46d", "type": "electric_scooter", "is_disabled": 0, "fusion_lon": 0.0}, {"rental_uris": {"android": "https://dc.lft.to/lastmile_qr_scan", "ios": "https://dc.lft.to/lastmile_qr_scan"}, "lon": -77.0315455, "name": "e3ceb6e8f1258fd465dc4b73d2176215", "lat": 38.92083683333333, "is_reserved": 0, "fusion_lat": 0.0, "bike_id": "e3ceb6e8f1258fd465dc4b73d2176215", "type": "electric_scooter", "is_disabled": 0, "fusion_lon": 0.0}, {"rental_uris": {"android": "https://dc.lft.to/lastmile_qr_scan", "ios": "https://dc.lft.to/lastmile_qr_scan"}, "lon": -77.04398066666667, "name": "1a7d4c87b5e2a2cdaefa6109fe24a268", "lat": 38.900082833333336, "is_reserved": 0, "fusion_lat": 0.0, "bike_id": "1a7d4c87b5e2a2cdaefa6109fe24a268", "type": "electric_scooter", "is_disabled": 0, "fusion_lon": 0.0}, {"rental_uris": {"android": "https://dc.lft.to/lastmile_qr_scan", "ios": "https://dc.lft.to/lastmile_qr_scan"}, "lon": -77.02958516666666, "name": "bd52d396d16fd745ed99ea733b8d2f83", "lat": 38.90490583333333, "is_reserved": 0, "fusion_lat": 0.0, "bike_id": "bd52d396d16fd745ed99ea733b8d2f83", "type": "electric_scooter", "is_disabled": 0, "fusion_lon": 0.0}, {"rental_uris": {"android": "https://dc.lft.to/lastmile_qr_scan", "ios": "https://dc.lft.to/lastmile_qr_scan"}, "lon": -77.02705533333334, "name": "4053f31482c67b25b6ee1cbec232293b", "lat": 38.973142333333335, "is_reserved": 0, "fusion_lat": 0.0, "bike_id": "4053f31482c67b25b6ee1cbec232293b", "type": "electric_scooter", "is_disabled": 0, "fusion_lon": 0.0}, {"rental_uris": {"android": "https://dc.lft.to/lastmile_qr_scan", "ios": "https://dc.lft.to/lastmile_qr_scan"}, "lon": -77.04006366666667, "name": "ed08699b754cdb4482329b34aacc9a9e", "lat": 38.93429416666667, "is_reserved": 0, "fusion_lat": 0.0, "bike_id": "ed08699b754cdb4482329b34aacc9a9e", "type": "electric_scooter", "is_disabled": 0, "fusion_lon": 0.0}, {"rental_uris": {"android": "https://dc.lft.to/lastmile_qr_scan", "ios": "https://dc.lft.to/lastmile_qr_scan"}, "lon": -77.01374683333333, "name": "d9f08eb852266b6247023e50166a5fc8", "lat": 38.879040833333335, "is_reserved": 0, "fusion_lat": 0.0, "bike_id": "d9f08eb852266b6247023e50166a5fc8", "type": "electric_scooter", "is_disabled": 0, "fusion_lon": 0.0}, {"rental_uris": {"android": "https://dc.lft.to/lastmile_qr_scan", "ios": "https://dc.lft.to/lastmile_qr_scan"}, "lon": -77.03667283333333, "name": "77951515bfac4b52910e59639a86ac7c", "lat": 38.921545, "is_reserved": 0, "fusion_lat": 0.0, "bike_id": "77951515bfac4b52910e59639a86ac7c", "type": "electric_scooter", "is_disabled": 0, "fusion_lon": 0.0}, {"rental_uris": {"android": "https://dc.lft.to/lastmile_qr_scan", "ios": "https://dc.lft.to/lastmile_qr_scan"}, "lon": -77.02396416666667, "name": "f32809038efb8b46cac13f13da1c0838", "lat": 38.919205833333336, "is_reserved": 0, "fusion_lat": 0.0, "bike_id": "f32809038efb8b46cac13f13da1c0838", "type": "electric_scooter", "is_disabled": 0, "fusion_lon": 0.0}, {"rental_uris": {"android": "https://dc.lft.to/lastmile_qr_scan", "ios": "https://dc.lft.to/lastmile_qr_scan"}, "lon": -77.01003383333334, "name": "10df0b5585e5d10e1ef4f285e281386d", "lat": 38.915671833333334, "is_reserved": 0, "fusion_lat": 0.0, "bike_id": "10df0b5585e5d10e1ef4f285e281386d", "type": "electric_scooter", "is_disabled": 0, "fusion_lon": 0.0}, {"rental_uris": {"android": "https://dc.lft.to/lastmile_qr_scan", "ios": "https://dc.lft.to/lastmile_qr_scan"}, "lon": -77.01368133333334, "name": "a5903307d7691a2136d9fd99d9e71199", "lat": 38.911176166666664, "is_reserved": 0, "fusion_lat": 0.0, "bike_id": "a5903307d7691a2136d9fd99d9e71199", "type": "electric_scooter", "is_disabled": 0, "fusion_lon": 0.0}, {"rental_uris": {"android": "https://dc.lft.to/lastmile_qr_scan", "ios": "https://dc.lft.to/lastmile_qr_scan"}, "lon": -77.03662016666667, "name": "d1341e9f18cecae1d18b30a6e2b89782", "lat": 38.910072666666665, "is_reserved": 0, "fusion_lat": 0.0, "bike_id": "d1341e9f18cecae1d18b30a6e2b89782", "type": "electric_scooter", "is_disabled": 0, "fusion_lon": 0.0}, {"rental_uris": {"android": "https://dc.lft.to/lastmile_qr_scan", "ios": "https://dc.lft.to/lastmile_qr_scan"}, "lon": -77.06545166666666, "name": "51a72d3d79cc640edecdf79b5799595f", "lat": 38.947172, "is_reserved": 0, "fusion_lat": 0.0, "bike_id": "51a72d3d79cc640edecdf79b5799595f", "type": "electric_scooter", "is_disabled": 0, "fusion_lon": 0.0}, {"rental_uris": {"android": "https://dc.lft.to/lastmile_qr_scan", "ios": "https://dc.lft.to/lastmile_qr_scan"}, "lon": -76.99817666666667, "name": "a0d733da332b53b1c63d491e8ee87308", "lat": 38.932336, "is_reserved": 0, "fusion_lat": 0.0, "bike_id": "a0d733da332b53b1c63d491e8ee87308", "type": "electric_scooter", "is_disabled": 0, "fusion_lon": 0.0}, {"rental_uris": {"android": "https://dc.lft.to/lastmile_qr_scan", "ios": "https://dc.lft.to/lastmile_qr_scan"}, "lon": -76.949888, "name": "246b6c3190b006cac2082fc615ffeb86", "lat": 38.88443216666667, "is_reserved": 0, "fusion_lat": 0.0, "bike_id": "246b6c3190b006cac2082fc615ffeb86", "type": "electric_scooter", "is_disabled": 0, "fusion_lon": 0.0}, {"rental_uris": {"android": "https://dc.lft.to/lastmile_qr_scan", "ios": "https://dc.lft.to/lastmile_qr_scan"}, "lon": -77.02813283333333, "name": "ae9b8fc50c0c6cae542be2f134807632", "lat": 38.89892, "is_reserved": 0, "fusion_lat": 0.0, "bike_id": "ae9b8fc50c0c6cae542be2f134807632", "type": "electric_scooter", "is_disabled": 0, "fusion_lon": 0.0}, {"rental_uris": {"android": "https://dc.lft.to/lastmile_qr_scan", "ios": "https://dc.lft.to/lastmile_qr_scan"}, "lon": -77.074636, "name": "085489e6b17f77e43f8a98f915f067ff", "lat": 38.907013666666664, "is_reserved": 0, "fusion_lat": 0.0, "bike_id": "085489e6b17f77e43f8a98f915f067ff", "type": "electric_scooter", "is_disabled": 0, "fusion_lon": 0.0}, {"rental_uris": {"android": "https://dc.lft.to/lastmile_qr_scan", "ios": "https://dc.lft.to/lastmile_qr_scan"}, "lon": -77.02328233333333, "name": "01bf76e827ff6778682b43443fc0c47e", "lat": 38.92870966666667, "is_reserved": 0, "fusion_lat": 0.0, "bike_id": "01bf76e827ff6778682b43443fc0c47e", "type": "electric_scooter", "is_disabled": 0, "fusion_lon": 0.0}, {"rental_uris": {"android": "https://dc.lft.to/lastmile_qr_scan", "ios": "https://dc.lft.to/lastmile_qr_scan"}, "lon": -77.02364383333334, "name": "870a6e4ba58e4f0986eb8acb552dd07e", "lat": 38.92057483333333, "is_reserved": 0, "fusion_lat": 0.0, "bike_id": "870a6e4ba58e4f0986eb8acb552dd07e", "type": "electric_scooter", "is_disabled": 0, "fusion_lon": 0.0}, {"rental_uris": {"android": "https://dc.lft.to/lastmile_qr_scan", "ios": "https://dc.lft.to/lastmile_qr_scan"}, "lon": -77.04074716666666, "name": "a0302997e66c2fd4147650576dfe637d", "lat": 38.9170365, "is_reserved": 0, "fusion_lat": 0.0, "bike_id": "a0302997e66c2fd4147650576dfe637d", "type": "electric_scooter", "is_disabled": 0, "fusion_lon": 0.0}, {"rental_uris": {"android": "https://dc.lft.to/lastmile_qr_scan", "ios": "https://dc.lft.to/lastmile_qr_scan"}, "lon": -76.992323, "name": "1ec742b3af2e48877a867e58756c1062", "lat": 38.9079735, "is_reserved": 0, "fusion_lat": 0.0, "bike_id": "1ec742b3af2e48877a867e58756c1062", "type": "electric_scooter", "is_disabled": 0, "fusion_lon": 0.0}, {"rental_uris": {"android": "https://dc.lft.to/lastmile_qr_scan", "ios": "https://dc.lft.to/lastmile_qr_scan"}, "lon": -77.007387, "name": "dc7edee1ce26fc3bf5dd7e7a31e99957", "lat": 38.898315833333335, "is_reserved": 0, "fusion_lat": 0.0, "bike_id": "dc7edee1ce26fc3bf5dd7e7a31e99957", "type": "electric_scooter", "is_disabled": 0, "fusion_lon": 0.0}, {"rental_uris": {"android": "https://dc.lft.to/lastmile_qr_scan", "ios": "https://dc.lft.to/lastmile_qr_scan"}, "lon": -76.99039816666667, "name": "e3d80f49177cac8b277d23a3923ba026", "lat": 38.86390883333333, "is_reserved": 0, "fusion_lat": 0.0, "bike_id": "e3d80f49177cac8b277d23a3923ba026", "type": "electric_scooter", "is_disabled": 0, "fusion_lon": 0.0}, {"rental_uris": {"android": "https://dc.lft.to/lastmile_qr_scan", "ios": "https://dc.lft.to/lastmile_qr_scan"}, "lon": -77.02179, "name": "5256a4f8cbd7ea2e0263f79e3a9f1fb5", "lat": 38.898879666666666, "is_reserved": 0, "fusion_lat": 0.0, "bike_id": "5256a4f8cbd7ea2e0263f79e3a9f1fb5", "type": "electric_scooter", "is_disabled": 0, "fusion_lon": 0.0}, {"rental_uris": {"android": "https://dc.lft.to/lastmile_qr_scan", "ios": "https://dc.lft.to/lastmile_qr_scan"}, "lon": -77.01199966666667, "name": "438c17e70225b8c3ccece7b0da33cf2f", "lat": 38.915710833333335, "is_reserved": 0, "fusion_lat": 0.0, "bike_id": "438c17e70225b8c3ccece7b0da33cf2f", "type": "electric_scooter", "is_disabled": 0, "fusion_lon": 0.0}, {"rental_uris": {"android": "https://dc.lft.to/lastmile_qr_scan", "ios": "https://dc.lft.to/lastmile_qr_scan"}, "lon": -77.03842633333333, "name": "6d7a6b85564f0921789120429e0a1e11", "lat": 38.90268566666667, "is_reserved": 0, "fusion_lat": 0.0, "bike_id": "6d7a6b85564f0921789120429e0a1e11", "type": "electric_scooter", "is_disabled": 0, "fusion_lon": 0.0}, {"rental_uris": {"android": "https://dc.lft.to/lastmile_qr_scan", "ios": "https://dc.lft.to/lastmile_qr_scan"}, "lon": -76.9470115, "name": "23e5eaee5e3a6b7caf95a4559f47533d", "lat": 38.89730516666667, "is_reserved": 0, "fusion_lat": 0.0, "bike_id": "23e5eaee5e3a6b7caf95a4559f47533d", "type": "electric_scooter", "is_disabled": 0, "fusion_lon": 0.0}, {"rental_uris": {"android": "https://dc.lft.to/lastmile_qr_scan", "ios": "https://dc.lft.to/lastmile_qr_scan"}, "lon": -77.02958816666667, "name": "489de627e78ee59dfd5eebb5787e730d", "lat": 38.89827366666667, "is_reserved": 0, "fusion_lat": 0.0, "bike_id": "489de627e78ee59dfd5eebb5787e730d", "type": "electric_scooter", "is_disabled": 0, "fusion_lon": 0.0}, {"rental_uris": {"android": "https://dc.lft.to/lastmile_qr_scan", "ios": "https://dc.lft.to/lastmile_qr_scan"}, "lon": -77.0349835, "name": "2fee5dd2899028335ae72d0d7d8a02e3", "lat": 38.9286295, "is_reserved": 0, "fusion_lat": 0.0, "bike_id": "2fee5dd2899028335ae72d0d7d8a02e3", "type": "electric_scooter", "is_disabled": 0, "fusion_lon": 0.0}, {"rental_uris": {"android": "https://dc.lft.to/lastmile_qr_scan", "ios": "https://dc.lft.to/lastmile_qr_scan"}, "lon": -77.117351, "name": "5c8055ecef2fe5c303e038fa1bc2d320", "lat": 39.051168833333335, "is_reserved": 0, "fusion_lat": 0.0, "bike_id": "5c8055ecef2fe5c303e038fa1bc2d320", "type": "electric_bike", "is_disabled": 0, "fusion_lon": 0.0}, {"rental_uris": {"android": "https://dc.lft.to/lastmile_qr_scan", "ios": "https://dc.lft.to/lastmile_qr_scan"}, "lon": -76.98366933333334, "name": "5ec21d41773134d43ac0fe151a275c32", "lat": 38.86034133333333, "is_reserved": 0, "fusion_lat": 0.0, "bike_id": "5ec21d41773134d43ac0fe151a275c32", "type": "electric_scooter", "is_disabled": 0, "fusion_lon": 0.0}, {"rental_uris": {"android": "https://dc.lft.to/lastmile_qr_scan", "ios": "https://dc.lft.to/lastmile_qr_scan"}, "lon": -77.03997666666666, "name": "2276d3992b67addfa4a392c93bd5fdd2", "lat": 38.93357733333333, "is_reserved": 0, "fusion_lat": 0.0, "bike_id": "2276d3992b67addfa4a392c93bd5fdd2", "type": "electric_bike", "is_disabled": 0, "fusion_lon": 0.0}, {"rental_uris": {"android": "https://dc.lft.to/lastmile_qr_scan", "ios": "https://dc.lft.to/lastmile_qr_scan"}, "lon": -77.03662816666667, "name": "2c1ea19df7959fe185e3e1c767245e9b", "lat": 38.922445333333336, "is_reserved": 0, "fusion_lat": 0.0, "bike_id": "2c1ea19df7959fe185e3e1c767245e9b", "type": "electric_scooter", "is_disabled": 0, "fusion_lon": 0.0}, {"rental_uris": {"android": "https://dc.lft.to/lastmile_qr_scan", "ios": "https://dc.lft.to/lastmile_qr_scan"}, "lon": -76.96050266666667, "name": "afb5fea2ab081e7f0fc813f77b39110f", "lat": 38.884046833333336, "is_reserved": 0, "fusion_lat": 0.0, "bike_id": "afb5fea2ab081e7f0fc813f77b39110f", "type": "electric_bike", "is_disabled": 0, "fusion_lon": 0.0}, {"rental_uris": {"android": "https://dc.lft.to/lastmile_qr_scan", "ios": "https://dc.lft.to/lastmile_qr_scan"}, "lon": -77.026218, "name": "97203803db6e820f84b3257a9a0408f5", "lat": 38.93336383333333, "is_reserved": 0, "fusion_lat": 0.0, "bike_id": "97203803db6e820f84b3257a9a0408f5", "type": "electric_scooter", "is_disabled": 0, "fusion_lon": 0.0}, {"rental_uris": {"android": "https://dc.lft.to/lastmile_qr_scan", "ios": "https://dc.lft.to/lastmile_qr_scan"}, "lon": -77.02984066666667, "name": "2f4614dd30f3f0d0bb39d208a243ac68", "lat": 38.93110316666667, "is_reserved": 0, "fusion_lat": 0.0, "bike_id": "2f4614dd30f3f0d0bb39d208a243ac68", "type": "electric_scooter", "is_disabled": 0, "fusion_lon": 0.0}, {"rental_uris": {"android": "https://dc.lft.to/lastmile_qr_scan", "ios": "https://dc.lft.to/lastmile_qr_scan"}, "lon": -77.03200883333334, "name": "5bed422e70b6734b5080f4ac746dc53f", "lat": 38.921493, "is_reserved": 0, "fusion_lat": 0.0, "bike_id": "5bed422e70b6734b5080f4ac746dc53f", "type": "electric_scooter", "is_disabled": 0, "fusion_lon": 0.0}, {"rental_uris": {"android": "https://dc.lft.to/lastmile_qr_scan", "ios": "https://dc.lft.to/lastmile_qr_scan"}, "lon": -76.94639283333333, "name": "87de954af2840379fae333c4b2b8ec5c", "lat": 38.8985995, "is_reserved": 0, "fusion_lat": 0.0, "bike_id": "87de954af2840379fae333c4b2b8ec5c", "type": "electric_scooter", "is_disabled": 0, "fusion_lon": 0.0}, {"rental_uris": {"android": "https://dc.lft.to/lastmile_qr_scan", "ios": "https://dc.lft.to/lastmile_qr_scan"}, "lon": -77.0419935, "name": "f845485164ff571e868ea7ae70d8bf3c", "lat": 38.921004833333335, "is_reserved": 0, "fusion_lat": 0.0, "bike_id": "f845485164ff571e868ea7ae70d8bf3c", "type": "electric_scooter", "is_disabled": 0, "fusion_lon": 0.0}, {"rental_uris": {"android": "https://dc.lft.to/lastmile_qr_scan", "ios": "https://dc.lft.to/lastmile_qr_scan"}, "lon": -77.044787, "name": "71e8ebc7b14d5ccc5750636157a792d3", "lat": 38.918852, "is_reserved": 0, "fusion_lat": 0.0, "bike_id": "71e8ebc7b14d5ccc5750636157a792d3", "type": "electric_scooter", "is_disabled": 0, "fusion_lon": 0.0}, {"rental_uris": {"android": "https://dc.lft.to/lastmile_qr_scan", "ios": "https://dc.lft.to/lastmile_qr_scan"}, "lon": -77.0282465, "name": "01308d57044bf397b4651ca6e26614e6", "lat": 38.898585833333335, "is_reserved": 0, "fusion_lat": 0.0, "bike_id": "01308d57044bf397b4651ca6e26614e6", "type": "electric_scooter", "is_disabled": 0, "fusion_lon": 0.0}, {"rental_uris": {"android": "https://dc.lft.to/lastmile_qr_scan", "ios": "https://dc.lft.to/lastmile_qr_scan"}, "lon": -77.00600433333334, "name": "1593ff30742332577a8aa2e7662e57c8", "lat": 38.905492333333335, "is_reserved": 0, "fusion_lat": 0.0, "bike_id": "1593ff30742332577a8aa2e7662e57c8", "type": "electric_scooter", "is_disabled": 0, "fusion_lon": 0.0}, {"rental_uris": {"android": "https://dc.lft.to/lastmile_qr_scan", "ios": "https://dc.lft.to/lastmile_qr_scan"}, "lon": -77.002266, "name": "9b85f38a3134ceead92772acc00b8b74", "lat": 38.925089166666666, "is_reserved": 0, "fusion_lat": 0.0, "bike_id": "9b85f38a3134ceead92772acc00b8b74", "type": "electric_scooter", "is_disabled": 0, "fusion_lon": 0.0}, {"rental_uris": {"android": "https://dc.lft.to/lastmile_qr_scan", "ios": "https://dc.lft.to/lastmile_qr_scan"}, "lon": -76.97168533333334, "name": "4ffa3966cdf82e8d280a6e7f136c23a0", "lat": 38.86138916666667, "is_reserved": 0, "fusion_lat": 0.0, "bike_id": "4ffa3966cdf82e8d280a6e7f136c23a0", "type": "electric_scooter", "is_disabled": 0, "fusion_lon": 0.0}, {"rental_uris": {"android": "https://dc.lft.to/lastmile_qr_scan", "ios": "https://dc.lft.to/lastmile_qr_scan"}, "lon": -77.12523183333333, "name": "80a71bf24d8fbad2711bf1fea1398cdd", "lat": 39.0563355, "is_reserved": 0, "fusion_lat": 0.0, "bike_id": "80a71bf24d8fbad2711bf1fea1398cdd", "type": "electric_bike", "is_disabled": 0, "fusion_lon": 0.0}, {"rental_uris": {"android": "https://dc.lft.to/lastmile_qr_scan", "ios": "https://dc.lft.to/lastmile_qr_scan"}, "lon": -77.01502666666667, "name": "4c05432446198aaa315ead6ed466b12b", "lat": 38.890590333333336, "is_reserved": 0, "fusion_lat": 0.0, "bike_id": "4c05432446198aaa315ead6ed466b12b", "type": "electric_scooter", "is_disabled": 0, "fusion_lon": 0.0}, {"rental_uris": {"android": "https://dc.lft.to/lastmile_qr_scan", "ios": "https://dc.lft.to/lastmile_qr_scan"}, "lon": -77.04512183333334, "name": "a0f3e1967663b1505e749d0f7d1e8099", "lat": 38.89607733333333, "is_reserved": 0, "fusion_lat": 0.0, "bike_id": "a0f3e1967663b1505e749d0f7d1e8099", "type": "electric_scooter", "is_disabled": 0, "fusion_lon": 0.0}, {"rental_uris": {"android": "https://dc.lft.to/lastmile_qr_scan", "ios": "https://dc.lft.to/lastmile_qr_scan"}, "lon": -77.043758, "name": "f169ed44804b7d1e75304c80f3821ef3", "lat": 38.89220783333333, "is_reserved": 0, "fusion_lat": 0.0, "bike_id": "f169ed44804b7d1e75304c80f3821ef3", "type": "electric_scooter", "is_disabled": 0, "fusion_lon": 0.0}, {"rental_uris": {"android": "https://dc.lft.to/lastmile_qr_scan", "ios": "https://dc.lft.to/lastmile_qr_scan"}, "lon": -77.0285505, "name": "efa29acb0fa781e2922d5f0d89e0bd6a", "lat": 38.935928, "is_reserved": 0, "fusion_lat": 0.0, "bike_id": "efa29acb0fa781e2922d5f0d89e0bd6a", "type": "electric_scooter", "is_disabled": 0, "fusion_lon": 0.0}, {"rental_uris": {"android": "https://dc.lft.to/lastmile_qr_scan", "ios": "https://dc.lft.to/lastmile_qr_scan"}, "lon": -76.9990215, "name": "408a2a93c583bd6a8372f0bf9cdef866", "lat": 38.92458083333333, "is_reserved": 0, "fusion_lat": 0.0, "bike_id": "408a2a93c583bd6a8372f0bf9cdef866", "type": "electric_scooter", "is_disabled": 0, "fusion_lon": 0.0}, {"rental_uris": {"android": "https://dc.lft.to/lastmile_qr_scan", "ios": "https://dc.lft.to/lastmile_qr_scan"}, "lon": -77.03212433333333, "name": "fce0cad2206958eb7daec2c6f0a32113", "lat": 38.91969516666666, "is_reserved": 0, "fusion_lat": 0.0, "bike_id": "fce0cad2206958eb7daec2c6f0a32113", "type": "electric_scooter", "is_disabled": 0, "fusion_lon": 0.0}, {"rental_uris": {"android": "https://dc.lft.to/lastmile_qr_scan", "ios": "https://dc.lft.to/lastmile_qr_scan"}, "lon": -77.0394695, "name": "231120c1c094aa492bc4450496e1034e", "lat": 38.924663833333334, "is_reserved": 0, "fusion_lat": 0.0, "bike_id": "231120c1c094aa492bc4450496e1034e", "type": "electric_scooter", "is_disabled": 0, "fusion_lon": 0.0}, {"rental_uris": {"android": "https://dc.lft.to/lastmile_qr_scan", "ios": "https://dc.lft.to/lastmile_qr_scan"}, "lon": -77.02703783333334, "name": "13dcbf0a749de7f7109f9860f3ba4a98", "lat": 38.89728733333333, "is_reserved": 0, "fusion_lat": 0.0, "bike_id": "13dcbf0a749de7f7109f9860f3ba4a98", "type": "electric_scooter", "is_disabled": 0, "fusion_lon": 0.0}, {"rental_uris": {"android": "https://dc.lft.to/lastmile_qr_scan", "ios": "https://dc.lft.to/lastmile_qr_scan"}, "lon": -77.036199, "name": "191fd63ced03fdcb00d23ada696a0671", "lat": 38.93751783333333, "is_reserved": 0, "fusion_lat": 0.0, "bike_id": "191fd63ced03fdcb00d23ada696a0671", "type": "electric_scooter", "is_disabled": 0, "fusion_lon": 0.0}, {"rental_uris": {"android": "https://dc.lft.to/lastmile_qr_scan", "ios": "https://dc.lft.to/lastmile_qr_scan"}, "lon": -77.03212216666667, "name": "73e464651321f0a547e141eb2ab1f1ef", "lat": 38.92787116666667, "is_reserved": 0, "fusion_lat": 0.0, "bike_id": "73e464651321f0a547e141eb2ab1f1ef", "type": "electric_scooter", "is_disabled": 0, "fusion_lon": 0.0}, {"rental_uris": {"android": "https://dc.lft.to/lastmile_qr_scan", "ios": "https://dc.lft.to/lastmile_qr_scan"}, "lon": -77.02696016666667, "name": "c6f3916831667130c9e317e66cfc1554", "lat": 38.9068175, "is_reserved": 0, "fusion_lat": 0.0, "bike_id": "c6f3916831667130c9e317e66cfc1554", "type": "electric_scooter", "is_disabled": 0, "fusion_lon": 0.0}, {"rental_uris": {"android": "https://dc.lft.to/lastmile_qr_scan", "ios": "https://dc.lft.to/lastmile_qr_scan"}, "lon": -76.98904016666667, "name": "af2c75140a2a7bb6b5c45c05d08348cd", "lat": 38.90027166666667, "is_reserved": 0, "fusion_lat": 0.0, "bike_id": "af2c75140a2a7bb6b5c45c05d08348cd", "type": "electric_scooter", "is_disabled": 0, "fusion_lon": 0.0}, {"rental_uris": {"android": "https://dc.lft.to/lastmile_qr_scan", "ios": "https://dc.lft.to/lastmile_qr_scan"}, "lon": -77.05134366666667, "name": "32a304c5b7fa5e9d3d3e78b6e72d2546", "lat": 38.9252035, "is_reserved": 0, "fusion_lat": 0.0, "bike_id": "32a304c5b7fa5e9d3d3e78b6e72d2546", "type": "electric_scooter", "is_disabled": 0, "fusion_lon": 0.0}, {"rental_uris": {"android": "https://dc.lft.to/lastmile_qr_scan", "ios": "https://dc.lft.to/lastmile_qr_scan"}, "lon": -77.02811716666666, "name": "f1e816ec6828030bf0b28dbaea51ee73", "lat": 38.90934883333333, "is_reserved": 0, "fusion_lat": 0.0, "bike_id": "f1e816ec6828030bf0b28dbaea51ee73", "type": "electric_scooter", "is_disabled": 0, "fusion_lon": 0.0}, {"rental_uris": {"android": "https://dc.lft.to/lastmile_qr_scan", "ios": "https://dc.lft.to/lastmile_qr_scan"}, "lon": -77.011855, "name": "dbe8fd0efadde25db4315a55231dcb37", "lat": 38.900307833333336, "is_reserved": 0, "fusion_lat": 0.0, "bike_id": "dbe8fd0efadde25db4315a55231dcb37", "type": "electric_scooter", "is_disabled": 0, "fusion_lon": 0.0}, {"rental_uris": {"android": "https://dc.lft.to/lastmile_qr_scan", "ios": "https://dc.lft.to/lastmile_qr_scan"}, "lon": -76.9655635, "name": "8a55bf4842db8709af0fdd7bef406de9", "lat": 38.918421, "is_reserved": 0, "fusion_lat": 0.0, "bike_id": "8a55bf4842db8709af0fdd7bef406de9", "type": "electric_scooter", "is_disabled": 0, "fusion_lon": 0.0}, {"rental_uris": {"android": "https://dc.lft.to/lastmile_qr_scan", "ios": "https://dc.lft.to/lastmile_qr_scan"}, "lon": -77.00202616666667, "name": "69081f6400a1a511ccf8fece1a77958e", "lat": 38.911911833333335, "is_reserved": 0, "fusion_lat": 0.0, "bike_id": "69081f6400a1a511ccf8fece1a77958e", "type": "electric_scooter", "is_disabled": 0, "fusion_lon": 0.0}, {"rental_uris": {"android": "https://dc.lft.to/lastmile_qr_scan", "ios": "https://dc.lft.to/lastmile_qr_scan"}, "lon": -77.011851, "name": "67634fa6097a902df8c1c9e688f50155", "lat": 38.900302, "is_reserved": 0, "fusion_lat": 0.0, "bike_id": "67634fa6097a902df8c1c9e688f50155", "type": "electric_scooter", "is_disabled": 0, "fusion_lon": 0.0}, {"rental_uris": {"android": "https://dc.lft.to/lastmile_qr_scan", "ios": "https://dc.lft.to/lastmile_qr_scan"}, "lon": -77.03689616666666, "name": "8ffa677df2fb88f4c9156913d7995992", "lat": 38.918103333333335, "is_reserved": 0, "fusion_lat": 0.0, "bike_id": "8ffa677df2fb88f4c9156913d7995992", "type": "electric_scooter", "is_disabled": 0, "fusion_lon": 0.0}, {"rental_uris": {"android": "https://dc.lft.to/lastmile_qr_scan", "ios": "https://dc.lft.to/lastmile_qr_scan"}, "lon": -77.107849, "name": "2ea9e6ba08f6cec8113cbe7c04173508", "lat": 38.85248583333333, "is_reserved": 0, "fusion_lat": 0.0, "bike_id": "2ea9e6ba08f6cec8113cbe7c04173508", "type": "electric_bike", "is_disabled": 0, "fusion_lon": 0.0}, {"rental_uris": {"android": "https://dc.lft.to/lastmile_qr_scan", "ios": "https://dc.lft.to/lastmile_qr_scan"}, "lon": -77.02085683333334, "name": "8d589b6b26ccebfa36d57e222aaf94bb", "lat": 38.921534, "is_reserved": 0, "fusion_lat": 0.0, "bike_id": "8d589b6b26ccebfa36d57e222aaf94bb", "type": "electric_scooter", "is_disabled": 0, "fusion_lon": 0.0}, {"rental_uris": {"android": "https://dc.lft.to/lastmile_qr_scan", "ios": "https://dc.lft.to/lastmile_qr_scan"}, "lon": -76.99727866666667, "name": "b39f0495f8acf2324651ae54bc21dbe9", "lat": 38.8993265, "is_reserved": 0, "fusion_lat": 0.0, "bike_id": "b39f0495f8acf2324651ae54bc21dbe9", "type": "electric_scooter", "is_disabled": 0, "fusion_lon": 0.0}, {"rental_uris": {"android": "https://dc.lft.to/lastmile_qr_scan", "ios": "https://dc.lft.to/lastmile_qr_scan"}, "lon": -77.02396083333333, "name": "0b66f2a339208340d3ace1c5f962e24b", "lat": 38.919933, "is_reserved": 0, "fusion_lat": 0.0, "bike_id": "0b66f2a339208340d3ace1c5f962e24b", "type": "electric_scooter", "is_disabled": 0, "fusion_lon": 0.0}, {"rental_uris": {"android": "https://dc.lft.to/lastmile_qr_scan", "ios": "https://dc.lft.to/lastmile_qr_scan"}, "lon": -76.99133116666667, "name": "575ae0669fdc6ab62893b43215455f35", "lat": 38.8463925, "is_reserved": 0, "fusion_lat": 0.0, "bike_id": "575ae0669fdc6ab62893b43215455f35", "type": "electric_scooter", "is_disabled": 0, "fusion_lon": 0.0}, {"rental_uris": {"android": "https://dc.lft.to/lastmile_qr_scan", "ios": "https://dc.lft.to/lastmile_qr_scan"}, "lon": -77.02523216666667, "name": "a26397c9321f794a058116b4d8242f03", "lat": 38.924896333333336, "is_reserved": 0, "fusion_lat": 0.0, "bike_id": "a26397c9321f794a058116b4d8242f03", "type": "electric_scooter", "is_disabled": 0, "fusion_lon": 0.0}, {"rental_uris": {"android": "https://dc.lft.to/lastmile_qr_scan", "ios": "https://dc.lft.to/lastmile_qr_scan"}, "lon": -77.02637366666667, "name": "9e1475e014b01d72ce1ee84c5d4a1e12", "lat": 38.881096166666666, "is_reserved": 0, "fusion_lat": 0.0, "bike_id": "9e1475e014b01d72ce1ee84c5d4a1e12", "type": "electric_scooter", "is_disabled": 0, "fusion_lon": 0.0}, {"rental_uris": {"android": "https://dc.lft.to/lastmile_qr_scan", "ios": "https://dc.lft.to/lastmile_qr_scan"}, "lon": -77.081565, "name": "61e4067be3c0aee1c9b63e24f3185c19", "lat": 38.934914166666665, "is_reserved": 0, "fusion_lat": 0.0, "bike_id": "61e4067be3c0aee1c9b63e24f3185c19", "type": "electric_scooter", "is_disabled": 0, "fusion_lon": 0.0}, {"rental_uris": {"android": "https://dc.lft.to/lastmile_qr_scan", "ios": "https://dc.lft.to/lastmile_qr_scan"}, "lon": -77.02553716666667, "name": "533f421a3aef6416d9cb44acc86c80b9", "lat": 38.941633333333336, "is_reserved": 0, "fusion_lat": 0.0, "bike_id": "533f421a3aef6416d9cb44acc86c80b9", "type": "electric_scooter", "is_disabled": 0, "fusion_lon": 0.0}, {"rental_uris": {"android": "https://dc.lft.to/lastmile_qr_scan", "ios": "https://dc.lft.to/lastmile_qr_scan"}, "lon": -76.94636466666667, "name": "994cc688f46513594a49186cdab21760", "lat": 38.898345166666665, "is_reserved": 0, "fusion_lat": 0.0, "bike_id": "994cc688f46513594a49186cdab21760", "type": "electric_scooter", "is_disabled": 0, "fusion_lon": 0.0}, {"rental_uris": {"android": "https://dc.lft.to/lastmile_qr_scan", "ios": "https://dc.lft.to/lastmile_qr_scan"}, "lon": -76.985416, "name": "95e8e2c81846571750a42a21245fccf6", "lat": 38.866901, "is_reserved": 0, "fusion_lat": 0.0, "bike_id": "95e8e2c81846571750a42a21245fccf6", "type": "electric_scooter", "is_disabled": 0, "fusion_lon": 0.0}, {"rental_uris": {"android": "https://dc.lft.to/lastmile_qr_scan", "ios": "https://dc.lft.to/lastmile_qr_scan"}, "lon": -77.02485316666667, "name": "910c27a67a689ca0fb44d4a17aa59d98", "lat": 38.907313333333335, "is_reserved": 0, "fusion_lat": 0.0, "bike_id": "910c27a67a689ca0fb44d4a17aa59d98", "type": "electric_scooter", "is_disabled": 0, "fusion_lon": 0.0}, {"rental_uris": {"android": "https://dc.lft.to/lastmile_qr_scan", "ios": "https://dc.lft.to/lastmile_qr_scan"}, "lon": -77.01911666666666, "name": "847a307353ccae9e15866ef7d09cf421", "lat": 38.93774333333333, "is_reserved": 0, "fusion_lat": 0.0, "bike_id": "847a307353ccae9e15866ef7d09cf421", "type": "electric_bike", "is_disabled": 0, "fusion_lon": 0.0}, {"rental_uris": {"android": "https://dc.lft.to/lastmile_qr_scan", "ios": "https://dc.lft.to/lastmile_qr_scan"}, "lon": -77.01648666666667, "name": "c31d2afff52bb4b7a0f15da9f6e463a3", "lat": 38.88122933333333, "is_reserved": 0, "fusion_lat": 0.0, "bike_id": "c31d2afff52bb4b7a0f15da9f6e463a3", "type": "electric_scooter", "is_disabled": 0, "fusion_lon": 0.0}, {"rental_uris": {"android": "https://dc.lft.to/lastmile_qr_scan", "ios": "https://dc.lft.to/lastmile_qr_scan"}, "lon": -77.03092766666667, "name": "47a457d8d2f9218bb990b40c7e2162fc", "lat": 38.935423, "is_reserved": 0, "fusion_lat": 0.0, "bike_id": "47a457d8d2f9218bb990b40c7e2162fc", "type": "electric_scooter", "is_disabled": 0, "fusion_lon": 0.0}, {"rental_uris": {"android": "https://dc.lft.to/lastmile_qr_scan", "ios": "https://dc.lft.to/lastmile_qr_scan"}, "lon": -77.00924933333333, "name": "dc8f56ea6cea3b3c601691fe21dcfeb4", "lat": 38.907427, "is_reserved": 0, "fusion_lat": 0.0, "bike_id": "dc8f56ea6cea3b3c601691fe21dcfeb4", "type": "electric_scooter", "is_disabled": 0, "fusion_lon": 0.0}, {"rental_uris": {"android": "https://dc.lft.to/lastmile_qr_scan", "ios": "https://dc.lft.to/lastmile_qr_scan"}, "lon": -77.03127133333334, "name": "40da5cccb7d6fc9f80db850aac649f3e", "lat": 38.929688666666664, "is_reserved": 0, "fusion_lat": 0.0, "bike_id": "40da5cccb7d6fc9f80db850aac649f3e", "type": "electric_scooter", "is_disabled": 0, "fusion_lon": 0.0}, {"rental_uris": {"android": "https://dc.lft.to/lastmile_qr_scan", "ios": "https://dc.lft.to/lastmile_qr_scan"}, "lon": -76.99770733333334, "name": "2cd9dc03bb6ea61f28b658693ec858ac", "lat": 38.90892183333333, "is_reserved": 0, "fusion_lat": 0.0, "bike_id": "2cd9dc03bb6ea61f28b658693ec858ac", "type": "electric_scooter", "is_disabled": 0, "fusion_lon": 0.0}, {"rental_uris": {"android": "https://dc.lft.to/lastmile_qr_scan", "ios": "https://dc.lft.to/lastmile_qr_scan"}, "lon": -76.9951655, "name": "ee5251203b0df64e4b822e68c68ee9f0", "lat": 38.821789, "is_reserved": 0, "fusion_lat": 0.0, "bike_id": "ee5251203b0df64e4b822e68c68ee9f0", "type": "electric_bike", "is_disabled": 0, "fusion_lon": 0.0}, {"rental_uris": {"android": "https://dc.lft.to/lastmile_qr_scan", "ios": "https://dc.lft.to/lastmile_qr_scan"}, "lon": -76.9969355, "name": "00fb7d9c2f10832dcc1706e5b18b2997", "lat": 38.88432666666667, "is_reserved": 0, "fusion_lat": 0.0, "bike_id": "00fb7d9c2f10832dcc1706e5b18b2997", "type": "electric_scooter", "is_disabled": 0, "fusion_lon": 0.0}, {"rental_uris": {"android": "https://dc.lft.to/lastmile_qr_scan", "ios": "https://dc.lft.to/lastmile_qr_scan"}, "lon": -77.001832, "name": "b39275112f5697f3fe6796e39941dafa", "lat": 38.9119035, "is_reserved": 0, "fusion_lat": 0.0, "bike_id": "b39275112f5697f3fe6796e39941dafa", "type": "electric_scooter", "is_disabled": 0, "fusion_lon": 0.0}, {"rental_uris": {"android": "https://dc.lft.to/lastmile_qr_scan", "ios": "https://dc.lft.to/lastmile_qr_scan"}, "lon": -77.04436483333333, "name": "175d06336280858f9aba3fc76de4b59d", "lat": 38.90276433333333, "is_reserved": 0, "fusion_lat": 0.0, "bike_id": "175d06336280858f9aba3fc76de4b59d", "type": "electric_scooter", "is_disabled": 0, "fusion_lon": 0.0}, {"rental_uris": {"android": "https://dc.lft.to/lastmile_qr_scan", "ios": "https://dc.lft.to/lastmile_qr_scan"}, "lon": -77.032182, "name": "fa4c81659a44cbb650dc05b0958fd891", "lat": 38.921332, "is_reserved": 0, "fusion_lat": 0.0, "bike_id": "fa4c81659a44cbb650dc05b0958fd891", "type": "electric_scooter", "is_disabled": 0, "fusion_lon": 0.0}, {"rental_uris": {"android": "https://dc.lft.to/lastmile_qr_scan", "ios": "https://dc.lft.to/lastmile_qr_scan"}, "lon": -77.03283133333333, "name": "8464af4da1e720247a806ea43309a8b4", "lat": 38.940537666666664, "is_reserved": 0, "fusion_lat": 0.0, "bike_id": "8464af4da1e720247a806ea43309a8b4", "type": "electric_scooter", "is_disabled": 0, "fusion_lon": 0.0}, {"rental_uris": {"android": "https://dc.lft.to/lastmile_qr_scan", "ios": "https://dc.lft.to/lastmile_qr_scan"}, "lon": -77.07656333333334, "name": "e0c05b0740d58e0198af1125153c37d8", "lat": 38.935253833333334, "is_reserved": 0, "fusion_lat": 0.0, "bike_id": "e0c05b0740d58e0198af1125153c37d8", "type": "electric_scooter", "is_disabled": 0, "fusion_lon": 0.0}, {"rental_uris": {"android": "https://dc.lft.to/lastmile_qr_scan", "ios": "https://dc.lft.to/lastmile_qr_scan"}, "lon": -77.030733, "name": "321e614de093e23f1bf506a91dc46d33", "lat": 38.92673833333333, "is_reserved": 0, "fusion_lat": 0.0, "bike_id": "321e614de093e23f1bf506a91dc46d33", "type": "electric_scooter", "is_disabled": 0, "fusion_lon": 0.0}, {"rental_uris": {"android": "https://dc.lft.to/lastmile_qr_scan", "ios": "https://dc.lft.to/lastmile_qr_scan"}, "lon": -77.03328383333333, "name": "aa7c29e35bc6eaa4f72d5adbccd3e175", "lat": 38.914031333333334, "is_reserved": 0, "fusion_lat": 0.0, "bike_id": "aa7c29e35bc6eaa4f72d5adbccd3e175", "type": "electric_scooter", "is_disabled": 0, "fusion_lon": 0.0}, {"rental_uris": {"android": "https://dc.lft.to/lastmile_qr_scan", "ios": "https://dc.lft.to/lastmile_qr_scan"}, "lon": -77.03009183333333, "name": "4a2109be2678b5cdd4cef16401f908b2", "lat": 38.931163833333336, "is_reserved": 0, "fusion_lat": 0.0, "bike_id": "4a2109be2678b5cdd4cef16401f908b2", "type": "electric_scooter", "is_disabled": 0, "fusion_lon": 0.0}, {"rental_uris": {"android": "https://dc.lft.to/lastmile_qr_scan", "ios": "https://dc.lft.to/lastmile_qr_scan"}, "lon": -76.93475383333333, "name": "ef028a058677750b4e80de0d485e5a94", "lat": 38.89503116666667, "is_reserved": 0, "fusion_lat": 0.0, "bike_id": "ef028a058677750b4e80de0d485e5a94", "type": "electric_scooter", "is_disabled": 0, "fusion_lon": 0.0}, {"rental_uris": {"android": "https://dc.lft.to/lastmile_qr_scan", "ios": "https://dc.lft.to/lastmile_qr_scan"}, "lon": -77.02480316666667, "name": "d1c798152127cf93d4d515a99d91aae6", "lat": 38.920678, "is_reserved": 0, "fusion_lat": 0.0, "bike_id": "d1c798152127cf93d4d515a99d91aae6", "type": "electric_scooter", "is_disabled": 0, "fusion_lon": 0.0}, {"rental_uris": {"android": "https://dc.lft.to/lastmile_qr_scan", "ios": "https://dc.lft.to/lastmile_qr_scan"}, "lon": -76.94637016666667, "name": "7ae97410d7402f21ed2fec347d884e20", "lat": 38.898694, "is_reserved": 0, "fusion_lat": 0.0, "bike_id": "7ae97410d7402f21ed2fec347d884e20", "type": "electric_scooter", "is_disabled": 0, "fusion_lon": 0.0}, {"rental_uris": {"android": "https://dc.lft.to/lastmile_qr_scan", "ios": "https://dc.lft.to/lastmile_qr_scan"}, "lon": -77.03798416666666, "name": "16b64c685985f2dc95550c4c37155efe", "lat": 38.92080216666667, "is_reserved": 0, "fusion_lat": 0.0, "bike_id": "16b64c685985f2dc95550c4c37155efe", "type": "electric_scooter", "is_disabled": 0, "fusion_lon": 0.0}, {"rental_uris": {"android": "https://dc.lft.to/lastmile_qr_scan", "ios": "https://dc.lft.to/lastmile_qr_scan"}, "lon": -77.037006, "name": "2adf747ed08c1f4e6ada4864a2fa2999", "lat": 38.9278165, "is_reserved": 0, "fusion_lat": 0.0, "bike_id": "2adf747ed08c1f4e6ada4864a2fa2999", "type": "electric_scooter", "is_disabled": 0, "fusion_lon": 0.0}, {"rental_uris": {"android": "https://dc.lft.to/lastmile_qr_scan", "ios": "https://dc.lft.to/lastmile_qr_scan"}, "lon": -77.076981, "name": "879107ef6fbd045a66e7ec418d8ebaec", "lat": 38.9941875, "is_reserved": 0, "fusion_lat": 0.0, "bike_id": "879107ef6fbd045a66e7ec418d8ebaec", "type": "electric_bike", "is_disabled": 0, "fusion_lon": 0.0}, {"rental_uris": {"android": "https://dc.lft.to/lastmile_qr_scan", "ios": "https://dc.lft.to/lastmile_qr_scan"}, "lon": -77.02020183333333, "name": "2c29c0bd4aebfebaa1d8f79280798a1f", "lat": 38.884886333333334, "is_reserved": 0, "fusion_lat": 0.0, "bike_id": "2c29c0bd4aebfebaa1d8f79280798a1f", "type": "electric_scooter", "is_disabled": 0, "fusion_lon": 0.0}, {"rental_uris": {"android": "https://dc.lft.to/lastmile_qr_scan", "ios": "https://dc.lft.to/lastmile_qr_scan"}, "lon": -77.05692616666667, "name": "cd4efaa2acb67f5de90ca31d9fd9087f", "lat": 38.93330616666667, "is_reserved": 0, "fusion_lat": 0.0, "bike_id": "cd4efaa2acb67f5de90ca31d9fd9087f", "type": "electric_scooter", "is_disabled": 0, "fusion_lon": 0.0}, {"rental_uris": {"android": "https://dc.lft.to/lastmile_qr_scan", "ios": "https://dc.lft.to/lastmile_qr_scan"}, "lon": -77.029662, "name": "34451fa562d0351d271622600c859213", "lat": 38.917221, "is_reserved": 0, "fusion_lat": 0.0, "bike_id": "34451fa562d0351d271622600c859213", "type": "electric_scooter", "is_disabled": 0, "fusion_lon": 0.0}, {"rental_uris": {"android": "https://dc.lft.to/lastmile_qr_scan", "ios": "https://dc.lft.to/lastmile_qr_scan"}, "lon": -77.02408416666667, "name": "37e08d96f420a16c46c0ad79200fc371", "lat": 38.9311385, "is_reserved": 0, "fusion_lat": 0.0, "bike_id": "37e08d96f420a16c46c0ad79200fc371", "type": "electric_scooter", "is_disabled": 0, "fusion_lon": 0.0}, {"rental_uris": {"android": "https://dc.lft.to/lastmile_qr_scan", "ios": "https://dc.lft.to/lastmile_qr_scan"}, "lon": -76.934091, "name": "bbf22d01e60e837ce4b4dcc324c5e80d", "lat": 38.898946, "is_reserved": 0, "fusion_lat": 0.0, "bike_id": "bbf22d01e60e837ce4b4dcc324c5e80d", "type": "electric_scooter", "is_disabled": 0, "fusion_lon": 0.0}, {"rental_uris": {"android": "https://dc.lft.to/lastmile_qr_scan", "ios": "https://dc.lft.to/lastmile_qr_scan"}, "lon": -77.03462966666666, "name": "e75bd68ec3d5bc3465e5de0845c34cc8", "lat": 38.90576866666667, "is_reserved": 0, "fusion_lat": 0.0, "bike_id": "e75bd68ec3d5bc3465e5de0845c34cc8", "type": "electric_scooter", "is_disabled": 0, "fusion_lon": 0.0}, {"rental_uris": {"android": "https://dc.lft.to/lastmile_qr_scan", "ios": "https://dc.lft.to/lastmile_qr_scan"}, "lon": -77.02043166666667, "name": "50346d63219e9a743a8e78d6cc9234c0", "lat": 38.93648316666667, "is_reserved": 0, "fusion_lat": 0.0, "bike_id": "50346d63219e9a743a8e78d6cc9234c0", "type": "electric_scooter", "is_disabled": 0, "fusion_lon": 0.0}, {"rental_uris": {"android": "https://dc.lft.to/lastmile_qr_scan", "ios": "https://dc.lft.to/lastmile_qr_scan"}, "lon": -77.03373416666666, "name": "3033f9a6b9dc75b493af6a961a3d47db", "lat": 38.924441, "is_reserved": 0, "fusion_lat": 0.0, "bike_id": "3033f9a6b9dc75b493af6a961a3d47db", "type": "electric_scooter", "is_disabled": 0, "fusion_lon": 0.0}, {"rental_uris": {"android": "https://dc.lft.to/lastmile_qr_scan", "ios": "https://dc.lft.to/lastmile_qr_scan"}, "lon": -77.02249866666666, "name": "ed221e11a00ad09837963f2ea4523c88", "lat": 38.92274783333333, "is_reserved": 0, "fusion_lat": 0.0, "bike_id": "ed221e11a00ad09837963f2ea4523c88", "type": "electric_scooter", "is_disabled": 0, "fusion_lon": 0.0}, {"rental_uris": {"android": "https://dc.lft.to/lastmile_qr_scan", "ios": "https://dc.lft.to/lastmile_qr_scan"}, "lon": -76.98698466666667, "name": "b81a2a05176973a904f2f9bb52b6188b", "lat": 38.9003605, "is_reserved": 0, "fusion_lat": 0.0, "bike_id": "b81a2a05176973a904f2f9bb52b6188b", "type": "electric_scooter", "is_disabled": 0, "fusion_lon": 0.0}, {"rental_uris": {"android": "https://dc.lft.to/lastmile_qr_scan", "ios": "https://dc.lft.to/lastmile_qr_scan"}, "lon": -77.01145016666666, "name": "a37fa98ab6b1616e92c3f798dfe4e175", "lat": 38.906425666666664, "is_reserved": 0, "fusion_lat": 0.0, "bike_id": "a37fa98ab6b1616e92c3f798dfe4e175", "type": "electric_scooter", "is_disabled": 0, "fusion_lon": 0.0}, {"rental_uris": {"android": "https://dc.lft.to/lastmile_qr_scan", "ios": "https://dc.lft.to/lastmile_qr_scan"}, "lon": -77.0018365, "name": "846ba3ae539b657df1e6efe805d08d1c", "lat": 38.8221955, "is_reserved": 0, "fusion_lat": 0.0, "bike_id": "846ba3ae539b657df1e6efe805d08d1c", "type": "electric_scooter", "is_disabled": 0, "fusion_lon": 0.0}, {"rental_uris": {"android": "https://dc.lft.to/lastmile_qr_scan", "ios": "https://dc.lft.to/lastmile_qr_scan"}, "lon": -77.03154866666667, "name": "5ec0a45403de54d7e6b68ef6dc6636ef", "lat": 38.917060166666666, "is_reserved": 0, "fusion_lat": 0.0, "bike_id": "5ec0a45403de54d7e6b68ef6dc6636ef", "type": "electric_scooter", "is_disabled": 0, "fusion_lon": 0.0}, {"rental_uris": {"android": "https://dc.lft.to/lastmile_qr_scan", "ios": "https://dc.lft.to/lastmile_qr_scan"}, "lon": -77.01356483333333, "name": "50a17346799be7cb120753bf83e3f1a5", "lat": 38.91632583333333, "is_reserved": 0, "fusion_lat": 0.0, "bike_id": "50a17346799be7cb120753bf83e3f1a5", "type": "electric_scooter", "is_disabled": 0, "fusion_lon": 0.0}, {"rental_uris": {"android": "https://dc.lft.to/lastmile_qr_scan", "ios": "https://dc.lft.to/lastmile_qr_scan"}, "lon": -77.01891166666667, "name": "c01d45d5f7f6e50a46ea98b8d1f8765a", "lat": 38.904940833333335, "is_reserved": 0, "fusion_lat": 0.0, "bike_id": "c01d45d5f7f6e50a46ea98b8d1f8765a", "type": "electric_bike", "is_disabled": 0, "fusion_lon": 0.0}, {"rental_uris": {"android": "https://dc.lft.to/lastmile_qr_scan", "ios": "https://dc.lft.to/lastmile_qr_scan"}, "lon": -77.03119933333333, "name": "7846bcd0acaca296337a40950e04ac83", "lat": 38.91696616666667, "is_reserved": 0, "fusion_lat": 0.0, "bike_id": "7846bcd0acaca296337a40950e04ac83", "type": "electric_scooter", "is_disabled": 0, "fusion_lon": 0.0}, {"rental_uris": {"android": "https://dc.lft.to/lastmile_qr_scan", "ios": "https://dc.lft.to/lastmile_qr_scan"}, "lon": -77.0737315, "name": "19efd24f1643daef248809ea567038c0", "lat": 38.96186816666667, "is_reserved": 0, "fusion_lat": 0.0, "bike_id": "19efd24f1643daef248809ea567038c0", "type": "electric_bike", "is_disabled": 0, "fusion_lon": 0.0}, {"rental_uris": {"android": "https://dc.lft.to/lastmile_qr_scan", "ios": "https://dc.lft.to/lastmile_qr_scan"}, "lon": -77.04343883333334, "name": "175018bfe5e7f77dcfdcf71cae0a8602", "lat": 38.90408583333333, "is_reserved": 0, "fusion_lat": 0.0, "bike_id": "175018bfe5e7f77dcfdcf71cae0a8602", "type": "electric_scooter", "is_disabled": 0, "fusion_lon": 0.0}, {"rental_uris": {"android": "https://dc.lft.to/lastmile_qr_scan", "ios": "https://dc.lft.to/lastmile_qr_scan"}, "lon": -77.04514833333333, "name": "15671bc645c6d7e8c856f10d963e9c26", "lat": 38.89224183333333, "is_reserved": 0, "fusion_lat": 0.0, "bike_id": "15671bc645c6d7e8c856f10d963e9c26", "type": "electric_scooter", "is_disabled": 0, "fusion_lon": 0.0}, {"rental_uris": {"android": "https://dc.lft.to/lastmile_qr_scan", "ios": "https://dc.lft.to/lastmile_qr_scan"}, "lon": -77.02093083333334, "name": "741eeb03a5f3049399f1fb3239ce2674", "lat": 38.927059166666666, "is_reserved": 0, "fusion_lat": 0.0, "bike_id": "741eeb03a5f3049399f1fb3239ce2674", "type": "electric_scooter", "is_disabled": 0, "fusion_lon": 0.0}, {"rental_uris": {"android": "https://dc.lft.to/lastmile_qr_scan", "ios": "https://dc.lft.to/lastmile_qr_scan"}, "lon": -77.03838083333333, "name": "82ca538a9dbfb88793ee366b8426c9c2", "lat": 38.908523, "is_reserved": 0, "fusion_lat": 0.0, "bike_id": "82ca538a9dbfb88793ee366b8426c9c2", "type": "electric_scooter", "is_disabled": 0, "fusion_lon": 0.0}, {"rental_uris": {"android": "https://dc.lft.to/lastmile_qr_scan", "ios": "https://dc.lft.to/lastmile_qr_scan"}, "lon": -76.982011, "name": "ac11a3bf3afb73af9dda997cd902d1c4", "lat": 38.86601316666667, "is_reserved": 0, "fusion_lat": 0.0, "bike_id": "ac11a3bf3afb73af9dda997cd902d1c4", "type": "electric_scooter", "is_disabled": 0, "fusion_lon": 0.0}, {"rental_uris": {"android": "https://dc.lft.to/lastmile_qr_scan", "ios": "https://dc.lft.to/lastmile_qr_scan"}, "lon": -77.040156, "name": "0af24a2780f72ffa6b708724566fe2fe", "lat": 38.923879, "is_reserved": 0, "fusion_lat": 0.0, "bike_id": "0af24a2780f72ffa6b708724566fe2fe", "type": "electric_bike", "is_disabled": 0, "fusion_lon": 0.0}, {"rental_uris": {"android": "https://dc.lft.to/lastmile_qr_scan", "ios": "https://dc.lft.to/lastmile_qr_scan"}, "lon": -77.03335533333333, "name": "9f85f0e66a80dedfdbfe93e1f7899825", "lat": 38.9156005, "is_reserved": 0, "fusion_lat": 0.0, "bike_id": "9f85f0e66a80dedfdbfe93e1f7899825", "type": "electric_scooter", "is_disabled": 0, "fusion_lon": 0.0}, {"rental_uris": {"android": "https://dc.lft.to/lastmile_qr_scan", "ios": "https://dc.lft.to/lastmile_qr_scan"}, "lon": -77.043363, "name": "647cc64c56fccec51411b85d2eb95d20", "lat": 38.897343166666666, "is_reserved": 0, "fusion_lat": 0.0, "bike_id": "647cc64c56fccec51411b85d2eb95d20", "type": "electric_scooter", "is_disabled": 0, "fusion_lon": 0.0}, {"rental_uris": {"android": "https://dc.lft.to/lastmile_qr_scan", "ios": "https://dc.lft.to/lastmile_qr_scan"}, "lon": -77.03264083333333, "name": "1707905ff36160d624b630cf488c4df9", "lat": 38.939816, "is_reserved": 0, "fusion_lat": 0.0, "bike_id": "1707905ff36160d624b630cf488c4df9", "type": "electric_scooter", "is_disabled": 0, "fusion_lon": 0.0}, {"rental_uris": {"android": "https://dc.lft.to/lastmile_qr_scan", "ios": "https://dc.lft.to/lastmile_qr_scan"}, "lon": -77.016208, "name": "b231d2c1321ac26442de3920b0923aba", "lat": 38.956406333333334, "is_reserved": 0, "fusion_lat": 0.0, "bike_id": "b231d2c1321ac26442de3920b0923aba", "type": "electric_scooter", "is_disabled": 0, "fusion_lon": 0.0}, {"rental_uris": {"android": "https://dc.lft.to/lastmile_qr_scan", "ios": "https://dc.lft.to/lastmile_qr_scan"}, "lon": -77.02046116666666, "name": "c85584367c9d8b83a6da6286b7261c8e", "lat": 38.915580166666665, "is_reserved": 0, "fusion_lat": 0.0, "bike_id": "c85584367c9d8b83a6da6286b7261c8e", "type": "electric_scooter", "is_disabled": 0, "fusion_lon": 0.0}, {"rental_uris": {"android": "https://dc.lft.to/lastmile_qr_scan", "ios": "https://dc.lft.to/lastmile_qr_scan"}, "lon": -76.97668233333333, "name": "2ff1979080e3b8fe39789efffc5c334d", "lat": 38.840545166666665, "is_reserved": 0, "fusion_lat": 0.0, "bike_id": "2ff1979080e3b8fe39789efffc5c334d", "type": "electric_scooter", "is_disabled": 0, "fusion_lon": 0.0}, {"rental_uris": {"android": "https://dc.lft.to/lastmile_qr_scan", "ios": "https://dc.lft.to/lastmile_qr_scan"}, "lon": -77.0141505, "name": "47ede0b4180fc01d8fa6db8d4f409e29", "lat": 38.92801683333333, "is_reserved": 0, "fusion_lat": 0.0, "bike_id": "47ede0b4180fc01d8fa6db8d4f409e29", "type": "electric_scooter", "is_disabled": 0, "fusion_lon": 0.0}, {"rental_uris": {"android": "https://dc.lft.to/lastmile_qr_scan", "ios": "https://dc.lft.to/lastmile_qr_scan"}, "lon": -77.03965833333334, "name": "7ab2e5645fe9cbd85c00669830e81c3a", "lat": 38.919792666666666, "is_reserved": 0, "fusion_lat": 0.0, "bike_id": "7ab2e5645fe9cbd85c00669830e81c3a", "type": "electric_scooter", "is_disabled": 0, "fusion_lon": 0.0}, {"rental_uris": {"android": "https://dc.lft.to/lastmile_qr_scan", "ios": "https://dc.lft.to/lastmile_qr_scan"}, "lon": -76.93181366666667, "name": "ea240a79ba378f33fd88e8f7c7d767b7", "lat": 38.898337833333336, "is_reserved": 0, "fusion_lat": 0.0, "bike_id": "ea240a79ba378f33fd88e8f7c7d767b7", "type": "electric_scooter", "is_disabled": 0, "fusion_lon": 0.0}, {"rental_uris": {"android": "https://dc.lft.to/lastmile_qr_scan", "ios": "https://dc.lft.to/lastmile_qr_scan"}, "lon": -77.005323, "name": "59557d805bab429cea9936193aa5b4ff", "lat": 38.84646216666667, "is_reserved": 0, "fusion_lat": 0.0, "bike_id": "59557d805bab429cea9936193aa5b4ff", "type": "electric_scooter", "is_disabled": 0, "fusion_lon": 0.0}, {"rental_uris": {"android": "https://dc.lft.to/lastmile_qr_scan", "ios": "https://dc.lft.to/lastmile_qr_scan"}, "lon": -77.04118033333333, "name": "bff64baf18c578c796410371a173fe0e", "lat": 38.90370033333333, "is_reserved": 0, "fusion_lat": 0.0, "bike_id": "bff64baf18c578c796410371a173fe0e", "type": "electric_scooter", "is_disabled": 0, "fusion_lon": 0.0}, {"rental_uris": {"android": "https://dc.lft.to/lastmile_qr_scan", "ios": "https://dc.lft.to/lastmile_qr_scan"}, "lon": -77.0217965, "name": "597a853f0771ae1c2a7e2a0f1f4a490f", "lat": 38.919960833333334, "is_reserved": 0, "fusion_lat": 0.0, "bike_id": "597a853f0771ae1c2a7e2a0f1f4a490f", "type": "electric_scooter", "is_disabled": 0, "fusion_lon": 0.0}, {"rental_uris": {"android": "https://dc.lft.to/lastmile_qr_scan", "ios": "https://dc.lft.to/lastmile_qr_scan"}, "lon": -77.002631, "name": "e5c05608a9c16b2a3650e72084872a74", "lat": 38.894891666666666, "is_reserved": 0, "fusion_lat": 0.0, "bike_id": "e5c05608a9c16b2a3650e72084872a74", "type": "electric_scooter", "is_disabled": 0, "fusion_lon": 0.0}, {"rental_uris": {"android": "https://dc.lft.to/lastmile_qr_scan", "ios": "https://dc.lft.to/lastmile_qr_scan"}, "lon": -77.01980233333333, "name": "639d4d923424a8cce77fbfa6cee97aca", "lat": 38.963846833333335, "is_reserved": 0, "fusion_lat": 0.0, "bike_id": "639d4d923424a8cce77fbfa6cee97aca", "type": "electric_bike", "is_disabled": 0, "fusion_lon": 0.0}, {"rental_uris": {"android": "https://dc.lft.to/lastmile_qr_scan", "ios": "https://dc.lft.to/lastmile_qr_scan"}, "lon": -77.046212, "name": "fc1214752a47e586f86b5192ea411d9e", "lat": 38.89752383333333, "is_reserved": 0, "fusion_lat": 0.0, "bike_id": "fc1214752a47e586f86b5192ea411d9e", "type": "electric_scooter", "is_disabled": 0, "fusion_lon": 0.0}, {"rental_uris": {"android": "https://dc.lft.to/lastmile_qr_scan", "ios": "https://dc.lft.to/lastmile_qr_scan"}, "lon": -77.0473965, "name": "c751999130788eb18bbcfebc06345d91", "lat": 38.90866483333333, "is_reserved": 0, "fusion_lat": 0.0, "bike_id": "c751999130788eb18bbcfebc06345d91", "type": "electric_scooter", "is_disabled": 0, "fusion_lon": 0.0}, {"rental_uris": {"android": "https://dc.lft.to/lastmile_qr_scan", "ios": "https://dc.lft.to/lastmile_qr_scan"}, "lon": -77.02852033333333, "name": "96261faab539f2b06cb5b3f056e97e50", "lat": 38.893482666666664, "is_reserved": 0, "fusion_lat": 0.0, "bike_id": "96261faab539f2b06cb5b3f056e97e50", "type": "electric_scooter", "is_disabled": 0, "fusion_lon": 0.0}, {"rental_uris": {"android": "https://dc.lft.to/lastmile_qr_scan", "ios": "https://dc.lft.to/lastmile_qr_scan"}, "lon": -77.03835916666667, "name": "ed6d837edfc4a7949cf1ff88842d696b", "lat": 38.9418995, "is_reserved": 0, "fusion_lat": 0.0, "bike_id": "ed6d837edfc4a7949cf1ff88842d696b", "type": "electric_scooter", "is_disabled": 0, "fusion_lon": 0.0}, {"rental_uris": {"android": "https://dc.lft.to/lastmile_qr_scan", "ios": "https://dc.lft.to/lastmile_qr_scan"}, "lon": -77.008183, "name": "c7b885fe93188de9f670b852281bf66b", "lat": 38.90257966666667, "is_reserved": 0, "fusion_lat": 0.0, "bike_id": "c7b885fe93188de9f670b852281bf66b", "type": "electric_scooter", "is_disabled": 0, "fusion_lon": 0.0}, {"rental_uris": {"android": "https://dc.lft.to/lastmile_qr_scan", "ios": "https://dc.lft.to/lastmile_qr_scan"}, "lon": -77.047082, "name": "e01d75468412b9595090c18d5dfbb541", "lat": 38.921797, "is_reserved": 0, "fusion_lat": 0.0, "bike_id": "e01d75468412b9595090c18d5dfbb541", "type": "electric_scooter", "is_disabled": 0, "fusion_lon": 0.0}, {"rental_uris": {"android": "https://dc.lft.to/lastmile_qr_scan", "ios": "https://dc.lft.to/lastmile_qr_scan"}, "lon": -77.01845033333333, "name": "083ffb99fe4df016d20ae02034d1b83f", "lat": 38.93099866666667, "is_reserved": 0, "fusion_lat": 0.0, "bike_id": "083ffb99fe4df016d20ae02034d1b83f", "type": "electric_bike", "is_disabled": 0, "fusion_lon": 0.0}, {"rental_uris": {"android": "https://dc.lft.to/lastmile_qr_scan", "ios": "https://dc.lft.to/lastmile_qr_scan"}, "lon": -77.03674966666667, "name": "4a508040f4c8de913b4ce46a97c80b22", "lat": 38.922916, "is_reserved": 0, "fusion_lat": 0.0, "bike_id": "4a508040f4c8de913b4ce46a97c80b22", "type": "electric_scooter", "is_disabled": 0, "fusion_lon": 0.0}, {"rental_uris": {"android": "https://dc.lft.to/lastmile_qr_scan", "ios": "https://dc.lft.to/lastmile_qr_scan"},