{"data": {"bikes": [{"is_disabled": 0, "is_reserved": 0, "fusion_lat": 0.0, "lat": 38.922648, "fusion_lon": 0.0, "rental_uris": {"ios": "https://dc.lft.to/lastmile_qr_scan", "android": "https://dc.lft.to/lastmile_qr_scan"}, "lon": -77.01855216666667, "bike_id": "92da51bbb9e99c8a0edb8e3014ef879d", "type": "electric_scooter", "name": "92da51bbb9e99c8a0edb8e3014ef879d"}, {"is_disabled": 0, "is_reserved": 0, "fusion_lat": 0.0, "lat": 38.88658, "fusion_lon": 0.0, "rental_uris": {"ios": "https://dc.lft.to/lastmile_qr_scan", "android": "https://dc.lft.to/lastmile_qr_scan"}, "lon": -77.16228983333333, "bike_id": "3d1ecabda9db048ca7d3cc724a05e7bd", "type": "electric_bike", "name": "3d1ecabda9db048ca7d3cc724a05e7bd"}, {"is_disabled": 0, "is_reserved": 0, "fusion_lat": 0.0, "lat": 38.912681, "fusion_lon": 0.0, "rental_uris": {"ios": "https://dc.lft.to/lastmile_qr_scan", "android": "https://dc.lft.to/lastmile_qr_scan"}, "lon": -77.04551283333333, "bike_id": "42a4f8058f6779bbc9e8da0e19964f82", "type": "electric_scooter", "name": "42a4f8058f6779bbc9e8da0e19964f82"}, {"is_disabled": 0, "is_reserved": 0, "fusion_lat": 0.0, "lat": 38.9065695, "fusion_lon": 0.0, "rental_uris": {"ios": "https://dc.lft.to/lastmile_qr_scan", "android": "https://dc.lft.to/lastmile_qr_scan"}, "lon": -77.05307683333334, "bike_id": "f0869db16a847f7ac3790f65188bb4e4", "type": "electric_scooter", "name": "f0869db16a847f7ac3790f65188bb4e4"}, {"is_disabled": 0, "is_reserved": 0, "fusion_lat": 0.0, "lat": 38.92155833333333, "fusion_lon": 0.0, "rental_uris": {"ios": "https://dc.lft.to/lastmile_qr_scan", "android": "https://dc.lft.to/lastmile_qr_scan"}, "lon": -77.03379016666666, "bike_id": "5abad5649a4eeb4934429994f94c8ddb", "type": "electric_scooter", "name": "5abad5649a4eeb4934429994f94c8ddb"}, {"is_disabled": 0, "is_reserved": 0, "fusion_lat": 0.0, "lat": 38.941013833333336, "fusion_lon": 0.0, "rental_uris": {"ios": "https://dc.lft.to/lastmile_qr_scan", "android": "https://dc.lft.to/lastmile_qr_scan"}, "lon": -76.9562465, "bike_id": "324ab74da06105ccd1ba7bf712ba14e2", "type": "electric_bike", "name": "324ab74da06105ccd1ba7bf712ba14e2"}, {"is_disabled": 0, "is_reserved": 0, "fusion_lat": 0.0, "lat": 38.9676645, "fusion_lon": 0.0, "rental_uris": {"ios": "https://dc.lft.to/lastmile_qr_scan", "android": "https://dc.lft.to/lastmile_qr_scan"}, "lon": -77.03424583333333, "bike_id": "b6f803f825a81ef708837b3dfdd591c3", "type": "electric_scooter", "name": "b6f803f825a81ef708837b3dfdd591c3"}, {"is_disabled": 0, "is_reserved": 0, "fusion_lat": 0.0, "lat": 38.92779683333333, "fusion_lon": 0.0, "rental_uris": {"ios": "https://dc.lft.to/lastmile_qr_scan", "android": "https://dc.lft.to/lastmile_qr_scan"}, "lon": -77.052633, "bike_id": "d67452bcf50edee4fec8da5ba0f736fb", "type": "electric_scooter", "name": "d67452bcf50edee4fec8da5ba0f736fb"}, {"is_disabled": 0, "is_reserved": 0, "fusion_lat": 0.0, "lat": 38.91263516666667, "fusion_lon": 0.0, "rental_uris": {"ios": "https://dc.lft.to/lastmile_qr_scan", "android": "https://dc.lft.to/lastmile_qr_scan"}, "lon": -77.03140316666666, "bike_id": "a3912268a39ecf87ac25b49cb9a028c8", "type": "electric_scooter", "name": "a3912268a39ecf87ac25b49cb9a028c8"}, {"is_disabled": 0, "is_reserved": 0, "fusion_lat": 0.0, "lat": 38.90776316666667, "fusion_lon": 0.0, "rental_uris": {"ios": "https://dc.lft.to/lastmile_qr_scan", "android": "https://dc.lft.to/lastmile_qr_scan"}, "lon": -77.03543916666666, "bike_id": "3e3cc8228dca461304827c5ae0835bb2", "type": "electric_scooter", "name": "3e3cc8228dca461304827c5ae0835bb2"}, {"is_disabled": 0, "is_reserved": 0, "fusion_lat": 0.0, "lat": 38.863677, "fusion_lon": 0.0, "rental_uris": {"ios": "https://dc.lft.to/lastmile_qr_scan", "android": "https://dc.lft.to/lastmile_qr_scan"}, "lon": -77.01367633333334, "bike_id": "df021fe0063a8832a5a2f4f2d4946bfd", "type": "electric_scooter", "name": "df021fe0063a8832a5a2f4f2d4946bfd"}, {"is_disabled": 0, "is_reserved": 0, "fusion_lat": 0.0, "lat": 38.892301, "fusion_lon": 0.0, "rental_uris": {"ios": "https://dc.lft.to/lastmile_qr_scan", "android": "https://dc.lft.to/lastmile_qr_scan"}, "lon": -77.04650783333334, "bike_id": "ac3e71c4fc18741f298ebb5a007544d1", "type": "electric_scooter", "name": "ac3e71c4fc18741f298ebb5a007544d1"}, {"is_disabled": 0, "is_reserved": 0, "fusion_lat": 0.0, "lat": 38.89882633333333, "fusion_lon": 0.0, "rental_uris": {"ios": "https://dc.lft.to/lastmile_qr_scan", "android": "https://dc.lft.to/lastmile_qr_scan"}, "lon": -76.9317715, "bike_id": "e95bc0c05b1fcfbc8ad6ef6db5c219b2", "type": "electric_scooter", "name": "e95bc0c05b1fcfbc8ad6ef6db5c219b2"}, {"is_disabled": 0, "is_reserved": 0, "fusion_lat": 0.0, "lat": 38.908689, "fusion_lon": 0.0, "rental_uris": {"ios": "https://dc.lft.to/lastmile_qr_scan", "android": "https://dc.lft.to/lastmile_qr_scan"}, "lon": -77.03220016666667, "bike_id": "87ac8bb54186362dfe50dd87eda906a3", "type": "electric_scooter", "name": "87ac8bb54186362dfe50dd87eda906a3"}, {"is_disabled": 0, "is_reserved": 0, "fusion_lat": 0.0, "lat": 38.8922215, "fusion_lon": 0.0, "rental_uris": {"ios": "https://dc.lft.to/lastmile_qr_scan", "android": "https://dc.lft.to/lastmile_qr_scan"}, "lon": -77.0465795, "bike_id": "349b0e4a19fd90e30b812b4c6043bf8b", "type": "electric_scooter", "name": "349b0e4a19fd90e30b812b4c6043bf8b"}, {"is_disabled": 0, "is_reserved": 0, "fusion_lat": 0.0, "lat": 38.89269766666666, "fusion_lon": 0.0, "rental_uris": {"ios": "https://dc.lft.to/lastmile_qr_scan", "android": "https://dc.lft.to/lastmile_qr_scan"}, "lon": -77.04656316666667, "bike_id": "aaac1478e4957456081306c50b12df41", "type": "electric_scooter", "name": "aaac1478e4957456081306c50b12df41"}, {"is_disabled": 0, "is_reserved": 0, "fusion_lat": 0.0, "lat": 38.9043215, "fusion_lon": 0.0, "rental_uris": {"ios": "https://dc.lft.to/lastmile_qr_scan", "android": "https://dc.lft.to/lastmile_qr_scan"}, "lon": -77.03456866666667, "bike_id": "08f789349b9c0d0c08c6402ddf60ef89", "type": "electric_scooter", "name": "08f789349b9c0d0c08c6402ddf60ef89"}, {"is_disabled": 0, "is_reserved": 0, "fusion_lat": 0.0, "lat": 38.9105425, "fusion_lon": 0.0, "rental_uris": {"ios": "https://dc.lft.to/lastmile_qr_scan", "android": "https://dc.lft.to/lastmile_qr_scan"}, "lon": -77.060965, "bike_id": "34fd3c560655408f465836f1c6ab8352", "type": "electric_scooter", "name": "34fd3c560655408f465836f1c6ab8352"}, {"is_disabled": 0, "is_reserved": 0, "fusion_lat": 0.0, "lat": 38.90988633333333, "fusion_lon": 0.0, "rental_uris": {"ios": "https://dc.lft.to/lastmile_qr_scan", "android": "https://dc.lft.to/lastmile_qr_scan"}, "lon": -77.03657966666667, "bike_id": "386cf1edec00fe5f9150584545b0012c", "type": "electric_scooter", "name": "386cf1edec00fe5f9150584545b0012c"}, {"is_disabled": 0, "is_reserved": 0, "fusion_lat": 0.0, "lat": 38.927231166666665, "fusion_lon": 0.0, "rental_uris": {"ios": "https://dc.lft.to/lastmile_qr_scan", "android": "https://dc.lft.to/lastmile_qr_scan"}, "lon": -77.051399, "bike_id": "b1c0b8bf128967d22f2ec3e324d77c52", "type": "electric_scooter", "name": "b1c0b8bf128967d22f2ec3e324d77c52"}, {"is_disabled": 0, "is_reserved": 0, "fusion_lat": 0.0, "lat": 38.855133, "fusion_lon": 0.0, "rental_uris": {"ios": "https://dc.lft.to/lastmile_qr_scan", "android": "https://dc.lft.to/lastmile_qr_scan"}, "lon": -77.10153, "bike_id": "5049a92707514208e6014cb9280d484d", "type": "electric_bike", "name": "5049a92707514208e6014cb9280d484d"}, {"is_disabled": 0, "is_reserved": 0, "fusion_lat": 0.0, "lat": 38.918199333333334, "fusion_lon": 0.0, "rental_uris": {"ios": "https://dc.lft.to/lastmile_qr_scan", "android": "https://dc.lft.to/lastmile_qr_scan"}, "lon": -77.01211416666666, "bike_id": "c5f2eba7e61139f7aadf00834fd22c6e", "type": "electric_scooter", "name": "c5f2eba7e61139f7aadf00834fd22c6e"}, {"is_disabled": 0, "is_reserved": 0, "fusion_lat": 0.0, "lat": 38.89056083333333, "fusion_lon": 0.0, "rental_uris": {"ios": "https://dc.lft.to/lastmile_qr_scan", "android": "https://dc.lft.to/lastmile_qr_scan"}, "lon": -77.02666133333334, "bike_id": "f99159f3eb4090d0e785937984dcbe9b", "type": "electric_bike", "name": "f99159f3eb4090d0e785937984dcbe9b"}, {"is_disabled": 0, "is_reserved": 0, "fusion_lat": 0.0, "lat": 38.85799433333333, "fusion_lon": 0.0, "rental_uris": {"ios": "https://dc.lft.to/lastmile_qr_scan", "android": "https://dc.lft.to/lastmile_qr_scan"}, "lon": -76.98747866666666, "bike_id": "51ca7c8f0fd7160a0373c8998cea6935", "type": "electric_bike", "name": "51ca7c8f0fd7160a0373c8998cea6935"}, {"is_disabled": 0, "is_reserved": 0, "fusion_lat": 0.0, "lat": 38.902336, "fusion_lon": 0.0, "rental_uris": {"ios": "https://dc.lft.to/lastmile_qr_scan", "android": "https://dc.lft.to/lastmile_qr_scan"}, "lon": -77.03471966666666, "bike_id": "23630622322c3a7f243c89653abfa79c", "type": "electric_scooter", "name": "23630622322c3a7f243c89653abfa79c"}, {"is_disabled": 0, "is_reserved": 0, "fusion_lat": 0.0, "lat": 38.9268425, "fusion_lon": 0.0, "rental_uris": {"ios": "https://dc.lft.to/lastmile_qr_scan", "android": "https://dc.lft.to/lastmile_qr_scan"}, "lon": -77.00856733333333, "bike_id": "698f3dceef30b9c7b443d8f86ddbf967", "type": "electric_scooter", "name": "698f3dceef30b9c7b443d8f86ddbf967"}, {"is_disabled": 0, "is_reserved": 0, "fusion_lat": 0.0, "lat": 39.026243666666666, "fusion_lon": 0.0, "rental_uris": {"ios": "https://dc.lft.to/lastmile_qr_scan", "android": "https://dc.lft.to/lastmile_qr_scan"}, "lon": -77.03878533333334, "bike_id": "141303ca14aa7dfb04dd78a181341342", "type": "electric_bike", "name": "141303ca14aa7dfb04dd78a181341342"}, {"is_disabled": 0, "is_reserved": 0, "fusion_lat": 0.0, "lat": 38.90719166666667, "fusion_lon": 0.0, "rental_uris": {"ios": "https://dc.lft.to/lastmile_qr_scan", "android": "https://dc.lft.to/lastmile_qr_scan"}, "lon": -77.032045, "bike_id": "390c225dd43288014134c492f5dffb7d", "type": "electric_scooter", "name": "390c225dd43288014134c492f5dffb7d"}, {"is_disabled": 0, "is_reserved": 0, "fusion_lat": 0.0, "lat": 38.907320666666664, "fusion_lon": 0.0, "rental_uris": {"ios": "https://dc.lft.to/lastmile_qr_scan", "android": "https://dc.lft.to/lastmile_qr_scan"}, "lon": -77.00059283333333, "bike_id": "ad0a008045d9fda292be83145283c1d2", "type": "electric_scooter", "name": "ad0a008045d9fda292be83145283c1d2"}, {"is_disabled": 0, "is_reserved": 0, "fusion_lat": 0.0, "lat": 38.907272, "fusion_lon": 0.0, "rental_uris": {"ios": "https://dc.lft.to/lastmile_qr_scan", "android": "https://dc.lft.to/lastmile_qr_scan"}, "lon": -77.0350775, "bike_id": "709751f3b12d61f35a3a1f97cbdad184", "type": "electric_scooter", "name": "709751f3b12d61f35a3a1f97cbdad184"}, {"is_disabled": 0, "is_reserved": 0, "fusion_lat": 0.0, "lat": 38.905154833333334, "fusion_lon": 0.0, "rental_uris": {"ios": "https://dc.lft.to/lastmile_qr_scan", "android": "https://dc.lft.to/lastmile_qr_scan"}, "lon": -77.04840383333334, "bike_id": "07f327b1aa0c4d595a593450fc71928e", "type": "electric_scooter", "name": "07f327b1aa0c4d595a593450fc71928e"}, {"is_disabled": 0, "is_reserved": 0, "fusion_lat": 0.0, "lat": 38.92104283333333, "fusion_lon": 0.0, "rental_uris": {"ios": "https://dc.lft.to/lastmile_qr_scan", "android": "https://dc.lft.to/lastmile_qr_scan"}, "lon": -76.9940035, "bike_id": "33784c6091f7f3d87f3d999670faf550", "type": "electric_scooter", "name": "33784c6091f7f3d87f3d999670faf550"}, {"is_disabled": 0, "is_reserved": 0, "fusion_lat": 0.0, "lat": 38.914010833333336, "fusion_lon": 0.0, "rental_uris": {"ios": "https://dc.lft.to/lastmile_qr_scan", "android": "https://dc.lft.to/lastmile_qr_scan"}, "lon": -77.010609, "bike_id": "2a788b21701242b6a96843de0c3500b7", "type": "electric_scooter", "name": "2a788b21701242b6a96843de0c3500b7"}, {"is_disabled": 0, "is_reserved": 0, "fusion_lat": 0.0, "lat": 38.931135166666664, "fusion_lon": 0.0, "rental_uris": {"ios": "https://dc.lft.to/lastmile_qr_scan", "android": "https://dc.lft.to/lastmile_qr_scan"}, "lon": -77.03837733333333, "bike_id": "473962c786d34c27823f0f0b40c1d52b", "type": "electric_scooter", "name": "473962c786d34c27823f0f0b40c1d52b"}, {"is_disabled": 0, "is_reserved": 0, "fusion_lat": 0.0, "lat": 38.882958333333335, "fusion_lon": 0.0, "rental_uris": {"ios": "https://dc.lft.to/lastmile_qr_scan", "android": "https://dc.lft.to/lastmile_qr_scan"}, "lon": -76.98613233333333, "bike_id": "a7b7ccdf65c4186cb159539169d3dd05", "type": "electric_scooter", "name": "a7b7ccdf65c4186cb159539169d3dd05"}, {"is_disabled": 0, "is_reserved": 0, "fusion_lat": 0.0, "lat": 38.868164, "fusion_lon": 0.0, "rental_uris": {"ios": "https://dc.lft.to/lastmile_qr_scan", "android": "https://dc.lft.to/lastmile_qr_scan"}, "lon": -76.98020366666667, "bike_id": "b378ef43713cf8d8821f877c3e2d3728", "type": "electric_bike", "name": "b378ef43713cf8d8821f877c3e2d3728"}, {"is_disabled": 0, "is_reserved": 0, "fusion_lat": 0.0, "lat": 38.92339716666667, "fusion_lon": 0.0, "rental_uris": {"ios": "https://dc.lft.to/lastmile_qr_scan", "android": "https://dc.lft.to/lastmile_qr_scan"}, "lon": -77.056173, "bike_id": "005b5df4a1836ed2075141bb0ab27972", "type": "electric_scooter", "name": "005b5df4a1836ed2075141bb0ab27972"}, {"is_disabled": 0, "is_reserved": 0, "fusion_lat": 0.0, "lat": 38.92056616666667, "fusion_lon": 0.0, "rental_uris": {"ios": "https://dc.lft.to/lastmile_qr_scan", "android": "https://dc.lft.to/lastmile_qr_scan"}, "lon": -77.03297, "bike_id": "797a9e2ccc848b4e91e181d300c15d8a", "type": "electric_scooter", "name": "797a9e2ccc848b4e91e181d300c15d8a"}, {"is_disabled": 0, "is_reserved": 0, "fusion_lat": 0.0, "lat": 38.8879325, "fusion_lon": 0.0, "rental_uris": {"ios": "https://dc.lft.to/lastmile_qr_scan", "android": "https://dc.lft.to/lastmile_qr_scan"}, "lon": -77.04872783333333, "bike_id": "6311f1560d6ccd2b42c1624985e8d670", "type": "electric_scooter", "name": "6311f1560d6ccd2b42c1624985e8d670"}, {"is_disabled": 0, "is_reserved": 0, "fusion_lat": 0.0, "lat": 38.91652366666667, "fusion_lon": 0.0, "rental_uris": {"ios": "https://dc.lft.to/lastmile_qr_scan", "android": "https://dc.lft.to/lastmile_qr_scan"}, "lon": -77.02402333333333, "bike_id": "489bc6903094d449ac7853407ebe32be", "type": "electric_scooter", "name": "489bc6903094d449ac7853407ebe32be"}, {"is_disabled": 0, "is_reserved": 0, "fusion_lat": 0.0, "lat": 38.886214833333334, "fusion_lon": 0.0, "rental_uris": {"ios": "https://dc.lft.to/lastmile_qr_scan", "android": "https://dc.lft.to/lastmile_qr_scan"}, "lon": -77.02838566666667, "bike_id": "099ad6543aca07246cec85bd9c36a978", "type": "electric_scooter", "name": "099ad6543aca07246cec85bd9c36a978"}, {"is_disabled": 0, "is_reserved": 0, "fusion_lat": 0.0, "lat": 38.93863233333333, "fusion_lon": 0.0, "rental_uris": {"ios": "https://dc.lft.to/lastmile_qr_scan", "android": "https://dc.lft.to/lastmile_qr_scan"}, "lon": -77.03164816666667, "bike_id": "f7896bd9eda708dbe30c104d90be0821", "type": "electric_scooter", "name": "f7896bd9eda708dbe30c104d90be0821"}, {"is_disabled": 0, "is_reserved": 0, "fusion_lat": 0.0, "lat": 38.8707085, "fusion_lon": 0.0, "rental_uris": {"ios": "https://dc.lft.to/lastmile_qr_scan", "android": "https://dc.lft.to/lastmile_qr_scan"}, "lon": -77.1102645, "bike_id": "39555b5e1d8d7fecbb22e93bb962946e", "type": "electric_bike", "name": "39555b5e1d8d7fecbb22e93bb962946e"}, {"is_disabled": 0, "is_reserved": 0, "fusion_lat": 0.0, "lat": 38.87901166666666, "fusion_lon": 0.0, "rental_uris": {"ios": "https://dc.lft.to/lastmile_qr_scan", "android": "https://dc.lft.to/lastmile_qr_scan"}, "lon": -77.00851416666667, "bike_id": "47f4b6e018526ebff572b98c84e2d1a3", "type": "electric_scooter", "name": "47f4b6e018526ebff572b98c84e2d1a3"}, {"is_disabled": 0, "is_reserved": 0, "fusion_lat": 0.0, "lat": 38.89670783333333, "fusion_lon": 0.0, "rental_uris": {"ios": "https://dc.lft.to/lastmile_qr_scan", "android": "https://dc.lft.to/lastmile_qr_scan"}, "lon": -76.93207933333333, "bike_id": "21f4177b5bf0dffac642a203625a6d40", "type": "electric_scooter", "name": "21f4177b5bf0dffac642a203625a6d40"}, {"is_disabled": 0, "is_reserved": 0, "fusion_lat": 0.0, "lat": 38.915496166666664, "fusion_lon": 0.0, "rental_uris": {"ios": "https://dc.lft.to/lastmile_qr_scan", "android": "https://dc.lft.to/lastmile_qr_scan"}, "lon": -77.02695816666666, "bike_id": "8a2eb3bea3394971ad1b870394ec3e32", "type": "electric_scooter", "name": "8a2eb3bea3394971ad1b870394ec3e32"}, {"is_disabled": 0, "is_reserved": 0, "fusion_lat": 0.0, "lat": 38.842750833333334, "fusion_lon": 0.0, "rental_uris": {"ios": "https://dc.lft.to/lastmile_qr_scan", "android": "https://dc.lft.to/lastmile_qr_scan"}, "lon": -76.988376, "bike_id": "fea94f643575ff0b4385c40667c583ce", "type": "electric_scooter", "name": "fea94f643575ff0b4385c40667c583ce"}, {"is_disabled": 0, "is_reserved": 0, "fusion_lat": 0.0, "lat": 38.895573, "fusion_lon": 0.0, "rental_uris": {"ios": "https://dc.lft.to/lastmile_qr_scan", "android": "https://dc.lft.to/lastmile_qr_scan"}, "lon": -77.04660716666666, "bike_id": "362efec7569d97ff45990487d00eb94f", "type": "electric_scooter", "name": "362efec7569d97ff45990487d00eb94f"}, {"is_disabled": 0, "is_reserved": 0, "fusion_lat": 0.0, "lat": 38.96354783333334, "fusion_lon": 0.0, "rental_uris": {"ios": "https://dc.lft.to/lastmile_qr_scan", "android": "https://dc.lft.to/lastmile_qr_scan"}, "lon": -77.0344085, "bike_id": "8743ea1f027c3fed58d42080569c95c4", "type": "electric_scooter", "name": "8743ea1f027c3fed58d42080569c95c4"}, {"is_disabled": 0, "is_reserved": 0, "fusion_lat": 0.0, "lat": 38.89223166666667, "fusion_lon": 0.0, "rental_uris": {"ios": "https://dc.lft.to/lastmile_qr_scan", "android": "https://dc.lft.to/lastmile_qr_scan"}, "lon": -77.02774266666667, "bike_id": "6667bf5d4046dd565f5529df156ce568", "type": "electric_scooter", "name": "6667bf5d4046dd565f5529df156ce568"}, {"is_disabled": 0, "is_reserved": 0, "fusion_lat": 0.0, "lat": 38.905553833333336, "fusion_lon": 0.0, "rental_uris": {"ios": "https://dc.lft.to/lastmile_qr_scan", "android": "https://dc.lft.to/lastmile_qr_scan"}, "lon": -77.0028885, "bike_id": "f03b0fe7a178eb3b0554af9af09e0a24", "type": "electric_scooter", "name": "f03b0fe7a178eb3b0554af9af09e0a24"}, {"is_disabled": 0, "is_reserved": 0, "fusion_lat": 0.0, "lat": 38.9044415, "fusion_lon": 0.0, "rental_uris": {"ios": "https://dc.lft.to/lastmile_qr_scan", "android": "https://dc.lft.to/lastmile_qr_scan"}, "lon": -76.97303833333334, "bike_id": "dbbb51c75753d34b6658de0524936711", "type": "electric_scooter", "name": "dbbb51c75753d34b6658de0524936711"}, {"is_disabled": 0, "is_reserved": 0, "fusion_lat": 0.0, "lat": 38.87917383333333, "fusion_lon": 0.0, "rental_uris": {"ios": "https://dc.lft.to/lastmile_qr_scan", "android": "https://dc.lft.to/lastmile_qr_scan"}, "lon": -76.99506683333334, "bike_id": "03c9e5eed631e0758267f5ab769419af", "type": "electric_scooter", "name": "03c9e5eed631e0758267f5ab769419af"}, {"is_disabled": 0, "is_reserved": 0, "fusion_lat": 0.0, "lat": 38.91550733333333, "fusion_lon": 0.0, "rental_uris": {"ios": "https://dc.lft.to/lastmile_qr_scan", "android": "https://dc.lft.to/lastmile_qr_scan"}, "lon": -77.0510205, "bike_id": "0a4da82a44d9e306a54dfc3102f221ea", "type": "electric_scooter", "name": "0a4da82a44d9e306a54dfc3102f221ea"}, {"is_disabled": 0, "is_reserved": 0, "fusion_lat": 0.0, "lat": 38.91604366666667, "fusion_lon": 0.0, "rental_uris": {"ios": "https://dc.lft.to/lastmile_qr_scan", "android": "https://dc.lft.to/lastmile_qr_scan"}, "lon": -77.04340933333333, "bike_id": "2ed8fae3011957a3ea9cbc24d44dedd3", "type": "electric_scooter", "name": "2ed8fae3011957a3ea9cbc24d44dedd3"}, {"is_disabled": 0, "is_reserved": 0, "fusion_lat": 0.0, "lat": 38.846731, "fusion_lon": 0.0, "rental_uris": {"ios": "https://dc.lft.to/lastmile_qr_scan", "android": "https://dc.lft.to/lastmile_qr_scan"}, "lon": -77.13934916666666, "bike_id": "e7965c7bc03652cfea35f93548776f34", "type": "electric_bike", "name": "e7965c7bc03652cfea35f93548776f34"}, {"is_disabled": 0, "is_reserved": 0, "fusion_lat": 0.0, "lat": 38.89284383333333, "fusion_lon": 0.0, "rental_uris": {"ios": "https://dc.lft.to/lastmile_qr_scan", "android": "https://dc.lft.to/lastmile_qr_scan"}, "lon": -77.04193483333333, "bike_id": "42ed2726c02625a33a2086055e40a960", "type": "electric_scooter", "name": "42ed2726c02625a33a2086055e40a960"}, {"is_disabled": 0, "is_reserved": 0, "fusion_lat": 0.0, "lat": 38.95690483333333, "fusion_lon": 0.0, "rental_uris": {"ios": "https://dc.lft.to/lastmile_qr_scan", "android": "https://dc.lft.to/lastmile_qr_scan"}, "lon": -77.0223355, "bike_id": "e82ca9132487012909ac74a3ba84ecae", "type": "electric_scooter", "name": "e82ca9132487012909ac74a3ba84ecae"}, {"is_disabled": 0, "is_reserved": 0, "fusion_lat": 0.0, "lat": 38.916531, "fusion_lon": 0.0, "rental_uris": {"ios": "https://dc.lft.to/lastmile_qr_scan", "android": "https://dc.lft.to/lastmile_qr_scan"}, "lon": -77.02384533333333, "bike_id": "fd3681980a88f652b1fe627f31a6ce0d", "type": "electric_scooter", "name": "fd3681980a88f652b1fe627f31a6ce0d"}, {"is_disabled": 0, "is_reserved": 0, "fusion_lat": 0.0, "lat": 38.957504, "fusion_lon": 0.0, "rental_uris": {"ios": "https://dc.lft.to/lastmile_qr_scan", "android": "https://dc.lft.to/lastmile_qr_scan"}, "lon": -77.02206416666667, "bike_id": "7e7ebcab45905c344fe8cd249d7837b9", "type": "electric_scooter", "name": "7e7ebcab45905c344fe8cd249d7837b9"}, {"is_disabled": 0, "is_reserved": 0, "fusion_lat": 0.0, "lat": 38.922088333333335, "fusion_lon": 0.0, "rental_uris": {"ios": "https://dc.lft.to/lastmile_qr_scan", "android": "https://dc.lft.to/lastmile_qr_scan"}, "lon": -77.08184033333333, "bike_id": "cc8439d9f2adb6f34fb9c5f27b56a9c1", "type": "electric_bike", "name": "cc8439d9f2adb6f34fb9c5f27b56a9c1"}, {"is_disabled": 0, "is_reserved": 0, "fusion_lat": 0.0, "lat": 38.87497, "fusion_lon": 0.0, "rental_uris": {"ios": "https://dc.lft.to/lastmile_qr_scan", "android": "https://dc.lft.to/lastmile_qr_scan"}, "lon": -77.0007745, "bike_id": "1a9c414b9b1fc5bdad98df2d7fe06395", "type": "electric_scooter", "name": "1a9c414b9b1fc5bdad98df2d7fe06395"}, {"is_disabled": 0, "is_reserved": 0, "fusion_lat": 0.0, "lat": 38.92299116666667, "fusion_lon": 0.0, "rental_uris": {"ios": "https://dc.lft.to/lastmile_qr_scan", "android": "https://dc.lft.to/lastmile_qr_scan"}, "lon": -77.02981133333333, "bike_id": "98f87a3da27f2cc52fa9031fe297286a", "type": "electric_scooter", "name": "98f87a3da27f2cc52fa9031fe297286a"}, {"is_disabled": 0, "is_reserved": 0, "fusion_lat": 0.0, "lat": 38.8962355, "fusion_lon": 0.0, "rental_uris": {"ios": "https://dc.lft.to/lastmile_qr_scan", "android": "https://dc.lft.to/lastmile_qr_scan"}, "lon": -76.90753216666667, "bike_id": "5b300167c1f379e6d5fb7bbd9a5904cf", "type": "electric_bike", "name": "5b300167c1f379e6d5fb7bbd9a5904cf"}, {"is_disabled": 0, "is_reserved": 0, "fusion_lat": 0.0, "lat": 38.913400833333334, "fusion_lon": 0.0, "rental_uris": {"ios": "https://dc.lft.to/lastmile_qr_scan", "android": "https://dc.lft.to/lastmile_qr_scan"}, "lon": -77.01625866666667, "bike_id": "fc6602d5bf9dc8e4f6789f731a25e2dd", "type": "electric_scooter", "name": "fc6602d5bf9dc8e4f6789f731a25e2dd"}, {"is_disabled": 0, "is_reserved": 0, "fusion_lat": 0.0, "lat": 38.8853285, "fusion_lon": 0.0, "rental_uris": {"ios": "https://dc.lft.to/lastmile_qr_scan", "android": "https://dc.lft.to/lastmile_qr_scan"}, "lon": -76.9805325, "bike_id": "2c67a6575173746e623cc454abb6d08a", "type": "electric_scooter", "name": "2c67a6575173746e623cc454abb6d08a"}, {"is_disabled": 0, "is_reserved": 0, "fusion_lat": 0.0, "lat": 38.89881716666667, "fusion_lon": 0.0, "rental_uris": {"ios": "https://dc.lft.to/lastmile_qr_scan", "android": "https://dc.lft.to/lastmile_qr_scan"}, "lon": -77.04000016666667, "bike_id": "953fe02de1dc1d4f38260a4aba23ec9c", "type": "electric_scooter", "name": "953fe02de1dc1d4f38260a4aba23ec9c"}, {"is_disabled": 0, "is_reserved": 0, "fusion_lat": 0.0, "lat": 38.94448466666667, "fusion_lon": 0.0, "rental_uris": {"ios": "https://dc.lft.to/lastmile_qr_scan", "android": "https://dc.lft.to/lastmile_qr_scan"}, "lon": -77.03280816666667, "bike_id": "f3526e3dcb2ea2ea4f79403025bc2350", "type": "electric_scooter", "name": "f3526e3dcb2ea2ea4f79403025bc2350"}, {"is_disabled": 0, "is_reserved": 0, "fusion_lat": 0.0, "lat": 38.906528333333334, "fusion_lon": 0.0, "rental_uris": {"ios": "https://dc.lft.to/lastmile_qr_scan", "android": "https://dc.lft.to/lastmile_qr_scan"}, "lon": -76.9793485, "bike_id": "c2782c143d84b7a1e4b55c8aaf784ae8", "type": "electric_scooter", "name": "c2782c143d84b7a1e4b55c8aaf784ae8"}, {"is_disabled": 0, "is_reserved": 0, "fusion_lat": 0.0, "lat": 38.90395916666667, "fusion_lon": 0.0, "rental_uris": {"ios": "https://dc.lft.to/lastmile_qr_scan", "android": "https://dc.lft.to/lastmile_qr_scan"}, "lon": -77.06296866666666, "bike_id": "9905c7545937b6239c0da70423cf6bff", "type": "electric_scooter", "name": "9905c7545937b6239c0da70423cf6bff"}, {"is_disabled": 0, "is_reserved": 0, "fusion_lat": 0.0, "lat": 38.9223425, "fusion_lon": 0.0, "rental_uris": {"ios": "https://dc.lft.to/lastmile_qr_scan", "android": "https://dc.lft.to/lastmile_qr_scan"}, "lon": -77.0350705, "bike_id": "b70e3358f1e83a91b457442afdf3b681", "type": "electric_scooter", "name": "b70e3358f1e83a91b457442afdf3b681"}, {"is_disabled": 0, "is_reserved": 0, "fusion_lat": 0.0, "lat": 38.9287265, "fusion_lon": 0.0, "rental_uris": {"ios": "https://dc.lft.to/lastmile_qr_scan", "android": "https://dc.lft.to/lastmile_qr_scan"}, "lon": -77.03990833333333, "bike_id": "b4e75f8584cef2a85194bca0b53fcce4", "type": "electric_scooter", "name": "b4e75f8584cef2a85194bca0b53fcce4"}, {"is_disabled": 0, "is_reserved": 0, "fusion_lat": 0.0, "lat": 38.90427916666667, "fusion_lon": 0.0, "rental_uris": {"ios": "https://dc.lft.to/lastmile_qr_scan", "android": "https://dc.lft.to/lastmile_qr_scan"}, "lon": -77.029521, "bike_id": "c0dfbd828f01522e84c41bca38462d57", "type": "electric_scooter", "name": "c0dfbd828f01522e84c41bca38462d57"}, {"is_disabled": 0, "is_reserved": 0, "fusion_lat": 0.0, "lat": 38.90505616666667, "fusion_lon": 0.0, "rental_uris": {"ios": "https://dc.lft.to/lastmile_qr_scan", "android": "https://dc.lft.to/lastmile_qr_scan"}, "lon": -77.0090555, "bike_id": "45cb2be7c74c9b387f6c862c74574bfc", "type": "electric_scooter", "name": "45cb2be7c74c9b387f6c862c74574bfc"}, {"is_disabled": 0, "is_reserved": 0, "fusion_lat": 0.0, "lat": 38.90429316666667, "fusion_lon": 0.0, "rental_uris": {"ios": "https://dc.lft.to/lastmile_qr_scan", "android": "https://dc.lft.to/lastmile_qr_scan"}, "lon": -77.0610985, "bike_id": "4a8d0782ea8cb11db6966b93996e642d", "type": "electric_scooter", "name": "4a8d0782ea8cb11db6966b93996e642d"}, {"is_disabled": 0, "is_reserved": 0, "fusion_lat": 0.0, "lat": 38.885735, "fusion_lon": 0.0, "rental_uris": {"ios": "https://dc.lft.to/lastmile_qr_scan", "android": "https://dc.lft.to/lastmile_qr_scan"}, "lon": -77.0175435, "bike_id": "d9530a9b56fa6f3e76e3684cb5c7b7c7", "type": "electric_bike", "name": "d9530a9b56fa6f3e76e3684cb5c7b7c7"}, {"is_disabled": 0, "is_reserved": 0, "fusion_lat": 0.0, "lat": 38.91825033333333, "fusion_lon": 0.0, "rental_uris": {"ios": "https://dc.lft.to/lastmile_qr_scan", "android": "https://dc.lft.to/lastmile_qr_scan"}, "lon": -77.0242565, "bike_id": "a9bdd2c09bcc493a229fd6d52499ecaf", "type": "electric_scooter", "name": "a9bdd2c09bcc493a229fd6d52499ecaf"}, {"is_disabled": 0, "is_reserved": 0, "fusion_lat": 0.0, "lat": 38.897184833333334, "fusion_lon": 0.0, "rental_uris": {"ios": "https://dc.lft.to/lastmile_qr_scan", "android": "https://dc.lft.to/lastmile_qr_scan"}, "lon": -77.02410933333333, "bike_id": "7cd9a5301d66b34daf02a957dd813986", "type": "electric_scooter", "name": "7cd9a5301d66b34daf02a957dd813986"}, {"is_disabled": 0, "is_reserved": 0, "fusion_lat": 0.0, "lat": 38.919543833333336, "fusion_lon": 0.0, "rental_uris": {"ios": "https://dc.lft.to/lastmile_qr_scan", "android": "https://dc.lft.to/lastmile_qr_scan"}, "lon": -77.023038, "bike_id": "f2876bc688057aa86b2e79a10cca1d25", "type": "electric_scooter", "name": "f2876bc688057aa86b2e79a10cca1d25"}, {"is_disabled": 0, "is_reserved": 0, "fusion_lat": 0.0, "lat": 38.86469866666667, "fusion_lon": 0.0, "rental_uris": {"ios": "https://dc.lft.to/lastmile_qr_scan", "android": "https://dc.lft.to/lastmile_qr_scan"}, "lon": -76.97756816666667, "bike_id": "46d62b4ad119cfad63521359cdb78d30", "type": "electric_scooter", "name": "46d62b4ad119cfad63521359cdb78d30"}, {"is_disabled": 0, "is_reserved": 0, "fusion_lat": 0.0, "lat": 38.954298, "fusion_lon": 0.0, "rental_uris": {"ios": "https://dc.lft.to/lastmile_qr_scan", "android": "https://dc.lft.to/lastmile_qr_scan"}, "lon": -76.98797666666667, "bike_id": "cd8a91ed02d5acd12af744e9332bc958", "type": "electric_scooter", "name": "cd8a91ed02d5acd12af744e9332bc958"}, {"is_disabled": 0, "is_reserved": 0, "fusion_lat": 0.0, "lat": 38.92880616666667, "fusion_lon": 0.0, "rental_uris": {"ios": "https://dc.lft.to/lastmile_qr_scan", "android": "https://dc.lft.to/lastmile_qr_scan"}, "lon": -77.01382633333333, "bike_id": "2565e431c12e14e1cc76180c64e76525", "type": "electric_scooter", "name": "2565e431c12e14e1cc76180c64e76525"}, {"is_disabled": 0, "is_reserved": 0, "fusion_lat": 0.0, "lat": 38.9156385, "fusion_lon": 0.0, "rental_uris": {"ios": "https://dc.lft.to/lastmile_qr_scan", "android": "https://dc.lft.to/lastmile_qr_scan"}, "lon": -77.03183483333333, "bike_id": "64da645ae2953535feca5280a27383c8", "type": "electric_scooter", "name": "64da645ae2953535feca5280a27383c8"}, {"is_disabled": 0, "is_reserved": 0, "fusion_lat": 0.0, "lat": 38.9053605, "fusion_lon": 0.0, "rental_uris": {"ios": "https://dc.lft.to/lastmile_qr_scan", "android": "https://dc.lft.to/lastmile_qr_scan"}, "lon": -77.0591025, "bike_id": "8dc2808c6a5d8ee7c9366e6a72d1b120", "type": "electric_bike", "name": "8dc2808c6a5d8ee7c9366e6a72d1b120"}, {"is_disabled": 0, "is_reserved": 0, "fusion_lat": 0.0, "lat": 38.90639383333333, "fusion_lon": 0.0, "rental_uris": {"ios": "https://dc.lft.to/lastmile_qr_scan", "android": "https://dc.lft.to/lastmile_qr_scan"}, "lon": -77.069033, "bike_id": "bc9ec6dc3e3ba5ea5a070e664374317f", "type": "electric_scooter", "name": "bc9ec6dc3e3ba5ea5a070e664374317f"}, {"is_disabled": 0, "is_reserved": 0, "fusion_lat": 0.0, "lat": 38.87640916666667, "fusion_lon": 0.0, "rental_uris": {"ios": "https://dc.lft.to/lastmile_qr_scan", "android": "https://dc.lft.to/lastmile_qr_scan"}, "lon": -76.99295183333334, "bike_id": "4b45830aba769a02ffe601ec7c2d70a6", "type": "electric_scooter", "name": "4b45830aba769a02ffe601ec7c2d70a6"}, {"is_disabled": 0, "is_reserved": 0, "fusion_lat": 0.0, "lat": 38.89128933333333, "fusion_lon": 0.0, "rental_uris": {"ios": "https://dc.lft.to/lastmile_qr_scan", "android": "https://dc.lft.to/lastmile_qr_scan"}, "lon": -76.99948666666667, "bike_id": "4719cd529bd867f5e1e98f50a8e7ac96", "type": "electric_scooter", "name": "4719cd529bd867f5e1e98f50a8e7ac96"}, {"is_disabled": 0, "is_reserved": 0, "fusion_lat": 0.0, "lat": 38.892521, "fusion_lon": 0.0, "rental_uris": {"ios": "https://dc.lft.to/lastmile_qr_scan", "android": "https://dc.lft.to/lastmile_qr_scan"}, "lon": -77.046569, "bike_id": "7ca585e9c1e05ae4d5760a489da56cb1", "type": "electric_scooter", "name": "7ca585e9c1e05ae4d5760a489da56cb1"}, {"is_disabled": 0, "is_reserved": 0, "fusion_lat": 0.0, "lat": 38.92153366666667, "fusion_lon": 0.0, "rental_uris": {"ios": "https://dc.lft.to/lastmile_qr_scan", "android": "https://dc.lft.to/lastmile_qr_scan"}, "lon": -77.03370833333334, "bike_id": "e112dad81eef6af36a35352bbb1af81e", "type": "electric_scooter", "name": "e112dad81eef6af36a35352bbb1af81e"}, {"is_disabled": 0, "is_reserved": 0, "fusion_lat": 0.0, "lat": 38.8951045, "fusion_lon": 0.0, "rental_uris": {"ios": "https://dc.lft.to/lastmile_qr_scan", "android": "https://dc.lft.to/lastmile_qr_scan"}, "lon": -77.02299316666667, "bike_id": "0ba929ea8728c925f88ebd350562314b", "type": "electric_scooter", "name": "0ba929ea8728c925f88ebd350562314b"}, {"is_disabled": 0, "is_reserved": 0, "fusion_lat": 0.0, "lat": 38.92065866666667, "fusion_lon": 0.0, "rental_uris": {"ios": "https://dc.lft.to/lastmile_qr_scan", "android": "https://dc.lft.to/lastmile_qr_scan"}, "lon": -77.02936066666666, "bike_id": "06b00a3ee4475ab1f554de5ab8be3c73", "type": "electric_scooter", "name": "06b00a3ee4475ab1f554de5ab8be3c73"}, {"is_disabled": 0, "is_reserved": 0, "fusion_lat": 0.0, "lat": 38.90504116666666, "fusion_lon": 0.0, "rental_uris": {"ios": "https://dc.lft.to/lastmile_qr_scan", "android": "https://dc.lft.to/lastmile_qr_scan"}, "lon": -77.02947383333333, "bike_id": "18ddc4c876d7e4d554bca2dde50d138e", "type": "electric_scooter", "name": "18ddc4c876d7e4d554bca2dde50d138e"}, {"is_disabled": 0, "is_reserved": 0, "fusion_lat": 0.0, "lat": 38.845986833333335, "fusion_lon": 0.0, "rental_uris": {"ios": "https://dc.lft.to/lastmile_qr_scan", "android": "https://dc.lft.to/lastmile_qr_scan"}, "lon": -76.97411433333333, "bike_id": "200a14900735d4be12d19435a75bf838", "type": "electric_scooter", "name": "200a14900735d4be12d19435a75bf838"}, {"is_disabled": 0, "is_reserved": 0, "fusion_lat": 0.0, "lat": 38.91258633333333, "fusion_lon": 0.0, "rental_uris": {"ios": "https://dc.lft.to/lastmile_qr_scan", "android": "https://dc.lft.to/lastmile_qr_scan"}, "lon": -77.03142, "bike_id": "39267d663b42806fee2e458c045b2d17", "type": "electric_scooter", "name": "39267d663b42806fee2e458c045b2d17"}, {"is_disabled": 0, "is_reserved": 0, "fusion_lat": 0.0, "lat": 38.929899, "fusion_lon": 0.0, "rental_uris": {"ios": "https://dc.lft.to/lastmile_qr_scan", "android": "https://dc.lft.to/lastmile_qr_scan"}, "lon": -77.03471, "bike_id": "7c3c9efd348c3a3c640e3bc8a2a18ba7", "type": "electric_scooter", "name": "7c3c9efd348c3a3c640e3bc8a2a18ba7"}, {"is_disabled": 0, "is_reserved": 0, "fusion_lat": 0.0, "lat": 38.902681666666666, "fusion_lon": 0.0, "rental_uris": {"ios": "https://dc.lft.to/lastmile_qr_scan", "android": "https://dc.lft.to/lastmile_qr_scan"}, "lon": -77.03974966666667, "bike_id": "687f0bc36b483bba2f89b5688432cada", "type": "electric_scooter", "name": "687f0bc36b483bba2f89b5688432cada"}, {"is_disabled": 0, "is_reserved": 0, "fusion_lat": 0.0, "lat": 38.91180266666667, "fusion_lon": 0.0, "rental_uris": {"ios": "https://dc.lft.to/lastmile_qr_scan", "android": "https://dc.lft.to/lastmile_qr_scan"}, "lon": -77.0298725, "bike_id": "7f02201dc96d0c054c24cc734c91620f", "type": "electric_scooter", "name": "7f02201dc96d0c054c24cc734c91620f"}, {"is_disabled": 0, "is_reserved": 0, "fusion_lat": 0.0, "lat": 38.907289, "fusion_lon": 0.0, "rental_uris": {"ios": "https://dc.lft.to/lastmile_qr_scan", "android": "https://dc.lft.to/lastmile_qr_scan"}, "lon": -77.04164266666666, "bike_id": "cf95dec6aa911adf50ce8f31c4b01c5a", "type": "electric_scooter", "name": "cf95dec6aa911adf50ce8f31c4b01c5a"}, {"is_disabled": 0, "is_reserved": 0, "fusion_lat": 0.0, "lat": 38.892064166666664, "fusion_lon": 0.0, "rental_uris": {"ios": "https://dc.lft.to/lastmile_qr_scan", "android": "https://dc.lft.to/lastmile_qr_scan"}, "lon": -76.92920966666667, "bike_id": "dd8a301807f1033e1f49be69019fdcb3", "type": "electric_scooter", "name": "dd8a301807f1033e1f49be69019fdcb3"}, {"is_disabled": 0, "is_reserved": 0, "fusion_lat": 0.0, "lat": 38.90921766666666, "fusion_lon": 0.0, "rental_uris": {"ios": "https://dc.lft.to/lastmile_qr_scan", "android": "https://dc.lft.to/lastmile_qr_scan"}, "lon": -77.04573833333333, "bike_id": "7490183fa82aa27672abb24b54aaa1c1", "type": "electric_scooter", "name": "7490183fa82aa27672abb24b54aaa1c1"}, {"is_disabled": 0, "is_reserved": 0, "fusion_lat": 0.0, "lat": 38.90518566666667, "fusion_lon": 0.0, "rental_uris": {"ios": "https://dc.lft.to/lastmile_qr_scan", "android": "https://dc.lft.to/lastmile_qr_scan"}, "lon": -77.0645375, "bike_id": "b761253222bba5755c57cc7690813583", "type": "electric_bike", "name": "b761253222bba5755c57cc7690813583"}, {"is_disabled": 0, "is_reserved": 0, "fusion_lat": 0.0, "lat": 38.92440366666666, "fusion_lon": 0.0, "rental_uris": {"ios": "https://dc.lft.to/lastmile_qr_scan", "android": "https://dc.lft.to/lastmile_qr_scan"}, "lon": -77.020194, "bike_id": "dc0444feff7cd552eaccea12315c1aa7", "type": "electric_scooter", "name": "dc0444feff7cd552eaccea12315c1aa7"}, {"is_disabled": 0, "is_reserved": 0, "fusion_lat": 0.0, "lat": 38.91668716666667, "fusion_lon": 0.0, "rental_uris": {"ios": "https://dc.lft.to/lastmile_qr_scan", "android": "https://dc.lft.to/lastmile_qr_scan"}, "lon": -77.00049183333333, "bike_id": "1a8ce8dc15c66fc024a67e5c94896d45", "type": "electric_scooter", "name": "1a8ce8dc15c66fc024a67e5c94896d45"}, {"is_disabled": 0, "is_reserved": 0, "fusion_lat": 0.0, "lat": 38.877392666666665, "fusion_lon": 0.0, "rental_uris": {"ios": "https://dc.lft.to/lastmile_qr_scan", "android": "https://dc.lft.to/lastmile_qr_scan"}, "lon": -77.14869, "bike_id": "42c82491b76732c0af3a9e1bedae9c0b", "type": "electric_bike", "name": "42c82491b76732c0af3a9e1bedae9c0b"}, {"is_disabled": 0, "is_reserved": 0, "fusion_lat": 0.0, "lat": 38.9218915, "fusion_lon": 0.0, "rental_uris": {"ios": "https://dc.lft.to/lastmile_qr_scan", "android": "https://dc.lft.to/lastmile_qr_scan"}, "lon": -76.99702283333333, "bike_id": "3c8db1211562d8427b9770bb7c7fd415", "type": "electric_scooter", "name": "3c8db1211562d8427b9770bb7c7fd415"}, {"is_disabled": 0, "is_reserved": 0, "fusion_lat": 0.0, "lat": 38.9001965, "fusion_lon": 0.0, "rental_uris": {"ios": "https://dc.lft.to/lastmile_qr_scan", "android": "https://dc.lft.to/lastmile_qr_scan"}, "lon": -77.01214183333333, "bike_id": "c073af0c2fe1821733ac7fa6c3ca9d09", "type": "electric_scooter", "name": "c073af0c2fe1821733ac7fa6c3ca9d09"}, {"is_disabled": 0, "is_reserved": 0, "fusion_lat": 0.0, "lat": 38.88522583333334, "fusion_lon": 0.0, "rental_uris": {"ios": "https://dc.lft.to/lastmile_qr_scan", "android": "https://dc.lft.to/lastmile_qr_scan"}, "lon": -76.99627183333334, "bike_id": "0ba45f9a636e649302b356b6964ecce3", "type": "electric_scooter", "name": "0ba45f9a636e649302b356b6964ecce3"}, {"is_disabled": 0, "is_reserved": 0, "fusion_lat": 0.0, "lat": 39.00533133333333, "fusion_lon": 0.0, "rental_uris": {"ios": "https://dc.lft.to/lastmile_qr_scan", "android": "https://dc.lft.to/lastmile_qr_scan"}, "lon": -77.104002, "bike_id": "d64ab2b93832cd26d361145a069d1e82", "type": "electric_bike", "name": "d64ab2b93832cd26d361145a069d1e82"}, {"is_disabled": 0, "is_reserved": 0, "fusion_lat": 0.0, "lat": 38.88105766666666, "fusion_lon": 0.0, "rental_uris": {"ios": "https://dc.lft.to/lastmile_qr_scan", "android": "https://dc.lft.to/lastmile_qr_scan"}, "lon": -77.01230066666666, "bike_id": "cfd9c370512ee5a425a2e910651c6783", "type": "electric_scooter", "name": "cfd9c370512ee5a425a2e910651c6783"}, {"is_disabled": 0, "is_reserved": 0, "fusion_lat": 0.0, "lat": 38.90469983333333, "fusion_lon": 0.0, "rental_uris": {"ios": "https://dc.lft.to/lastmile_qr_scan", "android": "https://dc.lft.to/lastmile_qr_scan"}, "lon": -77.06606983333333, "bike_id": "477a979c784600b11b6081160f9a1abc", "type": "electric_bike", "name": "477a979c784600b11b6081160f9a1abc"}, {"is_disabled": 0, "is_reserved": 0, "fusion_lat": 0.0, "lat": 38.89855283333333, "fusion_lon": 0.0, "rental_uris": {"ios": "https://dc.lft.to/lastmile_qr_scan", "android": "https://dc.lft.to/lastmile_qr_scan"}, "lon": -77.04888383333333, "bike_id": "1b3085a89020cc02756edd4f12065a9c", "type": "electric_scooter", "name": "1b3085a89020cc02756edd4f12065a9c"}, {"is_disabled": 0, "is_reserved": 0, "fusion_lat": 0.0, "lat": 38.92123133333333, "fusion_lon": 0.0, "rental_uris": {"ios": "https://dc.lft.to/lastmile_qr_scan", "android": "https://dc.lft.to/lastmile_qr_scan"}, "lon": -77.0366025, "bike_id": "c9dbb56b31dcfb3b9bb6c82bd195d1b6", "type": "electric_scooter", "name": "c9dbb56b31dcfb3b9bb6c82bd195d1b6"}, {"is_disabled": 0, "is_reserved": 0, "fusion_lat": 0.0, "lat": 38.91414983333333, "fusion_lon": 0.0, "rental_uris": {"ios": "https://dc.lft.to/lastmile_qr_scan", "android": "https://dc.lft.to/lastmile_qr_scan"}, "lon": -77.02117883333334, "bike_id": "ee8f3096be9100a36182fa70b9eed824", "type": "electric_scooter", "name": "ee8f3096be9100a36182fa70b9eed824"}, {"is_disabled": 0, "is_reserved": 0, "fusion_lat": 0.0, "lat": 38.91225016666667, "fusion_lon": 0.0, "rental_uris": {"ios": "https://dc.lft.to/lastmile_qr_scan", "android": "https://dc.lft.to/lastmile_qr_scan"}, "lon": -77.063991, "bike_id": "c638dbee5e8a09e5def8222b9ba9e1e5", "type": "electric_scooter", "name": "c638dbee5e8a09e5def8222b9ba9e1e5"}, {"is_disabled": 0, "is_reserved": 0, "fusion_lat": 0.0, "lat": 38.90884716666667, "fusion_lon": 0.0, "rental_uris": {"ios": "https://dc.lft.to/lastmile_qr_scan", "android": "https://dc.lft.to/lastmile_qr_scan"}, "lon": -77.0743125, "bike_id": "2f51c3c4cb315f0ac240f809c2a206bd", "type": "electric_scooter", "name": "2f51c3c4cb315f0ac240f809c2a206bd"}, {"is_disabled": 0, "is_reserved": 0, "fusion_lat": 0.0, "lat": 38.91653483333333, "fusion_lon": 0.0, "rental_uris": {"ios": "https://dc.lft.to/lastmile_qr_scan", "android": "https://dc.lft.to/lastmile_qr_scan"}, "lon": -77.02403383333333, "bike_id": "e1d45c4c2371cf050712bf5cd2ec64d3", "type": "electric_scooter", "name": "e1d45c4c2371cf050712bf5cd2ec64d3"}, {"is_disabled": 0, "is_reserved": 0, "fusion_lat": 0.0, "lat": 38.906539333333335, "fusion_lon": 0.0, "rental_uris": {"ios": "https://dc.lft.to/lastmile_qr_scan", "android": "https://dc.lft.to/lastmile_qr_scan"}, "lon": -76.97941900000001, "bike_id": "6f4cc1967ad0a0cde7f4d46a45071176", "type": "electric_scooter", "name": "6f4cc1967ad0a0cde7f4d46a45071176"}, {"is_disabled": 0, "is_reserved": 0, "fusion_lat": 0.0, "lat": 38.9530765, "fusion_lon": 0.0, "rental_uris": {"ios": "https://dc.lft.to/lastmile_qr_scan", "android": "https://dc.lft.to/lastmile_qr_scan"}, "lon": -77.02020416666667, "bike_id": "8674a20278e4f48a191a9896c22d021e", "type": "electric_scooter", "name": "8674a20278e4f48a191a9896c22d021e"}, {"is_disabled": 0, "is_reserved": 0, "fusion_lat": 0.0, "lat": 38.900315, "fusion_lon": 0.0, "rental_uris": {"ios": "https://dc.lft.to/lastmile_qr_scan", "android": "https://dc.lft.to/lastmile_qr_scan"}, "lon": -77.01212816666667, "bike_id": "c9f035b88354dd1262ac1da642a38d85", "type": "electric_scooter", "name": "c9f035b88354dd1262ac1da642a38d85"}, {"is_disabled": 0, "is_reserved": 0, "fusion_lat": 0.0, "lat": 38.95367, "fusion_lon": 0.0, "rental_uris": {"ios": "https://dc.lft.to/lastmile_qr_scan", "android": "https://dc.lft.to/lastmile_qr_scan"}, "lon": -76.99843516666667, "bike_id": "e880b7102baefee08e4c9e14effe41e6", "type": "electric_scooter", "name": "e880b7102baefee08e4c9e14effe41e6"}, {"is_disabled": 0, "is_reserved": 0, "fusion_lat": 0.0, "lat": 38.93468283333333, "fusion_lon": 0.0, "rental_uris": {"ios": "https://dc.lft.to/lastmile_qr_scan", "android": "https://dc.lft.to/lastmile_qr_scan"}, "lon": -77.02380416666666, "bike_id": "0f5c60ffc182b5d57e4315a868ff46a2", "type": "electric_scooter", "name": "0f5c60ffc182b5d57e4315a868ff46a2"}, {"is_disabled": 0, "is_reserved": 0, "fusion_lat": 0.0, "lat": 38.946047666666665, "fusion_lon": 0.0, "rental_uris": {"ios": "https://dc.lft.to/lastmile_qr_scan", "android": "https://dc.lft.to/lastmile_qr_scan"}, "lon": -77.017379, "bike_id": "6ae3efd61933df0262130e99c5e4c9fa", "type": "electric_bike", "name": "6ae3efd61933df0262130e99c5e4c9fa"}, {"is_disabled": 0, "is_reserved": 0, "fusion_lat": 0.0, "lat": 38.885843, "fusion_lon": 0.0, "rental_uris": {"ios": "https://dc.lft.to/lastmile_qr_scan", "android": "https://dc.lft.to/lastmile_qr_scan"}, "lon": -77.0122745, "bike_id": "86a5ee67342567810143f3ca45f23e17", "type": "electric_scooter", "name": "86a5ee67342567810143f3ca45f23e17"}, {"is_disabled": 0, "is_reserved": 0, "fusion_lat": 0.0, "lat": 38.9207765, "fusion_lon": 0.0, "rental_uris": {"ios": "https://dc.lft.to/lastmile_qr_scan", "android": "https://dc.lft.to/lastmile_qr_scan"}, "lon": -77.004503, "bike_id": "14eeb8c48598be5f5c30f7d00d8573a6", "type": "electric_scooter", "name": "14eeb8c48598be5f5c30f7d00d8573a6"}, {"is_disabled": 0, "is_reserved": 0, "fusion_lat": 0.0, "lat": 38.931955333333335, "fusion_lon": 0.0, "rental_uris": {"ios": "https://dc.lft.to/lastmile_qr_scan", "android": "https://dc.lft.to/lastmile_qr_scan"}, "lon": -77.02449333333334, "bike_id": "be5883c4d813fe76211e541d6c319a5d", "type": "electric_scooter", "name": "be5883c4d813fe76211e541d6c319a5d"}, {"is_disabled": 0, "is_reserved": 0, "fusion_lat": 0.0, "lat": 38.936951666666666, "fusion_lon": 0.0, "rental_uris": {"ios": "https://dc.lft.to/lastmile_qr_scan", "android": "https://dc.lft.to/lastmile_qr_scan"}, "lon": -77.0560135, "bike_id": "d22eab0811e724b95fdd365d6231770d", "type": "electric_scooter", "name": "d22eab0811e724b95fdd365d6231770d"}, {"is_disabled": 0, "is_reserved": 0, "fusion_lat": 0.0, "lat": 38.9038615, "fusion_lon": 0.0, "rental_uris": {"ios": "https://dc.lft.to/lastmile_qr_scan", "android": "https://dc.lft.to/lastmile_qr_scan"}, "lon": -77.01865916666667, "bike_id": "91f0cc4d8c1cc8a2c67d9505ac72a082", "type": "electric_scooter", "name": "91f0cc4d8c1cc8a2c67d9505ac72a082"}, {"is_disabled": 0, "is_reserved": 0, "fusion_lat": 0.0, "lat": 38.9202075, "fusion_lon": 0.0, "rental_uris": {"ios": "https://dc.lft.to/lastmile_qr_scan", "android": "https://dc.lft.to/lastmile_qr_scan"}, "lon": -76.99981916666667, "bike_id": "c675b505924143710445b6451477b7b5", "type": "electric_scooter", "name": "c675b505924143710445b6451477b7b5"}, {"is_disabled": 0, "is_reserved": 0, "fusion_lat": 0.0, "lat": 38.8985125, "fusion_lon": 0.0, "rental_uris": {"ios": "https://dc.lft.to/lastmile_qr_scan", "android": "https://dc.lft.to/lastmile_qr_scan"}, "lon": -77.00199, "bike_id": "6b70ade4fddb2da8d7ab785f463c96cb", "type": "electric_scooter", "name": "6b70ade4fddb2da8d7ab785f463c96cb"}, {"is_disabled": 0, "is_reserved": 0, "fusion_lat": 0.0, "lat": 38.930298, "fusion_lon": 0.0, "rental_uris": {"ios": "https://dc.lft.to/lastmile_qr_scan", "android": "https://dc.lft.to/lastmile_qr_scan"}, "lon": -77.02963883333334, "bike_id": "aec310d21e3d39dc847139fda55cf70b", "type": "electric_scooter", "name": "aec310d21e3d39dc847139fda55cf70b"}, {"is_disabled": 0, "is_reserved": 0, "fusion_lat": 0.0, "lat": 38.92167333333333, "fusion_lon": 0.0, "rental_uris": {"ios": "https://dc.lft.to/lastmile_qr_scan", "android": "https://dc.lft.to/lastmile_qr_scan"}, "lon": -77.01817516666667, "bike_id": "b5d0eb0bfbb3a27527bf5a8ea0af254a", "type": "electric_scooter", "name": "b5d0eb0bfbb3a27527bf5a8ea0af254a"}, {"is_disabled": 0, "is_reserved": 0, "fusion_lat": 0.0, "lat": 38.92857, "fusion_lon": 0.0, "rental_uris": {"ios": "https://dc.lft.to/lastmile_qr_scan", "android": "https://dc.lft.to/lastmile_qr_scan"}, "lon": -77.0138005, "bike_id": "67faa8563655bf84f38a797af201d559", "type": "electric_scooter", "name": "67faa8563655bf84f38a797af201d559"}, {"is_disabled": 0, "is_reserved": 0, "fusion_lat": 0.0, "lat": 38.9140605, "fusion_lon": 0.0, "rental_uris": {"ios": "https://dc.lft.to/lastmile_qr_scan", "android": "https://dc.lft.to/lastmile_qr_scan"}, "lon": -77.03086466666667, "bike_id": "75a819b113565c754cae34ec463f413b", "type": "electric_scooter", "name": "75a819b113565c754cae34ec463f413b"}, {"is_disabled": 0, "is_reserved": 0, "fusion_lat": 0.0, "lat": 38.8812265, "fusion_lon": 0.0, "rental_uris": {"ios": "https://dc.lft.to/lastmile_qr_scan", "android": "https://dc.lft.to/lastmile_qr_scan"}, "lon": -76.99283433333333, "bike_id": "9e9010daa976477f2d0428d0b895c48b", "type": "electric_scooter", "name": "9e9010daa976477f2d0428d0b895c48b"}, {"is_disabled": 0, "is_reserved": 0, "fusion_lat": 0.0, "lat": 38.907806, "fusion_lon": 0.0, "rental_uris": {"ios": "https://dc.lft.to/lastmile_qr_scan", "android": "https://dc.lft.to/lastmile_qr_scan"}, "lon": -77.0451055, "bike_id": "42a408acb3e48115a3eb9e1eabeb482c", "type": "electric_scooter", "name": "42a408acb3e48115a3eb9e1eabeb482c"}, {"is_disabled": 0, "is_reserved": 0, "fusion_lat": 0.0, "lat": 38.96018483333334, "fusion_lon": 0.0, "rental_uris": {"ios": "https://dc.lft.to/lastmile_qr_scan", "android": "https://dc.lft.to/lastmile_qr_scan"}, "lon": -77.028187, "bike_id": "a3f5c1d8d52119d69ac6a27bf81c240f", "type": "electric_scooter", "name": "a3f5c1d8d52119d69ac6a27bf81c240f"}, {"is_disabled": 0, "is_reserved": 0, "fusion_lat": 0.0, "lat": 38.89245966666667, "fusion_lon": 0.0, "rental_uris": {"ios": "https://dc.lft.to/lastmile_qr_scan", "android": "https://dc.lft.to/lastmile_qr_scan"}, "lon": -77.03958316666667, "bike_id": "03e64055a4a039ea1d29782e854088d1", "type": "electric_scooter", "name": "03e64055a4a039ea1d29782e854088d1"}, {"is_disabled": 0, "is_reserved": 0, "fusion_lat": 0.0, "lat": 38.9097925, "fusion_lon": 0.0, "rental_uris": {"ios": "https://dc.lft.to/lastmile_qr_scan", "android": "https://dc.lft.to/lastmile_qr_scan"}, "lon": -77.031812, "bike_id": "18150cec420abcd92f6f27911919e260", "type": "electric_scooter", "name": "18150cec420abcd92f6f27911919e260"}, {"is_disabled": 0, "is_reserved": 0, "fusion_lat": 0.0, "lat": 38.92791066666667, "fusion_lon": 0.0, "rental_uris": {"ios": "https://dc.lft.to/lastmile_qr_scan", "android": "https://dc.lft.to/lastmile_qr_scan"}, "lon": -77.0271755, "bike_id": "37a4e5d4942c9decea274c40211eb686", "type": "electric_scooter", "name": "37a4e5d4942c9decea274c40211eb686"}, {"is_disabled": 0, "is_reserved": 0, "fusion_lat": 0.0, "lat": 38.876602, "fusion_lon": 0.0, "rental_uris": {"ios": "https://dc.lft.to/lastmile_qr_scan", "android": "https://dc.lft.to/lastmile_qr_scan"}, "lon": -77.00880983333333, "bike_id": "1ebc37917ddbb1cc17fe13e172e3bfa9", "type": "electric_scooter", "name": "1ebc37917ddbb1cc17fe13e172e3bfa9"}, {"is_disabled": 0, "is_reserved": 0, "fusion_lat": 0.0, "lat": 38.883608, "fusion_lon": 0.0, "rental_uris": {"ios": "https://dc.lft.to/lastmile_qr_scan", "android": "https://dc.lft.to/lastmile_qr_scan"}, "lon": -76.9278815, "bike_id": "3eb52153fca6fbf053a5dc1b6cec739e", "type": "electric_scooter", "name": "3eb52153fca6fbf053a5dc1b6cec739e"}, {"is_disabled": 0, "is_reserved": 0, "fusion_lat": 0.0, "lat": 38.913140166666665, "fusion_lon": 0.0, "rental_uris": {"ios": "https://dc.lft.to/lastmile_qr_scan", "android": "https://dc.lft.to/lastmile_qr_scan"}, "lon": -77.03256016666667, "bike_id": "edebfb9c30b878a2867d7ce8335a917d", "type": "electric_scooter", "name": "edebfb9c30b878a2867d7ce8335a917d"}, {"is_disabled": 0, "is_reserved": 0, "fusion_lat": 0.0, "lat": 38.902628666666665, "fusion_lon": 0.0, "rental_uris": {"ios": "https://dc.lft.to/lastmile_qr_scan", "android": "https://dc.lft.to/lastmile_qr_scan"}, "lon": -76.9284805, "bike_id": "31b027a3af32d78810f8af23a02318ad", "type": "electric_scooter", "name": "31b027a3af32d78810f8af23a02318ad"}, {"is_disabled": 0, "is_reserved": 0, "fusion_lat": 0.0, "lat": 38.928619833333336, "fusion_lon": 0.0, "rental_uris": {"ios": "https://dc.lft.to/lastmile_qr_scan", "android": "https://dc.lft.to/lastmile_qr_scan"}, "lon": -77.078907, "bike_id": "6c2190e61b8798b4afcdd4278357de59", "type": "electric_scooter", "name": "6c2190e61b8798b4afcdd4278357de59"}, {"is_disabled": 0, "is_reserved": 0, "fusion_lat": 0.0, "lat": 38.901657, "fusion_lon": 0.0, "rental_uris": {"ios": "https://dc.lft.to/lastmile_qr_scan", "android": "https://dc.lft.to/lastmile_qr_scan"}, "lon": -77.02510933333333, "bike_id": "987243d1ce4c611d5f7e466ee4e4cef8", "type": "electric_scooter", "name": "987243d1ce4c611d5f7e466ee4e4cef8"}, {"is_disabled": 0, "is_reserved": 0, "fusion_lat": 0.0, "lat": 38.905091166666665, "fusion_lon": 0.0, "rental_uris": {"ios": "https://dc.lft.to/lastmile_qr_scan", "android": "https://dc.lft.to/lastmile_qr_scan"}, "lon": -76.952008, "bike_id": "9b4d1a2001616b6bdfa2e1b58a0d3bda", "type": "electric_scooter", "name": "9b4d1a2001616b6bdfa2e1b58a0d3bda"}, {"is_disabled": 0, "is_reserved": 0, "fusion_lat": 0.0, "lat": 38.89690616666667, "fusion_lon": 0.0, "rental_uris": {"ios": "https://dc.lft.to/lastmile_qr_scan", "android": "https://dc.lft.to/lastmile_qr_scan"}, "lon": -77.024089, "bike_id": "80a5b1f79e0a150e39dc2734554569ea", "type": "electric_bike", "name": "80a5b1f79e0a150e39dc2734554569ea"}, {"is_disabled": 0, "is_reserved": 0, "fusion_lat": 0.0, "lat": 38.92252, "fusion_lon": 0.0, "rental_uris": {"ios": "https://dc.lft.to/lastmile_qr_scan", "android": "https://dc.lft.to/lastmile_qr_scan"}, "lon": -77.0365495, "bike_id": "fc3202e1e69ce7d70c2efa80c849acd5", "type": "electric_scooter", "name": "fc3202e1e69ce7d70c2efa80c849acd5"}, {"is_disabled": 0, "is_reserved": 0, "fusion_lat": 0.0, "lat": 38.92196166666667, "fusion_lon": 0.0, "rental_uris": {"ios": "https://dc.lft.to/lastmile_qr_scan", "android": "https://dc.lft.to/lastmile_qr_scan"}, "lon": -77.0204165, "bike_id": "0fe517536e092dbb9dc99530f27f6938", "type": "electric_scooter", "name": "0fe517536e092dbb9dc99530f27f6938"}, {"is_disabled": 0, "is_reserved": 0, "fusion_lat": 0.0, "lat": 38.88617816666667, "fusion_lon": 0.0, "rental_uris": {"ios": "https://dc.lft.to/lastmile_qr_scan", "android": "https://dc.lft.to/lastmile_qr_scan"}, "lon": -76.92636383333334, "bike_id": "c342f3f0fd64774bc0fdcf69dc3ea427", "type": "electric_scooter", "name": "c342f3f0fd64774bc0fdcf69dc3ea427"}, {"is_disabled": 0, "is_reserved": 0, "fusion_lat": 0.0, "lat": 38.895229, "fusion_lon": 0.0, "rental_uris": {"ios": "https://dc.lft.to/lastmile_qr_scan", "android": "https://dc.lft.to/lastmile_qr_scan"}, "lon": -76.981132, "bike_id": "8584477438ec7ca0e68668e15590da49", "type": "electric_scooter", "name": "8584477438ec7ca0e68668e15590da49"}, {"is_disabled": 0, "is_reserved": 0, "fusion_lat": 0.0, "lat": 38.9205035, "fusion_lon": 0.0, "rental_uris": {"ios": "https://dc.lft.to/lastmile_qr_scan", "android": "https://dc.lft.to/lastmile_qr_scan"}, "lon": -77.03128416666667, "bike_id": "50888f53d22c03ebd309d8a3f2807b02", "type": "electric_scooter", "name": "50888f53d22c03ebd309d8a3f2807b02"}, {"is_disabled": 0, "is_reserved": 0, "fusion_lat": 0.0, "lat": 38.9141305, "fusion_lon": 0.0, "rental_uris": {"ios": "https://dc.lft.to/lastmile_qr_scan", "android": "https://dc.lft.to/lastmile_qr_scan"}, "lon": -77.05208833333333, "bike_id": "733f539cac8cb6acee3a29f003b2ee7d", "type": "electric_scooter", "name": "733f539cac8cb6acee3a29f003b2ee7d"}, {"is_disabled": 0, "is_reserved": 0, "fusion_lat": 0.0, "lat": 38.9433295, "fusion_lon": 0.0, "rental_uris": {"ios": "https://dc.lft.to/lastmile_qr_scan", "android": "https://dc.lft.to/lastmile_qr_scan"}, "lon": -77.0269235, "bike_id": "56d15c28150052d99d3aba7f7ca3233a", "type": "electric_scooter", "name": "56d15c28150052d99d3aba7f7ca3233a"}, {"is_disabled": 0, "is_reserved": 0, "fusion_lat": 0.0, "lat": 39.02647416666667, "fusion_lon": 0.0, "rental_uris": {"ios": "https://dc.lft.to/lastmile_qr_scan", "android": "https://dc.lft.to/lastmile_qr_scan"}, "lon": -77.036847, "bike_id": "b5722403c520abd6026950e9eab413c8", "type": "electric_bike", "name": "b5722403c520abd6026950e9eab413c8"}, {"is_disabled": 0, "is_reserved": 0, "fusion_lat": 0.0, "lat": 38.90137433333334, "fusion_lon": 0.0, "rental_uris": {"ios": "https://dc.lft.to/lastmile_qr_scan", "android": "https://dc.lft.to/lastmile_qr_scan"}, "lon": -76.97411566666666, "bike_id": "bc634421bfcaf656baafecac04f78367", "type": "electric_scooter", "name": "bc634421bfcaf656baafecac04f78367"}, {"is_disabled": 0, "is_reserved": 0, "fusion_lat": 0.0, "lat": 38.927586, "fusion_lon": 0.0, "rental_uris": {"ios": "https://dc.lft.to/lastmile_qr_scan", "android": "https://dc.lft.to/lastmile_qr_scan"}, "lon": -77.05264283333334, "bike_id": "80ec1a213328488e96d2a5fd1d93ca4c", "type": "electric_scooter", "name": "80ec1a213328488e96d2a5fd1d93ca4c"}, {"is_disabled": 0, "is_reserved": 0, "fusion_lat": 0.0, "lat": 38.91673133333333, "fusion_lon": 0.0, "rental_uris": {"ios": "https://dc.lft.to/lastmile_qr_scan", "android": "https://dc.lft.to/lastmile_qr_scan"}, "lon": -77.04693766666666, "bike_id": "f4b40b50d551cfc7b4e7aa058187ae3b", "type": "electric_bike", "name": "f4b40b50d551cfc7b4e7aa058187ae3b"}, {"is_disabled": 0, "is_reserved": 0, "fusion_lat": 0.0, "lat": 38.91363583333333, "fusion_lon": 0.0, "rental_uris": {"ios": "https://dc.lft.to/lastmile_qr_scan", "android": "https://dc.lft.to/lastmile_qr_scan"}, "lon": -77.0465625, "bike_id": "1da48151c0ecc56b155210bc6892426d", "type": "electric_scooter", "name": "1da48151c0ecc56b155210bc6892426d"}, {"is_disabled": 0, "is_reserved": 0, "fusion_lat": 0.0, "lat": 38.90261483333333, "fusion_lon": 0.0, "rental_uris": {"ios": "https://dc.lft.to/lastmile_qr_scan", "android": "https://dc.lft.to/lastmile_qr_scan"}, "lon": -77.03838933333333, "bike_id": "9285940b121e2c388946fdd1250dfc39", "type": "electric_scooter", "name": "9285940b121e2c388946fdd1250dfc39"}, {"is_disabled": 0, "is_reserved": 0, "fusion_lat": 0.0, "lat": 38.912225166666666, "fusion_lon": 0.0, "rental_uris": {"ios": "https://dc.lft.to/lastmile_qr_scan", "android": "https://dc.lft.to/lastmile_qr_scan"}, "lon": -77.006606, "bike_id": "77ff5a124818a64e43cb5714fabe5be9", "type": "electric_scooter", "name": "77ff5a124818a64e43cb5714fabe5be9"}, {"is_disabled": 0, "is_reserved": 0, "fusion_lat": 0.0, "lat": 38.86183333333334, "fusion_lon": 0.0, "rental_uris": {"ios": "https://dc.lft.to/lastmile_qr_scan", "android": "https://dc.lft.to/lastmile_qr_scan"}, "lon": -77.08843083333333, "bike_id": "5865d718911346cc992f216ee18a9a09", "type": "electric_bike", "name": "5865d718911346cc992f216ee18a9a09"}, {"is_disabled": 0, "is_reserved": 0, "fusion_lat": 0.0, "lat": 38.935322, "fusion_lon": 0.0, "rental_uris": {"ios": "https://dc.lft.to/lastmile_qr_scan", "android": "https://dc.lft.to/lastmile_qr_scan"}, "lon": -77.054512, "bike_id": "ca2afc540b6573169ff1c64692ef46ae", "type": "electric_scooter", "name": "ca2afc540b6573169ff1c64692ef46ae"}, {"is_disabled": 0, "is_reserved": 0, "fusion_lat": 0.0, "lat": 38.9056695, "fusion_lon": 0.0, "rental_uris": {"ios": "https://dc.lft.to/lastmile_qr_scan", "android": "https://dc.lft.to/lastmile_qr_scan"}, "lon": -77.020147, "bike_id": "3cdcbb5c7896e79717b77e72478b4e08", "type": "electric_scooter", "name": "3cdcbb5c7896e79717b77e72478b4e08"}, {"is_disabled": 0, "is_reserved": 0, "fusion_lat": 0.0, "lat": 38.941763333333334, "fusion_lon": 0.0, "rental_uris": {"ios": "https://dc.lft.to/lastmile_qr_scan", "android": "https://dc.lft.to/lastmile_qr_scan"}, "lon": -77.0338905, "bike_id": "661d6de3c998e7e82689c17a2785e24c", "type": "electric_scooter", "name": "661d6de3c998e7e82689c17a2785e24c"}, {"is_disabled": 0, "is_reserved": 0, "fusion_lat": 0.0, "lat": 38.91512383333333, "fusion_lon": 0.0, "rental_uris": {"ios": "https://dc.lft.to/lastmile_qr_scan", "android": "https://dc.lft.to/lastmile_qr_scan"}, "lon": -76.98366583333333, "bike_id": "9f4c2413e4a49f745f492fc4f1b2dd37", "type": "electric_scooter", "name": "9f4c2413e4a49f745f492fc4f1b2dd37"}, {"is_disabled": 0, "is_reserved": 0, "fusion_lat": 0.0, "lat": 38.923426666666664, "fusion_lon": 0.0, "rental_uris": {"ios": "https://dc.lft.to/lastmile_qr_scan", "android": "https://dc.lft.to/lastmile_qr_scan"}, "lon": -76.998627, "bike_id": "17a34229277482fec247ce77078b0fd1", "type": "electric_scooter", "name": "17a34229277482fec247ce77078b0fd1"}, {"is_disabled": 0, "is_reserved": 0, "fusion_lat": 0.0, "lat": 38.90765416666667, "fusion_lon": 0.0, "rental_uris": {"ios": "https://dc.lft.to/lastmile_qr_scan", "android": "https://dc.lft.to/lastmile_qr_scan"}, "lon": -77.05663033333333, "bike_id": "bbef21a168c1110f97061ca16c677e17", "type": "electric_bike", "name": "bbef21a168c1110f97061ca16c677e17"}, {"is_disabled": 0, "is_reserved": 0, "fusion_lat": 0.0, "lat": 38.87470066666667, "fusion_lon": 0.0, "rental_uris": {"ios": "https://dc.lft.to/lastmile_qr_scan", "android": "https://dc.lft.to/lastmile_qr_scan"}, "lon": -77.00508433333333, "bike_id": "044fcf39f44d43c6cdccd007646fc9cf", "type": "electric_scooter", "name": "044fcf39f44d43c6cdccd007646fc9cf"}, {"is_disabled": 0, "is_reserved": 0, "fusion_lat": 0.0, "lat": 38.892323833333336, "fusion_lon": 0.0, "rental_uris": {"ios": "https://dc.lft.to/lastmile_qr_scan", "android": "https://dc.lft.to/lastmile_qr_scan"}, "lon": -77.02383433333334, "bike_id": "da441b28bfa1bfc94a79ff8208ce9e8a", "type": "electric_scooter", "name": "da441b28bfa1bfc94a79ff8208ce9e8a"}, {"is_disabled": 0, "is_reserved": 0, "fusion_lat": 0.0, "lat": 38.8922535, "fusion_lon": 0.0, "rental_uris": {"ios": "https://dc.lft.to/lastmile_qr_scan", "android": "https://dc.lft.to/lastmile_qr_scan"}, "lon": -77.04333366666667, "bike_id": "893586dcd3c233c7d5b36c18bd04669f", "type": "electric_scooter", "name": "893586dcd3c233c7d5b36c18bd04669f"}, {"is_disabled": 0, "is_reserved": 0, "fusion_lat": 0.0, "lat": 38.92049216666667, "fusion_lon": 0.0, "rental_uris": {"ios": "https://dc.lft.to/lastmile_qr_scan", "android": "https://dc.lft.to/lastmile_qr_scan"}, "lon": -77.0257395, "bike_id": "c784873c7a49e2c4abea6a63281af097", "type": "electric_scooter", "name": "c784873c7a49e2c4abea6a63281af097"}, {"is_disabled": 0, "is_reserved": 0, "fusion_lat": 0.0, "lat": 38.824298666666664, "fusion_lon": 0.0, "rental_uris": {"ios": "https://dc.lft.to/lastmile_qr_scan", "android": "https://dc.lft.to/lastmile_qr_scan"}, "lon": -77.12041866666667, "bike_id": "6ff7447f9edd80b9f4dc584304626341", "type": "electric_bike", "name": "6ff7447f9edd80b9f4dc584304626341"}, {"is_disabled": 0, "is_reserved": 0, "fusion_lat": 0.0, "lat": 38.865633, "fusion_lon": 0.0, "rental_uris": {"ios": "https://dc.lft.to/lastmile_qr_scan", "android": "https://dc.lft.to/lastmile_qr_scan"}, "lon": -76.97470833333334, "bike_id": "f0a8f811cb2907a4a5dd6ddf9fc44e0f", "type": "electric_bike", "name": "f0a8f811cb2907a4a5dd6ddf9fc44e0f"}, {"is_disabled": 0, "is_reserved": 0, "fusion_lat": 0.0, "lat": 38.882192833333335, "fusion_lon": 0.0, "rental_uris": {"ios": "https://dc.lft.to/lastmile_qr_scan", "android": "https://dc.lft.to/lastmile_qr_scan"}, "lon": -76.99737183333333, "bike_id": "9bd8d8bf3cf118e8287c5d19e15f1bea", "type": "electric_scooter", "name": "9bd8d8bf3cf118e8287c5d19e15f1bea"}, {"is_disabled": 0, "is_reserved": 0, "fusion_lat": 0.0, "lat": 38.873081166666665, "fusion_lon": 0.0, "rental_uris": {"ios": "https://dc.lft.to/lastmile_qr_scan", "android": "https://dc.lft.to/lastmile_qr_scan"}, "lon": -77.01074116666666, "bike_id": "1af31fd625b064effc85264d55c76bbe", "type": "electric_scooter", "name": "1af31fd625b064effc85264d55c76bbe"}, {"is_disabled": 0, "is_reserved": 0, "fusion_lat": 0.0, "lat": 38.929475, "fusion_lon": 0.0, "rental_uris": {"ios": "https://dc.lft.to/lastmile_qr_scan", "android": "https://dc.lft.to/lastmile_qr_scan"}, "lon": -77.05481966666666, "bike_id": "b75c25620e515f275b84d067243debbe", "type": "electric_scooter", "name": "b75c25620e515f275b84d067243debbe"}, {"is_disabled": 0, "is_reserved": 0, "fusion_lat": 0.0, "lat": 38.9460395, "fusion_lon": 0.0, "rental_uris": {"ios": "https://dc.lft.to/lastmile_qr_scan", "android": "https://dc.lft.to/lastmile_qr_scan"}, "lon": -77.0266395, "bike_id": "0fda2306d2b5c7484da48654a389a011", "type": "electric_scooter", "name": "0fda2306d2b5c7484da48654a389a011"}, {"is_disabled": 0, "is_reserved": 0, "fusion_lat": 0.0, "lat": 38.85641183333333, "fusion_lon": 0.0, "rental_uris": {"ios": "https://dc.lft.to/lastmile_qr_scan", "android": "https://dc.lft.to/lastmile_qr_scan"}, "lon": -77.06832233333333, "bike_id": "572498752add5749a7ebe3aa949e1029", "type": "electric_bike", "name": "572498752add5749a7ebe3aa949e1029"}, {"is_disabled": 0, "is_reserved": 0, "fusion_lat": 0.0, "lat": 38.9320975, "fusion_lon": 0.0, "rental_uris": {"ios": "https://dc.lft.to/lastmile_qr_scan", "android": "https://dc.lft.to/lastmile_qr_scan"}, "lon": -77.02282933333333, "bike_id": "bbd6184e1f648b252a421a3d0eccbae2", "type": "electric_scooter", "name": "bbd6184e1f648b252a421a3d0eccbae2"}, {"is_disabled": 0, "is_reserved": 0, "fusion_lat": 0.0, "lat": 38.80479416666667, "fusion_lon": 0.0, "rental_uris": {"ios": "https://dc.lft.to/lastmile_qr_scan", "android": "https://dc.lft.to/lastmile_qr_scan"}, "lon": -76.9910685, "bike_id": "c7c17eb48cd612a2ceb548cb857549f9", "type": "electric_bike", "name": "c7c17eb48cd612a2ceb548cb857549f9"}, {"is_disabled": 0, "is_reserved": 0, "fusion_lat": 0.0, "lat": 38.902361666666664, "fusion_lon": 0.0, "rental_uris": {"ios": "https://dc.lft.to/lastmile_qr_scan", "android": "https://dc.lft.to/lastmile_qr_scan"}, "lon": -77.060653, "bike_id": "157f44fb88f064db76153b80940e559e", "type": "electric_scooter", "name": "157f44fb88f064db76153b80940e559e"}, {"is_disabled": 0, "is_reserved": 0, "fusion_lat": 0.0, "lat": 39.000989833333335, "fusion_lon": 0.0, "rental_uris": {"ios": "https://dc.lft.to/lastmile_qr_scan", "android": "https://dc.lft.to/lastmile_qr_scan"}, "lon": -76.909839, "bike_id": "4bbbed410cbfdaeeb64c6a816001cf3a", "type": "electric_bike", "name": "4bbbed410cbfdaeeb64c6a816001cf3a"}, {"is_disabled": 0, "is_reserved": 0, "fusion_lat": 0.0, "lat": 38.922650833333336, "fusion_lon": 0.0, "rental_uris": {"ios": "https://dc.lft.to/lastmile_qr_scan", "android": "https://dc.lft.to/lastmile_qr_scan"}, "lon": -77.03637166666667, "bike_id": "e0974e5623788063babf48825b0a1138", "type": "electric_scooter", "name": "e0974e5623788063babf48825b0a1138"}, {"is_disabled": 0, "is_reserved": 0, "fusion_lat": 0.0, "lat": 38.91534883333333, "fusion_lon": 0.0, "rental_uris": {"ios": "https://dc.lft.to/lastmile_qr_scan", "android": "https://dc.lft.to/lastmile_qr_scan"}, "lon": -77.0320175, "bike_id": "76b64be52df3645f4d7460632abaf839", "type": "electric_scooter", "name": "76b64be52df3645f4d7460632abaf839"}, {"is_disabled": 0, "is_reserved": 0, "fusion_lat": 0.0, "lat": 38.91553666666667, "fusion_lon": 0.0, "rental_uris": {"ios": "https://dc.lft.to/lastmile_qr_scan", "android": "https://dc.lft.to/lastmile_qr_scan"}, "lon": -77.0233475, "bike_id": "bc68461b7c7864a082cae59389c3af3c", "type": "electric_scooter", "name": "bc68461b7c7864a082cae59389c3af3c"}, {"is_disabled": 0, "is_reserved": 0, "fusion_lat": 0.0, "lat": 38.90392166666667, "fusion_lon": 0.0, "rental_uris": {"ios": "https://dc.lft.to/lastmile_qr_scan", "android": "https://dc.lft.to/lastmile_qr_scan"}, "lon": -77.0185475, "bike_id": "84cbb4f8f10cc3a3b2e8c69fb685ce14", "type": "electric_scooter", "name": "84cbb4f8f10cc3a3b2e8c69fb685ce14"}, {"is_disabled": 0, "is_reserved": 0, "fusion_lat": 0.0, "lat": 39.074442, "fusion_lon": 0.0, "rental_uris": {"ios": "https://dc.lft.to/lastmile_qr_scan", "android": "https://dc.lft.to/lastmile_qr_scan"}, "lon": -77.11513783333334, "bike_id": "3f6f3f9e6aef83afd0cba64e5158ac1d", "type": "electric_bike", "name": "3f6f3f9e6aef83afd0cba64e5158ac1d"}, {"is_disabled": 0, "is_reserved": 0, "fusion_lat": 0.0, "lat": 38.90801183333333, "fusion_lon": 0.0, "rental_uris": {"ios": "https://dc.lft.to/lastmile_qr_scan", "android": "https://dc.lft.to/lastmile_qr_scan"}, "lon": -77.038327, "bike_id": "36d3e3726ad1c91d9f220071b25ee882", "type": "electric_scooter", "name": "36d3e3726ad1c91d9f220071b25ee882"}, {"is_disabled": 0, "is_reserved": 0, "fusion_lat": 0.0, "lat": 38.918187, "fusion_lon": 0.0, "rental_uris": {"ios": "https://dc.lft.to/lastmile_qr_scan", "android": "https://dc.lft.to/lastmile_qr_scan"}, "lon": -77.02523716666667, "bike_id": "d8c6a8ddfdb09888fb3a6469e1b7352f", "type": "electric_scooter", "name": "d8c6a8ddfdb09888fb3a6469e1b7352f"}, {"is_disabled": 0, "is_reserved": 0, "fusion_lat": 0.0, "lat": 38.920240666666665, "fusion_lon": 0.0, "rental_uris": {"ios": "https://dc.lft.to/lastmile_qr_scan", "android": "https://dc.lft.to/lastmile_qr_scan"}, "lon": -77.011183, "bike_id": "84183b8dd27857492fd89488fd9eb07a", "type": "electric_scooter", "name": "84183b8dd27857492fd89488fd9eb07a"}, {"is_disabled": 0, "is_reserved": 0, "fusion_lat": 0.0, "lat": 38.90655483333333, "fusion_lon": 0.0, "rental_uris": {"ios": "https://dc.lft.to/lastmile_qr_scan", "android": "https://dc.lft.to/lastmile_qr_scan"}, "lon": -77.011773, "bike_id": "693ad65eb4d2281ff370a92bf2711ccd", "type": "electric_scooter", "name": "693ad65eb4d2281ff370a92bf2711ccd"}, {"is_disabled": 0, "is_reserved": 0, "fusion_lat": 0.0, "lat": 38.80406283333333, "fusion_lon": 0.0, "rental_uris": {"ios": "https://dc.lft.to/lastmile_qr_scan", "android": "https://dc.lft.to/lastmile_qr_scan"}, "lon": -77.113309, "bike_id": "ccfc6c06bcfacfbed177549b4e2581a2", "type": "electric_bike", "name": "ccfc6c06bcfacfbed177549b4e2581a2"}, {"is_disabled": 0, "is_reserved": 0, "fusion_lat": 0.0, "lat": 38.96158716666667, "fusion_lon": 0.0, "rental_uris": {"ios": "https://dc.lft.to/lastmile_qr_scan", "android": "https://dc.lft.to/lastmile_qr_scan"}, "lon": -77.0278495, "bike_id": "e00ed9c8cb68849a0d4a1bd8f30fa88a", "type": "electric_scooter", "name": "e00ed9c8cb68849a0d4a1bd8f30fa88a"}, {"is_disabled": 0, "is_reserved": 0, "fusion_lat": 0.0, "lat": 38.904761666666666, "fusion_lon": 0.0, "rental_uris": {"ios": "https://dc.lft.to/lastmile_qr_scan", "android": "https://dc.lft.to/lastmile_qr_scan"}, "lon": -77.04873316666666, "bike_id": "e794fc7f59cdd271a8170a42a10fe517", "type": "electric_scooter", "name": "e794fc7f59cdd271a8170a42a10fe517"}, {"is_disabled": 0, "is_reserved": 0, "fusion_lat": 0.0, "lat": 38.85592483333333, "fusion_lon": 0.0, "rental_uris": {"ios": "https://dc.lft.to/lastmile_qr_scan", "android": "https://dc.lft.to/lastmile_qr_scan"}, "lon": -76.972802, "bike_id": "80119c4b165b37c4857fa1566194b66e", "type": "electric_bike", "name": "80119c4b165b37c4857fa1566194b66e"}, {"is_disabled": 0, "is_reserved": 0, "fusion_lat": 0.0, "lat": 38.941416, "fusion_lon": 0.0, "rental_uris": {"ios": "https://dc.lft.to/lastmile_qr_scan", "android": "https://dc.lft.to/lastmile_qr_scan"}, "lon": -77.0232375, "bike_id": "d304a8baa7579cbc6be07b422f00ad44", "type": "electric_scooter", "name": "d304a8baa7579cbc6be07b422f00ad44"}, {"is_disabled": 0, "is_reserved": 0, "fusion_lat": 0.0, "lat": 38.91784166666667, "fusion_lon": 0.0, "rental_uris": {"ios": "https://dc.lft.to/lastmile_qr_scan", "android": "https://dc.lft.to/lastmile_qr_scan"}, "lon": -77.02465333333333, "bike_id": "9fc47154f309ccb398290335d5bca709", "type": "electric_scooter", "name": "9fc47154f309ccb398290335d5bca709"}, {"is_disabled": 0, "is_reserved": 0, "fusion_lat": 0.0, "lat": 38.901947666666665, "fusion_lon": 0.0, "rental_uris": {"ios": "https://dc.lft.to/lastmile_qr_scan", "android": "https://dc.lft.to/lastmile_qr_scan"}, "lon": -77.05090566666667, "bike_id": "3251daa1db4ea0f389dff715b959bdd9", "type": "electric_scooter", "name": "3251daa1db4ea0f389dff715b959bdd9"}, {"is_disabled": 0, "is_reserved": 0, "fusion_lat": 0.0, "lat": 38.926464333333335, "fusion_lon": 0.0, "rental_uris": {"ios": "https://dc.lft.to/lastmile_qr_scan", "android": "https://dc.lft.to/lastmile_qr_scan"}, "lon": -77.0346665, "bike_id": "47a22e8accb96a3f2e4b348177515c8a", "type": "electric_scooter", "name": "47a22e8accb96a3f2e4b348177515c8a"}, {"is_disabled": 0, "is_reserved": 0, "fusion_lat": 0.0, "lat": 38.930996, "fusion_lon": 0.0, "rental_uris": {"ios": "https://dc.lft.to/lastmile_qr_scan", "android": "https://dc.lft.to/lastmile_qr_scan"}, "lon": -77.02473283333333, "bike_id": "fd9613007facfc7117d9a23128a490e6", "type": "electric_scooter", "name": "fd9613007facfc7117d9a23128a490e6"}, {"is_disabled": 0, "is_reserved": 0, "fusion_lat": 0.0, "lat": 38.92421016666667, "fusion_lon": 0.0, "rental_uris": {"ios": "https://dc.lft.to/lastmile_qr_scan", "android": "https://dc.lft.to/lastmile_qr_scan"}, "lon": -77.023003, "bike_id": "5d99007d8510b1b3848f5f8fcfab8012", "type": "electric_scooter", "name": "5d99007d8510b1b3848f5f8fcfab8012"}, {"is_disabled": 0, "is_reserved": 0, "fusion_lat": 0.0, "lat": 38.926542833333336, "fusion_lon": 0.0, "rental_uris": {"ios": "https://dc.lft.to/lastmile_qr_scan", "android": "https://dc.lft.to/lastmile_qr_scan"}, "lon": -77.024299, "bike_id": "3d89e6258d11e7a5766c65abdacee497", "type": "electric_scooter", "name": "3d89e6258d11e7a5766c65abdacee497"}, {"is_disabled": 0, "is_reserved": 0, "fusion_lat": 0.0, "lat": 38.947232666666665, "fusion_lon": 0.0, "rental_uris": {"ios": "https://dc.lft.to/lastmile_qr_scan", "android": "https://dc.lft.to/lastmile_qr_scan"}, "lon": -77.02354516666666, "bike_id": "97b65209a5988bc8176d114796e32eb6", "type": "electric_scooter", "name": "97b65209a5988bc8176d114796e32eb6"}, {"is_disabled": 0, "is_reserved": 0, "fusion_lat": 0.0, "lat": 38.913319, "fusion_lon": 0.0, "rental_uris": {"ios": "https://dc.lft.to/lastmile_qr_scan", "android": "https://dc.lft.to/lastmile_qr_scan"}, "lon": -77.03124566666666, "bike_id": "962a9ef1dd5bf0a56bcdf9aff5ed5220", "type": "electric_scooter", "name": "962a9ef1dd5bf0a56bcdf9aff5ed5220"}, {"is_disabled": 0, "is_reserved": 0, "fusion_lat": 0.0, "lat": 38.918196, "fusion_lon": 0.0, "rental_uris": {"ios": "https://dc.lft.to/lastmile_qr_scan", "android": "https://dc.lft.to/lastmile_qr_scan"}, "lon": -77.025253, "bike_id": "fa7cbef0db926b91ddf08d7b1db89b0d", "type": "electric_scooter", "name": "fa7cbef0db926b91ddf08d7b1db89b0d"}, {"is_disabled": 0, "is_reserved": 0, "fusion_lat": 0.0, "lat": 38.904630166666664, "fusion_lon": 0.0, "rental_uris": {"ios": "https://dc.lft.to/lastmile_qr_scan", "android": "https://dc.lft.to/lastmile_qr_scan"}, "lon": -77.02947266666666, "bike_id": "bebb1e28379a78b7efae4b9b93b9fdd1", "type": "electric_scooter", "name": "bebb1e28379a78b7efae4b9b93b9fdd1"}, {"is_disabled": 0, "is_reserved": 0, "fusion_lat": 0.0, "lat": 38.910397, "fusion_lon": 0.0, "rental_uris": {"ios": "https://dc.lft.to/lastmile_qr_scan", "android": "https://dc.lft.to/lastmile_qr_scan"}, "lon": -77.00965266666667, "bike_id": "3bc8e7b4ae358215d25c225eb25e46a7", "type": "electric_scooter", "name": "3bc8e7b4ae358215d25c225eb25e46a7"}, {"is_disabled": 0, "is_reserved": 0, "fusion_lat": 0.0, "lat": 38.974798166666666, "fusion_lon": 0.0, "rental_uris": {"ios": "https://dc.lft.to/lastmile_qr_scan", "android": "https://dc.lft.to/lastmile_qr_scan"}, "lon": -76.986666, "bike_id": "343b3f8851b5e45883ee671137823bd5", "type": "electric_bike", "name": "343b3f8851b5e45883ee671137823bd5"}, {"is_disabled": 0, "is_reserved": 0, "fusion_lat": 0.0, "lat": 38.90578683333333, "fusion_lon": 0.0, "rental_uris": {"ios": "https://dc.lft.to/lastmile_qr_scan", "android": "https://dc.lft.to/lastmile_qr_scan"}, "lon": -77.05706016666667, "bike_id": "db12a543225135235db3310ba05a5434", "type": "electric_bike", "name": "db12a543225135235db3310ba05a5434"}, {"is_disabled": 0, "is_reserved": 0, "fusion_lat": 0.0, "lat": 38.83491766666667, "fusion_lon": 0.0, "rental_uris": {"ios": "https://dc.lft.to/lastmile_qr_scan", "android": "https://dc.lft.to/lastmile_qr_scan"}, "lon": -77.004345, "bike_id": "4cb1946b40b9a6534d122acdb0ebae5a", "type": "electric_bike", "name": "4cb1946b40b9a6534d122acdb0ebae5a"}, {"is_disabled": 0, "is_reserved": 0, "fusion_lat": 0.0, "lat": 38.8984625, "fusion_lon": 0.0, "rental_uris": {"ios": "https://dc.lft.to/lastmile_qr_scan", "android": "https://dc.lft.to/lastmile_qr_scan"}, "lon": -77.00209433333333, "bike_id": "2fd7cc7a1e517ef5d46b53c79ebe4d1d", "type": "electric_scooter", "name": "2fd7cc7a1e517ef5d46b53c79ebe4d1d"}, {"is_disabled": 0, "is_reserved": 0, "fusion_lat": 0.0, "lat": 38.9084935, "fusion_lon": 0.0, "rental_uris": {"ios": "https://dc.lft.to/lastmile_qr_scan", "android": "https://dc.lft.to/lastmile_qr_scan"}, "lon": -76.997964, "bike_id": "0e362743116a23ae5b9e7b17f047d982", "type": "electric_scooter", "name": "0e362743116a23ae5b9e7b17f047d982"}, {"is_disabled": 0, "is_reserved": 0, "fusion_lat": 0.0, "lat": 38.846309166666664, "fusion_lon": 0.0, "rental_uris": {"ios": "https://dc.lft.to/lastmile_qr_scan", "android": "https://dc.lft.to/lastmile_qr_scan"}, "lon": -76.96899716666667, "bike_id": "ce31a6776136f3eee1780e7735b4ef58", "type": "electric_bike", "name": "ce31a6776136f3eee1780e7735b4ef58"}, {"is_disabled": 0, "is_reserved": 0, "fusion_lat": 0.0, "lat": 38.91766666666667, "fusion_lon": 0.0, "rental_uris": {"ios": "https://dc.lft.to/lastmile_qr_scan", "android": "https://dc.lft.to/lastmile_qr_scan"}, "lon": -77.04056833333334, "bike_id": "e5591249a4499165f99cbaccd3c38bef", "type": "electric_scooter", "name": "e5591249a4499165f99cbaccd3c38bef"}, {"is_disabled": 0, "is_reserved": 0, "fusion_lat": 0.0, "lat": 39.0229675, "fusion_lon": 0.0, "rental_uris": {"ios": "https://dc.lft.to/lastmile_qr_scan", "android": "https://dc.lft.to/lastmile_qr_scan"}, "lon": -77.021075, "bike_id": "fb0aec14f48e5ba5a72ba08fe66202b7", "type": "electric_bike", "name": "fb0aec14f48e5ba5a72ba08fe66202b7"}, {"is_disabled": 0, "is_reserved": 0, "fusion_lat": 0.0, "lat": 38.92063316666667, "fusion_lon": 0.0, "rental_uris": {"ios": "https://dc.lft.to/lastmile_qr_scan", "android": "https://dc.lft.to/lastmile_qr_scan"}, "lon": -77.04540783333333, "bike_id": "ecd0ace080302acfc8364058931b2341", "type": "electric_scooter", "name": "ecd0ace080302acfc8364058931b2341"}, {"is_disabled": 0, "is_reserved": 0, "fusion_lat": 0.0, "lat": 38.84287833333333, "fusion_lon": 0.0, "rental_uris": {"ios": "https://dc.lft.to/lastmile_qr_scan", "android": "https://dc.lft.to/lastmile_qr_scan"}, "lon": -77.06381216666666, "bike_id": "345e453f8ecc4db7adf67a29637b4789", "type": "electric_bike", "name": "345e453f8ecc4db7adf67a29637b4789"}, {"is_disabled": 0, "is_reserved": 0, "fusion_lat": 0.0, "lat": 38.975940333333334, "fusion_lon": 0.0, "rental_uris": {"ios": "https://dc.lft.to/lastmile_qr_scan", "android": "https://dc.lft.to/lastmile_qr_scan"}, "lon": -77.01859383333333, "bike_id": "6c94f49c48ae01061bb1f6f7c0d79893", "type": "electric_scooter", "name": "6c94f49c48ae01061bb1f6f7c0d79893"}, {"is_disabled": 0, "is_reserved": 0, "fusion_lat": 0.0, "lat": 38.89760966666667, "fusion_lon": 0.0, "rental_uris": {"ios": "https://dc.lft.to/lastmile_qr_scan", "android": "https://dc.lft.to/lastmile_qr_scan"}, "lon": -77.04535833333334, "bike_id": "649c2f6552d1d16c613da40262d9ebdc", "type": "electric_scooter", "name": "649c2f6552d1d16c613da40262d9ebdc"}, {"is_disabled": 0, "is_reserved": 0, "fusion_lat": 0.0, "lat": 38.901716, "fusion_lon": 0.0, "rental_uris": {"ios": "https://dc.lft.to/lastmile_qr_scan", "android": "https://dc.lft.to/lastmile_qr_scan"}, "lon": -77.025107, "bike_id": "dbe3c56f54ea6af3337d5d1f6a56b098", "type": "electric_scooter", "name": "dbe3c56f54ea6af3337d5d1f6a56b098"}, {"is_disabled": 0, "is_reserved": 0, "fusion_lat": 0.0, "lat": 38.90309533333333, "fusion_lon": 0.0, "rental_uris": {"ios": "https://dc.lft.to/lastmile_qr_scan", "android": "https://dc.lft.to/lastmile_qr_scan"}, "lon": -77.03665033333333, "bike_id": "0a4a2f27dd5ff5f3c7b5f94e6182b2fe", "type": "electric_bike", "name": "0a4a2f27dd5ff5f3c7b5f94e6182b2fe"}, {"is_disabled": 0, "is_reserved": 0, "fusion_lat": 0.0, "lat": 38.92971883333333, "fusion_lon": 0.0, "rental_uris": {"ios": "https://dc.lft.to/lastmile_qr_scan", "android": "https://dc.lft.to/lastmile_qr_scan"}, "lon": -77.02918966666667, "bike_id": "725a17685bbe207f8c2ea14d15259792", "type": "electric_scooter", "name": "725a17685bbe207f8c2ea14d15259792"}, {"is_disabled": 0, "is_reserved": 0, "fusion_lat": 0.0, "lat": 38.98717166666667, "fusion_lon": 0.0, "rental_uris": {"ios": "https://dc.lft.to/lastmile_qr_scan", "android": "https://dc.lft.to/lastmile_qr_scan"}, "lon": -77.03761316666667, "bike_id": "1fa5017783c84452ebba5d972ce37589", "type": "electric_bike", "name": "1fa5017783c84452ebba5d972ce37589"}, {"is_disabled": 0, "is_reserved": 0, "fusion_lat": 0.0, "lat": 38.952465333333336, "fusion_lon": 0.0, "rental_uris": {"ios": "https://dc.lft.to/lastmile_qr_scan", "android": "https://dc.lft.to/lastmile_qr_scan"}, "lon": -77.09623083333334, "bike_id": "f7512a5e64487cf4ce296c7750b0e230", "type": "electric_bike", "name": "f7512a5e64487cf4ce296c7750b0e230"}, {"is_disabled": 0, "is_reserved": 0, "fusion_lat": 0.0, "lat": 38.92659366666667, "fusion_lon": 0.0, "rental_uris": {"ios": "https://dc.lft.to/lastmile_qr_scan", "android": "https://dc.lft.to/lastmile_qr_scan"}, "lon": -76.99295583333334, "bike_id": "7ff6971250fccec35adad89e304015c9", "type": "electric_scooter", "name": "7ff6971250fccec35adad89e304015c9"}, {"is_disabled": 0, "is_reserved": 0, "fusion_lat": 0.0, "lat": 38.93079783333334, "fusion_lon": 0.0, "rental_uris": {"ios": "https://dc.lft.to/lastmile_qr_scan", "android": "https://dc.lft.to/lastmile_qr_scan"}, "lon": -77.07764816666666, "bike_id": "56ba695e0a0707fbdc203c67710a8911", "type": "electric_scooter", "name": "56ba695e0a0707fbdc203c67710a8911"}, {"is_disabled": 0, "is_reserved": 0, "fusion_lat": 0.0, "lat": 38.92448183333333, "fusion_lon": 0.0, "rental_uris": {"ios": "https://dc.lft.to/lastmile_qr_scan", "android": "https://dc.lft.to/lastmile_qr_scan"}, "lon": -77.0213395, "bike_id": "0947473824ed29e3fa94a941e81cb914", "type": "electric_scooter", "name": "0947473824ed29e3fa94a941e81cb914"}, {"is_disabled": 0, "is_reserved": 0, "fusion_lat": 0.0, "lat": 38.92036233333333, "fusion_lon": 0.0, "rental_uris": {"ios": "https://dc.lft.to/lastmile_qr_scan", "android": "https://dc.lft.to/lastmile_qr_scan"}, "lon": -76.97956983333333, "bike_id": "16f437d789a224dad4b0e0f76d0d64bd", "type": "electric_bike", "name": "16f437d789a224dad4b0e0f76d0d64bd"}, {"is_disabled": 0, "is_reserved": 0, "fusion_lat": 0.0, "lat": 38.92577166666667, "fusion_lon": 0.0, "rental_uris": {"ios": "https://dc.lft.to/lastmile_qr_scan", "android": "https://dc.lft.to/lastmile_qr_scan"}, "lon": -76.99489716666666, "bike_id": "0aaae0983c3e1643dcd0623b72c494cf", "type": "electric_scooter", "name": "0aaae0983c3e1643dcd0623b72c494cf"}, {"is_disabled": 0, "is_reserved": 0, "fusion_lat": 0.0, "lat": 39.00378083333333, "fusion_lon": 0.0, "rental_uris": {"ios": "https://dc.lft.to/lastmile_qr_scan", "android": "https://dc.lft.to/lastmile_qr_scan"}, "lon": -77.01289666666666, "bike_id": "4699c671949044341cf870c042085d17", "type": "electric_bike", "name": "4699c671949044341cf870c042085d17"}, {"is_disabled": 0, "is_reserved": 0, "fusion_lat": 0.0, "lat": 38.91554, "fusion_lon": 0.0, "rental_uris": {"ios": "https://dc.lft.to/lastmile_qr_scan", "android": "https://dc.lft.to/lastmile_qr_scan"}, "lon": -77.02983416666666, "bike_id": "ce10d9e58c3d9a114e2183fa7475d3c8", "type": "electric_scooter", "name": "ce10d9e58c3d9a114e2183fa7475d3c8"}, {"is_disabled": 0, "is_reserved": 0, "fusion_lat": 0.0, "lat": 38.92885183333333, "fusion_lon": 0.0, "rental_uris": {"ios": "https://dc.lft.to/lastmile_qr_scan", "android": "https://dc.lft.to/lastmile_qr_scan"}, "lon": -77.03222266666667, "bike_id": "e86481d2bdd0426cfd63a00e28203f26", "type": "electric_scooter", "name": "e86481d2bdd0426cfd63a00e28203f26"}, {"is_disabled": 0, "is_reserved": 0, "fusion_lat": 0.0, "lat": 38.93969933333333, "fusion_lon": 0.0, "rental_uris": {"ios": "https://dc.lft.to/lastmile_qr_scan", "android": "https://dc.lft.to/lastmile_qr_scan"}, "lon": -77.03430333333333, "bike_id": "a1556a84e327dfeae9d969b0478b05d6", "type": "electric_scooter", "name": "a1556a84e327dfeae9d969b0478b05d6"}, {"is_disabled": 0, "is_reserved": 0, "fusion_lat": 0.0, "lat": 38.9254975, "fusion_lon": 0.0, "rental_uris": {"ios": "https://dc.lft.to/lastmile_qr_scan", "android": "https://dc.lft.to/lastmile_qr_scan"}, "lon": -77.003234, "bike_id": "a9be435cc53312fb625c64b487bf1941", "type": "electric_scooter", "name": "a9be435cc53312fb625c64b487bf1941"}, {"is_disabled": 0, "is_reserved": 0, "fusion_lat": 0.0, "lat": 38.93659233333333, "fusion_lon": 0.0, "rental_uris": {"ios": "https://dc.lft.to/lastmile_qr_scan", "android": "https://dc.lft.to/lastmile_qr_scan"}, "lon": -77.06606316666667, "bike_id": "b9671ad985468058d5633e3c462f84fb", "type": "electric_scooter", "name": "b9671ad985468058d5633e3c462f84fb"}, {"is_disabled": 0, "is_reserved": 0, "fusion_lat": 0.0, "lat": 38.9163035, "fusion_lon": 0.0, "rental_uris": {"ios": "https://dc.lft.to/lastmile_qr_scan", "android": "https://dc.lft.to/lastmile_qr_scan"}, "lon": -77.00847166666667, "bike_id": "349739a82a6e7ee1e5d77d838ff0635d", "type": "electric_scooter", "name": "349739a82a6e7ee1e5d77d838ff0635d"}, {"is_disabled": 0, "is_reserved": 0, "fusion_lat": 0.0, "lat": 38.9311955, "fusion_lon": 0.0, "rental_uris": {"ios": "https://dc.lft.to/lastmile_qr_scan", "android": "https://dc.lft.to/lastmile_qr_scan"}, "lon": -77.02069916666666, "bike_id": "30085f1d28993e24940c36965ce3e078", "type": "electric_scooter", "name": "30085f1d28993e24940c36965ce3e078"}, {"is_disabled": 0, "is_reserved": 0, "fusion_lat": 0.0, "lat": 38.89234883333334, "fusion_lon": 0.0, "rental_uris": {"ios": "https://dc.lft.to/lastmile_qr_scan", "android": "https://dc.lft.to/lastmile_qr_scan"}, "lon": -77.02206016666666, "bike_id": "6b1703d6346d077285d486f867a52bb5", "type": "electric_scooter", "name": "6b1703d6346d077285d486f867a52bb5"}, {"is_disabled": 0, "is_reserved": 0, "fusion_lat": 0.0, "lat": 38.90278383333333, "fusion_lon": 0.0, "rental_uris": {"ios": "https://dc.lft.to/lastmile_qr_scan", "android": "https://dc.lft.to/lastmile_qr_scan"}, "lon": -77.02276383333333, "bike_id": "820c157931e9ad2ec24306f9d8c55934", "type": "electric_scooter", "name": "820c157931e9ad2ec24306f9d8c55934"}, {"is_disabled": 0, "is_reserved": 0, "fusion_lat": 0.0, "lat": 38.913328166666666, "fusion_lon": 0.0, "rental_uris": {"ios": "https://dc.lft.to/lastmile_qr_scan", "android": "https://dc.lft.to/lastmile_qr_scan"}, "lon": -77.016537, "bike_id": "12019a5c090c5940d1a8bd43e96ecc14", "type": "electric_scooter", "name": "12019a5c090c5940d1a8bd43e96ecc14"}, {"is_disabled": 0, "is_reserved": 0, "fusion_lat": 0.0, "lat": 38.919341333333335, "fusion_lon": 0.0, "rental_uris": {"ios": "https://dc.lft.to/lastmile_qr_scan", "android": "https://dc.lft.to/lastmile_qr_scan"}, "lon": -77.044833, "bike_id": "635a3fdc99201af7980bb391e67dd105", "type": "electric_scooter", "name": "635a3fdc99201af7980bb391e67dd105"}, {"is_disabled": 0, "is_reserved": 0, "fusion_lat": 0.0, "lat": 38.93062966666667, "fusion_lon": 0.0, "rental_uris": {"ios": "https://dc.lft.to/lastmile_qr_scan", "android": "https://dc.lft.to/lastmile_qr_scan"}, "lon": -77.04027216666667, "bike_id": "bc4921c90ce954391c81f14f8b74d427", "type": "electric_scooter", "name": "bc4921c90ce954391c81f14f8b74d427"}, {"is_disabled": 0, "is_reserved": 0, "fusion_lat": 0.0, "lat": 38.897607, "fusion_lon": 0.0, "rental_uris": {"ios": "https://dc.lft.to/lastmile_qr_scan", "android": "https://dc.lft.to/lastmile_qr_scan"}, "lon": -77.04814183333333, "bike_id": "1b49f1ecb230a6bf4da1c6ca1009213e", "type": "electric_scooter", "name": "1b49f1ecb230a6bf4da1c6ca1009213e"}, {"is_disabled": 0, "is_reserved": 0, "fusion_lat": 0.0, "lat": 38.951009666666664, "fusion_lon": 0.0, "rental_uris": {"ios": "https://dc.lft.to/lastmile_qr_scan", "android": "https://dc.lft.to/lastmile_qr_scan"}, "lon": -77.0190715, "bike_id": "64dd27fa0f0edd7cef09f55586417242", "type": "electric_scooter", "name": "64dd27fa0f0edd7cef09f55586417242"}, {"is_disabled": 0, "is_reserved": 0, "fusion_lat": 0.0, "lat": 38.932387166666665, "fusion_lon": 0.0, "rental_uris": {"ios": "https://dc.lft.to/lastmile_qr_scan", "android": "https://dc.lft.to/lastmile_qr_scan"}, "lon": -77.03408416666667, "bike_id": "24c837439196ee9a1c31e7b07e304577", "type": "electric_scooter", "name": "24c837439196ee9a1c31e7b07e304577"}, {"is_disabled": 0, "is_reserved": 0, "fusion_lat": 0.0, "lat": 38.905403666666665, "fusion_lon": 0.0, "rental_uris": {"ios": "https://dc.lft.to/lastmile_qr_scan", "android": "https://dc.lft.to/lastmile_qr_scan"}, "lon": -77.05701483333333, "bike_id": "9c500b381021f787c9e4d0d51cbbe9f2", "type": "electric_scooter", "name": "9c500b381021f787c9e4d0d51cbbe9f2"}, {"is_disabled": 0, "is_reserved": 0, "fusion_lat": 0.0, "lat": 38.913440666666666, "fusion_lon": 0.0, "rental_uris": {"ios": "https://dc.lft.to/lastmile_qr_scan", "android": "https://dc.lft.to/lastmile_qr_scan"}, "lon": -77.04415716666666, "bike_id": "592416011e3a6101363bdf4a813097cf", "type": "electric_scooter", "name": "592416011e3a6101363bdf4a813097cf"}, {"is_disabled": 0, "is_reserved": 0, "fusion_lat": 0.0, "lat": 38.908641, "fusion_lon": 0.0, "rental_uris": {"ios": "https://dc.lft.to/lastmile_qr_scan", "android": "https://dc.lft.to/lastmile_qr_scan"}, "lon": -77.06393816666667, "bike_id": "523e35b4c63e46aad49854f1645d28bf", "type": "electric_scooter", "name": "523e35b4c63e46aad49854f1645d28bf"}, {"is_disabled": 0, "is_reserved": 0, "fusion_lat": 0.0, "lat": 38.940348666666665, "fusion_lon": 0.0, "rental_uris": {"ios": "https://dc.lft.to/lastmile_qr_scan", "android": "https://dc.lft.to/lastmile_qr_scan"}, "lon": -77.025167, "bike_id": "6b955f4cbb4a352f9a953d3121fe910e", "type": "electric_scooter", "name": "6b955f4cbb4a352f9a953d3121fe910e"}, {"is_disabled": 0, "is_reserved": 0, "fusion_lat": 0.0, "lat": 38.923817166666666, "fusion_lon": 0.0, "rental_uris": {"ios": "https://dc.lft.to/lastmile_qr_scan", "android": "https://dc.lft.to/lastmile_qr_scan"}, "lon": -77.02027866666667, "bike_id": "cabc38cb9f76261f4a1df585323f26c1", "type": "electric_scooter", "name": "cabc38cb9f76261f4a1df585323f26c1"}, {"is_disabled": 0, "is_reserved": 0, "fusion_lat": 0.0, "lat": 38.924821, "fusion_lon": 0.0, "rental_uris": {"ios": "https://dc.lft.to/lastmile_qr_scan", "android": "https://dc.lft.to/lastmile_qr_scan"}, "lon": -77.02832316666667, "bike_id": "9eae5d07cea6935b7001a111849f9db0", "type": "electric_scooter", "name": "9eae5d07cea6935b7001a111849f9db0"}, {"is_disabled": 0, "is_reserved": 0, "fusion_lat": 0.0, "lat": 38.93063866666667, "fusion_lon": 0.0, "rental_uris": {"ios": "https://dc.lft.to/lastmile_qr_scan", "android": "https://dc.lft.to/lastmile_qr_scan"}, "lon": -77.04214516666667, "bike_id": "f96f1dcce1fa33a7edb620e58b77e155", "type": "electric_scooter", "name": "f96f1dcce1fa33a7edb620e58b77e155"}, {"is_disabled": 0, "is_reserved": 0, "fusion_lat": 0.0, "lat": 38.919223, "fusion_lon": 0.0, "rental_uris": {"ios": "https://dc.lft.to/lastmile_qr_scan", "android": "https://dc.lft.to/lastmile_qr_scan"}, "lon": -77.00976866666667, "bike_id": "ac4d64f27a94f9c2fe6121b34fd6e25e", "type": "electric_scooter", "name": "ac4d64f27a94f9c2fe6121b34fd6e25e"}, {"is_disabled": 0, "is_reserved": 0, "fusion_lat": 0.0, "lat": 38.9369755, "fusion_lon": 0.0, "rental_uris": {"ios": "https://dc.lft.to/lastmile_qr_scan", "android": "https://dc.lft.to/lastmile_qr_scan"}, "lon": -77.05602616666667, "bike_id": "99d81aa497860dd6256088ca69c29c72", "type": "electric_scooter", "name": "99d81aa497860dd6256088ca69c29c72"}, {"is_disabled": 0, "is_reserved": 0, "fusion_lat": 0.0, "lat": 38.93120316666667, "fusion_lon": 0.0, "rental_uris": {"ios": "https://dc.lft.to/lastmile_qr_scan", "android": "https://dc.lft.to/lastmile_qr_scan"}, "lon": -77.02067583333333, "bike_id": "7fb995e89ccacdb01fddc6a44e8af7db", "type": "electric_scooter", "name": "7fb995e89ccacdb01fddc6a44e8af7db"}, {"is_disabled": 0, "is_reserved": 0, "fusion_lat": 0.0, "lat": 38.92656066666667, "fusion_lon": 0.0, "rental_uris": {"ios": "https://dc.lft.to/lastmile_qr_scan", "android": "https://dc.lft.to/lastmile_qr_scan"}, "lon": -77.0242285, "bike_id": "07550c63be76e34438d423156a4c1a6e", "type": "electric_scooter", "name": "07550c63be76e34438d423156a4c1a6e"}, {"is_disabled": 0, "is_reserved": 0, "fusion_lat": 0.0, "lat": 38.911111166666664, "fusion_lon": 0.0, "rental_uris": {"ios": "https://dc.lft.to/lastmile_qr_scan", "android": "https://dc.lft.to/lastmile_qr_scan"}, "lon": -77.00376183333333, "bike_id": "f4670221334b48496aa5f584ae13a9a0", "type": "electric_scooter", "name": "f4670221334b48496aa5f584ae13a9a0"}, {"is_disabled": 0, "is_reserved": 0, "fusion_lat": 0.0, "lat": 38.90796116666667, "fusion_lon": 0.0, "rental_uris": {"ios": "https://dc.lft.to/lastmile_qr_scan", "android": "https://dc.lft.to/lastmile_qr_scan"}, "lon": -77.0498275, "bike_id": "4e4e76183358f01b734bececd86cf316", "type": "electric_scooter", "name": "4e4e76183358f01b734bececd86cf316"}, {"is_disabled": 0, "is_reserved": 0, "fusion_lat": 0.0, "lat": 38.92352783333333, "fusion_lon": 0.0, "rental_uris": {"ios": "https://dc.lft.to/lastmile_qr_scan", "android": "https://dc.lft.to/lastmile_qr_scan"}, "lon": -77.07311333333334, "bike_id": "0358d0933526ba9d29d66acaf0ffcacb", "type": "electric_scooter", "name": "0358d0933526ba9d29d66acaf0ffcacb"}, {"is_disabled": 0, "is_reserved": 0, "fusion_lat": 0.0, "lat": 38.9207665, "fusion_lon": 0.0, "rental_uris": {"ios": "https://dc.lft.to/lastmile_qr_scan", "android": "https://dc.lft.to/lastmile_qr_scan"}, "lon": -77.0236105, "bike_id": "a3f15ed8e60311d0238f083fc1e02f16", "type": "electric_scooter", "name": "a3f15ed8e60311d0238f083fc1e02f16"}, {"is_disabled": 0, "is_reserved": 0, "fusion_lat": 0.0, "lat": 38.8922605, "fusion_lon": 0.0, "rental_uris": {"ios": "https://dc.lft.to/lastmile_qr_scan", "android": "https://dc.lft.to/lastmile_qr_scan"}, "lon": -77.04503483333333, "bike_id": "9c8cdc9cf3df43afb645fa7ddf5207fa", "type": "electric_scooter", "name": "9c8cdc9cf3df43afb645fa7ddf5207fa"}, {"is_disabled": 0, "is_reserved": 0, "fusion_lat": 0.0, "lat": 38.92650283333333, "fusion_lon": 0.0, "rental_uris": {"ios": "https://dc.lft.to/lastmile_qr_scan", "android": "https://dc.lft.to/lastmile_qr_scan"}, "lon": -77.02448266666667, "bike_id": "123fd240369389ad8d03d2751e7b90c7", "type": "electric_scooter", "name": "123fd240369389ad8d03d2751e7b90c7"}, {"is_disabled": 0, "is_reserved": 0, "fusion_lat": 0.0, "lat": 38.87911616666667, "fusion_lon": 0.0, "rental_uris": {"ios": "https://dc.lft.to/lastmile_qr_scan", "android": "https://dc.lft.to/lastmile_qr_scan"}, "lon": -77.00774483333333, "bike_id": "4605478b4f074135fdfe23c2ee21361e", "type": "electric_scooter", "name": "4605478b4f074135fdfe23c2ee21361e"}, {"is_disabled": 0, "is_reserved": 0, "fusion_lat": 0.0, "lat": 38.87876266666667, "fusion_lon": 0.0, "rental_uris": {"ios": "https://dc.lft.to/lastmile_qr_scan", "android": "https://dc.lft.to/lastmile_qr_scan"}, "lon": -77.00758916666666, "bike_id": "f23d66f5bde808c658b1388d877d09dc", "type": "electric_scooter", "name": "f23d66f5bde808c658b1388d877d09dc"}, {"is_disabled": 0, "is_reserved": 0, "fusion_lat": 0.0, "lat": 38.909817333333336, "fusion_lon": 0.0, "rental_uris": {"ios": "https://dc.lft.to/lastmile_qr_scan", "android": "https://dc.lft.to/lastmile_qr_scan"}, "lon": -77.0340225, "bike_id": "55f886166a07c11e3d01ffea72f00ac8", "type": "electric_scooter", "name": "55f886166a07c11e3d01ffea72f00ac8"}, {"is_disabled": 0, "is_reserved": 0, "fusion_lat": 0.0, "lat": 38.894112666666665, "fusion_lon": 0.0, "rental_uris": {"ios": "https://dc.lft.to/lastmile_qr_scan", "android": "https://dc.lft.to/lastmile_qr_scan"}, "lon": -77.021662, "bike_id": "6452698c1c3759abbba7419ae44895e0", "type": "electric_scooter", "name": "6452698c1c3759abbba7419ae44895e0"}, {"is_disabled": 0, "is_reserved": 0, "fusion_lat": 0.0, "lat": 38.919549333333336, "fusion_lon": 0.0, "rental_uris": {"ios": "https://dc.lft.to/lastmile_qr_scan", "android": "https://dc.lft.to/lastmile_qr_scan"}, "lon": -77.078702, "bike_id": "a505d5963aa13774eae08c1a42bd2f61", "type": "electric_scooter", "name": "a505d5963aa13774eae08c1a42bd2f61"}, {"is_disabled": 0, "is_reserved": 0, "fusion_lat": 0.0, "lat": 38.90843383333333, "fusion_lon": 0.0, "rental_uris": {"ios": "https://dc.lft.to/lastmile_qr_scan", "android": "https://dc.lft.to/lastmile_qr_scan"}, "lon": -77.05810066666666, "bike_id": "b909c41887075d6f4b0cc9429876738c", "type": "electric_scooter", "name": "b909c41887075d6f4b0cc9429876738c"}, {"is_disabled": 0, "is_reserved": 0, "fusion_lat": 0.0, "lat": 38.90237783333333, "fusion_lon": 0.0, "rental_uris": {"ios": "https://dc.lft.to/lastmile_qr_scan", "android": "https://dc.lft.to/lastmile_qr_scan"}, "lon": -77.062612, "bike_id": "71085564c4ef8fd95b722ac6d17bca83", "type": "electric_scooter", "name": "71085564c4ef8fd95b722ac6d17bca83"}, {"is_disabled": 0, "is_reserved": 0, "fusion_lat": 0.0, "lat": 38.9734455, "fusion_lon": 0.0, "rental_uris": {"ios": "https://dc.lft.to/lastmile_qr_scan", "android": "https://dc.lft.to/lastmile_qr_scan"}, "lon": -77.01791, "bike_id": "da44c10646ea8af958767ab58b4c7b49", "type": "electric_bike", "name": "da44c10646ea8af958767ab58b4c7b49"}, {"is_disabled": 0, "is_reserved": 0, "fusion_lat": 0.0, "lat": 38.9209965, "fusion_lon": 0.0, "rental_uris": {"ios": "https://dc.lft.to/lastmile_qr_scan", "android": "https://dc.lft.to/lastmile_qr_scan"}, "lon": -77.03190016666667, "bike_id": "9e80758de563f7caddac2f3d5e48a752", "type": "electric_scooter", "name": "9e80758de563f7caddac2f3d5e48a752"}, {"is_disabled": 0, "is_reserved": 0, "fusion_lat": 0.0, "lat": 38.92429666666666, "fusion_lon": 0.0, "rental_uris": {"ios": "https://dc.lft.to/lastmile_qr_scan", "android": "https://dc.lft.to/lastmile_qr_scan"}, "lon": -77.0424535, "bike_id": "8ed3be70453b0bf0ae02e480f919c3a6", "type": "electric_scooter", "name": "8ed3be70453b0bf0ae02e480f919c3a6"}, {"is_disabled": 0, "is_reserved": 0, "fusion_lat": 0.0, "lat": 38.84858216666667, "fusion_lon": 0.0, "rental_uris": {"ios": "https://dc.lft.to/lastmile_qr_scan", "android": "https://dc.lft.to/lastmile_qr_scan"}, "lon": -77.06827433333333, "bike_id": "6fd7e83f3e0bd2df9e7a754f3b701d83", "type": "electric_bike", "name": "6fd7e83f3e0bd2df9e7a754f3b701d83"}, {"is_disabled": 0, "is_reserved": 0, "fusion_lat": 0.0, "lat": 38.885108, "fusion_lon": 0.0, "rental_uris": {"ios": "https://dc.lft.to/lastmile_qr_scan", "android": "https://dc.lft.to/lastmile_qr_scan"}, "lon": -77.01116966666666, "bike_id": "b840f61d05c8b9181da4ef99394ff420", "type": "electric_scooter", "name": "b840f61d05c8b9181da4ef99394ff420"}, {"is_disabled": 0, "is_reserved": 0, "fusion_lat": 0.0, "lat": 38.94358716666667, "fusion_lon": 0.0, "rental_uris": {"ios": "https://dc.lft.to/lastmile_qr_scan", "android": "https://dc.lft.to/lastmile_qr_scan"}, "lon": -77.06131133333334, "bike_id": "747509dc858184e848e3064dbeba08e2", "type": "electric_scooter", "name": "747509dc858184e848e3064dbeba08e2"}, {"is_disabled": 0, "is_reserved": 0, "fusion_lat": 0.0, "lat": 38.961713, "fusion_lon": 0.0, "rental_uris": {"ios": "https://dc.lft.to/lastmile_qr_scan", "android": "https://dc.lft.to/lastmile_qr_scan"}, "lon": -77.03228133333333, "bike_id": "87339ccd9350186f042e51a8a88fdadd", "type": "electric_scooter", "name": "87339ccd9350186f042e51a8a88fdadd"}, {"is_disabled": 0, "is_reserved": 0, "fusion_lat": 0.0, "lat": 38.949797833333335, "fusion_lon": 0.0, "rental_uris": {"ios": "https://dc.lft.to/lastmile_qr_scan", "android": "https://dc.lft.to/lastmile_qr_scan"}, "lon": -77.02447866666667, "bike_id": "38f447184028cb035903902ffc8b37aa", "type": "electric_scooter", "name": "38f447184028cb035903902ffc8b37aa"}, {"is_disabled": 0, "is_reserved": 0, "fusion_lat": 0.0, "lat": 38.937020833333335, "fusion_lon": 0.0, "rental_uris": {"ios": "https://dc.lft.to/lastmile_qr_scan", "android": "https://dc.lft.to/lastmile_qr_scan"}, "lon": -77.05684283333333, "bike_id": "0a911f9c2e536f55094b831d081b4227", "type": "electric_scooter", "name": "0a911f9c2e536f55094b831d081b4227"}, {"is_disabled": 0, "is_reserved": 0, "fusion_lat": 0.0, "lat": 38.93210116666667, "fusion_lon": 0.0, "rental_uris": {"ios": "https://dc.lft.to/lastmile_qr_scan", "android": "https://dc.lft.to/lastmile_qr_scan"}, "lon": -77.03655833333333, "bike_id": "24a0da45909935198d5738c01feb7957", "type": "electric_scooter", "name": "24a0da45909935198d5738c01feb7957"}, {"is_disabled": 0, "is_reserved": 0, "fusion_lat": 0.0, "lat": 38.89423983333333, "fusion_lon": 0.0, "rental_uris": {"ios": "https://dc.lft.to/lastmile_qr_scan", "android": "https://dc.lft.to/lastmile_qr_scan"}, "lon": -77.02130066666666, "bike_id": "c4aca659ced4de299cd540ae64f2efd6", "type": "electric_scooter", "name": "c4aca659ced4de299cd540ae64f2efd6"}, {"is_disabled": 0, "is_reserved": 0, "fusion_lat": 0.0, "lat": 38.92456083333333, "fusion_lon": 0.0, "rental_uris": {"ios": "https://dc.lft.to/lastmile_qr_scan", "android": "https://dc.lft.to/lastmile_qr_scan"}, "lon": -77.03299383333334, "bike_id": "6087af6e1402593224f5f7bbfb19de51", "type": "electric_scooter", "name": "6087af6e1402593224f5f7bbfb19de51"}, {"is_disabled": 0, "is_reserved": 0, "fusion_lat": 0.0, "lat": 38.92458033333333, "fusion_lon": 0.0, "rental_uris": {"ios": "https://dc.lft.to/lastmile_qr_scan", "android": "https://dc.lft.to/lastmile_qr_scan"},