{"data": {"bikes": [{"is_disabled": 0, "fusion_lon": 0.0, "fusion_lat": 0.0, "lat": 38.93248716666667, "type": "electric_scooter", "lon": -77.03276333333334, "bike_id": "b5ea99be7b4e1cc374c884b1e62b5cea", "rental_uris": {"android": "https://dc.lft.to/lastmile_qr_scan", "ios": "https://dc.lft.to/lastmile_qr_scan"}, "name": "b5ea99be7b4e1cc374c884b1e62b5cea", "is_reserved": 0}, {"is_disabled": 0, "fusion_lon": 0.0, "fusion_lat": 0.0, "lat": 38.884966666666664, "type": "electric_scooter", "lon": -77.00708583333333, "bike_id": "88224fdf703a6be7a4803ab609d00cd3", "rental_uris": {"android": "https://dc.lft.to/lastmile_qr_scan", "ios": "https://dc.lft.to/lastmile_qr_scan"}, "name": "88224fdf703a6be7a4803ab609d00cd3", "is_reserved": 0}, {"is_disabled": 0, "fusion_lon": 0.0, "fusion_lat": 0.0, "lat": 38.89504783333334, "type": "electric_scooter", "lon": -76.94883283333333, "bike_id": "fbcc18e75ca70b09feca2b527a3f8921", "rental_uris": {"android": "https://dc.lft.to/lastmile_qr_scan", "ios": "https://dc.lft.to/lastmile_qr_scan"}, "name": "fbcc18e75ca70b09feca2b527a3f8921", "is_reserved": 0}, {"is_disabled": 0, "fusion_lon": 0.0, "fusion_lat": 0.0, "lat": 38.909584, "type": "electric_scooter", "lon": -76.998985, "bike_id": "17b3cf63453d9e5895b0921ba2b9bebb", "rental_uris": {"android": "https://dc.lft.to/lastmile_qr_scan", "ios": "https://dc.lft.to/lastmile_qr_scan"}, "name": "17b3cf63453d9e5895b0921ba2b9bebb", "is_reserved": 0}, {"is_disabled": 0, "fusion_lon": 0.0, "fusion_lat": 0.0, "lat": 38.942009166666665, "type": "electric_scooter", "lon": -77.02582066666666, "bike_id": "eaea31c3030a12c2b942cd8f63014bfc", "rental_uris": {"android": "https://dc.lft.to/lastmile_qr_scan", "ios": "https://dc.lft.to/lastmile_qr_scan"}, "name": "eaea31c3030a12c2b942cd8f63014bfc", "is_reserved": 0}, {"is_disabled": 0, "fusion_lon": 0.0, "fusion_lat": 0.0, "lat": 38.844327666666665, "type": "electric_scooter", "lon": -76.99780483333333, "bike_id": "06c73c0bd702afb15b34fa7305dc5fd2", "rental_uris": {"android": "https://dc.lft.to/lastmile_qr_scan", "ios": "https://dc.lft.to/lastmile_qr_scan"}, "name": "06c73c0bd702afb15b34fa7305dc5fd2", "is_reserved": 0}, {"is_disabled": 0, "fusion_lon": 0.0, "fusion_lat": 0.0, "lat": 38.884937, "type": "electric_scooter", "lon": -77.007294, "bike_id": "2fef03dae8ea0fec13a7e75fea17678a", "rental_uris": {"android": "https://dc.lft.to/lastmile_qr_scan", "ios": "https://dc.lft.to/lastmile_qr_scan"}, "name": "2fef03dae8ea0fec13a7e75fea17678a", "is_reserved": 0}, {"is_disabled": 0, "fusion_lon": 0.0, "fusion_lat": 0.0, "lat": 38.8837755, "type": "electric_scooter", "lon": -76.92375433333333, "bike_id": "7bfaff37aabb10ef328337dd5827a352", "rental_uris": {"android": "https://dc.lft.to/lastmile_qr_scan", "ios": "https://dc.lft.to/lastmile_qr_scan"}, "name": "7bfaff37aabb10ef328337dd5827a352", "is_reserved": 0}, {"is_disabled": 0, "fusion_lon": 0.0, "fusion_lat": 0.0, "lat": 38.917217, "type": "electric_scooter", "lon": -77.0260945, "bike_id": "0176ecf9d967922474fe6dbfadd88084", "rental_uris": {"android": "https://dc.lft.to/lastmile_qr_scan", "ios": "https://dc.lft.to/lastmile_qr_scan"}, "name": "0176ecf9d967922474fe6dbfadd88084", "is_reserved": 0}, {"is_disabled": 0, "fusion_lon": 0.0, "fusion_lat": 0.0, "lat": 38.939814, "type": "electric_scooter", "lon": -77.03041266666666, "bike_id": "116505174f0b108c0b1a77aa03cb187a", "rental_uris": {"android": "https://dc.lft.to/lastmile_qr_scan", "ios": "https://dc.lft.to/lastmile_qr_scan"}, "name": "116505174f0b108c0b1a77aa03cb187a", "is_reserved": 0}, {"is_disabled": 0, "fusion_lon": 0.0, "fusion_lat": 0.0, "lat": 38.90878883333333, "type": "electric_scooter", "lon": -77.0753675, "bike_id": "fb770ff8870c16e900aefc7a9d9948a5", "rental_uris": {"android": "https://dc.lft.to/lastmile_qr_scan", "ios": "https://dc.lft.to/lastmile_qr_scan"}, "name": "fb770ff8870c16e900aefc7a9d9948a5", "is_reserved": 0}, {"is_disabled": 0, "fusion_lon": 0.0, "fusion_lat": 0.0, "lat": 38.90859433333333, "type": "electric_scooter", "lon": -77.06407766666666, "bike_id": "197290e0865717801a5cf9791ac3834f", "rental_uris": {"android": "https://dc.lft.to/lastmile_qr_scan", "ios": "https://dc.lft.to/lastmile_qr_scan"}, "name": "197290e0865717801a5cf9791ac3834f", "is_reserved": 0}, {"is_disabled": 0, "fusion_lon": 0.0, "fusion_lat": 0.0, "lat": 38.9073325, "type": "electric_scooter", "lon": -77.03119, "bike_id": "1e3807a8d7534c2a02df97efda921a22", "rental_uris": {"android": "https://dc.lft.to/lastmile_qr_scan", "ios": "https://dc.lft.to/lastmile_qr_scan"}, "name": "1e3807a8d7534c2a02df97efda921a22", "is_reserved": 0}, {"is_disabled": 0, "fusion_lon": 0.0, "fusion_lat": 0.0, "lat": 38.898857666666665, "type": "electric_scooter", "lon": -77.03961, "bike_id": "c8b62c61ae738afd2a5b79aa94d3d9b8", "rental_uris": {"android": "https://dc.lft.to/lastmile_qr_scan", "ios": "https://dc.lft.to/lastmile_qr_scan"}, "name": "c8b62c61ae738afd2a5b79aa94d3d9b8", "is_reserved": 0}, {"is_disabled": 0, "fusion_lon": 0.0, "fusion_lat": 0.0, "lat": 38.9163295, "type": "electric_scooter", "lon": -77.03846466666667, "bike_id": "a91700b2d5877679397c54cb7f1f569a", "rental_uris": {"android": "https://dc.lft.to/lastmile_qr_scan", "ios": "https://dc.lft.to/lastmile_qr_scan"}, "name": "a91700b2d5877679397c54cb7f1f569a", "is_reserved": 0}, {"is_disabled": 0, "fusion_lon": 0.0, "fusion_lat": 0.0, "lat": 38.908496166666666, "type": "electric_scooter", "lon": -77.02719183333333, "bike_id": "47dae1835cbc465be9767b2d6d02455c", "rental_uris": {"android": "https://dc.lft.to/lastmile_qr_scan", "ios": "https://dc.lft.to/lastmile_qr_scan"}, "name": "47dae1835cbc465be9767b2d6d02455c", "is_reserved": 0}, {"is_disabled": 0, "fusion_lon": 0.0, "fusion_lat": 0.0, "lat": 38.90570783333333, "type": "electric_scooter", "lon": -77.04356333333334, "bike_id": "a0fc12f46f79023a23b998170d2e5037", "rental_uris": {"android": "https://dc.lft.to/lastmile_qr_scan", "ios": "https://dc.lft.to/lastmile_qr_scan"}, "name": "a0fc12f46f79023a23b998170d2e5037", "is_reserved": 0}, {"is_disabled": 0, "fusion_lon": 0.0, "fusion_lat": 0.0, "lat": 38.90092966666667, "type": "electric_scooter", "lon": -77.0316595, "bike_id": "3bdbd7f882e5696a3ae0fdad4959c1ef", "rental_uris": {"android": "https://dc.lft.to/lastmile_qr_scan", "ios": "https://dc.lft.to/lastmile_qr_scan"}, "name": "3bdbd7f882e5696a3ae0fdad4959c1ef", "is_reserved": 0}, {"is_disabled": 0, "fusion_lon": 0.0, "fusion_lat": 0.0, "lat": 38.928983, "type": "electric_scooter", "lon": -77.03260416666667, "bike_id": "9c28d0d3c0b224d58ce7571b768c2475", "rental_uris": {"android": "https://dc.lft.to/lastmile_qr_scan", "ios": "https://dc.lft.to/lastmile_qr_scan"}, "name": "9c28d0d3c0b224d58ce7571b768c2475", "is_reserved": 0}, {"is_disabled": 0, "fusion_lon": 0.0, "fusion_lat": 0.0, "lat": 38.920580333333334, "type": "electric_scooter", "lon": -77.04346266666667, "bike_id": "1f3e6a2cbd3d996423a3d36a32305920", "rental_uris": {"android": "https://dc.lft.to/lastmile_qr_scan", "ios": "https://dc.lft.to/lastmile_qr_scan"}, "name": "1f3e6a2cbd3d996423a3d36a32305920", "is_reserved": 0}, {"is_disabled": 0, "fusion_lon": 0.0, "fusion_lat": 0.0, "lat": 38.895049666666665, "type": "electric_scooter", "lon": -77.00220316666666, "bike_id": "f36e0afb5692820642919a19261eb2ac", "rental_uris": {"android": "https://dc.lft.to/lastmile_qr_scan", "ios": "https://dc.lft.to/lastmile_qr_scan"}, "name": "f36e0afb5692820642919a19261eb2ac", "is_reserved": 0}, {"is_disabled": 0, "fusion_lon": 0.0, "fusion_lat": 0.0, "lat": 38.9455875, "type": "electric_bike", "lon": -77.05126783333333, "bike_id": "96a0564b20855a7063f2369b1d0ebc84", "rental_uris": {"android": "https://dc.lft.to/lastmile_qr_scan", "ios": "https://dc.lft.to/lastmile_qr_scan"}, "name": "96a0564b20855a7063f2369b1d0ebc84", "is_reserved": 0}, {"is_disabled": 0, "fusion_lon": 0.0, "fusion_lat": 0.0, "lat": 38.91338016666667, "type": "electric_scooter", "lon": -77.0480365, "bike_id": "192a72dafc53d8cf2657a4db758f749c", "rental_uris": {"android": "https://dc.lft.to/lastmile_qr_scan", "ios": "https://dc.lft.to/lastmile_qr_scan"}, "name": "192a72dafc53d8cf2657a4db758f749c", "is_reserved": 0}, {"is_disabled": 0, "fusion_lon": 0.0, "fusion_lat": 0.0, "lat": 38.91139883333334, "type": "electric_scooter", "lon": -77.04166316666667, "bike_id": "dbe421b83a6c9dbd134f85156d94f7e4", "rental_uris": {"android": "https://dc.lft.to/lastmile_qr_scan", "ios": "https://dc.lft.to/lastmile_qr_scan"}, "name": "dbe421b83a6c9dbd134f85156d94f7e4", "is_reserved": 0}, {"is_disabled": 0, "fusion_lon": 0.0, "fusion_lat": 0.0, "lat": 38.93459816666667, "type": "electric_scooter", "lon": -77.03063516666667, "bike_id": "e835a0f3276a1163f5bec758d7c254e9", "rental_uris": {"android": "https://dc.lft.to/lastmile_qr_scan", "ios": "https://dc.lft.to/lastmile_qr_scan"}, "name": "e835a0f3276a1163f5bec758d7c254e9", "is_reserved": 0}, {"is_disabled": 0, "fusion_lon": 0.0, "fusion_lat": 0.0, "lat": 38.91208016666667, "type": "electric_scooter", "lon": -77.041632, "bike_id": "3f322dd0f0a5014cbde8e7637be38b6a", "rental_uris": {"android": "https://dc.lft.to/lastmile_qr_scan", "ios": "https://dc.lft.to/lastmile_qr_scan"}, "name": "3f322dd0f0a5014cbde8e7637be38b6a", "is_reserved": 0}, {"is_disabled": 0, "fusion_lon": 0.0, "fusion_lat": 0.0, "lat": 38.89287383333333, "type": "electric_scooter", "lon": -77.0505035, "bike_id": "a30bb4b9cdb2f163546cf7ffe300d534", "rental_uris": {"android": "https://dc.lft.to/lastmile_qr_scan", "ios": "https://dc.lft.to/lastmile_qr_scan"}, "name": "a30bb4b9cdb2f163546cf7ffe300d534", "is_reserved": 0}, {"is_disabled": 0, "fusion_lon": 0.0, "fusion_lat": 0.0, "lat": 38.94547016666667, "type": "electric_scooter", "lon": -77.02538533333333, "bike_id": "1a850ead4d7c11422b32705c83faa543", "rental_uris": {"android": "https://dc.lft.to/lastmile_qr_scan", "ios": "https://dc.lft.to/lastmile_qr_scan"}, "name": "1a850ead4d7c11422b32705c83faa543", "is_reserved": 0}, {"is_disabled": 0, "fusion_lon": 0.0, "fusion_lat": 0.0, "lat": 38.928934166666664, "type": "electric_scooter", "lon": -77.03260566666667, "bike_id": "723a233407a9b3de3e2d97a12a36ab10", "rental_uris": {"android": "https://dc.lft.to/lastmile_qr_scan", "ios": "https://dc.lft.to/lastmile_qr_scan"}, "name": "723a233407a9b3de3e2d97a12a36ab10", "is_reserved": 0}, {"is_disabled": 0, "fusion_lon": 0.0, "fusion_lat": 0.0, "lat": 38.9253965, "type": "electric_scooter", "lon": -77.07340533333333, "bike_id": "355956f834b11488bdbb29206f9239c6", "rental_uris": {"android": "https://dc.lft.to/lastmile_qr_scan", "ios": "https://dc.lft.to/lastmile_qr_scan"}, "name": "355956f834b11488bdbb29206f9239c6", "is_reserved": 0}, {"is_disabled": 0, "fusion_lon": 0.0, "fusion_lat": 0.0, "lat": 38.867021, "type": "electric_scooter", "lon": -76.98714783333334, "bike_id": "bf5fe0c5f60e383d428f0e396524a438", "rental_uris": {"android": "https://dc.lft.to/lastmile_qr_scan", "ios": "https://dc.lft.to/lastmile_qr_scan"}, "name": "bf5fe0c5f60e383d428f0e396524a438", "is_reserved": 0}, {"is_disabled": 0, "fusion_lon": 0.0, "fusion_lat": 0.0, "lat": 38.90307633333333, "type": "electric_scooter", "lon": -77.03632016666667, "bike_id": "43586874de4b3796b6123856e5b7c09d", "rental_uris": {"android": "https://dc.lft.to/lastmile_qr_scan", "ios": "https://dc.lft.to/lastmile_qr_scan"}, "name": "43586874de4b3796b6123856e5b7c09d", "is_reserved": 0}, {"is_disabled": 0, "fusion_lon": 0.0, "fusion_lat": 0.0, "lat": 38.89787183333333, "type": "electric_scooter", "lon": -77.02502683333333, "bike_id": "e43a3c2061f47082ab245318288a547c", "rental_uris": {"android": "https://dc.lft.to/lastmile_qr_scan", "ios": "https://dc.lft.to/lastmile_qr_scan"}, "name": "e43a3c2061f47082ab245318288a547c", "is_reserved": 0}, {"is_disabled": 0, "fusion_lon": 0.0, "fusion_lat": 0.0, "lat": 38.905298333333334, "type": "electric_scooter", "lon": -77.04354416666666, "bike_id": "bc1282c5cc12cc77fca17a41dd37b8c6", "rental_uris": {"android": "https://dc.lft.to/lastmile_qr_scan", "ios": "https://dc.lft.to/lastmile_qr_scan"}, "name": "bc1282c5cc12cc77fca17a41dd37b8c6", "is_reserved": 0}, {"is_disabled": 0, "fusion_lon": 0.0, "fusion_lat": 0.0, "lat": 38.944440166666666, "type": "electric_scooter", "lon": -77.06392833333334, "bike_id": "3ce6ebba3b0a1b6ca9c5dd45997e129e", "rental_uris": {"android": "https://dc.lft.to/lastmile_qr_scan", "ios": "https://dc.lft.to/lastmile_qr_scan"}, "name": "3ce6ebba3b0a1b6ca9c5dd45997e129e", "is_reserved": 0}, {"is_disabled": 0, "fusion_lon": 0.0, "fusion_lat": 0.0, "lat": 38.894619666666664, "type": "electric_scooter", "lon": -77.0220775, "bike_id": "74f91dda84e1cc23b680c257e5d58aef", "rental_uris": {"android": "https://dc.lft.to/lastmile_qr_scan", "ios": "https://dc.lft.to/lastmile_qr_scan"}, "name": "74f91dda84e1cc23b680c257e5d58aef", "is_reserved": 0}, {"is_disabled": 0, "fusion_lon": 0.0, "fusion_lat": 0.0, "lat": 38.9291505, "type": "electric_scooter", "lon": -77.03194066666667, "bike_id": "e610c11ea75bda0e4bcbc6de5a242004", "rental_uris": {"android": "https://dc.lft.to/lastmile_qr_scan", "ios": "https://dc.lft.to/lastmile_qr_scan"}, "name": "e610c11ea75bda0e4bcbc6de5a242004", "is_reserved": 0}, {"is_disabled": 0, "fusion_lon": 0.0, "fusion_lat": 0.0, "lat": 38.90013016666666, "type": "electric_scooter", "lon": -77.012042, "bike_id": "f73c28f1120eb06816745695a613d341", "rental_uris": {"android": "https://dc.lft.to/lastmile_qr_scan", "ios": "https://dc.lft.to/lastmile_qr_scan"}, "name": "f73c28f1120eb06816745695a613d341", "is_reserved": 0}, {"is_disabled": 0, "fusion_lon": 0.0, "fusion_lat": 0.0, "lat": 38.9254245, "type": "electric_scooter", "lon": -77.04055116666666, "bike_id": "6d95a6c52d64b7737708189726da6ea1", "rental_uris": {"android": "https://dc.lft.to/lastmile_qr_scan", "ios": "https://dc.lft.to/lastmile_qr_scan"}, "name": "6d95a6c52d64b7737708189726da6ea1", "is_reserved": 0}, {"is_disabled": 0, "fusion_lon": 0.0, "fusion_lat": 0.0, "lat": 38.9006505, "type": "electric_scooter", "lon": -76.98686133333334, "bike_id": "d20d5c43e2ea97a79054df6b4cc14ead", "rental_uris": {"android": "https://dc.lft.to/lastmile_qr_scan", "ios": "https://dc.lft.to/lastmile_qr_scan"}, "name": "d20d5c43e2ea97a79054df6b4cc14ead", "is_reserved": 0}, {"is_disabled": 0, "fusion_lon": 0.0, "fusion_lat": 0.0, "lat": 38.914151, "type": "electric_scooter", "lon": -77.04262383333334, "bike_id": "14902e79a7e3258e90f0af784aab2a98", "rental_uris": {"android": "https://dc.lft.to/lastmile_qr_scan", "ios": "https://dc.lft.to/lastmile_qr_scan"}, "name": "14902e79a7e3258e90f0af784aab2a98", "is_reserved": 0}, {"is_disabled": 0, "fusion_lon": 0.0, "fusion_lat": 0.0, "lat": 38.95730283333333, "type": "electric_scooter", "lon": -77.02402383333333, "bike_id": "2fa24cfba8938ab7620aa8b708ae2bb5", "rental_uris": {"android": "https://dc.lft.to/lastmile_qr_scan", "ios": "https://dc.lft.to/lastmile_qr_scan"}, "name": "2fa24cfba8938ab7620aa8b708ae2bb5", "is_reserved": 0}, {"is_disabled": 0, "fusion_lon": 0.0, "fusion_lat": 0.0, "lat": 38.91383583333333, "type": "electric_scooter", "lon": -77.029748, "bike_id": "afc2bc095bd161dca6edd61b4a65405d", "rental_uris": {"android": "https://dc.lft.to/lastmile_qr_scan", "ios": "https://dc.lft.to/lastmile_qr_scan"}, "name": "afc2bc095bd161dca6edd61b4a65405d", "is_reserved": 0}, {"is_disabled": 0, "fusion_lon": 0.0, "fusion_lat": 0.0, "lat": 38.921304666666664, "type": "electric_scooter", "lon": -76.99581216666667, "bike_id": "7e759bc8de5b1a0cdf1b83d5c84c2d09", "rental_uris": {"android": "https://dc.lft.to/lastmile_qr_scan", "ios": "https://dc.lft.to/lastmile_qr_scan"}, "name": "7e759bc8de5b1a0cdf1b83d5c84c2d09", "is_reserved": 0}, {"is_disabled": 0, "fusion_lon": 0.0, "fusion_lat": 0.0, "lat": 38.907155833333334, "type": "electric_scooter", "lon": -77.03216166666667, "bike_id": "99c804b182d6e0a3bce174ffb45999f6", "rental_uris": {"android": "https://dc.lft.to/lastmile_qr_scan", "ios": "https://dc.lft.to/lastmile_qr_scan"}, "name": "99c804b182d6e0a3bce174ffb45999f6", "is_reserved": 0}, {"is_disabled": 0, "fusion_lon": 0.0, "fusion_lat": 0.0, "lat": 38.913100166666666, "type": "electric_scooter", "lon": -77.0319835, "bike_id": "964954df6baabef8a1ac2ce47bafaf3a", "rental_uris": {"android": "https://dc.lft.to/lastmile_qr_scan", "ios": "https://dc.lft.to/lastmile_qr_scan"}, "name": "964954df6baabef8a1ac2ce47bafaf3a", "is_reserved": 0}, {"is_disabled": 0, "fusion_lon": 0.0, "fusion_lat": 0.0, "lat": 38.89987, "type": "electric_scooter", "lon": -77.02941866666667, "bike_id": "8dd0fd18c76fd505b2e30fe913f6730f", "rental_uris": {"android": "https://dc.lft.to/lastmile_qr_scan", "ios": "https://dc.lft.to/lastmile_qr_scan"}, "name": "8dd0fd18c76fd505b2e30fe913f6730f", "is_reserved": 0}, {"is_disabled": 0, "fusion_lon": 0.0, "fusion_lat": 0.0, "lat": 38.88825166666667, "type": "electric_bike", "lon": -77.12745183333334, "bike_id": "ae1365db16a6c618264794f4e1c5c530", "rental_uris": {"android": "https://dc.lft.to/lastmile_qr_scan", "ios": "https://dc.lft.to/lastmile_qr_scan"}, "name": "ae1365db16a6c618264794f4e1c5c530", "is_reserved": 0}, {"is_disabled": 0, "fusion_lon": 0.0, "fusion_lat": 0.0, "lat": 38.97578466666667, "type": "electric_bike", "lon": -76.96404033333333, "bike_id": "f424227362479db58a38dedc5b659dc4", "rental_uris": {"android": "https://dc.lft.to/lastmile_qr_scan", "ios": "https://dc.lft.to/lastmile_qr_scan"}, "name": "f424227362479db58a38dedc5b659dc4", "is_reserved": 0}, {"is_disabled": 0, "fusion_lon": 0.0, "fusion_lat": 0.0, "lat": 38.907777, "type": "electric_scooter", "lon": -77.03258883333334, "bike_id": "29b8db4e39dea5eba751bbb3316ebf9c", "rental_uris": {"android": "https://dc.lft.to/lastmile_qr_scan", "ios": "https://dc.lft.to/lastmile_qr_scan"}, "name": "29b8db4e39dea5eba751bbb3316ebf9c", "is_reserved": 0}, {"is_disabled": 0, "fusion_lon": 0.0, "fusion_lat": 0.0, "lat": 38.957239333333334, "type": "electric_scooter", "lon": -77.03099433333334, "bike_id": "abcb7c23a313ff27c9355317d1bf96a3", "rental_uris": {"android": "https://dc.lft.to/lastmile_qr_scan", "ios": "https://dc.lft.to/lastmile_qr_scan"}, "name": "abcb7c23a313ff27c9355317d1bf96a3", "is_reserved": 0}, {"is_disabled": 0, "fusion_lon": 0.0, "fusion_lat": 0.0, "lat": 38.92404416666667, "type": "electric_scooter", "lon": -77.02542183333334, "bike_id": "c49c9bd546cac750680e9fa170458a3a", "rental_uris": {"android": "https://dc.lft.to/lastmile_qr_scan", "ios": "https://dc.lft.to/lastmile_qr_scan"}, "name": "c49c9bd546cac750680e9fa170458a3a", "is_reserved": 0}, {"is_disabled": 0, "fusion_lon": 0.0, "fusion_lat": 0.0, "lat": 38.915415833333334, "type": "electric_scooter", "lon": -77.03209566666666, "bike_id": "15ca3f72c58f5b66d8ec480ec2cab365", "rental_uris": {"android": "https://dc.lft.to/lastmile_qr_scan", "ios": "https://dc.lft.to/lastmile_qr_scan"}, "name": "15ca3f72c58f5b66d8ec480ec2cab365", "is_reserved": 0}, {"is_disabled": 0, "fusion_lon": 0.0, "fusion_lat": 0.0, "lat": 38.9909235, "type": "electric_bike", "lon": -76.87497766666667, "bike_id": "83585cc4edeb82087e93c91dba77eea1", "rental_uris": {"android": "https://dc.lft.to/lastmile_qr_scan", "ios": "https://dc.lft.to/lastmile_qr_scan"}, "name": "83585cc4edeb82087e93c91dba77eea1", "is_reserved": 0}, {"is_disabled": 0, "fusion_lon": 0.0, "fusion_lat": 0.0, "lat": 38.922990166666665, "type": "electric_scooter", "lon": -77.04302916666667, "bike_id": "a61f8260062e018a3b0a6688e41c5be6", "rental_uris": {"android": "https://dc.lft.to/lastmile_qr_scan", "ios": "https://dc.lft.to/lastmile_qr_scan"}, "name": "a61f8260062e018a3b0a6688e41c5be6", "is_reserved": 0}, {"is_disabled": 0, "fusion_lon": 0.0, "fusion_lat": 0.0, "lat": 38.902111, "type": "electric_scooter", "lon": -77.02437733333333, "bike_id": "14a9ce67a237f9f7fb7e109b926138a8", "rental_uris": {"android": "https://dc.lft.to/lastmile_qr_scan", "ios": "https://dc.lft.to/lastmile_qr_scan"}, "name": "14a9ce67a237f9f7fb7e109b926138a8", "is_reserved": 0}, {"is_disabled": 0, "fusion_lon": 0.0, "fusion_lat": 0.0, "lat": 38.90569966666666, "type": "electric_bike", "lon": -77.0449155, "bike_id": "79addffac2cd4fc6df67903385933d25", "rental_uris": {"android": "https://dc.lft.to/lastmile_qr_scan", "ios": "https://dc.lft.to/lastmile_qr_scan"}, "name": "79addffac2cd4fc6df67903385933d25", "is_reserved": 0}, {"is_disabled": 0, "fusion_lon": 0.0, "fusion_lat": 0.0, "lat": 38.92863833333333, "type": "electric_bike", "lon": -76.989368, "bike_id": "0c0a65437535d1fe34a3133901d09bd5", "rental_uris": {"android": "https://dc.lft.to/lastmile_qr_scan", "ios": "https://dc.lft.to/lastmile_qr_scan"}, "name": "0c0a65437535d1fe34a3133901d09bd5", "is_reserved": 0}, {"is_disabled": 0, "fusion_lon": 0.0, "fusion_lat": 0.0, "lat": 38.909988, "type": "electric_bike", "lon": -77.04624, "bike_id": "81e18494ef2d6dadc51abc49a8ecb01c", "rental_uris": {"android": "https://dc.lft.to/lastmile_qr_scan", "ios": "https://dc.lft.to/lastmile_qr_scan"}, "name": "81e18494ef2d6dadc51abc49a8ecb01c", "is_reserved": 0}, {"is_disabled": 0, "fusion_lon": 0.0, "fusion_lat": 0.0, "lat": 38.91799183333333, "type": "electric_scooter", "lon": -77.03551116666667, "bike_id": "542964b4a909e9c7ec29628002943c54", "rental_uris": {"android": "https://dc.lft.to/lastmile_qr_scan", "ios": "https://dc.lft.to/lastmile_qr_scan"}, "name": "542964b4a909e9c7ec29628002943c54", "is_reserved": 0}, {"is_disabled": 0, "fusion_lon": 0.0, "fusion_lat": 0.0, "lat": 38.904383, "type": "electric_scooter", "lon": -77.048454, "bike_id": "b7b35a5e6c53d3a797e25ee276bffdf8", "rental_uris": {"android": "https://dc.lft.to/lastmile_qr_scan", "ios": "https://dc.lft.to/lastmile_qr_scan"}, "name": "b7b35a5e6c53d3a797e25ee276bffdf8", "is_reserved": 0}, {"is_disabled": 0, "fusion_lon": 0.0, "fusion_lat": 0.0, "lat": 38.84509283333333, "type": "electric_bike", "lon": -76.97211916666667, "bike_id": "8876d70f2ee897be31ce77a2c74e7980", "rental_uris": {"android": "https://dc.lft.to/lastmile_qr_scan", "ios": "https://dc.lft.to/lastmile_qr_scan"}, "name": "8876d70f2ee897be31ce77a2c74e7980", "is_reserved": 0}, {"is_disabled": 0, "fusion_lon": 0.0, "fusion_lat": 0.0, "lat": 38.923616833333334, "type": "electric_scooter", "lon": -77.05063483333333, "bike_id": "71264b02a91c31ae22380d21e121dd54", "rental_uris": {"android": "https://dc.lft.to/lastmile_qr_scan", "ios": "https://dc.lft.to/lastmile_qr_scan"}, "name": "71264b02a91c31ae22380d21e121dd54", "is_reserved": 0}, {"is_disabled": 0, "fusion_lon": 0.0, "fusion_lat": 0.0, "lat": 38.88503566666667, "type": "electric_scooter", "lon": -77.01725433333333, "bike_id": "3bee872f2b2073a1096b10909acb1169", "rental_uris": {"android": "https://dc.lft.to/lastmile_qr_scan", "ios": "https://dc.lft.to/lastmile_qr_scan"}, "name": "3bee872f2b2073a1096b10909acb1169", "is_reserved": 0}, {"is_disabled": 0, "fusion_lon": 0.0, "fusion_lat": 0.0, "lat": 38.932111, "type": "electric_scooter", "lon": -77.03350483333334, "bike_id": "0c46bf1b6ff9005f67732a95045acc54", "rental_uris": {"android": "https://dc.lft.to/lastmile_qr_scan", "ios": "https://dc.lft.to/lastmile_qr_scan"}, "name": "0c46bf1b6ff9005f67732a95045acc54", "is_reserved": 0}, {"is_disabled": 0, "fusion_lon": 0.0, "fusion_lat": 0.0, "lat": 38.90532683333333, "type": "electric_scooter", "lon": -77.05039883333333, "bike_id": "33a2cef8a12727d4a390e8fa9da743fd", "rental_uris": {"android": "https://dc.lft.to/lastmile_qr_scan", "ios": "https://dc.lft.to/lastmile_qr_scan"}, "name": "33a2cef8a12727d4a390e8fa9da743fd", "is_reserved": 0}, {"is_disabled": 0, "fusion_lon": 0.0, "fusion_lat": 0.0, "lat": 38.96220183333333, "type": "electric_scooter", "lon": -77.0280055, "bike_id": "556c142ee6a05d7b87d9d709bc85c68f", "rental_uris": {"android": "https://dc.lft.to/lastmile_qr_scan", "ios": "https://dc.lft.to/lastmile_qr_scan"}, "name": "556c142ee6a05d7b87d9d709bc85c68f", "is_reserved": 0}, {"is_disabled": 0, "fusion_lon": 0.0, "fusion_lat": 0.0, "lat": 38.8462215, "type": "electric_scooter", "lon": -76.996315, "bike_id": "3c0e55e8f5355885aa35df990dddda5a", "rental_uris": {"android": "https://dc.lft.to/lastmile_qr_scan", "ios": "https://dc.lft.to/lastmile_qr_scan"}, "name": "3c0e55e8f5355885aa35df990dddda5a", "is_reserved": 0}, {"is_disabled": 0, "fusion_lon": 0.0, "fusion_lat": 0.0, "lat": 38.912766500000004, "type": "electric_scooter", "lon": -77.02240833333333, "bike_id": "23f73a8caf1dd5c2bf574550fc03daf3", "rental_uris": {"android": "https://dc.lft.to/lastmile_qr_scan", "ios": "https://dc.lft.to/lastmile_qr_scan"}, "name": "23f73a8caf1dd5c2bf574550fc03daf3", "is_reserved": 0}, {"is_disabled": 0, "fusion_lon": 0.0, "fusion_lat": 0.0, "lat": 38.86529783333334, "type": "electric_scooter", "lon": -76.9897265, "bike_id": "9b6d1d375a02d27d65ab3218943d2a0e", "rental_uris": {"android": "https://dc.lft.to/lastmile_qr_scan", "ios": "https://dc.lft.to/lastmile_qr_scan"}, "name": "9b6d1d375a02d27d65ab3218943d2a0e", "is_reserved": 0}, {"is_disabled": 0, "fusion_lon": 0.0, "fusion_lat": 0.0, "lat": 38.90331916666667, "type": "electric_scooter", "lon": -76.98017516666667, "bike_id": "b0e1c3addc0aa585a4a987ee4314c3a4", "rental_uris": {"android": "https://dc.lft.to/lastmile_qr_scan", "ios": "https://dc.lft.to/lastmile_qr_scan"}, "name": "b0e1c3addc0aa585a4a987ee4314c3a4", "is_reserved": 0}, {"is_disabled": 0, "fusion_lon": 0.0, "fusion_lat": 0.0, "lat": 38.912603, "type": "electric_scooter", "lon": -77.02232616666667, "bike_id": "bcf5800ae188daccde13268086afbd79", "rental_uris": {"android": "https://dc.lft.to/lastmile_qr_scan", "ios": "https://dc.lft.to/lastmile_qr_scan"}, "name": "bcf5800ae188daccde13268086afbd79", "is_reserved": 0}, {"is_disabled": 0, "fusion_lon": 0.0, "fusion_lat": 0.0, "lat": 38.831214333333335, "type": "electric_bike", "lon": -77.04329083333333, "bike_id": "e382908b2a09ea7347cf6f92106cc3ba", "rental_uris": {"android": "https://dc.lft.to/lastmile_qr_scan", "ios": "https://dc.lft.to/lastmile_qr_scan"}, "name": "e382908b2a09ea7347cf6f92106cc3ba", "is_reserved": 0}, {"is_disabled": 0, "fusion_lon": 0.0, "fusion_lat": 0.0, "lat": 39.11514916666667, "type": "electric_bike", "lon": -77.19548533333334, "bike_id": "f88234975cc239664baf74eb4fd1727f", "rental_uris": {"android": "https://dc.lft.to/lastmile_qr_scan", "ios": "https://dc.lft.to/lastmile_qr_scan"}, "name": "f88234975cc239664baf74eb4fd1727f", "is_reserved": 0}, {"is_disabled": 0, "fusion_lon": 0.0, "fusion_lat": 0.0, "lat": 38.91899566666667, "type": "electric_scooter", "lon": -77.0323315, "bike_id": "d40a85aae9fa59f85138c45c918139f2", "rental_uris": {"android": "https://dc.lft.to/lastmile_qr_scan", "ios": "https://dc.lft.to/lastmile_qr_scan"}, "name": "d40a85aae9fa59f85138c45c918139f2", "is_reserved": 0}, {"is_disabled": 0, "fusion_lon": 0.0, "fusion_lat": 0.0, "lat": 38.96723816666667, "type": "electric_scooter", "lon": -77.02734516666666, "bike_id": "b013649c3c903a7d6400969f8b9252df", "rental_uris": {"android": "https://dc.lft.to/lastmile_qr_scan", "ios": "https://dc.lft.to/lastmile_qr_scan"}, "name": "b013649c3c903a7d6400969f8b9252df", "is_reserved": 0}, {"is_disabled": 0, "fusion_lon": 0.0, "fusion_lat": 0.0, "lat": 38.99257633333333, "type": "electric_bike", "lon": -77.04997916666666, "bike_id": "f16900c91c395e541a8d99ebcfe2cb11", "rental_uris": {"android": "https://dc.lft.to/lastmile_qr_scan", "ios": "https://dc.lft.to/lastmile_qr_scan"}, "name": "f16900c91c395e541a8d99ebcfe2cb11", "is_reserved": 0}, {"is_disabled": 0, "fusion_lon": 0.0, "fusion_lat": 0.0, "lat": 38.930478, "type": "electric_scooter", "lon": -77.00417466666667, "bike_id": "c13cfc05ffff98299a2520d6a26fdde7", "rental_uris": {"android": "https://dc.lft.to/lastmile_qr_scan", "ios": "https://dc.lft.to/lastmile_qr_scan"}, "name": "c13cfc05ffff98299a2520d6a26fdde7", "is_reserved": 0}, {"is_disabled": 0, "fusion_lon": 0.0, "fusion_lat": 0.0, "lat": 38.85716166666667, "type": "electric_bike", "lon": -76.98116166666667, "bike_id": "b0117121c9eb50b112747e024491c1a7", "rental_uris": {"android": "https://dc.lft.to/lastmile_qr_scan", "ios": "https://dc.lft.to/lastmile_qr_scan"}, "name": "b0117121c9eb50b112747e024491c1a7", "is_reserved": 0}, {"is_disabled": 0, "fusion_lon": 0.0, "fusion_lat": 0.0, "lat": 38.83812133333333, "type": "electric_scooter", "lon": -77.00434933333334, "bike_id": "091599e2b51120585777258e770a209a", "rental_uris": {"android": "https://dc.lft.to/lastmile_qr_scan", "ios": "https://dc.lft.to/lastmile_qr_scan"}, "name": "091599e2b51120585777258e770a209a", "is_reserved": 0}, {"is_disabled": 0, "fusion_lon": 0.0, "fusion_lat": 0.0, "lat": 38.91814016666667, "type": "electric_scooter", "lon": -77.03627566666667, "bike_id": "e89ddc31e34046fc2231fd4521d5272e", "rental_uris": {"android": "https://dc.lft.to/lastmile_qr_scan", "ios": "https://dc.lft.to/lastmile_qr_scan"}, "name": "e89ddc31e34046fc2231fd4521d5272e", "is_reserved": 0}, {"is_disabled": 0, "fusion_lon": 0.0, "fusion_lat": 0.0, "lat": 38.9430605, "type": "electric_scooter", "lon": -77.02353833333333, "bike_id": "b62f969279e058474af39f927ff1d544", "rental_uris": {"android": "https://dc.lft.to/lastmile_qr_scan", "ios": "https://dc.lft.to/lastmile_qr_scan"}, "name": "b62f969279e058474af39f927ff1d544", "is_reserved": 0}, {"is_disabled": 0, "fusion_lon": 0.0, "fusion_lat": 0.0, "lat": 38.99086283333333, "type": "electric_bike", "lon": -77.00183333333334, "bike_id": "f850e44ed36f71aaae50eceae35d3369", "rental_uris": {"android": "https://dc.lft.to/lastmile_qr_scan", "ios": "https://dc.lft.to/lastmile_qr_scan"}, "name": "f850e44ed36f71aaae50eceae35d3369", "is_reserved": 0}, {"is_disabled": 0, "fusion_lon": 0.0, "fusion_lat": 0.0, "lat": 38.90882633333333, "type": "electric_bike", "lon": -77.04328966666667, "bike_id": "f8aa485cc706da8d4be6027c0477e59f", "rental_uris": {"android": "https://dc.lft.to/lastmile_qr_scan", "ios": "https://dc.lft.to/lastmile_qr_scan"}, "name": "f8aa485cc706da8d4be6027c0477e59f", "is_reserved": 0}, {"is_disabled": 0, "fusion_lon": 0.0, "fusion_lat": 0.0, "lat": 38.95201183333333, "type": "electric_scooter", "lon": -77.02730033333333, "bike_id": "782117944c96aa4202adad94b5323f26", "rental_uris": {"android": "https://dc.lft.to/lastmile_qr_scan", "ios": "https://dc.lft.to/lastmile_qr_scan"}, "name": "782117944c96aa4202adad94b5323f26", "is_reserved": 0}, {"is_disabled": 0, "fusion_lon": 0.0, "fusion_lat": 0.0, "lat": 38.96449716666667, "type": "electric_bike", "lon": -76.97728666666667, "bike_id": "c1af15c55b9f1f5b678a5229d1e9c382", "rental_uris": {"android": "https://dc.lft.to/lastmile_qr_scan", "ios": "https://dc.lft.to/lastmile_qr_scan"}, "name": "c1af15c55b9f1f5b678a5229d1e9c382", "is_reserved": 0}, {"is_disabled": 0, "fusion_lon": 0.0, "fusion_lat": 0.0, "lat": 38.899096, "type": "electric_scooter", "lon": -76.93393166666667, "bike_id": "e86e09bb2200b43ad3183e8708e4e73e", "rental_uris": {"android": "https://dc.lft.to/lastmile_qr_scan", "ios": "https://dc.lft.to/lastmile_qr_scan"}, "name": "e86e09bb2200b43ad3183e8708e4e73e", "is_reserved": 0}, {"is_disabled": 0, "fusion_lon": 0.0, "fusion_lat": 0.0, "lat": 38.8509715, "type": "electric_bike", "lon": -76.95699233333333, "bike_id": "cd75643c1d6a29e26e0ad7a421a089d3", "rental_uris": {"android": "https://dc.lft.to/lastmile_qr_scan", "ios": "https://dc.lft.to/lastmile_qr_scan"}, "name": "cd75643c1d6a29e26e0ad7a421a089d3", "is_reserved": 0}, {"is_disabled": 0, "fusion_lon": 0.0, "fusion_lat": 0.0, "lat": 38.9058055, "type": "electric_scooter", "lon": -77.04194033333333, "bike_id": "1321c8cb0df64e51d0234d5db9d68216", "rental_uris": {"android": "https://dc.lft.to/lastmile_qr_scan", "ios": "https://dc.lft.to/lastmile_qr_scan"}, "name": "1321c8cb0df64e51d0234d5db9d68216", "is_reserved": 0}, {"is_disabled": 0, "fusion_lon": 0.0, "fusion_lat": 0.0, "lat": 38.878519, "type": "electric_scooter", "lon": -77.007995, "bike_id": "5cfd978f0879a3e35b13e6a7e5ed318f", "rental_uris": {"android": "https://dc.lft.to/lastmile_qr_scan", "ios": "https://dc.lft.to/lastmile_qr_scan"}, "name": "5cfd978f0879a3e35b13e6a7e5ed318f", "is_reserved": 0}, {"is_disabled": 0, "fusion_lon": 0.0, "fusion_lat": 0.0, "lat": 38.90021133333333, "type": "electric_scooter", "lon": -77.00478933333333, "bike_id": "170ca30c24e9670d49fbb817815f0c52", "rental_uris": {"android": "https://dc.lft.to/lastmile_qr_scan", "ios": "https://dc.lft.to/lastmile_qr_scan"}, "name": "170ca30c24e9670d49fbb817815f0c52", "is_reserved": 0}, {"is_disabled": 0, "fusion_lon": 0.0, "fusion_lat": 0.0, "lat": 38.94272566666667, "type": "electric_scooter", "lon": -77.0326055, "bike_id": "ceed235db07906c2eec98689aa0e14e4", "rental_uris": {"android": "https://dc.lft.to/lastmile_qr_scan", "ios": "https://dc.lft.to/lastmile_qr_scan"}, "name": "ceed235db07906c2eec98689aa0e14e4", "is_reserved": 0}, {"is_disabled": 0, "fusion_lon": 0.0, "fusion_lat": 0.0, "lat": 38.913325, "type": "electric_scooter", "lon": -77.02716866666667, "bike_id": "fe7be84b13017a52cf7ea2ee6013dfff", "rental_uris": {"android": "https://dc.lft.to/lastmile_qr_scan", "ios": "https://dc.lft.to/lastmile_qr_scan"}, "name": "fe7be84b13017a52cf7ea2ee6013dfff", "is_reserved": 0}, {"is_disabled": 0, "fusion_lon": 0.0, "fusion_lat": 0.0, "lat": 38.915478, "type": "electric_scooter", "lon": -77.02950766666666, "bike_id": "418d322ff1bcf69b0997612f576a9a18", "rental_uris": {"android": "https://dc.lft.to/lastmile_qr_scan", "ios": "https://dc.lft.to/lastmile_qr_scan"}, "name": "418d322ff1bcf69b0997612f576a9a18", "is_reserved": 0}, {"is_disabled": 0, "fusion_lon": 0.0, "fusion_lat": 0.0, "lat": 39.030036333333335, "type": "electric_bike", "lon": -77.10656466666667, "bike_id": "4c4468b17850d15305d90f9ecdd4b7f7", "rental_uris": {"android": "https://dc.lft.to/lastmile_qr_scan", "ios": "https://dc.lft.to/lastmile_qr_scan"}, "name": "4c4468b17850d15305d90f9ecdd4b7f7", "is_reserved": 0}, {"is_disabled": 0, "fusion_lon": 0.0, "fusion_lat": 0.0, "lat": 38.91728466666667, "type": "electric_scooter", "lon": -77.036194, "bike_id": "4ca8743bb5505f2a106b8a129974d193", "rental_uris": {"android": "https://dc.lft.to/lastmile_qr_scan", "ios": "https://dc.lft.to/lastmile_qr_scan"}, "name": "4ca8743bb5505f2a106b8a129974d193", "is_reserved": 0}, {"is_disabled": 0, "fusion_lon": 0.0, "fusion_lat": 0.0, "lat": 38.869626833333335, "type": "electric_scooter", "lon": -76.97602616666667, "bike_id": "9b7785935cf8680c23b12b861bda870d", "rental_uris": {"android": "https://dc.lft.to/lastmile_qr_scan", "ios": "https://dc.lft.to/lastmile_qr_scan"}, "name": "9b7785935cf8680c23b12b861bda870d", "is_reserved": 0}, {"is_disabled": 0, "fusion_lon": 0.0, "fusion_lat": 0.0, "lat": 38.935764666666664, "type": "electric_scooter", "lon": -77.0244395, "bike_id": "e5fb468efb909dcf9c2f6234ce02a227", "rental_uris": {"android": "https://dc.lft.to/lastmile_qr_scan", "ios": "https://dc.lft.to/lastmile_qr_scan"}, "name": "e5fb468efb909dcf9c2f6234ce02a227", "is_reserved": 0}, {"is_disabled": 0, "fusion_lon": 0.0, "fusion_lat": 0.0, "lat": 38.9056845, "type": "electric_scooter", "lon": -77.017944, "bike_id": "e699c9c415746e00b81f918c5d139051", "rental_uris": {"android": "https://dc.lft.to/lastmile_qr_scan", "ios": "https://dc.lft.to/lastmile_qr_scan"}, "name": "e699c9c415746e00b81f918c5d139051", "is_reserved": 0}, {"is_disabled": 0, "fusion_lon": 0.0, "fusion_lat": 0.0, "lat": 38.9462815, "type": "electric_bike", "lon": -76.93414933333334, "bike_id": "a24d2a737604e6ec8619a441c89f93a8", "rental_uris": {"android": "https://dc.lft.to/lastmile_qr_scan", "ios": "https://dc.lft.to/lastmile_qr_scan"}, "name": "a24d2a737604e6ec8619a441c89f93a8", "is_reserved": 0}, {"is_disabled": 0, "fusion_lon": 0.0, "fusion_lat": 0.0, "lat": 38.89826333333333, "type": "electric_scooter", "lon": -76.94656016666667, "bike_id": "a0a9f17a60207c9e21ebed39f23796ec", "rental_uris": {"android": "https://dc.lft.to/lastmile_qr_scan", "ios": "https://dc.lft.to/lastmile_qr_scan"}, "name": "a0a9f17a60207c9e21ebed39f23796ec", "is_reserved": 0}, {"is_disabled": 0, "fusion_lon": 0.0, "fusion_lat": 0.0, "lat": 38.90385416666667, "type": "electric_scooter", "lon": -76.99002633333333, "bike_id": "5959c4dd01919bd8bba4699977eb1633", "rental_uris": {"android": "https://dc.lft.to/lastmile_qr_scan", "ios": "https://dc.lft.to/lastmile_qr_scan"}, "name": "5959c4dd01919bd8bba4699977eb1633", "is_reserved": 0}, {"is_disabled": 0, "fusion_lon": 0.0, "fusion_lat": 0.0, "lat": 38.805389, "type": "electric_bike", "lon": -77.04022616666667, "bike_id": "cf47d26da0c125c64d3f15a146ddf449", "rental_uris": {"android": "https://dc.lft.to/lastmile_qr_scan", "ios": "https://dc.lft.to/lastmile_qr_scan"}, "name": "cf47d26da0c125c64d3f15a146ddf449", "is_reserved": 0}, {"is_disabled": 0, "fusion_lon": 0.0, "fusion_lat": 0.0, "lat": 38.932629166666665, "type": "electric_bike", "lon": -76.986362, "bike_id": "dafdd64a79cc9a0e204b0a826ffb9c89", "rental_uris": {"android": "https://dc.lft.to/lastmile_qr_scan", "ios": "https://dc.lft.to/lastmile_qr_scan"}, "name": "dafdd64a79cc9a0e204b0a826ffb9c89", "is_reserved": 0}, {"is_disabled": 0, "fusion_lon": 0.0, "fusion_lat": 0.0, "lat": 38.89036216666667, "type": "electric_scooter", "lon": -77.02979316666666, "bike_id": "941e2607d4a544c80f6d1a87401da0c2", "rental_uris": {"android": "https://dc.lft.to/lastmile_qr_scan", "ios": "https://dc.lft.to/lastmile_qr_scan"}, "name": "941e2607d4a544c80f6d1a87401da0c2", "is_reserved": 0}, {"is_disabled": 0, "fusion_lon": 0.0, "fusion_lat": 0.0, "lat": 38.947970166666664, "type": "electric_scooter", "lon": -77.0328675, "bike_id": "09bcaeea446d4c80d848922ab5aa7bd1", "rental_uris": {"android": "https://dc.lft.to/lastmile_qr_scan", "ios": "https://dc.lft.to/lastmile_qr_scan"}, "name": "09bcaeea446d4c80d848922ab5aa7bd1", "is_reserved": 0}, {"is_disabled": 0, "fusion_lon": 0.0, "fusion_lat": 0.0, "lat": 38.90217416666667, "type": "electric_scooter", "lon": -77.02441433333334, "bike_id": "b8c6ecf0521aec369f26ee3ccd0a87b1", "rental_uris": {"android": "https://dc.lft.to/lastmile_qr_scan", "ios": "https://dc.lft.to/lastmile_qr_scan"}, "name": "b8c6ecf0521aec369f26ee3ccd0a87b1", "is_reserved": 0}, {"is_disabled": 0, "fusion_lon": 0.0, "fusion_lat": 0.0, "lat": 38.911135, "type": "electric_scooter", "lon": -77.050412, "bike_id": "f84a6ca3754724bdbc76facaf3a06224", "rental_uris": {"android": "https://dc.lft.to/lastmile_qr_scan", "ios": "https://dc.lft.to/lastmile_qr_scan"}, "name": "f84a6ca3754724bdbc76facaf3a06224", "is_reserved": 0}, {"is_disabled": 0, "fusion_lon": 0.0, "fusion_lat": 0.0, "lat": 38.92970616666667, "type": "electric_scooter", "lon": -77.02831316666666, "bike_id": "8cc5b385e2fd1740af1a1a7d7bf7aff4", "rental_uris": {"android": "https://dc.lft.to/lastmile_qr_scan", "ios": "https://dc.lft.to/lastmile_qr_scan"}, "name": "8cc5b385e2fd1740af1a1a7d7bf7aff4", "is_reserved": 0}, {"is_disabled": 0, "fusion_lon": 0.0, "fusion_lat": 0.0, "lat": 38.91700816666667, "type": "electric_scooter", "lon": -77.02788716666667, "bike_id": "a9bb28def8fe9678fb59f5469cf78def", "rental_uris": {"android": "https://dc.lft.to/lastmile_qr_scan", "ios": "https://dc.lft.to/lastmile_qr_scan"}, "name": "a9bb28def8fe9678fb59f5469cf78def", "is_reserved": 0}, {"is_disabled": 0, "fusion_lon": 0.0, "fusion_lat": 0.0, "lat": 38.926506, "type": "electric_scooter", "lon": -77.03724733333334, "bike_id": "3229390529e6df6d2372863a831f1ed2", "rental_uris": {"android": "https://dc.lft.to/lastmile_qr_scan", "ios": "https://dc.lft.to/lastmile_qr_scan"}, "name": "3229390529e6df6d2372863a831f1ed2", "is_reserved": 0}, {"is_disabled": 0, "fusion_lon": 0.0, "fusion_lat": 0.0, "lat": 39.04135733333333, "type": "electric_bike", "lon": -76.98908583333333, "bike_id": "2a7b74d507f94e443ad12672db451838", "rental_uris": {"android": "https://dc.lft.to/lastmile_qr_scan", "ios": "https://dc.lft.to/lastmile_qr_scan"}, "name": "2a7b74d507f94e443ad12672db451838", "is_reserved": 0}, {"is_disabled": 0, "fusion_lon": 0.0, "fusion_lat": 0.0, "lat": 38.87725783333333, "type": "electric_scooter", "lon": -77.01762, "bike_id": "379d97270d1a9d08003df296a49d9802", "rental_uris": {"android": "https://dc.lft.to/lastmile_qr_scan", "ios": "https://dc.lft.to/lastmile_qr_scan"}, "name": "379d97270d1a9d08003df296a49d9802", "is_reserved": 0}, {"is_disabled": 0, "fusion_lon": 0.0, "fusion_lat": 0.0, "lat": 38.877364166666666, "type": "electric_scooter", "lon": -77.01771983333333, "bike_id": "d1036a79035ccb02268521eeb1e9aa4b", "rental_uris": {"android": "https://dc.lft.to/lastmile_qr_scan", "ios": "https://dc.lft.to/lastmile_qr_scan"}, "name": "d1036a79035ccb02268521eeb1e9aa4b", "is_reserved": 0}, {"is_disabled": 0, "fusion_lon": 0.0, "fusion_lat": 0.0, "lat": 38.90744016666667, "type": "electric_scooter", "lon": -77.02184666666666, "bike_id": "936850dd381a7b59312471b795b50500", "rental_uris": {"android": "https://dc.lft.to/lastmile_qr_scan", "ios": "https://dc.lft.to/lastmile_qr_scan"}, "name": "936850dd381a7b59312471b795b50500", "is_reserved": 0}, {"is_disabled": 0, "fusion_lon": 0.0, "fusion_lat": 0.0, "lat": 38.9237155, "type": "electric_scooter", "lon": -77.050376, "bike_id": "fa1e9aeedb1a49fba455cca4aa53debc", "rental_uris": {"android": "https://dc.lft.to/lastmile_qr_scan", "ios": "https://dc.lft.to/lastmile_qr_scan"}, "name": "fa1e9aeedb1a49fba455cca4aa53debc", "is_reserved": 0}, {"is_disabled": 0, "fusion_lon": 0.0, "fusion_lat": 0.0, "lat": 38.9073745, "type": "electric_scooter", "lon": -77.04205316666666, "bike_id": "3d5f3be3d4b6307c1806e20044e1a752", "rental_uris": {"android": "https://dc.lft.to/lastmile_qr_scan", "ios": "https://dc.lft.to/lastmile_qr_scan"}, "name": "3d5f3be3d4b6307c1806e20044e1a752", "is_reserved": 0}, {"is_disabled": 0, "fusion_lon": 0.0, "fusion_lat": 0.0, "lat": 38.827795333333334, "type": "electric_bike", "lon": -77.11079683333334, "bike_id": "a8166b937e93e17bb2e098cfd3d53721", "rental_uris": {"android": "https://dc.lft.to/lastmile_qr_scan", "ios": "https://dc.lft.to/lastmile_qr_scan"}, "name": "a8166b937e93e17bb2e098cfd3d53721", "is_reserved": 0}, {"is_disabled": 0, "fusion_lon": 0.0, "fusion_lat": 0.0, "lat": 38.82447666666667, "type": "electric_bike", "lon": -77.07051433333334, "bike_id": "5891c2a80f5a1e4a6676ed92c7aa66d4", "rental_uris": {"android": "https://dc.lft.to/lastmile_qr_scan", "ios": "https://dc.lft.to/lastmile_qr_scan"}, "name": "5891c2a80f5a1e4a6676ed92c7aa66d4", "is_reserved": 0}, {"is_disabled": 0, "fusion_lon": 0.0, "fusion_lat": 0.0, "lat": 38.91586433333333, "type": "electric_scooter", "lon": -77.04684316666666, "bike_id": "8c77278f3bf212792ca52c7c0ecab2b8", "rental_uris": {"android": "https://dc.lft.to/lastmile_qr_scan", "ios": "https://dc.lft.to/lastmile_qr_scan"}, "name": "8c77278f3bf212792ca52c7c0ecab2b8", "is_reserved": 0}, {"is_disabled": 0, "fusion_lon": 0.0, "fusion_lat": 0.0, "lat": 38.93960533333333, "type": "electric_scooter", "lon": -77.032802, "bike_id": "c0501dc1ff862597d918183b16126a4a", "rental_uris": {"android": "https://dc.lft.to/lastmile_qr_scan", "ios": "https://dc.lft.to/lastmile_qr_scan"}, "name": "c0501dc1ff862597d918183b16126a4a", "is_reserved": 0}, {"is_disabled": 0, "fusion_lon": 0.0, "fusion_lat": 0.0, "lat": 38.961913333333335, "type": "electric_scooter", "lon": -77.02791666666667, "bike_id": "ebcac6fe6b9353253516202ffaffce23", "rental_uris": {"android": "https://dc.lft.to/lastmile_qr_scan", "ios": "https://dc.lft.to/lastmile_qr_scan"}, "name": "ebcac6fe6b9353253516202ffaffce23", "is_reserved": 0}, {"is_disabled": 0, "fusion_lon": 0.0, "fusion_lat": 0.0, "lat": 38.89834416666667, "type": "electric_scooter", "lon": -76.94634716666667, "bike_id": "768f03479ed0c85bad110f834cc484fc", "rental_uris": {"android": "https://dc.lft.to/lastmile_qr_scan", "ios": "https://dc.lft.to/lastmile_qr_scan"}, "name": "768f03479ed0c85bad110f834cc484fc", "is_reserved": 0}, {"is_disabled": 0, "fusion_lon": 0.0, "fusion_lat": 0.0, "lat": 38.93032133333333, "type": "electric_scooter", "lon": -77.03450816666667, "bike_id": "574d6c2981a2f26665bd14ad06386bf6", "rental_uris": {"android": "https://dc.lft.to/lastmile_qr_scan", "ios": "https://dc.lft.to/lastmile_qr_scan"}, "name": "574d6c2981a2f26665bd14ad06386bf6", "is_reserved": 0}, {"is_disabled": 0, "fusion_lon": 0.0, "fusion_lat": 0.0, "lat": 38.897436666666664, "type": "electric_scooter", "lon": -77.00049383333334, "bike_id": "cea49905e1b1ffc560f80e110530a209", "rental_uris": {"android": "https://dc.lft.to/lastmile_qr_scan", "ios": "https://dc.lft.to/lastmile_qr_scan"}, "name": "cea49905e1b1ffc560f80e110530a209", "is_reserved": 0}, {"is_disabled": 0, "fusion_lon": 0.0, "fusion_lat": 0.0, "lat": 38.941883, "type": "electric_scooter", "lon": -77.02487266666667, "bike_id": "30414e08c805e914e8b6fe282f797b23", "rental_uris": {"android": "https://dc.lft.to/lastmile_qr_scan", "ios": "https://dc.lft.to/lastmile_qr_scan"}, "name": "30414e08c805e914e8b6fe282f797b23", "is_reserved": 0}, {"is_disabled": 0, "fusion_lon": 0.0, "fusion_lat": 0.0, "lat": 38.87686933333333, "type": "electric_scooter", "lon": -77.00069633333334, "bike_id": "29727f910f82eb6fb101ec224f5ac7be", "rental_uris": {"android": "https://dc.lft.to/lastmile_qr_scan", "ios": "https://dc.lft.to/lastmile_qr_scan"}, "name": "29727f910f82eb6fb101ec224f5ac7be", "is_reserved": 0}, {"is_disabled": 0, "fusion_lon": 0.0, "fusion_lat": 0.0, "lat": 38.91608683333333, "type": "electric_scooter", "lon": -77.03140316666666, "bike_id": "266adaa3c371d9696b7c6808ada8e941", "rental_uris": {"android": "https://dc.lft.to/lastmile_qr_scan", "ios": "https://dc.lft.to/lastmile_qr_scan"}, "name": "266adaa3c371d9696b7c6808ada8e941", "is_reserved": 0}, {"is_disabled": 0, "fusion_lon": 0.0, "fusion_lat": 0.0, "lat": 38.94204516666667, "type": "electric_scooter", "lon": -77.02594683333334, "bike_id": "d14e7ad7e6ac733d4729c139c9f5e572", "rental_uris": {"android": "https://dc.lft.to/lastmile_qr_scan", "ios": "https://dc.lft.to/lastmile_qr_scan"}, "name": "d14e7ad7e6ac733d4729c139c9f5e572", "is_reserved": 0}, {"is_disabled": 0, "fusion_lon": 0.0, "fusion_lat": 0.0, "lat": 38.85808566666667, "type": "electric_scooter", "lon": -76.98660066666666, "bike_id": "e955b6d7878bf54ce5bc8434df9d67be", "rental_uris": {"android": "https://dc.lft.to/lastmile_qr_scan", "ios": "https://dc.lft.to/lastmile_qr_scan"}, "name": "e955b6d7878bf54ce5bc8434df9d67be", "is_reserved": 0}, {"is_disabled": 0, "fusion_lon": 0.0, "fusion_lat": 0.0, "lat": 38.93939533333333, "type": "electric_scooter", "lon": -77.02477216666666, "bike_id": "74aa30bb0341c5fd4d19c98013757d88", "rental_uris": {"android": "https://dc.lft.to/lastmile_qr_scan", "ios": "https://dc.lft.to/lastmile_qr_scan"}, "name": "74aa30bb0341c5fd4d19c98013757d88", "is_reserved": 0}, {"is_disabled": 0, "fusion_lon": 0.0, "fusion_lat": 0.0, "lat": 38.926166, "type": "electric_scooter", "lon": -77.05708183333333, "bike_id": "1a1967422adae0d2852ca9f9dfcd45bc", "rental_uris": {"android": "https://dc.lft.to/lastmile_qr_scan", "ios": "https://dc.lft.to/lastmile_qr_scan"}, "name": "1a1967422adae0d2852ca9f9dfcd45bc", "is_reserved": 0}, {"is_disabled": 0, "fusion_lon": 0.0, "fusion_lat": 0.0, "lat": 38.906821, "type": "electric_scooter", "lon": -76.980032, "bike_id": "1e224ddd1a4213969beb7e5ce5c06d40", "rental_uris": {"android": "https://dc.lft.to/lastmile_qr_scan", "ios": "https://dc.lft.to/lastmile_qr_scan"}, "name": "1e224ddd1a4213969beb7e5ce5c06d40", "is_reserved": 0}, {"is_disabled": 0, "fusion_lon": 0.0, "fusion_lat": 0.0, "lat": 38.897198, "type": "electric_scooter", "lon": -77.00801233333334, "bike_id": "e88bc74e0829ca26c08eaeb6b790b788", "rental_uris": {"android": "https://dc.lft.to/lastmile_qr_scan", "ios": "https://dc.lft.to/lastmile_qr_scan"}, "name": "e88bc74e0829ca26c08eaeb6b790b788", "is_reserved": 0}, {"is_disabled": 0, "fusion_lon": 0.0, "fusion_lat": 0.0, "lat": 38.91189133333334, "type": "electric_scooter", "lon": -77.03510916666667, "bike_id": "89fadbe157f2732abd2035a83ed758df", "rental_uris": {"android": "https://dc.lft.to/lastmile_qr_scan", "ios": "https://dc.lft.to/lastmile_qr_scan"}, "name": "89fadbe157f2732abd2035a83ed758df", "is_reserved": 0}, {"is_disabled": 0, "fusion_lon": 0.0, "fusion_lat": 0.0, "lat": 38.92752633333333, "type": "electric_scooter", "lon": -77.03358583333333, "bike_id": "0d7729f434b30e3d871fcd7328f092e6", "rental_uris": {"android": "https://dc.lft.to/lastmile_qr_scan", "ios": "https://dc.lft.to/lastmile_qr_scan"}, "name": "0d7729f434b30e3d871fcd7328f092e6", "is_reserved": 0}, {"is_disabled": 0, "fusion_lon": 0.0, "fusion_lat": 0.0, "lat": 38.907437, "type": "electric_scooter", "lon": -77.063407, "bike_id": "dba1049a30d8eba6649053f942aa93eb", "rental_uris": {"android": "https://dc.lft.to/lastmile_qr_scan", "ios": "https://dc.lft.to/lastmile_qr_scan"}, "name": "dba1049a30d8eba6649053f942aa93eb", "is_reserved": 0}, {"is_disabled": 0, "fusion_lon": 0.0, "fusion_lat": 0.0, "lat": 38.90878133333333, "type": "electric_scooter", "lon": -77.03544366666667, "bike_id": "9cddd3b0b09f1e879dc4f11653e8c295", "rental_uris": {"android": "https://dc.lft.to/lastmile_qr_scan", "ios": "https://dc.lft.to/lastmile_qr_scan"}, "name": "9cddd3b0b09f1e879dc4f11653e8c295", "is_reserved": 0}, {"is_disabled": 0, "fusion_lon": 0.0, "fusion_lat": 0.0, "lat": 38.879433666666664, "type": "electric_scooter", "lon": -77.00526016666667, "bike_id": "ae0a7b961b885e34a6a38cae6c35d49f", "rental_uris": {"android": "https://dc.lft.to/lastmile_qr_scan", "ios": "https://dc.lft.to/lastmile_qr_scan"}, "name": "ae0a7b961b885e34a6a38cae6c35d49f", "is_reserved": 0}, {"is_disabled": 0, "fusion_lon": 0.0, "fusion_lat": 0.0, "lat": 38.9471655, "type": "electric_scooter", "lon": -77.03326766666666, "bike_id": "1abad5b80be7feb17932eaa78bbcb924", "rental_uris": {"android": "https://dc.lft.to/lastmile_qr_scan", "ios": "https://dc.lft.to/lastmile_qr_scan"}, "name": "1abad5b80be7feb17932eaa78bbcb924", "is_reserved": 0}, {"is_disabled": 0, "fusion_lon": 0.0, "fusion_lat": 0.0, "lat": 38.86524683333333, "type": "electric_scooter", "lon": -76.9896795, "bike_id": "f34a73630ff18a0ebf13ccbc9e182587", "rental_uris": {"android": "https://dc.lft.to/lastmile_qr_scan", "ios": "https://dc.lft.to/lastmile_qr_scan"}, "name": "f34a73630ff18a0ebf13ccbc9e182587", "is_reserved": 0}, {"is_disabled": 0, "fusion_lon": 0.0, "fusion_lat": 0.0, "lat": 38.901473333333335, "type": "electric_scooter", "lon": -77.02296033333333, "bike_id": "4a2eeb662a41fd75e7f2a9e0386d7a8b", "rental_uris": {"android": "https://dc.lft.to/lastmile_qr_scan", "ios": "https://dc.lft.to/lastmile_qr_scan"}, "name": "4a2eeb662a41fd75e7f2a9e0386d7a8b", "is_reserved": 0}, {"is_disabled": 0, "fusion_lon": 0.0, "fusion_lat": 0.0, "lat": 38.906809833333334, "type": "electric_scooter", "lon": -77.02713933333334, "bike_id": "a1d744040dd64141fa96f12affeef495", "rental_uris": {"android": "https://dc.lft.to/lastmile_qr_scan", "ios": "https://dc.lft.to/lastmile_qr_scan"}, "name": "a1d744040dd64141fa96f12affeef495", "is_reserved": 0}, {"is_disabled": 0, "fusion_lon": 0.0, "fusion_lat": 0.0, "lat": 38.878272333333335, "type": "electric_scooter", "lon": -77.01980416666666, "bike_id": "b982216fc08515f8b21f6d92d1b99a5c", "rental_uris": {"android": "https://dc.lft.to/lastmile_qr_scan", "ios": "https://dc.lft.to/lastmile_qr_scan"}, "name": "b982216fc08515f8b21f6d92d1b99a5c", "is_reserved": 0}, {"is_disabled": 0, "fusion_lon": 0.0, "fusion_lat": 0.0, "lat": 38.959588333333336, "type": "electric_bike", "lon": -77.02516333333334, "bike_id": "70756a421805542b95660832a4c7e3b2", "rental_uris": {"android": "https://dc.lft.to/lastmile_qr_scan", "ios": "https://dc.lft.to/lastmile_qr_scan"}, "name": "70756a421805542b95660832a4c7e3b2", "is_reserved": 0}, {"is_disabled": 0, "fusion_lon": 0.0, "fusion_lat": 0.0, "lat": 39.038834, "type": "electric_bike", "lon": -77.10912166666667, "bike_id": "3e11ec656601f6fb8453fb9f8d495111", "rental_uris": {"android": "https://dc.lft.to/lastmile_qr_scan", "ios": "https://dc.lft.to/lastmile_qr_scan"}, "name": "3e11ec656601f6fb8453fb9f8d495111", "is_reserved": 0}, {"is_disabled": 0, "fusion_lon": 0.0, "fusion_lat": 0.0, "lat": 38.91989133333333, "type": "electric_scooter", "lon": -77.03280216666667, "bike_id": "b332055363b4f3c68d155254879c8611", "rental_uris": {"android": "https://dc.lft.to/lastmile_qr_scan", "ios": "https://dc.lft.to/lastmile_qr_scan"}, "name": "b332055363b4f3c68d155254879c8611", "is_reserved": 0}, {"is_disabled": 0, "fusion_lon": 0.0, "fusion_lat": 0.0, "lat": 38.8978835, "type": "electric_bike", "lon": -77.0199625, "bike_id": "3160c00e84ea20cbc1b7503afcf90cb6", "rental_uris": {"android": "https://dc.lft.to/lastmile_qr_scan", "ios": "https://dc.lft.to/lastmile_qr_scan"}, "name": "3160c00e84ea20cbc1b7503afcf90cb6", "is_reserved": 0}, {"is_disabled": 0, "fusion_lon": 0.0, "fusion_lat": 0.0, "lat": 38.91709066666667, "type": "electric_scooter", "lon": -77.05129883333333, "bike_id": "8ad9f299c9925dfafbf48f7ff6bb39e7", "rental_uris": {"android": "https://dc.lft.to/lastmile_qr_scan", "ios": "https://dc.lft.to/lastmile_qr_scan"}, "name": "8ad9f299c9925dfafbf48f7ff6bb39e7", "is_reserved": 0}, {"is_disabled": 0, "fusion_lon": 0.0, "fusion_lat": 0.0, "lat": 38.885791833333336, "type": "electric_scooter", "lon": -76.91912066666667, "bike_id": "31794324098c61613d4a8df4e6b4de3c", "rental_uris": {"android": "https://dc.lft.to/lastmile_qr_scan", "ios": "https://dc.lft.to/lastmile_qr_scan"}, "name": "31794324098c61613d4a8df4e6b4de3c", "is_reserved": 0}, {"is_disabled": 0, "fusion_lon": 0.0, "fusion_lat": 0.0, "lat": 38.9926735, "type": "electric_scooter", "lon": -77.036135, "bike_id": "9d134330d6e461150b67fa5c2460ab68", "rental_uris": {"android": "https://dc.lft.to/lastmile_qr_scan", "ios": "https://dc.lft.to/lastmile_qr_scan"}, "name": "9d134330d6e461150b67fa5c2460ab68", "is_reserved": 0}, {"is_disabled": 0, "fusion_lon": 0.0, "fusion_lat": 0.0, "lat": 38.918376333333335, "type": "electric_scooter", "lon": -77.03941316666666, "bike_id": "9a0ce1fd079b9b93cdece4840560819a", "rental_uris": {"android": "https://dc.lft.to/lastmile_qr_scan", "ios": "https://dc.lft.to/lastmile_qr_scan"}, "name": "9a0ce1fd079b9b93cdece4840560819a", "is_reserved": 0}, {"is_disabled": 0, "fusion_lon": 0.0, "fusion_lat": 0.0, "lat": 38.909748666666665, "type": "electric_scooter", "lon": -77.046276, "bike_id": "ec4fb301726705ce5b4d9271fc852954", "rental_uris": {"android": "https://dc.lft.to/lastmile_qr_scan", "ios": "https://dc.lft.to/lastmile_qr_scan"}, "name": "ec4fb301726705ce5b4d9271fc852954", "is_reserved": 0}, {"is_disabled": 0, "fusion_lon": 0.0, "fusion_lat": 0.0, "lat": 38.936694833333334, "type": "electric_bike", "lon": -76.95208383333333, "bike_id": "a55506ddf4e9f7dfac522fe745845ebf", "rental_uris": {"android": "https://dc.lft.to/lastmile_qr_scan", "ios": "https://dc.lft.to/lastmile_qr_scan"}, "name": "a55506ddf4e9f7dfac522fe745845ebf", "is_reserved": 0}, {"is_disabled": 0, "fusion_lon": 0.0, "fusion_lat": 0.0, "lat": 38.9583835, "type": "electric_scooter", "lon": -77.07150316666667, "bike_id": "514519d84aee5221b7fc661c65ddc487", "rental_uris": {"android": "https://dc.lft.to/lastmile_qr_scan", "ios": "https://dc.lft.to/lastmile_qr_scan"}, "name": "514519d84aee5221b7fc661c65ddc487", "is_reserved": 0}, {"is_disabled": 0, "fusion_lon": 0.0, "fusion_lat": 0.0, "lat": 38.88502233333333, "type": "electric_scooter", "lon": -77.01724066666667, "bike_id": "6e94309d0e6a281efea0efade557858d", "rental_uris": {"android": "https://dc.lft.to/lastmile_qr_scan", "ios": "https://dc.lft.to/lastmile_qr_scan"}, "name": "6e94309d0e6a281efea0efade557858d", "is_reserved": 0}, {"is_disabled": 0, "fusion_lon": 0.0, "fusion_lat": 0.0, "lat": 38.934856, "type": "electric_scooter", "lon": -77.072822, "bike_id": "f80e8c206040d9502b384187cb7c0636", "rental_uris": {"android": "https://dc.lft.to/lastmile_qr_scan", "ios": "https://dc.lft.to/lastmile_qr_scan"}, "name": "f80e8c206040d9502b384187cb7c0636", "is_reserved": 0}, {"is_disabled": 0, "fusion_lon": 0.0, "fusion_lat": 0.0, "lat": 38.9178895, "type": "electric_scooter", "lon": -77.043434, "bike_id": "864f36dd28817be47c553ec1207cae30", "rental_uris": {"android": "https://dc.lft.to/lastmile_qr_scan", "ios": "https://dc.lft.to/lastmile_qr_scan"}, "name": "864f36dd28817be47c553ec1207cae30", "is_reserved": 0}, {"is_disabled": 0, "fusion_lon": 0.0, "fusion_lat": 0.0, "lat": 38.901045833333335, "type": "electric_scooter", "lon": -76.988424, "bike_id": "eeb24685561a93cdaa271176c0da2a8e", "rental_uris": {"android": "https://dc.lft.to/lastmile_qr_scan", "ios": "https://dc.lft.to/lastmile_qr_scan"}, "name": "eeb24685561a93cdaa271176c0da2a8e", "is_reserved": 0}, {"is_disabled": 0, "fusion_lon": 0.0, "fusion_lat": 0.0, "lat": 38.918224, "type": "electric_scooter", "lon": -77.01213483333333, "bike_id": "32edcbab34e25c5f42b8fbe75c5e85a8", "rental_uris": {"android": "https://dc.lft.to/lastmile_qr_scan", "ios": "https://dc.lft.to/lastmile_qr_scan"}, "name": "32edcbab34e25c5f42b8fbe75c5e85a8", "is_reserved": 0}, {"is_disabled": 0, "fusion_lon": 0.0, "fusion_lat": 0.0, "lat": 38.88760216666667, "type": "electric_scooter", "lon": -77.03351633333334, "bike_id": "d3bea67d206e927ba2cac62abf71af01", "rental_uris": {"android": "https://dc.lft.to/lastmile_qr_scan", "ios": "https://dc.lft.to/lastmile_qr_scan"}, "name": "d3bea67d206e927ba2cac62abf71af01", "is_reserved": 0}, {"is_disabled": 0, "fusion_lon": 0.0, "fusion_lat": 0.0, "lat": 38.91958866666667, "type": "electric_scooter", "lon": -77.02816066666666, "bike_id": "c777425970c7a4d2faf4f7feb3ce712d", "rental_uris": {"android": "https://dc.lft.to/lastmile_qr_scan", "ios": "https://dc.lft.to/lastmile_qr_scan"}, "name": "c777425970c7a4d2faf4f7feb3ce712d", "is_reserved": 0}, {"is_disabled": 0, "fusion_lon": 0.0, "fusion_lat": 0.0, "lat": 38.833839166666664, "type": "electric_scooter", "lon": -76.99296866666667, "bike_id": "b38330503a509c2c57ab42cee5d2bd51", "rental_uris": {"android": "https://dc.lft.to/lastmile_qr_scan", "ios": "https://dc.lft.to/lastmile_qr_scan"}, "name": "b38330503a509c2c57ab42cee5d2bd51", "is_reserved": 0}, {"is_disabled": 0, "fusion_lon": 0.0, "fusion_lat": 0.0, "lat": 38.902673166666666, "type": "electric_scooter", "lon": -77.0274965, "bike_id": "f85a68fda3bf90048ee3984e71cf4d71", "rental_uris": {"android": "https://dc.lft.to/lastmile_qr_scan", "ios": "https://dc.lft.to/lastmile_qr_scan"}, "name": "f85a68fda3bf90048ee3984e71cf4d71", "is_reserved": 0}, {"is_disabled": 0, "fusion_lon": 0.0, "fusion_lat": 0.0, "lat": 38.9246645, "type": "electric_scooter", "lon": -77.03956466666666, "bike_id": "bd8ede5594f60df1a4f1eef588900769", "rental_uris": {"android": "https://dc.lft.to/lastmile_qr_scan", "ios": "https://dc.lft.to/lastmile_qr_scan"}, "name": "bd8ede5594f60df1a4f1eef588900769", "is_reserved": 0}, {"is_disabled": 0, "fusion_lon": 0.0, "fusion_lat": 0.0, "lat": 38.90721833333333, "type": "electric_scooter", "lon": -77.04571483333334, "bike_id": "51c31090fe1dd3c521cf7cb5314ed4af", "rental_uris": {"android": "https://dc.lft.to/lastmile_qr_scan", "ios": "https://dc.lft.to/lastmile_qr_scan"}, "name": "51c31090fe1dd3c521cf7cb5314ed4af", "is_reserved": 0}, {"is_disabled": 0, "fusion_lon": 0.0, "fusion_lat": 0.0, "lat": 38.914138333333334, "type": "electric_scooter", "lon": -77.04677216666667, "bike_id": "030331c8c66d6dec6f4a9b01eb1fdc6f", "rental_uris": {"android": "https://dc.lft.to/lastmile_qr_scan", "ios": "https://dc.lft.to/lastmile_qr_scan"}, "name": "030331c8c66d6dec6f4a9b01eb1fdc6f", "is_reserved": 0}, {"is_disabled": 0, "fusion_lon": 0.0, "fusion_lat": 0.0, "lat": 38.919259333333336, "type": "electric_scooter", "lon": -77.0316805, "bike_id": "d82d99531d1f6f312064c290eaa9e9ba", "rental_uris": {"android": "https://dc.lft.to/lastmile_qr_scan", "ios": "https://dc.lft.to/lastmile_qr_scan"}, "name": "d82d99531d1f6f312064c290eaa9e9ba", "is_reserved": 0}, {"is_disabled": 0, "fusion_lon": 0.0, "fusion_lat": 0.0, "lat": 38.841153166666665, "type": "electric_bike", "lon": -77.089485, "bike_id": "32ca94d6bc4d06d1e474cbb0d35cbabf", "rental_uris": {"android": "https://dc.lft.to/lastmile_qr_scan", "ios": "https://dc.lft.to/lastmile_qr_scan"}, "name": "32ca94d6bc4d06d1e474cbb0d35cbabf", "is_reserved": 0}, {"is_disabled": 0, "fusion_lon": 0.0, "fusion_lat": 0.0, "lat": 38.85207316666666, "type": "electric_bike", "lon": -77.1013595, "bike_id": "481f5b7002eeeed84ffd690681bb6bd4", "rental_uris": {"android": "https://dc.lft.to/lastmile_qr_scan", "ios": "https://dc.lft.to/lastmile_qr_scan"}, "name": "481f5b7002eeeed84ffd690681bb6bd4", "is_reserved": 0}, {"is_disabled": 0, "fusion_lon": 0.0, "fusion_lat": 0.0, "lat": 38.895640666666665, "type": "electric_scooter", "lon": -77.041897, "bike_id": "28ffd8f253d10ed9ec047a0a537cebdd", "rental_uris": {"android": "https://dc.lft.to/lastmile_qr_scan", "ios": "https://dc.lft.to/lastmile_qr_scan"}, "name": "28ffd8f253d10ed9ec047a0a537cebdd", "is_reserved": 0}, {"is_disabled": 0, "fusion_lon": 0.0, "fusion_lat": 0.0, "lat": 38.918864666666664, "type": "electric_scooter", "lon": -77.0405845, "bike_id": "e406c530c21b7ab894e1bb72263270a6", "rental_uris": {"android": "https://dc.lft.to/lastmile_qr_scan", "ios": "https://dc.lft.to/lastmile_qr_scan"}, "name": "e406c530c21b7ab894e1bb72263270a6", "is_reserved": 0}, {"is_disabled": 0, "fusion_lon": 0.0, "fusion_lat": 0.0, "lat": 38.865792, "type": "electric_scooter", "lon": -76.98953683333333, "bike_id": "aed9b0dbc5413394a086cc20b135ffbe", "rental_uris": {"android": "https://dc.lft.to/lastmile_qr_scan", "ios": "https://dc.lft.to/lastmile_qr_scan"}, "name": "aed9b0dbc5413394a086cc20b135ffbe", "is_reserved": 0}, {"is_disabled": 0, "fusion_lon": 0.0, "fusion_lat": 0.0, "lat": 38.8988105, "type": "electric_scooter", "lon": -76.9316075, "bike_id": "aaa605b9aad0d2cdb3e8f20ca0022769", "rental_uris": {"android": "https://dc.lft.to/lastmile_qr_scan", "ios": "https://dc.lft.to/lastmile_qr_scan"}, "name": "aaa605b9aad0d2cdb3e8f20ca0022769", "is_reserved": 0}, {"is_disabled": 0, "fusion_lon": 0.0, "fusion_lat": 0.0, "lat": 38.923429, "type": "electric_scooter", "lon": -76.99853166666666, "bike_id": "17958e0242f74ab03d78e9d18b034efa", "rental_uris": {"android": "https://dc.lft.to/lastmile_qr_scan", "ios": "https://dc.lft.to/lastmile_qr_scan"}, "name": "17958e0242f74ab03d78e9d18b034efa", "is_reserved": 0}, {"is_disabled": 0, "fusion_lon": 0.0, "fusion_lat": 0.0, "lat": 38.90334716666667, "type": "electric_scooter", "lon": -77.036399, "bike_id": "4fdbf6d781c99cca55e1a203315e9a3f", "rental_uris": {"android": "https://dc.lft.to/lastmile_qr_scan", "ios": "https://dc.lft.to/lastmile_qr_scan"}, "name": "4fdbf6d781c99cca55e1a203315e9a3f", "is_reserved": 0}, {"is_disabled": 0, "fusion_lon": 0.0, "fusion_lat": 0.0, "lat": 38.91818083333333, "type": "electric_scooter", "lon": -77.02475966666667, "bike_id": "132b8e47cd0128ff5154332fc2f87325", "rental_uris": {"android": "https://dc.lft.to/lastmile_qr_scan", "ios": "https://dc.lft.to/lastmile_qr_scan"}, "name": "132b8e47cd0128ff5154332fc2f87325", "is_reserved": 0}, {"is_disabled": 0, "fusion_lon": 0.0, "fusion_lat": 0.0, "lat": 38.866667666666665, "type": "electric_scooter", "lon": -76.98895283333333, "bike_id": "e50afb4498444aac3f80ad52ec07904e", "rental_uris": {"android": "https://dc.lft.to/lastmile_qr_scan", "ios": "https://dc.lft.to/lastmile_qr_scan"}, "name": "e50afb4498444aac3f80ad52ec07904e", "is_reserved": 0}, {"is_disabled": 0, "fusion_lon": 0.0, "fusion_lat": 0.0, "lat": 38.932559166666664, "type": "electric_scooter", "lon": -77.04015833333334, "bike_id": "01d844b1a956f285d2574b7aef0bff7d", "rental_uris": {"android": "https://dc.lft.to/lastmile_qr_scan", "ios": "https://dc.lft.to/lastmile_qr_scan"}, "name": "01d844b1a956f285d2574b7aef0bff7d", "is_reserved": 0}, {"is_disabled": 0, "fusion_lon": 0.0, "fusion_lat": 0.0, "lat": 38.880119, "type": "electric_bike", "lon": -76.9159725, "bike_id": "d741bc4f8c80fd977c6bf18a3154f8b6", "rental_uris": {"android": "https://dc.lft.to/lastmile_qr_scan", "ios": "https://dc.lft.to/lastmile_qr_scan"}, "name": "d741bc4f8c80fd977c6bf18a3154f8b6", "is_reserved": 0}, {"is_disabled": 0, "fusion_lon": 0.0, "fusion_lat": 0.0, "lat": 38.91927366666667, "type": "electric_scooter", "lon": -77.00942216666667, "bike_id": "862c7c7f20542b2c0c23087fe6ac3aeb", "rental_uris": {"android": "https://dc.lft.to/lastmile_qr_scan", "ios": "https://dc.lft.to/lastmile_qr_scan"}, "name": "862c7c7f20542b2c0c23087fe6ac3aeb", "is_reserved": 0}, {"is_disabled": 0, "fusion_lon": 0.0, "fusion_lat": 0.0, "lat": 38.91605333333333, "type": "electric_scooter", "lon": -77.03206666666667, "bike_id": "07dea80e7d18b55ce450af636ce5188a", "rental_uris": {"android": "https://dc.lft.to/lastmile_qr_scan", "ios": "https://dc.lft.to/lastmile_qr_scan"}, "name": "07dea80e7d18b55ce450af636ce5188a", "is_reserved": 0}, {"is_disabled": 0, "fusion_lon": 0.0, "fusion_lat": 0.0, "lat": 38.9286815, "type": "electric_scooter", "lon": -76.99029483333334, "bike_id": "4bbd99ff6e6966edb7a0f09521895df6", "rental_uris": {"android": "https://dc.lft.to/lastmile_qr_scan", "ios": "https://dc.lft.to/lastmile_qr_scan"}, "name": "4bbd99ff6e6966edb7a0f09521895df6", "is_reserved": 0}, {"is_disabled": 0, "fusion_lon": 0.0, "fusion_lat": 0.0, "lat": 38.92569733333333, "type": "electric_scooter", "lon": -77.02287983333333, "bike_id": "4f7dc3b37d310ae7c61faa9fbecc8319", "rental_uris": {"android": "https://dc.lft.to/lastmile_qr_scan", "ios": "https://dc.lft.to/lastmile_qr_scan"}, "name": "4f7dc3b37d310ae7c61faa9fbecc8319", "is_reserved": 0}, {"is_disabled": 0, "fusion_lon": 0.0, "fusion_lat": 0.0, "lat": 38.859897333333336, "type": "electric_bike", "lon": -76.97053533333333, "bike_id": "1eca1dd7af69761ec28891e4ff223323", "rental_uris": {"android": "https://dc.lft.to/lastmile_qr_scan", "ios": "https://dc.lft.to/lastmile_qr_scan"}, "name": "1eca1dd7af69761ec28891e4ff223323", "is_reserved": 0}, {"is_disabled": 0, "fusion_lon": 0.0, "fusion_lat": 0.0, "lat": 38.9945615, "type": "electric_bike", "lon": -76.90818516666667, "bike_id": "9741273b31150738fae5530b65963196", "rental_uris": {"android": "https://dc.lft.to/lastmile_qr_scan", "ios": "https://dc.lft.to/lastmile_qr_scan"}, "name": "9741273b31150738fae5530b65963196", "is_reserved": 0}, {"is_disabled": 0, "fusion_lon": 0.0, "fusion_lat": 0.0, "lat": 38.880292833333336, "type": "electric_scooter", "lon": -76.99513616666667, "bike_id": "837af091cc07613f350245b3383d5e10", "rental_uris": {"android": "https://dc.lft.to/lastmile_qr_scan", "ios": "https://dc.lft.to/lastmile_qr_scan"}, "name": "837af091cc07613f350245b3383d5e10", "is_reserved": 0}, {"is_disabled": 0, "fusion_lon": 0.0, "fusion_lat": 0.0, "lat": 38.911213333333336, "type": "electric_scooter", "lon": -77.042655, "bike_id": "14beb3883a1b35b41572b9acba21472d", "rental_uris": {"android": "https://dc.lft.to/lastmile_qr_scan", "ios": "https://dc.lft.to/lastmile_qr_scan"}, "name": "14beb3883a1b35b41572b9acba21472d", "is_reserved": 0}, {"is_disabled": 0, "fusion_lon": 0.0, "fusion_lat": 0.0, "lat": 38.9295495, "type": "electric_scooter", "lon": -77.0234665, "bike_id": "979ef73fbebdf9e5e5d687d31dbb1495", "rental_uris": {"android": "https://dc.lft.to/lastmile_qr_scan", "ios": "https://dc.lft.to/lastmile_qr_scan"}, "name": "979ef73fbebdf9e5e5d687d31dbb1495", "is_reserved": 0}, {"is_disabled": 0, "fusion_lon": 0.0, "fusion_lat": 0.0, "lat": 38.923202833333335, "type": "electric_scooter", "lon": -77.03952816666667, "bike_id": "1c00332184463d86599520eec5d96ee4", "rental_uris": {"android": "https://dc.lft.to/lastmile_qr_scan", "ios": "https://dc.lft.to/lastmile_qr_scan"}, "name": "1c00332184463d86599520eec5d96ee4", "is_reserved": 0}, {"is_disabled": 0, "fusion_lon": 0.0, "fusion_lat": 0.0, "lat": 38.916298166666664, "type": "electric_scooter", "lon": -77.0270485, "bike_id": "e0226f68d41239b11703080dd0aa9bef", "rental_uris": {"android": "https://dc.lft.to/lastmile_qr_scan", "ios": "https://dc.lft.to/lastmile_qr_scan"}, "name": "e0226f68d41239b11703080dd0aa9bef", "is_reserved": 0}, {"is_disabled": 0, "fusion_lon": 0.0, "fusion_lat": 0.0, "lat": 38.968092, "type": "electric_scooter", "lon": -77.02120916666667, "bike_id": "7cbd1f9d4506ea5369b0e2dd64f02bcb", "rental_uris": {"android": "https://dc.lft.to/lastmile_qr_scan", "ios": "https://dc.lft.to/lastmile_qr_scan"}, "name": "7cbd1f9d4506ea5369b0e2dd64f02bcb", "is_reserved": 0}, {"is_disabled": 0, "fusion_lon": 0.0, "fusion_lat": 0.0, "lat": 38.905881, "type": "electric_scooter", "lon": -77.043893, "bike_id": "53418b2d494add0521dd3c3453a9e7f8", "rental_uris": {"android": "https://dc.lft.to/lastmile_qr_scan", "ios": "https://dc.lft.to/lastmile_qr_scan"}, "name": "53418b2d494add0521dd3c3453a9e7f8", "is_reserved": 0}, {"is_disabled": 0, "fusion_lon": 0.0, "fusion_lat": 0.0, "lat": 38.88738683333333, "type": "electric_scooter", "lon": -76.99608583333334, "bike_id": "2cde9bbf7119babcbd19d6c1e592bcb1", "rental_uris": {"android": "https://dc.lft.to/lastmile_qr_scan", "ios": "https://dc.lft.to/lastmile_qr_scan"}, "name": "2cde9bbf7119babcbd19d6c1e592bcb1", "is_reserved": 0}, {"is_disabled": 0, "fusion_lon": 0.0, "fusion_lat": 0.0, "lat": 38.938713166666666, "type": "electric_scooter", "lon": -77.027926, "bike_id": "23a97e942c84315ba45f5e829e15bb0e", "rental_uris": {"android": "https://dc.lft.to/lastmile_qr_scan", "ios": "https://dc.lft.to/lastmile_qr_scan"}, "name": "23a97e942c84315ba45f5e829e15bb0e", "is_reserved": 0}, {"is_disabled": 0, "fusion_lon": 0.0, "fusion_lat": 0.0, "lat": 38.87919683333333, "type": "electric_scooter", "lon": -76.94484716666666, "bike_id": "45d80f40ddcaafbe5f3ef927ee3d558d", "rental_uris": {"android": "https://dc.lft.to/lastmile_qr_scan", "ios": "https://dc.lft.to/lastmile_qr_scan"}, "name": "45d80f40ddcaafbe5f3ef927ee3d558d", "is_reserved": 0}, {"is_disabled": 0, "fusion_lon": 0.0, "fusion_lat": 0.0, "lat": 38.97169566666667, "type": "electric_bike", "lon": -76.98026083333333, "bike_id": "9d6cb22199261e3cea42cf900bfded46", "rental_uris": {"android": "https://dc.lft.to/lastmile_qr_scan", "ios": "https://dc.lft.to/lastmile_qr_scan"}, "name": "9d6cb22199261e3cea42cf900bfded46", "is_reserved": 0}, {"is_disabled": 0, "fusion_lon": 0.0, "fusion_lat": 0.0, "lat": 38.9408875, "type": "electric_scooter", "lon": -77.038192, "bike_id": "994b06a5a0d78d69ad750fe857ae4f1c", "rental_uris": {"android": "https://dc.lft.to/lastmile_qr_scan", "ios": "https://dc.lft.to/lastmile_qr_scan"}, "name": "994b06a5a0d78d69ad750fe857ae4f1c", "is_reserved": 0}, {"is_disabled": 0, "fusion_lon": 0.0, "fusion_lat": 0.0, "lat": 38.874443666666664, "type": "electric_scooter", "lon": -77.009242, "bike_id": "2ed5c19aaad2b73105e3d225e222e6ab", "rental_uris": {"android": "https://dc.lft.to/lastmile_qr_scan", "ios": "https://dc.lft.to/lastmile_qr_scan"}, "name": "2ed5c19aaad2b73105e3d225e222e6ab", "is_reserved": 0}, {"is_disabled": 0, "fusion_lon": 0.0, "fusion_lat": 0.0, "lat": 38.954198166666664, "type": "electric_scooter", "lon": -77.021747, "bike_id": "dc49c3972de639d60539853a5bc06c08", "rental_uris": {"android": "https://dc.lft.to/lastmile_qr_scan", "ios": "https://dc.lft.to/lastmile_qr_scan"}, "name": "dc49c3972de639d60539853a5bc06c08", "is_reserved": 0}, {"is_disabled": 0, "fusion_lon": 0.0, "fusion_lat": 0.0, "lat": 38.89853866666667, "type": "electric_scooter", "lon": -76.99035466666666, "bike_id": "08b0b0ede94ac8fb7e38022e4ad4e4da", "rental_uris": {"android": "https://dc.lft.to/lastmile_qr_scan", "ios": "https://dc.lft.to/lastmile_qr_scan"}, "name": "08b0b0ede94ac8fb7e38022e4ad4e4da", "is_reserved": 0}, {"is_disabled": 0, "fusion_lon": 0.0, "fusion_lat": 0.0, "lat": 38.886826666666664, "type": "electric_scooter", "lon": -77.0018115, "bike_id": "77820ff416e23a9b5ffadd2a5f0ce6a9", "rental_uris": {"android": "https://dc.lft.to/lastmile_qr_scan", "ios": "https://dc.lft.to/lastmile_qr_scan"}, "name": "77820ff416e23a9b5ffadd2a5f0ce6a9", "is_reserved": 0}, {"is_disabled": 0, "fusion_lon": 0.0, "fusion_lat": 0.0, "lat": 38.828780333333334, "type": "electric_bike", "lon": -77.11223466666667, "bike_id": "8b921dba57794470b1f03bc7d2bb15fa", "rental_uris": {"android": "https://dc.lft.to/lastmile_qr_scan", "ios": "https://dc.lft.to/lastmile_qr_scan"}, "name": "8b921dba57794470b1f03bc7d2bb15fa", "is_reserved": 0}, {"is_disabled": 0, "fusion_lon": 0.0, "fusion_lat": 0.0, "lat": 38.94184283333333, "type": "electric_scooter", "lon": -77.03321433333333, "bike_id": "5d08256245b3b951c923036cc93faae8", "rental_uris": {"android": "https://dc.lft.to/lastmile_qr_scan", "ios": "https://dc.lft.to/lastmile_qr_scan"}, "name": "5d08256245b3b951c923036cc93faae8", "is_reserved": 0}, {"is_disabled": 0, "fusion_lon": 0.0, "fusion_lat": 0.0, "lat": 38.916595, "type": "electric_scooter", "lon": -77.03207866666666, "bike_id": "da6863998b27ed8e9a9bf91c40e09508", "rental_uris": {"android": "https://dc.lft.to/lastmile_qr_scan", "ios": "https://dc.lft.to/lastmile_qr_scan"}, "name": "da6863998b27ed8e9a9bf91c40e09508", "is_reserved": 0}, {"is_disabled": 0, "fusion_lon": 0.0, "fusion_lat": 0.0, "lat": 38.90688766666667, "type": "electric_scooter", "lon": -77.057932, "bike_id": "d050de48dcabae8eed187440db83e805", "rental_uris": {"android": "https://dc.lft.to/lastmile_qr_scan", "ios": "https://dc.lft.to/lastmile_qr_scan"}, "name": "d050de48dcabae8eed187440db83e805", "is_reserved": 0}, {"is_disabled": 0, "fusion_lon": 0.0, "fusion_lat": 0.0, "lat": 38.93279716666667, "type": "electric_scooter", "lon": -77.03983066666666, "bike_id": "39894f41e0d1e5c04944a186abeadbb0", "rental_uris": {"android": "https://dc.lft.to/lastmile_qr_scan", "ios": "https://dc.lft.to/lastmile_qr_scan"}, "name": "39894f41e0d1e5c04944a186abeadbb0", "is_reserved": 0}, {"is_disabled": 0, "fusion_lon": 0.0, "fusion_lat": 0.0, "lat": 38.908400666666665, "type": "electric_scooter", "lon": -77.02954483333333, "bike_id": "5d418d32cfe888c4e95e22638a2b02c2", "rental_uris": {"android": "https://dc.lft.to/lastmile_qr_scan", "ios": "https://dc.lft.to/lastmile_qr_scan"}, "name": "5d418d32cfe888c4e95e22638a2b02c2", "is_reserved": 0}, {"is_disabled": 0, "fusion_lon": 0.0, "fusion_lat": 0.0, "lat": 38.907795, "type": "electric_scooter", "lon": -77.03475616666667, "bike_id": "e3aa46fe7e41d319986fd7bd6711fd74", "rental_uris": {"android": "https://dc.lft.to/lastmile_qr_scan", "ios": "https://dc.lft.to/lastmile_qr_scan"}, "name": "e3aa46fe7e41d319986fd7bd6711fd74", "is_reserved": 0}, {"is_disabled": 0, "fusion_lon": 0.0, "fusion_lat": 0.0, "lat": 38.907278833333336, "type": "electric_scooter", "lon": -77.04594066666667, "bike_id": "669151e976048f9e1b8dc50caa3eaead", "rental_uris": {"android": "https://dc.lft.to/lastmile_qr_scan", "ios": "https://dc.lft.to/lastmile_qr_scan"}, "name": "669151e976048f9e1b8dc50caa3eaead", "is_reserved": 0}, {"is_disabled": 0, "fusion_lon": 0.0, "fusion_lat": 0.0, "lat": 38.9128045, "type": "electric_scooter", "lon": -77.02247216666666, "bike_id": "ecbf9b45511d52f272b4212c56073ca4", "rental_uris": {"android": "https://dc.lft.to/lastmile_qr_scan", "ios": "https://dc.lft.to/lastmile_qr_scan"}, "name": "ecbf9b45511d52f272b4212c56073ca4", "is_reserved": 0}, {"is_disabled": 0, "fusion_lon": 0.0, "fusion_lat": 0.0, "lat": 38.902535666666665, "type": "electric_scooter", "lon": -77.02153016666666, "bike_id": "09c0efbd74d41da529dfdf795178abf5", "rental_uris": {"android": "https://dc.lft.to/lastmile_qr_scan", "ios": "https://dc.lft.to/lastmile_qr_scan"}, "name": "09c0efbd74d41da529dfdf795178abf5", "is_reserved": 0}, {"is_disabled": 0, "fusion_lon": 0.0, "fusion_lat": 0.0, "lat": 38.955624, "type": "electric_bike", "lon": -76.93549233333333, "bike_id": "3f99ed6c37eaba3a40bc2ea80f7708f9", "rental_uris": {"android": "https://dc.lft.to/lastmile_qr_scan", "ios": "https://dc.lft.to/lastmile_qr_scan"}, "name": "3f99ed6c37eaba3a40bc2ea80f7708f9", "is_reserved": 0}, {"is_disabled": 0, "fusion_lon": 0.0, "fusion_lat": 0.0, "lat": 38.909399666666665, "type": "electric_scooter", "lon": -77.0536785, "bike_id": "afdf5196c1661e056da5efac5e62ef11", "rental_uris": {"android": "https://dc.lft.to/lastmile_qr_scan", "ios": "https://dc.lft.to/lastmile_qr_scan"}, "name": "afdf5196c1661e056da5efac5e62ef11", "is_reserved": 0}, {"is_disabled": 0, "fusion_lon": 0.0, "fusion_lat": 0.0, "lat": 38.84607366666667, "type": "electric_bike", "lon": -76.96881916666666, "bike_id": "ef5add8c7d6dd747ccf29e3b256671fe", "rental_uris": {"android": "https://dc.lft.to/lastmile_qr_scan", "ios": "https://dc.lft.to/lastmile_qr_scan"}, "name": "ef5add8c7d6dd747ccf29e3b256671fe", "is_reserved": 0}, {"is_disabled": 0, "fusion_lon": 0.0, "fusion_lat": 0.0, "lat": 38.89501883333333, "type": "electric_scooter", "lon": -77.00955783333333, "bike_id": "f95e958203df1042495ae5772f0f53a0", "rental_uris": {"android": "https://dc.lft.to/lastmile_qr_scan", "ios": "https://dc.lft.to/lastmile_qr_scan"}, "name": "f95e958203df1042495ae5772f0f53a0", "is_reserved": 0}, {"is_disabled": 0, "fusion_lon": 0.0, "fusion_lat": 0.0, "lat": 38.90054583333333, "type": "electric_scooter", "lon": -76.98343183333333, "bike_id": "acc8f221c176d78f86558227a4436fcd", "rental_uris": {"android": "https://dc.lft.to/lastmile_qr_scan", "ios": "https://dc.lft.to/lastmile_qr_scan"}, "name": "acc8f221c176d78f86558227a4436fcd", "is_reserved": 0}, {"is_disabled": 0, "fusion_lon": 0.0, "fusion_lat": 0.0, "lat": 38.921348333333334, "type": "electric_scooter", "lon": -77.00954916666667, "bike_id": "ca482c75e3f06064d6b4fe65ee968a50", "rental_uris": {"android": "https://dc.lft.to/lastmile_qr_scan", "ios": "https://dc.lft.to/lastmile_qr_scan"}, "name": "ca482c75e3f06064d6b4fe65ee968a50", "is_reserved": 0}, {"is_disabled": 0, "fusion_lon": 0.0, "fusion_lat": 0.0, "lat": 38.923204, "type": "electric_scooter", "lon": -77.04517433333334, "bike_id": "d50251066fa21de8a106799881709f32", "rental_uris": {"android": "https://dc.lft.to/lastmile_qr_scan", "ios": "https://dc.lft.to/lastmile_qr_scan"}, "name": "d50251066fa21de8a106799881709f32", "is_reserved": 0}, {"is_disabled": 0, "fusion_lon": 0.0, "fusion_lat": 0.0, "lat": 38.903824166666666, "type": "electric_scooter", "lon": -77.02826266666666, "bike_id": "348ea7696108c0026cc9443952a0bf1b", "rental_uris": {"android": "https://dc.lft.to/lastmile_qr_scan", "ios": "https://dc.lft.to/lastmile_qr_scan"}, "name": "348ea7696108c0026cc9443952a0bf1b", "is_reserved": 0}, {"is_disabled": 0, "fusion_lon": 0.0, "fusion_lat": 0.0, "lat": 38.9300425, "type": "electric_scooter", "lon": -77.02407783333334, "bike_id": "12580bb7ecfd988390c36fa853f5fc42", "rental_uris": {"android": "https://dc.lft.to/lastmile_qr_scan", "ios": "https://dc.lft.to/lastmile_qr_scan"}, "name": "12580bb7ecfd988390c36fa853f5fc42", "is_reserved": 0}, {"is_disabled": 0, "fusion_lon": 0.0, "fusion_lat": 0.0, "lat": 38.912104, "type": "electric_scooter", "lon": -77.03842816666666, "bike_id": "8b701eaab2ccb74bc9c71cf53d28c40f", "rental_uris": {"android": "https://dc.lft.to/lastmile_qr_scan", "ios": "https://dc.lft.to/lastmile_qr_scan"}, "name": "8b701eaab2ccb74bc9c71cf53d28c40f", "is_reserved": 0}, {"is_disabled": 0, "fusion_lon": 0.0, "fusion_lat": 0.0, "lat": 38.93094033333333, "type": "electric_scooter", "lon": -77.024718, "bike_id": "181ec7ab890ef089ad26a9145c551c73", "rental_uris": {"android": "https://dc.lft.to/lastmile_qr_scan", "ios": "https://dc.lft.to/lastmile_qr_scan"}, "name": "181ec7ab890ef089ad26a9145c551c73", "is_reserved": 0}, {"is_disabled": 0, "fusion_lon": 0.0, "fusion_lat": 0.0, "lat": 38.91269466666667, "type": "electric_scooter", "lon": -77.03033116666667, "bike_id": "c08ba5cb935070705ffd8fb317f78b1e", "rental_uris": {"android": "https://dc.lft.to/lastmile_qr_scan", "ios": "https://dc.lft.to/lastmile_qr_scan"}, "name": "c08ba5cb935070705ffd8fb317f78b1e", "is_reserved": 0}, {"is_disabled": 0, "fusion_lon": 0.0, "fusion_lat": 0.0, "lat": 38.8984725, "type": "electric_scooter", "lon": -76.94634783333333, "bike_id": "0d9ab0cfb68fe5f27de9cfd7cf159fd0", "rental_uris": {"android": "https://dc.lft.to/lastmile_qr_scan", "ios": "https://dc.lft.to/lastmile_qr_scan"}, "name": "0d9ab0cfb68fe5f27de9cfd7cf159fd0", "is_reserved": 0}, {"is_disabled": 0, "fusion_lon": 0.0, "fusion_lat": 0.0, "lat": 38.953622, "type": "electric_bike", "lon": -76.980921, "bike_id": "8a161535aa3c082dcf2757a21e8ccc62", "rental_uris": {"android": "https://dc.lft.to/lastmile_qr_scan", "ios": "https://dc.lft.to/lastmile_qr_scan"}, "name": "8a161535aa3c082dcf2757a21e8ccc62", "is_reserved": 0}, {"is_disabled": 0, "fusion_lon": 0.0, "fusion_lat": 0.0, "lat": 38.9318495, "type": "electric_scooter", "lon": -77.0726335, "bike_id": "bc787662354c17552a1555150ad8b714", "rental_uris": {"android": "https://dc.lft.to/lastmile_qr_scan", "ios": "https://dc.lft.to/lastmile_qr_scan"}, "name": "bc787662354c17552a1555150ad8b714", "is_reserved": 0}, {"is_disabled": 0, "fusion_lon": 0.0, "fusion_lat": 0.0, "lat": 38.89965433333333, "type": "electric_scooter", "lon": -77.05057683333334, "bike_id": "66c40194d56bc3d9dc11dbd6258f07b2", "rental_uris": {"android": "https://dc.lft.to/lastmile_qr_scan", "ios": "https://dc.lft.to/lastmile_qr_scan"}, "name": "66c40194d56bc3d9dc11dbd6258f07b2", "is_reserved": 0}, {"is_disabled": 0, "fusion_lon": 0.0, "fusion_lat": 0.0, "lat": 38.915261, "type": "electric_scooter", "lon": -77.01851416666666, "bike_id": "0912d22efa010bb01d8da10e317a86f7", "rental_uris": {"android": "https://dc.lft.to/lastmile_qr_scan", "ios": "https://dc.lft.to/lastmile_qr_scan"}, "name": "0912d22efa010bb01d8da10e317a86f7", "is_reserved": 0}, {"is_disabled": 0, "fusion_lon": 0.0, "fusion_lat": 0.0, "lat": 38.90596083333333, "type": "electric_scooter", "lon": -77.03254933333334, "bike_id": "5dfe5b84cbb7a92f98407c6648c3fbe2", "rental_uris": {"android": "https://dc.lft.to/lastmile_qr_scan", "ios": "https://dc.lft.to/lastmile_qr_scan"}, "name": "5dfe5b84cbb7a92f98407c6648c3fbe2", "is_reserved": 0}, {"is_disabled": 0, "fusion_lon": 0.0, "fusion_lat": 0.0, "lat": 38.88474316666667, "type": "electric_scooter", "lon": -77.01978516666667, "bike_id": "7d2826643cab5ecaf90c2b19ef464d76", "rental_uris": {"android": "https://dc.lft.to/lastmile_qr_scan", "ios": "https://dc.lft.to/lastmile_qr_scan"}, "name": "7d2826643cab5ecaf90c2b19ef464d76", "is_reserved": 0}, {"is_disabled": 0, "fusion_lon": 0.0, "fusion_lat": 0.0, "lat": 38.923129, "type": "electric_scooter", "lon": -77.02255283333334, "bike_id": "764f0a6975e8475c4829f5f01e01fa3a", "rental_uris": {"android": "https://dc.lft.to/lastmile_qr_scan", "ios": "https://dc.lft.to/lastmile_qr_scan"}, "name": "764f0a6975e8475c4829f5f01e01fa3a", "is_reserved": 0}, {"is_disabled": 0, "fusion_lon": 0.0, "fusion_lat": 0.0, "lat": 38.920606666666664, "type": "electric_scooter", "lon": -77.02434116666667, "bike_id": "c2ce5721a136703b404f30c25a20fba2", "rental_uris": {"android": "https://dc.lft.to/lastmile_qr_scan", "ios": "https://dc.lft.to/lastmile_qr_scan"}, "name": "c2ce5721a136703b404f30c25a20fba2", "is_reserved": 0}, {"is_disabled": 0, "fusion_lon": 0.0, "fusion_lat": 0.0, "lat": 38.9082725, "type": "electric_scooter", "lon": -77.0319885, "bike_id": "8ccd02dffb65239cbbcdc70a5c31f2e6", "rental_uris": {"android": "https://dc.lft.to/lastmile_qr_scan", "ios": "https://dc.lft.to/lastmile_qr_scan"}, "name": "8ccd02dffb65239cbbcdc70a5c31f2e6", "is_reserved": 0}, {"is_disabled": 0, "fusion_lon": 0.0, "fusion_lat": 0.0, "lat": 38.91819733333333, "type": "electric_scooter", "lon": -77.02476283333333, "bike_id": "faa12fc4a2eeee5b7cd7f4a88671cec3", "rental_uris": {"android": "https://dc.lft.to/lastmile_qr_scan", "ios": "https://dc.lft.to/lastmile_qr_scan"}, "name": "faa12fc4a2eeee5b7cd7f4a88671cec3", "is_reserved": 0}, {"is_disabled": 0, "fusion_lon": 0.0, "fusion_lat": 0.0, "lat": 38.92823766666667, "type": "electric_scooter", "lon": -77.01416233333333, "bike_id": "25f9a00e79c5852d28e0ea226bebd229", "rental_uris": {"android": "https://dc.lft.to/lastmile_qr_scan", "ios": "https://dc.lft.to/lastmile_qr_scan"}, "name": "25f9a00e79c5852d28e0ea226bebd229", "is_reserved": 0}, {"is_disabled": 0, "fusion_lon": 0.0, "fusion_lat": 0.0, "lat": 38.907107833333335, "type": "electric_scooter", "lon": -77.04537383333333, "bike_id": "6a28ce812c845d4dbfc876a11ac2d238", "rental_uris": {"android": "https://dc.lft.to/lastmile_qr_scan", "ios": "https://dc.lft.to/lastmile_qr_scan"}, "name": "6a28ce812c845d4dbfc876a11ac2d238", "is_reserved": 0}, {"is_disabled": 0, "fusion_lon": 0.0, "fusion_lat": 0.0, "lat": 38.900792833333334, "type": "electric_scooter", "lon": -77.00213566666666, "bike_id": "c8afa8a7718b08583fe98e905578a8de", "rental_uris": {"android": "https://dc.lft.to/lastmile_qr_scan", "ios": "https://dc.lft.to/lastmile_qr_scan"}, "name": "c8afa8a7718b08583fe98e905578a8de", "is_reserved": 0}, {"is_disabled": 0, "fusion_lon": 0.0, "fusion_lat": 0.0, "lat": 38.9353395, "type": "electric_scooter", "lon": -77.02365333333333, "bike_id": "53004d6db2ba9f427c821ec6dd1f7da3", "rental_uris": {"android": "https://dc.lft.to/lastmile_qr_scan", "ios": "https://dc.lft.to/lastmile_qr_scan"}, "name": "53004d6db2ba9f427c821ec6dd1f7da3", "is_reserved": 0}, {"is_disabled": 0, "fusion_lon": 0.0, "fusion_lat": 0.0, "lat": 38.91196583333333, "type": "electric_scooter", "lon": -77.032227, "bike_id": "9f076ac4517ba5866b5e23542a9071dd", "rental_uris": {"android": "https://dc.lft.to/lastmile_qr_scan", "ios": "https://dc.lft.to/lastmile_qr_scan"}, "name": "9f076ac4517ba5866b5e23542a9071dd", "is_reserved": 0}, {"is_disabled": 0, "fusion_lon": 0.0, "fusion_lat": 0.0, "lat": 38.92307916666667, "type": "electric_scooter", "lon": -77.0473995, "bike_id": "8e06a87daba84b4bf09fb9f6e08e5f87", "rental_uris": {"android": "https://dc.lft.to/lastmile_qr_scan", "ios": "https://dc.lft.to/lastmile_qr_scan"}, "name": "8e06a87daba84b4bf09fb9f6e08e5f87", "is_reserved": 0}, {"is_disabled": 0, "fusion_lon": 0.0, "fusion_lat": 0.0, "lat": 38.935072166666664, "type": "electric_scooter", "lon": -77.08226966666666, "bike_id": "e216d78b9fe38cd1be836f623dcaec2d", "rental_uris": {"android": "https://dc.lft.to/lastmile_qr_scan", "ios": "https://dc.lft.to/lastmile_qr_scan"}, "name": "e216d78b9fe38cd1be836f623dcaec2d", "is_reserved": 0}, {"is_disabled": 0, "fusion_lon": 0.0, "fusion_lat": 0.0, "lat": 38.8443255, "type": "electric_scooter", "lon": -76.99785783333333, "bike_id": "f813f8fa11ce48de6c27505aafacb0c7", "rental_uris": {"android": "https://dc.lft.to/lastmile_qr_scan", "ios": "https://dc.lft.to/lastmile_qr_scan"}, "name": "f813f8fa11ce48de6c27505aafacb0c7", "is_reserved": 0}, {"is_disabled": 0, "fusion_lon": 0.0, "fusion_lat": 0.0, "lat": 38.918049, "type": "electric_scooter", "lon": -77.03442816666667, "bike_id": "09c44b2b66efa75c2a9a9611de0d90a2", "rental_uris": {"android": "https://dc.lft.to/lastmile_qr_scan", "ios": "https://dc.lft.to/lastmile_qr_scan"}, "name": "09c44b2b66efa75c2a9a9611de0d90a2", "is_reserved": 0}, {"is_disabled": 0, "fusion_lon": 0.0, "fusion_lat": 0.0, "lat": 38.91988683333334, "type": "electric_scooter", "lon": -77.03279616666667, "bike_id": "39a92f52e78385746abbdcb3d97bd39b", "rental_uris": {"android": "https://dc.lft.to/lastmile_qr_scan", "ios": "https://dc.lft.to/lastmile_qr_scan"}, "name": "39a92f52e78385746abbdcb3d97bd39b", "is_reserved": 0}, {"is_disabled": 0, "fusion_lon": 0.0, "fusion_lat": 0.0, "lat": 38.91650333333333, "type": "electric_scooter", "lon": -77.03265933333333, "bike_id": "7c9a2304621d5bcd730a1b3b6677fc43", "rental_uris": {"android": "https://dc.lft.to/lastmile_qr_scan", "ios": "https://dc.lft.to/lastmile_qr_scan"}, "name": "7c9a2304621d5bcd730a1b3b6677fc43", "is_reserved": 0}, {"is_disabled": 0, "fusion_lon": 0.0, "fusion_lat": 0.0, "lat": 38.911126833333334, "type": "electric_scooter", "lon": -77.02423666666667, "bike_id": "1e68ba386b3e325a285aedfb766319b7", "rental_uris": {"android": "https://dc.lft.to/lastmile_qr_scan", "ios": "https://dc.lft.to/lastmile_qr_scan"}, "name": "1e68ba386b3e325a285aedfb766319b7", "is_reserved": 0}, {"is_disabled": 0, "fusion_lon": 0.0, "fusion_lat": 0.0, "lat": 38.989920166666664, "type": "electric_scooter", "lon": -77.03366066666666, "bike_id": "fa841edd178c0867edf3b3f6ba6fb607", "rental_uris": {"android": "https://dc.lft.to/lastmile_qr_scan", "ios": "https://dc.lft.to/lastmile_qr_scan"}, "name": "fa841edd178c0867edf3b3f6ba6fb607", "is_reserved": 0}, {"is_disabled": 0, "fusion_lon": 0.0, "fusion_lat": 0.0, "lat": 38.946040833333335, "type": "electric_scooter", "lon": -77.0297915, "bike_id": "c6a04685cf17bdffd705eb8e2bb35cfd", "rental_uris": {"android": "https://dc.lft.to/lastmile_qr_scan", "ios": "https://dc.lft.to/lastmile_qr_scan"}, "name": "c6a04685cf17bdffd705eb8e2bb35cfd", "is_reserved": 0}, {"is_disabled": 0, "fusion_lon": 0.0, "fusion_lat": 0.0, "lat": 38.88501266666667, "type": "electric_scooter", "lon": -77.01724516666667, "bike_id": "1a5019cb8f243ebeb905274f034dcb4e", "rental_uris": {"android": "https://dc.lft.to/lastmile_qr_scan", "ios": "https://dc.lft.to/lastmile_qr_scan"}, "name": "1a5019cb8f243ebeb905274f034dcb4e", "is_reserved": 0}, {"is_disabled": 0, "fusion_lon": 0.0, "fusion_lat": 0.0, "lat": 38.8974045, "type": "electric_scooter", "lon": -77.02162533333333, "bike_id": "34a4eacf8f6c41337314770d644321df", "rental_uris": {"android": "https://dc.lft.to/lastmile_qr_scan", "ios": "https://dc.lft.to/lastmile_qr_scan"}, "name": "34a4eacf8f6c41337314770d644321df", "is_reserved": 0}, {"is_disabled": 0, "fusion_lon": 0.0, "fusion_lat": 0.0, "lat": 38.902212666666664, "type": "electric_scooter", "lon": -77.02443233333334, "bike_id": "c3658b706308f072430463ff9e02c825", "rental_uris": {"android": "https://dc.lft.to/lastmile_qr_scan", "ios": "https://dc.lft.to/lastmile_qr_scan"}, "name": "c3658b706308f072430463ff9e02c825", "is_reserved": 0}, {"is_disabled": 0, "fusion_lon": 0.0, "fusion_lat": 0.0, "lat": 38.91268983333333, "type": "electric_scooter", "lon": -77.02236483333333, "bike_id": "b67ff1697dd4876f0908c00d31b9c99a", "rental_uris": {"android": "https://dc.lft.to/lastmile_qr_scan", "ios": "https://dc.lft.to/lastmile_qr_scan"}, "name": "b67ff1697dd4876f0908c00d31b9c99a", "is_reserved": 0}, {"is_disabled": 0, "fusion_lon": 0.0, "fusion_lat": 0.0, "lat": 38.89721516666667, "type": "electric_bike", "lon": -77.02868766666667, "bike_id": "8986eb9f0f8f00a39704ad197148894f", "rental_uris": {"android": "https://dc.lft.to/lastmile_qr_scan", "ios": "https://dc.lft.to/lastmile_qr_scan"}, "name": "8986eb9f0f8f00a39704ad197148894f", "is_reserved": 0}, {"is_disabled": 0, "fusion_lon": 0.0, "fusion_lat": 0.0, "lat": 38.9132735, "type": "electric_scooter", "lon": -77.03183016666667, "bike_id": "21bc05a3e992cab13f5883959dfca0db", "rental_uris": {"android": "https://dc.lft.to/lastmile_qr_scan", "ios": "https://dc.lft.to/lastmile_qr_scan"}, "name": "21bc05a3e992cab13f5883959dfca0db", "is_reserved": 0}, {"is_disabled": 0, "fusion_lon": 0.0, "fusion_lat": 0.0, "lat": 38.908582833333334, "type": "electric_scooter", "lon": -77.04769283333333, "bike_id": "f05b26a07c9a3b237a47447b028e1dc0", "rental_uris": {"android": "https://dc.lft.to/lastmile_qr_scan", "ios": "https://dc.lft.to/lastmile_qr_scan"}, "name": "f05b26a07c9a3b237a47447b028e1dc0", "is_reserved": 0}, {"is_disabled": 0, "fusion_lon": 0.0, "fusion_lat": 0.0, "lat": 38.914249833333336, "type": "electric_scooter", "lon": -77.04537416666666, "bike_id": "cf37607fcd9c610b51980acbd00d1fa7", "rental_uris": {"android": "https://dc.lft.to/lastmile_qr_scan", "ios": "https://dc.lft.to/lastmile_qr_scan"}, "name": "cf37607fcd9c610b51980acbd00d1fa7", "is_reserved": 0}, {"is_disabled": 0, "fusion_lon": 0.0, "fusion_lat": 0.0, "lat": 38.90013833333333, "type": "electric_scooter", "lon": -77.00187966666667, "bike_id": "153f802a530e914bcbdd52946273d713", "rental_uris": {"android": "https://dc.lft.to/lastmile_qr_scan", "ios": "https://dc.lft.to/lastmile_qr_scan"}, "name": "153f802a530e914bcbdd52946273d713", "is_reserved": 0}, {"is_disabled": 0, "fusion_lon": 0.0, "fusion_lat": 0.0, "lat": 38.86249466666666, "type": "electric_scooter", "lon": -76.99504516666667, "bike_id": "b391f48477fe0a742c101e4b8e9b8b6e", "rental_uris": {"android": "https://dc.lft.to/lastmile_qr_scan", "ios": "https://dc.lft.to/lastmile_qr_scan"}, "name": "b391f48477fe0a742c101e4b8e9b8b6e", "is_reserved": 0}, {"is_disabled": 0, "fusion_lon": 0.0, "fusion_lat": 0.0, "lat": 38.895355333333335, "type": "electric_scooter", "lon": -77.02933966666667, "bike_id": "ea403132f8a584d50987330f3ff5ac96", "rental_uris": {"android": "https://dc.lft.to/lastmile_qr_scan", "ios": "https://dc.lft.to/lastmile_qr_scan"}, "name": "ea403132f8a584d50987330f3ff5ac96", "is_reserved": 0}, {"is_disabled": 0, "fusion_lon": 0.0, "fusion_lat": 0.0, "lat": 38.96818316666667, "type": "electric_scooter", "lon": -77.00890383333333, "bike_id": "caba5bb07ccf58254eca39cb483abc18", "rental_uris": {"android": "https://dc.lft.to/lastmile_qr_scan", "ios": "https://dc.lft.to/lastmile_qr_scan"}, "name": "caba5bb07ccf58254eca39cb483abc18", "is_reserved": 0}, {"is_disabled": 0, "fusion_lon": 0.0, "fusion_lat": 0.0, "lat": 38.90783866666666, "type": "electric_scooter", "lon": -77.04484866666667, "bike_id": "d88b77c7aeccc2ddef579ea88577d3ee", "rental_uris": {"android": "https://dc.lft.to/lastmile_qr_scan", "ios": "https://dc.lft.to/lastmile_qr_scan"}, "name": "d88b77c7aeccc2ddef579ea88577d3ee", "is_reserved": 0}, {"is_disabled": 0, "fusion_lon": 0.0, "fusion_lat": 0.0, "lat": 38.90397016666667, "type": "electric_scooter", "lon": -77.00477583333333, "bike_id": "8b0bf86f5b50c2d99a9b6aa2749fe48c", "rental_uris": {"android": "https://dc.lft.to/lastmile_qr_scan", "ios": "https://dc.lft.to/lastmile_qr_scan"}, "name": "8b0bf86f5b50c2d99a9b6aa2749fe48c", "is_reserved": 0}, {"is_disabled": 0, "fusion_lon": 0.0, "fusion_lat": 0.0, "lat": 38.9145795, "type": "electric_scooter", "lon": -77.02006666666666, "bike_id": "08fcdd17380165fe1ce1eeb54b01813c", "rental_uris": {"android": "https://dc.lft.to/lastmile_qr_scan", "ios": "https://dc.lft.to/lastmile_qr_scan"}, "name": "08fcdd17380165fe1ce1eeb54b01813c", "is_reserved": 0}, {"is_disabled": 0, "fusion_lon": 0.0, "fusion_lat": 0.0, "lat": 38.90530066666667, "type": "electric_scooter", "lon": -77.05141383333333, "bike_id": "f7b20a79c399b3bafff855a22c1a4fc3", "rental_uris": {"android": "https://dc.lft.to/lastmile_qr_scan", "ios": "https://dc.lft.to/lastmile_qr_scan"}, "name": "f7b20a79c399b3bafff855a22c1a4fc3", "is_reserved": 0}, {"is_disabled": 0, "fusion_lon": 0.0, "fusion_lat": 0.0, "lat": 38.9096105, "type": "electric_scooter", "lon": -77.03940533333333, "bike_id": "90654c16c11657c06d5edde16ac75096", "rental_uris": {"android": "https://dc.lft.to/lastmile_qr_scan", "ios": "https://dc.lft.to/lastmile_qr_scan"}, "name": "90654c16c11657c06d5edde16ac75096", "is_reserved": 0}, {"is_disabled": 0, "fusion_lon": 0.0, "fusion_lat": 0.0, "lat": 38.886364666666665, "type": "electric_bike", "lon": -77.09240683333333, "bike_id": "3145e4127fe01ac591885a19820fddac", "rental_uris": {"android": "https://dc.lft.to/lastmile_qr_scan", "ios": "https://dc.lft.to/lastmile_qr_scan"}, "name": "3145e4127fe01ac591885a19820fddac", "is_reserved": 0}, {"is_disabled": 0, "fusion_lon": 0.0, "fusion_lat": 0.0, "lat": 38.920404, "type": "electric_scooter", "lon": -77.025862, "bike_id": "f699fffd5b02e976acf47fcba9673cc5", "rental_uris": {"android": "https://dc.lft.to/lastmile_qr_scan", "ios": "https://dc.lft.to/lastmile_qr_scan"}, "name": "f699fffd5b02e976acf47fcba9673cc5", "is_reserved": 0}, {"is_disabled": 0, "fusion_lon": 0.0, "fusion_lat": 0.0, "lat": 38.89958716666667, "type": "electric_scooter", "lon": -77.0515555, "bike_id": "7bd0f61460661a7b29120a949905434a", "rental_uris": {"android": "https://dc.lft.to/lastmile_qr_scan", "ios": "https://dc.lft.to/lastmile_qr_scan"}, "name": "7bd0f61460661a7b29120a949905434a", "is_reserved": 0}, {"is_disabled": 0, "fusion_lon": 0.0, "fusion_lat": 0.0, "lat": 38.897293833333336, "type": "electric_bike", "lon": -76.90545883333333, "bike_id": "1fbd92ce55cf9b2f0b2d37f4b4cdbe35", "rental_uris": {"android": "https://dc.lft.to/lastmile_qr_scan", "ios": "https://dc.lft.to/lastmile_qr_scan"}, "name": "1fbd92ce55cf9b2f0b2d37f4b4cdbe35", "is_reserved": 0}, {"is_disabled": 0, "fusion_lon": 0.0, "fusion_lat": 0.0, "lat": 38.920385, "type": "electric_scooter", "lon": -77.04184416666666, "bike_id": "18d4e68c4d8035a86929387e49c8a2ab", "rental_uris": {"android": "https://dc.lft.to/lastmile_qr_scan", "ios": "https://dc.lft.to/lastmile_qr_scan"}, "name": "18d4e68c4d8035a86929387e49c8a2ab", "is_reserved": 0}, {"is_disabled": 0, "fusion_lon": 0.0, "fusion_lat": 0.0, "lat": 38.941044166666664, "type": "electric_scooter", "lon": -77.07722416666667, "bike_id": "0127cf0db5726d838da34666d255458e", "rental_uris": {"android": "https://dc.lft.to/lastmile_qr_scan", "ios": "https://dc.lft.to/lastmile_qr_scan"}, "name": "0127cf0db5726d838da34666d255458e", "is_reserved": 0}, {"is_disabled": 0, "fusion_lon": 0.0, "fusion_lat": 0.0, "lat": 38.90038366666667, "type": "electric_scooter", "lon": -77.002106, "bike_id": "2ad5b84d53b698def0767d648c325e47", "rental_uris": {"android": "https://dc.lft.to/lastmile_qr_scan", "ios": "https://dc.lft.to/lastmile_qr_scan"}, "name": "2ad5b84d53b698def0767d648c325e47", "is_reserved": 0}, {"is_disabled": 0, "fusion_lon": 0.0, "fusion_lat": 0.0, "lat": 39.060682666666665, "type": "electric_bike", "lon": -77.06468916666667, "bike_id": "74f191aea4cfce9086393c17ae6afda4", "rental_uris": {"android": "https://dc.lft.to/lastmile_qr_scan", "ios": "https://dc.lft.to/lastmile_qr_scan"}, "name": "74f191aea4cfce9086393c17ae6afda4", "is_reserved": 0}, {"is_disabled": 0, "fusion_lon": 0.0, "fusion_lat": 0.0, "lat": 38.88744483333333, "type": "electric_scooter", "lon": -77.0173535, "bike_id": "6c5c59083f3d7e495418f587fd1cbf0d", "rental_uris": {"android": "https://dc.lft.to/lastmile_qr_scan", "ios": "https://dc.lft.to/lastmile_qr_scan"}, "name": "6c5c59083f3d7e495418f587fd1cbf0d", "is_reserved": 0}, {"is_disabled": 0, "fusion_lon": 0.0, "fusion_lat": 0.0, "lat": 38.91862416666667, "type": "electric_bike", "lon": -76.96089433333333, "bike_id": "b5f4271b91e0be7a573f9e3f17496914", "rental_uris": {"android": "https://dc.lft.to/lastmile_qr_scan", "ios": "https://dc.lft.to/lastmile_qr_scan"}, "name": "b5f4271b91e0be7a573f9e3f17496914", "is_reserved": 0}, {"is_disabled": 0, "fusion_lon": 0.0, "fusion_lat": 0.0, "lat": 38.92566516666667, "type": "electric_scooter", "lon": -77.02718183333333, "bike_id": "61c4100c56ac26c5046cb570cf194a92", "rental_uris": {"android": "https://dc.lft.to/lastmile_qr_scan", "ios": "https://dc.lft.to/lastmile_qr_scan"}, "name": "61c4100c56ac26c5046cb570cf194a92", "is_reserved": 0}, {"is_disabled": 0, "fusion_lon": 0.0, "fusion_lat": 0.0, "lat": 38.904247833333336, "type": "electric_scooter", "lon": -76.98554816666666, "bike_id": "6800024fa78cd64a6ff3e5b543fbef73", "rental_uris": {"android": "https://dc.lft.to/lastmile_qr_scan", "ios": "https://dc.lft.to/lastmile_qr_scan"}, "name": "6800024fa78cd64a6ff3e5b543fbef73", "is_reserved": 0}, {"is_disabled": 0, "fusion_lon": 0.0, "fusion_lat": 0.0, "lat": 38.838151, "type": "electric_scooter", "lon": -77.004344, "bike_id": "68a602d257822c99530043fa0f5f4360", "rental_uris": {"android": "https://dc.lft.to/lastmile_qr_scan", "ios": "https://dc.lft.to/lastmile_qr_scan"}, "name": "68a602d257822c99530043fa0f5f4360", "is_reserved": 0}, {"is_disabled": 0, "fusion_lon": 0.0, "fusion_lat": 0.0, "lat": 38.946354666666664, "type": "electric_scooter", "lon": -77.0192985, "bike_id": "a650bb0eee56752322ab0cf75bc6acc1", "rental_uris": {"android": "https://dc.lft.to/lastmile_qr_scan", "ios": "https://dc.lft.to/lastmile_qr_scan"}, "name": "a650bb0eee56752322ab0cf75bc6acc1", "is_reserved": 0}, {"is_disabled": 0, "fusion_lon": 0.0, "fusion_lat": 0.0, "lat": 38.92755066666667, "type": "electric_scooter", "lon": -77.00592983333334, "bike_id": "c431cc87bbc8b2b48907639c1205dff8", "rental_uris": {"android": "https://dc.lft.to/lastmile_qr_scan", "ios": "https://dc.lft.to/lastmile_qr_scan"}, "name": "c431cc87bbc8b2b48907639c1205dff8", "is_reserved": 0}, {"is_disabled": 0, "fusion_lon": 0.0, "fusion_lat": 0.0, "lat": 38.85211916666667, "type": "electric_bike", "lon": -77.1012875, "bike_id": "977ee5ce664b33f8d9aa38eea98bc4d1", "rental_uris": {"android": "https://dc.lft.to/lastmile_qr_scan", "ios": "https://dc.lft.to/lastmile_qr_scan"}, "name": "977ee5ce664b33f8d9aa38eea98bc4d1", "is_reserved": 0},