{"data": {"bikes": [{"lat": 38.923238, "lon": -77.03979133333333, "is_disabled": 0, "fusion_lon": 0.0, "is_reserved": 0, "name": "be12ec4310c5d4eb982a55dbbfbf6b5f", "type": "electric_scooter", "bike_id": "be12ec4310c5d4eb982a55dbbfbf6b5f", "rental_uris": {"ios": "https://dc.lft.to/lastmile_qr_scan", "android": "https://dc.lft.to/lastmile_qr_scan"}, "fusion_lat": 0.0}, {"lat": 38.918021333333336, "lon": -77.0248725, "is_disabled": 0, "fusion_lon": 0.0, "is_reserved": 0, "name": "db43079e0388e969d35740aba981662a", "type": "electric_scooter", "bike_id": "db43079e0388e969d35740aba981662a", "rental_uris": {"ios": "https://dc.lft.to/lastmile_qr_scan", "android": "https://dc.lft.to/lastmile_qr_scan"}, "fusion_lat": 0.0}, {"lat": 38.910047, "lon": -77.03211216666666, "is_disabled": 0, "fusion_lon": 0.0, "is_reserved": 0, "name": "6ad02bd172d070682340e94a9416f4eb", "type": "electric_scooter", "bike_id": "6ad02bd172d070682340e94a9416f4eb", "rental_uris": {"ios": "https://dc.lft.to/lastmile_qr_scan", "android": "https://dc.lft.to/lastmile_qr_scan"}, "fusion_lat": 0.0}, {"lat": 38.90724383333333, "lon": -77.076244, "is_disabled": 0, "fusion_lon": 0.0, "is_reserved": 0, "name": "ef069e3d35ca7d1b403698c40531ed56", "type": "electric_scooter", "bike_id": "ef069e3d35ca7d1b403698c40531ed56", "rental_uris": {"ios": "https://dc.lft.to/lastmile_qr_scan", "android": "https://dc.lft.to/lastmile_qr_scan"}, "fusion_lat": 0.0}, {"lat": 38.8893675, "lon": -76.99371966666666, "is_disabled": 0, "fusion_lon": 0.0, "is_reserved": 0, "name": "ebbb4e85072117952fb605cdc5b37e87", "type": "electric_scooter", "bike_id": "ebbb4e85072117952fb605cdc5b37e87", "rental_uris": {"ios": "https://dc.lft.to/lastmile_qr_scan", "android": "https://dc.lft.to/lastmile_qr_scan"}, "fusion_lat": 0.0}, {"lat": 38.93174333333333, "lon": -77.02355483333334, "is_disabled": 0, "fusion_lon": 0.0, "is_reserved": 0, "name": "3b88de201adf1cf33b3ab06178d34531", "type": "electric_scooter", "bike_id": "3b88de201adf1cf33b3ab06178d34531", "rental_uris": {"ios": "https://dc.lft.to/lastmile_qr_scan", "android": "https://dc.lft.to/lastmile_qr_scan"}, "fusion_lat": 0.0}, {"lat": 38.887621, "lon": -76.99606516666667, "is_disabled": 0, "fusion_lon": 0.0, "is_reserved": 0, "name": "863d1bc767a33fb0627b67a5a0331917", "type": "electric_scooter", "bike_id": "863d1bc767a33fb0627b67a5a0331917", "rental_uris": {"ios": "https://dc.lft.to/lastmile_qr_scan", "android": "https://dc.lft.to/lastmile_qr_scan"}, "fusion_lat": 0.0}, {"lat": 38.84757483333333, "lon": -76.99501333333333, "is_disabled": 0, "fusion_lon": 0.0, "is_reserved": 0, "name": "f679b10744bf898ceb67937dd51bbc3f", "type": "electric_scooter", "bike_id": "f679b10744bf898ceb67937dd51bbc3f", "rental_uris": {"ios": "https://dc.lft.to/lastmile_qr_scan", "android": "https://dc.lft.to/lastmile_qr_scan"}, "fusion_lat": 0.0}, {"lat": 38.897409333333336, "lon": -77.04630416666667, "is_disabled": 0, "fusion_lon": 0.0, "is_reserved": 0, "name": "6df7b2dd52a5f29794a10a17cbec6639", "type": "electric_scooter", "bike_id": "6df7b2dd52a5f29794a10a17cbec6639", "rental_uris": {"ios": "https://dc.lft.to/lastmile_qr_scan", "android": "https://dc.lft.to/lastmile_qr_scan"}, "fusion_lat": 0.0}, {"lat": 38.9036805, "lon": -77.031633, "is_disabled": 0, "fusion_lon": 0.0, "is_reserved": 0, "name": "3af2ac66e5ca34d87b100af12801ab21", "type": "electric_scooter", "bike_id": "3af2ac66e5ca34d87b100af12801ab21", "rental_uris": {"ios": "https://dc.lft.to/lastmile_qr_scan", "android": "https://dc.lft.to/lastmile_qr_scan"}, "fusion_lat": 0.0}, {"lat": 38.90744333333333, "lon": -77.013125, "is_disabled": 0, "fusion_lon": 0.0, "is_reserved": 0, "name": "1aebc431f7f512d307b64b53acfba605", "type": "electric_scooter", "bike_id": "1aebc431f7f512d307b64b53acfba605", "rental_uris": {"ios": "https://dc.lft.to/lastmile_qr_scan", "android": "https://dc.lft.to/lastmile_qr_scan"}, "fusion_lat": 0.0}, {"lat": 38.9066325, "lon": -77.01419066666666, "is_disabled": 0, "fusion_lon": 0.0, "is_reserved": 0, "name": "4b698bf0181a2559abadb47a0f1dc8d0", "type": "electric_scooter", "bike_id": "4b698bf0181a2559abadb47a0f1dc8d0", "rental_uris": {"ios": "https://dc.lft.to/lastmile_qr_scan", "android": "https://dc.lft.to/lastmile_qr_scan"}, "fusion_lat": 0.0}, {"lat": 38.923909, "lon": -77.036709, "is_disabled": 0, "fusion_lon": 0.0, "is_reserved": 0, "name": "03100c5cefa16db3a12cf02f151a7499", "type": "electric_scooter", "bike_id": "03100c5cefa16db3a12cf02f151a7499", "rental_uris": {"ios": "https://dc.lft.to/lastmile_qr_scan", "android": "https://dc.lft.to/lastmile_qr_scan"}, "fusion_lat": 0.0}, {"lat": 38.89854066666667, "lon": -77.01363133333334, "is_disabled": 0, "fusion_lon": 0.0, "is_reserved": 0, "name": "6890972f9d749ef5233922605ebc093a", "type": "electric_scooter", "bike_id": "6890972f9d749ef5233922605ebc093a", "rental_uris": {"ios": "https://dc.lft.to/lastmile_qr_scan", "android": "https://dc.lft.to/lastmile_qr_scan"}, "fusion_lat": 0.0}, {"lat": 38.8970195, "lon": -76.96308033333334, "is_disabled": 0, "fusion_lon": 0.0, "is_reserved": 0, "name": "263fb60a808ca6600ed04ed3275e11fb", "type": "electric_bike", "bike_id": "263fb60a808ca6600ed04ed3275e11fb", "rental_uris": {"ios": "https://dc.lft.to/lastmile_qr_scan", "android": "https://dc.lft.to/lastmile_qr_scan"}, "fusion_lat": 0.0}, {"lat": 38.92455233333333, "lon": -76.98991766666667, "is_disabled": 0, "fusion_lon": 0.0, "is_reserved": 0, "name": "96c0783a656abad0fe270b23871ecfee", "type": "electric_scooter", "bike_id": "96c0783a656abad0fe270b23871ecfee", "rental_uris": {"ios": "https://dc.lft.to/lastmile_qr_scan", "android": "https://dc.lft.to/lastmile_qr_scan"}, "fusion_lat": 0.0}, {"lat": 38.904894666666664, "lon": -76.98877483333334, "is_disabled": 0, "fusion_lon": 0.0, "is_reserved": 0, "name": "12546008e852920a405647afe083a5cb", "type": "electric_scooter", "bike_id": "12546008e852920a405647afe083a5cb", "rental_uris": {"ios": "https://dc.lft.to/lastmile_qr_scan", "android": "https://dc.lft.to/lastmile_qr_scan"}, "fusion_lat": 0.0}, {"lat": 38.903808833333336, "lon": -77.0503, "is_disabled": 0, "fusion_lon": 0.0, "is_reserved": 0, "name": "048f6a2638f85ea0bcbf0e6477f44f5e", "type": "electric_scooter", "bike_id": "048f6a2638f85ea0bcbf0e6477f44f5e", "rental_uris": {"ios": "https://dc.lft.to/lastmile_qr_scan", "android": "https://dc.lft.to/lastmile_qr_scan"}, "fusion_lat": 0.0}, {"lat": 38.86015866666666, "lon": -76.96706683333333, "is_disabled": 0, "fusion_lon": 0.0, "is_reserved": 0, "name": "1157ec4721c4d7923fb0eab418254320", "type": "electric_scooter", "bike_id": "1157ec4721c4d7923fb0eab418254320", "rental_uris": {"ios": "https://dc.lft.to/lastmile_qr_scan", "android": "https://dc.lft.to/lastmile_qr_scan"}, "fusion_lat": 0.0}, {"lat": 38.90883683333333, "lon": -77.0405815, "is_disabled": 0, "fusion_lon": 0.0, "is_reserved": 0, "name": "6fa1465d23459583125a2cb81f9c015c", "type": "electric_scooter", "bike_id": "6fa1465d23459583125a2cb81f9c015c", "rental_uris": {"ios": "https://dc.lft.to/lastmile_qr_scan", "android": "https://dc.lft.to/lastmile_qr_scan"}, "fusion_lat": 0.0}, {"lat": 38.92736216666667, "lon": -77.022749, "is_disabled": 0, "fusion_lon": 0.0, "is_reserved": 0, "name": "029bf4f51b910f388ce751b8e1ac4b04", "type": "electric_scooter", "bike_id": "029bf4f51b910f388ce751b8e1ac4b04", "rental_uris": {"ios": "https://dc.lft.to/lastmile_qr_scan", "android": "https://dc.lft.to/lastmile_qr_scan"}, "fusion_lat": 0.0}, {"lat": 38.936286333333335, "lon": -77.05879516666667, "is_disabled": 0, "fusion_lon": 0.0, "is_reserved": 0, "name": "b72ff3b621eb83da23a0fefe3642f3ea", "type": "electric_scooter", "bike_id": "b72ff3b621eb83da23a0fefe3642f3ea", "rental_uris": {"ios": "https://dc.lft.to/lastmile_qr_scan", "android": "https://dc.lft.to/lastmile_qr_scan"}, "fusion_lat": 0.0}, {"lat": 38.90108766666667, "lon": -76.93041383333333, "is_disabled": 0, "fusion_lon": 0.0, "is_reserved": 0, "name": "d8bc021f73d954cb6747874806b616d6", "type": "electric_scooter", "bike_id": "d8bc021f73d954cb6747874806b616d6", "rental_uris": {"ios": "https://dc.lft.to/lastmile_qr_scan", "android": "https://dc.lft.to/lastmile_qr_scan"}, "fusion_lat": 0.0}, {"lat": 38.9182775, "lon": -77.02417866666667, "is_disabled": 0, "fusion_lon": 0.0, "is_reserved": 0, "name": "cbae771a2400e1bd17fdeb22a8eb09c1", "type": "electric_scooter", "bike_id": "cbae771a2400e1bd17fdeb22a8eb09c1", "rental_uris": {"ios": "https://dc.lft.to/lastmile_qr_scan", "android": "https://dc.lft.to/lastmile_qr_scan"}, "fusion_lat": 0.0}, {"lat": 38.91206366666667, "lon": -77.01179516666667, "is_disabled": 0, "fusion_lon": 0.0, "is_reserved": 0, "name": "4db5791d1eee5790be701129333c96cf", "type": "electric_scooter", "bike_id": "4db5791d1eee5790be701129333c96cf", "rental_uris": {"ios": "https://dc.lft.to/lastmile_qr_scan", "android": "https://dc.lft.to/lastmile_qr_scan"}, "fusion_lat": 0.0}, {"lat": 38.92613716666666, "lon": -77.03252383333333, "is_disabled": 0, "fusion_lon": 0.0, "is_reserved": 0, "name": "77a395e6eb876f9216dcd40077f285e9", "type": "electric_scooter", "bike_id": "77a395e6eb876f9216dcd40077f285e9", "rental_uris": {"ios": "https://dc.lft.to/lastmile_qr_scan", "android": "https://dc.lft.to/lastmile_qr_scan"}, "fusion_lat": 0.0}, {"lat": 38.903838, "lon": -77.0386225, "is_disabled": 0, "fusion_lon": 0.0, "is_reserved": 0, "name": "13cb8ebf66124c6fc51c96d6bd761940", "type": "electric_scooter", "bike_id": "13cb8ebf66124c6fc51c96d6bd761940", "rental_uris": {"ios": "https://dc.lft.to/lastmile_qr_scan", "android": "https://dc.lft.to/lastmile_qr_scan"}, "fusion_lat": 0.0}, {"lat": 38.91050716666667, "lon": -77.02184466666667, "is_disabled": 0, "fusion_lon": 0.0, "is_reserved": 0, "name": "2b511d5f644a0a607c261d649d020621", "type": "electric_scooter", "bike_id": "2b511d5f644a0a607c261d649d020621", "rental_uris": {"ios": "https://dc.lft.to/lastmile_qr_scan", "android": "https://dc.lft.to/lastmile_qr_scan"}, "fusion_lat": 0.0}, {"lat": 38.918300333333335, "lon": -77.0228245, "is_disabled": 0, "fusion_lon": 0.0, "is_reserved": 0, "name": "5329a0268fbf6403bcdd2b07f89398f2", "type": "electric_scooter", "bike_id": "5329a0268fbf6403bcdd2b07f89398f2", "rental_uris": {"ios": "https://dc.lft.to/lastmile_qr_scan", "android": "https://dc.lft.to/lastmile_qr_scan"}, "fusion_lat": 0.0}, {"lat": 38.90877066666667, "lon": -77.07163466666667, "is_disabled": 0, "fusion_lon": 0.0, "is_reserved": 0, "name": "c08900c5001411995e1426750ae0699e", "type": "electric_scooter", "bike_id": "c08900c5001411995e1426750ae0699e", "rental_uris": {"ios": "https://dc.lft.to/lastmile_qr_scan", "android": "https://dc.lft.to/lastmile_qr_scan"}, "fusion_lat": 0.0}, {"lat": 38.916812, "lon": -77.03194816666667, "is_disabled": 0, "fusion_lon": 0.0, "is_reserved": 0, "name": "1cd62971206757c15d8f0aac2e0dba46", "type": "electric_scooter", "bike_id": "1cd62971206757c15d8f0aac2e0dba46", "rental_uris": {"ios": "https://dc.lft.to/lastmile_qr_scan", "android": "https://dc.lft.to/lastmile_qr_scan"}, "fusion_lat": 0.0}, {"lat": 38.923458333333336, "lon": -77.00919816666666, "is_disabled": 0, "fusion_lon": 0.0, "is_reserved": 0, "name": "0112f335a956750e33f4373efd16c7ee", "type": "electric_scooter", "bike_id": "0112f335a956750e33f4373efd16c7ee", "rental_uris": {"ios": "https://dc.lft.to/lastmile_qr_scan", "android": "https://dc.lft.to/lastmile_qr_scan"}, "fusion_lat": 0.0}, {"lat": 38.93174633333334, "lon": -77.03669216666667, "is_disabled": 0, "fusion_lon": 0.0, "is_reserved": 0, "name": "5f0a43deb8f0f35d23e4fb405e998fe8", "type": "electric_scooter", "bike_id": "5f0a43deb8f0f35d23e4fb405e998fe8", "rental_uris": {"ios": "https://dc.lft.to/lastmile_qr_scan", "android": "https://dc.lft.to/lastmile_qr_scan"}, "fusion_lat": 0.0}, {"lat": 38.915800833333336, "lon": -77.02192783333334, "is_disabled": 0, "fusion_lon": 0.0, "is_reserved": 0, "name": "1034041b64cb93a9e46893d5bfdf85f5", "type": "electric_scooter", "bike_id": "1034041b64cb93a9e46893d5bfdf85f5", "rental_uris": {"ios": "https://dc.lft.to/lastmile_qr_scan", "android": "https://dc.lft.to/lastmile_qr_scan"}, "fusion_lat": 0.0}, {"lat": 38.87405866666667, "lon": -77.00039433333333, "is_disabled": 0, "fusion_lon": 0.0, "is_reserved": 0, "name": "bd1387378a5449a27d958c66e6e6ba7b", "type": "electric_scooter", "bike_id": "bd1387378a5449a27d958c66e6e6ba7b", "rental_uris": {"ios": "https://dc.lft.to/lastmile_qr_scan", "android": "https://dc.lft.to/lastmile_qr_scan"}, "fusion_lat": 0.0}, {"lat": 38.899270666666666, "lon": -77.04032266666667, "is_disabled": 0, "fusion_lon": 0.0, "is_reserved": 0, "name": "c116ad1a839db66086deed2efc2d6732", "type": "electric_scooter", "bike_id": "c116ad1a839db66086deed2efc2d6732", "rental_uris": {"ios": "https://dc.lft.to/lastmile_qr_scan", "android": "https://dc.lft.to/lastmile_qr_scan"}, "fusion_lat": 0.0}, {"lat": 38.900027333333334, "lon": -77.027238, "is_disabled": 0, "fusion_lon": 0.0, "is_reserved": 0, "name": "7c4089658ae3bcb1db8b38a8dc2ceb3b", "type": "electric_scooter", "bike_id": "7c4089658ae3bcb1db8b38a8dc2ceb3b", "rental_uris": {"ios": "https://dc.lft.to/lastmile_qr_scan", "android": "https://dc.lft.to/lastmile_qr_scan"}, "fusion_lat": 0.0}, {"lat": 38.87496633333333, "lon": -77.00175383333334, "is_disabled": 0, "fusion_lon": 0.0, "is_reserved": 0, "name": "bd3fce26c6b4f817866cccdf9217396d", "type": "electric_scooter", "bike_id": "bd3fce26c6b4f817866cccdf9217396d", "rental_uris": {"ios": "https://dc.lft.to/lastmile_qr_scan", "android": "https://dc.lft.to/lastmile_qr_scan"}, "fusion_lat": 0.0}, {"lat": 38.90645933333333, "lon": -77.05139333333334, "is_disabled": 0, "fusion_lon": 0.0, "is_reserved": 0, "name": "7bfcc11bd47013703c6eade3037f0b4b", "type": "electric_scooter", "bike_id": "7bfcc11bd47013703c6eade3037f0b4b", "rental_uris": {"ios": "https://dc.lft.to/lastmile_qr_scan", "android": "https://dc.lft.to/lastmile_qr_scan"}, "fusion_lat": 0.0}, {"lat": 38.917451166666666, "lon": -77.06939066666666, "is_disabled": 0, "fusion_lon": 0.0, "is_reserved": 0, "name": "e989d94fa219ffb06ad65722b5f8becf", "type": "electric_scooter", "bike_id": "e989d94fa219ffb06ad65722b5f8becf", "rental_uris": {"ios": "https://dc.lft.to/lastmile_qr_scan", "android": "https://dc.lft.to/lastmile_qr_scan"}, "fusion_lat": 0.0}, {"lat": 38.925013666666665, "lon": -77.02446716666667, "is_disabled": 0, "fusion_lon": 0.0, "is_reserved": 0, "name": "72c122287e32aa34dd6e111ec6828b1e", "type": "electric_scooter", "bike_id": "72c122287e32aa34dd6e111ec6828b1e", "rental_uris": {"ios": "https://dc.lft.to/lastmile_qr_scan", "android": "https://dc.lft.to/lastmile_qr_scan"}, "fusion_lat": 0.0}, {"lat": 38.903080333333335, "lon": -77.06121716666667, "is_disabled": 0, "fusion_lon": 0.0, "is_reserved": 0, "name": "1f9fe8f9929c3683266aa00cb1625bfe", "type": "electric_scooter", "bike_id": "1f9fe8f9929c3683266aa00cb1625bfe", "rental_uris": {"ios": "https://dc.lft.to/lastmile_qr_scan", "android": "https://dc.lft.to/lastmile_qr_scan"}, "fusion_lat": 0.0}, {"lat": 38.9577715, "lon": -77.01494083333333, "is_disabled": 0, "fusion_lon": 0.0, "is_reserved": 0, "name": "b734316c21d7f0305e1d4acb71a12c8b", "type": "electric_scooter", "bike_id": "b734316c21d7f0305e1d4acb71a12c8b", "rental_uris": {"ios": "https://dc.lft.to/lastmile_qr_scan", "android": "https://dc.lft.to/lastmile_qr_scan"}, "fusion_lat": 0.0}, {"lat": 38.91573866666667, "lon": -77.02190983333334, "is_disabled": 0, "fusion_lon": 0.0, "is_reserved": 0, "name": "95f29364a02265ae1da443bf1e77cad1", "type": "electric_scooter", "bike_id": "95f29364a02265ae1da443bf1e77cad1", "rental_uris": {"ios": "https://dc.lft.to/lastmile_qr_scan", "android": "https://dc.lft.to/lastmile_qr_scan"}, "fusion_lat": 0.0}, {"lat": 38.8977715, "lon": -77.01225366666667, "is_disabled": 0, "fusion_lon": 0.0, "is_reserved": 0, "name": "c36d8199a18a1e4928c1f2ee83037611", "type": "electric_scooter", "bike_id": "c36d8199a18a1e4928c1f2ee83037611", "rental_uris": {"ios": "https://dc.lft.to/lastmile_qr_scan", "android": "https://dc.lft.to/lastmile_qr_scan"}, "fusion_lat": 0.0}, {"lat": 38.876674, "lon": -77.000747, "is_disabled": 0, "fusion_lon": 0.0, "is_reserved": 0, "name": "fc876a7114bb1e5a47b0e0e0ae486152", "type": "electric_scooter", "bike_id": "fc876a7114bb1e5a47b0e0e0ae486152", "rental_uris": {"ios": "https://dc.lft.to/lastmile_qr_scan", "android": "https://dc.lft.to/lastmile_qr_scan"}, "fusion_lat": 0.0}, {"lat": 38.898255, "lon": -77.00601333333333, "is_disabled": 0, "fusion_lon": 0.0, "is_reserved": 0, "name": "7f9c9d13c0114352992cc216310c9325", "type": "electric_bike", "bike_id": "7f9c9d13c0114352992cc216310c9325", "rental_uris": {"ios": "https://dc.lft.to/lastmile_qr_scan", "android": "https://dc.lft.to/lastmile_qr_scan"}, "fusion_lat": 0.0}, {"lat": 38.931961666666666, "lon": -77.028346, "is_disabled": 0, "fusion_lon": 0.0, "is_reserved": 0, "name": "9e748711e74641f9737bb95b13ff54c0", "type": "electric_scooter", "bike_id": "9e748711e74641f9737bb95b13ff54c0", "rental_uris": {"ios": "https://dc.lft.to/lastmile_qr_scan", "android": "https://dc.lft.to/lastmile_qr_scan"}, "fusion_lat": 0.0}, {"lat": 38.917793, "lon": -77.03198633333334, "is_disabled": 0, "fusion_lon": 0.0, "is_reserved": 0, "name": "8a004ad38f407a7d8bd19eaedadce461", "type": "electric_scooter", "bike_id": "8a004ad38f407a7d8bd19eaedadce461", "rental_uris": {"ios": "https://dc.lft.to/lastmile_qr_scan", "android": "https://dc.lft.to/lastmile_qr_scan"}, "fusion_lat": 0.0}, {"lat": 38.91987783333333, "lon": -77.04162416666667, "is_disabled": 0, "fusion_lon": 0.0, "is_reserved": 0, "name": "ddbdfaec8fe42d174ef98b96e121c0d7", "type": "electric_scooter", "bike_id": "ddbdfaec8fe42d174ef98b96e121c0d7", "rental_uris": {"ios": "https://dc.lft.to/lastmile_qr_scan", "android": "https://dc.lft.to/lastmile_qr_scan"}, "fusion_lat": 0.0}, {"lat": 38.8745965, "lon": -77.00549583333333, "is_disabled": 0, "fusion_lon": 0.0, "is_reserved": 0, "name": "d8916799d2e55b7b5604b0498993f60a", "type": "electric_scooter", "bike_id": "d8916799d2e55b7b5604b0498993f60a", "rental_uris": {"ios": "https://dc.lft.to/lastmile_qr_scan", "android": "https://dc.lft.to/lastmile_qr_scan"}, "fusion_lat": 0.0}, {"lat": 38.88775866666667, "lon": -77.02243883333334, "is_disabled": 0, "fusion_lon": 0.0, "is_reserved": 0, "name": "29c52d1d7d9bd1df33b0856a61b690fc", "type": "electric_scooter", "bike_id": "29c52d1d7d9bd1df33b0856a61b690fc", "rental_uris": {"ios": "https://dc.lft.to/lastmile_qr_scan", "android": "https://dc.lft.to/lastmile_qr_scan"}, "fusion_lat": 0.0}, {"lat": 38.90282966666667, "lon": -77.02771183333333, "is_disabled": 0, "fusion_lon": 0.0, "is_reserved": 0, "name": "16f7c4cf893a20428795f64c81fb1552", "type": "electric_scooter", "bike_id": "16f7c4cf893a20428795f64c81fb1552", "rental_uris": {"ios": "https://dc.lft.to/lastmile_qr_scan", "android": "https://dc.lft.to/lastmile_qr_scan"}, "fusion_lat": 0.0}, {"lat": 38.92047133333333, "lon": -77.03708033333334, "is_disabled": 0, "fusion_lon": 0.0, "is_reserved": 0, "name": "1468d0600fba5db8608c650419e06996", "type": "electric_scooter", "bike_id": "1468d0600fba5db8608c650419e06996", "rental_uris": {"ios": "https://dc.lft.to/lastmile_qr_scan", "android": "https://dc.lft.to/lastmile_qr_scan"}, "fusion_lat": 0.0}, {"lat": 38.900319833333334, "lon": -76.9952475, "is_disabled": 0, "fusion_lon": 0.0, "is_reserved": 0, "name": "339e3054805b4cee8e18df75e2c446d9", "type": "electric_scooter", "bike_id": "339e3054805b4cee8e18df75e2c446d9", "rental_uris": {"ios": "https://dc.lft.to/lastmile_qr_scan", "android": "https://dc.lft.to/lastmile_qr_scan"}, "fusion_lat": 0.0}, {"lat": 38.87669016666667, "lon": -77.006587, "is_disabled": 0, "fusion_lon": 0.0, "is_reserved": 0, "name": "fe2b6a5fb6504763b76cc384b9be1cb1", "type": "electric_scooter", "bike_id": "fe2b6a5fb6504763b76cc384b9be1cb1", "rental_uris": {"ios": "https://dc.lft.to/lastmile_qr_scan", "android": "https://dc.lft.to/lastmile_qr_scan"}, "fusion_lat": 0.0}, {"lat": 38.9261755, "lon": -77.02161183333334, "is_disabled": 0, "fusion_lon": 0.0, "is_reserved": 0, "name": "1d62b0511d41b2d73912e923ad034a0f", "type": "electric_scooter", "bike_id": "1d62b0511d41b2d73912e923ad034a0f", "rental_uris": {"ios": "https://dc.lft.to/lastmile_qr_scan", "android": "https://dc.lft.to/lastmile_qr_scan"}, "fusion_lat": 0.0}, {"lat": 38.919360166666664, "lon": -77.02350016666666, "is_disabled": 0, "fusion_lon": 0.0, "is_reserved": 0, "name": "eedc5ba8f5284c5b1904ac3a3dc39062", "type": "electric_scooter", "bike_id": "eedc5ba8f5284c5b1904ac3a3dc39062", "rental_uris": {"ios": "https://dc.lft.to/lastmile_qr_scan", "android": "https://dc.lft.to/lastmile_qr_scan"}, "fusion_lat": 0.0}, {"lat": 38.92462183333333, "lon": -77.05235266666666, "is_disabled": 0, "fusion_lon": 0.0, "is_reserved": 0, "name": "3fb9970d4785fbacb7c8756f4ffbccea", "type": "electric_scooter", "bike_id": "3fb9970d4785fbacb7c8756f4ffbccea", "rental_uris": {"ios": "https://dc.lft.to/lastmile_qr_scan", "android": "https://dc.lft.to/lastmile_qr_scan"}, "fusion_lat": 0.0}, {"lat": 38.90363416666667, "lon": -77.02573066666666, "is_disabled": 0, "fusion_lon": 0.0, "is_reserved": 0, "name": "a18ee41342a3359f38a5b3ecc50d44be", "type": "electric_scooter", "bike_id": "a18ee41342a3359f38a5b3ecc50d44be", "rental_uris": {"ios": "https://dc.lft.to/lastmile_qr_scan", "android": "https://dc.lft.to/lastmile_qr_scan"}, "fusion_lat": 0.0}, {"lat": 38.95423066666667, "lon": -77.0278255, "is_disabled": 0, "fusion_lon": 0.0, "is_reserved": 0, "name": "9789416c274b46344b6815bce414c6c8", "type": "electric_scooter", "bike_id": "9789416c274b46344b6815bce414c6c8", "rental_uris": {"ios": "https://dc.lft.to/lastmile_qr_scan", "android": "https://dc.lft.to/lastmile_qr_scan"}, "fusion_lat": 0.0}, {"lat": 38.88734816666667, "lon": -77.031788, "is_disabled": 0, "fusion_lon": 0.0, "is_reserved": 0, "name": "68fac5cbca5687228c09482d8bdf0d55", "type": "electric_scooter", "bike_id": "68fac5cbca5687228c09482d8bdf0d55", "rental_uris": {"ios": "https://dc.lft.to/lastmile_qr_scan", "android": "https://dc.lft.to/lastmile_qr_scan"}, "fusion_lat": 0.0}, {"lat": 38.88125733333333, "lon": -77.01741716666666, "is_disabled": 0, "fusion_lon": 0.0, "is_reserved": 0, "name": "955c0384a94b8093992200a16c2451f7", "type": "electric_scooter", "bike_id": "955c0384a94b8093992200a16c2451f7", "rental_uris": {"ios": "https://dc.lft.to/lastmile_qr_scan", "android": "https://dc.lft.to/lastmile_qr_scan"}, "fusion_lat": 0.0}, {"lat": 38.862201166666665, "lon": -76.994756, "is_disabled": 0, "fusion_lon": 0.0, "is_reserved": 0, "name": "928e8efcb269f90e8750c1bb13a28440", "type": "electric_scooter", "bike_id": "928e8efcb269f90e8750c1bb13a28440", "rental_uris": {"ios": "https://dc.lft.to/lastmile_qr_scan", "android": "https://dc.lft.to/lastmile_qr_scan"}, "fusion_lat": 0.0}, {"lat": 38.9172595, "lon": -77.01908166666666, "is_disabled": 0, "fusion_lon": 0.0, "is_reserved": 0, "name": "1d8370a0b00f5848283ed609807abfc0", "type": "electric_scooter", "bike_id": "1d8370a0b00f5848283ed609807abfc0", "rental_uris": {"ios": "https://dc.lft.to/lastmile_qr_scan", "android": "https://dc.lft.to/lastmile_qr_scan"}, "fusion_lat": 0.0}, {"lat": 38.915591, "lon": -77.0284815, "is_disabled": 0, "fusion_lon": 0.0, "is_reserved": 0, "name": "6a55391872cc9d71482bed3c5a064fc4", "type": "electric_scooter", "bike_id": "6a55391872cc9d71482bed3c5a064fc4", "rental_uris": {"ios": "https://dc.lft.to/lastmile_qr_scan", "android": "https://dc.lft.to/lastmile_qr_scan"}, "fusion_lat": 0.0}, {"lat": 38.9072605, "lon": -77.04326316666666, "is_disabled": 0, "fusion_lon": 0.0, "is_reserved": 0, "name": "ef38f318d98ce38729d1cfbfc6deb4e2", "type": "electric_scooter", "bike_id": "ef38f318d98ce38729d1cfbfc6deb4e2", "rental_uris": {"ios": "https://dc.lft.to/lastmile_qr_scan", "android": "https://dc.lft.to/lastmile_qr_scan"}, "fusion_lat": 0.0}, {"lat": 38.92317233333333, "lon": -77.029029, "is_disabled": 0, "fusion_lon": 0.0, "is_reserved": 0, "name": "7038a2b3148f072c7578122f6a96e660", "type": "electric_scooter", "bike_id": "7038a2b3148f072c7578122f6a96e660", "rental_uris": {"ios": "https://dc.lft.to/lastmile_qr_scan", "android": "https://dc.lft.to/lastmile_qr_scan"}, "fusion_lat": 0.0}, {"lat": 38.9242025, "lon": -77.02011283333333, "is_disabled": 0, "fusion_lon": 0.0, "is_reserved": 0, "name": "7e7fc365796dfa11a1a3631cd6d77ac7", "type": "electric_scooter", "bike_id": "7e7fc365796dfa11a1a3631cd6d77ac7", "rental_uris": {"ios": "https://dc.lft.to/lastmile_qr_scan", "android": "https://dc.lft.to/lastmile_qr_scan"}, "fusion_lat": 0.0}, {"lat": 38.87741283333333, "lon": -76.97033933333333, "is_disabled": 0, "fusion_lon": 0.0, "is_reserved": 0, "name": "8f39dacbc8d72fb1b9537aaa17ea05e2", "type": "electric_scooter", "bike_id": "8f39dacbc8d72fb1b9537aaa17ea05e2", "rental_uris": {"ios": "https://dc.lft.to/lastmile_qr_scan", "android": "https://dc.lft.to/lastmile_qr_scan"}, "fusion_lat": 0.0}, {"lat": 38.946574, "lon": -77.02960466666667, "is_disabled": 0, "fusion_lon": 0.0, "is_reserved": 0, "name": "03f1708b0dd803c26f5fe42976f68808", "type": "electric_scooter", "bike_id": "03f1708b0dd803c26f5fe42976f68808", "rental_uris": {"ios": "https://dc.lft.to/lastmile_qr_scan", "android": "https://dc.lft.to/lastmile_qr_scan"}, "fusion_lat": 0.0}, {"lat": 38.927553333333336, "lon": -77.03349683333333, "is_disabled": 0, "fusion_lon": 0.0, "is_reserved": 0, "name": "d835cea1af169e1e2a5ce92941954bf3", "type": "electric_scooter", "bike_id": "d835cea1af169e1e2a5ce92941954bf3", "rental_uris": {"ios": "https://dc.lft.to/lastmile_qr_scan", "android": "https://dc.lft.to/lastmile_qr_scan"}, "fusion_lat": 0.0}, {"lat": 38.9260895, "lon": -77.06415933333334, "is_disabled": 0, "fusion_lon": 0.0, "is_reserved": 0, "name": "38dfae7f77ea559e7078acfef7d37f84", "type": "electric_bike", "bike_id": "38dfae7f77ea559e7078acfef7d37f84", "rental_uris": {"ios": "https://dc.lft.to/lastmile_qr_scan", "android": "https://dc.lft.to/lastmile_qr_scan"}, "fusion_lat": 0.0}, {"lat": 38.892378, "lon": -77.0487815, "is_disabled": 0, "fusion_lon": 0.0, "is_reserved": 0, "name": "0fdeb9fb20fdeff9d540879d715b71d4", "type": "electric_scooter", "bike_id": "0fdeb9fb20fdeff9d540879d715b71d4", "rental_uris": {"ios": "https://dc.lft.to/lastmile_qr_scan", "android": "https://dc.lft.to/lastmile_qr_scan"}, "fusion_lat": 0.0}, {"lat": 38.901805333333336, "lon": -76.97664133333333, "is_disabled": 0, "fusion_lon": 0.0, "is_reserved": 0, "name": "cca4e24511452ed2ef8ecce4af3b2b1b", "type": "electric_bike", "bike_id": "cca4e24511452ed2ef8ecce4af3b2b1b", "rental_uris": {"ios": "https://dc.lft.to/lastmile_qr_scan", "android": "https://dc.lft.to/lastmile_qr_scan"}, "fusion_lat": 0.0}, {"lat": 38.9104245, "lon": -77.04266983333333, "is_disabled": 0, "fusion_lon": 0.0, "is_reserved": 0, "name": "e5f87812ef8ff1439fba0b88e370d8f3", "type": "electric_scooter", "bike_id": "e5f87812ef8ff1439fba0b88e370d8f3", "rental_uris": {"ios": "https://dc.lft.to/lastmile_qr_scan", "android": "https://dc.lft.to/lastmile_qr_scan"}, "fusion_lat": 0.0}, {"lat": 38.923785333333335, "lon": -77.02921833333333, "is_disabled": 0, "fusion_lon": 0.0, "is_reserved": 0, "name": "652c7cd7adb885240025c8e908a965c4", "type": "electric_scooter", "bike_id": "652c7cd7adb885240025c8e908a965c4", "rental_uris": {"ios": "https://dc.lft.to/lastmile_qr_scan", "android": "https://dc.lft.to/lastmile_qr_scan"}, "fusion_lat": 0.0}, {"lat": 38.931516, "lon": -77.042719, "is_disabled": 0, "fusion_lon": 0.0, "is_reserved": 0, "name": "096e3335ae78aae32ca143d646cd0629", "type": "electric_scooter", "bike_id": "096e3335ae78aae32ca143d646cd0629", "rental_uris": {"ios": "https://dc.lft.to/lastmile_qr_scan", "android": "https://dc.lft.to/lastmile_qr_scan"}, "fusion_lat": 0.0}, {"lat": 38.92709716666667, "lon": -76.99766483333333, "is_disabled": 0, "fusion_lon": 0.0, "is_reserved": 0, "name": "13568635b3b4616d59bb7603c8388d73", "type": "electric_scooter", "bike_id": "13568635b3b4616d59bb7603c8388d73", "rental_uris": {"ios": "https://dc.lft.to/lastmile_qr_scan", "android": "https://dc.lft.to/lastmile_qr_scan"}, "fusion_lat": 0.0}, {"lat": 38.90909333333333, "lon": -77.04416983333333, "is_disabled": 0, "fusion_lon": 0.0, "is_reserved": 0, "name": "c2d810caa845bb989e645873358849b2", "type": "electric_scooter", "bike_id": "c2d810caa845bb989e645873358849b2", "rental_uris": {"ios": "https://dc.lft.to/lastmile_qr_scan", "android": "https://dc.lft.to/lastmile_qr_scan"}, "fusion_lat": 0.0}, {"lat": 38.90067483333333, "lon": -76.92744016666667, "is_disabled": 0, "fusion_lon": 0.0, "is_reserved": 0, "name": "4756d0c08a575a0f0e9947b468efd926", "type": "electric_scooter", "bike_id": "4756d0c08a575a0f0e9947b468efd926", "rental_uris": {"ios": "https://dc.lft.to/lastmile_qr_scan", "android": "https://dc.lft.to/lastmile_qr_scan"}, "fusion_lat": 0.0}, {"lat": 38.807661, "lon": -77.1298625, "is_disabled": 0, "fusion_lon": 0.0, "is_reserved": 0, "name": "a4b8ca2935be1e7ab801119e213c0e51", "type": "electric_bike", "bike_id": "a4b8ca2935be1e7ab801119e213c0e51", "rental_uris": {"ios": "https://dc.lft.to/lastmile_qr_scan", "android": "https://dc.lft.to/lastmile_qr_scan"}, "fusion_lat": 0.0}, {"lat": 38.91100483333334, "lon": -77.031866, "is_disabled": 0, "fusion_lon": 0.0, "is_reserved": 0, "name": "82be371aefdff713d9633baf96fdf849", "type": "electric_scooter", "bike_id": "82be371aefdff713d9633baf96fdf849", "rental_uris": {"ios": "https://dc.lft.to/lastmile_qr_scan", "android": "https://dc.lft.to/lastmile_qr_scan"}, "fusion_lat": 0.0}, {"lat": 38.924707, "lon": -77.0523485, "is_disabled": 0, "fusion_lon": 0.0, "is_reserved": 0, "name": "11b1779dc453be6ff7c223adc670067b", "type": "electric_scooter", "bike_id": "11b1779dc453be6ff7c223adc670067b", "rental_uris": {"ios": "https://dc.lft.to/lastmile_qr_scan", "android": "https://dc.lft.to/lastmile_qr_scan"}, "fusion_lat": 0.0}, {"lat": 38.895419833333335, "lon": -76.94956633333334, "is_disabled": 0, "fusion_lon": 0.0, "is_reserved": 0, "name": "76e2b444b650ed2bc0dd169f6098af48", "type": "electric_scooter", "bike_id": "76e2b444b650ed2bc0dd169f6098af48", "rental_uris": {"ios": "https://dc.lft.to/lastmile_qr_scan", "android": "https://dc.lft.to/lastmile_qr_scan"}, "fusion_lat": 0.0}, {"lat": 38.89553983333333, "lon": -76.9486925, "is_disabled": 0, "fusion_lon": 0.0, "is_reserved": 0, "name": "c8687f4ff7cadb730b05dd39c0e5b99e", "type": "electric_scooter", "bike_id": "c8687f4ff7cadb730b05dd39c0e5b99e", "rental_uris": {"ios": "https://dc.lft.to/lastmile_qr_scan", "android": "https://dc.lft.to/lastmile_qr_scan"}, "fusion_lat": 0.0}, {"lat": 38.89366533333333, "lon": -77.04625333333334, "is_disabled": 0, "fusion_lon": 0.0, "is_reserved": 0, "name": "d36b5614ccc8134c80dad8ae723f1f5e", "type": "electric_scooter", "bike_id": "d36b5614ccc8134c80dad8ae723f1f5e", "rental_uris": {"ios": "https://dc.lft.to/lastmile_qr_scan", "android": "https://dc.lft.to/lastmile_qr_scan"}, "fusion_lat": 0.0}, {"lat": 38.898301333333336, "lon": -76.946527, "is_disabled": 0, "fusion_lon": 0.0, "is_reserved": 0, "name": "b2b8c656a34cd9918646abb5992a25d1", "type": "electric_scooter", "bike_id": "b2b8c656a34cd9918646abb5992a25d1", "rental_uris": {"ios": "https://dc.lft.to/lastmile_qr_scan", "android": "https://dc.lft.to/lastmile_qr_scan"}, "fusion_lat": 0.0}, {"lat": 38.881862166666664, "lon": -76.99263583333334, "is_disabled": 0, "fusion_lon": 0.0, "is_reserved": 0, "name": "acabdfaee958345618c2525245ff300e", "type": "electric_scooter", "bike_id": "acabdfaee958345618c2525245ff300e", "rental_uris": {"ios": "https://dc.lft.to/lastmile_qr_scan", "android": "https://dc.lft.to/lastmile_qr_scan"}, "fusion_lat": 0.0}, {"lat": 38.89620516666667, "lon": -77.0214615, "is_disabled": 0, "fusion_lon": 0.0, "is_reserved": 0, "name": "7cbc54f4afb07ae633d697571aba0bd1", "type": "electric_scooter", "bike_id": "7cbc54f4afb07ae633d697571aba0bd1", "rental_uris": {"ios": "https://dc.lft.to/lastmile_qr_scan", "android": "https://dc.lft.to/lastmile_qr_scan"}, "fusion_lat": 0.0}, {"lat": 38.919055666666665, "lon": -77.03201516666667, "is_disabled": 0, "fusion_lon": 0.0, "is_reserved": 0, "name": "97397f7835c60ad98fd8ea0621613357", "type": "electric_scooter", "bike_id": "97397f7835c60ad98fd8ea0621613357", "rental_uris": {"ios": "https://dc.lft.to/lastmile_qr_scan", "android": "https://dc.lft.to/lastmile_qr_scan"}, "fusion_lat": 0.0}, {"lat": 38.8782545, "lon": -77.0224325, "is_disabled": 0, "fusion_lon": 0.0, "is_reserved": 0, "name": "9c4acb5afd9f798ade2befa625eac25b", "type": "electric_scooter", "bike_id": "9c4acb5afd9f798ade2befa625eac25b", "rental_uris": {"ios": "https://dc.lft.to/lastmile_qr_scan", "android": "https://dc.lft.to/lastmile_qr_scan"}, "fusion_lat": 0.0}, {"lat": 38.90425116666667, "lon": -77.019826, "is_disabled": 0, "fusion_lon": 0.0, "is_reserved": 0, "name": "45eb6f88caaa951de10eb53ce4748018", "type": "electric_scooter", "bike_id": "45eb6f88caaa951de10eb53ce4748018", "rental_uris": {"ios": "https://dc.lft.to/lastmile_qr_scan", "android": "https://dc.lft.to/lastmile_qr_scan"}, "fusion_lat": 0.0}, {"lat": 38.902884666666665, "lon": -77.02416433333333, "is_disabled": 0, "fusion_lon": 0.0, "is_reserved": 0, "name": "3b4c1657c94ebdb277a321d0e7d81199", "type": "electric_scooter", "bike_id": "3b4c1657c94ebdb277a321d0e7d81199", "rental_uris": {"ios": "https://dc.lft.to/lastmile_qr_scan", "android": "https://dc.lft.to/lastmile_qr_scan"}, "fusion_lat": 0.0}, {"lat": 38.904052166666666, "lon": -77.0294675, "is_disabled": 0, "fusion_lon": 0.0, "is_reserved": 0, "name": "793a4b5d20948ad75684efc03ccae637", "type": "electric_scooter", "bike_id": "793a4b5d20948ad75684efc03ccae637", "rental_uris": {"ios": "https://dc.lft.to/lastmile_qr_scan", "android": "https://dc.lft.to/lastmile_qr_scan"}, "fusion_lat": 0.0}, {"lat": 38.92871066666667, "lon": -77.03453083333333, "is_disabled": 0, "fusion_lon": 0.0, "is_reserved": 0, "name": "e79409602f2cda875acd13fbcb39143d", "type": "electric_scooter", "bike_id": "e79409602f2cda875acd13fbcb39143d", "rental_uris": {"ios": "https://dc.lft.to/lastmile_qr_scan", "android": "https://dc.lft.to/lastmile_qr_scan"}, "fusion_lat": 0.0}, {"lat": 38.91716683333333, "lon": -77.0248125, "is_disabled": 0, "fusion_lon": 0.0, "is_reserved": 0, "name": "b1633c5aa1bb3bcfa1e1a402e046ee9e", "type": "electric_scooter", "bike_id": "b1633c5aa1bb3bcfa1e1a402e046ee9e", "rental_uris": {"ios": "https://dc.lft.to/lastmile_qr_scan", "android": "https://dc.lft.to/lastmile_qr_scan"}, "fusion_lat": 0.0}, {"lat": 38.90263383333333, "lon": -77.04700766666667, "is_disabled": 0, "fusion_lon": 0.0, "is_reserved": 0, "name": "84378a96e69085711225f7fcc33e0fc3", "type": "electric_scooter", "bike_id": "84378a96e69085711225f7fcc33e0fc3", "rental_uris": {"ios": "https://dc.lft.to/lastmile_qr_scan", "android": "https://dc.lft.to/lastmile_qr_scan"}, "fusion_lat": 0.0}, {"lat": 38.90154666666667, "lon": -77.019131, "is_disabled": 0, "fusion_lon": 0.0, "is_reserved": 0, "name": "0a81c421d773c2bc59560204b7437ca3", "type": "electric_scooter", "bike_id": "0a81c421d773c2bc59560204b7437ca3", "rental_uris": {"ios": "https://dc.lft.to/lastmile_qr_scan", "android": "https://dc.lft.to/lastmile_qr_scan"}, "fusion_lat": 0.0}, {"lat": 38.8922505, "lon": -77.04198216666667, "is_disabled": 0, "fusion_lon": 0.0, "is_reserved": 0, "name": "46f44978b29866cbc28adb64727543da", "type": "electric_scooter", "bike_id": "46f44978b29866cbc28adb64727543da", "rental_uris": {"ios": "https://dc.lft.to/lastmile_qr_scan", "android": "https://dc.lft.to/lastmile_qr_scan"}, "fusion_lat": 0.0}, {"lat": 38.911142166666664, "lon": -77.04544133333333, "is_disabled": 0, "fusion_lon": 0.0, "is_reserved": 0, "name": "cbcef8c0a4b405088ea6aa7074cc3360", "type": "electric_scooter", "bike_id": "cbcef8c0a4b405088ea6aa7074cc3360", "rental_uris": {"ios": "https://dc.lft.to/lastmile_qr_scan", "android": "https://dc.lft.to/lastmile_qr_scan"}, "fusion_lat": 0.0}, {"lat": 38.909424, "lon": -76.99966866666666, "is_disabled": 0, "fusion_lon": 0.0, "is_reserved": 0, "name": "20363d855d90ec1ffbc40a5b0d620eea", "type": "electric_scooter", "bike_id": "20363d855d90ec1ffbc40a5b0d620eea", "rental_uris": {"ios": "https://dc.lft.to/lastmile_qr_scan", "android": "https://dc.lft.to/lastmile_qr_scan"}, "fusion_lat": 0.0}, {"lat": 38.89602433333334, "lon": -77.01336766666667, "is_disabled": 0, "fusion_lon": 0.0, "is_reserved": 0, "name": "6a3bd889784499830fe4f344887ab729", "type": "electric_scooter", "bike_id": "6a3bd889784499830fe4f344887ab729", "rental_uris": {"ios": "https://dc.lft.to/lastmile_qr_scan", "android": "https://dc.lft.to/lastmile_qr_scan"}, "fusion_lat": 0.0}, {"lat": 38.893491833333336, "lon": -76.9523045, "is_disabled": 0, "fusion_lon": 0.0, "is_reserved": 0, "name": "af8c4f02f21cde2255fd7d8ac3002056", "type": "electric_scooter", "bike_id": "af8c4f02f21cde2255fd7d8ac3002056", "rental_uris": {"ios": "https://dc.lft.to/lastmile_qr_scan", "android": "https://dc.lft.to/lastmile_qr_scan"}, "fusion_lat": 0.0}, {"lat": 38.871862666666665, "lon": -77.00643633333334, "is_disabled": 0, "fusion_lon": 0.0, "is_reserved": 0, "name": "cb179fa2786b8444789dedf2c94a8726", "type": "electric_scooter", "bike_id": "cb179fa2786b8444789dedf2c94a8726", "rental_uris": {"ios": "https://dc.lft.to/lastmile_qr_scan", "android": "https://dc.lft.to/lastmile_qr_scan"}, "fusion_lat": 0.0}, {"lat": 38.8766415, "lon": -77.00078233333333, "is_disabled": 0, "fusion_lon": 0.0, "is_reserved": 0, "name": "522ccb686d79f2acafff83253b5fa273", "type": "electric_scooter", "bike_id": "522ccb686d79f2acafff83253b5fa273", "rental_uris": {"ios": "https://dc.lft.to/lastmile_qr_scan", "android": "https://dc.lft.to/lastmile_qr_scan"}, "fusion_lat": 0.0}, {"lat": 38.90529083333333, "lon": -76.99836533333334, "is_disabled": 0, "fusion_lon": 0.0, "is_reserved": 0, "name": "07743b74d0ae1aa03810e028000ffa83", "type": "electric_bike", "bike_id": "07743b74d0ae1aa03810e028000ffa83", "rental_uris": {"ios": "https://dc.lft.to/lastmile_qr_scan", "android": "https://dc.lft.to/lastmile_qr_scan"}, "fusion_lat": 0.0}, {"lat": 38.902634, "lon": -77.03334283333334, "is_disabled": 0, "fusion_lon": 0.0, "is_reserved": 0, "name": "403e7eeb8a3503397cb2b28c6d3fb487", "type": "electric_scooter", "bike_id": "403e7eeb8a3503397cb2b28c6d3fb487", "rental_uris": {"ios": "https://dc.lft.to/lastmile_qr_scan", "android": "https://dc.lft.to/lastmile_qr_scan"}, "fusion_lat": 0.0}, {"lat": 38.904156666666665, "lon": -77.04478733333333, "is_disabled": 0, "fusion_lon": 0.0, "is_reserved": 0, "name": "90ea24cab1be0e608b482bc0dd5abfe6", "type": "electric_scooter", "bike_id": "90ea24cab1be0e608b482bc0dd5abfe6", "rental_uris": {"ios": "https://dc.lft.to/lastmile_qr_scan", "android": "https://dc.lft.to/lastmile_qr_scan"}, "fusion_lat": 0.0}, {"lat": 38.925552333333336, "lon": -77.000699, "is_disabled": 0, "fusion_lon": 0.0, "is_reserved": 0, "name": "761fdd5438e625233c2ee6c408da830d", "type": "electric_scooter", "bike_id": "761fdd5438e625233c2ee6c408da830d", "rental_uris": {"ios": "https://dc.lft.to/lastmile_qr_scan", "android": "https://dc.lft.to/lastmile_qr_scan"}, "fusion_lat": 0.0}, {"lat": 38.900531666666666, "lon": -76.98839383333333, "is_disabled": 0, "fusion_lon": 0.0, "is_reserved": 0, "name": "c045428a651196c19bc5b520ca70920d", "type": "electric_scooter", "bike_id": "c045428a651196c19bc5b520ca70920d", "rental_uris": {"ios": "https://dc.lft.to/lastmile_qr_scan", "android": "https://dc.lft.to/lastmile_qr_scan"}, "fusion_lat": 0.0}, {"lat": 38.89946333333333, "lon": -77.0315365, "is_disabled": 0, "fusion_lon": 0.0, "is_reserved": 0, "name": "6a972f77f7d99a6b54420cf8a0c9364c", "type": "electric_scooter", "bike_id": "6a972f77f7d99a6b54420cf8a0c9364c", "rental_uris": {"ios": "https://dc.lft.to/lastmile_qr_scan", "android": "https://dc.lft.to/lastmile_qr_scan"}, "fusion_lat": 0.0}, {"lat": 38.97218066666667, "lon": -77.033377, "is_disabled": 0, "fusion_lon": 0.0, "is_reserved": 0, "name": "b6a2784d9c3ed5545253ea0c7f1dbb66", "type": "electric_scooter", "bike_id": "b6a2784d9c3ed5545253ea0c7f1dbb66", "rental_uris": {"ios": "https://dc.lft.to/lastmile_qr_scan", "android": "https://dc.lft.to/lastmile_qr_scan"}, "fusion_lat": 0.0}, {"lat": 38.92116016666667, "lon": -77.03262516666666, "is_disabled": 0, "fusion_lon": 0.0, "is_reserved": 0, "name": "1496f2e2c413a079afbeb8946805b092", "type": "electric_scooter", "bike_id": "1496f2e2c413a079afbeb8946805b092", "rental_uris": {"ios": "https://dc.lft.to/lastmile_qr_scan", "android": "https://dc.lft.to/lastmile_qr_scan"}, "fusion_lat": 0.0}, {"lat": 38.922541333333335, "lon": -77.0307005, "is_disabled": 0, "fusion_lon": 0.0, "is_reserved": 0, "name": "5cd20a6e941f901828ee06d0aa239d5e", "type": "electric_scooter", "bike_id": "5cd20a6e941f901828ee06d0aa239d5e", "rental_uris": {"ios": "https://dc.lft.to/lastmile_qr_scan", "android": "https://dc.lft.to/lastmile_qr_scan"}, "fusion_lat": 0.0}, {"lat": 38.91864433333333, "lon": -77.03498533333334, "is_disabled": 0, "fusion_lon": 0.0, "is_reserved": 0, "name": "2569861f9116db7462bd7f90d0b06ec8", "type": "electric_scooter", "bike_id": "2569861f9116db7462bd7f90d0b06ec8", "rental_uris": {"ios": "https://dc.lft.to/lastmile_qr_scan", "android": "https://dc.lft.to/lastmile_qr_scan"}, "fusion_lat": 0.0}, {"lat": 38.906965, "lon": -77.06342533333333, "is_disabled": 0, "fusion_lon": 0.0, "is_reserved": 0, "name": "b61d37db02321c31b8ecd4c225a5c798", "type": "electric_scooter", "bike_id": "b61d37db02321c31b8ecd4c225a5c798", "rental_uris": {"ios": "https://dc.lft.to/lastmile_qr_scan", "android": "https://dc.lft.to/lastmile_qr_scan"}, "fusion_lat": 0.0}, {"lat": 38.89473383333333, "lon": -77.022492, "is_disabled": 0, "fusion_lon": 0.0, "is_reserved": 0, "name": "fbf9823ab6eb85a5f17b8ea8af0c529d", "type": "electric_scooter", "bike_id": "fbf9823ab6eb85a5f17b8ea8af0c529d", "rental_uris": {"ios": "https://dc.lft.to/lastmile_qr_scan", "android": "https://dc.lft.to/lastmile_qr_scan"}, "fusion_lat": 0.0}, {"lat": 38.92332416666667, "lon": -77.0195585, "is_disabled": 0, "fusion_lon": 0.0, "is_reserved": 0, "name": "8dc4307b555ca00b6b5b0ed70a6e9217", "type": "electric_scooter", "bike_id": "8dc4307b555ca00b6b5b0ed70a6e9217", "rental_uris": {"ios": "https://dc.lft.to/lastmile_qr_scan", "android": "https://dc.lft.to/lastmile_qr_scan"}, "fusion_lat": 0.0}, {"lat": 38.90138366666667, "lon": -77.04387083333333, "is_disabled": 0, "fusion_lon": 0.0, "is_reserved": 0, "name": "8be8c2594467cd9df28343166f1e9099", "type": "electric_scooter", "bike_id": "8be8c2594467cd9df28343166f1e9099", "rental_uris": {"ios": "https://dc.lft.to/lastmile_qr_scan", "android": "https://dc.lft.to/lastmile_qr_scan"}, "fusion_lat": 0.0}, {"lat": 38.89233133333333, "lon": -77.02758933333334, "is_disabled": 0, "fusion_lon": 0.0, "is_reserved": 0, "name": "8d0d7caea7ccde380f3efed72c2df3b4", "type": "electric_scooter", "bike_id": "8d0d7caea7ccde380f3efed72c2df3b4", "rental_uris": {"ios": "https://dc.lft.to/lastmile_qr_scan", "android": "https://dc.lft.to/lastmile_qr_scan"}, "fusion_lat": 0.0}, {"lat": 38.92346216666667, "lon": -77.051775, "is_disabled": 0, "fusion_lon": 0.0, "is_reserved": 0, "name": "0d05772b4bebd301437ac4be7d3aaaa1", "type": "electric_scooter", "bike_id": "0d05772b4bebd301437ac4be7d3aaaa1", "rental_uris": {"ios": "https://dc.lft.to/lastmile_qr_scan", "android": "https://dc.lft.to/lastmile_qr_scan"}, "fusion_lat": 0.0}, {"lat": 38.901463, "lon": -77.0442355, "is_disabled": 0, "fusion_lon": 0.0, "is_reserved": 0, "name": "931ba5ea44228f568e999afeff06d52a", "type": "electric_scooter", "bike_id": "931ba5ea44228f568e999afeff06d52a", "rental_uris": {"ios": "https://dc.lft.to/lastmile_qr_scan", "android": "https://dc.lft.to/lastmile_qr_scan"}, "fusion_lat": 0.0}, {"lat": 38.90506216666667, "lon": -77.05801883333334, "is_disabled": 0, "fusion_lon": 0.0, "is_reserved": 0, "name": "fe90e3e67e1eb0597fa72a411d5a4af3", "type": "electric_scooter", "bike_id": "fe90e3e67e1eb0597fa72a411d5a4af3", "rental_uris": {"ios": "https://dc.lft.to/lastmile_qr_scan", "android": "https://dc.lft.to/lastmile_qr_scan"}, "fusion_lat": 0.0}, {"lat": 38.9128025, "lon": -76.98686166666667, "is_disabled": 0, "fusion_lon": 0.0, "is_reserved": 0, "name": "5ed67fa67d15a60136dcce93c790e8b1", "type": "electric_scooter", "bike_id": "5ed67fa67d15a60136dcce93c790e8b1", "rental_uris": {"ios": "https://dc.lft.to/lastmile_qr_scan", "android": "https://dc.lft.to/lastmile_qr_scan"}, "fusion_lat": 0.0}, {"lat": 38.91479533333333, "lon": -77.0461535, "is_disabled": 0, "fusion_lon": 0.0, "is_reserved": 0, "name": "1fe29994685107a3e104cf72d618a4a4", "type": "electric_scooter", "bike_id": "1fe29994685107a3e104cf72d618a4a4", "rental_uris": {"ios": "https://dc.lft.to/lastmile_qr_scan", "android": "https://dc.lft.to/lastmile_qr_scan"}, "fusion_lat": 0.0}, {"lat": 38.896553, "lon": -77.00924183333333, "is_disabled": 0, "fusion_lon": 0.0, "is_reserved": 0, "name": "85937cd9d28389447d4cb4b1e7750ce7", "type": "electric_scooter", "bike_id": "85937cd9d28389447d4cb4b1e7750ce7", "rental_uris": {"ios": "https://dc.lft.to/lastmile_qr_scan", "android": "https://dc.lft.to/lastmile_qr_scan"}, "fusion_lat": 0.0}, {"lat": 38.93924583333333, "lon": -77.02491366666666, "is_disabled": 0, "fusion_lon": 0.0, "is_reserved": 0, "name": "86c5782152abbaf47bb5f8e5777b04c8", "type": "electric_scooter", "bike_id": "86c5782152abbaf47bb5f8e5777b04c8", "rental_uris": {"ios": "https://dc.lft.to/lastmile_qr_scan", "android": "https://dc.lft.to/lastmile_qr_scan"}, "fusion_lat": 0.0}, {"lat": 38.9064595, "lon": -77.005898, "is_disabled": 0, "fusion_lon": 0.0, "is_reserved": 0, "name": "85620f2b70792d9af7e2e662dc4560b9", "type": "electric_scooter", "bike_id": "85620f2b70792d9af7e2e662dc4560b9", "rental_uris": {"ios": "https://dc.lft.to/lastmile_qr_scan", "android": "https://dc.lft.to/lastmile_qr_scan"}, "fusion_lat": 0.0}, {"lat": 38.901037333333335, "lon": -76.99385733333334, "is_disabled": 0, "fusion_lon": 0.0, "is_reserved": 0, "name": "e6a7d9b7ce92d6eb3172e69ba3848f4c", "type": "electric_scooter", "bike_id": "e6a7d9b7ce92d6eb3172e69ba3848f4c", "rental_uris": {"ios": "https://dc.lft.to/lastmile_qr_scan", "android": "https://dc.lft.to/lastmile_qr_scan"}, "fusion_lat": 0.0}, {"lat": 38.9289515, "lon": -77.03253066666667, "is_disabled": 0, "fusion_lon": 0.0, "is_reserved": 0, "name": "52b4dbe4623246e6e60e71198d674fa5", "type": "electric_scooter", "bike_id": "52b4dbe4623246e6e60e71198d674fa5", "rental_uris": {"ios": "https://dc.lft.to/lastmile_qr_scan", "android": "https://dc.lft.to/lastmile_qr_scan"}, "fusion_lat": 0.0}, {"lat": 38.902794166666666, "lon": -77.0347615, "is_disabled": 0, "fusion_lon": 0.0, "is_reserved": 0, "name": "092889d2fe2ce9d371cad5df24d0523c", "type": "electric_scooter", "bike_id": "092889d2fe2ce9d371cad5df24d0523c", "rental_uris": {"ios": "https://dc.lft.to/lastmile_qr_scan", "android": "https://dc.lft.to/lastmile_qr_scan"}, "fusion_lat": 0.0}, {"lat": 38.901311, "lon": -77.0165345, "is_disabled": 0, "fusion_lon": 0.0, "is_reserved": 0, "name": "f0b0c49dcaa9869a6b954b78710aacbc", "type": "electric_scooter", "bike_id": "f0b0c49dcaa9869a6b954b78710aacbc", "rental_uris": {"ios": "https://dc.lft.to/lastmile_qr_scan", "android": "https://dc.lft.to/lastmile_qr_scan"}, "fusion_lat": 0.0}, {"lat": 38.895331166666665, "lon": -77.024354, "is_disabled": 0, "fusion_lon": 0.0, "is_reserved": 0, "name": "fd96d7cb24c1db2b64663590544675e8", "type": "electric_scooter", "bike_id": "fd96d7cb24c1db2b64663590544675e8", "rental_uris": {"ios": "https://dc.lft.to/lastmile_qr_scan", "android": "https://dc.lft.to/lastmile_qr_scan"}, "fusion_lat": 0.0}, {"lat": 38.9241955, "lon": -77.06524766666666, "is_disabled": 0, "fusion_lon": 0.0, "is_reserved": 0, "name": "2c578f384f8c56f003e12eea18f6f3b7", "type": "electric_scooter", "bike_id": "2c578f384f8c56f003e12eea18f6f3b7", "rental_uris": {"ios": "https://dc.lft.to/lastmile_qr_scan", "android": "https://dc.lft.to/lastmile_qr_scan"}, "fusion_lat": 0.0}, {"lat": 38.9296295, "lon": -77.22575266666666, "is_disabled": 0, "fusion_lon": 0.0, "is_reserved": 0, "name": "e7ce409e6936b00595c8e4ea7f0439d3", "type": "electric_bike", "bike_id": "e7ce409e6936b00595c8e4ea7f0439d3", "rental_uris": {"ios": "https://dc.lft.to/lastmile_qr_scan", "android": "https://dc.lft.to/lastmile_qr_scan"}, "fusion_lat": 0.0}, {"lat": 38.87400616666667, "lon": -77.01454066666666, "is_disabled": 0, "fusion_lon": 0.0, "is_reserved": 0, "name": "23e58650a24d49bb76fa2e5735e64465", "type": "electric_scooter", "bike_id": "23e58650a24d49bb76fa2e5735e64465", "rental_uris": {"ios": "https://dc.lft.to/lastmile_qr_scan", "android": "https://dc.lft.to/lastmile_qr_scan"}, "fusion_lat": 0.0}, {"lat": 38.925428, "lon": -77.03381966666667, "is_disabled": 0, "fusion_lon": 0.0, "is_reserved": 0, "name": "ac284ab1946d98bd1d7d68dfeb4f41b6", "type": "electric_scooter", "bike_id": "ac284ab1946d98bd1d7d68dfeb4f41b6", "rental_uris": {"ios": "https://dc.lft.to/lastmile_qr_scan", "android": "https://dc.lft.to/lastmile_qr_scan"}, "fusion_lat": 0.0}, {"lat": 38.8843475, "lon": -77.02586883333333, "is_disabled": 0, "fusion_lon": 0.0, "is_reserved": 0, "name": "5842bfb66eb6020e917ed1fcc7cf13e4", "type": "electric_scooter", "bike_id": "5842bfb66eb6020e917ed1fcc7cf13e4", "rental_uris": {"ios": "https://dc.lft.to/lastmile_qr_scan", "android": "https://dc.lft.to/lastmile_qr_scan"}, "fusion_lat": 0.0}, {"lat": 38.936327, "lon": -77.081665, "is_disabled": 0, "fusion_lon": 0.0, "is_reserved": 0, "name": "471484e1a6b624be76bf51335db4fba9", "type": "electric_scooter", "bike_id": "471484e1a6b624be76bf51335db4fba9", "rental_uris": {"ios": "https://dc.lft.to/lastmile_qr_scan", "android": "https://dc.lft.to/lastmile_qr_scan"}, "fusion_lat": 0.0}, {"lat": 38.90993433333333, "lon": -77.0319475, "is_disabled": 0, "fusion_lon": 0.0, "is_reserved": 0, "name": "cd20f2e071a769faa51e3fee3dc1d3ee", "type": "electric_scooter", "bike_id": "cd20f2e071a769faa51e3fee3dc1d3ee", "rental_uris": {"ios": "https://dc.lft.to/lastmile_qr_scan", "android": "https://dc.lft.to/lastmile_qr_scan"}, "fusion_lat": 0.0}, {"lat": 38.9002335, "lon": -77.00538066666667, "is_disabled": 0, "fusion_lon": 0.0, "is_reserved": 0, "name": "79229b9307940326043c9fcae9d9a9a9", "type": "electric_scooter", "bike_id": "79229b9307940326043c9fcae9d9a9a9", "rental_uris": {"ios": "https://dc.lft.to/lastmile_qr_scan", "android": "https://dc.lft.to/lastmile_qr_scan"}, "fusion_lat": 0.0}, {"lat": 38.8974595, "lon": -77.00929033333334, "is_disabled": 0, "fusion_lon": 0.0, "is_reserved": 0, "name": "6a2f74b45959340c03e9fe8e95302dff", "type": "electric_scooter", "bike_id": "6a2f74b45959340c03e9fe8e95302dff", "rental_uris": {"ios": "https://dc.lft.to/lastmile_qr_scan", "android": "https://dc.lft.to/lastmile_qr_scan"}, "fusion_lat": 0.0}, {"lat": 38.90084316666667, "lon": -77.02724533333334, "is_disabled": 0, "fusion_lon": 0.0, "is_reserved": 0, "name": "62f85598320397938efd3e89746d2027", "type": "electric_scooter", "bike_id": "62f85598320397938efd3e89746d2027", "rental_uris": {"ios": "https://dc.lft.to/lastmile_qr_scan", "android": "https://dc.lft.to/lastmile_qr_scan"}, "fusion_lat": 0.0}, {"lat": 38.964498, "lon": -77.02240083333334, "is_disabled": 0, "fusion_lon": 0.0, "is_reserved": 0, "name": "f0ee386cfbfd6525a428788550dc1919", "type": "electric_bike", "bike_id": "f0ee386cfbfd6525a428788550dc1919", "rental_uris": {"ios": "https://dc.lft.to/lastmile_qr_scan", "android": "https://dc.lft.to/lastmile_qr_scan"}, "fusion_lat": 0.0}, {"lat": 38.902682, "lon": -77.03435466666667, "is_disabled": 0, "fusion_lon": 0.0, "is_reserved": 0, "name": "178aeac0cbc49aca00cd5d6f56555c21", "type": "electric_scooter", "bike_id": "178aeac0cbc49aca00cd5d6f56555c21", "rental_uris": {"ios": "https://dc.lft.to/lastmile_qr_scan", "android": "https://dc.lft.to/lastmile_qr_scan"}, "fusion_lat": 0.0}, {"lat": 38.9233875, "lon": -77.04621516666667, "is_disabled": 0, "fusion_lon": 0.0, "is_reserved": 0, "name": "78177053df3159b107bea776c8cf18b4", "type": "electric_scooter", "bike_id": "78177053df3159b107bea776c8cf18b4", "rental_uris": {"ios": "https://dc.lft.to/lastmile_qr_scan", "android": "https://dc.lft.to/lastmile_qr_scan"}, "fusion_lat": 0.0}, {"lat": 38.920780666666666, "lon": -77.02073216666666, "is_disabled": 0, "fusion_lon": 0.0, "is_reserved": 0, "name": "c5a81b6476e28976f34e8bcc431422cb", "type": "electric_scooter", "bike_id": "c5a81b6476e28976f34e8bcc431422cb", "rental_uris": {"ios": "https://dc.lft.to/lastmile_qr_scan", "android": "https://dc.lft.to/lastmile_qr_scan"}, "fusion_lat": 0.0}, {"lat": 38.8682725, "lon": -77.00983233333334, "is_disabled": 0, "fusion_lon": 0.0, "is_reserved": 0, "name": "b2ff031486e3c3333d33c1bf6dfe4662", "type": "electric_scooter", "bike_id": "b2ff031486e3c3333d33c1bf6dfe4662", "rental_uris": {"ios": "https://dc.lft.to/lastmile_qr_scan", "android": "https://dc.lft.to/lastmile_qr_scan"}, "fusion_lat": 0.0}, {"lat": 38.90726016666667, "lon": -77.035496, "is_disabled": 0, "fusion_lon": 0.0, "is_reserved": 0, "name": "f62b594e09472aefbe0b18b815cdad26", "type": "electric_scooter", "bike_id": "f62b594e09472aefbe0b18b815cdad26", "rental_uris": {"ios": "https://dc.lft.to/lastmile_qr_scan", "android": "https://dc.lft.to/lastmile_qr_scan"}, "fusion_lat": 0.0}, {"lat": 38.866670666666664, "lon": -76.98903166666666, "is_disabled": 0, "fusion_lon": 0.0, "is_reserved": 0, "name": "17573dab08c5934da07289243e84f413", "type": "electric_scooter", "bike_id": "17573dab08c5934da07289243e84f413", "rental_uris": {"ios": "https://dc.lft.to/lastmile_qr_scan", "android": "https://dc.lft.to/lastmile_qr_scan"}, "fusion_lat": 0.0}, {"lat": 38.899362833333335, "lon": -77.039982, "is_disabled": 0, "fusion_lon": 0.0, "is_reserved": 0, "name": "6ec1f18e9b64917df1f6936fbf8faa8b", "type": "electric_scooter", "bike_id": "6ec1f18e9b64917df1f6936fbf8faa8b", "rental_uris": {"ios": "https://dc.lft.to/lastmile_qr_scan", "android": "https://dc.lft.to/lastmile_qr_scan"}, "fusion_lat": 0.0}, {"lat": 38.87344616666667, "lon": -77.00059083333333, "is_disabled": 0, "fusion_lon": 0.0, "is_reserved": 0, "name": "0082039e8fbefff65ee99d98351cd923", "type": "electric_scooter", "bike_id": "0082039e8fbefff65ee99d98351cd923", "rental_uris": {"ios": "https://dc.lft.to/lastmile_qr_scan", "android": "https://dc.lft.to/lastmile_qr_scan"}, "fusion_lat": 0.0}, {"lat": 38.86200566666667, "lon": -77.07607166666666, "is_disabled": 0, "fusion_lon": 0.0, "is_reserved": 0, "name": "3386d72f7a91845375bcac7f86ad13b2", "type": "electric_bike", "bike_id": "3386d72f7a91845375bcac7f86ad13b2", "rental_uris": {"ios": "https://dc.lft.to/lastmile_qr_scan", "android": "https://dc.lft.to/lastmile_qr_scan"}, "fusion_lat": 0.0}, {"lat": 38.898028, "lon": -77.02198033333333, "is_disabled": 0, "fusion_lon": 0.0, "is_reserved": 0, "name": "a4e273b315ba23222f95e04d0db83300", "type": "electric_scooter", "bike_id": "a4e273b315ba23222f95e04d0db83300", "rental_uris": {"ios": "https://dc.lft.to/lastmile_qr_scan", "android": "https://dc.lft.to/lastmile_qr_scan"}, "fusion_lat": 0.0}, {"lat": 38.90369, "lon": -77.039985, "is_disabled": 0, "fusion_lon": 0.0, "is_reserved": 0, "name": "a6ce311d619a744da6988815a650e5a3", "type": "electric_scooter", "bike_id": "a6ce311d619a744da6988815a650e5a3", "rental_uris": {"ios": "https://dc.lft.to/lastmile_qr_scan", "android": "https://dc.lft.to/lastmile_qr_scan"}, "fusion_lat": 0.0}, {"lat": 38.92905366666667, "lon": -77.01643, "is_disabled": 0, "fusion_lon": 0.0, "is_reserved": 0, "name": "22211e287fdf49814b015d9dbe2cc8b4", "type": "electric_scooter", "bike_id": "22211e287fdf49814b015d9dbe2cc8b4", "rental_uris": {"ios": "https://dc.lft.to/lastmile_qr_scan", "android": "https://dc.lft.to/lastmile_qr_scan"}, "fusion_lat": 0.0}, {"lat": 38.90271883333333, "lon": -77.02778583333334, "is_disabled": 0, "fusion_lon": 0.0, "is_reserved": 0, "name": "e2c2e3d7a5f6032b4ae0b35ce0fc3c73", "type": "electric_scooter", "bike_id": "e2c2e3d7a5f6032b4ae0b35ce0fc3c73", "rental_uris": {"ios": "https://dc.lft.to/lastmile_qr_scan", "android": "https://dc.lft.to/lastmile_qr_scan"}, "fusion_lat": 0.0}, {"lat": 38.89837933333333, "lon": -77.00764, "is_disabled": 0, "fusion_lon": 0.0, "is_reserved": 0, "name": "178967bdc00dd86b2e7c917f7c02e270", "type": "electric_scooter", "bike_id": "178967bdc00dd86b2e7c917f7c02e270", "rental_uris": {"ios": "https://dc.lft.to/lastmile_qr_scan", "android": "https://dc.lft.to/lastmile_qr_scan"}, "fusion_lat": 0.0}, {"lat": 38.89552616666667, "lon": -77.00919783333333, "is_disabled": 0, "fusion_lon": 0.0, "is_reserved": 0, "name": "f37d982024b3ef0eabca9c8387fac4ce", "type": "electric_scooter", "bike_id": "f37d982024b3ef0eabca9c8387fac4ce", "rental_uris": {"ios": "https://dc.lft.to/lastmile_qr_scan", "android": "https://dc.lft.to/lastmile_qr_scan"}, "fusion_lat": 0.0}, {"lat": 38.898261, "lon": -77.030278, "is_disabled": 0, "fusion_lon": 0.0, "is_reserved": 0, "name": "7fe187b9c38ceb97a9638016f960ae76", "type": "electric_scooter", "bike_id": "7fe187b9c38ceb97a9638016f960ae76", "rental_uris": {"ios": "https://dc.lft.to/lastmile_qr_scan", "android": "https://dc.lft.to/lastmile_qr_scan"}, "fusion_lat": 0.0}, {"lat": 38.89715183333333, "lon": -77.02700266666666, "is_disabled": 0, "fusion_lon": 0.0, "is_reserved": 0, "name": "9eb5800bf4fe0605bc6fa661743d58bf", "type": "electric_scooter", "bike_id": "9eb5800bf4fe0605bc6fa661743d58bf", "rental_uris": {"ios": "https://dc.lft.to/lastmile_qr_scan", "android": "https://dc.lft.to/lastmile_qr_scan"}, "fusion_lat": 0.0}, {"lat": 38.918234166666664, "lon": -77.041795, "is_disabled": 0, "fusion_lon": 0.0, "is_reserved": 0, "name": "167bb4782788f5782619c55c04e6b3e2", "type": "electric_scooter", "bike_id": "167bb4782788f5782619c55c04e6b3e2", "rental_uris": {"ios": "https://dc.lft.to/lastmile_qr_scan", "android": "https://dc.lft.to/lastmile_qr_scan"}, "fusion_lat": 0.0}, {"lat": 38.921131333333335, "lon": -77.04119583333333, "is_disabled": 0, "fusion_lon": 0.0, "is_reserved": 0, "name": "5d3b8f82e2ef579e4c84be3223ba57e8", "type": "electric_scooter", "bike_id": "5d3b8f82e2ef579e4c84be3223ba57e8", "rental_uris": {"ios": "https://dc.lft.to/lastmile_qr_scan", "android": "https://dc.lft.to/lastmile_qr_scan"}, "fusion_lat": 0.0}, {"lat": 38.900354666666665, "lon": -77.04287683333334, "is_disabled": 0, "fusion_lon": 0.0, "is_reserved": 0, "name": "ed8834f4b2bfb4782efdd86c0dcf65c2", "type": "electric_bike", "bike_id": "ed8834f4b2bfb4782efdd86c0dcf65c2", "rental_uris": {"ios": "https://dc.lft.to/lastmile_qr_scan", "android": "https://dc.lft.to/lastmile_qr_scan"}, "fusion_lat": 0.0}, {"lat": 38.924677333333335, "lon": -77.02153516666667, "is_disabled": 0, "fusion_lon": 0.0, "is_reserved": 0, "name": "10ef99c0968d5b0e3b649b961a752a89", "type": "electric_scooter", "bike_id": "10ef99c0968d5b0e3b649b961a752a89", "rental_uris": {"ios": "https://dc.lft.to/lastmile_qr_scan", "android": "https://dc.lft.to/lastmile_qr_scan"}, "fusion_lat": 0.0}, {"lat": 38.90735166666666, "lon": -77.00955566666667, "is_disabled": 0, "fusion_lon": 0.0, "is_reserved": 0, "name": "67c2430bf94e6d35b0d4664ac87436a5", "type": "electric_scooter", "bike_id": "67c2430bf94e6d35b0d4664ac87436a5", "rental_uris": {"ios": "https://dc.lft.to/lastmile_qr_scan", "android": "https://dc.lft.to/lastmile_qr_scan"}, "fusion_lat": 0.0}, {"lat": 38.87694466666667, "lon": -77.0035475, "is_disabled": 0, "fusion_lon": 0.0, "is_reserved": 0, "name": "2a28bfbeeecc4da67410e2e367c40625", "type": "electric_scooter", "bike_id": "2a28bfbeeecc4da67410e2e367c40625", "rental_uris": {"ios": "https://dc.lft.to/lastmile_qr_scan", "android": "https://dc.lft.to/lastmile_qr_scan"}, "fusion_lat": 0.0}, {"lat": 38.928960333333336, "lon": -77.05808883333333, "is_disabled": 0, "fusion_lon": 0.0, "is_reserved": 0, "name": "98e43589f1ac71c34e7d537c0e5fc6c2", "type": "electric_scooter", "bike_id": "98e43589f1ac71c34e7d537c0e5fc6c2", "rental_uris": {"ios": "https://dc.lft.to/lastmile_qr_scan", "android": "https://dc.lft.to/lastmile_qr_scan"}, "fusion_lat": 0.0}, {"lat": 38.93384133333333, "lon": -77.02965683333333, "is_disabled": 0, "fusion_lon": 0.0, "is_reserved": 0, "name": "3fa465ec1d0e91b9442bd4a8a7ecf44a", "type": "electric_scooter", "bike_id": "3fa465ec1d0e91b9442bd4a8a7ecf44a", "rental_uris": {"ios": "https://dc.lft.to/lastmile_qr_scan", "android": "https://dc.lft.to/lastmile_qr_scan"}, "fusion_lat": 0.0}, {"lat": 38.85522, "lon": -76.98431666666667, "is_disabled": 0, "fusion_lon": 0.0, "is_reserved": 0, "name": "8a7ac29586db0f5c961f69e252a2f6a4", "type": "electric_bike", "bike_id": "8a7ac29586db0f5c961f69e252a2f6a4", "rental_uris": {"ios": "https://dc.lft.to/lastmile_qr_scan", "android": "https://dc.lft.to/lastmile_qr_scan"}, "fusion_lat": 0.0}, {"lat": 38.905286333333336, "lon": -77.0485095, "is_disabled": 0, "fusion_lon": 0.0, "is_reserved": 0, "name": "a0191606aa38f32fae22f8565233eb00", "type": "electric_scooter", "bike_id": "a0191606aa38f32fae22f8565233eb00", "rental_uris": {"ios": "https://dc.lft.to/lastmile_qr_scan", "android": "https://dc.lft.to/lastmile_qr_scan"}, "fusion_lat": 0.0}, {"lat": 38.90159, "lon": -77.0505965, "is_disabled": 0, "fusion_lon": 0.0, "is_reserved": 0, "name": "f1503453d82d07110a78c56687ee2150", "type": "electric_scooter", "bike_id": "f1503453d82d07110a78c56687ee2150", "rental_uris": {"ios": "https://dc.lft.to/lastmile_qr_scan", "android": "https://dc.lft.to/lastmile_qr_scan"}, "fusion_lat": 0.0}, {"lat": 38.89831233333334, "lon": -77.02388266666667, "is_disabled": 0, "fusion_lon": 0.0, "is_reserved": 0, "name": "90da3bbe1f5ce3723e559e15bef617d4", "type": "electric_scooter", "bike_id": "90da3bbe1f5ce3723e559e15bef617d4", "rental_uris": {"ios": "https://dc.lft.to/lastmile_qr_scan", "android": "https://dc.lft.to/lastmile_qr_scan"}, "fusion_lat": 0.0}, {"lat": 38.8875175, "lon": -77.021274, "is_disabled": 0, "fusion_lon": 0.0, "is_reserved": 0, "name": "2ec6da58f65508946da38f43507092a3", "type": "electric_scooter", "bike_id": "2ec6da58f65508946da38f43507092a3", "rental_uris": {"ios": "https://dc.lft.to/lastmile_qr_scan", "android": "https://dc.lft.to/lastmile_qr_scan"}, "fusion_lat": 0.0}, {"lat": 38.92460483333333, "lon": -76.997335, "is_disabled": 0, "fusion_lon": 0.0, "is_reserved": 0, "name": "387028e3d3b28a2a1fbf620b37fa1ef3", "type": "electric_scooter", "bike_id": "387028e3d3b28a2a1fbf620b37fa1ef3", "rental_uris": {"ios": "https://dc.lft.to/lastmile_qr_scan", "android": "https://dc.lft.to/lastmile_qr_scan"}, "fusion_lat": 0.0}, {"lat": 38.90973016666667, "lon": -77.05194066666667, "is_disabled": 0, "fusion_lon": 0.0, "is_reserved": 0, "name": "fe092b8f68fb59c1f47667777b74dd1e", "type": "electric_scooter", "bike_id": "fe092b8f68fb59c1f47667777b74dd1e", "rental_uris": {"ios": "https://dc.lft.to/lastmile_qr_scan", "android": "https://dc.lft.to/lastmile_qr_scan"}, "fusion_lat": 0.0}, {"lat": 38.97356166666667, "lon": -77.02785816666666, "is_disabled": 0, "fusion_lon": 0.0, "is_reserved": 0, "name": "23149d020daf8501092d4c14aff275f4", "type": "electric_scooter", "bike_id": "23149d020daf8501092d4c14aff275f4", "rental_uris": {"ios": "https://dc.lft.to/lastmile_qr_scan", "android": "https://dc.lft.to/lastmile_qr_scan"}, "fusion_lat": 0.0}, {"lat": 38.8419745, "lon": -77.0675725, "is_disabled": 0, "fusion_lon": 0.0, "is_reserved": 0, "name": "cb60b64b8d6ffc260b2e957db6f34c2f", "type": "electric_bike", "bike_id": "cb60b64b8d6ffc260b2e957db6f34c2f", "rental_uris": {"ios": "https://dc.lft.to/lastmile_qr_scan", "android": "https://dc.lft.to/lastmile_qr_scan"}, "fusion_lat": 0.0}, {"lat": 38.863974166666665, "lon": -77.20112033333334, "is_disabled": 0, "fusion_lon": 0.0, "is_reserved": 0, "name": "4d3ed188dc6bbaca4106d468ed518fcc", "type": "electric_bike", "bike_id": "4d3ed188dc6bbaca4106d468ed518fcc", "rental_uris": {"ios": "https://dc.lft.to/lastmile_qr_scan", "android": "https://dc.lft.to/lastmile_qr_scan"}, "fusion_lat": 0.0}, {"lat": 38.89826016666667, "lon": -76.94653116666667, "is_disabled": 0, "fusion_lon": 0.0, "is_reserved": 0, "name": "b84e80ee32549dab98b85fc42bafcbc7", "type": "electric_scooter", "bike_id": "b84e80ee32549dab98b85fc42bafcbc7", "rental_uris": {"ios": "https://dc.lft.to/lastmile_qr_scan", "android": "https://dc.lft.to/lastmile_qr_scan"}, "fusion_lat": 0.0}, {"lat": 38.907419, "lon": -77.05718866666666, "is_disabled": 0, "fusion_lon": 0.0, "is_reserved": 0, "name": "e4a859c08eb91ed202eec440c7d5ca79", "type": "electric_scooter", "bike_id": "e4a859c08eb91ed202eec440c7d5ca79", "rental_uris": {"ios": "https://dc.lft.to/lastmile_qr_scan", "android": "https://dc.lft.to/lastmile_qr_scan"}, "fusion_lat": 0.0}, {"lat": 38.893626833333336, "lon": -77.0034415, "is_disabled": 0, "fusion_lon": 0.0, "is_reserved": 0, "name": "8ae5323f8267bc2b053e0d2c444ad5eb", "type": "electric_scooter", "bike_id": "8ae5323f8267bc2b053e0d2c444ad5eb", "rental_uris": {"ios": "https://dc.lft.to/lastmile_qr_scan", "android": "https://dc.lft.to/lastmile_qr_scan"}, "fusion_lat": 0.0}, {"lat": 38.918031166666665, "lon": -77.02484716666666, "is_disabled": 0, "fusion_lon": 0.0, "is_reserved": 0, "name": "d6e6157d8dfdadc5d90cda76985f5d05", "type": "electric_scooter", "bike_id": "d6e6157d8dfdadc5d90cda76985f5d05", "rental_uris": {"ios": "https://dc.lft.to/lastmile_qr_scan", "android": "https://dc.lft.to/lastmile_qr_scan"}, "fusion_lat": 0.0}, {"lat": 38.916028, "lon": -77.01444833333333, "is_disabled": 0, "fusion_lon": 0.0, "is_reserved": 0, "name": "ed16a5b4660fc517ed693cad39f00c17", "type": "electric_scooter", "bike_id": "ed16a5b4660fc517ed693cad39f00c17", "rental_uris": {"ios": "https://dc.lft.to/lastmile_qr_scan", "android": "https://dc.lft.to/lastmile_qr_scan"}, "fusion_lat": 0.0}, {"lat": 38.87673366666667, "lon": -77.00310066666667, "is_disabled": 0, "fusion_lon": 0.0, "is_reserved": 0, "name": "99c854179e52447fc7bf9c27007dd1ab", "type": "electric_scooter", "bike_id": "99c854179e52447fc7bf9c27007dd1ab", "rental_uris": {"ios": "https://dc.lft.to/lastmile_qr_scan", "android": "https://dc.lft.to/lastmile_qr_scan"}, "fusion_lat": 0.0}, {"lat": 38.92151583333333, "lon": -77.02412233333334, "is_disabled": 0, "fusion_lon": 0.0, "is_reserved": 0, "name": "7d91cbe1a87be31f375257bde618c43a", "type": "electric_scooter", "bike_id": "7d91cbe1a87be31f375257bde618c43a", "rental_uris": {"ios": "https://dc.lft.to/lastmile_qr_scan", "android": "https://dc.lft.to/lastmile_qr_scan"}, "fusion_lat": 0.0}, {"lat": 38.996899166666665, "lon": -77.025461, "is_disabled": 0, "fusion_lon": 0.0, "is_reserved": 0, "name": "36866db26a351b1f004a3f02c389525e", "type": "electric_bike", "bike_id": "36866db26a351b1f004a3f02c389525e", "rental_uris": {"ios": "https://dc.lft.to/lastmile_qr_scan", "android": "https://dc.lft.to/lastmile_qr_scan"}, "fusion_lat": 0.0}, {"lat": 38.905871833333336, "lon": -77.0080935, "is_disabled": 0, "fusion_lon": 0.0, "is_reserved": 0, "name": "01e5fb03dd6befa921acfc103a2a20cf", "type": "electric_scooter", "bike_id": "01e5fb03dd6befa921acfc103a2a20cf", "rental_uris": {"ios": "https://dc.lft.to/lastmile_qr_scan", "android": "https://dc.lft.to/lastmile_qr_scan"}, "fusion_lat": 0.0}, {"lat": 38.89736466666667, "lon": -77.0329555, "is_disabled": 0, "fusion_lon": 0.0, "is_reserved": 0, "name": "332c5d4f43a94105f2323b91fe531c9a", "type": "electric_scooter", "bike_id": "332c5d4f43a94105f2323b91fe531c9a", "rental_uris": {"ios": "https://dc.lft.to/lastmile_qr_scan", "android": "https://dc.lft.to/lastmile_qr_scan"}, "fusion_lat": 0.0}, {"lat": 38.94186366666667, "lon": -77.02532716666667, "is_disabled": 0, "fusion_lon": 0.0, "is_reserved": 0, "name": "c91b36e313965c4332c66de6df07f123", "type": "electric_scooter", "bike_id": "c91b36e313965c4332c66de6df07f123", "rental_uris": {"ios": "https://dc.lft.to/lastmile_qr_scan", "android": "https://dc.lft.to/lastmile_qr_scan"}, "fusion_lat": 0.0}, {"lat": 38.908889333333335, "lon": -77.03247983333333, "is_disabled": 0, "fusion_lon": 0.0, "is_reserved": 0, "name": "d524c98a7d86118049f771f411cb6420", "type": "electric_scooter", "bike_id": "d524c98a7d86118049f771f411cb6420", "rental_uris": {"ios": "https://dc.lft.to/lastmile_qr_scan", "android": "https://dc.lft.to/lastmile_qr_scan"}, "fusion_lat": 0.0}, {"lat": 38.90756833333333, "lon": -77.035888, "is_disabled": 0, "fusion_lon": 0.0, "is_reserved": 0, "name": "0bc5f7e8292acdd08957ab0767c6dc6b", "type": "electric_scooter", "bike_id": "0bc5f7e8292acdd08957ab0767c6dc6b", "rental_uris": {"ios": "https://dc.lft.to/lastmile_qr_scan", "android": "https://dc.lft.to/lastmile_qr_scan"}, "fusion_lat": 0.0}, {"lat": 38.91492266666667, "lon": -77.042524, "is_disabled": 0, "fusion_lon": 0.0, "is_reserved": 0, "name": "1a04ec2325af58f1f6affa69f5b0a30a", "type": "electric_scooter", "bike_id": "1a04ec2325af58f1f6affa69f5b0a30a", "rental_uris": {"ios": "https://dc.lft.to/lastmile_qr_scan", "android": "https://dc.lft.to/lastmile_qr_scan"}, "fusion_lat": 0.0}, {"lat": 38.9164255, "lon": -77.02953416666666, "is_disabled": 0, "fusion_lon": 0.0, "is_reserved": 0, "name": "d658030ca33ad0a206e69ffd0004269d", "type": "electric_scooter", "bike_id": "d658030ca33ad0a206e69ffd0004269d", "rental_uris": {"ios": "https://dc.lft.to/lastmile_qr_scan", "android": "https://dc.lft.to/lastmile_qr_scan"}, "fusion_lat": 0.0}, {"lat": 38.9082255, "lon": -76.992078, "is_disabled": 0, "fusion_lon": 0.0, "is_reserved": 0, "name": "5edfdf6150a82f079671c7597d66442b", "type": "electric_scooter", "bike_id": "5edfdf6150a82f079671c7597d66442b", "rental_uris": {"ios": "https://dc.lft.to/lastmile_qr_scan", "android": "https://dc.lft.to/lastmile_qr_scan"}, "fusion_lat": 0.0}, {"lat": 38.924445, "lon": -77.05214333333333, "is_disabled": 0, "fusion_lon": 0.0, "is_reserved": 0, "name": "a775e7a103e80e733e0bedd658a2a85a", "type": "electric_scooter", "bike_id": "a775e7a103e80e733e0bedd658a2a85a", "rental_uris": {"ios": "https://dc.lft.to/lastmile_qr_scan", "android": "https://dc.lft.to/lastmile_qr_scan"}, "fusion_lat": 0.0}, {"lat": 38.8980725, "lon": -77.02185716666666, "is_disabled": 0, "fusion_lon": 0.0, "is_reserved": 0, "name": "48749c4cf40c46201aafdd41cd0a24ea", "type": "electric_scooter", "bike_id": "48749c4cf40c46201aafdd41cd0a24ea", "rental_uris": {"ios": "https://dc.lft.to/lastmile_qr_scan", "android": "https://dc.lft.to/lastmile_qr_scan"}, "fusion_lat": 0.0}, {"lat": 38.892231833333334, "lon": -77.0277895, "is_disabled": 0, "fusion_lon": 0.0, "is_reserved": 0, "name": "119d848a162d343bd9256eee9c46aecd", "type": "electric_scooter", "bike_id": "119d848a162d343bd9256eee9c46aecd", "rental_uris": {"ios": "https://dc.lft.to/lastmile_qr_scan", "android": "https://dc.lft.to/lastmile_qr_scan"}, "fusion_lat": 0.0}, {"lat": 38.911261333333336, "lon": -77.04375616666667, "is_disabled": 0, "fusion_lon": 0.0, "is_reserved": 0, "name": "072320e6982e080bbc9d5fa1a05b01c8", "type": "electric_scooter", "bike_id": "072320e6982e080bbc9d5fa1a05b01c8", "rental_uris": {"ios": "https://dc.lft.to/lastmile_qr_scan", "android": "https://dc.lft.to/lastmile_qr_scan"}, "fusion_lat": 0.0}, {"lat": 38.90882166666667, "lon": -77.0415835, "is_disabled": 0, "fusion_lon": 0.0, "is_reserved": 0, "name": "cd3995f15507cb17c8ecf5f52493d5ee", "type": "electric_scooter", "bike_id": "cd3995f15507cb17c8ecf5f52493d5ee", "rental_uris": {"ios": "https://dc.lft.to/lastmile_qr_scan", "android": "https://dc.lft.to/lastmile_qr_scan"}, "fusion_lat": 0.0}, {"lat": 38.913187666666666, "lon": -77.03844216666667, "is_disabled": 0, "fusion_lon": 0.0, "is_reserved": 0, "name": "a577d221596b1128d2076b7b1798e86c", "type": "electric_scooter", "bike_id": "a577d221596b1128d2076b7b1798e86c", "rental_uris": {"ios": "https://dc.lft.to/lastmile_qr_scan", "android": "https://dc.lft.to/lastmile_qr_scan"}, "fusion_lat": 0.0}, {"lat": 38.92491533333333, "lon": -77.052134, "is_disabled": 0, "fusion_lon": 0.0, "is_reserved": 0, "name": "c38e6760c9a9e9c8b3eb889467139932", "type": "electric_scooter", "bike_id": "c38e6760c9a9e9c8b3eb889467139932", "rental_uris": {"ios": "https://dc.lft.to/lastmile_qr_scan", "android": "https://dc.lft.to/lastmile_qr_scan"}, "fusion_lat": 0.0}, {"lat": 38.894759, "lon": -77.00309983333334, "is_disabled": 0, "fusion_lon": 0.0, "is_reserved": 0, "name": "2ff0ea0bea9a3acb936bae6d1e7cda77", "type": "electric_scooter", "bike_id": "2ff0ea0bea9a3acb936bae6d1e7cda77", "rental_uris": {"ios": "https://dc.lft.to/lastmile_qr_scan", "android": "https://dc.lft.to/lastmile_qr_scan"}, "fusion_lat": 0.0}, {"lat": 38.92606716666667, "lon": -77.0215745, "is_disabled": 0, "fusion_lon": 0.0, "is_reserved": 0, "name": "3e7398d482516b4ff486d159709a57b5", "type": "electric_scooter", "bike_id": "3e7398d482516b4ff486d159709a57b5", "rental_uris": {"ios": "https://dc.lft.to/lastmile_qr_scan", "android": "https://dc.lft.to/lastmile_qr_scan"}, "fusion_lat": 0.0}, {"lat": 38.908667666666666, "lon": -77.04484416666666, "is_disabled": 0, "fusion_lon": 0.0, "is_reserved": 0, "name": "5dd319d2e963f28047a44a92afdff911", "type": "electric_scooter", "bike_id": "5dd319d2e963f28047a44a92afdff911", "rental_uris": {"ios": "https://dc.lft.to/lastmile_qr_scan", "android": "https://dc.lft.to/lastmile_qr_scan"}, "fusion_lat": 0.0}, {"lat": 38.90024283333333, "lon": -77.011915, "is_disabled": 0, "fusion_lon": 0.0, "is_reserved": 0, "name": "8b04ee72a793788c796269b45c17ddc8", "type": "electric_scooter", "bike_id": "8b04ee72a793788c796269b45c17ddc8", "rental_uris": {"ios": "https://dc.lft.to/lastmile_qr_scan", "android": "https://dc.lft.to/lastmile_qr_scan"}, "fusion_lat": 0.0}, {"lat": 38.93371283333333, "lon": -77.057262, "is_disabled": 0, "fusion_lon": 0.0, "is_reserved": 0, "name": "e6dd8cb8997fd7711d63044a5ca544f1", "type": "electric_scooter", "bike_id": "e6dd8cb8997fd7711d63044a5ca544f1", "rental_uris": {"ios": "https://dc.lft.to/lastmile_qr_scan", "android": "https://dc.lft.to/lastmile_qr_scan"}, "fusion_lat": 0.0}, {"lat": 38.916134666666665, "lon": -77.03387416666666, "is_disabled": 0, "fusion_lon": 0.0, "is_reserved": 0, "name": "0b93213fca488bb362a71c02f0a2fc99", "type": "electric_scooter", "bike_id": "0b93213fca488bb362a71c02f0a2fc99", "rental_uris": {"ios": "https://dc.lft.to/lastmile_qr_scan", "android": "https://dc.lft.to/lastmile_qr_scan"}, "fusion_lat": 0.0}, {"lat": 38.907006, "lon": -77.0358915, "is_disabled": 0, "fusion_lon": 0.0, "is_reserved": 0, "name": "a6e18c142822a5af00e12383432a0c7d", "type": "electric_scooter", "bike_id": "a6e18c142822a5af00e12383432a0c7d", "rental_uris": {"ios": "https://dc.lft.to/lastmile_qr_scan", "android": "https://dc.lft.to/lastmile_qr_scan"}, "fusion_lat": 0.0}, {"lat": 38.90991966666667, "lon": -77.03210633333333, "is_disabled": 0, "fusion_lon": 0.0, "is_reserved": 0, "name": "8df94d198ff2c6baf7cec347c6b517e8", "type": "electric_scooter", "bike_id": "8df94d198ff2c6baf7cec347c6b517e8", "rental_uris": {"ios": "https://dc.lft.to/lastmile_qr_scan", "android": "https://dc.lft.to/lastmile_qr_scan"}, "fusion_lat": 0.0}, {"lat": 38.9155325, "lon": -77.01199933333334, "is_disabled": 0, "fusion_lon": 0.0, "is_reserved": 0, "name": "e5fc9e265129840b7cc127abf978bf2e", "type": "electric_scooter", "bike_id": "e5fc9e265129840b7cc127abf978bf2e", "rental_uris": {"ios": "https://dc.lft.to/lastmile_qr_scan", "android": "https://dc.lft.to/lastmile_qr_scan"}, "fusion_lat": 0.0}, {"lat": 38.9573875, "lon": -77.02402266666667, "is_disabled": 0, "fusion_lon": 0.0, "is_reserved": 0, "name": "f2698d5733558154ca500013d60a4159", "type": "electric_scooter", "bike_id": "f2698d5733558154ca500013d60a4159", "rental_uris": {"ios": "https://dc.lft.to/lastmile_qr_scan", "android": "https://dc.lft.to/lastmile_qr_scan"}, "fusion_lat": 0.0}, {"lat": 38.9319715, "lon": -77.0346515, "is_disabled": 0, "fusion_lon": 0.0, "is_reserved": 0, "name": "d2ebd70c259323e53e5d48df25e2ff6c", "type": "electric_scooter", "bike_id": "d2ebd70c259323e53e5d48df25e2ff6c", "rental_uris": {"ios": "https://dc.lft.to/lastmile_qr_scan", "android": "https://dc.lft.to/lastmile_qr_scan"}, "fusion_lat": 0.0}, {"lat": 38.937265833333335, "lon": -77.03263233333334, "is_disabled": 0, "fusion_lon": 0.0, "is_reserved": 0, "name": "01255b5db8fee06d4169bb1f1371271f", "type": "electric_scooter", "bike_id": "01255b5db8fee06d4169bb1f1371271f", "rental_uris": {"ios": "https://dc.lft.to/lastmile_qr_scan", "android": "https://dc.lft.to/lastmile_qr_scan"}, "fusion_lat": 0.0}, {"lat": 38.917016, "lon": -77.02883366666667, "is_disabled": 0, "fusion_lon": 0.0, "is_reserved": 0, "name": "e0e1b382e76ad2cc1a57a3ce49ad9607", "type": "electric_scooter", "bike_id": "e0e1b382e76ad2cc1a57a3ce49ad9607", "rental_uris": {"ios": "https://dc.lft.to/lastmile_qr_scan", "android": "https://dc.lft.to/lastmile_qr_scan"}, "fusion_lat": 0.0}, {"lat": 38.897569, "lon": -77.0436425, "is_disabled": 0, "fusion_lon": 0.0, "is_reserved": 0, "name": "e768b0256e018c51ec8910f76862d9f6", "type": "electric_scooter", "bike_id": "e768b0256e018c51ec8910f76862d9f6", "rental_uris": {"ios": "https://dc.lft.to/lastmile_qr_scan", "android": "https://dc.lft.to/lastmile_qr_scan"}, "fusion_lat": 0.0}, {"lat": 38.89227183333333, "lon": -77.044695, "is_disabled": 0, "fusion_lon": 0.0, "is_reserved": 0, "name": "e849e00dc2b32e1d79e9aa24aee495c6", "type": "electric_scooter", "bike_id": "e849e00dc2b32e1d79e9aa24aee495c6", "rental_uris": {"ios": "https://dc.lft.to/lastmile_qr_scan", "android": "https://dc.lft.to/lastmile_qr_scan"}, "fusion_lat": 0.0}, {"lat": 38.95637833333333, "lon": -77.0330275, "is_disabled": 0, "fusion_lon": 0.0, "is_reserved": 0, "name": "66f64aa980894cd3af9479d617c3fff6", "type": "electric_scooter", "bike_id": "66f64aa980894cd3af9479d617c3fff6", "rental_uris": {"ios": "https://dc.lft.to/lastmile_qr_scan", "android": "https://dc.lft.to/lastmile_qr_scan"}, "fusion_lat": 0.0}, {"lat": 38.93898183333334, "lon": -77.02513166666667, "is_disabled": 0, "fusion_lon": 0.0, "is_reserved": 0, "name": "3c9df10912b527d1be6ae3935a9fb50a", "type": "electric_scooter", "bike_id": "3c9df10912b527d1be6ae3935a9fb50a", "rental_uris": {"ios": "https://dc.lft.to/lastmile_qr_scan", "android": "https://dc.lft.to/lastmile_qr_scan"}, "fusion_lat": 0.0}, {"lat": 38.90600516666667, "lon": -77.04355133333334, "is_disabled": 0, "fusion_lon": 0.0, "is_reserved": 0, "name": "771ef88c5fda995956270c3d182f8562", "type": "electric_scooter", "bike_id": "771ef88c5fda995956270c3d182f8562", "rental_uris": {"ios": "https://dc.lft.to/lastmile_qr_scan", "android": "https://dc.lft.to/lastmile_qr_scan"}, "fusion_lat": 0.0}, {"lat": 38.89821883333333, "lon": -77.03154516666666, "is_disabled": 0, "fusion_lon": 0.0, "is_reserved": 0, "name": "c285efb7f31b7f8cf6fd183ae5a3ebaf", "type": "electric_scooter", "bike_id": "c285efb7f31b7f8cf6fd183ae5a3ebaf", "rental_uris": {"ios": "https://dc.lft.to/lastmile_qr_scan", "android": "https://dc.lft.to/lastmile_qr_scan"}, "fusion_lat": 0.0}, {"lat": 38.93607983333333, "lon": -77.03189483333334, "is_disabled": 0, "fusion_lon": 0.0, "is_reserved": 0, "name": "b3466ac6a6d2978760341baed7f4daab", "type": "electric_scooter", "bike_id": "b3466ac6a6d2978760341baed7f4daab", "rental_uris": {"ios": "https://dc.lft.to/lastmile_qr_scan", "android": "https://dc.lft.to/lastmile_qr_scan"}, "fusion_lat": 0.0}, {"lat": 38.906951, "lon": -77.03532683333333, "is_disabled": 0, "fusion_lon": 0.0, "is_reserved": 0, "name": "e0aa36646e9031085f2e244043c1ed7f", "type": "electric_scooter", "bike_id": "e0aa36646e9031085f2e244043c1ed7f", "rental_uris": {"ios": "https://dc.lft.to/lastmile_qr_scan", "android": "https://dc.lft.to/lastmile_qr_scan"}, "fusion_lat": 0.0}, {"lat": 38.91824033333333, "lon": -77.04175766666667, "is_disabled": 0, "fusion_lon": 0.0, "is_reserved": 0, "name": "f2a539cb2aba2c21ee406c18cde78d51", "type": "electric_scooter", "bike_id": "f2a539cb2aba2c21ee406c18cde78d51", "rental_uris": {"ios": "https://dc.lft.to/lastmile_qr_scan", "android": "https://dc.lft.to/lastmile_qr_scan"}, "fusion_lat": 0.0}, {"lat": 38.85092983333333, "lon": -76.95706933333334, "is_disabled": 0, "fusion_lon": 0.0, "is_reserved": 0, "name": "46dc6b1766a208f68d2b728c50486cb5", "type": "electric_bike", "bike_id": "46dc6b1766a208f68d2b728c50486cb5", "rental_uris": {"ios": "https://dc.lft.to/lastmile_qr_scan", "android": "https://dc.lft.to/lastmile_qr_scan"}, "fusion_lat": 0.0}, {"lat": 38.88449383333333, "lon": -77.017784, "is_disabled": 0, "fusion_lon": 0.0, "is_reserved": 0, "name": "c231460ad02ab7f3df12a23656c107d5", "type": "electric_scooter", "bike_id": "c231460ad02ab7f3df12a23656c107d5", "rental_uris": {"ios": "https://dc.lft.to/lastmile_qr_scan", "android": "https://dc.lft.to/lastmile_qr_scan"}, "fusion_lat": 0.0}, {"lat": 38.9191425, "lon": -77.02371616666667, "is_disabled": 0, "fusion_lon": 0.0, "is_reserved": 0, "name": "3764d34719b008a8e62d9928555266e2", "type": "electric_scooter", "bike_id": "3764d34719b008a8e62d9928555266e2", "rental_uris": {"ios": "https://dc.lft.to/lastmile_qr_scan", "android": "https://dc.lft.to/lastmile_qr_scan"}, "fusion_lat": 0.0}, {"lat": 38.903204, "lon": -77.0470765, "is_disabled": 0, "fusion_lon": 0.0, "is_reserved": 0, "name": "4caf729272e93baa4a5384d0d2f20c37", "type": "electric_scooter", "bike_id": "4caf729272e93baa4a5384d0d2f20c37", "rental_uris": {"ios": "https://dc.lft.to/lastmile_qr_scan", "android": "https://dc.lft.to/lastmile_qr_scan"}, "fusion_lat": 0.0}, {"lat": 38.9056005, "lon": -77.04670066666667, "is_disabled": 0, "fusion_lon": 0.0, "is_reserved": 0, "name": "927f1a31efb22d47056e9259af51a9fe", "type": "electric_scooter", "bike_id": "927f1a31efb22d47056e9259af51a9fe", "rental_uris": {"ios": "https://dc.lft.to/lastmile_qr_scan", "android": "https://dc.lft.to/lastmile_qr_scan"}, "fusion_lat": 0.0}, {"lat": 38.9055825, "lon": -77.04669766666666, "is_disabled": 0, "fusion_lon": 0.0, "is_reserved": 0, "name": "5df16ced5cbabca5cd8ad0e92526d899", "type": "electric_scooter", "bike_id": "5df16ced5cbabca5cd8ad0e92526d899", "rental_uris": {"ios": "https://dc.lft.to/lastmile_qr_scan", "android": "https://dc.lft.to/lastmile_qr_scan"}, "fusion_lat": 0.0}, {"lat": 38.926366333333334, "lon": -77.041964, "is_disabled": 0, "fusion_lon": 0.0, "is_reserved": 0, "name": "0d2223a788fb071688f3d8485c59fe51", "type": "electric_scooter", "bike_id": "0d2223a788fb071688f3d8485c59fe51", "rental_uris": {"ios": "https://dc.lft.to/lastmile_qr_scan", "android": "https://dc.lft.to/lastmile_qr_scan"}, "fusion_lat": 0.0}, {"lat": 38.87303216666667, "lon": -76.97013983333333, "is_disabled": 0, "fusion_lon": 0.0, "is_reserved": 0, "name": "4a929255851e273852a0beaeadb2ff13", "type": "electric_scooter", "bike_id": "4a929255851e273852a0beaeadb2ff13", "rental_uris": {"ios": "https://dc.lft.to/lastmile_qr_scan", "android": "https://dc.lft.to/lastmile_qr_scan"}, "fusion_lat": 0.0}, {"lat": 38.898197333333336, "lon": -77.0314865, "is_disabled": 0, "fusion_lon": 0.0, "is_reserved": 0, "name": "64a04ebb2c7f6b553be3130b51c67eb2", "type": "electric_scooter", "bike_id": "64a04ebb2c7f6b553be3130b51c67eb2", "rental_uris": {"ios": "https://dc.lft.to/lastmile_qr_scan", "android": "https://dc.lft.to/lastmile_qr_scan"}, "fusion_lat": 0.0}, {"lat": 38.97503733333333, "lon": -77.01667166666667, "is_disabled": 0, "fusion_lon": 0.0, "is_reserved": 0, "name": "69202528b6491c76cb910ed47332cde2", "type": "electric_scooter", "bike_id": "69202528b6491c76cb910ed47332cde2", "rental_uris": {"ios": "https://dc.lft.to/lastmile_qr_scan", "android": "https://dc.lft.to/lastmile_qr_scan"}, "fusion_lat": 0.0}, {"lat": 38.93078416666667, "lon": -77.02160783333333, "is_disabled": 0, "fusion_lon": 0.0, "is_reserved": 0, "name": "9172ba26df57b98784a80d5c1c55528f", "type": "electric_scooter", "bike_id": "9172ba26df57b98784a80d5c1c55528f", "rental_uris": {"ios": "https://dc.lft.to/lastmile_qr_scan", "android": "https://dc.lft.to/lastmile_qr_scan"}, "fusion_lat": 0.0}, {"lat": 38.8738235, "lon": -77.0016665, "is_disabled": 0, "fusion_lon": 0.0, "is_reserved": 0, "name": "bdf24bb3f6e79bb2fa8f2768c9e82ed6", "type": "electric_scooter", "bike_id": "bdf24bb3f6e79bb2fa8f2768c9e82ed6", "rental_uris": {"ios": "https://dc.lft.to/lastmile_qr_scan", "android": "https://dc.lft.to/lastmile_qr_scan"}, "fusion_lat": 0.0}, {"lat": 38.942654, "lon": -77.02841916666667, "is_disabled": 0, "fusion_lon": 0.0, "is_reserved": 0, "name": "3337556cbd0b8a44101ef62f25a0a538", "type": "electric_bike", "bike_id": "3337556cbd0b8a44101ef62f25a0a538", "rental_uris": {"ios": "https://dc.lft.to/lastmile_qr_scan", "android": "https://dc.lft.to/lastmile_qr_scan"}, "fusion_lat": 0.0}, {"lat": 38.922325666666666, "lon": -77.021246, "is_disabled": 0, "fusion_lon": 0.0, "is_reserved": 0, "name": "f67ce285d7dc6df9bd75871d0a186a33", "type": "electric_scooter", "bike_id": "f67ce285d7dc6df9bd75871d0a186a33", "rental_uris": {"ios": "https://dc.lft.to/lastmile_qr_scan", "android": "https://dc.lft.to/lastmile_qr_scan"}, "fusion_lat": 0.0}, {"lat": 38.84758, "lon": -76.99500933333333, "is_disabled": 0, "fusion_lon": 0.0, "is_reserved": 0, "name": "e64c8cc30afb7f7c36da4b280a2ebcdd", "type": "electric_scooter", "bike_id": "e64c8cc30afb7f7c36da4b280a2ebcdd", "rental_uris": {"ios": "https://dc.lft.to/lastmile_qr_scan", "android": "https://dc.lft.to/lastmile_qr_scan"}, "fusion_lat": 0.0}, {"lat": 38.92345233333333, "lon": -77.05179433333333, "is_disabled": 0, "fusion_lon": 0.0, "is_reserved": 0, "name": "1c720c6d7b28903536b452af7616109e", "type": "electric_scooter", "bike_id": "1c720c6d7b28903536b452af7616109e", "rental_uris": {"ios": "https://dc.lft.to/lastmile_qr_scan", "android": "https://dc.lft.to/lastmile_qr_scan"}, "fusion_lat": 0.0}, {"lat": 38.92226466666666, "lon": -77.02127416666667, "is_disabled": 0, "fusion_lon": 0.0, "is_reserved": 0, "name": "5ffb4a126a0e4437c28eba1131e52c78", "type": "electric_scooter", "bike_id": "5ffb4a126a0e4437c28eba1131e52c78", "rental_uris": {"ios": "https://dc.lft.to/lastmile_qr_scan", "android": "https://dc.lft.to/lastmile_qr_scan"}, "fusion_lat": 0.0}, {"lat": 38.8896415, "lon": -76.9368075, "is_disabled": 0, "fusion_lon": 0.0, "is_reserved": 0, "name": "3ae52f99790512f2b2e3d3e014f61b8a", "type": "electric_scooter", "bike_id": "3ae52f99790512f2b2e3d3e014f61b8a", "rental_uris": {"ios": "https://dc.lft.to/lastmile_qr_scan", "android": "https://dc.lft.to/lastmile_qr_scan"}, "fusion_lat": 0.0}, {"lat": 38.915745333333334, "lon": -77.01906183333334, "is_disabled": 0, "fusion_lon": 0.0, "is_reserved": 0, "name": "27f52400adda0027d7f7c6d843b970a6", "type": "electric_scooter", "bike_id": "27f52400adda0027d7f7c6d843b970a6", "rental_uris": {"ios": "https://dc.lft.to/lastmile_qr_scan", "android": "https://dc.lft.to/lastmile_qr_scan"}, "fusion_lat": 0.0}, {"lat": 38.90441333333333, "lon": -76.99830383333334, "is_disabled": 0, "fusion_lon": 0.0, "is_reserved": 0, "name": "24f14338b66e5efa4c65af10d2ebd9ce", "type": "electric_scooter", "bike_id": "24f14338b66e5efa4c65af10d2ebd9ce", "rental_uris": {"ios": "https://dc.lft.to/lastmile_qr_scan", "android": "https://dc.lft.to/lastmile_qr_scan"}, "fusion_lat": 0.0}, {"lat": 38.90918466666667, "lon": -77.0366085, "is_disabled": 0, "fusion_lon": 0.0, "is_reserved": 0, "name": "812c3f6fd2d85b69bf322a4533795d91", "type": "electric_scooter", "bike_id": "812c3f6fd2d85b69bf322a4533795d91", "rental_uris": {"ios": "https://dc.lft.to/lastmile_qr_scan", "android": "https://dc.lft.to/lastmile_qr_scan"}, "fusion_lat": 0.0}, {"lat": 38.899776, "lon": -76.98552333333333, "is_disabled": 0, "fusion_lon": 0.0, "is_reserved": 0, "name": "eed2d9409e22a8fd48dacbaa4ed97efc", "type": "electric_scooter", "bike_id": "eed2d9409e22a8fd48dacbaa4ed97efc", "rental_uris": {"ios": "https://dc.lft.to/lastmile_qr_scan", "android": "https://dc.lft.to/lastmile_qr_scan"}, "fusion_lat": 0.0}, {"lat": 38.8963855, "lon": -77.0239475, "is_disabled": 0, "fusion_lon": 0.0, "is_reserved": 0, "name": "8cfeff2ace4ac8455e9ca9803f120c01", "type": "electric_scooter", "bike_id": "8cfeff2ace4ac8455e9ca9803f120c01", "rental_uris": {"ios": "https://dc.lft.to/lastmile_qr_scan", "android": "https://dc.lft.to/lastmile_qr_scan"}, "fusion_lat": 0.0}, {"lat": 38.90344966666667, "lon": -77.062863, "is_disabled": 0, "fusion_lon": 0.0, "is_reserved": 0, "name": "35f0479090e2c66b0a5cee05590649ed", "type": "electric_scooter", "bike_id": "35f0479090e2c66b0a5cee05590649ed", "rental_uris": {"ios": "https://dc.lft.to/lastmile_qr_scan", "android": "https://dc.lft.to/lastmile_qr_scan"}, "fusion_lat": 0.0}, {"lat": 38.89225416666667, "lon": -77.04365866666667, "is_disabled": 0, "fusion_lon": 0.0, "is_reserved": 0, "name": "dbe7d2d70949524c758b1bb009359920", "type": "electric_scooter", "bike_id": "dbe7d2d70949524c758b1bb009359920", "rental_uris": {"ios": "https://dc.lft.to/lastmile_qr_scan", "android": "https://dc.lft.to/lastmile_qr_scan"}, "fusion_lat": 0.0}, {"lat": 38.905566666666665, "lon": -77.048479, "is_disabled": 0, "fusion_lon": 0.0, "is_reserved": 0, "name": "ee7b4dab30b1c4e1fc27ad48fb924079", "type": "electric_scooter", "bike_id": "ee7b4dab30b1c4e1fc27ad48fb924079", "rental_uris": {"ios": "https://dc.lft.to/lastmile_qr_scan", "android": "https://dc.lft.to/lastmile_qr_scan"}, "fusion_lat": 0.0}, {"lat": 38.868955166666666, "lon": -76.9851645, "is_disabled": 0, "fusion_lon": 0.0, "is_reserved": 0, "name": "fa76b0dc0a9f8f58f1dfa10d87563c3e", "type": "electric_bike", "bike_id": "fa76b0dc0a9f8f58f1dfa10d87563c3e", "rental_uris": {"ios": "https://dc.lft.to/lastmile_qr_scan", "android": "https://dc.lft.to/lastmile_qr_scan"}, "fusion_lat": 0.0}, {"lat": 39.05258216666667, "lon": -77.08064716666667, "is_disabled": 0, "fusion_lon": 0.0, "is_reserved": 0, "name": "6c7eaf1f40fa1c525df8a8b95dd7e89d", "type": "electric_bike", "bike_id": "6c7eaf1f40fa1c525df8a8b95dd7e89d", "rental_uris": {"ios": "https://dc.lft.to/lastmile_qr_scan", "android": "https://dc.lft.to/lastmile_qr_scan"}, "fusion_lat": 0.0}, {"lat": 38.905183, "lon": -77.04831033333333, "is_disabled": 0, "fusion_lon": 0.0, "is_reserved": 0, "name": "e2f1cbe1f2a769b36c0a458335780def", "type": "electric_scooter", "bike_id": "e2f1cbe1f2a769b36c0a458335780def", "rental_uris": {"ios": "https://dc.lft.to/lastmile_qr_scan", "android": "https://dc.lft.to/lastmile_qr_scan"}, "fusion_lat": 0.0}, {"lat": 38.95017266666667, "lon": -77.080704, "is_disabled": 0, "fusion_lon": 0.0, "is_reserved": 0, "name": "c36e324a107b65582feff5077341c618", "type": "electric_scooter", "bike_id": "c36e324a107b65582feff5077341c618", "rental_uris": {"ios": "https://dc.lft.to/lastmile_qr_scan", "android": "https://dc.lft.to/lastmile_qr_scan"}, "fusion_lat": 0.0}, {"lat": 38.96446616666667, "lon": -77.0315825, "is_disabled": 0, "fusion_lon": 0.0, "is_reserved": 0, "name": "52c1647ee3086405569f6785c3d7d578", "type": "electric_bike", "bike_id": "52c1647ee3086405569f6785c3d7d578", "rental_uris": {"ios": "https://dc.lft.to/lastmile_qr_scan", "android": "https://dc.lft.to/lastmile_qr_scan"}, "fusion_lat": 0.0}, {"lat": 38.877204, "lon": -77.017084, "is_disabled": 0, "fusion_lon": 0.0, "is_reserved": 0, "name": "984f33e780d550aedd7838e8ca5bf7a9", "type": "electric_scooter", "bike_id": "984f33e780d550aedd7838e8ca5bf7a9", "rental_uris": {"ios": "https://dc.lft.to/lastmile_qr_scan", "android": "https://dc.lft.to/lastmile_qr_scan"}, "fusion_lat": 0.0}, {"lat": 38.9078345, "lon": -77.07169366666666, "is_disabled": 0, "fusion_lon": 0.0, "is_reserved": 0, "name": "8e4426a9314fff4418a5ff70fc4f6dd4", "type": "electric_scooter", "bike_id": "8e4426a9314fff4418a5ff70fc4f6dd4", "rental_uris": {"ios": "https://dc.lft.to/lastmile_qr_scan", "android": "https://dc.lft.to/lastmile_qr_scan"}, "fusion_lat": 0.0}, {"lat": 38.925234833333334, "lon": -77.05042916666666, "is_disabled": 0, "fusion_lon": 0.0, "is_reserved": 0, "name": "f8752ec035188d9ab3456d5b95ee84a8", "type": "electric_scooter", "bike_id": "f8752ec035188d9ab3456d5b95ee84a8", "rental_uris": {"ios": "https://dc.lft.to/lastmile_qr_scan", "android": "https://dc.lft.to/lastmile_qr_scan"}, "fusion_lat": 0.0}, {"lat": 38.90821716666667, "lon": -77.03182383333333, "is_disabled": 0, "fusion_lon": 0.0, "is_reserved": 0, "name": "2360a1651e4d72021cd3ba7c595670b7", "type": "electric_scooter", "bike_id": "2360a1651e4d72021cd3ba7c595670b7", "rental_uris": {"ios": "https://dc.lft.to/lastmile_qr_scan", "android": "https://dc.lft.to/lastmile_qr_scan"}, "fusion_lat": 0.0}, {"lat": 38.902544, "lon": -77.02707683333334, "is_disabled": 0, "fusion_lon": 0.0, "is_reserved": 0, "name": "be46a454c80c593ff1ae2a497ab98c92", "type": "electric_scooter", "bike_id": "be46a454c80c593ff1ae2a497ab98c92", "rental_uris": {"ios": "https://dc.lft.to/lastmile_qr_scan", "android": "https://dc.lft.to/lastmile_qr_scan"}, "fusion_lat": 0.0}, {"lat": 38.8845455, "lon": -77.0177165, "is_disabled": 0, "fusion_lon": 0.0, "is_reserved": 0, "name": "2c3b35620b7a27f7416e22d04ea41f64", "type": "electric_scooter", "bike_id": "2c3b35620b7a27f7416e22d04ea41f64", "rental_uris": {"ios": "https://dc.lft.to/lastmile_qr_scan", "android": "https://dc.lft.to/lastmile_qr_scan"}, "fusion_lat": 0.0}, {"lat": 38.956558, "lon": -77.00948766666667, "is_disabled": 0, "fusion_lon": 0.0, "is_reserved": 0, "name": "7d7ebd9ae12efd086a5cf65812747087", "type": "electric_scooter", "bike_id": "7d7ebd9ae12efd086a5cf65812747087", "rental_uris": {"ios": "https://dc.lft.to/lastmile_qr_scan", "android": "https://dc.lft.to/lastmile_qr_scan"}, "fusion_lat": 0.0}, {"lat": 38.892238166666665, "lon": -77.04328316666667, "is_disabled": 0, "fusion_lon": 0.0, "is_reserved": 0, "name": "358219afa75cc5a8402450f3b424cb23", "type": "electric_scooter", "bike_id": "358219afa75cc5a8402450f3b424cb23", "rental_uris": {"ios": "https://dc.lft.to/lastmile_qr_scan", "android": "https://dc.lft.to/lastmile_qr_scan"}, "fusion_lat": 0.0}, {"lat": 38.91421483333333, "lon": -77.020992, "is_disabled": 0, "fusion_lon": 0.0, "is_reserved": 0, "name": "c22c45ae5ed983f58a5eb5a5ec9aa261", "type": "electric_scooter", "bike_id": "c22c45ae5ed983f58a5eb5a5ec9aa261", "rental_uris": {"ios": "https://dc.lft.to/lastmile_qr_scan", "android": "https://dc.lft.to/lastmile_qr_scan"}, "fusion_lat": 0.0}, {"lat": 38.924531333333334, "lon": -76.9898605, "is_disabled": 0, "fusion_lon": 0.0, "is_reserved": 0, "name": "a7d603e0b1ade75d0f66e279b776f96b", "type": "electric_scooter", "bike_id": "a7d603e0b1ade75d0f66e279b776f96b", "rental_uris": {"ios": "https://dc.lft.to/lastmile_qr_scan", "android": "https://dc.lft.to/lastmile_qr_scan"}, "fusion_lat": 0.0}, {"lat": 38.91952533333333, "lon": -77.02501516666666, "is_disabled": 0, "fusion_lon": 0.0, "is_reserved": 0, "name": "6eaac5d786f6372e954550a0e0fc110c", "type": "electric_scooter", "bike_id": "6eaac5d786f6372e954550a0e0fc110c", "rental_uris": {"ios": "https://dc.lft.to/lastmile_qr_scan", "android": "https://dc.lft.to/lastmile_qr_scan"}, "fusion_lat": 0.0}, {"lat": 38.925590166666666, "lon": -76.98150183333334, "is_disabled": 0, "fusion_lon": 0.0, "is_reserved": 0, "name": "1ad5768a269979b4cb28f5e2a33387b0", "type": "electric_scooter", "bike_id": "1ad5768a269979b4cb28f5e2a33387b0", "rental_uris": {"ios": "https://dc.lft.to/lastmile_qr_scan", "android": "https://dc.lft.to/lastmile_qr_scan"}, "fusion_lat": 0.0}, {"lat": 38.9237155, "lon": -77.021253, "is_disabled": 0, "fusion_lon": 0.0, "is_reserved": 0, "name": "79d7e88c45339a501271095fa70db4bc", "type": "electric_scooter", "bike_id": "79d7e88c45339a501271095fa70db4bc", "rental_uris": {"ios": "https://dc.lft.to/lastmile_qr_scan", "android": "https://dc.lft.to/lastmile_qr_scan"}, "fusion_lat": 0.0}, {"lat": 38.903177666666664, "lon": -77.00562266666667, "is_disabled": 0, "fusion_lon": 0.0, "is_reserved": 0, "name": "3f29b52f1649896536975cfa89a76816", "type": "electric_scooter", "bike_id": "3f29b52f1649896536975cfa89a76816", "rental_uris": {"ios": "https://dc.lft.to/lastmile_qr_scan", "android": "https://dc.lft.to/lastmile_qr_scan"}, "fusion_lat": 0.0}, {"lat": 38.927715166666665, "lon": -77.05269466666667, "is_disabled": 0, "fusion_lon": 0.0, "is_reserved": 0, "name": "df7488ea42fe9c554d39ae2b14799557", "type": "electric_scooter", "bike_id": "df7488ea42fe9c554d39ae2b14799557", "rental_uris": {"ios": "https://dc.lft.to/lastmile_qr_scan", "android": "https://dc.lft.to/lastmile_qr_scan"}, "fusion_lat": 0.0}, {"lat": 38.90738233333333, "lon": -77.03473116666666, "is_disabled": 0, "fusion_lon": 0.0, "is_reserved": 0, "name": "4f902951d6e730b94139223834f434b3", "type": "electric_scooter", "bike_id": "4f902951d6e730b94139223834f434b3", "rental_uris": {"ios": "https://dc.lft.to/lastmile_qr_scan", "android": "https://dc.lft.to/lastmile_qr_scan"}, "fusion_lat": 0.0}, {"lat": 38.89180533333333, "lon": -76.926485, "is_disabled": 0, "fusion_lon": 0.0, "is_reserved": 0, "name": "75c7acda405c80f985574d0f5743387b", "type": "electric_scooter", "bike_id": "75c7acda405c80f985574d0f5743387b", "rental_uris": {"ios": "https://dc.lft.to/lastmile_qr_scan", "android": "https://dc.lft.to/lastmile_qr_scan"}, "fusion_lat": 0.0}, {"lat": 38.9018295, "lon": -77.04643, "is_disabled": 0, "fusion_lon": 0.0, "is_reserved": 0, "name": "5468eb57ffe0af0d80392e9cfda43843", "type": "electric_scooter", "bike_id": "5468eb57ffe0af0d80392e9cfda43843", "rental_uris": {"ios": "https://dc.lft.to/lastmile_qr_scan", "android": "https://dc.lft.to/lastmile_qr_scan"}, "fusion_lat": 0.0}, {"lat": 38.8199055, "lon": -76.9980915, "is_disabled": 0, "fusion_lon": 0.0, "is_reserved": 0, "name": "6093f7d882ea2cfe81ca11165e923678", "type": "electric_bike", "bike_id": "6093f7d882ea2cfe81ca11165e923678", "rental_uris": {"ios": "https://dc.lft.to/lastmile_qr_scan", "android": "https://dc.lft.to/lastmile_qr_scan"}, "fusion_lat": 0.0}, {"lat": 38.89225233333333, "lon": -77.0316955, "is_disabled": 0, "fusion_lon": 0.0, "is_reserved": 0, "name": "14d19404e91c7cb72d72c7505a9f8087", "type": "electric_scooter", "bike_id": "14d19404e91c7cb72d72c7505a9f8087", "rental_uris": {"ios": "https://dc.lft.to/lastmile_qr_scan", "android": "https://dc.lft.to/lastmile_qr_scan"}, "fusion_lat": 0.0}, {"lat": 38.89834616666667, "lon": -77.05005933333334, "is_disabled": 0, "fusion_lon": 0.0, "is_reserved": 0, "name": "d633f9c15afb73c03d4c96faa7a90120", "type": "electric_scooter", "bike_id": "d633f9c15afb73c03d4c96faa7a90120", "rental_uris": {"ios": "https://dc.lft.to/lastmile_qr_scan", "android": "https://dc.lft.to/lastmile_qr_scan"}, "fusion_lat": 0.0}, {"lat": 38.9038495, "lon": -77.02964333333334, "is_disabled": 0, "fusion_lon": 0.0, "is_reserved": 0, "name": "261d2d89d9bd3e544e3842699baa1312", "type": "electric_scooter", "bike_id": "261d2d89d9bd3e544e3842699baa1312", "rental_uris": {"ios": "https://dc.lft.to/lastmile_qr_scan", "android": "https://dc.lft.to/lastmile_qr_scan"}, "fusion_lat": 0.0}, {"lat": 38.857294333333336, "lon": -76.97776383333333, "is_disabled": 0, "fusion_lon": 0.0, "is_reserved": 0, "name": "5bcaec2233472e5a85299d5f252e8d31", "type": "electric_bike", "bike_id": "5bcaec2233472e5a85299d5f252e8d31", "rental_uris": {"ios": "https://dc.lft.to/lastmile_qr_scan", "android": "https://dc.lft.to/lastmile_qr_scan"}, "fusion_lat": 0.0}, {"lat": 38.90285316666667, "lon": -77.04598316666667, "is_disabled": 0, "fusion_lon": 0.0, "is_reserved": 0, "name": "7b97b97a455063edee7ef23a9bec3510", "type": "electric_scooter", "bike_id": "7b97b97a455063edee7ef23a9bec3510", "rental_uris": {"ios": "https://dc.lft.to/lastmile_qr_scan", "android": "https://dc.lft.to/lastmile_qr_scan"}, "fusion_lat": 0.0}, {"lat": 38.905531, "lon": -77.04247616666666, "is_disabled": 0, "fusion_lon": 0.0, "is_reserved": 0, "name": "dc73f4994e6cc554dc1387e0ce4a93a2", "type": "electric_scooter", "bike_id": "dc73f4994e6cc554dc1387e0ce4a93a2", "rental_uris": {"ios": "https://dc.lft.to/lastmile_qr_scan", "android": "https://dc.lft.to/lastmile_qr_scan"}, "fusion_lat": 0.0}, {"lat": 38.897552, "lon": -77.00752683333333, "is_disabled": 0, "fusion_lon": 0.0, "is_reserved": 0, "name": "1a061394b1551f2664c671dfbcaa4d84", "type": "electric_scooter", "bike_id": "1a061394b1551f2664c671dfbcaa4d84", "rental_uris": {"ios": "https://dc.lft.to/lastmile_qr_scan", "android": "https://dc.lft.to/lastmile_qr_scan"}, "fusion_lat": 0.0},