{"data": {"bikes": [{"fusion_lat": 0.0, "name": "ac85e726440db0e21ea65c3505d25a12", "is_disabled": 0, "rental_uris": {"android": "https://dc.lft.to/lastmile_qr_scan", "ios": "https://dc.lft.to/lastmile_qr_scan"}, "fusion_lon": 0.0, "lat": 38.92260533333334, "bike_id": "ac85e726440db0e21ea65c3505d25a12", "type": "electric_scooter", "is_reserved": 0, "lon": -77.01844766666666}, {"fusion_lat": 0.0, "name": "c15e35e3d435057e4c4ce17c3ad5f4e5", "is_disabled": 0, "rental_uris": {"android": "https://dc.lft.to/lastmile_qr_scan", "ios": "https://dc.lft.to/lastmile_qr_scan"}, "fusion_lon": 0.0, "lat": 38.9117445, "bike_id": "c15e35e3d435057e4c4ce17c3ad5f4e5", "type": "electric_scooter", "is_reserved": 0, "lon": -77.0686695}, {"fusion_lat": 0.0, "name": "03b305e2464bde070701a91ef436d277", "is_disabled": 0, "rental_uris": {"android": "https://dc.lft.to/lastmile_qr_scan", "ios": "https://dc.lft.to/lastmile_qr_scan"}, "fusion_lon": 0.0, "lat": 38.93521583333333, "bike_id": "03b305e2464bde070701a91ef436d277", "type": "electric_scooter", "is_reserved": 0, "lon": -77.07294033333334}, {"fusion_lat": 0.0, "name": "588a65021d059009b0214d3fbdde6549", "is_disabled": 0, "rental_uris": {"android": "https://dc.lft.to/lastmile_qr_scan", "ios": "https://dc.lft.to/lastmile_qr_scan"}, "fusion_lon": 0.0, "lat": 38.9088065, "bike_id": "588a65021d059009b0214d3fbdde6549", "type": "electric_scooter", "is_reserved": 0, "lon": -77.0432935}, {"fusion_lat": 0.0, "name": "a96e08971ccdf9918ebf2ffa61824c55", "is_disabled": 0, "rental_uris": {"android": "https://dc.lft.to/lastmile_qr_scan", "ios": "https://dc.lft.to/lastmile_qr_scan"}, "fusion_lon": 0.0, "lat": 38.907545166666665, "bike_id": "a96e08971ccdf9918ebf2ffa61824c55", "type": "electric_scooter", "is_reserved": 0, "lon": -76.99886283333333}, {"fusion_lat": 0.0, "name": "6cacd4b815bd6a1aa9f58d3f761b1d9b", "is_disabled": 0, "rental_uris": {"android": "https://dc.lft.to/lastmile_qr_scan", "ios": "https://dc.lft.to/lastmile_qr_scan"}, "fusion_lon": 0.0, "lat": 38.893468166666665, "bike_id": "6cacd4b815bd6a1aa9f58d3f761b1d9b", "type": "electric_scooter", "is_reserved": 0, "lon": -77.03984983333334}, {"fusion_lat": 0.0, "name": "44b37ab5a13dd1a21e64c981134bbe18", "is_disabled": 0, "rental_uris": {"android": "https://dc.lft.to/lastmile_qr_scan", "ios": "https://dc.lft.to/lastmile_qr_scan"}, "fusion_lon": 0.0, "lat": 38.899044, "bike_id": "44b37ab5a13dd1a21e64c981134bbe18", "type": "electric_scooter", "is_reserved": 0, "lon": -77.02616933333333}, {"fusion_lat": 0.0, "name": "53a4f23d5b6115739edf5b3cce0b9505", "is_disabled": 0, "rental_uris": {"android": "https://dc.lft.to/lastmile_qr_scan", "ios": "https://dc.lft.to/lastmile_qr_scan"}, "fusion_lon": 0.0, "lat": 38.926987, "bike_id": "53a4f23d5b6115739edf5b3cce0b9505", "type": "electric_scooter", "is_reserved": 0, "lon": -77.02130683333333}, {"fusion_lat": 0.0, "name": "16bd5cf9e548e87b8e83124e80a844ca", "is_disabled": 0, "rental_uris": {"android": "https://dc.lft.to/lastmile_qr_scan", "ios": "https://dc.lft.to/lastmile_qr_scan"}, "fusion_lon": 0.0, "lat": 38.919827833333336, "bike_id": "16bd5cf9e548e87b8e83124e80a844ca", "type": "electric_scooter", "is_reserved": 0, "lon": -77.03264616666667}, {"fusion_lat": 0.0, "name": "b355519ee361cafaa0ab0f43f28c5626", "is_disabled": 0, "rental_uris": {"android": "https://dc.lft.to/lastmile_qr_scan", "ios": "https://dc.lft.to/lastmile_qr_scan"}, "fusion_lon": 0.0, "lat": 38.90502633333333, "bike_id": "b355519ee361cafaa0ab0f43f28c5626", "type": "electric_scooter", "is_reserved": 0, "lon": -76.979576}, {"fusion_lat": 0.0, "name": "5e3f9ecc64565b7553b27ae3f8c7d046", "is_disabled": 0, "rental_uris": {"android": "https://dc.lft.to/lastmile_qr_scan", "ios": "https://dc.lft.to/lastmile_qr_scan"}, "fusion_lon": 0.0, "lat": 38.86138966666667, "bike_id": "5e3f9ecc64565b7553b27ae3f8c7d046", "type": "electric_bike", "is_reserved": 0, "lon": -76.97170866666667}, {"fusion_lat": 0.0, "name": "2206c3ce02fffaf85c89628e2ea26b4b", "is_disabled": 0, "rental_uris": {"android": "https://dc.lft.to/lastmile_qr_scan", "ios": "https://dc.lft.to/lastmile_qr_scan"}, "fusion_lon": 0.0, "lat": 38.949797, "bike_id": "2206c3ce02fffaf85c89628e2ea26b4b", "type": "electric_scooter", "is_reserved": 0, "lon": -77.02699783333334}, {"fusion_lat": 0.0, "name": "bef10edec51e2c94335f7af3fcdb7145", "is_disabled": 0, "rental_uris": {"android": "https://dc.lft.to/lastmile_qr_scan", "ios": "https://dc.lft.to/lastmile_qr_scan"}, "fusion_lon": 0.0, "lat": 38.89476766666667, "bike_id": "bef10edec51e2c94335f7af3fcdb7145", "type": "electric_scooter", "is_reserved": 0, "lon": -77.02020933333333}, {"fusion_lat": 0.0, "name": "d0d493f8267be0e316c484fa06e47a72", "is_disabled": 0, "rental_uris": {"android": "https://dc.lft.to/lastmile_qr_scan", "ios": "https://dc.lft.to/lastmile_qr_scan"}, "fusion_lon": 0.0, "lat": 38.89621366666667, "bike_id": "d0d493f8267be0e316c484fa06e47a72", "type": "electric_scooter", "is_reserved": 0, "lon": -77.03170833333333}, {"fusion_lat": 0.0, "name": "8647da3918e4865b2a632cb052423c83", "is_disabled": 0, "rental_uris": {"android": "https://dc.lft.to/lastmile_qr_scan", "ios": "https://dc.lft.to/lastmile_qr_scan"}, "fusion_lon": 0.0, "lat": 38.901391333333336, "bike_id": "8647da3918e4865b2a632cb052423c83", "type": "electric_scooter", "is_reserved": 0, "lon": -76.98958466666667}, {"fusion_lat": 0.0, "name": "e68cbf3e5e605522bd9468ec7539a391", "is_disabled": 0, "rental_uris": {"android": "https://dc.lft.to/lastmile_qr_scan", "ios": "https://dc.lft.to/lastmile_qr_scan"}, "fusion_lon": 0.0, "lat": 38.86763666666667, "bike_id": "e68cbf3e5e605522bd9468ec7539a391", "type": "electric_scooter", "is_reserved": 0, "lon": -76.98271066666666}, {"fusion_lat": 0.0, "name": "fc097ebf5e5221f363c769b54e58af48", "is_disabled": 0, "rental_uris": {"android": "https://dc.lft.to/lastmile_qr_scan", "ios": "https://dc.lft.to/lastmile_qr_scan"}, "fusion_lon": 0.0, "lat": 38.92151116666667, "bike_id": "fc097ebf5e5221f363c769b54e58af48", "type": "electric_scooter", "is_reserved": 0, "lon": -77.0242995}, {"fusion_lat": 0.0, "name": "6ba843cc3b617113a0b5ad0d1e2607f8", "is_disabled": 0, "rental_uris": {"android": "https://dc.lft.to/lastmile_qr_scan", "ios": "https://dc.lft.to/lastmile_qr_scan"}, "fusion_lon": 0.0, "lat": 38.873757833333336, "bike_id": "6ba843cc3b617113a0b5ad0d1e2607f8", "type": "electric_scooter", "is_reserved": 0, "lon": -77.00132616666667}, {"fusion_lat": 0.0, "name": "13d49a073493ef140e2ac463e6fe927f", "is_disabled": 0, "rental_uris": {"android": "https://dc.lft.to/lastmile_qr_scan", "ios": "https://dc.lft.to/lastmile_qr_scan"}, "fusion_lon": 0.0, "lat": 38.89541116666667, "bike_id": "13d49a073493ef140e2ac463e6fe927f", "type": "electric_scooter", "is_reserved": 0, "lon": -76.9564085}, {"fusion_lat": 0.0, "name": "385a382278c371aaa2629dde98349c17", "is_disabled": 0, "rental_uris": {"android": "https://dc.lft.to/lastmile_qr_scan", "ios": "https://dc.lft.to/lastmile_qr_scan"}, "fusion_lon": 0.0, "lat": 38.920342833333336, "bike_id": "385a382278c371aaa2629dde98349c17", "type": "electric_scooter", "is_reserved": 0, "lon": -77.03069783333333}, {"fusion_lat": 0.0, "name": "47a912a88eff5af34a90a0e9a265f841", "is_disabled": 0, "rental_uris": {"android": "https://dc.lft.to/lastmile_qr_scan", "ios": "https://dc.lft.to/lastmile_qr_scan"}, "fusion_lon": 0.0, "lat": 38.915652, "bike_id": "47a912a88eff5af34a90a0e9a265f841", "type": "electric_scooter", "is_reserved": 0, "lon": -77.03238833333333}, {"fusion_lat": 0.0, "name": "69f68ed6fdf04d7ebcd346fce9fe9ef0", "is_disabled": 0, "rental_uris": {"android": "https://dc.lft.to/lastmile_qr_scan", "ios": "https://dc.lft.to/lastmile_qr_scan"}, "fusion_lon": 0.0, "lat": 38.96751733333333, "bike_id": "69f68ed6fdf04d7ebcd346fce9fe9ef0", "type": "electric_bike", "is_reserved": 0, "lon": -77.027973}, {"fusion_lat": 0.0, "name": "abc826d143a6c73219e3ca8fcf3a8e90", "is_disabled": 0, "rental_uris": {"android": "https://dc.lft.to/lastmile_qr_scan", "ios": "https://dc.lft.to/lastmile_qr_scan"}, "fusion_lon": 0.0, "lat": 38.961326, "bike_id": "abc826d143a6c73219e3ca8fcf3a8e90", "type": "electric_scooter", "is_reserved": 0, "lon": -77.02790366666666}, {"fusion_lat": 0.0, "name": "ae839176dc85ba36def62fc7f7fbf7b2", "is_disabled": 0, "rental_uris": {"android": "https://dc.lft.to/lastmile_qr_scan", "ios": "https://dc.lft.to/lastmile_qr_scan"}, "fusion_lon": 0.0, "lat": 38.90863183333333, "bike_id": "ae839176dc85ba36def62fc7f7fbf7b2", "type": "electric_scooter", "is_reserved": 0, "lon": -76.999598}, {"fusion_lat": 0.0, "name": "eb1e4093562391fe344f8cc3b4c8ddd5", "is_disabled": 0, "rental_uris": {"android": "https://dc.lft.to/lastmile_qr_scan", "ios": "https://dc.lft.to/lastmile_qr_scan"}, "fusion_lon": 0.0, "lat": 38.897176333333334, "bike_id": "eb1e4093562391fe344f8cc3b4c8ddd5", "type": "electric_scooter", "is_reserved": 0, "lon": -77.02146066666667}, {"fusion_lat": 0.0, "name": "ea9a475a880411399195e7bd84bb19a2", "is_disabled": 0, "rental_uris": {"android": "https://dc.lft.to/lastmile_qr_scan", "ios": "https://dc.lft.to/lastmile_qr_scan"}, "fusion_lon": 0.0, "lat": 38.890092, "bike_id": "ea9a475a880411399195e7bd84bb19a2", "type": "electric_scooter", "is_reserved": 0, "lon": -76.93742966666667}, {"fusion_lat": 0.0, "name": "9982f602eb945b2c8c45dfd965490ab5", "is_disabled": 0, "rental_uris": {"android": "https://dc.lft.to/lastmile_qr_scan", "ios": "https://dc.lft.to/lastmile_qr_scan"}, "fusion_lon": 0.0, "lat": 38.92076, "bike_id": "9982f602eb945b2c8c45dfd965490ab5", "type": "electric_scooter", "is_reserved": 0, "lon": -77.028562}, {"fusion_lat": 0.0, "name": "72afc494372aef52982931b4e81cb54e", "is_disabled": 0, "rental_uris": {"android": "https://dc.lft.to/lastmile_qr_scan", "ios": "https://dc.lft.to/lastmile_qr_scan"}, "fusion_lon": 0.0, "lat": 38.889632666666664, "bike_id": "72afc494372aef52982931b4e81cb54e", "type": "electric_scooter", "is_reserved": 0, "lon": -77.01506383333333}, {"fusion_lat": 0.0, "name": "35d7f6741b16efeb995d9a32155d0687", "is_disabled": 0, "rental_uris": {"android": "https://dc.lft.to/lastmile_qr_scan", "ios": "https://dc.lft.to/lastmile_qr_scan"}, "fusion_lon": 0.0, "lat": 38.9245475, "bike_id": "35d7f6741b16efeb995d9a32155d0687", "type": "electric_scooter", "is_reserved": 0, "lon": -77.02409466666667}, {"fusion_lat": 0.0, "name": "f3d0faef606b2412823a4f82e6b788a0", "is_disabled": 0, "rental_uris": {"android": "https://dc.lft.to/lastmile_qr_scan", "ios": "https://dc.lft.to/lastmile_qr_scan"}, "fusion_lon": 0.0, "lat": 38.91214683333333, "bike_id": "f3d0faef606b2412823a4f82e6b788a0", "type": "electric_scooter", "is_reserved": 0, "lon": -77.04518283333333}, {"fusion_lat": 0.0, "name": "aedf4dcbb548349a535f06229cf18297", "is_disabled": 0, "rental_uris": {"android": "https://dc.lft.to/lastmile_qr_scan", "ios": "https://dc.lft.to/lastmile_qr_scan"}, "fusion_lon": 0.0, "lat": 38.90185233333333, "bike_id": "aedf4dcbb548349a535f06229cf18297", "type": "electric_scooter", "is_reserved": 0, "lon": -77.05908116666667}, {"fusion_lat": 0.0, "name": "5e567ae858e6c16e290b2a714c4b2573", "is_disabled": 0, "rental_uris": {"android": "https://dc.lft.to/lastmile_qr_scan", "ios": "https://dc.lft.to/lastmile_qr_scan"}, "fusion_lon": 0.0, "lat": 38.884759833333334, "bike_id": "5e567ae858e6c16e290b2a714c4b2573", "type": "electric_scooter", "is_reserved": 0, "lon": -77.02432666666667}, {"fusion_lat": 0.0, "name": "4869cf8ce1a19db926692b1a60bb7fb1", "is_disabled": 0, "rental_uris": {"android": "https://dc.lft.to/lastmile_qr_scan", "ios": "https://dc.lft.to/lastmile_qr_scan"}, "fusion_lon": 0.0, "lat": 38.9141785, "bike_id": "4869cf8ce1a19db926692b1a60bb7fb1", "type": "electric_scooter", "is_reserved": 0, "lon": -77.0317425}, {"fusion_lat": 0.0, "name": "4323efee55d42dce51880b714e5af3f3", "is_disabled": 0, "rental_uris": {"android": "https://dc.lft.to/lastmile_qr_scan", "ios": "https://dc.lft.to/lastmile_qr_scan"}, "fusion_lon": 0.0, "lat": 38.934595333333334, "bike_id": "4323efee55d42dce51880b714e5af3f3", "type": "electric_scooter", "is_reserved": 0, "lon": -77.05781916666666}, {"fusion_lat": 0.0, "name": "218581630d3ea1980b44851f2b3e12aa", "is_disabled": 0, "rental_uris": {"android": "https://dc.lft.to/lastmile_qr_scan", "ios": "https://dc.lft.to/lastmile_qr_scan"}, "fusion_lon": 0.0, "lat": 38.919787, "bike_id": "218581630d3ea1980b44851f2b3e12aa", "type": "electric_scooter", "is_reserved": 0, "lon": -77.03330433333333}, {"fusion_lat": 0.0, "name": "240358f31fa966a5e004447109a0b32b", "is_disabled": 0, "rental_uris": {"android": "https://dc.lft.to/lastmile_qr_scan", "ios": "https://dc.lft.to/lastmile_qr_scan"}, "fusion_lon": 0.0, "lat": 38.900136, "bike_id": "240358f31fa966a5e004447109a0b32b", "type": "electric_scooter", "is_reserved": 0, "lon": -77.04501933333333}, {"fusion_lat": 0.0, "name": "3ff2666047b4eb5a334337864e56053f", "is_disabled": 0, "rental_uris": {"android": "https://dc.lft.to/lastmile_qr_scan", "ios": "https://dc.lft.to/lastmile_qr_scan"}, "fusion_lon": 0.0, "lat": 38.92697316666667, "bike_id": "3ff2666047b4eb5a334337864e56053f", "type": "electric_scooter", "is_reserved": 0, "lon": -77.024299}, {"fusion_lat": 0.0, "name": "81075dc6f10466f64536a9e1d0a36971", "is_disabled": 0, "rental_uris": {"android": "https://dc.lft.to/lastmile_qr_scan", "ios": "https://dc.lft.to/lastmile_qr_scan"}, "fusion_lon": 0.0, "lat": 38.8995685, "bike_id": "81075dc6f10466f64536a9e1d0a36971", "type": "electric_scooter", "is_reserved": 0, "lon": -77.03362716666666}, {"fusion_lat": 0.0, "name": "622fd9f45f307a10abe89a7c81c8821d", "is_disabled": 0, "rental_uris": {"android": "https://dc.lft.to/lastmile_qr_scan", "ios": "https://dc.lft.to/lastmile_qr_scan"}, "fusion_lon": 0.0, "lat": 38.9587525, "bike_id": "622fd9f45f307a10abe89a7c81c8821d", "type": "electric_bike", "is_reserved": 0, "lon": -76.97060133333333}, {"fusion_lat": 0.0, "name": "6ee1f0b2b2969cc31befcf39d9db561e", "is_disabled": 0, "rental_uris": {"android": "https://dc.lft.to/lastmile_qr_scan", "ios": "https://dc.lft.to/lastmile_qr_scan"}, "fusion_lon": 0.0, "lat": 38.956338, "bike_id": "6ee1f0b2b2969cc31befcf39d9db561e", "type": "electric_scooter", "is_reserved": 0, "lon": -77.03307216666667}, {"fusion_lat": 0.0, "name": "e1fe94e6e02cff9c69e70f826e04edb0", "is_disabled": 0, "rental_uris": {"android": "https://dc.lft.to/lastmile_qr_scan", "ios": "https://dc.lft.to/lastmile_qr_scan"}, "fusion_lon": 0.0, "lat": 38.8996055, "bike_id": "e1fe94e6e02cff9c69e70f826e04edb0", "type": "electric_scooter", "is_reserved": 0, "lon": -77.015134}, {"fusion_lat": 0.0, "name": "131be787b08ac1db15f78671b9af5e8c", "is_disabled": 0, "rental_uris": {"android": "https://dc.lft.to/lastmile_qr_scan", "ios": "https://dc.lft.to/lastmile_qr_scan"}, "fusion_lon": 0.0, "lat": 38.927475, "bike_id": "131be787b08ac1db15f78671b9af5e8c", "type": "electric_bike", "is_reserved": 0, "lon": -77.03637983333333}, {"fusion_lat": 0.0, "name": "70de939695d890bd47764ccf71988b5e", "is_disabled": 0, "rental_uris": {"android": "https://dc.lft.to/lastmile_qr_scan", "ios": "https://dc.lft.to/lastmile_qr_scan"}, "fusion_lon": 0.0, "lat": 38.9250245, "bike_id": "70de939695d890bd47764ccf71988b5e", "type": "electric_scooter", "is_reserved": 0, "lon": -77.0233035}, {"fusion_lat": 0.0, "name": "97dfd21c1b9e40a8079d007098b1c105", "is_disabled": 0, "rental_uris": {"android": "https://dc.lft.to/lastmile_qr_scan", "ios": "https://dc.lft.to/lastmile_qr_scan"}, "fusion_lon": 0.0, "lat": 38.90114033333333, "bike_id": "97dfd21c1b9e40a8079d007098b1c105", "type": "electric_scooter", "is_reserved": 0, "lon": -77.03179116666666}, {"fusion_lat": 0.0, "name": "36f699246e4efae07e4ed8e03b10c99a", "is_disabled": 0, "rental_uris": {"android": "https://dc.lft.to/lastmile_qr_scan", "ios": "https://dc.lft.to/lastmile_qr_scan"}, "fusion_lon": 0.0, "lat": 38.9022465, "bike_id": "36f699246e4efae07e4ed8e03b10c99a", "type": "electric_scooter", "is_reserved": 0, "lon": -77.026321}, {"fusion_lat": 0.0, "name": "1f7500331426192d6a6bc407a89af7b8", "is_disabled": 0, "rental_uris": {"android": "https://dc.lft.to/lastmile_qr_scan", "ios": "https://dc.lft.to/lastmile_qr_scan"}, "fusion_lon": 0.0, "lat": 38.9387985, "bike_id": "1f7500331426192d6a6bc407a89af7b8", "type": "electric_scooter", "is_reserved": 0, "lon": -77.02464533333334}, {"fusion_lat": 0.0, "name": "f2dad8b2c6c073826292b2f87411aabb", "is_disabled": 0, "rental_uris": {"android": "https://dc.lft.to/lastmile_qr_scan", "ios": "https://dc.lft.to/lastmile_qr_scan"}, "fusion_lon": 0.0, "lat": 38.91040616666667, "bike_id": "f2dad8b2c6c073826292b2f87411aabb", "type": "electric_scooter", "is_reserved": 0, "lon": -77.00824916666667}, {"fusion_lat": 0.0, "name": "52ed8c9170685a14f6394b86e99d619a", "is_disabled": 0, "rental_uris": {"android": "https://dc.lft.to/lastmile_qr_scan", "ios": "https://dc.lft.to/lastmile_qr_scan"}, "fusion_lon": 0.0, "lat": 38.928943833333335, "bike_id": "52ed8c9170685a14f6394b86e99d619a", "type": "electric_bike", "is_reserved": 0, "lon": -77.23180683333334}, {"fusion_lat": 0.0, "name": "8e38745a2b46687c8ef9984c2074b85a", "is_disabled": 0, "rental_uris": {"android": "https://dc.lft.to/lastmile_qr_scan", "ios": "https://dc.lft.to/lastmile_qr_scan"}, "fusion_lon": 0.0, "lat": 38.9528255, "bike_id": "8e38745a2b46687c8ef9984c2074b85a", "type": "electric_scooter", "is_reserved": 0, "lon": -77.0687775}, {"fusion_lat": 0.0, "name": "12a4a66211b37193b7a34ec77811def9", "is_disabled": 0, "rental_uris": {"android": "https://dc.lft.to/lastmile_qr_scan", "ios": "https://dc.lft.to/lastmile_qr_scan"}, "fusion_lon": 0.0, "lat": 38.89789183333333, "bike_id": "12a4a66211b37193b7a34ec77811def9", "type": "electric_scooter", "is_reserved": 0, "lon": -77.011925}, {"fusion_lat": 0.0, "name": "81bca0ad3d43430cb1726f34f73ead9e", "is_disabled": 0, "rental_uris": {"android": "https://dc.lft.to/lastmile_qr_scan", "ios": "https://dc.lft.to/lastmile_qr_scan"}, "fusion_lon": 0.0, "lat": 38.900321166666664, "bike_id": "81bca0ad3d43430cb1726f34f73ead9e", "type": "electric_scooter", "is_reserved": 0, "lon": -76.99403}, {"fusion_lat": 0.0, "name": "57d1470f6022794cf03e122a129e0a16", "is_disabled": 0, "rental_uris": {"android": "https://dc.lft.to/lastmile_qr_scan", "ios": "https://dc.lft.to/lastmile_qr_scan"}, "fusion_lon": 0.0, "lat": 38.909538833333336, "bike_id": "57d1470f6022794cf03e122a129e0a16", "type": "electric_scooter", "is_reserved": 0, "lon": -76.9854375}, {"fusion_lat": 0.0, "name": "5977cf137c905a4d3f52704ebcb368c3", "is_disabled": 0, "rental_uris": {"android": "https://dc.lft.to/lastmile_qr_scan", "ios": "https://dc.lft.to/lastmile_qr_scan"}, "fusion_lon": 0.0, "lat": 38.84130016666667, "bike_id": "5977cf137c905a4d3f52704ebcb368c3", "type": "electric_bike", "is_reserved": 0, "lon": -77.06313366666667}, {"fusion_lat": 0.0, "name": "c2e2338c37a3c62ea8da74899e78f546", "is_disabled": 0, "rental_uris": {"android": "https://dc.lft.to/lastmile_qr_scan", "ios": "https://dc.lft.to/lastmile_qr_scan"}, "fusion_lon": 0.0, "lat": 38.88132383333333, "bike_id": "c2e2338c37a3c62ea8da74899e78f546", "type": "electric_scooter", "is_reserved": 0, "lon": -77.02718716666666}, {"fusion_lat": 0.0, "name": "7d61c9c922aba9e82c9485048a198e3a", "is_disabled": 0, "rental_uris": {"android": "https://dc.lft.to/lastmile_qr_scan", "ios": "https://dc.lft.to/lastmile_qr_scan"}, "fusion_lon": 0.0, "lat": 38.93750466666667, "bike_id": "7d61c9c922aba9e82c9485048a198e3a", "type": "electric_scooter", "is_reserved": 0, "lon": -77.025325}, {"fusion_lat": 0.0, "name": "3fe7cf9306c9e67fb1884003667a64ae", "is_disabled": 0, "rental_uris": {"android": "https://dc.lft.to/lastmile_qr_scan", "ios": "https://dc.lft.to/lastmile_qr_scan"}, "fusion_lon": 0.0, "lat": 38.81938733333333, "bike_id": "3fe7cf9306c9e67fb1884003667a64ae", "type": "electric_bike", "is_reserved": 0, "lon": -77.00206083333333}, {"fusion_lat": 0.0, "name": "9794748a58f4ed9989e8192d80d54c14", "is_disabled": 0, "rental_uris": {"android": "https://dc.lft.to/lastmile_qr_scan", "ios": "https://dc.lft.to/lastmile_qr_scan"}, "fusion_lon": 0.0, "lat": 38.88966533333333, "bike_id": "9794748a58f4ed9989e8192d80d54c14", "type": "electric_scooter", "is_reserved": 0, "lon": -76.979733}, {"fusion_lat": 0.0, "name": "2593add02d5198308e04ec7af8ec7484", "is_disabled": 0, "rental_uris": {"android": "https://dc.lft.to/lastmile_qr_scan", "ios": "https://dc.lft.to/lastmile_qr_scan"}, "fusion_lon": 0.0, "lat": 38.863527, "bike_id": "2593add02d5198308e04ec7af8ec7484", "type": "electric_bike", "is_reserved": 0, "lon": -77.0772495}, {"fusion_lat": 0.0, "name": "123502478d829716ef77ab0b0c23e516", "is_disabled": 0, "rental_uris": {"android": "https://dc.lft.to/lastmile_qr_scan", "ios": "https://dc.lft.to/lastmile_qr_scan"}, "fusion_lon": 0.0, "lat": 38.89217716666667, "bike_id": "123502478d829716ef77ab0b0c23e516", "type": "electric_scooter", "is_reserved": 0, "lon": -77.00305716666666}, {"fusion_lat": 0.0, "name": "d9893183da6489ddb76bb1bd03cc2287", "is_disabled": 0, "rental_uris": {"android": "https://dc.lft.to/lastmile_qr_scan", "ios": "https://dc.lft.to/lastmile_qr_scan"}, "fusion_lon": 0.0, "lat": 38.952845833333335, "bike_id": "d9893183da6489ddb76bb1bd03cc2287", "type": "electric_bike", "is_reserved": 0, "lon": -77.00003083333333}, {"fusion_lat": 0.0, "name": "5cefa446ff5af1064f416a8b0f9b79f7", "is_disabled": 0, "rental_uris": {"android": "https://dc.lft.to/lastmile_qr_scan", "ios": "https://dc.lft.to/lastmile_qr_scan"}, "fusion_lon": 0.0, "lat": 38.89665566666667, "bike_id": "5cefa446ff5af1064f416a8b0f9b79f7", "type": "electric_scooter", "is_reserved": 0, "lon": -77.02477833333333}, {"fusion_lat": 0.0, "name": "1d081da7a5703b0ad2b0a44ea694a379", "is_disabled": 0, "rental_uris": {"android": "https://dc.lft.to/lastmile_qr_scan", "ios": "https://dc.lft.to/lastmile_qr_scan"}, "fusion_lon": 0.0, "lat": 38.88408483333333, "bike_id": "1d081da7a5703b0ad2b0a44ea694a379", "type": "electric_scooter", "is_reserved": 0, "lon": -77.01937183333334}, {"fusion_lat": 0.0, "name": "877997f53e4ddf4b3dd13652397649b9", "is_disabled": 0, "rental_uris": {"android": "https://dc.lft.to/lastmile_qr_scan", "ios": "https://dc.lft.to/lastmile_qr_scan"}, "fusion_lon": 0.0, "lat": 38.900619, "bike_id": "877997f53e4ddf4b3dd13652397649b9", "type": "electric_scooter", "is_reserved": 0, "lon": -77.0452985}, {"fusion_lat": 0.0, "name": "e14f9e012d9ced0c1bb2b9ae1a3653cc", "is_disabled": 0, "rental_uris": {"android": "https://dc.lft.to/lastmile_qr_scan", "ios": "https://dc.lft.to/lastmile_qr_scan"}, "fusion_lon": 0.0, "lat": 38.900205166666666, "bike_id": "e14f9e012d9ced0c1bb2b9ae1a3653cc", "type": "electric_scooter", "is_reserved": 0, "lon": -77.01121516666667}, {"fusion_lat": 0.0, "name": "40a0284a2f361ae3a91a82b91e054fcc", "is_disabled": 0, "rental_uris": {"android": "https://dc.lft.to/lastmile_qr_scan", "ios": "https://dc.lft.to/lastmile_qr_scan"}, "fusion_lon": 0.0, "lat": 38.915556, "bike_id": "40a0284a2f361ae3a91a82b91e054fcc", "type": "electric_scooter", "is_reserved": 0, "lon": -77.03867333333334}, {"fusion_lat": 0.0, "name": "851380bdc8eb394f7d064511746c2df2", "is_disabled": 0, "rental_uris": {"android": "https://dc.lft.to/lastmile_qr_scan", "ios": "https://dc.lft.to/lastmile_qr_scan"}, "fusion_lon": 0.0, "lat": 38.916686166666665, "bike_id": "851380bdc8eb394f7d064511746c2df2", "type": "electric_scooter", "is_reserved": 0, "lon": -77.03669533333333}, {"fusion_lat": 0.0, "name": "72c74cdfb9432a1feb064c673285e68e", "is_disabled": 0, "rental_uris": {"android": "https://dc.lft.to/lastmile_qr_scan", "ios": "https://dc.lft.to/lastmile_qr_scan"}, "fusion_lon": 0.0, "lat": 38.997802666666665, "bike_id": "72c74cdfb9432a1feb064c673285e68e", "type": "electric_bike", "is_reserved": 0, "lon": -77.04716316666666}, {"fusion_lat": 0.0, "name": "5f18b8b1109aabf1c80c1354b13e6dab", "is_disabled": 0, "rental_uris": {"android": "https://dc.lft.to/lastmile_qr_scan", "ios": "https://dc.lft.to/lastmile_qr_scan"}, "fusion_lon": 0.0, "lat": 38.941288166666666, "bike_id": "5f18b8b1109aabf1c80c1354b13e6dab", "type": "electric_scooter", "is_reserved": 0, "lon": -77.026488}, {"fusion_lat": 0.0, "name": "5f286e634e538b2ae470d57a8ece3613", "is_disabled": 0, "rental_uris": {"android": "https://dc.lft.to/lastmile_qr_scan", "ios": "https://dc.lft.to/lastmile_qr_scan"}, "fusion_lon": 0.0, "lat": 38.90522133333333, "bike_id": "5f286e634e538b2ae470d57a8ece3613", "type": "electric_scooter", "is_reserved": 0, "lon": -77.06550633333333}, {"fusion_lat": 0.0, "name": "a42376396b87eaf6579fbad5cae5eafd", "is_disabled": 0, "rental_uris": {"android": "https://dc.lft.to/lastmile_qr_scan", "ios": "https://dc.lft.to/lastmile_qr_scan"}, "fusion_lon": 0.0, "lat": 38.93900933333333, "bike_id": "a42376396b87eaf6579fbad5cae5eafd", "type": "electric_bike", "is_reserved": 0, "lon": -77.032645}, {"fusion_lat": 0.0, "name": "8829c8f35613cc880a685a1deaa5a3b4", "is_disabled": 0, "rental_uris": {"android": "https://dc.lft.to/lastmile_qr_scan", "ios": "https://dc.lft.to/lastmile_qr_scan"}, "fusion_lon": 0.0, "lat": 38.80759183333333, "bike_id": "8829c8f35613cc880a685a1deaa5a3b4", "type": "electric_bike", "is_reserved": 0, "lon": -77.09474066666667}, {"fusion_lat": 0.0, "name": "54c8e414e2aa7f4563ee9f6b1afde225", "is_disabled": 0, "rental_uris": {"android": "https://dc.lft.to/lastmile_qr_scan", "ios": "https://dc.lft.to/lastmile_qr_scan"}, "fusion_lon": 0.0, "lat": 38.9028945, "bike_id": "54c8e414e2aa7f4563ee9f6b1afde225", "type": "electric_scooter", "is_reserved": 0, "lon": -76.976363}, {"fusion_lat": 0.0, "name": "8186b45e948b4c879e5190c384414b84", "is_disabled": 0, "rental_uris": {"android": "https://dc.lft.to/lastmile_qr_scan", "ios": "https://dc.lft.to/lastmile_qr_scan"}, "fusion_lon": 0.0, "lat": 38.9164625, "bike_id": "8186b45e948b4c879e5190c384414b84", "type": "electric_scooter", "is_reserved": 0, "lon": -77.0316585}, {"fusion_lat": 0.0, "name": "21446fbd6f94420891673d7bb53b8cb7", "is_disabled": 0, "rental_uris": {"android": "https://dc.lft.to/lastmile_qr_scan", "ios": "https://dc.lft.to/lastmile_qr_scan"}, "fusion_lon": 0.0, "lat": 38.92232966666667, "bike_id": "21446fbd6f94420891673d7bb53b8cb7", "type": "electric_scooter", "is_reserved": 0, "lon": -77.01827183333333}, {"fusion_lat": 0.0, "name": "ecae993087f6c4dcf1e84ebadd69ec58", "is_disabled": 0, "rental_uris": {"android": "https://dc.lft.to/lastmile_qr_scan", "ios": "https://dc.lft.to/lastmile_qr_scan"}, "fusion_lon": 0.0, "lat": 38.914083, "bike_id": "ecae993087f6c4dcf1e84ebadd69ec58", "type": "electric_scooter", "is_reserved": 0, "lon": -77.03174133333333}, {"fusion_lat": 0.0, "name": "06f64d3f9fa2be17c03a9fde39e78dc7", "is_disabled": 0, "rental_uris": {"android": "https://dc.lft.to/lastmile_qr_scan", "ios": "https://dc.lft.to/lastmile_qr_scan"}, "fusion_lon": 0.0, "lat": 38.909277333333335, "bike_id": "06f64d3f9fa2be17c03a9fde39e78dc7", "type": "electric_scooter", "is_reserved": 0, "lon": -76.99744333333334}, {"fusion_lat": 0.0, "name": "2416c3889ff49862c0c73f2ad2c3b9d6", "is_disabled": 0, "rental_uris": {"android": "https://dc.lft.to/lastmile_qr_scan", "ios": "https://dc.lft.to/lastmile_qr_scan"}, "fusion_lon": 0.0, "lat": 38.9376815, "bike_id": "2416c3889ff49862c0c73f2ad2c3b9d6", "type": "electric_scooter", "is_reserved": 0, "lon": -77.0206895}, {"fusion_lat": 0.0, "name": "9d3c3443990f626f7c0ea7af462a89d2", "is_disabled": 0, "rental_uris": {"android": "https://dc.lft.to/lastmile_qr_scan", "ios": "https://dc.lft.to/lastmile_qr_scan"}, "fusion_lon": 0.0, "lat": 38.89710866666667, "bike_id": "9d3c3443990f626f7c0ea7af462a89d2", "type": "electric_scooter", "is_reserved": 0, "lon": -77.02003433333333}, {"fusion_lat": 0.0, "name": "7d0b40dfd303f10a10801ae0b5ae0b69", "is_disabled": 0, "rental_uris": {"android": "https://dc.lft.to/lastmile_qr_scan", "ios": "https://dc.lft.to/lastmile_qr_scan"}, "fusion_lon": 0.0, "lat": 38.904509833333336, "bike_id": "7d0b40dfd303f10a10801ae0b5ae0b69", "type": "electric_scooter", "is_reserved": 0, "lon": -77.0405995}, {"fusion_lat": 0.0, "name": "b1d1d8a0baaf6cf8772b020b2231cc84", "is_disabled": 0, "rental_uris": {"android": "https://dc.lft.to/lastmile_qr_scan", "ios": "https://dc.lft.to/lastmile_qr_scan"}, "fusion_lon": 0.0, "lat": 38.9167655, "bike_id": "b1d1d8a0baaf6cf8772b020b2231cc84", "type": "electric_scooter", "is_reserved": 0, "lon": -77.02418466666667}, {"fusion_lat": 0.0, "name": "175f759bc3c1357e6a9bc6fe87d8ff1c", "is_disabled": 0, "rental_uris": {"android": "https://dc.lft.to/lastmile_qr_scan", "ios": "https://dc.lft.to/lastmile_qr_scan"}, "fusion_lon": 0.0, "lat": 38.95164066666667, "bike_id": "175f759bc3c1357e6a9bc6fe87d8ff1c", "type": "electric_bike", "is_reserved": 0, "lon": -77.031657}, {"fusion_lat": 0.0, "name": "a1afa5639a9129464b0fb9183d43a898", "is_disabled": 0, "rental_uris": {"android": "https://dc.lft.to/lastmile_qr_scan", "ios": "https://dc.lft.to/lastmile_qr_scan"}, "fusion_lon": 0.0, "lat": 38.904016166666665, "bike_id": "a1afa5639a9129464b0fb9183d43a898", "type": "electric_scooter", "is_reserved": 0, "lon": -77.03531283333334}, {"fusion_lat": 0.0, "name": "4242f6ad8c667b9cc7bd5b9f341678a9", "is_disabled": 0, "rental_uris": {"android": "https://dc.lft.to/lastmile_qr_scan", "ios": "https://dc.lft.to/lastmile_qr_scan"}, "fusion_lon": 0.0, "lat": 38.8973555, "bike_id": "4242f6ad8c667b9cc7bd5b9f341678a9", "type": "electric_scooter", "is_reserved": 0, "lon": -77.05524983333333}, {"fusion_lat": 0.0, "name": "8166d92767b50a1c0c7faee9d11dbce4", "is_disabled": 0, "rental_uris": {"android": "https://dc.lft.to/lastmile_qr_scan", "ios": "https://dc.lft.to/lastmile_qr_scan"}, "fusion_lon": 0.0, "lat": 38.922227666666664, "bike_id": "8166d92767b50a1c0c7faee9d11dbce4", "type": "electric_scooter", "is_reserved": 0, "lon": -77.0221755}, {"fusion_lat": 0.0, "name": "a1def3e9a645bde65b77b988461a2013", "is_disabled": 0, "rental_uris": {"android": "https://dc.lft.to/lastmile_qr_scan", "ios": "https://dc.lft.to/lastmile_qr_scan"}, "fusion_lon": 0.0, "lat": 38.9191415, "bike_id": "a1def3e9a645bde65b77b988461a2013", "type": "electric_scooter", "is_reserved": 0, "lon": -77.02510766666667}, {"fusion_lat": 0.0, "name": "6c2e54056394c0a9c43de26290fae74d", "is_disabled": 0, "rental_uris": {"android": "https://dc.lft.to/lastmile_qr_scan", "ios": "https://dc.lft.to/lastmile_qr_scan"}, "fusion_lon": 0.0, "lat": 38.928688, "bike_id": "6c2e54056394c0a9c43de26290fae74d", "type": "electric_scooter", "is_reserved": 0, "lon": -77.01419383333334}, {"fusion_lat": 0.0, "name": "761c0e97f4e2617189fe15fe9f107839", "is_disabled": 0, "rental_uris": {"android": "https://dc.lft.to/lastmile_qr_scan", "ios": "https://dc.lft.to/lastmile_qr_scan"}, "fusion_lon": 0.0, "lat": 38.91417583333333, "bike_id": "761c0e97f4e2617189fe15fe9f107839", "type": "electric_scooter", "is_reserved": 0, "lon": -77.03175833333333}, {"fusion_lat": 0.0, "name": "9c408da64b44252c8009a63d44371b94", "is_disabled": 0, "rental_uris": {"android": "https://dc.lft.to/lastmile_qr_scan", "ios": "https://dc.lft.to/lastmile_qr_scan"}, "fusion_lon": 0.0, "lat": 38.93023133333333, "bike_id": "9c408da64b44252c8009a63d44371b94", "type": "electric_scooter", "is_reserved": 0, "lon": -77.0378885}, {"fusion_lat": 0.0, "name": "aab9179d783306be79a4b9116fca4864", "is_disabled": 0, "rental_uris": {"android": "https://dc.lft.to/lastmile_qr_scan", "ios": "https://dc.lft.to/lastmile_qr_scan"}, "fusion_lon": 0.0, "lat": 38.934590166666666, "bike_id": "aab9179d783306be79a4b9116fca4864", "type": "electric_scooter", "is_reserved": 0, "lon": -77.07238433333333}, {"fusion_lat": 0.0, "name": "a6ee08b17b5d59f8ac7671224577d60f", "is_disabled": 0, "rental_uris": {"android": "https://dc.lft.to/lastmile_qr_scan", "ios": "https://dc.lft.to/lastmile_qr_scan"}, "fusion_lon": 0.0, "lat": 38.86622416666667, "bike_id": "a6ee08b17b5d59f8ac7671224577d60f", "type": "electric_bike", "is_reserved": 0, "lon": -76.94570233333333}, {"fusion_lat": 0.0, "name": "5a3bcbb2a17d814e16f7f717ccb71283", "is_disabled": 0, "rental_uris": {"android": "https://dc.lft.to/lastmile_qr_scan", "ios": "https://dc.lft.to/lastmile_qr_scan"}, "fusion_lon": 0.0, "lat": 38.89855266666667, "bike_id": "5a3bcbb2a17d814e16f7f717ccb71283", "type": "electric_scooter", "is_reserved": 0, "lon": -76.97665333333333}, {"fusion_lat": 0.0, "name": "e643cf2f9df0760c7fa6c002fcc94400", "is_disabled": 0, "rental_uris": {"android": "https://dc.lft.to/lastmile_qr_scan", "ios": "https://dc.lft.to/lastmile_qr_scan"}, "fusion_lon": 0.0, "lat": 38.89091, "bike_id": "e643cf2f9df0760c7fa6c002fcc94400", "type": "electric_scooter", "is_reserved": 0, "lon": -76.919333}, {"fusion_lat": 0.0, "name": "ed15b1ab396e6d089155f13040c22d8a", "is_disabled": 0, "rental_uris": {"android": "https://dc.lft.to/lastmile_qr_scan", "ios": "https://dc.lft.to/lastmile_qr_scan"}, "fusion_lon": 0.0, "lat": 38.79854683333333, "bike_id": "ed15b1ab396e6d089155f13040c22d8a", "type": "electric_bike", "is_reserved": 0, "lon": -77.063097}, {"fusion_lat": 0.0, "name": "52a7671c6b4e6c4c58ec5db54222734e", "is_disabled": 0, "rental_uris": {"android": "https://dc.lft.to/lastmile_qr_scan", "ios": "https://dc.lft.to/lastmile_qr_scan"}, "fusion_lon": 0.0, "lat": 38.944347666666665, "bike_id": "52a7671c6b4e6c4c58ec5db54222734e", "type": "electric_bike", "is_reserved": 0, "lon": -77.02601883333334}, {"fusion_lat": 0.0, "name": "0d4958e7bbb9a6196dec647e80dc339e", "is_disabled": 0, "rental_uris": {"android": "https://dc.lft.to/lastmile_qr_scan", "ios": "https://dc.lft.to/lastmile_qr_scan"}, "fusion_lon": 0.0, "lat": 38.94320466666667, "bike_id": "0d4958e7bbb9a6196dec647e80dc339e", "type": "electric_scooter", "is_reserved": 0, "lon": -77.0031925}, {"fusion_lat": 0.0, "name": "6d788abe18a4dc373661334086782560", "is_disabled": 0, "rental_uris": {"android": "https://dc.lft.to/lastmile_qr_scan", "ios": "https://dc.lft.to/lastmile_qr_scan"}, "fusion_lon": 0.0, "lat": 38.93233566666667, "bike_id": "6d788abe18a4dc373661334086782560", "type": "electric_scooter", "is_reserved": 0, "lon": -77.034279}, {"fusion_lat": 0.0, "name": "05e738ef9e31a4bae6b60648ca917d1a", "is_disabled": 0, "rental_uris": {"android": "https://dc.lft.to/lastmile_qr_scan", "ios": "https://dc.lft.to/lastmile_qr_scan"}, "fusion_lon": 0.0, "lat": 38.914036333333335, "bike_id": "05e738ef9e31a4bae6b60648ca917d1a", "type": "electric_scooter", "is_reserved": 0, "lon": -77.0323105}, {"fusion_lat": 0.0, "name": "6d24c633fb0f9284d18ebccb65d56e50", "is_disabled": 0, "rental_uris": {"android": "https://dc.lft.to/lastmile_qr_scan", "ios": "https://dc.lft.to/lastmile_qr_scan"}, "fusion_lon": 0.0, "lat": 38.88577016666667, "bike_id": "6d24c633fb0f9284d18ebccb65d56e50", "type": "electric_scooter", "is_reserved": 0, "lon": -77.0121045}, {"fusion_lat": 0.0, "name": "cbd3c698a68e25e8e052be961558e655", "is_disabled": 0, "rental_uris": {"android": "https://dc.lft.to/lastmile_qr_scan", "ios": "https://dc.lft.to/lastmile_qr_scan"}, "fusion_lon": 0.0, "lat": 38.896720333333334, "bike_id": "cbd3c698a68e25e8e052be961558e655", "type": "electric_bike", "is_reserved": 0, "lon": -76.98690533333334}, {"fusion_lat": 0.0, "name": "c13f1b6a59d34a55f8e76a4b12665804", "is_disabled": 0, "rental_uris": {"android": "https://dc.lft.to/lastmile_qr_scan", "ios": "https://dc.lft.to/lastmile_qr_scan"}, "fusion_lon": 0.0, "lat": 38.90976333333333, "bike_id": "c13f1b6a59d34a55f8e76a4b12665804", "type": "electric_scooter", "is_reserved": 0, "lon": -77.04872016666667}, {"fusion_lat": 0.0, "name": "fbd257a02006a1af7f425be33cd48c9c", "is_disabled": 0, "rental_uris": {"android": "https://dc.lft.to/lastmile_qr_scan", "ios": "https://dc.lft.to/lastmile_qr_scan"}, "fusion_lon": 0.0, "lat": 38.92243783333333, "bike_id": "fbd257a02006a1af7f425be33cd48c9c", "type": "electric_scooter", "is_reserved": 0, "lon": -77.03912883333334}, {"fusion_lat": 0.0, "name": "a77edbdfb3e64fae260ea913a91e76d2", "is_disabled": 0, "rental_uris": {"android": "https://dc.lft.to/lastmile_qr_scan", "ios": "https://dc.lft.to/lastmile_qr_scan"}, "fusion_lon": 0.0, "lat": 38.9013455, "bike_id": "a77edbdfb3e64fae260ea913a91e76d2", "type": "electric_scooter", "is_reserved": 0, "lon": -77.022018}, {"fusion_lat": 0.0, "name": "8e3f6dd0d395e5442905aa649c702c68", "is_disabled": 0, "rental_uris": {"android": "https://dc.lft.to/lastmile_qr_scan", "ios": "https://dc.lft.to/lastmile_qr_scan"}, "fusion_lon": 0.0, "lat": 38.906030333333334, "bike_id": "8e3f6dd0d395e5442905aa649c702c68", "type": "electric_scooter", "is_reserved": 0, "lon": -77.06483883333334}, {"fusion_lat": 0.0, "name": "62c6091a49823194b73c83df0be717a3", "is_disabled": 0, "rental_uris": {"android": "https://dc.lft.to/lastmile_qr_scan", "ios": "https://dc.lft.to/lastmile_qr_scan"}, "fusion_lon": 0.0, "lat": 38.8814685, "bike_id": "62c6091a49823194b73c83df0be717a3", "type": "electric_scooter", "is_reserved": 0, "lon": -77.0271005}, {"fusion_lat": 0.0, "name": "01ac6532cb71e473430da34eef9cf960", "is_disabled": 0, "rental_uris": {"android": "https://dc.lft.to/lastmile_qr_scan", "ios": "https://dc.lft.to/lastmile_qr_scan"}, "fusion_lon": 0.0, "lat": 38.922547, "bike_id": "01ac6532cb71e473430da34eef9cf960", "type": "electric_scooter", "is_reserved": 0, "lon": -77.018468}, {"fusion_lat": 0.0, "name": "ae4e4c924826297eb8b8c62570591deb", "is_disabled": 0, "rental_uris": {"android": "https://dc.lft.to/lastmile_qr_scan", "ios": "https://dc.lft.to/lastmile_qr_scan"}, "fusion_lon": 0.0, "lat": 38.90412333333333, "bike_id": "ae4e4c924826297eb8b8c62570591deb", "type": "electric_scooter", "is_reserved": 0, "lon": -76.97328733333333}, {"fusion_lat": 0.0, "name": "b1ddd36746ed437676c21557a76a4fff", "is_disabled": 0, "rental_uris": {"android": "https://dc.lft.to/lastmile_qr_scan", "ios": "https://dc.lft.to/lastmile_qr_scan"}, "fusion_lon": 0.0, "lat": 38.9000965, "bike_id": "b1ddd36746ed437676c21557a76a4fff", "type": "electric_scooter", "is_reserved": 0, "lon": -77.0124475}, {"fusion_lat": 0.0, "name": "8e90b654ed7ce6fc41635f17d0724a2e", "is_disabled": 0, "rental_uris": {"android": "https://dc.lft.to/lastmile_qr_scan", "ios": "https://dc.lft.to/lastmile_qr_scan"}, "fusion_lon": 0.0, "lat": 38.89441333333333, "bike_id": "8e90b654ed7ce6fc41635f17d0724a2e", "type": "electric_scooter", "is_reserved": 0, "lon": -76.9748705}, {"fusion_lat": 0.0, "name": "4c00c7c8d9eb9d7548753cb7a479ae1b", "is_disabled": 0, "rental_uris": {"android": "https://dc.lft.to/lastmile_qr_scan", "ios": "https://dc.lft.to/lastmile_qr_scan"}, "fusion_lon": 0.0, "lat": 38.899939, "bike_id": "4c00c7c8d9eb9d7548753cb7a479ae1b", "type": "electric_scooter", "is_reserved": 0, "lon": -77.02214666666667}, {"fusion_lat": 0.0, "name": "284661698f10c066f655f3e39546e6a0", "is_disabled": 0, "rental_uris": {"android": "https://dc.lft.to/lastmile_qr_scan", "ios": "https://dc.lft.to/lastmile_qr_scan"}, "fusion_lon": 0.0, "lat": 38.877622, "bike_id": "284661698f10c066f655f3e39546e6a0", "type": "electric_scooter", "is_reserved": 0, "lon": -76.993954}, {"fusion_lat": 0.0, "name": "07b8ac010986490a72e196fc1e7bcde6", "is_disabled": 0, "rental_uris": {"android": "https://dc.lft.to/lastmile_qr_scan", "ios": "https://dc.lft.to/lastmile_qr_scan"}, "fusion_lon": 0.0, "lat": 38.8974555, "bike_id": "07b8ac010986490a72e196fc1e7bcde6", "type": "electric_scooter", "is_reserved": 0, "lon": -77.05127316666666}, {"fusion_lat": 0.0, "name": "aeaa91f68ce5372c8128f591ba3017fd", "is_disabled": 0, "rental_uris": {"android": "https://dc.lft.to/lastmile_qr_scan", "ios": "https://dc.lft.to/lastmile_qr_scan"}, "fusion_lon": 0.0, "lat": 38.834059333333336, "bike_id": "aeaa91f68ce5372c8128f591ba3017fd", "type": "electric_bike", "is_reserved": 0, "lon": -77.00335333333334}, {"fusion_lat": 0.0, "name": "8672774b13a5a1a779f9510bff937ade", "is_disabled": 0, "rental_uris": {"android": "https://dc.lft.to/lastmile_qr_scan", "ios": "https://dc.lft.to/lastmile_qr_scan"}, "fusion_lon": 0.0, "lat": 38.904471, "bike_id": "8672774b13a5a1a779f9510bff937ade", "type": "electric_scooter", "is_reserved": 0, "lon": -77.04089816666666}, {"fusion_lat": 0.0, "name": "76ae433eec1575f4dc1ac9e7c19115f3", "is_disabled": 0, "rental_uris": {"android": "https://dc.lft.to/lastmile_qr_scan", "ios": "https://dc.lft.to/lastmile_qr_scan"}, "fusion_lon": 0.0, "lat": 38.93306666666667, "bike_id": "76ae433eec1575f4dc1ac9e7c19115f3", "type": "electric_scooter", "is_reserved": 0, "lon": -77.03078733333334}, {"fusion_lat": 0.0, "name": "8aec437193991647d4f752d125ff889b", "is_disabled": 0, "rental_uris": {"android": "https://dc.lft.to/lastmile_qr_scan", "ios": "https://dc.lft.to/lastmile_qr_scan"}, "fusion_lon": 0.0, "lat": 38.90515166666667, "bike_id": "8aec437193991647d4f752d125ff889b", "type": "electric_scooter", "is_reserved": 0, "lon": -77.04834516666666}, {"fusion_lat": 0.0, "name": "eb73b071cb483266d5a009fa6758b163", "is_disabled": 0, "rental_uris": {"android": "https://dc.lft.to/lastmile_qr_scan", "ios": "https://dc.lft.to/lastmile_qr_scan"}, "fusion_lon": 0.0, "lat": 38.90294183333334, "bike_id": "eb73b071cb483266d5a009fa6758b163", "type": "electric_scooter", "is_reserved": 0, "lon": -77.03382566666667}, {"fusion_lat": 0.0, "name": "e93ee8410fb8fb95fc361cdfddde5ae5", "is_disabled": 0, "rental_uris": {"android": "https://dc.lft.to/lastmile_qr_scan", "ios": "https://dc.lft.to/lastmile_qr_scan"}, "fusion_lon": 0.0, "lat": 38.90139116666667, "bike_id": "e93ee8410fb8fb95fc361cdfddde5ae5", "type": "electric_scooter", "is_reserved": 0, "lon": -76.9984855}, {"fusion_lat": 0.0, "name": "647c86c0b1d48c8c001f0977192e3a80", "is_disabled": 0, "rental_uris": {"android": "https://dc.lft.to/lastmile_qr_scan", "ios": "https://dc.lft.to/lastmile_qr_scan"}, "fusion_lon": 0.0, "lat": 38.847562333333336, "bike_id": "647c86c0b1d48c8c001f0977192e3a80", "type": "electric_scooter", "is_reserved": 0, "lon": -76.99505266666667}, {"fusion_lat": 0.0, "name": "95f5dffbc95737555181e374543f09fd", "is_disabled": 0, "rental_uris": {"android": "https://dc.lft.to/lastmile_qr_scan", "ios": "https://dc.lft.to/lastmile_qr_scan"}, "fusion_lon": 0.0, "lat": 38.9147515, "bike_id": "95f5dffbc95737555181e374543f09fd", "type": "electric_scooter", "is_reserved": 0, "lon": -77.01326766666666}, {"fusion_lat": 0.0, "name": "cd4e2795cbc567d22f6b8843da996009", "is_disabled": 0, "rental_uris": {"android": "https://dc.lft.to/lastmile_qr_scan", "ios": "https://dc.lft.to/lastmile_qr_scan"}, "fusion_lon": 0.0, "lat": 38.91031316666667, "bike_id": "cd4e2795cbc567d22f6b8843da996009", "type": "electric_scooter", "is_reserved": 0, "lon": -77.02207966666667}, {"fusion_lat": 0.0, "name": "a14a172ad769fdb06bd6fb464d24103e", "is_disabled": 0, "rental_uris": {"android": "https://dc.lft.to/lastmile_qr_scan", "ios": "https://dc.lft.to/lastmile_qr_scan"}, "fusion_lon": 0.0, "lat": 38.85354266666667, "bike_id": "a14a172ad769fdb06bd6fb464d24103e", "type": "electric_bike", "is_reserved": 0, "lon": -77.1347205}, {"fusion_lat": 0.0, "name": "96ea6b18ef00c35d76fa40410057ba6d", "is_disabled": 0, "rental_uris": {"android": "https://dc.lft.to/lastmile_qr_scan", "ios": "https://dc.lft.to/lastmile_qr_scan"}, "fusion_lon": 0.0, "lat": 38.93352266666667, "bike_id": "96ea6b18ef00c35d76fa40410057ba6d", "type": "electric_scooter", "is_reserved": 0, "lon": -77.03298533333333}, {"fusion_lat": 0.0, "name": "0d574e1f54370d03fef773bd137d8b58", "is_disabled": 0, "rental_uris": {"android": "https://dc.lft.to/lastmile_qr_scan", "ios": "https://dc.lft.to/lastmile_qr_scan"}, "fusion_lon": 0.0, "lat": 38.90548833333333, "bike_id": "0d574e1f54370d03fef773bd137d8b58", "type": "electric_scooter", "is_reserved": 0, "lon": -77.0571435}, {"fusion_lat": 0.0, "name": "1fc442567c17f74bf2b625baa3cb46cb", "is_disabled": 0, "rental_uris": {"android": "https://dc.lft.to/lastmile_qr_scan", "ios": "https://dc.lft.to/lastmile_qr_scan"}, "fusion_lon": 0.0, "lat": 38.87679, "bike_id": "1fc442567c17f74bf2b625baa3cb46cb", "type": "electric_bike", "is_reserved": 0, "lon": -77.01791516666667}, {"fusion_lat": 0.0, "name": "a497741323a8280d7abf1cd4ce8d085b", "is_disabled": 0, "rental_uris": {"android": "https://dc.lft.to/lastmile_qr_scan", "ios": "https://dc.lft.to/lastmile_qr_scan"}, "fusion_lon": 0.0, "lat": 38.923657166666665, "bike_id": "a497741323a8280d7abf1cd4ce8d085b", "type": "electric_scooter", "is_reserved": 0, "lon": -77.0424305}, {"fusion_lat": 0.0, "name": "fe516b64dadaf1dcddbae1e0e9a25e2b", "is_disabled": 0, "rental_uris": {"android": "https://dc.lft.to/lastmile_qr_scan", "ios": "https://dc.lft.to/lastmile_qr_scan"}, "fusion_lon": 0.0, "lat": 38.883892333333336, "bike_id": "fe516b64dadaf1dcddbae1e0e9a25e2b", "type": "electric_scooter", "is_reserved": 0, "lon": -76.99605816666667}, {"fusion_lat": 0.0, "name": "892b787cff5a744176b261cd9c4420cd", "is_disabled": 0, "rental_uris": {"android": "https://dc.lft.to/lastmile_qr_scan", "ios": "https://dc.lft.to/lastmile_qr_scan"}, "fusion_lon": 0.0, "lat": 38.99538866666666, "bike_id": "892b787cff5a744176b261cd9c4420cd", "type": "electric_bike", "is_reserved": 0, "lon": -77.07454166666666}, {"fusion_lat": 0.0, "name": "3fc3ad16a3e1cbbf8b74e8223eee7697", "is_disabled": 0, "rental_uris": {"android": "https://dc.lft.to/lastmile_qr_scan", "ios": "https://dc.lft.to/lastmile_qr_scan"}, "fusion_lon": 0.0, "lat": 38.9165625, "bike_id": "3fc3ad16a3e1cbbf8b74e8223eee7697", "type": "electric_scooter", "is_reserved": 0, "lon": -77.02815033333333}, {"fusion_lat": 0.0, "name": "15f8966cb59d353319df906864297177", "is_disabled": 0, "rental_uris": {"android": "https://dc.lft.to/lastmile_qr_scan", "ios": "https://dc.lft.to/lastmile_qr_scan"}, "fusion_lon": 0.0, "lat": 38.907858833333336, "bike_id": "15f8966cb59d353319df906864297177", "type": "electric_scooter", "is_reserved": 0, "lon": -77.032107}, {"fusion_lat": 0.0, "name": "8f8cc89cad51e24e796b7ab0e6f381d3", "is_disabled": 0, "rental_uris": {"android": "https://dc.lft.to/lastmile_qr_scan", "ios": "https://dc.lft.to/lastmile_qr_scan"}, "fusion_lon": 0.0, "lat": 38.86249766666667, "bike_id": "8f8cc89cad51e24e796b7ab0e6f381d3", "type": "electric_bike", "is_reserved": 0, "lon": -76.983538}, {"fusion_lat": 0.0, "name": "37f9d6116e144a73a23cdd29e9aa2b4d", "is_disabled": 0, "rental_uris": {"android": "https://dc.lft.to/lastmile_qr_scan", "ios": "https://dc.lft.to/lastmile_qr_scan"}, "fusion_lon": 0.0, "lat": 38.902657, "bike_id": "37f9d6116e144a73a23cdd29e9aa2b4d", "type": "electric_scooter", "is_reserved": 0, "lon": -77.00325516666666}, {"fusion_lat": 0.0, "name": "3596c14cedaf4e7d9a3c1fe9aa739bed", "is_disabled": 0, "rental_uris": {"android": "https://dc.lft.to/lastmile_qr_scan", "ios": "https://dc.lft.to/lastmile_qr_scan"}, "fusion_lon": 0.0, "lat": 38.894769, "bike_id": "3596c14cedaf4e7d9a3c1fe9aa739bed", "type": "electric_scooter", "is_reserved": 0, "lon": -77.02182283333333}, {"fusion_lat": 0.0, "name": "f50a4e18d5ef351426aa62f7fa450771", "is_disabled": 0, "rental_uris": {"android": "https://dc.lft.to/lastmile_qr_scan", "ios": "https://dc.lft.to/lastmile_qr_scan"}, "fusion_lon": 0.0, "lat": 38.9004255, "bike_id": "f50a4e18d5ef351426aa62f7fa450771", "type": "electric_scooter", "is_reserved": 0, "lon": -77.01733983333334}, {"fusion_lat": 0.0, "name": "b9e78a385b4e4417195b53f5d95e1d63", "is_disabled": 0, "rental_uris": {"android": "https://dc.lft.to/lastmile_qr_scan", "ios": "https://dc.lft.to/lastmile_qr_scan"}, "fusion_lon": 0.0, "lat": 38.92795566666667, "bike_id": "b9e78a385b4e4417195b53f5d95e1d63", "type": "electric_scooter", "is_reserved": 0, "lon": -76.97976966666667}, {"fusion_lat": 0.0, "name": "30a2a4ce57d0f48abfefb21c3b344caf", "is_disabled": 0, "rental_uris": {"android": "https://dc.lft.to/lastmile_qr_scan", "ios": "https://dc.lft.to/lastmile_qr_scan"}, "fusion_lon": 0.0, "lat": 38.886244, "bike_id": "30a2a4ce57d0f48abfefb21c3b344caf", "type": "electric_scooter", "is_reserved": 0, "lon": -77.02011633333333}, {"fusion_lat": 0.0, "name": "81a82ff1191a32ca553bed140f5dd5cf", "is_disabled": 0, "rental_uris": {"android": "https://dc.lft.to/lastmile_qr_scan", "ios": "https://dc.lft.to/lastmile_qr_scan"}, "fusion_lon": 0.0, "lat": 38.90778816666667, "bike_id": "81a82ff1191a32ca553bed140f5dd5cf", "type": "electric_scooter", "is_reserved": 0, "lon": -77.038352}, {"fusion_lat": 0.0, "name": "d1a8a18927ed71b110b5fc40104d8b3d", "is_disabled": 0, "rental_uris": {"android": "https://dc.lft.to/lastmile_qr_scan", "ios": "https://dc.lft.to/lastmile_qr_scan"}, "fusion_lon": 0.0, "lat": 38.92073416666667, "bike_id": "d1a8a18927ed71b110b5fc40104d8b3d", "type": "electric_scooter", "is_reserved": 0, "lon": -77.04202566666666}, {"fusion_lat": 0.0, "name": "8c4afe2443f11d2ae359f82db59ae97b", "is_disabled": 0, "rental_uris": {"android": "https://dc.lft.to/lastmile_qr_scan", "ios": "https://dc.lft.to/lastmile_qr_scan"}, "fusion_lon": 0.0, "lat": 38.909989833333334, "bike_id": "8c4afe2443f11d2ae359f82db59ae97b", "type": "electric_scooter", "is_reserved": 0, "lon": -77.04662683333333}, {"fusion_lat": 0.0, "name": "56d978e989d7c0da1d230245a1d6ac62", "is_disabled": 0, "rental_uris": {"android": "https://dc.lft.to/lastmile_qr_scan", "ios": "https://dc.lft.to/lastmile_qr_scan"}, "fusion_lon": 0.0, "lat": 38.9069435, "bike_id": "56d978e989d7c0da1d230245a1d6ac62", "type": "electric_scooter", "is_reserved": 0, "lon": -77.03594416666667}, {"fusion_lat": 0.0, "name": "bc6b2f0e7dae6a7a0c9e0ea71588e2ca", "is_disabled": 0, "rental_uris": {"android": "https://dc.lft.to/lastmile_qr_scan", "ios": "https://dc.lft.to/lastmile_qr_scan"}, "fusion_lon": 0.0, "lat": 38.88126066666667, "bike_id": "bc6b2f0e7dae6a7a0c9e0ea71588e2ca", "type": "electric_scooter", "is_reserved": 0, "lon": -76.9928705}, {"fusion_lat": 0.0, "name": "cdb19bcfb1ebd7e50324856b623ec5ac", "is_disabled": 0, "rental_uris": {"android": "https://dc.lft.to/lastmile_qr_scan", "ios": "https://dc.lft.to/lastmile_qr_scan"}, "fusion_lon": 0.0, "lat": 38.89515, "bike_id": "cdb19bcfb1ebd7e50324856b623ec5ac", "type": "electric_scooter", "is_reserved": 0, "lon": -76.98085333333333}, {"fusion_lat": 0.0, "name": "b6bb4269b47a8f61b9a490bf24f1157a", "is_disabled": 0, "rental_uris": {"android": "https://dc.lft.to/lastmile_qr_scan", "ios": "https://dc.lft.to/lastmile_qr_scan"}, "fusion_lon": 0.0, "lat": 38.899667666666666, "bike_id": "b6bb4269b47a8f61b9a490bf24f1157a", "type": "electric_bike", "is_reserved": 0, "lon": -76.98671683333333}, {"fusion_lat": 0.0, "name": "42b5ca95eda2115108be1f024f15694d", "is_disabled": 0, "rental_uris": {"android": "https://dc.lft.to/lastmile_qr_scan", "ios": "https://dc.lft.to/lastmile_qr_scan"}, "fusion_lon": 0.0, "lat": 38.92893016666667, "bike_id": "42b5ca95eda2115108be1f024f15694d", "type": "electric_scooter", "is_reserved": 0, "lon": -77.02300433333333}, {"fusion_lat": 0.0, "name": "ec459956e29e48ad1cec31a7c5bf5e52", "is_disabled": 0, "rental_uris": {"android": "https://dc.lft.to/lastmile_qr_scan", "ios": "https://dc.lft.to/lastmile_qr_scan"}, "fusion_lon": 0.0, "lat": 38.949796, "bike_id": "ec459956e29e48ad1cec31a7c5bf5e52", "type": "electric_scooter", "is_reserved": 0, "lon": -77.0269865}, {"fusion_lat": 0.0, "name": "bc36b9e7eb3397164b557549a7442a2c", "is_disabled": 0, "rental_uris": {"android": "https://dc.lft.to/lastmile_qr_scan", "ios": "https://dc.lft.to/lastmile_qr_scan"}, "fusion_lon": 0.0, "lat": 38.92036683333333, "bike_id": "bc36b9e7eb3397164b557549a7442a2c", "type": "electric_bike", "is_reserved": 0, "lon": -76.9796195}, {"fusion_lat": 0.0, "name": "84aaef10e0afd603ea543a68da8f49d4", "is_disabled": 0, "rental_uris": {"android": "https://dc.lft.to/lastmile_qr_scan", "ios": "https://dc.lft.to/lastmile_qr_scan"}, "fusion_lon": 0.0, "lat": 38.917919, "bike_id": "84aaef10e0afd603ea543a68da8f49d4", "type": "electric_scooter", "is_reserved": 0, "lon": -77.0231395}, {"fusion_lat": 0.0, "name": "bc8ef7b5a4e0c0cb344b9d9cec3d18b9", "is_disabled": 0, "rental_uris": {"android": "https://dc.lft.to/lastmile_qr_scan", "ios": "https://dc.lft.to/lastmile_qr_scan"}, "fusion_lon": 0.0, "lat": 38.94978666666667, "bike_id": "bc8ef7b5a4e0c0cb344b9d9cec3d18b9", "type": "electric_scooter", "is_reserved": 0, "lon": -77.02698783333334}, {"fusion_lat": 0.0, "name": "c32fb32e5e383809c15faef974508fad", "is_disabled": 0, "rental_uris": {"android": "https://dc.lft.to/lastmile_qr_scan", "ios": "https://dc.lft.to/lastmile_qr_scan"}, "fusion_lon": 0.0, "lat": 38.93058633333333, "bike_id": "c32fb32e5e383809c15faef974508fad", "type": "electric_scooter", "is_reserved": 0, "lon": -77.03949216666666}, {"fusion_lat": 0.0, "name": "aede8768f3a4cf467092e0598532d3ae", "is_disabled": 0, "rental_uris": {"android": "https://dc.lft.to/lastmile_qr_scan", "ios": "https://dc.lft.to/lastmile_qr_scan"}, "fusion_lon": 0.0, "lat": 38.95733666666667, "bike_id": "aede8768f3a4cf467092e0598532d3ae", "type": "electric_scooter", "is_reserved": 0, "lon": -77.02404983333334}, {"fusion_lat": 0.0, "name": "5cb1eff084ddb7f098f1eec23ad75a47", "is_disabled": 0, "rental_uris": {"android": "https://dc.lft.to/lastmile_qr_scan", "ios": "https://dc.lft.to/lastmile_qr_scan"}, "fusion_lon": 0.0, "lat": 38.9355325, "bike_id": "5cb1eff084ddb7f098f1eec23ad75a47", "type": "electric_scooter", "is_reserved": 0, "lon": -77.08188233333334}, {"fusion_lat": 0.0, "name": "d9f08871606dbe906be410d6d68b2d0a", "is_disabled": 0, "rental_uris": {"android": "https://dc.lft.to/lastmile_qr_scan", "ios": "https://dc.lft.to/lastmile_qr_scan"}, "fusion_lon": 0.0, "lat": 38.892232, "bike_id": "d9f08871606dbe906be410d6d68b2d0a", "type": "electric_scooter", "is_reserved": 0, "lon": -77.014964}, {"fusion_lat": 0.0, "name": "64bdf27b4e26779f9720b23f0f2a04a2", "is_disabled": 0, "rental_uris": {"android": "https://dc.lft.to/lastmile_qr_scan", "ios": "https://dc.lft.to/lastmile_qr_scan"}, "fusion_lon": 0.0, "lat": 38.916667833333335, "bike_id": "64bdf27b4e26779f9720b23f0f2a04a2", "type": "electric_bike", "is_reserved": 0, "lon": -76.9822885}, {"fusion_lat": 0.0, "name": "a37bd729d9dff0aa56ca2ca6c6fad83d", "is_disabled": 0, "rental_uris": {"android": "https://dc.lft.to/lastmile_qr_scan", "ios": "https://dc.lft.to/lastmile_qr_scan"}, "fusion_lon": 0.0, "lat": 38.899047, "bike_id": "a37bd729d9dff0aa56ca2ca6c6fad83d", "type": "electric_scooter", "is_reserved": 0, "lon": -76.9454935}, {"fusion_lat": 0.0, "name": "cfb3f1cadc2f239869e02fa2b9f53622", "is_disabled": 0, "rental_uris": {"android": "https://dc.lft.to/lastmile_qr_scan", "ios": "https://dc.lft.to/lastmile_qr_scan"}, "fusion_lon": 0.0, "lat": 38.824576, "bike_id": "cfb3f1cadc2f239869e02fa2b9f53622", "type": "electric_bike", "is_reserved": 0, "lon": -77.00795066666667}, {"fusion_lat": 0.0, "name": "64bdf880e75ffee3d2691720cec837f5", "is_disabled": 0, "rental_uris": {"android": "https://dc.lft.to/lastmile_qr_scan", "ios": "https://dc.lft.to/lastmile_qr_scan"}, "fusion_lon": 0.0, "lat": 38.90968216666667, "bike_id": "64bdf880e75ffee3d2691720cec837f5", "type": "electric_scooter", "is_reserved": 0, "lon": -77.01108433333333}, {"fusion_lat": 0.0, "name": "4f10fd895bd19a44b9eeaf43590dd412", "is_disabled": 0, "rental_uris": {"android": "https://dc.lft.to/lastmile_qr_scan", "ios": "https://dc.lft.to/lastmile_qr_scan"}, "fusion_lon": 0.0, "lat": 38.88771083333334, "bike_id": "4f10fd895bd19a44b9eeaf43590dd412", "type": "electric_scooter", "is_reserved": 0, "lon": -76.97758333333333}, {"fusion_lat": 0.0, "name": "82156054b6c3dd7e61824a2e8fd71795", "is_disabled": 0, "rental_uris": {"android": "https://dc.lft.to/lastmile_qr_scan", "ios": "https://dc.lft.to/lastmile_qr_scan"}, "fusion_lon": 0.0, "lat": 38.90951166666667, "bike_id": "82156054b6c3dd7e61824a2e8fd71795", "type": "electric_scooter", "is_reserved": 0, "lon": -76.985463}, {"fusion_lat": 0.0, "name": "4faa17ce6906666a1cafe184af3d87f8", "is_disabled": 0, "rental_uris": {"android": "https://dc.lft.to/lastmile_qr_scan", "ios": "https://dc.lft.to/lastmile_qr_scan"}, "fusion_lon": 0.0, "lat": 38.944653, "bike_id": "4faa17ce6906666a1cafe184af3d87f8", "type": "electric_scooter", "is_reserved": 0, "lon": -77.0066345}, {"fusion_lat": 0.0, "name": "1a3f6dd34312316f609934811580bca2", "is_disabled": 0, "rental_uris": {"android": "https://dc.lft.to/lastmile_qr_scan", "ios": "https://dc.lft.to/lastmile_qr_scan"}, "fusion_lon": 0.0, "lat": 38.874719666666664, "bike_id": "1a3f6dd34312316f609934811580bca2", "type": "electric_scooter", "is_reserved": 0, "lon": -77.01895533333334}, {"fusion_lat": 0.0, "name": "8e2b6a1ad846469a9210b142fddad0c1", "is_disabled": 0, "rental_uris": {"android": "https://dc.lft.to/lastmile_qr_scan", "ios": "https://dc.lft.to/lastmile_qr_scan"}, "fusion_lon": 0.0, "lat": 38.925006833333335, "bike_id": "8e2b6a1ad846469a9210b142fddad0c1", "type": "electric_scooter", "is_reserved": 0, "lon": -77.05225183333333}, {"fusion_lat": 0.0, "name": "b2b294e46288eac1bbac3ecc8f7d92fd", "is_disabled": 0, "rental_uris": {"android": "https://dc.lft.to/lastmile_qr_scan", "ios": "https://dc.lft.to/lastmile_qr_scan"}, "fusion_lon": 0.0, "lat": 38.903805, "bike_id": "b2b294e46288eac1bbac3ecc8f7d92fd", "type": "electric_scooter", "is_reserved": 0, "lon": -77.036459}, {"fusion_lat": 0.0, "name": "e9b964b37d58233a49bf9274979217f1", "is_disabled": 0, "rental_uris": {"android": "https://dc.lft.to/lastmile_qr_scan", "ios": "https://dc.lft.to/lastmile_qr_scan"}, "fusion_lon": 0.0, "lat": 38.915670166666665, "bike_id": "e9b964b37d58233a49bf9274979217f1", "type": "electric_scooter", "is_reserved": 0, "lon": -77.02292666666666}, {"fusion_lat": 0.0, "name": "7198f4a6d831456229a5218ec91e4291", "is_disabled": 0, "rental_uris": {"android": "https://dc.lft.to/lastmile_qr_scan", "ios": "https://dc.lft.to/lastmile_qr_scan"}, "fusion_lon": 0.0, "lat": 38.916362, "bike_id": "7198f4a6d831456229a5218ec91e4291", "type": "electric_scooter", "is_reserved": 0, "lon": -77.03134433333334}, {"fusion_lat": 0.0, "name": "61afcfa1cb88791a355d2e0ab8942d1a", "is_disabled": 0, "rental_uris": {"android": "https://dc.lft.to/lastmile_qr_scan", "ios": "https://dc.lft.to/lastmile_qr_scan"}, "fusion_lon": 0.0, "lat": 38.906529, "bike_id": "61afcfa1cb88791a355d2e0ab8942d1a", "type": "electric_scooter", "is_reserved": 0, "lon": -77.02537166666667}, {"fusion_lat": 0.0, "name": "bc4ad44a5bcb60a7e242342e0b0bed9c", "is_disabled": 0, "rental_uris": {"android": "https://dc.lft.to/lastmile_qr_scan", "ios": "https://dc.lft.to/lastmile_qr_scan"}, "fusion_lon": 0.0, "lat": 38.905622666666666, "bike_id": "bc4ad44a5bcb60a7e242342e0b0bed9c", "type": "electric_scooter", "is_reserved": 0, "lon": -77.0335805}, {"fusion_lat": 0.0, "name": "4a2befc651043d6332aa745b1169e778", "is_disabled": 0, "rental_uris": {"android": "https://dc.lft.to/lastmile_qr_scan", "ios": "https://dc.lft.to/lastmile_qr_scan"}, "fusion_lon": 0.0, "lat": 38.90559016666667, "bike_id": "4a2befc651043d6332aa745b1169e778", "type": "electric_scooter", "is_reserved": 0, "lon": -77.01188316666666}, {"fusion_lat": 0.0, "name": "8fc55bc2deab3ba980da38eda1045970", "is_disabled": 0, "rental_uris": {"android": "https://dc.lft.to/lastmile_qr_scan", "ios": "https://dc.lft.to/lastmile_qr_scan"}, "fusion_lon": 0.0, "lat": 38.907172, "bike_id": "8fc55bc2deab3ba980da38eda1045970", "type": "electric_scooter", "is_reserved": 0, "lon": -77.0343445}, {"fusion_lat": 0.0, "name": "6b50ff5e9becb0516aca5bc4ffbfba2d", "is_disabled": 0, "rental_uris": {"android": "https://dc.lft.to/lastmile_qr_scan", "ios": "https://dc.lft.to/lastmile_qr_scan"}, "fusion_lon": 0.0, "lat": 38.89353066666666, "bike_id": "6b50ff5e9becb0516aca5bc4ffbfba2d", "type": "electric_bike", "is_reserved": 0, "lon": -77.1874415}, {"fusion_lat": 0.0, "name": "d58227255439e53dcdcd9d7759b93a12", "is_disabled": 0, "rental_uris": {"android": "https://dc.lft.to/lastmile_qr_scan", "ios": "https://dc.lft.to/lastmile_qr_scan"}, "fusion_lon": 0.0, "lat": 38.9155705, "bike_id": "d58227255439e53dcdcd9d7759b93a12", "type": "electric_scooter", "is_reserved": 0, "lon": -77.03149616666667}, {"fusion_lat": 0.0, "name": "18d94d89c0ee1cc76956684f4e264276", "is_disabled": 0, "rental_uris": {"android": "https://dc.lft.to/lastmile_qr_scan", "ios": "https://dc.lft.to/lastmile_qr_scan"}, "fusion_lon": 0.0, "lat": 38.86681383333333, "bike_id": "18d94d89c0ee1cc76956684f4e264276", "type": "electric_bike", "is_reserved": 0, "lon": -76.98237416666667}, {"fusion_lat": 0.0, "name": "8045f2456a22409eac368b0ab7e208e4", "is_disabled": 0, "rental_uris": {"android": "https://dc.lft.to/lastmile_qr_scan", "ios": "https://dc.lft.to/lastmile_qr_scan"}, "fusion_lon": 0.0, "lat": 38.88132016666667, "bike_id": "8045f2456a22409eac368b0ab7e208e4", "type": "electric_scooter", "is_reserved": 0, "lon": -77.02717883333334}, {"fusion_lat": 0.0, "name": "2464b1d75acfd1d8faac9082be2dfe5e", "is_disabled": 0, "rental_uris": {"android": "https://dc.lft.to/lastmile_qr_scan", "ios": "https://dc.lft.to/lastmile_qr_scan"}, "fusion_lon": 0.0, "lat": 38.91966566666667, "bike_id": "2464b1d75acfd1d8faac9082be2dfe5e", "type": "electric_scooter", "is_reserved": 0, "lon": -77.02497716666667}, {"fusion_lat": 0.0, "name": "d36e5f3b7b2aaa373b0b8e56645f35d7", "is_disabled": 0, "rental_uris": {"android": "https://dc.lft.to/lastmile_qr_scan", "ios": "https://dc.lft.to/lastmile_qr_scan"}, "fusion_lon": 0.0, "lat": 38.87931283333333, "bike_id": "d36e5f3b7b2aaa373b0b8e56645f35d7", "type": "electric_scooter", "is_reserved": 0, "lon": -76.94481766666667}, {"fusion_lat": 0.0, "name": "98d508b2f91efd4632fe98b2602d7de5", "is_disabled": 0, "rental_uris": {"android": "https://dc.lft.to/lastmile_qr_scan", "ios": "https://dc.lft.to/lastmile_qr_scan"}, "fusion_lon": 0.0, "lat": 38.91988533333333, "bike_id": "98d508b2f91efd4632fe98b2602d7de5", "type": "electric_scooter", "is_reserved": 0, "lon": -77.04172116666666}, {"fusion_lat": 0.0, "name": "f8453e8d5f3286c88f4075d955c9143d", "is_disabled": 0, "rental_uris": {"android": "https://dc.lft.to/lastmile_qr_scan", "ios": "https://dc.lft.to/lastmile_qr_scan"}, "fusion_lon": 0.0, "lat": 38.962371, "bike_id": "f8453e8d5f3286c88f4075d955c9143d", "type": "electric_bike", "is_reserved": 0, "lon": -76.92761516666667}, {"fusion_lat": 0.0, "name": "d3710e3356d5634f07bb44a5919af38f", "is_disabled": 0, "rental_uris": {"android": "https://dc.lft.to/lastmile_qr_scan", "ios": "https://dc.lft.to/lastmile_qr_scan"}, "fusion_lon": 0.0, "lat": 38.94948316666667, "bike_id": "d3710e3356d5634f07bb44a5919af38f", "type": "electric_scooter", "is_reserved": 0, "lon": -77.02316666666667}, {"fusion_lat": 0.0, "name": "dfb4b8d9c662ac1013664ee4436ef1e6", "is_disabled": 0, "rental_uris": {"android": "https://dc.lft.to/lastmile_qr_scan", "ios": "https://dc.lft.to/lastmile_qr_scan"}, "fusion_lon": 0.0, "lat": 38.90439766666667, "bike_id": "dfb4b8d9c662ac1013664ee4436ef1e6", "type": "electric_scooter", "is_reserved": 0, "lon": -77.031854}, {"fusion_lat": 0.0, "name": "f4509eb03de8e490a6c5abbbd03bf9f4", "is_disabled": 0, "rental_uris": {"android": "https://dc.lft.to/lastmile_qr_scan", "ios": "https://dc.lft.to/lastmile_qr_scan"}, "fusion_lon": 0.0, "lat": 38.93292683333333, "bike_id": "f4509eb03de8e490a6c5abbbd03bf9f4", "type": "electric_scooter", "is_reserved": 0, "lon": -77.02800533333334}, {"fusion_lat": 0.0, "name": "c41421c576c1908dd9898a204681f2c5", "is_disabled": 0, "rental_uris": {"android": "https://dc.lft.to/lastmile_qr_scan", "ios": "https://dc.lft.to/lastmile_qr_scan"}, "fusion_lon": 0.0, "lat": 38.95690966666667, "bike_id": "c41421c576c1908dd9898a204681f2c5", "type": "electric_scooter", "is_reserved": 0, "lon": -77.03259366666667}, {"fusion_lat": 0.0, "name": "3ec75c1930dd9ff928b8cc3515106fca", "is_disabled": 0, "rental_uris": {"android": "https://dc.lft.to/lastmile_qr_scan", "ios": "https://dc.lft.to/lastmile_qr_scan"}, "fusion_lon": 0.0, "lat": 38.905305, "bike_id": "3ec75c1930dd9ff928b8cc3515106fca", "type": "electric_scooter", "is_reserved": 0, "lon": -77.061311}, {"fusion_lat": 0.0, "name": "b62f10b2cefbd8057ba696fecebdc7ff", "is_disabled": 0, "rental_uris": {"android": "https://dc.lft.to/lastmile_qr_scan", "ios": "https://dc.lft.to/lastmile_qr_scan"}, "fusion_lon": 0.0, "lat": 38.877172333333334, "bike_id": "b62f10b2cefbd8057ba696fecebdc7ff", "type": "electric_scooter", "is_reserved": 0, "lon": -77.01848683333333}, {"fusion_lat": 0.0, "name": "d159d0de7d12a0b5188605476a0fc3ed", "is_disabled": 0, "rental_uris": {"android": "https://dc.lft.to/lastmile_qr_scan", "ios": "https://dc.lft.to/lastmile_qr_scan"}, "fusion_lon": 0.0, "lat": 38.91030216666667, "bike_id": "d159d0de7d12a0b5188605476a0fc3ed", "type": "electric_scooter", "is_reserved": 0, "lon": -77.0151705}, {"fusion_lat": 0.0, "name": "3236f1525b74ef217d329419c7c1556f", "is_disabled": 0, "rental_uris": {"android": "https://dc.lft.to/lastmile_qr_scan", "ios": "https://dc.lft.to/lastmile_qr_scan"}, "fusion_lon": 0.0, "lat": 38.88900066666667, "bike_id": "3236f1525b74ef217d329419c7c1556f", "type": "electric_scooter", "is_reserved": 0, "lon": -76.9921105}, {"fusion_lat": 0.0, "name": "2b2a645cfc816628db1201718dd7e2f5", "is_disabled": 0, "rental_uris": {"android": "https://dc.lft.to/lastmile_qr_scan", "ios": "https://dc.lft.to/lastmile_qr_scan"}, "fusion_lon": 0.0, "lat": 38.87812983333333, "bike_id": "2b2a645cfc816628db1201718dd7e2f5", "type": "electric_scooter", "is_reserved": 0, "lon": -77.01314266666667}, {"fusion_lat": 0.0, "name": "a00b1c5366e4426431f01d146a143fbf", "is_disabled": 0, "rental_uris": {"android": "https://dc.lft.to/lastmile_qr_scan", "ios": "https://dc.lft.to/lastmile_qr_scan"}, "fusion_lon": 0.0, "lat": 38.87456183333333, "bike_id": "a00b1c5366e4426431f01d146a143fbf", "type": "electric_scooter", "is_reserved": 0, "lon": -77.0096915}, {"fusion_lat": 0.0, "name": "e5f30a5661ef270f7190042e4c5e4119", "is_disabled": 0, "rental_uris": {"android": "https://dc.lft.to/lastmile_qr_scan", "ios": "https://dc.lft.to/lastmile_qr_scan"}, "fusion_lon": 0.0, "lat": 38.914301, "bike_id": "e5f30a5661ef270f7190042e4c5e4119", "type": "electric_scooter", "is_reserved": 0, "lon": -77.064303}, {"fusion_lat": 0.0, "name": "d28706787cd95d61d4a3504317fe8611", "is_disabled": 0, "rental_uris": {"android": "https://dc.lft.to/lastmile_qr_scan", "ios": "https://dc.lft.to/lastmile_qr_scan"}, "fusion_lon": 0.0, "lat": 38.914169666666666, "bike_id": "d28706787cd95d61d4a3504317fe8611", "type": "electric_scooter", "is_reserved": 0, "lon": -77.03173783333334}, {"fusion_lat": 0.0, "name": "1ef6b73f1788a76cd9971476a38c3b16", "is_disabled": 0, "rental_uris": {"android": "https://dc.lft.to/lastmile_qr_scan", "ios": "https://dc.lft.to/lastmile_qr_scan"}, "fusion_lon": 0.0, "lat": 38.934773166666666, "bike_id": "1ef6b73f1788a76cd9971476a38c3b16", "type": "electric_scooter", "is_reserved": 0, "lon": -77.0285825}, {"fusion_lat": 0.0, "name": "c569850d9b6bebbfa88bab8c143f4a85", "is_disabled": 0, "rental_uris": {"android": "https://dc.lft.to/lastmile_qr_scan", "ios": "https://dc.lft.to/lastmile_qr_scan"}, "fusion_lon": 0.0, "lat": 38.89875966666666, "bike_id": "c569850d9b6bebbfa88bab8c143f4a85", "type": "electric_scooter", "is_reserved": 0, "lon": -76.93183216666667}, {"fusion_lat": 0.0, "name": "e28d159d156bec9829ff06d3992fe671", "is_disabled": 0, "rental_uris": {"android": "https://dc.lft.to/lastmile_qr_scan", "ios": "https://dc.lft.to/lastmile_qr_scan"}, "fusion_lon": 0.0, "lat": 38.8789955, "bike_id": "e28d159d156bec9829ff06d3992fe671", "type": "electric_scooter", "is_reserved": 0, "lon": -77.00569566666667}, {"fusion_lat": 0.0, "name": "08eca0963862a7b032c699b20d97884a", "is_disabled": 0, "rental_uris": {"android": "https://dc.lft.to/lastmile_qr_scan", "ios": "https://dc.lft.to/lastmile_qr_scan"}, "fusion_lon": 0.0, "lat": 38.96223116666667, "bike_id": "08eca0963862a7b032c699b20d97884a", "type": "electric_bike", "is_reserved": 0, "lon": -77.02622383333333}, {"fusion_lat": 0.0, "name": "7779b6c6cbae4345974c25b807845170", "is_disabled": 0, "rental_uris": {"android": "https://dc.lft.to/lastmile_qr_scan", "ios": "https://dc.lft.to/lastmile_qr_scan"}, "fusion_lon": 0.0, "lat": 38.88440216666667, "bike_id": "7779b6c6cbae4345974c25b807845170", "type": "electric_scooter", "is_reserved": 0, "lon": -76.98588083333334}, {"fusion_lat": 0.0, "name": "2e03a0f7565552dc77182163a51f2fab", "is_disabled": 0, "rental_uris": {"android": "https://dc.lft.to/lastmile_qr_scan", "ios": "https://dc.lft.to/lastmile_qr_scan"}, "fusion_lon": 0.0, "lat": 38.929849833333336, "bike_id": "2e03a0f7565552dc77182163a51f2fab", "type": "electric_scooter", "is_reserved": 0, "lon": -77.03668583333334}, {"fusion_lat": 0.0, "name": "ac5650045deb1f66f7701e3bf36d7081", "is_disabled": 0, "rental_uris": {"android": "https://dc.lft.to/lastmile_qr_scan", "ios": "https://dc.lft.to/lastmile_qr_scan"}, "fusion_lon": 0.0, "lat": 38.932920333333335, "bike_id": "ac5650045deb1f66f7701e3bf36d7081", "type": "electric_scooter", "is_reserved": 0, "lon": -77.02796166666667}, {"fusion_lat": 0.0, "name": "f05961b684f0b60e7054d42ef87de8fc", "is_disabled": 0, "rental_uris": {"android": "https://dc.lft.to/lastmile_qr_scan", "ios": "https://dc.lft.to/lastmile_qr_scan"}, "fusion_lon": 0.0, "lat": 38.882305833333334, "bike_id": "f05961b684f0b60e7054d42ef87de8fc", "type": "electric_scooter", "is_reserved": 0, "lon": -77.0261545}, {"fusion_lat": 0.0, "name": "400ab538a2a690a409f487f3a6932f59", "is_disabled": 0, "rental_uris": {"android": "https://dc.lft.to/lastmile_qr_scan", "ios": "https://dc.lft.to/lastmile_qr_scan"}, "fusion_lon": 0.0, "lat": 38.90001766666666, "bike_id": "400ab538a2a690a409f487f3a6932f59", "type": "electric_scooter", "is_reserved": 0, "lon": -77.03375666666666}, {"fusion_lat": 0.0, "name": "482804d099dcfcc53e9cece2622b2df4", "is_disabled": 0, "rental_uris": {"android": "https://dc.lft.to/lastmile_qr_scan", "ios": "https://dc.lft.to/lastmile_qr_scan"}, "fusion_lon": 0.0, "lat": 38.9206135, "bike_id": "482804d099dcfcc53e9cece2622b2df4", "type": "electric_scooter", "is_reserved": 0, "lon": -77.02362833333333}, {"fusion_lat": 0.0, "name": "ca021edce8e9c224465c5b22079d9091", "is_disabled": 0, "rental_uris": {"android": "https://dc.lft.to/lastmile_qr_scan", "ios": "https://dc.lft.to/lastmile_qr_scan"}, "fusion_lon": 0.0, "lat": 39.04177983333334, "bike_id": "ca021edce8e9c224465c5b22079d9091", "type": "electric_bike", "is_reserved": 0, "lon": -77.05242416666667}, {"fusion_lat": 0.0, "name": "79b37b12c10b607bc79b09f9b0dc70fe", "is_disabled": 0, "rental_uris": {"android": "https://dc.lft.to/lastmile_qr_scan", "ios": "https://dc.lft.to/lastmile_qr_scan"}, "fusion_lon": 0.0, "lat": 38.8849265, "bike_id": "79b37b12c10b607bc79b09f9b0dc70fe", "type": "electric_scooter", "is_reserved": 0, "lon": -77.03013916666667}, {"fusion_lat": 0.0, "name": "52764e73b96440bc2d53a4efaab325b4", "is_disabled": 0, "rental_uris": {"android": "https://dc.lft.to/lastmile_qr_scan", "ios": "https://dc.lft.to/lastmile_qr_scan"}, "fusion_lon": 0.0, "lat": 38.83850366666667, "bike_id": "52764e73b96440bc2d53a4efaab325b4", "type": "electric_scooter", "is_reserved": 0, "lon": -76.996996}, {"fusion_lat": 0.0, "name": "6775b3c7f71e85699fc688eb9ed23068", "is_disabled": 0, "rental_uris": {"android": "https://dc.lft.to/lastmile_qr_scan", "ios": "https://dc.lft.to/lastmile_qr_scan"}, "fusion_lon": 0.0, "lat": 38.920778, "bike_id": "6775b3c7f71e85699fc688eb9ed23068", "type": "electric_scooter", "is_reserved": 0, "lon": -77.02305766666667}, {"fusion_lat": 0.0, "name": "316b8c5a6fa86e694f7af11fda17bbf4", "is_disabled": 0, "rental_uris": {"android": "https://dc.lft.to/lastmile_qr_scan", "ios": "https://dc.lft.to/lastmile_qr_scan"}, "fusion_lon": 0.0, "lat": 38.900498166666665, "bike_id": "316b8c5a6fa86e694f7af11fda17bbf4", "type": "electric_scooter", "is_reserved": 0, "lon": -77.04492183333333}, {"fusion_lat": 0.0, "name": "84f11b9e1c1897eeb5ee63636769cdbd", "is_disabled": 0, "rental_uris": {"android": "https://dc.lft.to/lastmile_qr_scan", "ios": "https://dc.lft.to/lastmile_qr_scan"}, "fusion_lon": 0.0, "lat": 38.9156015, "bike_id": "84f11b9e1c1897eeb5ee63636769cdbd", "type": "electric_scooter", "is_reserved": 0, "lon": -77.0315}, {"fusion_lat": 0.0, "name": "c6a2fb3a29b0d7419f2866179953da46", "is_disabled": 0, "rental_uris": {"android": "https://dc.lft.to/lastmile_qr_scan", "ios": "https://dc.lft.to/lastmile_qr_scan"}, "fusion_lon": 0.0, "lat": 38.909778333333335, "bike_id": "c6a2fb3a29b0d7419f2866179953da46", "type": "electric_scooter", "is_reserved": 0, "lon": -77.04746}, {"fusion_lat": 0.0, "name": "53b8e168f7f41021d8aced029e7722fc", "is_disabled": 0, "rental_uris": {"android": "https://dc.lft.to/lastmile_qr_scan", "ios": "https://dc.lft.to/lastmile_qr_scan"}, "fusion_lon": 0.0, "lat": 38.914221, "bike_id": "53b8e168f7f41021d8aced029e7722fc", "type": "electric_scooter", "is_reserved": 0, "lon": -76.98450516666666}, {"fusion_lat": 0.0, "name": "4d2599801ac3175d56d9ad964cdc2f21", "is_disabled": 0, "rental_uris": {"android": "https://dc.lft.to/lastmile_qr_scan", "ios": "https://dc.lft.to/lastmile_qr_scan"}, "fusion_lon": 0.0, "lat": 38.933319, "bike_id": "4d2599801ac3175d56d9ad964cdc2f21", "type": "electric_scooter", "is_reserved": 0, "lon": -77.0326005}, {"fusion_lat": 0.0, "name": "afe466966425c3049d0c8d2ffaf920a0", "is_disabled": 0, "rental_uris": {"android": "https://dc.lft.to/lastmile_qr_scan", "ios": "https://dc.lft.to/lastmile_qr_scan"}, "fusion_lon": 0.0, "lat": 38.9289275, "bike_id": "afe466966425c3049d0c8d2ffaf920a0", "type": "electric_scooter", "is_reserved": 0, "lon": -77.03238533333334}, {"fusion_lat": 0.0, "name": "4aa55dd8d1aeaadd85bc72188ef63949", "is_disabled": 0, "rental_uris": {"android": "https://dc.lft.to/lastmile_qr_scan", "ios": "https://dc.lft.to/lastmile_qr_scan"}, "fusion_lon": 0.0, "lat": 38.920795, "bike_id": "4aa55dd8d1aeaadd85bc72188ef63949", "type": "electric_scooter", "is_reserved": 0, "lon": -77.02399583333333}, {"fusion_lat": 0.0, "name": "48aab445c8dd2b82e5b0388e921d7194", "is_disabled": 0, "rental_uris": {"android": "https://dc.lft.to/lastmile_qr_scan", "ios": "https://dc.lft.to/lastmile_qr_scan"}, "fusion_lon": 0.0, "lat": 38.92998983333333, "bike_id": "48aab445c8dd2b82e5b0388e921d7194", "type": "electric_scooter", "is_reserved": 0, "lon": -77.03804333333333}, {"fusion_lat": 0.0, "name": "c7cbc78359eb9c7a81a9ff2e36eefea5", "is_disabled": 0, "rental_uris": {"android": "https://dc.lft.to/lastmile_qr_scan", "ios": "https://dc.lft.to/lastmile_qr_scan"}, "fusion_lon": 0.0, "lat": 38.930142833333335, "bike_id": "c7cbc78359eb9c7a81a9ff2e36eefea5", "type": "electric_scooter", "is_reserved": 0, "lon": -77.02084683333334}, {"fusion_lat": 0.0, "name": "5ff239efd6f6491a92b65bbc46d877e5", "is_disabled": 0, "rental_uris": {"android": "https://dc.lft.to/lastmile_qr_scan", "ios": "https://dc.lft.to/lastmile_qr_scan"}, "fusion_lon": 0.0, "lat": 38.87819666666667, "bike_id": "5ff239efd6f6491a92b65bbc46d877e5", "type": "electric_scooter", "is_reserved": 0, "lon": -76.99014083333333}, {"fusion_lat": 0.0, "name": "cf345cace7ba7793cca3e63e177cc8bd", "is_disabled": 0, "rental_uris": {"android": "https://dc.lft.to/lastmile_qr_scan", "ios": "https://dc.lft.to/lastmile_qr_scan"}, "fusion_lon": 0.0, "lat": 38.93192416666667, "bike_id": "cf345cace7ba7793cca3e63e177cc8bd", "type": "electric_scooter", "is_reserved": 0, "lon": -77.02514766666667}, {"fusion_lat": 0.0, "name": "912e06dc8905628c1e1bc22ae57fd4f8", "is_disabled": 0, "rental_uris": {"android": "https://dc.lft.to/lastmile_qr_scan", "ios": "https://dc.lft.to/lastmile_qr_scan"}, "fusion_lon": 0.0, "lat": 38.90036816666667, "bike_id": "912e06dc8905628c1e1bc22ae57fd4f8", "type": "electric_scooter", "is_reserved": 0, "lon": -77.02396416666667}, {"fusion_lat": 0.0, "name": "7d6e5f1e049604716eb9307a5642ec59", "is_disabled": 0, "rental_uris": {"android": "https://dc.lft.to/lastmile_qr_scan", "ios": "https://dc.lft.to/lastmile_qr_scan"}, "fusion_lon": 0.0, "lat": 38.899558, "bike_id": "7d6e5f1e049604716eb9307a5642ec59", "type": "electric_scooter", "is_reserved": 0, "lon": -77.015153}, {"fusion_lat": 0.0, "name": "597de3c12513c6154f4611cab76c7aa5", "is_disabled": 0, "rental_uris": {"android": "https://dc.lft.to/lastmile_qr_scan", "ios": "https://dc.lft.to/lastmile_qr_scan"}, "fusion_lon": 0.0, "lat": 38.923578666666664, "bike_id": "597de3c12513c6154f4611cab76c7aa5", "type": "electric_scooter", "is_reserved": 0, "lon": -77.01952516666667}, {"fusion_lat": 0.0, "name": "6d6991491c3583deae6bc859f940d9a2", "is_disabled": 0, "rental_uris": {"android": "https://dc.lft.to/lastmile_qr_scan", "ios": "https://dc.lft.to/lastmile_qr_scan"}, "fusion_lon": 0.0, "lat": 38.947341333333334, "bike_id": "6d6991491c3583deae6bc859f940d9a2", "type": "electric_scooter", "is_reserved": 0, "lon": -77.026719}, {"fusion_lat": 0.0, "name": "8563ec5161a4f0c22a6191eaad2c88ab", "is_disabled": 0, "rental_uris": {"android": "https://dc.lft.to/lastmile_qr_scan", "ios": "https://dc.lft.to/lastmile_qr_scan"}, "fusion_lon": 0.0, "lat": 38.92416083333333, "bike_id": "8563ec5161a4f0c22a6191eaad2c88ab", "type": "electric_scooter", "is_reserved": 0, "lon": -77.02011383333334}, {"fusion_lat": 0.0, "name": "57ecb85def448c8e4d022c6499959891", "is_disabled": 0, "rental_uris": {"android": "https://dc.lft.to/lastmile_qr_scan", "ios": "https://dc.lft.to/lastmile_qr_scan"}, "fusion_lon": 0.0, "lat": 38.922034333333336, "bike_id": "57ecb85def448c8e4d022c6499959891", "type": "electric_scooter", "is_reserved": 0, "lon": -77.04126766666667}, {"fusion_lat": 0.0, "name": "81fbfe21833377484bcf919ace24ea0c", "is_disabled": 0, "rental_uris": {"android": "https://dc.lft.to/lastmile_qr_scan", "ios": "https://dc.lft.to/lastmile_qr_scan"}, "fusion_lon": 0.0, "lat": 39.01075783333334, "bike_id": "81fbfe21833377484bcf919ace24ea0c", "type": "electric_bike", "is_reserved": 0, "lon": -76.91068083333333}, {"fusion_lat": 0.0, "name": "cd462d5d7735019826f932c752814f7d", "is_disabled": 0, "rental_uris": {"android": "https://dc.lft.to/lastmile_qr_scan", "ios": "https://dc.lft.to/lastmile_qr_scan"}, "fusion_lon": 0.0, "lat": 38.93803183333333, "bike_id": "cd462d5d7735019826f932c752814f7d", "type": "electric_scooter", "is_reserved": 0, "lon": -77.06861016666667}, {"fusion_lat": 0.0, "name": "5c2cbdb07afaf26ebf3bf484dbdb5608", "is_disabled": 0, "rental_uris": {"android": "https://dc.lft.to/lastmile_qr_scan", "ios": "https://dc.lft.to/lastmile_qr_scan"}, "fusion_lon": 0.0, "lat": 38.942308, "bike_id": "5c2cbdb07afaf26ebf3bf484dbdb5608", "type": "electric_scooter", "is_reserved": 0, "lon": -77.0235135}, {"fusion_lat": 0.0, "name": "4b70dca462221f2e4881eb33ae360542", "is_disabled": 0, "rental_uris": {"android": "https://dc.lft.to/lastmile_qr_scan", "ios": "https://dc.lft.to/lastmile_qr_scan"}, "fusion_lon": 0.0, "lat": 38.91667533333333, "bike_id": "4b70dca462221f2e4881eb33ae360542", "type": "electric_bike", "is_reserved": 0, "lon": -77.02272233333333}, {"fusion_lat": 0.0, "name": "4fe99c9d464e725b1eec659db862996b", "is_disabled": 0, "rental_uris": {"android": "https://dc.lft.to/lastmile_qr_scan", "ios": "https://dc.lft.to/lastmile_qr_scan"}, "fusion_lon": 0.0, "lat": 38.907709, "bike_id": "4fe99c9d464e725b1eec659db862996b", "type": "electric_scooter", "is_reserved": 0, "lon": -77.032044}, {"fusion_lat": 0.0, "name": "ba72e780d6e6a03183e06ed974ac57e0", "is_disabled": 0, "rental_uris": {"android": "https://dc.lft.to/lastmile_qr_scan", "ios": "https://dc.lft.to/lastmile_qr_scan"}, "fusion_lon": 0.0, "lat": 38.93037183333333, "bike_id": "ba72e780d6e6a03183e06ed974ac57e0", "type": "electric_scooter", "is_reserved": 0, "lon": -77.04070366666667}, {"fusion_lat": 0.0, "name": "8d8c267f4534d82ce32e596ebcd89563", "is_disabled": 0, "rental_uris": {"android": "https://dc.lft.to/lastmile_qr_scan", "ios": "https://dc.lft.to/lastmile_qr_scan"}, "fusion_lon": 0.0, "lat": 38.933646, "bike_id": "8d8c267f4534d82ce32e596ebcd89563", "type": "electric_scooter", "is_reserved": 0, "lon": -77.03885933333333}, {"fusion_lat": 0.0, "name": "7809c4cf5e955c6be0e4cfe7d9756299", "is_disabled": 0, "rental_uris": {"android": "https://dc.lft.to/lastmile_qr_scan", "ios": "https://dc.lft.to/lastmile_qr_scan"}, "fusion_lon": 0.0, "lat": 38.90973616666667, "bike_id": "7809c4cf5e955c6be0e4cfe7d9756299", "type": "electric_scooter", "is_reserved": 0, "lon": -77.00898266666667}, {"fusion_lat": 0.0, "name": "bd50abb927df89460f89f6d52cb69013", "is_disabled": 0, "rental_uris": {"android": "https://dc.lft.to/lastmile_qr_scan", "ios": "https://dc.lft.to/lastmile_qr_scan"}, "fusion_lon": 0.0, "lat": 38.89643916666667, "bike_id": "bd50abb927df89460f89f6d52cb69013", "type": "electric_scooter", "is_reserved": 0, "lon": -77.04894516666667}, {"fusion_lat": 0.0, "name": "90dfb0ae97658fc1adcc3614947561bb", "is_disabled": 0, "rental_uris": {"android": "https://dc.lft.to/lastmile_qr_scan", "ios": "https://dc.lft.to/lastmile_qr_scan"}, "fusion_lon": 0.0, "lat": 38.90580633333333, "bike_id": "90dfb0ae97658fc1adcc3614947561bb", "type": "electric_scooter", "is_reserved": 0, "lon": -77.00886466666667}, {"fusion_lat": 0.0, "name": "2a1949b85bbe3979dca2544bc4aab9a6", "is_disabled": 0, "rental_uris": {"android": "https://dc.lft.to/lastmile_qr_scan", "ios": "https://dc.lft.to/lastmile_qr_scan"}, "fusion_lon": 0.0, "lat": 38.90036583333333, "bike_id": "2a1949b85bbe3979dca2544bc4aab9a6", "type": "electric_scooter", "is_reserved": 0, "lon": -77.01230716666667}, {"fusion_lat": 0.0, "name": "197c5c02fb38951a418b9170f6b0b7be", "is_disabled": 0, "rental_uris": {"android": "https://dc.lft.to/lastmile_qr_scan", "ios": "https://dc.lft.to/lastmile_qr_scan"}, "fusion_lon": 0.0, "lat": 38.93963183333334, "bike_id": "197c5c02fb38951a418b9170f6b0b7be", "type": "electric_bike", "is_reserved": 0, "lon": -76.99382483333333}, {"fusion_lat": 0.0, "name": "7ee1ca473e47b22837ae1cdd8e7f02e0", "is_disabled": 0, "rental_uris": {"android": "https://dc.lft.to/lastmile_qr_scan", "ios": "https://dc.lft.to/lastmile_qr_scan"}, "fusion_lon": 0.0, "lat": 38.9286395, "bike_id": "7ee1ca473e47b22837ae1cdd8e7f02e0", "type": "electric_scooter", "is_reserved": 0, "lon": -77.03356083333334}, {"fusion_lat": 0.0, "name": "e7aff437bfa563ef72a1c4b210648d81", "is_disabled": 0, "rental_uris": {"android": "https://dc.lft.to/lastmile_qr_scan", "ios": "https://dc.lft.to/lastmile_qr_scan"}, "fusion_lon": 0.0, "lat": 38.8393445, "bike_id": "e7aff437bfa563ef72a1c4b210648d81", "type": "electric_bike", "is_reserved": 0, "lon": -77.07905716666667}, {"fusion_lat": 0.0, "name": "5d2d624dc38f205d80ada576d662e873", "is_disabled": 0, "rental_uris": {"android": "https://dc.lft.to/lastmile_qr_scan", "ios": "https://dc.lft.to/lastmile_qr_scan"}, "fusion_lon": 0.0, "lat": 38.941336166666666, "bike_id": "5d2d624dc38f205d80ada576d662e873", "type": "electric_scooter", "is_reserved": 0, "lon": -77.006123}, {"fusion_lat": 0.0, "name": "7907e59b3b97ef69a8c21ae1120140c0", "is_disabled": 0, "rental_uris": {"android": "https://dc.lft.to/lastmile_qr_scan", "ios": "https://dc.lft.to/lastmile_qr_scan"}, "fusion_lon": 0.0, "lat": 38.876637833333334, "bike_id": "7907e59b3b97ef69a8c21ae1120140c0", "type": "electric_scooter", "is_reserved": 0, "lon": -77.00670916666667}, {"fusion_lat": 0.0, "name": "9819a340e5f9811f9f4e095cf3a44261", "is_disabled": 0, "rental_uris": {"android": "https://dc.lft.to/lastmile_qr_scan", "ios": "https://dc.lft.to/lastmile_qr_scan"}, "fusion_lon": 0.0, "lat": 38.87247083333333, "bike_id": "9819a340e5f9811f9f4e095cf3a44261", "type": "electric_scooter", "is_reserved": 0, "lon": -76.97729133333333}, {"fusion_lat": 0.0, "name": "8a8f2dbf119ef21f7fea766ef100813e", "is_disabled": 0, "rental_uris": {"android": "https://dc.lft.to/lastmile_qr_scan", "ios": "https://dc.lft.to/lastmile_qr_scan"}, "fusion_lon": 0.0, "lat": 38.90227983333333, "bike_id": "8a8f2dbf119ef21f7fea766ef100813e", "type": "electric_scooter", "is_reserved": 0, "lon": -77.04538133333334}, {"fusion_lat": 0.0, "name": "4fe745a140b507f89f741680cfa4c643", "is_disabled": 0, "rental_uris": {"android": "https://dc.lft.to/lastmile_qr_scan", "ios": "https://dc.lft.to/lastmile_qr_scan"}, "fusion_lon": 0.0, "lat": 38.9282565, "bike_id": "4fe745a140b507f89f741680cfa4c643", "type": "electric_scooter", "is_reserved": 0, "lon": -77.02260383333333}, {"fusion_lat": 0.0, "name": "66bf7cb72bbf67349d6758128cb8d8c5", "is_disabled": 0, "rental_uris": {"android": "https://dc.lft.to/lastmile_qr_scan", "ios": "https://dc.lft.to/lastmile_qr_scan"}, "fusion_lon": 0.0, "lat": 38.9422785, "bike_id": "66bf7cb72bbf67349d6758128cb8d8c5", "type": "electric_scooter", "is_reserved": 0, "lon": -77.01386416666666}, {"fusion_lat": 0.0, "name": "5b2ed5ef7e159bde601dd96cc2bfd993", "is_disabled": 0, "rental_uris": {"android": "https://dc.lft.to/lastmile_qr_scan", "ios": "https://dc.lft.to/lastmile_qr_scan"}, "fusion_lon": 0.0, "lat": 38.936525333333336, "bike_id": "5b2ed5ef7e159bde601dd96cc2bfd993", "type": "electric_scooter", "is_reserved": 0, "lon": -77.030515}, {"fusion_lat": 0.0, "name": "6f75d303eb877c2e00582d19bd5613eb", "is_disabled": 0, "rental_uris": {"android": "https://dc.lft.to/lastmile_qr_scan", "ios": "https://dc.lft.to/lastmile_qr_scan"}, "fusion_lon": 0.0, "lat": 38.906945666666665, "bike_id": "6f75d303eb877c2e00582d19bd5613eb", "type": "electric_scooter", "is_reserved": 0, "lon": -76.9998365}, {"fusion_lat": 0.0, "name": "6803a924cacf26f9a3fea0078120a51a", "is_disabled": 0, "rental_uris": {"android": "https://dc.lft.to/lastmile_qr_scan", "ios": "https://dc.lft.to/lastmile_qr_scan"}, "fusion_lon": 0.0, "lat": 38.9245155, "bike_id": "6803a924cacf26f9a3fea0078120a51a", "type": "electric_scooter", "is_reserved": 0, "lon": -77.04026016666667}, {"fusion_lat": 0.0, "name": "2c6a00bb7de033cef26e9abd781bc752", "is_disabled": 0, "rental_uris": {"android": "https://dc.lft.to/lastmile_qr_scan", "ios": "https://dc.lft.to/lastmile_qr_scan"}, "fusion_lon": 0.0, "lat": 38.887249833333335, "bike_id": "2c6a00bb7de033cef26e9abd781bc752", "type": "electric_scooter", "is_reserved": 0, "lon": -76.98358116666667}, {"fusion_lat": 0.0, "name": "b9dbe526d386d001f619fda8f12a7dcb", "is_disabled": 0, "rental_uris": {"android": "https://dc.lft.to/lastmile_qr_scan", "ios": "https://dc.lft.to/lastmile_qr_scan"}, "fusion_lon": 0.0, "lat": 38.90507066666667, "bike_id": "b9dbe526d386d001f619fda8f12a7dcb", "type": "electric_scooter", "is_reserved": 0, "lon": -77.06508}, {"fusion_lat": 0.0, "name": "d239485223abd2658245df6248c0bdc6", "is_disabled": 0, "rental_uris": {"android": "https://dc.lft.to/lastmile_qr_scan", "ios": "https://dc.lft.to/lastmile_qr_scan"}, "fusion_lon": 0.0, "lat": 38.8974035, "bike_id": "d239485223abd2658245df6248c0bdc6", "type": "electric_scooter", "is_reserved": 0, "lon": -77.003274}, {"fusion_lat": 0.0, "name": "db219dfa3fd78ad6b8a4959267e29045", "is_disabled": 0, "rental_uris": {"android": "https://dc.lft.to/lastmile_qr_scan", "ios": "https://dc.lft.to/lastmile_qr_scan"}, "fusion_lon": 0.0, "lat": 38.90181916666667, "bike_id": "db219dfa3fd78ad6b8a4959267e29045", "type": "electric_scooter", "is_reserved": 0, "lon": -77.05006583333333}, {"fusion_lat": 0.0, "name": "f5be2175fa52282cbc3747b8ff8f4056", "is_disabled": 0, "rental_uris": {"android": "https://dc.lft.to/lastmile_qr_scan", "ios": "https://dc.lft.to/lastmile_qr_scan"}, "fusion_lon": 0.0, "lat": 38.885207333333334, "bike_id": "f5be2175fa52282cbc3747b8ff8f4056", "type": "electric_scooter", "is_reserved": 0, "lon": -77.01524916666666}, {"fusion_lat": 0.0, "name": "94bce7d02b9ce7089157aeb90b5fad84", "is_disabled": 0, "rental_uris": {"android": "https://dc.lft.to/lastmile_qr_scan", "ios": "https://dc.lft.to/lastmile_qr_scan"}, "fusion_lon": 0.0, "lat": 38.893281333333334, "bike_id": "94bce7d02b9ce7089157aeb90b5fad84", "type": "electric_scooter", "is_reserved": 0, "lon": -77.02247166666666}, {"fusion_lat": 0.0, "name": "19b57c732db89ff16882f7a789fe2b55", "is_disabled": 0, "rental_uris": {"android": "https://dc.lft.to/lastmile_qr_scan", "ios": "https://dc.lft.to/lastmile_qr_scan"}, "fusion_lon": 0.0, "lat": 38.900075333333334, "bike_id": "19b57c732db89ff16882f7a789fe2b55", "type": "electric_scooter", "is_reserved": 0, "lon": -77.01251133333334}, {"fusion_lat": 0.0, "name": "c70ea825e74d0188c214612c868deba9", "is_disabled": 0, "rental_uris": {"android": "https://dc.lft.to/lastmile_qr_scan", "ios": "https://dc.lft.to/lastmile_qr_scan"}, "fusion_lon": 0.0, "lat": 38.92078733333334, "bike_id": "c70ea825e74d0188c214612c868deba9", "type": "electric_bike", "is_reserved": 0, "lon": -76.98946283333333}, {"fusion_lat": 0.0, "name": "b80e2d66239e8331f272a7c4724b2171", "is_disabled": 0, "rental_uris": {"android": "https://dc.lft.to/lastmile_qr_scan", "ios": "https://dc.lft.to/lastmile_qr_scan"}, "fusion_lon": 0.0, "lat": 38.9126955, "bike_id": "b80e2d66239e8331f272a7c4724b2171", "type": "electric_scooter", "is_reserved": 0, "lon": -77.03120683333333}, {"fusion_lat": 0.0, "name": "11d4cf0a9c0db629a82ebc212471c4c8", "is_disabled": 0, "rental_uris": {"android": "https://dc.lft.to/lastmile_qr_scan", "ios": "https://dc.lft.to/lastmile_qr_scan"}, "fusion_lon": 0.0, "lat": 38.90960033333333, "bike_id": "11d4cf0a9c0db629a82ebc212471c4c8", "type": "electric_scooter", "is_reserved": 0, "lon": -77.04553766666666}, {"fusion_lat": 0.0, "name": "eeaaba7d5337d1b76b0c5fb227dfa29d", "is_disabled": 0, "rental_uris": {"android": "https://dc.lft.to/lastmile_qr_scan", "ios": "https://dc.lft.to/lastmile_qr_scan"}, "fusion_lon": 0.0, "lat": 38.903794166666664, "bike_id": "eeaaba7d5337d1b76b0c5fb227dfa29d", "type": "electric_scooter", "is_reserved": 0, "lon": -77.04593283333334}, {"fusion_lat": 0.0, "name": "1006fcbdddcb6c2c8a95a9b19de1efc9", "is_disabled": 0, "rental_uris": {"android": "https://dc.lft.to/lastmile_qr_scan", "ios": "https://dc.lft.to/lastmile_qr_scan"}, "fusion_lon": 0.0, "lat": 38.8801025, "bike_id": "1006fcbdddcb6c2c8a95a9b19de1efc9", "type": "electric_scooter", "is_reserved": 0, "lon": -77.0244705}, {"fusion_lat": 0.0, "name": "2cc7e4cba8b813ef9028c52398987c99", "is_disabled": 0, "rental_uris": {"android": "https://dc.lft.to/lastmile_qr_scan", "ios": "https://dc.lft.to/lastmile_qr_scan"}, "fusion_lon": 0.0, "lat": 38.92118583333333, "bike_id": "2cc7e4cba8b813ef9028c52398987c99", "type": "electric_scooter", "is_reserved": 0, "lon": -77.01217983333333}, {"fusion_lat": 0.0, "name": "23e96cd04fb0a20364b245991bce5da1", "is_disabled": 0, "rental_uris": {"android": "https://dc.lft.to/lastmile_qr_scan", "ios": "https://dc.lft.to/lastmile_qr_scan"}, "fusion_lon": 0.0, "lat": 38.927354333333334, "bike_id": "23e96cd04fb0a20364b245991bce5da1", "type": "electric_scooter", "is_reserved": 0, "lon": -77.02166466666667}, {"fusion_lat": 0.0, "name": "32fafd507ebc1c26a9bd4a3c9e17efec", "is_disabled": 0, "rental_uris": {"android": "https://dc.lft.to/lastmile_qr_scan", "ios": "https://dc.lft.to/lastmile_qr_scan"}, "fusion_lon": 0.0, "lat": 38.91950716666667, "bike_id": "32fafd507ebc1c26a9bd4a3c9e17efec", "type": "electric_scooter", "is_reserved": 0, "lon": -77.01791233333333}, {"fusion_lat": 0.0, "name": "a7a00b6eef4c98b840055baf82b4c34f", "is_disabled": 0, "rental_uris": {"android": "https://dc.lft.to/lastmile_qr_scan", "ios": "https://dc.lft.to/lastmile_qr_scan"}, "fusion_lon": 0.0, "lat": 38.878765333333334, "bike_id": "a7a00b6eef4c98b840055baf82b4c34f", "type": "electric_scooter", "is_reserved": 0, "lon": -77.0232125}, {"fusion_lat": 0.0, "name": "bc4b87880b85247e93fe569a0008a6cd", "is_disabled": 0, "rental_uris": {"android": "https://dc.lft.to/lastmile_qr_scan", "ios": "https://dc.lft.to/lastmile_qr_scan"}, "fusion_lon": 0.0, "lat": 38.87848483333333, "bike_id": "bc4b87880b85247e93fe569a0008a6cd", "type": "electric_bike", "is_reserved": 0, "lon": -77.03025083333333}, {"fusion_lat": 0.0, "name": "11ce9fa93f0e0c1c54a1c3fbc7c7f836", "is_disabled": 0, "rental_uris": {"android": "https://dc.lft.to/lastmile_qr_scan", "ios": "https://dc.lft.to/lastmile_qr_scan"}, "fusion_lon": 0.0, "lat": 38.936774166666666, "bike_id": "11ce9fa93f0e0c1c54a1c3fbc7c7f836", "type": "electric_scooter", "is_reserved": 0, "lon": -77.035924}, {"fusion_lat": 0.0, "name": "f0c8dde480906625849d8515dbce242b", "is_disabled": 0, "rental_uris": {"android": "https://dc.lft.to/lastmile_qr_scan", "ios": "https://dc.lft.to/lastmile_qr_scan"}, "fusion_lon": 0.0, "lat": 38.9003555, "bike_id": "f0c8dde480906625849d8515dbce242b", "type": "electric_scooter", "is_reserved": 0, "lon": -77.05828916666667}, {"fusion_lat": 0.0, "name": "3e27b6a65de0816a82b2d323caf4f07b", "is_disabled": 0, "rental_uris": {"android": "https://dc.lft.to/lastmile_qr_scan", "ios": "https://dc.lft.to/lastmile_qr_scan"}, "fusion_lon": 0.0, "lat": 38.90319316666667, "bike_id": "3e27b6a65de0816a82b2d323caf4f07b", "type": "electric_scooter", "is_reserved": 0, "lon": -77.03492016666667}, {"fusion_lat": 0.0, "name": "a4bcc6e121effc2681e99ce27f433bb0", "is_disabled": 0, "rental_uris": {"android": "https://dc.lft.to/lastmile_qr_scan", "ios": "https://dc.lft.to/lastmile_qr_scan"}, "fusion_lon": 0.0, "lat": 38.904122, "bike_id": "a4bcc6e121effc2681e99ce27f433bb0", "type": "electric_scooter", "is_reserved": 0, "lon": -76.993599}, {"fusion_lat": 0.0, "name": "f16a96212a9bc5506c45117f1f571ac1", "is_disabled": 0, "rental_uris": {"android": "https://dc.lft.to/lastmile_qr_scan", "ios": "https://dc.lft.to/lastmile_qr_scan"}, "fusion_lon": 0.0, "lat": 38.924185666666666, "bike_id": "f16a96212a9bc5506c45117f1f571ac1", "type": "electric_scooter", "is_reserved": 0, "lon": -77.02336316666667}, {"fusion_lat": 0.0, "name": "0db6697e5830e1b8487bdd19ef69af65", "is_disabled": 0, "rental_uris": {"android": "https://dc.lft.to/lastmile_qr_scan", "ios": "https://dc.lft.to/lastmile_qr_scan"}, "fusion_lon": 0.0, "lat": 38.935091, "bike_id": "0db6697e5830e1b8487bdd19ef69af65", "type": "electric_scooter", "is_reserved": 0, "lon": -77.02409933333334}, {"fusion_lat": 0.0, "name": "a26ab23df4cae6ab8cff13920ebb9c1f", "is_disabled": 0, "rental_uris": {"android": "https://dc.lft.to/lastmile_qr_scan", "ios": "https://dc.lft.to/lastmile_qr_scan"}, "fusion_lon": 0.0, "lat": 38.90043033333333, "bike_id": "a26ab23df4cae6ab8cff13920ebb9c1f", "type": "electric_scooter", "is_reserved": 0, "lon": -77.05596533333333}, {"fusion_lat": 0.0, "name": "03a417580bcc77954e1391edaab7c542", "is_disabled": 0, "rental_uris": {"android": "https://dc.lft.to/lastmile_qr_scan", "ios": "https://dc.lft.to/lastmile_qr_scan"}, "fusion_lon": 0.0, "lat": 38.898977, "bike_id": "03a417580bcc77954e1391edaab7c542", "type": "electric_scooter", "is_reserved": 0, "lon": -76.93353183333333}, {"fusion_lat": 0.0, "name": "28292c91c53e751eea9208dc18cb7bf8", "is_disabled": 0, "rental_uris": {"android": "https://dc.lft.to/lastmile_qr_scan", "ios": "https://dc.lft.to/lastmile_qr_scan"}, "fusion_lon": 0.0, "lat": 38.90732933333334, "bike_id": "28292c91c53e751eea9208dc18cb7bf8", "type": "electric_scooter", "is_reserved": 0, "lon": -77.063247}, {"fusion_lat": 0.0, "name": "c13a0caf66e57ee2927bb7d698728dbb", "is_disabled": 0, "rental_uris": {"android": "https://dc.lft.to/lastmile_qr_scan", "ios": "https://dc.lft.to/lastmile_qr_scan"}, "fusion_lon": 0.0, "lat": 38.794690833333334, "bike_id": "c13a0caf66e57ee2927bb7d698728dbb", "type": "electric_bike", "is_reserved": 0, "lon": -76.99249033333334}, {"fusion_lat": 0.0, "name": "59f077044eea8ff17b46135225b25ae3", "is_disabled": 0, "rental_uris": {"android": "https://dc.lft.to/lastmile_qr_scan", "ios": "https://dc.lft.to/lastmile_qr_scan"}, "fusion_lon": 0.0, "lat": 38.93012316666667, "bike_id": "59f077044eea8ff17b46135225b25ae3", "type": "electric_scooter", "is_reserved": 0, "lon": -77.020824}, {"fusion_lat": 0.0, "name": "9d4175abba329b4a5270a7602ce41b3f", "is_disabled": 0, "rental_uris": {"android": "https://dc.lft.to/lastmile_qr_scan", "ios": "https://dc.lft.to/lastmile_qr_scan"}, "fusion_lon": 0.0, "lat": 38.92577283333333, "bike_id": "9d4175abba329b4a5270a7602ce41b3f", "type": "electric_scooter", "is_reserved": 0, "lon": -77.05275516666667}, {"fusion_lat": 0.0, "name": "98a7e4e8f18fb7ead702cf89ad9d5c6e", "is_disabled": 0, "rental_uris": {"android": "https://dc.lft.to/lastmile_qr_scan", "ios": "https://dc.lft.to/lastmile_qr_scan"}, "fusion_lon": 0.0, "lat": 38.914148, "bike_id": "98a7e4e8f18fb7ead702cf89ad9d5c6e", "type": "electric_scooter", "is_reserved": 0, "lon": -77.03176166666667}, {"fusion_lat": 0.0, "name": "346768b740eda69dd773ddc88feb5da0", "is_disabled": 0, "rental_uris": {"android": "https://dc.lft.to/lastmile_qr_scan", "ios": "https://dc.lft.to/lastmile_qr_scan"}, "fusion_lon": 0.0, "lat": 38.879676833333335, "bike_id": "346768b740eda69dd773ddc88feb5da0", "type": "electric_bike", "is_reserved": 0, "lon": -76.91616966666666}, {"fusion_lat": 0.0, "name": "9e96459cea31cc1ea015e73b9ac1fd27", "is_disabled": 0, "rental_uris": {"android": "https://dc.lft.to/lastmile_qr_scan", "ios": "https://dc.lft.to/lastmile_qr_scan"}, "fusion_lon": 0.0, "lat": 38.896740666666666, "bike_id": "9e96459cea31cc1ea015e73b9ac1fd27", "type": "electric_scooter", "is_reserved": 0, "lon": -77.00516566666667}, {"fusion_lat": 0.0, "name": "29cc3ac42d16001a08bc57856a2383e4", "is_disabled": 0, "rental_uris": {"android": "https://dc.lft.to/lastmile_qr_scan", "ios": "https://dc.lft.to/lastmile_qr_scan"}, "fusion_lon": 0.0, "lat": 38.913250833333336, "bike_id": "29cc3ac42d16001a08bc57856a2383e4", "type": "electric_scooter", "is_reserved": 0, "lon": -77.0215675}, {"fusion_lat": 0.0, "name": "4297d63a06a3784426dd25b5fc639610", "is_disabled": 0, "rental_uris": {"android": "https://dc.lft.to/lastmile_qr_scan", "ios": "https://dc.lft.to/lastmile_qr_scan"}, "fusion_lon": 0.0, "lat": 38.915608666666664, "bike_id": "4297d63a06a3784426dd25b5fc639610", "type": "electric_scooter", "is_reserved": 0, "lon": -77.0315515}, {"fusion_lat": 0.0, "name": "28fd135fe3833a85695708fd737b55c9", "is_disabled": 0, "rental_uris": {"android": "https://dc.lft.to/lastmile_qr_scan", "ios": "https://dc.lft.to/lastmile_qr_scan"}, "fusion_lon": 0.0, "lat": 38.92429683333334, "bike_id": "28fd135fe3833a85695708fd737b55c9", "type": "electric_scooter", "is_reserved": 0, "lon": -77.01952083333333}, {"fusion_lat": 0.0, "name": "16a337cd227339392344222a805215d5", "is_disabled": 0, "rental_uris": {"android": "https://dc.lft.to/lastmile_qr_scan", "ios": "https://dc.lft.to/lastmile_qr_scan"}, "fusion_lon": 0.0, "lat": 38.8771, "bike_id": "16a337cd227339392344222a805215d5", "type": "electric_scooter", "is_reserved": 0, "lon": -76.993904}, {"fusion_lat": 0.0, "name": "cef09631eaf85bb318acc8a18873c8e0", "is_disabled": 0, "rental_uris": {"android": "https://dc.lft.to/lastmile_qr_scan", "ios": "https://dc.lft.to/lastmile_qr_scan"}, "fusion_lon": 0.0, "lat": 38.86624, "bike_id": "cef09631eaf85bb318acc8a18873c8e0", "type": "electric_scooter", "is_reserved": 0, "lon": -76.98719}, {"fusion_lat": 0.0, "name": "c41a8ed73d22e5fddb8f781c9a4aa687", "is_disabled": 0, "rental_uris": {"android": "https://dc.lft.to/lastmile_qr_scan", "ios": "https://dc.lft.to/lastmile_qr_scan"}, "fusion_lon": 0.0, "lat": 38.8745545, "bike_id": "c41a8ed73d22e5fddb8f781c9a4aa687", "type": "electric_bike", "is_reserved": 0, "lon": -76.999507}, {"fusion_lat": 0.0, "name": "a90bded14ae7d3829cbfc29f5ceaee56", "is_disabled": 0, "rental_uris": {"android": "https://dc.lft.to/lastmile_qr_scan", "ios": "https://dc.lft.to/lastmile_qr_scan"}, "fusion_lon": 0.0, "lat": 38.91007, "bike_id": "a90bded14ae7d3829cbfc29f5ceaee56", "type": "electric_scooter", "is_reserved": 0, "lon": -77.07373633333333}, {"fusion_lat": 0.0, "name": "61a2050cace8582f213c4ba8712c7b76", "is_disabled": 0, "rental_uris": {"android": "https://dc.lft.to/lastmile_qr_scan", "ios": "https://dc.lft.to/lastmile_qr_scan"}, "fusion_lon": 0.0, "lat": 38.932369, "bike_id": "61a2050cace8582f213c4ba8712c7b76", "type": "electric_bike", "is_reserved": 0, "lon": -76.97428533333333}, {"fusion_lat": 0.0, "name": "3371fcabbe21d88fa3801696d0755fa9", "is_disabled": 0, "rental_uris": {"android": "https://dc.lft.to/lastmile_qr_scan", "ios": "https://dc.lft.to/lastmile_qr_scan"}, "fusion_lon": 0.0, "lat": 38.950541666666666, "bike_id": "3371fcabbe21d88fa3801696d0755fa9", "type": "electric_scooter", "is_reserved": 0, "lon": -77.08029383333333}, {"fusion_lat": 0.0, "name": "3596325d5a5a996ec885db815becd332", "is_disabled": 0, "rental_uris": {"android": "https://dc.lft.to/lastmile_qr_scan", "ios": "https://dc.lft.to/lastmile_qr_scan"},