{"data": {"bikes": [{"lon": -76.9317625, "bike_id": "dda59e36c46a9166b50e6c1d987f33c6", "lat": 38.89881416666667, "fusion_lon": 0.0, "fusion_lat": 0.0, "type": "electric_scooter", "name": "dda59e36c46a9166b50e6c1d987f33c6", "is_disabled": 0, "rental_uris": {"ios": "https://dc.lft.to/lastmile_qr_scan", "android": "https://dc.lft.to/lastmile_qr_scan"}, "is_reserved": 0}, {"lon": -77.0328865, "bike_id": "d8816fd911c03649c78c0b92cb1cea45", "lat": 38.956473333333335, "fusion_lon": 0.0, "fusion_lat": 0.0, "type": "electric_scooter", "name": "d8816fd911c03649c78c0b92cb1cea45", "is_disabled": 0, "rental_uris": {"ios": "https://dc.lft.to/lastmile_qr_scan", "android": "https://dc.lft.to/lastmile_qr_scan"}, "is_reserved": 0}, {"lon": -77.026567, "bike_id": "5aa447323e5c53ceb5ab41773cb6572b", "lat": 38.975662166666666, "fusion_lon": 0.0, "fusion_lat": 0.0, "type": "electric_scooter", "name": "5aa447323e5c53ceb5ab41773cb6572b", "is_disabled": 0, "rental_uris": {"ios": "https://dc.lft.to/lastmile_qr_scan", "android": "https://dc.lft.to/lastmile_qr_scan"}, "is_reserved": 0}, {"lon": -77.02820633333333, "bike_id": "0504f6bed2881c5670a4e36ee66528c9", "lat": 38.96504016666667, "fusion_lon": 0.0, "fusion_lat": 0.0, "type": "electric_bike", "name": "0504f6bed2881c5670a4e36ee66528c9", "is_disabled": 0, "rental_uris": {"ios": "https://dc.lft.to/lastmile_qr_scan", "android": "https://dc.lft.to/lastmile_qr_scan"}, "is_reserved": 0}, {"lon": -76.9301845, "bike_id": "fc2823b9a5a5dc91cbc1933ce08c1622", "lat": 38.896587333333336, "fusion_lon": 0.0, "fusion_lat": 0.0, "type": "electric_bike", "name": "fc2823b9a5a5dc91cbc1933ce08c1622", "is_disabled": 0, "rental_uris": {"ios": "https://dc.lft.to/lastmile_qr_scan", "android": "https://dc.lft.to/lastmile_qr_scan"}, "is_reserved": 0}, {"lon": -76.93644516666667, "bike_id": "f38b5c31a6997653b696399797431e2a", "lat": 38.90061466666667, "fusion_lon": 0.0, "fusion_lat": 0.0, "type": "electric_scooter", "name": "f38b5c31a6997653b696399797431e2a", "is_disabled": 0, "rental_uris": {"ios": "https://dc.lft.to/lastmile_qr_scan", "android": "https://dc.lft.to/lastmile_qr_scan"}, "is_reserved": 0}, {"lon": -77.013291, "bike_id": "cd08d19fa125eb971afedb25d2485391", "lat": 38.900757166666665, "fusion_lon": 0.0, "fusion_lat": 0.0, "type": "electric_scooter", "name": "cd08d19fa125eb971afedb25d2485391", "is_disabled": 0, "rental_uris": {"ios": "https://dc.lft.to/lastmile_qr_scan", "android": "https://dc.lft.to/lastmile_qr_scan"}, "is_reserved": 0}, {"lon": -76.99893866666666, "bike_id": "fc852a8af46b998f38a8405ade360b6d", "lat": 38.90948616666667, "fusion_lon": 0.0, "fusion_lat": 0.0, "type": "electric_scooter", "name": "fc852a8af46b998f38a8405ade360b6d", "is_disabled": 0, "rental_uris": {"ios": "https://dc.lft.to/lastmile_qr_scan", "android": "https://dc.lft.to/lastmile_qr_scan"}, "is_reserved": 0}, {"lon": -77.01727883333334, "bike_id": "d9c79bfb89f0e6b77b05b8ffb6b5a2d8", "lat": 38.943146166666665, "fusion_lon": 0.0, "fusion_lat": 0.0, "type": "electric_scooter", "name": "d9c79bfb89f0e6b77b05b8ffb6b5a2d8", "is_disabled": 0, "rental_uris": {"ios": "https://dc.lft.to/lastmile_qr_scan", "android": "https://dc.lft.to/lastmile_qr_scan"}, "is_reserved": 0}, {"lon": -77.04195666666666, "bike_id": "246419efdbb3bd418c1ea8e22d4dc438", "lat": 38.926257166666666, "fusion_lon": 0.0, "fusion_lat": 0.0, "type": "electric_scooter", "name": "246419efdbb3bd418c1ea8e22d4dc438", "is_disabled": 0, "rental_uris": {"ios": "https://dc.lft.to/lastmile_qr_scan", "android": "https://dc.lft.to/lastmile_qr_scan"}, "is_reserved": 0}, {"lon": -77.03811566666667, "bike_id": "d05791877de3aa468599210154e8d246", "lat": 38.92063666666667, "fusion_lon": 0.0, "fusion_lat": 0.0, "type": "electric_scooter", "name": "d05791877de3aa468599210154e8d246", "is_disabled": 0, "rental_uris": {"ios": "https://dc.lft.to/lastmile_qr_scan", "android": "https://dc.lft.to/lastmile_qr_scan"}, "is_reserved": 0}, {"lon": -77.0323365, "bike_id": "56b89948f28a82c484ca7b9abacb1a4e", "lat": 38.926878, "fusion_lon": 0.0, "fusion_lat": 0.0, "type": "electric_scooter", "name": "56b89948f28a82c484ca7b9abacb1a4e", "is_disabled": 0, "rental_uris": {"ios": "https://dc.lft.to/lastmile_qr_scan", "android": "https://dc.lft.to/lastmile_qr_scan"}, "is_reserved": 0}, {"lon": -77.05914866666667, "bike_id": "522059ebb49c3e229c8655eeb09e5b40", "lat": 38.903843, "fusion_lon": 0.0, "fusion_lat": 0.0, "type": "electric_scooter", "name": "522059ebb49c3e229c8655eeb09e5b40", "is_disabled": 0, "rental_uris": {"ios": "https://dc.lft.to/lastmile_qr_scan", "android": "https://dc.lft.to/lastmile_qr_scan"}, "is_reserved": 0}, {"lon": -77.01847233333334, "bike_id": "3002ae915bcb0f87c1026cad27887cfc", "lat": 38.91266316666667, "fusion_lon": 0.0, "fusion_lat": 0.0, "type": "electric_scooter", "name": "3002ae915bcb0f87c1026cad27887cfc", "is_disabled": 0, "rental_uris": {"ios": "https://dc.lft.to/lastmile_qr_scan", "android": "https://dc.lft.to/lastmile_qr_scan"}, "is_reserved": 0}, {"lon": -77.04424416666667, "bike_id": "49df30e2222f08f506689807f3587650", "lat": 38.9210635, "fusion_lon": 0.0, "fusion_lat": 0.0, "type": "electric_scooter", "name": "49df30e2222f08f506689807f3587650", "is_disabled": 0, "rental_uris": {"ios": "https://dc.lft.to/lastmile_qr_scan", "android": "https://dc.lft.to/lastmile_qr_scan"}, "is_reserved": 0}, {"lon": -77.0148535, "bike_id": "88df0760c554213758d9c4bd290a785b", "lat": 38.958660333333334, "fusion_lon": 0.0, "fusion_lat": 0.0, "type": "electric_scooter", "name": "88df0760c554213758d9c4bd290a785b", "is_disabled": 0, "rental_uris": {"ios": "https://dc.lft.to/lastmile_qr_scan", "android": "https://dc.lft.to/lastmile_qr_scan"}, "is_reserved": 0}, {"lon": -77.11575066666667, "bike_id": "93c778d169f71f8102e682b64c0accc9", "lat": 38.993436333333335, "fusion_lon": 0.0, "fusion_lat": 0.0, "type": "electric_bike", "name": "93c778d169f71f8102e682b64c0accc9", "is_disabled": 0, "rental_uris": {"ios": "https://dc.lft.to/lastmile_qr_scan", "android": "https://dc.lft.to/lastmile_qr_scan"}, "is_reserved": 0}, {"lon": -77.0260925, "bike_id": "edfaac11a3c5296fdb94e12b03396b4c", "lat": 38.92990733333333, "fusion_lon": 0.0, "fusion_lat": 0.0, "type": "electric_scooter", "name": "edfaac11a3c5296fdb94e12b03396b4c", "is_disabled": 0, "rental_uris": {"ios": "https://dc.lft.to/lastmile_qr_scan", "android": "https://dc.lft.to/lastmile_qr_scan"}, "is_reserved": 0}, {"lon": -77.03120416666667, "bike_id": "0646ffd13de6ed1baab309b5b8a5fee4", "lat": 38.904370166666666, "fusion_lon": 0.0, "fusion_lat": 0.0, "type": "electric_scooter", "name": "0646ffd13de6ed1baab309b5b8a5fee4", "is_disabled": 0, "rental_uris": {"ios": "https://dc.lft.to/lastmile_qr_scan", "android": "https://dc.lft.to/lastmile_qr_scan"}, "is_reserved": 0}, {"lon": -77.13906516666667, "bike_id": "2e2bac5c5549dbc623efcd4ba6135f8b", "lat": 38.896753833333335, "fusion_lon": 0.0, "fusion_lat": 0.0, "type": "electric_bike", "name": "2e2bac5c5549dbc623efcd4ba6135f8b", "is_disabled": 0, "rental_uris": {"ios": "https://dc.lft.to/lastmile_qr_scan", "android": "https://dc.lft.to/lastmile_qr_scan"}, "is_reserved": 0}, {"lon": -77.01788333333333, "bike_id": "22c7365c1d33f295c05922fc35cbf8de", "lat": 38.90124566666667, "fusion_lon": 0.0, "fusion_lat": 0.0, "type": "electric_scooter", "name": "22c7365c1d33f295c05922fc35cbf8de", "is_disabled": 0, "rental_uris": {"ios": "https://dc.lft.to/lastmile_qr_scan", "android": "https://dc.lft.to/lastmile_qr_scan"}, "is_reserved": 0}, {"lon": -77.039021, "bike_id": "badd8ec6d139c9b66354bc950decf2cb", "lat": 38.922209, "fusion_lon": 0.0, "fusion_lat": 0.0, "type": "electric_scooter", "name": "badd8ec6d139c9b66354bc950decf2cb", "is_disabled": 0, "rental_uris": {"ios": "https://dc.lft.to/lastmile_qr_scan", "android": "https://dc.lft.to/lastmile_qr_scan"}, "is_reserved": 0}, {"lon": -77.02380783333334, "bike_id": "69176457a99014798d229a24b07e677e", "lat": 38.9009275, "fusion_lon": 0.0, "fusion_lat": 0.0, "type": "electric_scooter", "name": "69176457a99014798d229a24b07e677e", "is_disabled": 0, "rental_uris": {"ios": "https://dc.lft.to/lastmile_qr_scan", "android": "https://dc.lft.to/lastmile_qr_scan"}, "is_reserved": 0}, {"lon": -77.02667716666667, "bike_id": "936eff3dcc4914312b474c39d72239f6", "lat": 38.93101766666667, "fusion_lon": 0.0, "fusion_lat": 0.0, "type": "electric_scooter", "name": "936eff3dcc4914312b474c39d72239f6", "is_disabled": 0, "rental_uris": {"ios": "https://dc.lft.to/lastmile_qr_scan", "android": "https://dc.lft.to/lastmile_qr_scan"}, "is_reserved": 0}, {"lon": -77.03641033333334, "bike_id": "5674d65fcc9ef8e7ecc65a499d911344", "lat": 38.923436833333334, "fusion_lon": 0.0, "fusion_lat": 0.0, "type": "electric_scooter", "name": "5674d65fcc9ef8e7ecc65a499d911344", "is_disabled": 0, "rental_uris": {"ios": "https://dc.lft.to/lastmile_qr_scan", "android": "https://dc.lft.to/lastmile_qr_scan"}, "is_reserved": 0}, {"lon": -77.036357, "bike_id": "cb108f75c8a64fd823813cf849646222", "lat": 38.921814166666664, "fusion_lon": 0.0, "fusion_lat": 0.0, "type": "electric_scooter", "name": "cb108f75c8a64fd823813cf849646222", "is_disabled": 0, "rental_uris": {"ios": "https://dc.lft.to/lastmile_qr_scan", "android": "https://dc.lft.to/lastmile_qr_scan"}, "is_reserved": 0}, {"lon": -77.02462883333334, "bike_id": "c69d71ceafb3e1d05cf09a575502f0f7", "lat": 38.899935, "fusion_lon": 0.0, "fusion_lat": 0.0, "type": "electric_scooter", "name": "c69d71ceafb3e1d05cf09a575502f0f7", "is_disabled": 0, "rental_uris": {"ios": "https://dc.lft.to/lastmile_qr_scan", "android": "https://dc.lft.to/lastmile_qr_scan"}, "is_reserved": 0}, {"lon": -77.03656566666666, "bike_id": "15a4aaa39a2df104eb01257bd7398470", "lat": 38.9361915, "fusion_lon": 0.0, "fusion_lat": 0.0, "type": "electric_scooter", "name": "15a4aaa39a2df104eb01257bd7398470", "is_disabled": 0, "rental_uris": {"ios": "https://dc.lft.to/lastmile_qr_scan", "android": "https://dc.lft.to/lastmile_qr_scan"}, "is_reserved": 0}, {"lon": -77.02370883333333, "bike_id": "cbe91d2aeb7e39453fcb5eaf77da7187", "lat": 38.9206245, "fusion_lon": 0.0, "fusion_lat": 0.0, "type": "electric_scooter", "name": "cbe91d2aeb7e39453fcb5eaf77da7187", "is_disabled": 0, "rental_uris": {"ios": "https://dc.lft.to/lastmile_qr_scan", "android": "https://dc.lft.to/lastmile_qr_scan"}, "is_reserved": 0}, {"lon": -76.9785445, "bike_id": "389b0fad1c890b4661b7ad488519df45", "lat": 38.870707333333335, "fusion_lon": 0.0, "fusion_lat": 0.0, "type": "electric_scooter", "name": "389b0fad1c890b4661b7ad488519df45", "is_disabled": 0, "rental_uris": {"ios": "https://dc.lft.to/lastmile_qr_scan", "android": "https://dc.lft.to/lastmile_qr_scan"}, "is_reserved": 0}, {"lon": -77.0048485, "bike_id": "bd029f62bc832af770dceb45699d1482", "lat": 38.920636, "fusion_lon": 0.0, "fusion_lat": 0.0, "type": "electric_scooter", "name": "bd029f62bc832af770dceb45699d1482", "is_disabled": 0, "rental_uris": {"ios": "https://dc.lft.to/lastmile_qr_scan", "android": "https://dc.lft.to/lastmile_qr_scan"}, "is_reserved": 0}, {"lon": -77.02172333333333, "bike_id": "4da9d30a35406ce6ba91845459d8aa52", "lat": 38.887436666666666, "fusion_lon": 0.0, "fusion_lat": 0.0, "type": "electric_scooter", "name": "4da9d30a35406ce6ba91845459d8aa52", "is_disabled": 0, "rental_uris": {"ios": "https://dc.lft.to/lastmile_qr_scan", "android": "https://dc.lft.to/lastmile_qr_scan"}, "is_reserved": 0}, {"lon": -77.06409183333334, "bike_id": "65d4d3deaab9f520f0a8c493f5ca78cc", "lat": 38.84060733333333, "fusion_lon": 0.0, "fusion_lat": 0.0, "type": "electric_bike", "name": "65d4d3deaab9f520f0a8c493f5ca78cc", "is_disabled": 0, "rental_uris": {"ios": "https://dc.lft.to/lastmile_qr_scan", "android": "https://dc.lft.to/lastmile_qr_scan"}, "is_reserved": 0}, {"lon": -77.02952316666666, "bike_id": "66af94e5fbceaa49000600bcb94f4587", "lat": 38.9217625, "fusion_lon": 0.0, "fusion_lat": 0.0, "type": "electric_scooter", "name": "66af94e5fbceaa49000600bcb94f4587", "is_disabled": 0, "rental_uris": {"ios": "https://dc.lft.to/lastmile_qr_scan", "android": "https://dc.lft.to/lastmile_qr_scan"}, "is_reserved": 0}, {"lon": -77.0019825, "bike_id": "917ea22c8d1b16ec48beaa539e4a35cc", "lat": 38.914748333333335, "fusion_lon": 0.0, "fusion_lat": 0.0, "type": "electric_scooter", "name": "917ea22c8d1b16ec48beaa539e4a35cc", "is_disabled": 0, "rental_uris": {"ios": "https://dc.lft.to/lastmile_qr_scan", "android": "https://dc.lft.to/lastmile_qr_scan"}, "is_reserved": 0}, {"lon": -77.04041233333334, "bike_id": "35915d50aa686253fd014c69352a90a2", "lat": 38.912667166666665, "fusion_lon": 0.0, "fusion_lat": 0.0, "type": "electric_scooter", "name": "35915d50aa686253fd014c69352a90a2", "is_disabled": 0, "rental_uris": {"ios": "https://dc.lft.to/lastmile_qr_scan", "android": "https://dc.lft.to/lastmile_qr_scan"}, "is_reserved": 0}, {"lon": -77.034652, "bike_id": "4bae189e62dd43542e94479ad605bd0e", "lat": 38.916670833333335, "fusion_lon": 0.0, "fusion_lat": 0.0, "type": "electric_scooter", "name": "4bae189e62dd43542e94479ad605bd0e", "is_disabled": 0, "rental_uris": {"ios": "https://dc.lft.to/lastmile_qr_scan", "android": "https://dc.lft.to/lastmile_qr_scan"}, "is_reserved": 0}, {"lon": -76.9457425, "bike_id": "c95d6e4ed6ffdb62427230c9c15e2de6", "lat": 38.9374305, "fusion_lon": 0.0, "fusion_lat": 0.0, "type": "electric_bike", "name": "c95d6e4ed6ffdb62427230c9c15e2de6", "is_disabled": 0, "rental_uris": {"ios": "https://dc.lft.to/lastmile_qr_scan", "android": "https://dc.lft.to/lastmile_qr_scan"}, "is_reserved": 0}, {"lon": -77.02314216666667, "bike_id": "277e6949559717e7cd4e557ae8dd5a08", "lat": 38.955233166666666, "fusion_lon": 0.0, "fusion_lat": 0.0, "type": "electric_scooter", "name": "277e6949559717e7cd4e557ae8dd5a08", "is_disabled": 0, "rental_uris": {"ios": "https://dc.lft.to/lastmile_qr_scan", "android": "https://dc.lft.to/lastmile_qr_scan"}, "is_reserved": 0}, {"lon": -77.04319783333334, "bike_id": "19aebe85fdf0bc5f165fe09ca0b1342c", "lat": 38.9187845, "fusion_lon": 0.0, "fusion_lat": 0.0, "type": "electric_scooter", "name": "19aebe85fdf0bc5f165fe09ca0b1342c", "is_disabled": 0, "rental_uris": {"ios": "https://dc.lft.to/lastmile_qr_scan", "android": "https://dc.lft.to/lastmile_qr_scan"}, "is_reserved": 0}, {"lon": -77.03886933333334, "bike_id": "b0c93519e9044f9205df454cc4b88c4f", "lat": 38.90720066666667, "fusion_lon": 0.0, "fusion_lat": 0.0, "type": "electric_scooter", "name": "b0c93519e9044f9205df454cc4b88c4f", "is_disabled": 0, "rental_uris": {"ios": "https://dc.lft.to/lastmile_qr_scan", "android": "https://dc.lft.to/lastmile_qr_scan"}, "is_reserved": 0}, {"lon": -77.02374533333334, "bike_id": "97fb7738752ac61eff621f158c0c117b", "lat": 38.9063275, "fusion_lon": 0.0, "fusion_lat": 0.0, "type": "electric_scooter", "name": "97fb7738752ac61eff621f158c0c117b", "is_disabled": 0, "rental_uris": {"ios": "https://dc.lft.to/lastmile_qr_scan", "android": "https://dc.lft.to/lastmile_qr_scan"}, "is_reserved": 0}, {"lon": -77.0198215, "bike_id": "3343ad567f2912502fd69ab92677d680", "lat": 38.895312, "fusion_lon": 0.0, "fusion_lat": 0.0, "type": "electric_scooter", "name": "3343ad567f2912502fd69ab92677d680", "is_disabled": 0, "rental_uris": {"ios": "https://dc.lft.to/lastmile_qr_scan", "android": "https://dc.lft.to/lastmile_qr_scan"}, "is_reserved": 0}, {"lon": -76.9851025, "bike_id": "b0fc9acc00fed876420b922a2dfdcd7d", "lat": 38.90340616666667, "fusion_lon": 0.0, "fusion_lat": 0.0, "type": "electric_scooter", "name": "b0fc9acc00fed876420b922a2dfdcd7d", "is_disabled": 0, "rental_uris": {"ios": "https://dc.lft.to/lastmile_qr_scan", "android": "https://dc.lft.to/lastmile_qr_scan"}, "is_reserved": 0}, {"lon": -77.02460566666667, "bike_id": "f520187f530364080ee172a47664a7d3", "lat": 38.93715233333333, "fusion_lon": 0.0, "fusion_lat": 0.0, "type": "electric_scooter", "name": "f520187f530364080ee172a47664a7d3", "is_disabled": 0, "rental_uris": {"ios": "https://dc.lft.to/lastmile_qr_scan", "android": "https://dc.lft.to/lastmile_qr_scan"}, "is_reserved": 0}, {"lon": -77.020889, "bike_id": "28a93bf1346072e5ef4feb7ba5fe22a9", "lat": 38.8818475, "fusion_lon": 0.0, "fusion_lat": 0.0, "type": "electric_scooter", "name": "28a93bf1346072e5ef4feb7ba5fe22a9", "is_disabled": 0, "rental_uris": {"ios": "https://dc.lft.to/lastmile_qr_scan", "android": "https://dc.lft.to/lastmile_qr_scan"}, "is_reserved": 0}, {"lon": -77.02478666666667, "bike_id": "615dae1b1e9dfa093cc3fb6a30496127", "lat": 38.880086666666664, "fusion_lon": 0.0, "fusion_lat": 0.0, "type": "electric_scooter", "name": "615dae1b1e9dfa093cc3fb6a30496127", "is_disabled": 0, "rental_uris": {"ios": "https://dc.lft.to/lastmile_qr_scan", "android": "https://dc.lft.to/lastmile_qr_scan"}, "is_reserved": 0}, {"lon": -77.02509866666666, "bike_id": "e032e1c3df26b40f90f996c867db676f", "lat": 38.934145, "fusion_lon": 0.0, "fusion_lat": 0.0, "type": "electric_bike", "name": "e032e1c3df26b40f90f996c867db676f", "is_disabled": 0, "rental_uris": {"ios": "https://dc.lft.to/lastmile_qr_scan", "android": "https://dc.lft.to/lastmile_qr_scan"}, "is_reserved": 0}, {"lon": -76.99578683333333, "bike_id": "481f89c5136425dc8eb62e3e366f4c87", "lat": 38.852919, "fusion_lon": 0.0, "fusion_lat": 0.0, "type": "electric_scooter", "name": "481f89c5136425dc8eb62e3e366f4c87", "is_disabled": 0, "rental_uris": {"ios": "https://dc.lft.to/lastmile_qr_scan", "android": "https://dc.lft.to/lastmile_qr_scan"}, "is_reserved": 0}, {"lon": -76.98558383333334, "bike_id": "710031d353499a60c1161cff9bc57403", "lat": 38.9103365, "fusion_lon": 0.0, "fusion_lat": 0.0, "type": "electric_scooter", "name": "710031d353499a60c1161cff9bc57403", "is_disabled": 0, "rental_uris": {"ios": "https://dc.lft.to/lastmile_qr_scan", "android": "https://dc.lft.to/lastmile_qr_scan"}, "is_reserved": 0}, {"lon": -77.0380765, "bike_id": "7c207e339b777141b36d6b22d0859c04", "lat": 38.920618833333336, "fusion_lon": 0.0, "fusion_lat": 0.0, "type": "electric_scooter", "name": "7c207e339b777141b36d6b22d0859c04", "is_disabled": 0, "rental_uris": {"ios": "https://dc.lft.to/lastmile_qr_scan", "android": "https://dc.lft.to/lastmile_qr_scan"}, "is_reserved": 0}, {"lon": -76.93544083333333, "bike_id": "9cd7a286d8f14ef6767e185db01ec8f4", "lat": 38.955535833333336, "fusion_lon": 0.0, "fusion_lat": 0.0, "type": "electric_bike", "name": "9cd7a286d8f14ef6767e185db01ec8f4", "is_disabled": 0, "rental_uris": {"ios": "https://dc.lft.to/lastmile_qr_scan", "android": "https://dc.lft.to/lastmile_qr_scan"}, "is_reserved": 0}, {"lon": -76.92521983333333, "bike_id": "7a34fe347ac09398915e2bb535fe8338", "lat": 38.883416, "fusion_lon": 0.0, "fusion_lat": 0.0, "type": "electric_bike", "name": "7a34fe347ac09398915e2bb535fe8338", "is_disabled": 0, "rental_uris": {"ios": "https://dc.lft.to/lastmile_qr_scan", "android": "https://dc.lft.to/lastmile_qr_scan"}, "is_reserved": 0}, {"lon": -77.05040033333333, "bike_id": "ad83b48099c62955cd16be9d0faa1b48", "lat": 38.9238035, "fusion_lon": 0.0, "fusion_lat": 0.0, "type": "electric_scooter", "name": "ad83b48099c62955cd16be9d0faa1b48", "is_disabled": 0, "rental_uris": {"ios": "https://dc.lft.to/lastmile_qr_scan", "android": "https://dc.lft.to/lastmile_qr_scan"}, "is_reserved": 0}, {"lon": -77.044669, "bike_id": "4c00c068b5adc910d022d05e766351f8", "lat": 38.91467016666667, "fusion_lon": 0.0, "fusion_lat": 0.0, "type": "electric_scooter", "name": "4c00c068b5adc910d022d05e766351f8", "is_disabled": 0, "rental_uris": {"ios": "https://dc.lft.to/lastmile_qr_scan", "android": "https://dc.lft.to/lastmile_qr_scan"}, "is_reserved": 0}, {"lon": -77.0412185, "bike_id": "72c43267ccef5e54768c79e588a11c43", "lat": 38.94406083333333, "fusion_lon": 0.0, "fusion_lat": 0.0, "type": "electric_bike", "name": "72c43267ccef5e54768c79e588a11c43", "is_disabled": 0, "rental_uris": {"ios": "https://dc.lft.to/lastmile_qr_scan", "android": "https://dc.lft.to/lastmile_qr_scan"}, "is_reserved": 0}, {"lon": -77.02789116666666, "bike_id": "a5ffb7bf265bc4008c61676be7965198", "lat": 38.92769083333334, "fusion_lon": 0.0, "fusion_lat": 0.0, "type": "electric_scooter", "name": "a5ffb7bf265bc4008c61676be7965198", "is_disabled": 0, "rental_uris": {"ios": "https://dc.lft.to/lastmile_qr_scan", "android": "https://dc.lft.to/lastmile_qr_scan"}, "is_reserved": 0}, {"lon": -77.0520955, "bike_id": "929f93b7080825170a481d2e78ec372b", "lat": 38.92478883333333, "fusion_lon": 0.0, "fusion_lat": 0.0, "type": "electric_scooter", "name": "929f93b7080825170a481d2e78ec372b", "is_disabled": 0, "rental_uris": {"ios": "https://dc.lft.to/lastmile_qr_scan", "android": "https://dc.lft.to/lastmile_qr_scan"}, "is_reserved": 0}, {"lon": -77.08050783333333, "bike_id": "955efde34afb2e489548796661b682a2", "lat": 38.92060883333333, "fusion_lon": 0.0, "fusion_lat": 0.0, "type": "electric_bike", "name": "955efde34afb2e489548796661b682a2", "is_disabled": 0, "rental_uris": {"ios": "https://dc.lft.to/lastmile_qr_scan", "android": "https://dc.lft.to/lastmile_qr_scan"}, "is_reserved": 0}, {"lon": -77.0118675, "bike_id": "6b9530dbcd7eb8879f14f267e54d2030", "lat": 38.900281666666665, "fusion_lon": 0.0, "fusion_lat": 0.0, "type": "electric_scooter", "name": "6b9530dbcd7eb8879f14f267e54d2030", "is_disabled": 0, "rental_uris": {"ios": "https://dc.lft.to/lastmile_qr_scan", "android": "https://dc.lft.to/lastmile_qr_scan"}, "is_reserved": 0}, {"lon": -76.98673516666666, "bike_id": "e6d123798d9b047e3223ac1b218ed4ab", "lat": 38.902488166666664, "fusion_lon": 0.0, "fusion_lat": 0.0, "type": "electric_scooter", "name": "e6d123798d9b047e3223ac1b218ed4ab", "is_disabled": 0, "rental_uris": {"ios": "https://dc.lft.to/lastmile_qr_scan", "android": "https://dc.lft.to/lastmile_qr_scan"}, "is_reserved": 0}, {"lon": -77.03850916666667, "bike_id": "d18e4bcd07f0b13b554a06ae437a1505", "lat": 38.90670266666667, "fusion_lon": 0.0, "fusion_lat": 0.0, "type": "electric_scooter", "name": "d18e4bcd07f0b13b554a06ae437a1505", "is_disabled": 0, "rental_uris": {"ios": "https://dc.lft.to/lastmile_qr_scan", "android": "https://dc.lft.to/lastmile_qr_scan"}, "is_reserved": 0}, {"lon": -77.0472045, "bike_id": "9642c0563c6b96bfffe9dcdf21dac74f", "lat": 38.922362166666666, "fusion_lon": 0.0, "fusion_lat": 0.0, "type": "electric_scooter", "name": "9642c0563c6b96bfffe9dcdf21dac74f", "is_disabled": 0, "rental_uris": {"ios": "https://dc.lft.to/lastmile_qr_scan", "android": "https://dc.lft.to/lastmile_qr_scan"}, "is_reserved": 0}, {"lon": -77.027347, "bike_id": "c9c933ef14bee45bfd1ea97e51e26af4", "lat": 38.92837566666667, "fusion_lon": 0.0, "fusion_lat": 0.0, "type": "electric_scooter", "name": "c9c933ef14bee45bfd1ea97e51e26af4", "is_disabled": 0, "rental_uris": {"ios": "https://dc.lft.to/lastmile_qr_scan", "android": "https://dc.lft.to/lastmile_qr_scan"}, "is_reserved": 0}, {"lon": -77.04267766666666, "bike_id": "53a0fb3bba9e06c8acd9357b2708fe53", "lat": 38.9178225, "fusion_lon": 0.0, "fusion_lat": 0.0, "type": "electric_scooter", "name": "53a0fb3bba9e06c8acd9357b2708fe53", "is_disabled": 0, "rental_uris": {"ios": "https://dc.lft.to/lastmile_qr_scan", "android": "https://dc.lft.to/lastmile_qr_scan"}, "is_reserved": 0}, {"lon": -77.000684, "bike_id": "c2ff579767c0d728ece38f16dc716238", "lat": 38.9243535, "fusion_lon": 0.0, "fusion_lat": 0.0, "type": "electric_scooter", "name": "c2ff579767c0d728ece38f16dc716238", "is_disabled": 0, "rental_uris": {"ios": "https://dc.lft.to/lastmile_qr_scan", "android": "https://dc.lft.to/lastmile_qr_scan"}, "is_reserved": 0}, {"lon": -77.05215433333333, "bike_id": "d02974ebeac3ccc2175200131874f105", "lat": 38.900103333333334, "fusion_lon": 0.0, "fusion_lat": 0.0, "type": "electric_scooter", "name": "d02974ebeac3ccc2175200131874f105", "is_disabled": 0, "rental_uris": {"ios": "https://dc.lft.to/lastmile_qr_scan", "android": "https://dc.lft.to/lastmile_qr_scan"}, "is_reserved": 0}, {"lon": -77.02405383333334, "bike_id": "d02b07be0d7bc7a2fc680c16679a61be", "lat": 38.917594333333334, "fusion_lon": 0.0, "fusion_lat": 0.0, "type": "electric_scooter", "name": "d02b07be0d7bc7a2fc680c16679a61be", "is_disabled": 0, "rental_uris": {"ios": "https://dc.lft.to/lastmile_qr_scan", "android": "https://dc.lft.to/lastmile_qr_scan"}, "is_reserved": 0}, {"lon": -76.97619083333333, "bike_id": "6d8d46a11e3efe2ca97cc6b447394f00", "lat": 38.9038565, "fusion_lon": 0.0, "fusion_lat": 0.0, "type": "electric_scooter", "name": "6d8d46a11e3efe2ca97cc6b447394f00", "is_disabled": 0, "rental_uris": {"ios": "https://dc.lft.to/lastmile_qr_scan", "android": "https://dc.lft.to/lastmile_qr_scan"}, "is_reserved": 0}, {"lon": -76.93609516666666, "bike_id": "5b860c457edc46d28c061f0d43d1551a", "lat": 38.896822, "fusion_lon": 0.0, "fusion_lat": 0.0, "type": "electric_scooter", "name": "5b860c457edc46d28c061f0d43d1551a", "is_disabled": 0, "rental_uris": {"ios": "https://dc.lft.to/lastmile_qr_scan", "android": "https://dc.lft.to/lastmile_qr_scan"}, "is_reserved": 0}, {"lon": -77.02915183333333, "bike_id": "3cbc4007e964c1db111c34ae72a845bc", "lat": 38.90396666666667, "fusion_lon": 0.0, "fusion_lat": 0.0, "type": "electric_scooter", "name": "3cbc4007e964c1db111c34ae72a845bc", "is_disabled": 0, "rental_uris": {"ios": "https://dc.lft.to/lastmile_qr_scan", "android": "https://dc.lft.to/lastmile_qr_scan"}, "is_reserved": 0}, {"lon": -76.9992565, "bike_id": "78c0ade153227f85525c806f588d8e51", "lat": 38.90909216666667, "fusion_lon": 0.0, "fusion_lat": 0.0, "type": "electric_scooter", "name": "78c0ade153227f85525c806f588d8e51", "is_disabled": 0, "rental_uris": {"ios": "https://dc.lft.to/lastmile_qr_scan", "android": "https://dc.lft.to/lastmile_qr_scan"}, "is_reserved": 0}, {"lon": -77.04388983333334, "bike_id": "f03b2147deca57211ec6bd364cfd74ad", "lat": 38.92106533333333, "fusion_lon": 0.0, "fusion_lat": 0.0, "type": "electric_scooter", "name": "f03b2147deca57211ec6bd364cfd74ad", "is_disabled": 0, "rental_uris": {"ios": "https://dc.lft.to/lastmile_qr_scan", "android": "https://dc.lft.to/lastmile_qr_scan"}, "is_reserved": 0}, {"lon": -77.03268366666667, "bike_id": "ec45d845500b7893be1f394fd61102f4", "lat": 38.92757733333333, "fusion_lon": 0.0, "fusion_lat": 0.0, "type": "electric_scooter", "name": "ec45d845500b7893be1f394fd61102f4", "is_disabled": 0, "rental_uris": {"ios": "https://dc.lft.to/lastmile_qr_scan", "android": "https://dc.lft.to/lastmile_qr_scan"}, "is_reserved": 0}, {"lon": -77.03095833333333, "bike_id": "ccb774e169aa625cbdaa959099d04505", "lat": 38.93391466666667, "fusion_lon": 0.0, "fusion_lat": 0.0, "type": "electric_scooter", "name": "ccb774e169aa625cbdaa959099d04505", "is_disabled": 0, "rental_uris": {"ios": "https://dc.lft.to/lastmile_qr_scan", "android": "https://dc.lft.to/lastmile_qr_scan"}, "is_reserved": 0}, {"lon": -77.03346366666666, "bike_id": "cf3ea2bb057125f70a26c03ab06b0d7b", "lat": 38.92052616666667, "fusion_lon": 0.0, "fusion_lat": 0.0, "type": "electric_scooter", "name": "cf3ea2bb057125f70a26c03ab06b0d7b", "is_disabled": 0, "rental_uris": {"ios": "https://dc.lft.to/lastmile_qr_scan", "android": "https://dc.lft.to/lastmile_qr_scan"}, "is_reserved": 0}, {"lon": -76.99942633333333, "bike_id": "b90f82bd1004f7d579799b6ddc1ee8c1", "lat": 38.9036655, "fusion_lon": 0.0, "fusion_lat": 0.0, "type": "electric_scooter", "name": "b90f82bd1004f7d579799b6ddc1ee8c1", "is_disabled": 0, "rental_uris": {"ios": "https://dc.lft.to/lastmile_qr_scan", "android": "https://dc.lft.to/lastmile_qr_scan"}, "is_reserved": 0}, {"lon": -77.036239, "bike_id": "11071e742ac3343088a0e23049e1f38f", "lat": 38.9125605, "fusion_lon": 0.0, "fusion_lat": 0.0, "type": "electric_scooter", "name": "11071e742ac3343088a0e23049e1f38f", "is_disabled": 0, "rental_uris": {"ios": "https://dc.lft.to/lastmile_qr_scan", "android": "https://dc.lft.to/lastmile_qr_scan"}, "is_reserved": 0}, {"lon": -77.034118, "bike_id": "6f239dbfa9ecce69956329408754bd48", "lat": 38.927440833333335, "fusion_lon": 0.0, "fusion_lat": 0.0, "type": "electric_scooter", "name": "6f239dbfa9ecce69956329408754bd48", "is_disabled": 0, "rental_uris": {"ios": "https://dc.lft.to/lastmile_qr_scan", "android": "https://dc.lft.to/lastmile_qr_scan"}, "is_reserved": 0}, {"lon": -77.03664983333333, "bike_id": "720d8d68cf38806de584898bcc464dc8", "lat": 38.93629383333333, "fusion_lon": 0.0, "fusion_lat": 0.0, "type": "electric_scooter", "name": "720d8d68cf38806de584898bcc464dc8", "is_disabled": 0, "rental_uris": {"ios": "https://dc.lft.to/lastmile_qr_scan", "android": "https://dc.lft.to/lastmile_qr_scan"}, "is_reserved": 0}, {"lon": -77.015093, "bike_id": "f50ae172c6cd17c4979d93aeb6e410b7", "lat": 38.8924575, "fusion_lon": 0.0, "fusion_lat": 0.0, "type": "electric_scooter", "name": "f50ae172c6cd17c4979d93aeb6e410b7", "is_disabled": 0, "rental_uris": {"ios": "https://dc.lft.to/lastmile_qr_scan", "android": "https://dc.lft.to/lastmile_qr_scan"}, "is_reserved": 0}, {"lon": -77.0674305, "bike_id": "6c068194b42181cb0eb12a6fc203dff0", "lat": 38.903594166666664, "fusion_lon": 0.0, "fusion_lat": 0.0, "type": "electric_scooter", "name": "6c068194b42181cb0eb12a6fc203dff0", "is_disabled": 0, "rental_uris": {"ios": "https://dc.lft.to/lastmile_qr_scan", "android": "https://dc.lft.to/lastmile_qr_scan"}, "is_reserved": 0}, {"lon": -77.02731083333333, "bike_id": "a1776a5bdcc9473bee457eb06beb8fd3", "lat": 38.905611666666665, "fusion_lon": 0.0, "fusion_lat": 0.0, "type": "electric_scooter", "name": "a1776a5bdcc9473bee457eb06beb8fd3", "is_disabled": 0, "rental_uris": {"ios": "https://dc.lft.to/lastmile_qr_scan", "android": "https://dc.lft.to/lastmile_qr_scan"}, "is_reserved": 0}, {"lon": -77.01761516666667, "bike_id": "6329690d9d05cff0a6fb5fc382f35769", "lat": 38.885894666666665, "fusion_lon": 0.0, "fusion_lat": 0.0, "type": "electric_scooter", "name": "6329690d9d05cff0a6fb5fc382f35769", "is_disabled": 0, "rental_uris": {"ios": "https://dc.lft.to/lastmile_qr_scan", "android": "https://dc.lft.to/lastmile_qr_scan"}, "is_reserved": 0}, {"lon": -77.11918583333333, "bike_id": "5d429a836d11961bd24ef7f12d9e9a73", "lat": 38.876343, "fusion_lon": 0.0, "fusion_lat": 0.0, "type": "electric_bike", "name": "5d429a836d11961bd24ef7f12d9e9a73", "is_disabled": 0, "rental_uris": {"ios": "https://dc.lft.to/lastmile_qr_scan", "android": "https://dc.lft.to/lastmile_qr_scan"}, "is_reserved": 0}, {"lon": -77.070115, "bike_id": "f1d935cf37c7ff781ef3d8ba4ad0d325", "lat": 38.90594883333333, "fusion_lon": 0.0, "fusion_lat": 0.0, "type": "electric_bike", "name": "f1d935cf37c7ff781ef3d8ba4ad0d325", "is_disabled": 0, "rental_uris": {"ios": "https://dc.lft.to/lastmile_qr_scan", "android": "https://dc.lft.to/lastmile_qr_scan"}, "is_reserved": 0}, {"lon": -77.07809, "bike_id": "1f823ad787d3139d178b3b3613e89ec3", "lat": 38.9245455, "fusion_lon": 0.0, "fusion_lat": 0.0, "type": "electric_scooter", "name": "1f823ad787d3139d178b3b3613e89ec3", "is_disabled": 0, "rental_uris": {"ios": "https://dc.lft.to/lastmile_qr_scan", "android": "https://dc.lft.to/lastmile_qr_scan"}, "is_reserved": 0}, {"lon": -77.03969716666667, "bike_id": "3046f7edeeb818e5d593184181524b63", "lat": 38.923116666666665, "fusion_lon": 0.0, "fusion_lat": 0.0, "type": "electric_scooter", "name": "3046f7edeeb818e5d593184181524b63", "is_disabled": 0, "rental_uris": {"ios": "https://dc.lft.to/lastmile_qr_scan", "android": "https://dc.lft.to/lastmile_qr_scan"}, "is_reserved": 0}, {"lon": -77.00920033333334, "bike_id": "d0469f312563a13839417b3c5c4624dd", "lat": 38.91066383333333, "fusion_lon": 0.0, "fusion_lat": 0.0, "type": "electric_scooter", "name": "d0469f312563a13839417b3c5c4624dd", "is_disabled": 0, "rental_uris": {"ios": "https://dc.lft.to/lastmile_qr_scan", "android": "https://dc.lft.to/lastmile_qr_scan"}, "is_reserved": 0}, {"lon": -77.053326, "bike_id": "2bea644da442dd9651df82eba2646853", "lat": 38.898739666666664, "fusion_lon": 0.0, "fusion_lat": 0.0, "type": "electric_scooter", "name": "2bea644da442dd9651df82eba2646853", "is_disabled": 0, "rental_uris": {"ios": "https://dc.lft.to/lastmile_qr_scan", "android": "https://dc.lft.to/lastmile_qr_scan"}, "is_reserved": 0}, {"lon": -77.0022475, "bike_id": "a6b55c3f39382cfe18276c6f417bd53e", "lat": 38.9024275, "fusion_lon": 0.0, "fusion_lat": 0.0, "type": "electric_scooter", "name": "a6b55c3f39382cfe18276c6f417bd53e", "is_disabled": 0, "rental_uris": {"ios": "https://dc.lft.to/lastmile_qr_scan", "android": "https://dc.lft.to/lastmile_qr_scan"}, "is_reserved": 0}, {"lon": -77.0056055, "bike_id": "8eae4ccf7397a11eb34823e5212a6293", "lat": 38.87690216666667, "fusion_lon": 0.0, "fusion_lat": 0.0, "type": "electric_scooter", "name": "8eae4ccf7397a11eb34823e5212a6293", "is_disabled": 0, "rental_uris": {"ios": "https://dc.lft.to/lastmile_qr_scan", "android": "https://dc.lft.to/lastmile_qr_scan"}, "is_reserved": 0}, {"lon": -77.0176585, "bike_id": "e0404dbc2d67918e79c39067e24012a7", "lat": 38.872163, "fusion_lon": 0.0, "fusion_lat": 0.0, "type": "electric_scooter", "name": "e0404dbc2d67918e79c39067e24012a7", "is_disabled": 0, "rental_uris": {"ios": "https://dc.lft.to/lastmile_qr_scan", "android": "https://dc.lft.to/lastmile_qr_scan"}, "is_reserved": 0}, {"lon": -77.02034283333333, "bike_id": "c35dc32b1bc996155bf8e59ec5c9a4f2", "lat": 38.916549833333335, "fusion_lon": 0.0, "fusion_lat": 0.0, "type": "electric_scooter", "name": "c35dc32b1bc996155bf8e59ec5c9a4f2", "is_disabled": 0, "rental_uris": {"ios": "https://dc.lft.to/lastmile_qr_scan", "android": "https://dc.lft.to/lastmile_qr_scan"}, "is_reserved": 0}, {"lon": -77.01047966666667, "bike_id": "b10a96530d93e645e2963beefa71a462", "lat": 38.96368283333334, "fusion_lon": 0.0, "fusion_lat": 0.0, "type": "electric_scooter", "name": "b10a96530d93e645e2963beefa71a462", "is_disabled": 0, "rental_uris": {"ios": "https://dc.lft.to/lastmile_qr_scan", "android": "https://dc.lft.to/lastmile_qr_scan"}, "is_reserved": 0}, {"lon": -77.02600216666667, "bike_id": "c218547a1d3c0a0c7a272da911331d89", "lat": 38.9279345, "fusion_lon": 0.0, "fusion_lat": 0.0, "type": "electric_scooter", "name": "c218547a1d3c0a0c7a272da911331d89", "is_disabled": 0, "rental_uris": {"ios": "https://dc.lft.to/lastmile_qr_scan", "android": "https://dc.lft.to/lastmile_qr_scan"}, "is_reserved": 0}, {"lon": -77.049245, "bike_id": "cd928f16bebfe0b5c0ab465a0ec9e31d", "lat": 38.903642166666664, "fusion_lon": 0.0, "fusion_lat": 0.0, "type": "electric_scooter", "name": "cd928f16bebfe0b5c0ab465a0ec9e31d", "is_disabled": 0, "rental_uris": {"ios": "https://dc.lft.to/lastmile_qr_scan", "android": "https://dc.lft.to/lastmile_qr_scan"}, "is_reserved": 0}, {"lon": -76.951856, "bike_id": "aee170d76d07f8488646f882fae49ba7", "lat": 38.90738483333333, "fusion_lon": 0.0, "fusion_lat": 0.0, "type": "electric_scooter", "name": "aee170d76d07f8488646f882fae49ba7", "is_disabled": 0, "rental_uris": {"ios": "https://dc.lft.to/lastmile_qr_scan", "android": "https://dc.lft.to/lastmile_qr_scan"}, "is_reserved": 0}, {"lon": -76.98000466666667, "bike_id": "75ddc70c5998c49462431c376e17f871", "lat": 38.906806333333336, "fusion_lon": 0.0, "fusion_lat": 0.0, "type": "electric_scooter", "name": "75ddc70c5998c49462431c376e17f871", "is_disabled": 0, "rental_uris": {"ios": "https://dc.lft.to/lastmile_qr_scan", "android": "https://dc.lft.to/lastmile_qr_scan"}, "is_reserved": 0}, {"lon": -77.0316125, "bike_id": "333bc63052496314462a4b5bd5c5bccc", "lat": 38.89222766666666, "fusion_lon": 0.0, "fusion_lat": 0.0, "type": "electric_scooter", "name": "333bc63052496314462a4b5bd5c5bccc", "is_disabled": 0, "rental_uris": {"ios": "https://dc.lft.to/lastmile_qr_scan", "android": "https://dc.lft.to/lastmile_qr_scan"}, "is_reserved": 0}, {"lon": -76.98263616666667, "bike_id": "5d6d59c62f34acb3cf641b3d71852ab4", "lat": 38.90857466666667, "fusion_lon": 0.0, "fusion_lat": 0.0, "type": "electric_scooter", "name": "5d6d59c62f34acb3cf641b3d71852ab4", "is_disabled": 0, "rental_uris": {"ios": "https://dc.lft.to/lastmile_qr_scan", "android": "https://dc.lft.to/lastmile_qr_scan"}, "is_reserved": 0}, {"lon": -76.982307, "bike_id": "8bf70ccec3d576b27634c9e78091656a", "lat": 38.91649116666667, "fusion_lon": 0.0, "fusion_lat": 0.0, "type": "electric_scooter", "name": "8bf70ccec3d576b27634c9e78091656a", "is_disabled": 0, "rental_uris": {"ios": "https://dc.lft.to/lastmile_qr_scan", "android": "https://dc.lft.to/lastmile_qr_scan"}, "is_reserved": 0}, {"lon": -77.017651, "bike_id": "3f9c3883e52676c13ad984d83e005a72", "lat": 38.90262416666667, "fusion_lon": 0.0, "fusion_lat": 0.0, "type": "electric_scooter", "name": "3f9c3883e52676c13ad984d83e005a72", "is_disabled": 0, "rental_uris": {"ios": "https://dc.lft.to/lastmile_qr_scan", "android": "https://dc.lft.to/lastmile_qr_scan"}, "is_reserved": 0}, {"lon": -77.03672683333333, "bike_id": "0afc94df018c23244428f49d9a477333", "lat": 38.909609, "fusion_lon": 0.0, "fusion_lat": 0.0, "type": "electric_scooter", "name": "0afc94df018c23244428f49d9a477333", "is_disabled": 0, "rental_uris": {"ios": "https://dc.lft.to/lastmile_qr_scan", "android": "https://dc.lft.to/lastmile_qr_scan"}, "is_reserved": 0}, {"lon": -76.9871235, "bike_id": "5bc1b4ce9d8f2191c6953886bf4b1605", "lat": 38.8662565, "fusion_lon": 0.0, "fusion_lat": 0.0, "type": "electric_scooter", "name": "5bc1b4ce9d8f2191c6953886bf4b1605", "is_disabled": 0, "rental_uris": {"ios": "https://dc.lft.to/lastmile_qr_scan", "android": "https://dc.lft.to/lastmile_qr_scan"}, "is_reserved": 0}, {"lon": -77.032651, "bike_id": "0f4d9a5584da2146b3eff658f4552869", "lat": 38.935233833333335, "fusion_lon": 0.0, "fusion_lat": 0.0, "type": "electric_scooter", "name": "0f4d9a5584da2146b3eff658f4552869", "is_disabled": 0, "rental_uris": {"ios": "https://dc.lft.to/lastmile_qr_scan", "android": "https://dc.lft.to/lastmile_qr_scan"}, "is_reserved": 0}, {"lon": -76.98957283333333, "bike_id": "96988c05638f758c3515541c00942f40", "lat": 38.856919, "fusion_lon": 0.0, "fusion_lat": 0.0, "type": "electric_scooter", "name": "96988c05638f758c3515541c00942f40", "is_disabled": 0, "rental_uris": {"ios": "https://dc.lft.to/lastmile_qr_scan", "android": "https://dc.lft.to/lastmile_qr_scan"}, "is_reserved": 0}, {"lon": -76.981982, "bike_id": "017fa6853c1a10b6e93b2235816cbca5", "lat": 38.899476666666665, "fusion_lon": 0.0, "fusion_lat": 0.0, "type": "electric_scooter", "name": "017fa6853c1a10b6e93b2235816cbca5", "is_disabled": 0, "rental_uris": {"ios": "https://dc.lft.to/lastmile_qr_scan", "android": "https://dc.lft.to/lastmile_qr_scan"}, "is_reserved": 0}, {"lon": -77.028375, "bike_id": "be6fb8922a5108b9a0d0987d98cc6eac", "lat": 38.892217, "fusion_lon": 0.0, "fusion_lat": 0.0, "type": "electric_scooter", "name": "be6fb8922a5108b9a0d0987d98cc6eac", "is_disabled": 0, "rental_uris": {"ios": "https://dc.lft.to/lastmile_qr_scan", "android": "https://dc.lft.to/lastmile_qr_scan"}, "is_reserved": 0}, {"lon": -77.03036633333333, "bike_id": "601a2a14d68b1bc09e112bfcac0bd893", "lat": 38.91331383333333, "fusion_lon": 0.0, "fusion_lat": 0.0, "type": "electric_scooter", "name": "601a2a14d68b1bc09e112bfcac0bd893", "is_disabled": 0, "rental_uris": {"ios": "https://dc.lft.to/lastmile_qr_scan", "android": "https://dc.lft.to/lastmile_qr_scan"}, "is_reserved": 0}, {"lon": -77.03659233333333, "bike_id": "3667540770f9ba07a5e3d7b4be969fd5", "lat": 38.92296783333333, "fusion_lon": 0.0, "fusion_lat": 0.0, "type": "electric_scooter", "name": "3667540770f9ba07a5e3d7b4be969fd5", "is_disabled": 0, "rental_uris": {"ios": "https://dc.lft.to/lastmile_qr_scan", "android": "https://dc.lft.to/lastmile_qr_scan"}, "is_reserved": 0}, {"lon": -77.04868833333333, "bike_id": "9cb9735d5dd5a615d3fa879e7fa15061", "lat": 38.8922285, "fusion_lon": 0.0, "fusion_lat": 0.0, "type": "electric_scooter", "name": "9cb9735d5dd5a615d3fa879e7fa15061", "is_disabled": 0, "rental_uris": {"ios": "https://dc.lft.to/lastmile_qr_scan", "android": "https://dc.lft.to/lastmile_qr_scan"}, "is_reserved": 0}, {"lon": -77.04592916666667, "bike_id": "68c59e5351bbd9674ddf4bf74492acb7", "lat": 38.918663, "fusion_lon": 0.0, "fusion_lat": 0.0, "type": "electric_scooter", "name": "68c59e5351bbd9674ddf4bf74492acb7", "is_disabled": 0, "rental_uris": {"ios": "https://dc.lft.to/lastmile_qr_scan", "android": "https://dc.lft.to/lastmile_qr_scan"}, "is_reserved": 0}, {"lon": -76.985584, "bike_id": "a517006e88a94c9db21246d04c2375b1", "lat": 38.8834585, "fusion_lon": 0.0, "fusion_lat": 0.0, "type": "electric_scooter", "name": "a517006e88a94c9db21246d04c2375b1", "is_disabled": 0, "rental_uris": {"ios": "https://dc.lft.to/lastmile_qr_scan", "android": "https://dc.lft.to/lastmile_qr_scan"}, "is_reserved": 0}, {"lon": -76.974378, "bike_id": "3dcabbbb2d4a6616dc3df4d0bebebdeb", "lat": 38.865331, "fusion_lon": 0.0, "fusion_lat": 0.0, "type": "electric_scooter", "name": "3dcabbbb2d4a6616dc3df4d0bebebdeb", "is_disabled": 0, "rental_uris": {"ios": "https://dc.lft.to/lastmile_qr_scan", "android": "https://dc.lft.to/lastmile_qr_scan"}, "is_reserved": 0}, {"lon": -76.99116466666666, "bike_id": "4d59716cb7eafce5d32f34101ec3096a", "lat": 38.93357916666667, "fusion_lon": 0.0, "fusion_lat": 0.0, "type": "electric_scooter", "name": "4d59716cb7eafce5d32f34101ec3096a", "is_disabled": 0, "rental_uris": {"ios": "https://dc.lft.to/lastmile_qr_scan", "android": "https://dc.lft.to/lastmile_qr_scan"}, "is_reserved": 0}, {"lon": -77.05109816666666, "bike_id": "6ce6dc5a9ad94b85cf8837d9208e49b2", "lat": 39.03668916666667, "fusion_lon": 0.0, "fusion_lat": 0.0, "type": "electric_bike", "name": "6ce6dc5a9ad94b85cf8837d9208e49b2", "is_disabled": 0, "rental_uris": {"ios": "https://dc.lft.to/lastmile_qr_scan", "android": "https://dc.lft.to/lastmile_qr_scan"}, "is_reserved": 0}, {"lon": -77.04840966666667, "bike_id": "7355db86d34a36f4452a6c78bd35e279", "lat": 38.90427416666667, "fusion_lon": 0.0, "fusion_lat": 0.0, "type": "electric_scooter", "name": "7355db86d34a36f4452a6c78bd35e279", "is_disabled": 0, "rental_uris": {"ios": "https://dc.lft.to/lastmile_qr_scan", "android": "https://dc.lft.to/lastmile_qr_scan"}, "is_reserved": 0}, {"lon": -77.02525, "bike_id": "24a202f46880c48e0c76e142bd65c8ec", "lat": 38.93749866666667, "fusion_lon": 0.0, "fusion_lat": 0.0, "type": "electric_scooter", "name": "24a202f46880c48e0c76e142bd65c8ec", "is_disabled": 0, "rental_uris": {"ios": "https://dc.lft.to/lastmile_qr_scan", "android": "https://dc.lft.to/lastmile_qr_scan"}, "is_reserved": 0}, {"lon": -77.06350816666667, "bike_id": "d6ea611410d15b6deabd8254939d9afe", "lat": 38.944464833333335, "fusion_lon": 0.0, "fusion_lat": 0.0, "type": "electric_scooter", "name": "d6ea611410d15b6deabd8254939d9afe", "is_disabled": 0, "rental_uris": {"ios": "https://dc.lft.to/lastmile_qr_scan", "android": "https://dc.lft.to/lastmile_qr_scan"}, "is_reserved": 0}, {"lon": -77.03221266666667, "bike_id": "5894cef3727a44381ffd6bc44e9c6569", "lat": 38.91404933333333, "fusion_lon": 0.0, "fusion_lat": 0.0, "type": "electric_scooter", "name": "5894cef3727a44381ffd6bc44e9c6569", "is_disabled": 0, "rental_uris": {"ios": "https://dc.lft.to/lastmile_qr_scan", "android": "https://dc.lft.to/lastmile_qr_scan"}, "is_reserved": 0}, {"lon": -77.04475483333333, "bike_id": "28d731df4c07f1e7a3b60dccdb4f9d7e", "lat": 38.900598, "fusion_lon": 0.0, "fusion_lat": 0.0, "type": "electric_scooter", "name": "28d731df4c07f1e7a3b60dccdb4f9d7e", "is_disabled": 0, "rental_uris": {"ios": "https://dc.lft.to/lastmile_qr_scan", "android": "https://dc.lft.to/lastmile_qr_scan"}, "is_reserved": 0}, {"lon": -77.03195166666667, "bike_id": "648f16b165c49cb6020f29f1e8f799a8", "lat": 38.88398333333333, "fusion_lon": 0.0, "fusion_lat": 0.0, "type": "electric_scooter", "name": "648f16b165c49cb6020f29f1e8f799a8", "is_disabled": 0, "rental_uris": {"ios": "https://dc.lft.to/lastmile_qr_scan", "android": "https://dc.lft.to/lastmile_qr_scan"}, "is_reserved": 0}, {"lon": -77.0217225, "bike_id": "8ef07f3618c2e43d5091ed8aae127561", "lat": 38.94290266666667, "fusion_lon": 0.0, "fusion_lat": 0.0, "type": "electric_scooter", "name": "8ef07f3618c2e43d5091ed8aae127561", "is_disabled": 0, "rental_uris": {"ios": "https://dc.lft.to/lastmile_qr_scan", "android": "https://dc.lft.to/lastmile_qr_scan"}, "is_reserved": 0}, {"lon": -77.032757, "bike_id": "81981f0882c15d90c12bbf220d3b65e1", "lat": 38.89720166666667, "fusion_lon": 0.0, "fusion_lat": 0.0, "type": "electric_bike", "name": "81981f0882c15d90c12bbf220d3b65e1", "is_disabled": 0, "rental_uris": {"ios": "https://dc.lft.to/lastmile_qr_scan", "android": "https://dc.lft.to/lastmile_qr_scan"}, "is_reserved": 0}, {"lon": -76.98616183333333, "bike_id": "ac2c430cc04bb4b4709c4b5ea032c956", "lat": 38.90586783333333, "fusion_lon": 0.0, "fusion_lat": 0.0, "type": "electric_scooter", "name": "ac2c430cc04bb4b4709c4b5ea032c956", "is_disabled": 0, "rental_uris": {"ios": "https://dc.lft.to/lastmile_qr_scan", "android": "https://dc.lft.to/lastmile_qr_scan"}, "is_reserved": 0}, {"lon": -77.00140416666666, "bike_id": "4bc58dafaccfb9ae3e5137ac8c94eb3c", "lat": 38.842833666666664, "fusion_lon": 0.0, "fusion_lat": 0.0, "type": "electric_scooter", "name": "4bc58dafaccfb9ae3e5137ac8c94eb3c", "is_disabled": 0, "rental_uris": {"ios": "https://dc.lft.to/lastmile_qr_scan", "android": "https://dc.lft.to/lastmile_qr_scan"}, "is_reserved": 0}, {"lon": -76.93177316666667, "bike_id": "3fe4fd20d68d213aec9964163fc0ea8e", "lat": 38.898834666666666, "fusion_lon": 0.0, "fusion_lat": 0.0, "type": "electric_scooter", "name": "3fe4fd20d68d213aec9964163fc0ea8e", "is_disabled": 0, "rental_uris": {"ios": "https://dc.lft.to/lastmile_qr_scan", "android": "https://dc.lft.to/lastmile_qr_scan"}, "is_reserved": 0}, {"lon": -76.95017333333334, "bike_id": "2a61835bb3bb03dc00de03609fee9ad7", "lat": 38.894014, "fusion_lon": 0.0, "fusion_lat": 0.0, "type": "electric_scooter", "name": "2a61835bb3bb03dc00de03609fee9ad7", "is_disabled": 0, "rental_uris": {"ios": "https://dc.lft.to/lastmile_qr_scan", "android": "https://dc.lft.to/lastmile_qr_scan"}, "is_reserved": 0}, {"lon": -77.04327833333333, "bike_id": "3003d1c85bc3812e79f4b295c3b74276", "lat": 38.91877616666667, "fusion_lon": 0.0, "fusion_lat": 0.0, "type": "electric_scooter", "name": "3003d1c85bc3812e79f4b295c3b74276", "is_disabled": 0, "rental_uris": {"ios": "https://dc.lft.to/lastmile_qr_scan", "android": "https://dc.lft.to/lastmile_qr_scan"}, "is_reserved": 0}, {"lon": -76.98539383333333, "bike_id": "26fe468ff72a43e3507367ab532c4b50", "lat": 38.91021083333333, "fusion_lon": 0.0, "fusion_lat": 0.0, "type": "electric_scooter", "name": "26fe468ff72a43e3507367ab532c4b50", "is_disabled": 0, "rental_uris": {"ios": "https://dc.lft.to/lastmile_qr_scan", "android": "https://dc.lft.to/lastmile_qr_scan"}, "is_reserved": 0}, {"lon": -77.03662666666666, "bike_id": "5b68556c8099040470b2b96769a787f6", "lat": 38.92102466666667, "fusion_lon": 0.0, "fusion_lat": 0.0, "type": "electric_scooter", "name": "5b68556c8099040470b2b96769a787f6", "is_disabled": 0, "rental_uris": {"ios": "https://dc.lft.to/lastmile_qr_scan", "android": "https://dc.lft.to/lastmile_qr_scan"}, "is_reserved": 0}, {"lon": -77.0269635, "bike_id": "de8df07517bcd24d2f8851c1539e5447", "lat": 38.94886133333333, "fusion_lon": 0.0, "fusion_lat": 0.0, "type": "electric_scooter", "name": "de8df07517bcd24d2f8851c1539e5447", "is_disabled": 0, "rental_uris": {"ios": "https://dc.lft.to/lastmile_qr_scan", "android": "https://dc.lft.to/lastmile_qr_scan"}, "is_reserved": 0}, {"lon": -77.026827, "bike_id": "e6754d6ab6bd26b8d5f2069a1a706f55", "lat": 38.98487316666667, "fusion_lon": 0.0, "fusion_lat": 0.0, "type": "electric_scooter", "name": "e6754d6ab6bd26b8d5f2069a1a706f55", "is_disabled": 0, "rental_uris": {"ios": "https://dc.lft.to/lastmile_qr_scan", "android": "https://dc.lft.to/lastmile_qr_scan"}, "is_reserved": 0}, {"lon": -77.04264983333333, "bike_id": "b3a9e18a5e4c7b4fd49a2f9dabe9f771", "lat": 38.916988, "fusion_lon": 0.0, "fusion_lat": 0.0, "type": "electric_scooter", "name": "b3a9e18a5e4c7b4fd49a2f9dabe9f771", "is_disabled": 0, "rental_uris": {"ios": "https://dc.lft.to/lastmile_qr_scan", "android": "https://dc.lft.to/lastmile_qr_scan"}, "is_reserved": 0}, {"lon": -77.0154265, "bike_id": "8d0d9ac8ddc0dfd675f88258dd3689ee", "lat": 38.88318233333333, "fusion_lon": 0.0, "fusion_lat": 0.0, "type": "electric_scooter", "name": "8d0d9ac8ddc0dfd675f88258dd3689ee", "is_disabled": 0, "rental_uris": {"ios": "https://dc.lft.to/lastmile_qr_scan", "android": "https://dc.lft.to/lastmile_qr_scan"}, "is_reserved": 0}, {"lon": -77.04487983333334, "bike_id": "4050991fa1d82ea7bf52591173aeb46d", "lat": 38.90728033333333, "fusion_lon": 0.0, "fusion_lat": 0.0, "type": "electric_scooter", "name": "4050991fa1d82ea7bf52591173aeb46d", "is_disabled": 0, "rental_uris": {"ios": "https://dc.lft.to/lastmile_qr_scan", "android": "https://dc.lft.to/lastmile_qr_scan"}, "is_reserved": 0}, {"lon": -77.00225033333334, "bike_id": "68002dd24eb6e5e3e205f8781ea0b1e9", "lat": 38.89199283333333, "fusion_lon": 0.0, "fusion_lat": 0.0, "type": "electric_scooter", "name": "68002dd24eb6e5e3e205f8781ea0b1e9", "is_disabled": 0, "rental_uris": {"ios": "https://dc.lft.to/lastmile_qr_scan", "android": "https://dc.lft.to/lastmile_qr_scan"}, "is_reserved": 0}, {"lon": -77.027103, "bike_id": "28d68e21fb2d60ca20ce790279e37c48", "lat": 38.906695666666664, "fusion_lon": 0.0, "fusion_lat": 0.0, "type": "electric_scooter", "name": "28d68e21fb2d60ca20ce790279e37c48", "is_disabled": 0, "rental_uris": {"ios": "https://dc.lft.to/lastmile_qr_scan", "android": "https://dc.lft.to/lastmile_qr_scan"}, "is_reserved": 0}, {"lon": -77.02155133333333, "bike_id": "194caef7c7a1d9534b74816a84befd4d", "lat": 38.926004166666665, "fusion_lon": 0.0, "fusion_lat": 0.0, "type": "electric_scooter", "name": "194caef7c7a1d9534b74816a84befd4d", "is_disabled": 0, "rental_uris": {"ios": "https://dc.lft.to/lastmile_qr_scan", "android": "https://dc.lft.to/lastmile_qr_scan"}, "is_reserved": 0}, {"lon": -77.01490983333333, "bike_id": "3093b1419e03b921a827efb35b290478", "lat": 38.926829, "fusion_lon": 0.0, "fusion_lat": 0.0, "type": "electric_scooter", "name": "3093b1419e03b921a827efb35b290478", "is_disabled": 0, "rental_uris": {"ios": "https://dc.lft.to/lastmile_qr_scan", "android": "https://dc.lft.to/lastmile_qr_scan"}, "is_reserved": 0}, {"lon": -77.07892633333333, "bike_id": "de9e6b2753a9ccc6685e54772b8071bb", "lat": 38.9313135, "fusion_lon": 0.0, "fusion_lat": 0.0, "type": "electric_scooter", "name": "de9e6b2753a9ccc6685e54772b8071bb", "is_disabled": 0, "rental_uris": {"ios": "https://dc.lft.to/lastmile_qr_scan", "android": "https://dc.lft.to/lastmile_qr_scan"}, "is_reserved": 0}, {"lon": -77.03599783333334, "bike_id": "a295b264e910d7f238156ed2b0c99c35", "lat": 38.93935416666667, "fusion_lon": 0.0, "fusion_lat": 0.0, "type": "electric_scooter", "name": "a295b264e910d7f238156ed2b0c99c35", "is_disabled": 0, "rental_uris": {"ios": "https://dc.lft.to/lastmile_qr_scan", "android": "https://dc.lft.to/lastmile_qr_scan"}, "is_reserved": 0}, {"lon": -77.02951216666666, "bike_id": "95dfcd4a86f49a2cf53a7144db0bb4d5", "lat": 38.90455083333333, "fusion_lon": 0.0, "fusion_lat": 0.0, "type": "electric_scooter", "name": "95dfcd4a86f49a2cf53a7144db0bb4d5", "is_disabled": 0, "rental_uris": {"ios": "https://dc.lft.to/lastmile_qr_scan", "android": "https://dc.lft.to/lastmile_qr_scan"}, "is_reserved": 0}, {"lon": -76.99460133333334, "bike_id": "05c1b3af1f86ca6cc432124b84025ebf", "lat": 38.9406435, "fusion_lon": 0.0, "fusion_lat": 0.0, "type": "electric_scooter", "name": "05c1b3af1f86ca6cc432124b84025ebf", "is_disabled": 0, "rental_uris": {"ios": "https://dc.lft.to/lastmile_qr_scan", "android": "https://dc.lft.to/lastmile_qr_scan"}, "is_reserved": 0}, {"lon": -77.0184915, "bike_id": "3e0bd3087989bcc16f250a2079507485", "lat": 38.946289666666665, "fusion_lon": 0.0, "fusion_lat": 0.0, "type": "electric_scooter", "name": "3e0bd3087989bcc16f250a2079507485", "is_disabled": 0, "rental_uris": {"ios": "https://dc.lft.to/lastmile_qr_scan", "android": "https://dc.lft.to/lastmile_qr_scan"}, "is_reserved": 0}, {"lon": -76.98154283333334, "bike_id": "78b45901c0d4594dd16f2cf7a1c2eb20", "lat": 38.90322333333334, "fusion_lon": 0.0, "fusion_lat": 0.0, "type": "electric_scooter", "name": "78b45901c0d4594dd16f2cf7a1c2eb20", "is_disabled": 0, "rental_uris": {"ios": "https://dc.lft.to/lastmile_qr_scan", "android": "https://dc.lft.to/lastmile_qr_scan"}, "is_reserved": 0}, {"lon": -77.043367, "bike_id": "79bf727676dc52ad98ab5db49d2e48d9", "lat": 38.90812866666667, "fusion_lon": 0.0, "fusion_lat": 0.0, "type": "electric_scooter", "name": "79bf727676dc52ad98ab5db49d2e48d9", "is_disabled": 0, "rental_uris": {"ios": "https://dc.lft.to/lastmile_qr_scan", "android": "https://dc.lft.to/lastmile_qr_scan"}, "is_reserved": 0}, {"lon": -76.99850866666667, "bike_id": "9bdb13c5c4f02bdfe674ff4ab3953009", "lat": 38.89082583333333, "fusion_lon": 0.0, "fusion_lat": 0.0, "type": "electric_scooter", "name": "9bdb13c5c4f02bdfe674ff4ab3953009", "is_disabled": 0, "rental_uris": {"ios": "https://dc.lft.to/lastmile_qr_scan", "android": "https://dc.lft.to/lastmile_qr_scan"}, "is_reserved": 0}, {"lon": -77.043373, "bike_id": "f023be16ab4dcc7e51250d5051e168b5", "lat": 38.903918, "fusion_lon": 0.0, "fusion_lat": 0.0, "type": "electric_scooter", "name": "f023be16ab4dcc7e51250d5051e168b5", "is_disabled": 0, "rental_uris": {"ios": "https://dc.lft.to/lastmile_qr_scan", "android": "https://dc.lft.to/lastmile_qr_scan"}, "is_reserved": 0}, {"lon": -77.04864816666667, "bike_id": "5f4b597d0f22d898187e6467f559eaee", "lat": 38.89221933333334, "fusion_lon": 0.0, "fusion_lat": 0.0, "type": "electric_scooter", "name": "5f4b597d0f22d898187e6467f559eaee", "is_disabled": 0, "rental_uris": {"ios": "https://dc.lft.to/lastmile_qr_scan", "android": "https://dc.lft.to/lastmile_qr_scan"}, "is_reserved": 0}, {"lon": -77.03048333333334, "bike_id": "8c9f73c75ce90befa7f92e02cd6dcbb6", "lat": 38.8839105, "fusion_lon": 0.0, "fusion_lat": 0.0, "type": "electric_scooter", "name": "8c9f73c75ce90befa7f92e02cd6dcbb6", "is_disabled": 0, "rental_uris": {"ios": "https://dc.lft.to/lastmile_qr_scan", "android": "https://dc.lft.to/lastmile_qr_scan"}, "is_reserved": 0}, {"lon": -76.988025, "bike_id": "5423ad3a7ea73eb6a73a2d3b40291f25", "lat": 38.86733, "fusion_lon": 0.0, "fusion_lat": 0.0, "type": "electric_scooter", "name": "5423ad3a7ea73eb6a73a2d3b40291f25", "is_disabled": 0, "rental_uris": {"ios": "https://dc.lft.to/lastmile_qr_scan", "android": "https://dc.lft.to/lastmile_qr_scan"}, "is_reserved": 0}, {"lon": -77.00199433333333, "bike_id": "711d89894d85e3323441df38bbcaf2ab", "lat": 38.90239116666667, "fusion_lon": 0.0, "fusion_lat": 0.0, "type": "electric_scooter", "name": "711d89894d85e3323441df38bbcaf2ab", "is_disabled": 0, "rental_uris": {"ios": "https://dc.lft.to/lastmile_qr_scan", "android": "https://dc.lft.to/lastmile_qr_scan"}, "is_reserved": 0}, {"lon": -77.0308815, "bike_id": "5e4e6d0081666255be0e1f2e2f5841ed", "lat": 38.9272585, "fusion_lon": 0.0, "fusion_lat": 0.0, "type": "electric_scooter", "name": "5e4e6d0081666255be0e1f2e2f5841ed", "is_disabled": 0, "rental_uris": {"ios": "https://dc.lft.to/lastmile_qr_scan", "android": "https://dc.lft.to/lastmile_qr_scan"}, "is_reserved": 0}, {"lon": -76.97671366666667, "bike_id": "8835905e79e7b17ddaa992deab97e04f", "lat": 38.952444666666665, "fusion_lon": 0.0, "fusion_lat": 0.0, "type": "electric_bike", "name": "8835905e79e7b17ddaa992deab97e04f", "is_disabled": 0, "rental_uris": {"ios": "https://dc.lft.to/lastmile_qr_scan", "android": "https://dc.lft.to/lastmile_qr_scan"}, "is_reserved": 0}, {"lon": -77.00266716666667, "bike_id": "e1717c5f1593d1732b4adc64c03c29e8", "lat": 38.9117665, "fusion_lon": 0.0, "fusion_lat": 0.0, "type": "electric_bike", "name": "e1717c5f1593d1732b4adc64c03c29e8", "is_disabled": 0, "rental_uris": {"ios": "https://dc.lft.to/lastmile_qr_scan", "android": "https://dc.lft.to/lastmile_qr_scan"}, "is_reserved": 0}, {"lon": -77.0326045, "bike_id": "82be31cd15391fed78c2a0a2fc31f811", "lat": 38.905925, "fusion_lon": 0.0, "fusion_lat": 0.0, "type": "electric_scooter", "name": "82be31cd15391fed78c2a0a2fc31f811", "is_disabled": 0, "rental_uris": {"ios": "https://dc.lft.to/lastmile_qr_scan", "android": "https://dc.lft.to/lastmile_qr_scan"}, "is_reserved": 0}, {"lon": -77.01493433333333, "bike_id": "ddb81edf5a379af50ec4e5e489d44a5a", "lat": 38.91761983333333, "fusion_lon": 0.0, "fusion_lat": 0.0, "type": "electric_scooter", "name": "ddb81edf5a379af50ec4e5e489d44a5a", "is_disabled": 0, "rental_uris": {"ios": "https://dc.lft.to/lastmile_qr_scan", "android": "https://dc.lft.to/lastmile_qr_scan"}, "is_reserved": 0}, {"lon": -77.02500133333334, "bike_id": "8902b7f3ea37384755dd8730f9f4c626", "lat": 38.942022, "fusion_lon": 0.0, "fusion_lat": 0.0, "type": "electric_scooter", "name": "8902b7f3ea37384755dd8730f9f4c626", "is_disabled": 0, "rental_uris": {"ios": "https://dc.lft.to/lastmile_qr_scan", "android": "https://dc.lft.to/lastmile_qr_scan"}, "is_reserved": 0}, {"lon": -77.01289166666666, "bike_id": "6a5d1cf7b5c09b6dd65b33c161c6fcaa", "lat": 38.91037466666667, "fusion_lon": 0.0, "fusion_lat": 0.0, "type": "electric_scooter", "name": "6a5d1cf7b5c09b6dd65b33c161c6fcaa", "is_disabled": 0, "rental_uris": {"ios": "https://dc.lft.to/lastmile_qr_scan", "android": "https://dc.lft.to/lastmile_qr_scan"}, "is_reserved": 0}, {"lon": -77.02153833333334, "bike_id": "5591cd4787b4370faabea4029c1cb6e1", "lat": 38.894122, "fusion_lon": 0.0, "fusion_lat": 0.0, "type": "electric_scooter", "name": "5591cd4787b4370faabea4029c1cb6e1", "is_disabled": 0, "rental_uris": {"ios": "https://dc.lft.to/lastmile_qr_scan", "android": "https://dc.lft.to/lastmile_qr_scan"}, "is_reserved": 0}, {"lon": -77.036695, "bike_id": "ca431faacdfed21bdcd18ee252e0f83c", "lat": 38.91870683333333, "fusion_lon": 0.0, "fusion_lat": 0.0, "type": "electric_scooter", "name": "ca431faacdfed21bdcd18ee252e0f83c", "is_disabled": 0, "rental_uris": {"ios": "https://dc.lft.to/lastmile_qr_scan", "android": "https://dc.lft.to/lastmile_qr_scan"}, "is_reserved": 0}, {"lon": -77.0258755, "bike_id": "06a892f94b22c0a57eda3c2cdee44b86", "lat": 38.904865666666666, "fusion_lon": 0.0, "fusion_lat": 0.0, "type": "electric_scooter", "name": "06a892f94b22c0a57eda3c2cdee44b86", "is_disabled": 0, "rental_uris": {"ios": "https://dc.lft.to/lastmile_qr_scan", "android": "https://dc.lft.to/lastmile_qr_scan"}, "is_reserved": 0}, {"lon": -76.98939816666666, "bike_id": "e719167b96fe03ad3783bc17849d7e84", "lat": 38.918308, "fusion_lon": 0.0, "fusion_lat": 0.0, "type": "electric_scooter", "name": "e719167b96fe03ad3783bc17849d7e84", "is_disabled": 0, "rental_uris": {"ios": "https://dc.lft.to/lastmile_qr_scan", "android": "https://dc.lft.to/lastmile_qr_scan"}, "is_reserved": 0}, {"lon": -77.0502125, "bike_id": "a81a6de71131557a6e3928df015e8b35", "lat": 38.894640833333334, "fusion_lon": 0.0, "fusion_lat": 0.0, "type": "electric_scooter", "name": "a81a6de71131557a6e3928df015e8b35", "is_disabled": 0, "rental_uris": {"ios": "https://dc.lft.to/lastmile_qr_scan", "android": "https://dc.lft.to/lastmile_qr_scan"}, "is_reserved": 0}, {"lon": -77.0487395, "bike_id": "f69fc0221801a63007c8d1ccb92b8060", "lat": 38.90974033333333, "fusion_lon": 0.0, "fusion_lat": 0.0, "type": "electric_scooter", "name": "f69fc0221801a63007c8d1ccb92b8060", "is_disabled": 0, "rental_uris": {"ios": "https://dc.lft.to/lastmile_qr_scan", "android": "https://dc.lft.to/lastmile_qr_scan"}, "is_reserved": 0}, {"lon": -77.044994, "bike_id": "3c32b85294c65057d80285b5cfdeca6a", "lat": 38.919338333333336, "fusion_lon": 0.0, "fusion_lat": 0.0, "type": "electric_scooter", "name": "3c32b85294c65057d80285b5cfdeca6a", "is_disabled": 0, "rental_uris": {"ios": "https://dc.lft.to/lastmile_qr_scan", "android": "https://dc.lft.to/lastmile_qr_scan"}, "is_reserved": 0}, {"lon": -77.0514925, "bike_id": "c2da9a846d8d1710a279bab07384931d", "lat": 38.89864883333333, "fusion_lon": 0.0, "fusion_lat": 0.0, "type": "electric_scooter", "name": "c2da9a846d8d1710a279bab07384931d", "is_disabled": 0, "rental_uris": {"ios": "https://dc.lft.to/lastmile_qr_scan", "android": "https://dc.lft.to/lastmile_qr_scan"}, "is_reserved": 0}, {"lon": -77.03060283333333, "bike_id": "a81f7e91df5df41f5d63c4cef75bfe44", "lat": 38.924663333333335, "fusion_lon": 0.0, "fusion_lat": 0.0, "type": "electric_scooter", "name": "a81f7e91df5df41f5d63c4cef75bfe44", "is_disabled": 0, "rental_uris": {"ios": "https://dc.lft.to/lastmile_qr_scan", "android": "https://dc.lft.to/lastmile_qr_scan"}, "is_reserved": 0}, {"lon": -77.00188033333333, "bike_id": "e97ce431cfbbcbeeb4ff61da3573162b", "lat": 38.894753, "fusion_lon": 0.0, "fusion_lat": 0.0, "type": "electric_scooter", "name": "e97ce431cfbbcbeeb4ff61da3573162b", "is_disabled": 0, "rental_uris": {"ios": "https://dc.lft.to/lastmile_qr_scan", "android": "https://dc.lft.to/lastmile_qr_scan"}, "is_reserved": 0}, {"lon": -76.94918033333333, "bike_id": "e9178fea3f2de8e998989314fbf61103", "lat": 38.8953815, "fusion_lon": 0.0, "fusion_lat": 0.0, "type": "electric_scooter", "name": "e9178fea3f2de8e998989314fbf61103", "is_disabled": 0, "rental_uris": {"ios": "https://dc.lft.to/lastmile_qr_scan", "android": "https://dc.lft.to/lastmile_qr_scan"}, "is_reserved": 0}, {"lon": -77.001143, "bike_id": "a24154cac246c1806def8da513b8e5b4", "lat": 38.919666666666664, "fusion_lon": 0.0, "fusion_lat": 0.0, "type": "electric_scooter", "name": "a24154cac246c1806def8da513b8e5b4", "is_disabled": 0, "rental_uris": {"ios": "https://dc.lft.to/lastmile_qr_scan", "android": "https://dc.lft.to/lastmile_qr_scan"}, "is_reserved": 0}, {"lon": -77.015057, "bike_id": "e22afcc2234ea3e6bfd38184dc997531", "lat": 38.9453385, "fusion_lon": 0.0, "fusion_lat": 0.0, "type": "electric_scooter", "name": "e22afcc2234ea3e6bfd38184dc997531", "is_disabled": 0, "rental_uris": {"ios": "https://dc.lft.to/lastmile_qr_scan", "android": "https://dc.lft.to/lastmile_qr_scan"}, "is_reserved": 0}, {"lon": -76.98554633333333, "bike_id": "7c246fb4f1bc74b3075e0d4f6149dff6", "lat": 38.910318, "fusion_lon": 0.0, "fusion_lat": 0.0, "type": "electric_scooter", "name": "7c246fb4f1bc74b3075e0d4f6149dff6", "is_disabled": 0, "rental_uris": {"ios": "https://dc.lft.to/lastmile_qr_scan", "android": "https://dc.lft.to/lastmile_qr_scan"}, "is_reserved": 0}, {"lon": -77.0337995, "bike_id": "3f817f04b9a690741e0e790b50b3adb9", "lat": 38.92168266666667, "fusion_lon": 0.0, "fusion_lat": 0.0, "type": "electric_scooter", "name": "3f817f04b9a690741e0e790b50b3adb9", "is_disabled": 0, "rental_uris": {"ios": "https://dc.lft.to/lastmile_qr_scan", "android": "https://dc.lft.to/lastmile_qr_scan"}, "is_reserved": 0}, {"lon": -76.98106816666666, "bike_id": "8bbda45f200bed0154bc48896b53b12b", "lat": 38.87728166666667, "fusion_lon": 0.0, "fusion_lat": 0.0, "type": "electric_bike", "name": "8bbda45f200bed0154bc48896b53b12b", "is_disabled": 0, "rental_uris": {"ios": "https://dc.lft.to/lastmile_qr_scan", "android": "https://dc.lft.to/lastmile_qr_scan"}, "is_reserved": 0}, {"lon": -76.9978865, "bike_id": "6d093137cee0e85694ab10d8bee83d0f", "lat": 38.890886333333334, "fusion_lon": 0.0, "fusion_lat": 0.0, "type": "electric_scooter", "name": "6d093137cee0e85694ab10d8bee83d0f", "is_disabled": 0, "rental_uris": {"ios": "https://dc.lft.to/lastmile_qr_scan", "android": "https://dc.lft.to/lastmile_qr_scan"}, "is_reserved": 0}, {"lon": -77.0261245, "bike_id": "4a5a5258f90acf3b9b848c94f3f89081", "lat": 38.9299025, "fusion_lon": 0.0, "fusion_lat": 0.0, "type": "electric_scooter", "name": "4a5a5258f90acf3b9b848c94f3f89081", "is_disabled": 0, "rental_uris": {"ios": "https://dc.lft.to/lastmile_qr_scan", "android": "https://dc.lft.to/lastmile_qr_scan"}, "is_reserved": 0}, {"lon": -77.02391216666666, "bike_id": "defb923834770749ae0abb1e90b39f2a", "lat": 38.920737333333335, "fusion_lon": 0.0, "fusion_lat": 0.0, "type": "electric_scooter", "name": "defb923834770749ae0abb1e90b39f2a", "is_disabled": 0, "rental_uris": {"ios": "https://dc.lft.to/lastmile_qr_scan", "android": "https://dc.lft.to/lastmile_qr_scan"}, "is_reserved": 0}, {"lon": -77.02162816666667, "bike_id": "92af8cb839a1841601a890eb589b1551", "lat": 38.90970133333333, "fusion_lon": 0.0, "fusion_lat": 0.0, "type": "electric_scooter", "name": "92af8cb839a1841601a890eb589b1551", "is_disabled": 0, "rental_uris": {"ios": "https://dc.lft.to/lastmile_qr_scan", "android": "https://dc.lft.to/lastmile_qr_scan"}, "is_reserved": 0}, {"lon": -77.05861116666667, "bike_id": "f50b8c6a428e5c308329af2cca5026f8", "lat": 38.936058, "fusion_lon": 0.0, "fusion_lat": 0.0, "type": "electric_scooter", "name": "f50b8c6a428e5c308329af2cca5026f8", "is_disabled": 0, "rental_uris": {"ios": "https://dc.lft.to/lastmile_qr_scan", "android": "https://dc.lft.to/lastmile_qr_scan"}, "is_reserved": 0}, {"lon": -77.00593816666667, "bike_id": "913a0a9faedb7d33d0d83d0f16246b21", "lat": 38.900378833333335, "fusion_lon": 0.0, "fusion_lat": 0.0, "type": "electric_scooter", "name": "913a0a9faedb7d33d0d83d0f16246b21", "is_disabled": 0, "rental_uris": {"ios": "https://dc.lft.to/lastmile_qr_scan", "android": "https://dc.lft.to/lastmile_qr_scan"}, "is_reserved": 0}, {"lon": -76.98249283333334, "bike_id": "e78e7eab6ca1e266593096f80975f51b", "lat": 38.864582, "fusion_lon": 0.0, "fusion_lat": 0.0, "type": "electric_scooter", "name": "e78e7eab6ca1e266593096f80975f51b", "is_disabled": 0, "rental_uris": {"ios": "https://dc.lft.to/lastmile_qr_scan", "android": "https://dc.lft.to/lastmile_qr_scan"}, "is_reserved": 0}, {"lon": -77.04694083333334, "bike_id": "8de8573db69be9456684b248afd988f8", "lat": 38.9190305, "fusion_lon": 0.0, "fusion_lat": 0.0, "type": "electric_scooter", "name": "8de8573db69be9456684b248afd988f8", "is_disabled": 0, "rental_uris": {"ios": "https://dc.lft.to/lastmile_qr_scan", "android": "https://dc.lft.to/lastmile_qr_scan"}, "is_reserved": 0}, {"lon": -77.02961133333334, "bike_id": "bf565a0a2755741ade19d47f0052ce0e", "lat": 38.925654333333334, "fusion_lon": 0.0, "fusion_lat": 0.0, "type": "electric_scooter", "name": "bf565a0a2755741ade19d47f0052ce0e", "is_disabled": 0, "rental_uris": {"ios": "https://dc.lft.to/lastmile_qr_scan", "android": "https://dc.lft.to/lastmile_qr_scan"}, "is_reserved": 0}, {"lon": -76.99837916666667, "bike_id": "12bf0e3b23fa64165166ca02578865f1", "lat": 38.902340833333334, "fusion_lon": 0.0, "fusion_lat": 0.0, "type": "electric_scooter", "name": "12bf0e3b23fa64165166ca02578865f1", "is_disabled": 0, "rental_uris": {"ios": "https://dc.lft.to/lastmile_qr_scan", "android": "https://dc.lft.to/lastmile_qr_scan"}, "is_reserved": 0}, {"lon": -77.03821816666667, "bike_id": "9b73f1c10c81315addc97108bc53579a", "lat": 38.90772666666667, "fusion_lon": 0.0, "fusion_lat": 0.0, "type": "electric_scooter", "name": "9b73f1c10c81315addc97108bc53579a", "is_disabled": 0, "rental_uris": {"ios": "https://dc.lft.to/lastmile_qr_scan", "android": "https://dc.lft.to/lastmile_qr_scan"}, "is_reserved": 0}, {"lon": -77.0054105, "bike_id": "8d879b6839a24dcf35fa7ec67a60a8b9", "lat": 38.878511, "fusion_lon": 0.0, "fusion_lat": 0.0, "type": "electric_scooter", "name": "8d879b6839a24dcf35fa7ec67a60a8b9", "is_disabled": 0, "rental_uris": {"ios": "https://dc.lft.to/lastmile_qr_scan", "android": "https://dc.lft.to/lastmile_qr_scan"}, "is_reserved": 0}, {"lon": -77.03484633333333, "bike_id": "48bed7a22150321732e1c911feea89e6", "lat": 38.9286605, "fusion_lon": 0.0, "fusion_lat": 0.0, "type": "electric_scooter", "name": "48bed7a22150321732e1c911feea89e6", "is_disabled": 0, "rental_uris": {"ios": "https://dc.lft.to/lastmile_qr_scan", "android": "https://dc.lft.to/lastmile_qr_scan"}, "is_reserved": 0}, {"lon": -76.93176183333334, "bike_id": "2d93488aa146fe2578a1ba2c482e303a", "lat": 38.898803666666666, "fusion_lon": 0.0, "fusion_lat": 0.0, "type": "electric_scooter", "name": "2d93488aa146fe2578a1ba2c482e303a", "is_disabled": 0, "rental_uris": {"ios": "https://dc.lft.to/lastmile_qr_scan", "android": "https://dc.lft.to/lastmile_qr_scan"}, "is_reserved": 0}, {"lon": -76.94959166666666, "bike_id": "661d0ece4da4ed5ba84f307890acbd3f", "lat": 38.894401, "fusion_lon": 0.0, "fusion_lat": 0.0, "type": "electric_scooter", "name": "661d0ece4da4ed5ba84f307890acbd3f", "is_disabled": 0, "rental_uris": {"ios": "https://dc.lft.to/lastmile_qr_scan", "android": "https://dc.lft.to/lastmile_qr_scan"}, "is_reserved": 0}, {"lon": -76.99470366666667, "bike_id": "0c2af36410593f647862c32eafaffdc8", "lat": 38.86218066666667, "fusion_lon": 0.0, "fusion_lat": 0.0, "type": "electric_scooter", "name": "0c2af36410593f647862c32eafaffdc8", "is_disabled": 0, "rental_uris": {"ios": "https://dc.lft.to/lastmile_qr_scan", "android": "https://dc.lft.to/lastmile_qr_scan"}, "is_reserved": 0}, {"lon": -77.04711283333333, "bike_id": "0a788414682de41fc4ff7af1c3d3040c", "lat": 38.92227316666666, "fusion_lon": 0.0, "fusion_lat": 0.0, "type": "electric_scooter", "name": "0a788414682de41fc4ff7af1c3d3040c", "is_disabled": 0, "rental_uris": {"ios": "https://dc.lft.to/lastmile_qr_scan", "android": "https://dc.lft.to/lastmile_qr_scan"}, "is_reserved": 0}, {"lon": -76.98090566666667, "bike_id": "2d5e3e57a9ff3bb550b7396a4240c9e5", "lat": 38.881335166666666, "fusion_lon": 0.0, "fusion_lat": 0.0, "type": "electric_bike", "name": "2d5e3e57a9ff3bb550b7396a4240c9e5", "is_disabled": 0, "rental_uris": {"ios": "https://dc.lft.to/lastmile_qr_scan", "android": "https://dc.lft.to/lastmile_qr_scan"}, "is_reserved": 0}, {"lon": -77.03324166666667, "bike_id": "b0640fa40ffa651c387121fb4b876a9c", "lat": 38.94715766666667, "fusion_lon": 0.0, "fusion_lat": 0.0, "type": "electric_scooter", "name": "b0640fa40ffa651c387121fb4b876a9c", "is_disabled": 0, "rental_uris": {"ios": "https://dc.lft.to/lastmile_qr_scan", "android": "https://dc.lft.to/lastmile_qr_scan"}, "is_reserved": 0}, {"lon": -77.00520216666666, "bike_id": "42bd829e5b6cb17f1c2acd0e167f01e2", "lat": 38.87931483333333, "fusion_lon": 0.0, "fusion_lat": 0.0, "type": "electric_scooter", "name": "42bd829e5b6cb17f1c2acd0e167f01e2", "is_disabled": 0, "rental_uris": {"ios": "https://dc.lft.to/lastmile_qr_scan", "android": "https://dc.lft.to/lastmile_qr_scan"}, "is_reserved": 0}, {"lon": -77.011421, "bike_id": "d05f134a216fe2071d5b2a4097a9e298", "lat": 38.912507166666664, "fusion_lon": 0.0, "fusion_lat": 0.0, "type": "electric_scooter", "name": "d05f134a216fe2071d5b2a4097a9e298", "is_disabled": 0, "rental_uris": {"ios": "https://dc.lft.to/lastmile_qr_scan", "android": "https://dc.lft.to/lastmile_qr_scan"}, "is_reserved": 0}, {"lon": -76.95201633333333, "bike_id": "7916e6798750353797fd877277a56c08", "lat": 38.900097833333334, "fusion_lon": 0.0, "fusion_lat": 0.0, "type": "electric_scooter", "name": "7916e6798750353797fd877277a56c08", "is_disabled": 0, "rental_uris": {"ios": "https://dc.lft.to/lastmile_qr_scan", "android": "https://dc.lft.to/lastmile_qr_scan"}, "is_reserved": 0}, {"lon": -77.00504633333334, "bike_id": "27409955d4daf7216520d2af55afa244", "lat": 38.916884333333336, "fusion_lon": 0.0, "fusion_lat": 0.0, "type": "electric_scooter", "name": "27409955d4daf7216520d2af55afa244", "is_disabled": 0, "rental_uris": {"ios": "https://dc.lft.to/lastmile_qr_scan", "android": "https://dc.lft.to/lastmile_qr_scan"}, "is_reserved": 0}, {"lon": -77.04189883333333, "bike_id": "9f509749ed16ef60c0a66c3db2082dea", "lat": 38.926218666666664, "fusion_lon": 0.0, "fusion_lat": 0.0, "type": "electric_scooter", "name": "9f509749ed16ef60c0a66c3db2082dea", "is_disabled": 0, "rental_uris": {"ios": "https://dc.lft.to/lastmile_qr_scan", "android": "https://dc.lft.to/lastmile_qr_scan"}, "is_reserved": 0}, {"lon": -76.93368016666666, "bike_id": "9f03bf310ebef00c049b3ee7b212d229", "lat": 38.899150166666665, "fusion_lon": 0.0, "fusion_lat": 0.0, "type": "electric_scooter", "name": "9f03bf310ebef00c049b3ee7b212d229", "is_disabled": 0, "rental_uris": {"ios": "https://dc.lft.to/lastmile_qr_scan", "android": "https://dc.lft.to/lastmile_qr_scan"}, "is_reserved": 0}, {"lon": -77.04834683333333, "bike_id": "07955d1a79e9ee42650d56647a10edfe", "lat": 38.918855, "fusion_lon": 0.0, "fusion_lat": 0.0, "type": "electric_scooter", "name": "07955d1a79e9ee42650d56647a10edfe", "is_disabled": 0, "rental_uris": {"ios": "https://dc.lft.to/lastmile_qr_scan", "android": "https://dc.lft.to/lastmile_qr_scan"}, "is_reserved": 0}, {"lon": -77.04125516666667, "bike_id": "1d020a5f56f3a24553bf9e6d30016904", "lat": 38.9254485, "fusion_lon": 0.0, "fusion_lat": 0.0, "type": "electric_scooter", "name": "1d020a5f56f3a24553bf9e6d30016904", "is_disabled": 0, "rental_uris": {"ios": "https://dc.lft.to/lastmile_qr_scan", "android": "https://dc.lft.to/lastmile_qr_scan"}, "is_reserved": 0}, {"lon": -77.04106733333333, "bike_id": "930c3f5b271fd9d287e1753170cd6e86", "lat": 38.918533833333335, "fusion_lon": 0.0, "fusion_lat": 0.0, "type": "electric_scooter", "name": "930c3f5b271fd9d287e1753170cd6e86", "is_disabled": 0, "rental_uris": {"ios": "https://dc.lft.to/lastmile_qr_scan", "android": "https://dc.lft.to/lastmile_qr_scan"}, "is_reserved": 0}, {"lon": -77.0237695, "bike_id": "8141b5873eef5d47318c2030f6ab0e71", "lat": 38.91821983333333, "fusion_lon": 0.0, "fusion_lat": 0.0, "type": "electric_scooter", "name": "8141b5873eef5d47318c2030f6ab0e71", "is_disabled": 0, "rental_uris": {"ios": "https://dc.lft.to/lastmile_qr_scan", "android": "https://dc.lft.to/lastmile_qr_scan"}, "is_reserved": 0}, {"lon": -76.97680633333333, "bike_id": "7c07a4660fd8bc3512f0aef6c537ee0b", "lat": 38.8962, "fusion_lon": 0.0, "fusion_lat": 0.0, "type": "electric_scooter", "name": "7c07a4660fd8bc3512f0aef6c537ee0b", "is_disabled": 0, "rental_uris": {"ios": "https://dc.lft.to/lastmile_qr_scan", "android": "https://dc.lft.to/lastmile_qr_scan"}, "is_reserved": 0}, {"lon": -77.03346283333333, "bike_id": "de4f81bd5b04896c1a32f799b3450696", "lat": 38.9028285, "fusion_lon": 0.0, "fusion_lat": 0.0, "type": "electric_scooter", "name": "de4f81bd5b04896c1a32f799b3450696", "is_disabled": 0, "rental_uris": {"ios": "https://dc.lft.to/lastmile_qr_scan", "android": "https://dc.lft.to/lastmile_qr_scan"}, "is_reserved": 0}, {"lon": -76.98742183333333, "bike_id": "3c13920aacf66d38ac989d11aca51fa2", "lat": 38.886100666666664, "fusion_lon": 0.0, "fusion_lat": 0.0, "type": "electric_scooter", "name": "3c13920aacf66d38ac989d11aca51fa2", "is_disabled": 0, "rental_uris": {"ios": "https://dc.lft.to/lastmile_qr_scan", "android": "https://dc.lft.to/lastmile_qr_scan"}, "is_reserved": 0}, {"lon": -77.021715, "bike_id": "76dff7b65a0782635650c2f95685319c", "lat": 38.942907166666664, "fusion_lon": 0.0, "fusion_lat": 0.0, "type": "electric_scooter", "name": "76dff7b65a0782635650c2f95685319c", "is_disabled": 0, "rental_uris": {"ios": "https://dc.lft.to/lastmile_qr_scan", "android": "https://dc.lft.to/lastmile_qr_scan"}, "is_reserved": 0}, {"lon": -77.02982366666667, "bike_id": "487a57d0013613f07a0546a6bd419f99", "lat": 38.930657833333335, "fusion_lon": 0.0, "fusion_lat": 0.0, "type": "electric_scooter", "name": "487a57d0013613f07a0546a6bd419f99", "is_disabled": 0, "rental_uris": {"ios": "https://dc.lft.to/lastmile_qr_scan", "android": "https://dc.lft.to/lastmile_qr_scan"}, "is_reserved": 0}, {"lon": -77.02657666666667, "bike_id": "4561d47051e364834d7e02feaaf89fe5", "lat": 38.929804, "fusion_lon": 0.0, "fusion_lat": 0.0, "type": "electric_scooter", "name": "4561d47051e364834d7e02feaaf89fe5", "is_disabled": 0, "rental_uris": {"ios": "https://dc.lft.to/lastmile_qr_scan", "android": "https://dc.lft.to/lastmile_qr_scan"}, "is_reserved": 0}, {"lon": -77.0540895, "bike_id": "c5fa2f1f17a1f611ed37297aafa43c75", "lat": 38.901559666666664, "fusion_lon": 0.0, "fusion_lat": 0.0, "type": "electric_scooter", "name": "c5fa2f1f17a1f611ed37297aafa43c75", "is_disabled": 0, "rental_uris": {"ios": "https://dc.lft.to/lastmile_qr_scan", "android": "https://dc.lft.to/lastmile_qr_scan"}, "is_reserved": 0}, {"lon": -77.02984066666667, "bike_id": "ccb8b6d86efd48663a773153713758bb", "lat": 38.907197333333336, "fusion_lon": 0.0, "fusion_lat": 0.0, "type": "electric_scooter", "name": "ccb8b6d86efd48663a773153713758bb", "is_disabled": 0, "rental_uris": {"ios": "https://dc.lft.to/lastmile_qr_scan", "android": "https://dc.lft.to/lastmile_qr_scan"}, "is_reserved": 0}, {"lon": -77.000454, "bike_id": "a08d0dc28b528d9c71e243dcd4d99531", "lat": 38.968118, "fusion_lon": 0.0, "fusion_lat": 0.0, "type": "electric_bike", "name": "a08d0dc28b528d9c71e243dcd4d99531", "is_disabled": 0, "rental_uris": {"ios": "https://dc.lft.to/lastmile_qr_scan", "android": "https://dc.lft.to/lastmile_qr_scan"}, "is_reserved": 0}, {"lon": -77.02083583333334, "bike_id": "9b7dd280f6512efb3b4729588af51708", "lat": 38.9363345, "fusion_lon": 0.0, "fusion_lat": 0.0, "type": "electric_scooter", "name": "9b7dd280f6512efb3b4729588af51708", "is_disabled": 0, "rental_uris": {"ios": "https://dc.lft.to/lastmile_qr_scan", "android": "https://dc.lft.to/lastmile_qr_scan"}, "is_reserved": 0}, {"lon": -76.98884733333334, "bike_id": "fda0df2ae8d76c579319417c16d85332", "lat": 38.866615833333334, "fusion_lon": 0.0, "fusion_lat": 0.0, "type": "electric_scooter", "name": "fda0df2ae8d76c579319417c16d85332", "is_disabled": 0, "rental_uris": {"ios": "https://dc.lft.to/lastmile_qr_scan", "android": "https://dc.lft.to/lastmile_qr_scan"}, "is_reserved": 0}, {"lon": -77.038294, "bike_id": "f6523ae529b73ef6c97dd636e9fa50a2", "lat": 38.916943833333335, "fusion_lon": 0.0, "fusion_lat": 0.0, "type": "electric_scooter", "name": "f6523ae529b73ef6c97dd636e9fa50a2", "is_disabled": 0, "rental_uris": {"ios": "https://dc.lft.to/lastmile_qr_scan", "android": "https://dc.lft.to/lastmile_qr_scan"}, "is_reserved": 0}, {"lon": -77.02394233333334, "bike_id": "50dbc8cb853c0cc2da6228d14ffab310", "lat": 38.9095215, "fusion_lon": 0.0, "fusion_lat": 0.0, "type": "electric_scooter", "name": "50dbc8cb853c0cc2da6228d14ffab310", "is_disabled": 0, "rental_uris": {"ios": "https://dc.lft.to/lastmile_qr_scan", "android": "https://dc.lft.to/lastmile_qr_scan"}, "is_reserved": 0}, {"lon": -77.0269365, "bike_id": "18ec40f266987cc4a4b9790312644a7c", "lat": 38.902434, "fusion_lon": 0.0, "fusion_lat": 0.0, "type": "electric_scooter", "name": "18ec40f266987cc4a4b9790312644a7c", "is_disabled": 0, "rental_uris": {"ios": "https://dc.lft.to/lastmile_qr_scan", "android": "https://dc.lft.to/lastmile_qr_scan"}, "is_reserved": 0}, {"lon": -77.03474083333333, "bike_id": "68ebcf5754fc84d68bdd8cfd7cc0b68a", "lat": 38.8848895, "fusion_lon": 0.0, "fusion_lat": 0.0, "type": "electric_scooter", "name": "68ebcf5754fc84d68bdd8cfd7cc0b68a", "is_disabled": 0, "rental_uris": {"ios": "https://dc.lft.to/lastmile_qr_scan", "android": "https://dc.lft.to/lastmile_qr_scan"}, "is_reserved": 0}, {"lon": -77.041306, "bike_id": "c21d8c8b7031aaed6981656bcef3899e", "lat": 38.90285433333333, "fusion_lon": 0.0, "fusion_lat": 0.0, "type": "electric_scooter", "name": "c21d8c8b7031aaed6981656bcef3899e", "is_disabled": 0, "rental_uris": {"ios": "https://dc.lft.to/lastmile_qr_scan", "android": "https://dc.lft.to/lastmile_qr_scan"}, "is_reserved": 0}, {"lon": -76.9605525, "bike_id": "c65a51281315783b7a6efc7c40ed400e", "lat": 38.884037, "fusion_lon": 0.0, "fusion_lat": 0.0, "type": "electric_bike", "name": "c65a51281315783b7a6efc7c40ed400e", "is_disabled": 0, "rental_uris": {"ios": "https://dc.lft.to/lastmile_qr_scan", "android": "https://dc.lft.to/lastmile_qr_scan"}, "is_reserved": 0}, {"lon": -76.9933355, "bike_id": "1bfbacd1dfa2874ba541938270c68d17", "lat": 38.8714165, "fusion_lon": 0.0, "fusion_lat": 0.0, "type": "electric_scooter", "name": "1bfbacd1dfa2874ba541938270c68d17", "is_disabled": 0, "rental_uris": {"ios": "https://dc.lft.to/lastmile_qr_scan", "android": "https://dc.lft.to/lastmile_qr_scan"}, "is_reserved": 0}, {"lon": -77.0219955, "bike_id": "c3a5a81566e09846304608ab302c25af", "lat": 38.90274316666667, "fusion_lon": 0.0, "fusion_lat": 0.0, "type": "electric_scooter", "name": "c3a5a81566e09846304608ab302c25af", "is_disabled": 0, "rental_uris": {"ios": "https://dc.lft.to/lastmile_qr_scan", "android": "https://dc.lft.to/lastmile_qr_scan"}, "is_reserved": 0}, {"lon": -76.98722416666666, "bike_id": "ccb2568e6490c778988c618131b6be48", "lat": 38.867118166666664, "fusion_lon": 0.0, "fusion_lat": 0.0, "type": "electric_scooter", "name": "ccb2568e6490c778988c618131b6be48", "is_disabled": 0, "rental_uris": {"ios": "https://dc.lft.to/lastmile_qr_scan", "android": "https://dc.lft.to/lastmile_qr_scan"}, "is_reserved": 0}, {"lon": -77.03337433333333, "bike_id": "d90b4997a795451473bed84e0ede7033", "lat": 38.93640383333333, "fusion_lon": 0.0, "fusion_lat": 0.0, "type": "electric_scooter", "name": "d90b4997a795451473bed84e0ede7033", "is_disabled": 0, "rental_uris": {"ios": "https://dc.lft.to/lastmile_qr_scan", "android": "https://dc.lft.to/lastmile_qr_scan"}, "is_reserved": 0}, {"lon": -76.94888283333333, "bike_id": "c2484a271da0d05c44d0b8ceedc35a69", "lat": 38.89513066666667, "fusion_lon": 0.0, "fusion_lat": 0.0, "type": "electric_scooter", "name": "c2484a271da0d05c44d0b8ceedc35a69", "is_disabled": 0, "rental_uris": {"ios": "https://dc.lft.to/lastmile_qr_scan", "android": "https://dc.lft.to/lastmile_qr_scan"}, "is_reserved": 0}, {"lon": -77.0164725, "bike_id": "ab5713052cba166c88aaae11f0a87fa4", "lat": 38.90578883333333, "fusion_lon": 0.0, "fusion_lat": 0.0, "type": "electric_scooter", "name": "ab5713052cba166c88aaae11f0a87fa4", "is_disabled": 0, "rental_uris": {"ios": "https://dc.lft.to/lastmile_qr_scan", "android": "https://dc.lft.to/lastmile_qr_scan"}, "is_reserved": 0}, {"lon": -77.02094816666667, "bike_id": "d4fd87e0f075d7f2feb7f3b4a9df062d", "lat": 38.9574715, "fusion_lon": 0.0, "fusion_lat": 0.0, "type": "electric_scooter", "name": "d4fd87e0f075d7f2feb7f3b4a9df062d", "is_disabled": 0, "rental_uris": {"ios": "https://dc.lft.to/lastmile_qr_scan", "android": "https://dc.lft.to/lastmile_qr_scan"}, "is_reserved": 0}, {"lon": -76.97283233333333, "bike_id": "a028cd91a113fa515db6331fd3f734a9", "lat": 38.91454233333333, "fusion_lon": 0.0, "fusion_lat": 0.0, "type": "electric_bike", "name": "a028cd91a113fa515db6331fd3f734a9", "is_disabled": 0, "rental_uris": {"ios": "https://dc.lft.to/lastmile_qr_scan", "android": "https://dc.lft.to/lastmile_qr_scan"}, "is_reserved": 0}, {"lon": -77.04251333333333, "bike_id": "f542292c21d2ce21112475e9b64e6cc0", "lat": 38.91066566666667, "fusion_lon": 0.0, "fusion_lat": 0.0, "type": "electric_scooter", "name": "f542292c21d2ce21112475e9b64e6cc0", "is_disabled": 0, "rental_uris": {"ios": "https://dc.lft.to/lastmile_qr_scan", "android": "https://dc.lft.to/lastmile_qr_scan"}, "is_reserved": 0}, {"lon": -77.02768316666666, "bike_id": "38c6a342736055864df5e0a401da2f5d", "lat": 38.896929, "fusion_lon": 0.0, "fusion_lat": 0.0, "type": "electric_scooter", "name": "38c6a342736055864df5e0a401da2f5d", "is_disabled": 0, "rental_uris": {"ios": "https://dc.lft.to/lastmile_qr_scan", "android": "https://dc.lft.to/lastmile_qr_scan"}, "is_reserved": 0}, {"lon": -77.0735225, "bike_id": "1b23030019a8d5ce9a906fbbd63d394f", "lat": 38.930442666666664, "fusion_lon": 0.0, "fusion_lat": 0.0, "type": "electric_bike", "name": "1b23030019a8d5ce9a906fbbd63d394f", "is_disabled": 0, "rental_uris": {"ios": "https://dc.lft.to/lastmile_qr_scan", "android": "https://dc.lft.to/lastmile_qr_scan"}, "is_reserved": 0}, {"lon": -76.98708466666666, "bike_id": "a0603fd38a822ccc1ae4eeb45e883632", "lat": 38.865347166666666, "fusion_lon": 0.0, "fusion_lat": 0.0, "type": "electric_scooter", "name": "a0603fd38a822ccc1ae4eeb45e883632", "is_disabled": 0, "rental_uris": {"ios": "https://dc.lft.to/lastmile_qr_scan", "android": "https://dc.lft.to/lastmile_qr_scan"}, "is_reserved": 0}, {"lon": -76.98866483333333, "bike_id": "5ebadd6c262db5457d5741f7568b4447", "lat": 38.95485266666667, "fusion_lon": 0.0, "fusion_lat": 0.0, "type": "electric_bike", "name": "5ebadd6c262db5457d5741f7568b4447", "is_disabled": 0, "rental_uris": {"ios": "https://dc.lft.to/lastmile_qr_scan", "android": "https://dc.lft.to/lastmile_qr_scan"}, "is_reserved": 0}, {"lon": -77.04932983333333, "bike_id": "70dd38233af266917a01cc84f9a10495", "lat": 38.91826016666667, "fusion_lon": 0.0, "fusion_lat": 0.0, "type": "electric_scooter", "name": "70dd38233af266917a01cc84f9a10495", "is_disabled": 0, "rental_uris": {"ios": "https://dc.lft.to/lastmile_qr_scan", "android": "https://dc.lft.to/lastmile_qr_scan"}, "is_reserved": 0}, {"lon": -77.0386525, "bike_id": "c0cfad0e379bf0140afe85bf0eb822e9", "lat": 38.907498833333335, "fusion_lon": 0.0, "fusion_lat": 0.0, "type": "electric_scooter", "name": "c0cfad0e379bf0140afe85bf0eb822e9", "is_disabled": 0, "rental_uris": {"ios": "https://dc.lft.to/lastmile_qr_scan", "android": "https://dc.lft.to/lastmile_qr_scan"}, "is_reserved": 0}, {"lon": -76.99607633333333, "bike_id": "ae055dc618367ed873b93f39676fd891", "lat": 38.90961883333333, "fusion_lon": 0.0, "fusion_lat": 0.0, "type": "electric_scooter", "name": "ae055dc618367ed873b93f39676fd891", "is_disabled": 0, "rental_uris": {"ios": "https://dc.lft.to/lastmile_qr_scan", "android": "https://dc.lft.to/lastmile_qr_scan"}, "is_reserved": 0}, {"lon": -77.01211066666667, "bike_id": "e330918645baea9c44e517cb036c200e", "lat": 38.91645116666667, "fusion_lon": 0.0, "fusion_lat": 0.0, "type": "electric_scooter", "name": "e330918645baea9c44e517cb036c200e", "is_disabled": 0, "rental_uris": {"ios": "https://dc.lft.to/lastmile_qr_scan", "android": "https://dc.lft.to/lastmile_qr_scan"}, "is_reserved": 0}, {"lon": -77.01397983333334, "bike_id": "aa772c5f7015d6e888309d469ad039e6", "lat": 38.928574, "fusion_lon": 0.0, "fusion_lat": 0.0, "type": "electric_scooter", "name": "aa772c5f7015d6e888309d469ad039e6", "is_disabled": 0, "rental_uris": {"ios": "https://dc.lft.to/lastmile_qr_scan", "android": "https://dc.lft.to/lastmile_qr_scan"}, "is_reserved": 0}, {"lon": -76.96911133333333, "bike_id": "bbf9aa39c8ff322572df05c8c5991f25", "lat": 38.846093333333336, "fusion_lon": 0.0, "fusion_lat": 0.0, "type": "electric_bike", "name": "bbf9aa39c8ff322572df05c8c5991f25", "is_disabled": 0, "rental_uris": {"ios": "https://dc.lft.to/lastmile_qr_scan", "android": "https://dc.lft.to/lastmile_qr_scan"}, "is_reserved": 0}, {"lon": -77.02280666666667, "bike_id": "8cc9db10816f487679f948e21de4a166", "lat": 38.92685183333333, "fusion_lon": 0.0, "fusion_lat": 0.0, "type": "electric_scooter", "name": "8cc9db10816f487679f948e21de4a166", "is_disabled": 0, "rental_uris": {"ios": "https://dc.lft.to/lastmile_qr_scan", "android": "https://dc.lft.to/lastmile_qr_scan"}, "is_reserved": 0}, {"lon": -77.03755883333334, "bike_id": "01e69d24cbc9333df68e7e4d4ce1e379", "lat": 38.91126766666667, "fusion_lon": 0.0, "fusion_lat": 0.0, "type": "electric_scooter", "name": "01e69d24cbc9333df68e7e4d4ce1e379", "is_disabled": 0, "rental_uris": {"ios": "https://dc.lft.to/lastmile_qr_scan", "android": "https://dc.lft.to/lastmile_qr_scan"}, "is_reserved": 0}, {"lon": -77.11594916666667, "bike_id": "f2b5ded30bebb080e16acb8cc68e6e6a", "lat": 39.07493216666666, "fusion_lon": 0.0, "fusion_lat": 0.0, "type": "electric_bike", "name": "f2b5ded30bebb080e16acb8cc68e6e6a", "is_disabled": 0, "rental_uris": {"ios": "https://dc.lft.to/lastmile_qr_scan", "android": "https://dc.lft.to/lastmile_qr_scan"}, "is_reserved": 0}, {"lon": -77.02396316666666, "bike_id": "8e8c3ff2e5b45a91f44b73a6106e17a2", "lat": 38.904184666666666, "fusion_lon": 0.0, "fusion_lat": 0.0, "type": "electric_scooter", "name": "8e8c3ff2e5b45a91f44b73a6106e17a2", "is_disabled": 0, "rental_uris": {"ios": "https://dc.lft.to/lastmile_qr_scan", "android": "https://dc.lft.to/lastmile_qr_scan"}, "is_reserved": 0}, {"lon": -77.02374333333333, "bike_id": "54416e282f91097cbf077f39d3714b34", "lat": 38.899702166666664, "fusion_lon": 0.0, "fusion_lat": 0.0, "type": "electric_scooter", "name": "54416e282f91097cbf077f39d3714b34", "is_disabled": 0, "rental_uris": {"ios": "https://dc.lft.to/lastmile_qr_scan", "android": "https://dc.lft.to/lastmile_qr_scan"}, "is_reserved": 0}, {"lon": -76.9576195, "bike_id": "928505a1918b98345013ed67199f3601", "lat": 38.884312666666666, "fusion_lon": 0.0, "fusion_lat": 0.0, "type": "electric_scooter", "name": "928505a1918b98345013ed67199f3601", "is_disabled": 0, "rental_uris": {"ios": "https://dc.lft.to/lastmile_qr_scan", "android": "https://dc.lft.to/lastmile_qr_scan"}, "is_reserved": 0}, {"lon": -77.03663033333333, "bike_id": "aefb3497bcee512c2f51893bcb44258b", "lat": 38.922144, "fusion_lon": 0.0, "fusion_lat": 0.0, "type": "electric_scooter", "name": "aefb3497bcee512c2f51893bcb44258b", "is_disabled": 0, "rental_uris": {"ios": "https://dc.lft.to/lastmile_qr_scan", "android": "https://dc.lft.to/lastmile_qr_scan"}, "is_reserved": 0}, {"lon": -77.03059033333334, "bike_id": "18f54ba0591a11cdb97060e8553742a9", "lat": 38.930966833333336, "fusion_lon": 0.0, "fusion_lat": 0.0, "type": "electric_scooter", "name": "18f54ba0591a11cdb97060e8553742a9", "is_disabled": 0, "rental_uris": {"ios": "https://dc.lft.to/lastmile_qr_scan", "android": "https://dc.lft.to/lastmile_qr_scan"}, "is_reserved": 0}, {"lon": -77.03216083333334, "bike_id": "45429460d2356d2349249241d4e9d64e", "lat": 38.9349795, "fusion_lon": 0.0, "fusion_lat": 0.0, "type": "electric_bike", "name": "45429460d2356d2349249241d4e9d64e", "is_disabled": 0, "rental_uris": {"ios": "https://dc.lft.to/lastmile_qr_scan", "android": "https://dc.lft.to/lastmile_qr_scan"}, "is_reserved": 0}, {"lon": -77.0223035, "bike_id": "0b9de1538d64474b46f21b096e2569fc", "lat": 38.92082683333334, "fusion_lon": 0.0, "fusion_lat": 0.0, "type": "electric_scooter", "name": "0b9de1538d64474b46f21b096e2569fc", "is_disabled": 0, "rental_uris": {"ios": "https://dc.lft.to/lastmile_qr_scan", "android": "https://dc.lft.to/lastmile_qr_scan"}, "is_reserved": 0}, {"lon": -77.0296785, "bike_id": "3246eeba55c8403f074fd3252cb21528", "lat": 38.923873666666665, "fusion_lon": 0.0, "fusion_lat": 0.0, "type": "electric_scooter", "name": "3246eeba55c8403f074fd3252cb21528", "is_disabled": 0, "rental_uris": {"ios": "https://dc.lft.to/lastmile_qr_scan", "android": "https://dc.lft.to/lastmile_qr_scan"}, "is_reserved": 0}, {"lon": -77.08958016666666, "bike_id": "0432916efafcb4ec5da6d08c01e5694f", "lat": 38.84292166666667, "fusion_lon": 0.0, "fusion_lat": 0.0, "type": "electric_bike", "name": "0432916efafcb4ec5da6d08c01e5694f", "is_disabled": 0, "rental_uris": {"ios": "https://dc.lft.to/lastmile_qr_scan", "android": "https://dc.lft.to/lastmile_qr_scan"}, "is_reserved": 0}, {"lon": -77.03359166666667, "bike_id": "f74f170d9cacf9157ae557ddc9326ec1", "lat": 38.89825116666667, "fusion_lon": 0.0, "fusion_lat": 0.0, "type": "electric_scooter", "name": "f74f170d9cacf9157ae557ddc9326ec1", "is_disabled": 0, "rental_uris": {"ios": "https://dc.lft.to/lastmile_qr_scan", "android": "https://dc.lft.to/lastmile_qr_scan"}, "is_reserved": 0}, {"lon": -77.03582883333333, "bike_id": "08ef50ff7acf0277293f0b904df1b584", "lat": 38.906918833333336, "fusion_lon": 0.0, "fusion_lat": 0.0, "type": "electric_scooter", "name": "08ef50ff7acf0277293f0b904df1b584", "is_disabled": 0, "rental_uris": {"ios": "https://dc.lft.to/lastmile_qr_scan", "android": "https://dc.lft.to/lastmile_qr_scan"}, "is_reserved": 0}, {"lon": -77.01018016666667, "bike_id": "1bf8c02eccaef5a183222e5bf8d4b374", "lat": 38.917053, "fusion_lon": 0.0, "fusion_lat": 0.0, "type": "electric_scooter", "name": "1bf8c02eccaef5a183222e5bf8d4b374", "is_disabled": 0, "rental_uris": {"ios": "https://dc.lft.to/lastmile_qr_scan", "android": "https://dc.lft.to/lastmile_qr_scan"}, "is_reserved": 0}, {"lon": -77.03125333333334, "bike_id": "86afe27dd3467bd53628a455f235a1f6", "lat": 38.91497616666667, "fusion_lon": 0.0, "fusion_lat": 0.0, "type": "electric_scooter", "name": "86afe27dd3467bd53628a455f235a1f6", "is_disabled": 0, "rental_uris": {"ios": "https://dc.lft.to/lastmile_qr_scan", "android": "https://dc.lft.to/lastmile_qr_scan"}, "is_reserved": 0}, {"lon": -76.94960066666667, "bike_id": "5b147faffee09724d50587c758ec22d5", "lat": 38.90499466666667, "fusion_lon": 0.0, "fusion_lat": 0.0, "type": "electric_scooter", "name": "5b147faffee09724d50587c758ec22d5", "is_disabled": 0, "rental_uris": {"ios": "https://dc.lft.to/lastmile_qr_scan", "android": "https://dc.lft.to/lastmile_qr_scan"}, "is_reserved": 0}, {"lon": -77.001833, "bike_id": "9bbd5a872c25606024a36b05f338858c", "lat": 38.908075, "fusion_lon": 0.0, "fusion_lat": 0.0, "type": "electric_scooter", "name": "9bbd5a872c25606024a36b05f338858c", "is_disabled": 0, "rental_uris": {"ios": "https://dc.lft.to/lastmile_qr_scan", "android": "https://dc.lft.to/lastmile_qr_scan"}, "is_reserved": 0}, {"lon": -77.00738816666667, "bike_id": "194a0dbf39d80b766ab6eb24baa972e9", "lat": 38.92542, "fusion_lon": 0.0, "fusion_lat": 0.0, "type": "electric_scooter", "name": "194a0dbf39d80b766ab6eb24baa972e9", "is_disabled": 0, "rental_uris": {"ios": "https://dc.lft.to/lastmile_qr_scan", "android": "https://dc.lft.to/lastmile_qr_scan"}, "is_reserved": 0}, {"lon": -76.94507866666666, "bike_id": "5f34c773a8828c4b4c1187adce29db75", "lat": 38.86479666666666, "fusion_lon": 0.0, "fusion_lat": 0.0, "type": "electric_bike", "name": "5f34c773a8828c4b4c1187adce29db75", "is_disabled": 0, "rental_uris": {"ios": "https://dc.lft.to/lastmile_qr_scan", "android": "https://dc.lft.to/lastmile_qr_scan"}, "is_reserved": 0}, {"lon": -77.05154583333334, "bike_id": "33a1d25b68b7696400628ec74ef2a4c3", "lat": 38.8986525, "fusion_lon": 0.0, "fusion_lat": 0.0, "type": "electric_scooter", "name": "33a1d25b68b7696400628ec74ef2a4c3", "is_disabled": 0, "rental_uris": {"ios": "https://dc.lft.to/lastmile_qr_scan", "android": "https://dc.lft.to/lastmile_qr_scan"}, "is_reserved": 0}, {"lon": -76.99369633333333, "bike_id": "f4ecf7a0312b0100fb2f4b6a505f1675", "lat": 38.940246333333334, "fusion_lon": 0.0, "fusion_lat": 0.0, "type": "electric_scooter", "name": "f4ecf7a0312b0100fb2f4b6a505f1675", "is_disabled": 0, "rental_uris": {"ios": "https://dc.lft.to/lastmile_qr_scan", "android": "https://dc.lft.to/lastmile_qr_scan"}, "is_reserved": 0}, {"lon": -77.03288866666666, "bike_id": "0a23ff9529008ad651e78bf3ea268602", "lat": 38.9564885, "fusion_lon": 0.0, "fusion_lat": 0.0, "type": "electric_scooter", "name": "0a23ff9529008ad651e78bf3ea268602", "is_disabled": 0, "rental_uris": {"ios": "https://dc.lft.to/lastmile_qr_scan", "android": "https://dc.lft.to/lastmile_qr_scan"}, "is_reserved": 0}, {"lon": -77.00119983333333, "bike_id": "9a593ee805f3cde3690d2e6ceec12d36", "lat": 38.90502866666667, "fusion_lon": 0.0, "fusion_lat": 0.0, "type": "electric_scooter", "name": "9a593ee805f3cde3690d2e6ceec12d36", "is_disabled": 0, "rental_uris": {"ios": "https://dc.lft.to/lastmile_qr_scan", "android": "https://dc.lft.to/lastmile_qr_scan"}, "is_reserved": 0}, {"lon": -77.03865366666666, "bike_id": "15f7f7b88f9f770e53d9013c07ee15cd", "lat": 38.9201505, "fusion_lon": 0.0, "fusion_lat": 0.0, "type": "electric_scooter", "name": "15f7f7b88f9f770e53d9013c07ee15cd", "is_disabled": 0, "rental_uris": {"ios": "https://dc.lft.to/lastmile_qr_scan", "android": "https://dc.lft.to/lastmile_qr_scan"}, "is_reserved": 0}, {"lon": -77.02319416666667, "bike_id": "d55ca259b4cf6f03bbb45a28ec0b381f", "lat": 38.91836033333333, "fusion_lon": 0.0, "fusion_lat": 0.0, "type": "electric_scooter", "name": "d55ca259b4cf6f03bbb45a28ec0b381f", "is_disabled": 0, "rental_uris": {"ios": "https://dc.lft.to/lastmile_qr_scan", "android": "https://dc.lft.to/lastmile_qr_scan"}, "is_reserved": 0}, {"lon": -77.0497895, "bike_id": "e492d059cf3c4ade7d6888437aca4c31", "lat": 39.06291616666667, "fusion_lon": 0.0, "fusion_lat": 0.0, "type": "electric_bike", "name": "e492d059cf3c4ade7d6888437aca4c31", "is_disabled": 0, "rental_uris": {"ios": "https://dc.lft.to/lastmile_qr_scan", "android": "https://dc.lft.to/lastmile_qr_scan"}, "is_reserved": 0}, {"lon": -76.9377155, "bike_id": "700bdd1e8f60f5949ece24f229e90aef", "lat": 38.899638333333336, "fusion_lon": 0.0, "fusion_lat": 0.0, "type": "electric_scooter", "name": "700bdd1e8f60f5949ece24f229e90aef", "is_disabled": 0, "rental_uris": {"ios": "https://dc.lft.to/lastmile_qr_scan", "android": "https://dc.lft.to/lastmile_qr_scan"}, "is_reserved": 0}, {"lon": -76.93763783333333, "bike_id": "df3359c134214c0dbdf3e39c16b54764", "lat": 38.878572, "fusion_lon": 0.0, "fusion_lat": 0.0, "type": "electric_scooter", "name": "df3359c134214c0dbdf3e39c16b54764", "is_disabled": 0, "rental_uris": {"ios": "https://dc.lft.to/lastmile_qr_scan", "android": "https://dc.lft.to/lastmile_qr_scan"}, "is_reserved": 0}, {"lon": -77.02295733333334, "bike_id": "0495d0227ee9117fe9965c23d9d1dcec", "lat": 38.9088775, "fusion_lon": 0.0, "fusion_lat": 0.0, "type": "electric_scooter", "name": "0495d0227ee9117fe9965c23d9d1dcec", "is_disabled": 0, "rental_uris": {"ios": "https://dc.lft.to/lastmile_qr_scan", "android": "https://dc.lft.to/lastmile_qr_scan"}, "is_reserved": 0}, {"lon": -76.99860133333334, "bike_id": "e62ad1be1749703890ee0edf7407f66d", "lat": 38.89414766666667, "fusion_lon": 0.0, "fusion_lat": 0.0, "type": "electric_scooter", "name": "e62ad1be1749703890ee0edf7407f66d", "is_disabled": 0, "rental_uris": {"ios": "https://dc.lft.to/lastmile_qr_scan", "android": "https://dc.lft.to/lastmile_qr_scan"}, "is_reserved": 0}, {"lon": -76.99012133333333, "bike_id": "f19af7ef3ca1ab2f25439206ab5ae447", "lat": 38.94598466666667, "fusion_lon": 0.0, "fusion_lat": 0.0, "type": "electric_scooter", "name": "f19af7ef3ca1ab2f25439206ab5ae447", "is_disabled": 0, "rental_uris": {"ios": "https://dc.lft.to/lastmile_qr_scan", "android": "https://dc.lft.to/lastmile_qr_scan"}, "is_reserved": 0}, {"lon": -77.07800866666666, "bike_id": "5627db45470c78a1c83b0eebdc61c215", "lat": 38.92367483333334, "fusion_lon": 0.0, "fusion_lat": 0.0, "type": "electric_scooter", "name": "5627db45470c78a1c83b0eebdc61c215", "is_disabled": 0, "rental_uris": {"ios": "https://dc.lft.to/lastmile_qr_scan", "android": "https://dc.lft.to/lastmile_qr_scan"}, "is_reserved": 0}, {"lon": -77.02403516666666, "bike_id": "f0b657d948baf1bf3bc73ce4468fb990", "lat": 38.957104333333334, "fusion_lon": 0.0, "fusion_lat": 0.0, "type": "electric_scooter", "name": "f0b657d948baf1bf3bc73ce4468fb990", "is_disabled": 0, "rental_uris": {"ios": "https://dc.lft.to/lastmile_qr_scan", "android": "https://dc.lft.to/lastmile_qr_scan"}, "is_reserved": 0}, {"lon": -77.02280566666667, "bike_id": "c98a23e3cba2840c85165701bf83774f", "lat": 38.90899116666667, "fusion_lon": 0.0, "fusion_lat": 0.0, "type": "electric_scooter", "name": "c98a23e3cba2840c85165701bf83774f", "is_disabled": 0, "rental_uris": {"ios": "https://dc.lft.to/lastmile_qr_scan", "android": "https://dc.lft.to/lastmile_qr_scan"}, "is_reserved": 0}, {"lon": -77.0534995, "bike_id": "5d49726ce51f8aa488f3ebce294ec9ef", "lat": 38.92702416666667, "fusion_lon": 0.0, "fusion_lat": 0.0, "type": "electric_scooter", "name": "5d49726ce51f8aa488f3ebce294ec9ef", "is_disabled": 0, "rental_uris": {"ios": "https://dc.lft.to/lastmile_qr_scan", "android": "https://dc.lft.to/lastmile_qr_scan"}, "is_reserved": 0}, {"lon": -77.00778516666666, "bike_id": "ac2f77f1aeb82948f68ecef7f13099fe", "lat": 38.9065135, "fusion_lon": 0.0, "fusion_lat": 0.0, "type": "electric_scooter", "name": "ac2f77f1aeb82948f68ecef7f13099fe", "is_disabled": 0, "rental_uris": {"ios": "https://dc.lft.to/lastmile_qr_scan", "android": "https://dc.lft.to/lastmile_qr_scan"}, "is_reserved": 0}, {"lon": -77.0056915, "bike_id": "c5195bdd0d0291030625510e94f3f260", "lat": 38.9060595, "fusion_lon": 0.0, "fusion_lat": 0.0, "type": "electric_scooter", "name": "c5195bdd0d0291030625510e94f3f260", "is_disabled": 0, "rental_uris": {"ios": "https://dc.lft.to/lastmile_qr_scan", "android": "https://dc.lft.to/lastmile_qr_scan"}, "is_reserved": 0}, {"lon": -76.92757083333333, "bike_id": "214fbffd0e7f2fe29ee428cbd1ec6e6b", "lat": 38.88060883333333, "fusion_lon": 0.0, "fusion_lat": 0.0, "type": "electric_scooter", "name": "214fbffd0e7f2fe29ee428cbd1ec6e6b", "is_disabled": 0, "rental_uris": {"ios": "https://dc.lft.to/lastmile_qr_scan", "android": "https://dc.lft.to/lastmile_qr_scan"}, "is_reserved": 0}, {"lon": -77.05130516666667, "bike_id": "9a06f0955a413e46caebcaee3df493d5", "lat": 38.92363616666667, "fusion_lon": 0.0, "fusion_lat": 0.0, "type": "electric_scooter", "name": "9a06f0955a413e46caebcaee3df493d5", "is_disabled": 0, "rental_uris": {"ios": "https://dc.lft.to/lastmile_qr_scan", "android": "https://dc.lft.to/lastmile_qr_scan"}, "is_reserved": 0},