{"data": {"bikes": [{"is_disabled": 0, "fusion_lon": 0.0, "fusion_lat": 0.0, "lat": 38.90514683333333, "type": "electric_scooter", "lon": -77.05401566666667, "bike_id": "0a2485d67f081e99fac5cc6ae8bd2e7d", "rental_uris": {"android": "https://dc.lft.to/lastmile_qr_scan", "ios": "https://dc.lft.to/lastmile_qr_scan"}, "name": "0a2485d67f081e99fac5cc6ae8bd2e7d", "is_reserved": 0}, {"is_disabled": 0, "fusion_lon": 0.0, "fusion_lat": 0.0, "lat": 38.911927666666664, "type": "electric_scooter", "lon": -77.04164166666666, "bike_id": "89bf0beef4ce467b75169e6b44600371", "rental_uris": {"android": "https://dc.lft.to/lastmile_qr_scan", "ios": "https://dc.lft.to/lastmile_qr_scan"}, "name": "89bf0beef4ce467b75169e6b44600371", "is_reserved": 0}, {"is_disabled": 0, "fusion_lon": 0.0, "fusion_lat": 0.0, "lat": 38.908885, "type": "electric_scooter", "lon": -77.04135533333333, "bike_id": "ede08881c90f2dd4fb7ccc0811d89171", "rental_uris": {"android": "https://dc.lft.to/lastmile_qr_scan", "ios": "https://dc.lft.to/lastmile_qr_scan"}, "name": "ede08881c90f2dd4fb7ccc0811d89171", "is_reserved": 0}, {"is_disabled": 0, "fusion_lon": 0.0, "fusion_lat": 0.0, "lat": 38.89395783333333, "type": "electric_scooter", "lon": -76.94992016666667, "bike_id": "e9ec1fb7c84f4e9470ae58a8c4227791", "rental_uris": {"android": "https://dc.lft.to/lastmile_qr_scan", "ios": "https://dc.lft.to/lastmile_qr_scan"}, "name": "e9ec1fb7c84f4e9470ae58a8c4227791", "is_reserved": 0}, {"is_disabled": 0, "fusion_lon": 0.0, "fusion_lat": 0.0, "lat": 38.92121366666667, "type": "electric_scooter", "lon": -77.03660966666666, "bike_id": "574bccdfa847bf1ad7d59ccbc0b0aaa1", "rental_uris": {"android": "https://dc.lft.to/lastmile_qr_scan", "ios": "https://dc.lft.to/lastmile_qr_scan"}, "name": "574bccdfa847bf1ad7d59ccbc0b0aaa1", "is_reserved": 0}, {"is_disabled": 0, "fusion_lon": 0.0, "fusion_lat": 0.0, "lat": 38.9112125, "type": "electric_scooter", "lon": -77.04402616666667, "bike_id": "df0f29ee2c5def24e4578bcf0b7d352f", "rental_uris": {"android": "https://dc.lft.to/lastmile_qr_scan", "ios": "https://dc.lft.to/lastmile_qr_scan"}, "name": "df0f29ee2c5def24e4578bcf0b7d352f", "is_reserved": 0}, {"is_disabled": 0, "fusion_lon": 0.0, "fusion_lat": 0.0, "lat": 38.91242233333333, "type": "electric_scooter", "lon": -77.03744683333333, "bike_id": "6c4946e5c76b90bf1402f87b328e1970", "rental_uris": {"android": "https://dc.lft.to/lastmile_qr_scan", "ios": "https://dc.lft.to/lastmile_qr_scan"}, "name": "6c4946e5c76b90bf1402f87b328e1970", "is_reserved": 0}, {"is_disabled": 0, "fusion_lon": 0.0, "fusion_lat": 0.0, "lat": 38.91936366666667, "type": "electric_scooter", "lon": -77.0417435, "bike_id": "e2e2c326d2b08413fe15ee38d75491d5", "rental_uris": {"android": "https://dc.lft.to/lastmile_qr_scan", "ios": "https://dc.lft.to/lastmile_qr_scan"}, "name": "e2e2c326d2b08413fe15ee38d75491d5", "is_reserved": 0}, {"is_disabled": 0, "fusion_lon": 0.0, "fusion_lat": 0.0, "lat": 38.878973333333334, "type": "electric_scooter", "lon": -76.93523716666667, "bike_id": "a303812a94e095ab307a08bb578555a2", "rental_uris": {"android": "https://dc.lft.to/lastmile_qr_scan", "ios": "https://dc.lft.to/lastmile_qr_scan"}, "name": "a303812a94e095ab307a08bb578555a2", "is_reserved": 0}, {"is_disabled": 0, "fusion_lon": 0.0, "fusion_lat": 0.0, "lat": 38.974058666666664, "type": "electric_bike", "lon": -77.0249255, "bike_id": "5575d1fc42b1a7d41881ff3ccf1eaf89", "rental_uris": {"android": "https://dc.lft.to/lastmile_qr_scan", "ios": "https://dc.lft.to/lastmile_qr_scan"}, "name": "5575d1fc42b1a7d41881ff3ccf1eaf89", "is_reserved": 0}, {"is_disabled": 0, "fusion_lon": 0.0, "fusion_lat": 0.0, "lat": 38.900644666666665, "type": "electric_scooter", "lon": -76.93384, "bike_id": "1b179a373ddaa856fcf1ef6a7b4416ed", "rental_uris": {"android": "https://dc.lft.to/lastmile_qr_scan", "ios": "https://dc.lft.to/lastmile_qr_scan"}, "name": "1b179a373ddaa856fcf1ef6a7b4416ed", "is_reserved": 0}, {"is_disabled": 0, "fusion_lon": 0.0, "fusion_lat": 0.0, "lat": 38.8985545, "type": "electric_scooter", "lon": -77.02218833333333, "bike_id": "8a3896f96386d4c6270a1e27c4068692", "rental_uris": {"android": "https://dc.lft.to/lastmile_qr_scan", "ios": "https://dc.lft.to/lastmile_qr_scan"}, "name": "8a3896f96386d4c6270a1e27c4068692", "is_reserved": 0}, {"is_disabled": 0, "fusion_lon": 0.0, "fusion_lat": 0.0, "lat": 38.93138, "type": "electric_scooter", "lon": -77.05729783333334, "bike_id": "9486d3fff0cd976c998db5ac37c6b406", "rental_uris": {"android": "https://dc.lft.to/lastmile_qr_scan", "ios": "https://dc.lft.to/lastmile_qr_scan"}, "name": "9486d3fff0cd976c998db5ac37c6b406", "is_reserved": 0}, {"is_disabled": 0, "fusion_lon": 0.0, "fusion_lat": 0.0, "lat": 38.89358583333333, "type": "electric_scooter", "lon": -77.03963883333333, "bike_id": "10545be29a5cb4989602efa86750854c", "rental_uris": {"android": "https://dc.lft.to/lastmile_qr_scan", "ios": "https://dc.lft.to/lastmile_qr_scan"}, "name": "10545be29a5cb4989602efa86750854c", "is_reserved": 0}, {"is_disabled": 0, "fusion_lon": 0.0, "fusion_lat": 0.0, "lat": 38.90624533333333, "type": "electric_scooter", "lon": -77.02410883333333, "bike_id": "015404f5a6b3a365a36c920a1c35e444", "rental_uris": {"android": "https://dc.lft.to/lastmile_qr_scan", "ios": "https://dc.lft.to/lastmile_qr_scan"}, "name": "015404f5a6b3a365a36c920a1c35e444", "is_reserved": 0}, {"is_disabled": 0, "fusion_lon": 0.0, "fusion_lat": 0.0, "lat": 38.9006635, "type": "electric_scooter", "lon": -77.00731816666666, "bike_id": "0294a7ebb75a365e629056962f2e0ead", "rental_uris": {"android": "https://dc.lft.to/lastmile_qr_scan", "ios": "https://dc.lft.to/lastmile_qr_scan"}, "name": "0294a7ebb75a365e629056962f2e0ead", "is_reserved": 0}, {"is_disabled": 0, "fusion_lon": 0.0, "fusion_lat": 0.0, "lat": 38.890097833333336, "type": "electric_scooter", "lon": -77.03321883333334, "bike_id": "42901ac2934d61e9f0630e662f31fac5", "rental_uris": {"android": "https://dc.lft.to/lastmile_qr_scan", "ios": "https://dc.lft.to/lastmile_qr_scan"}, "name": "42901ac2934d61e9f0630e662f31fac5", "is_reserved": 0}, {"is_disabled": 0, "fusion_lon": 0.0, "fusion_lat": 0.0, "lat": 38.87776383333333, "type": "electric_scooter", "lon": -77.01437233333333, "bike_id": "c9bcfc967f5c2fab28eedbd69607890b", "rental_uris": {"android": "https://dc.lft.to/lastmile_qr_scan", "ios": "https://dc.lft.to/lastmile_qr_scan"}, "name": "c9bcfc967f5c2fab28eedbd69607890b", "is_reserved": 0}, {"is_disabled": 0, "fusion_lon": 0.0, "fusion_lat": 0.0, "lat": 38.91181616666667, "type": "electric_scooter", "lon": -77.04177166666666, "bike_id": "52739266ee641f84f5dfd692895a8783", "rental_uris": {"android": "https://dc.lft.to/lastmile_qr_scan", "ios": "https://dc.lft.to/lastmile_qr_scan"}, "name": "52739266ee641f84f5dfd692895a8783", "is_reserved": 0}, {"is_disabled": 0, "fusion_lon": 0.0, "fusion_lat": 0.0, "lat": 38.93706816666667, "type": "electric_scooter", "lon": -77.06106033333333, "bike_id": "b0a949c7795cd3bd831050cf7c40fa6f", "rental_uris": {"android": "https://dc.lft.to/lastmile_qr_scan", "ios": "https://dc.lft.to/lastmile_qr_scan"}, "name": "b0a949c7795cd3bd831050cf7c40fa6f", "is_reserved": 0}, {"is_disabled": 0, "fusion_lon": 0.0, "fusion_lat": 0.0, "lat": 38.84878333333333, "type": "electric_scooter", "lon": -77.0051755, "bike_id": "0fafb28ad0abad926991b175d53f0860", "rental_uris": {"android": "https://dc.lft.to/lastmile_qr_scan", "ios": "https://dc.lft.to/lastmile_qr_scan"}, "name": "0fafb28ad0abad926991b175d53f0860", "is_reserved": 0}, {"is_disabled": 0, "fusion_lon": 0.0, "fusion_lat": 0.0, "lat": 38.8964405, "type": "electric_scooter", "lon": -77.04342016666666, "bike_id": "319696e98e0c526179b354ef085a9c8b", "rental_uris": {"android": "https://dc.lft.to/lastmile_qr_scan", "ios": "https://dc.lft.to/lastmile_qr_scan"}, "name": "319696e98e0c526179b354ef085a9c8b", "is_reserved": 0}, {"is_disabled": 0, "fusion_lon": 0.0, "fusion_lat": 0.0, "lat": 38.905575166666665, "type": "electric_scooter", "lon": -77.0043715, "bike_id": "fa6a55bf170194c1d9285399539a7f99", "rental_uris": {"android": "https://dc.lft.to/lastmile_qr_scan", "ios": "https://dc.lft.to/lastmile_qr_scan"}, "name": "fa6a55bf170194c1d9285399539a7f99", "is_reserved": 0}, {"is_disabled": 0, "fusion_lon": 0.0, "fusion_lat": 0.0, "lat": 38.98134316666667, "type": "electric_bike", "lon": -77.0076595, "bike_id": "85014617b9761dab3521270694ed2276", "rental_uris": {"android": "https://dc.lft.to/lastmile_qr_scan", "ios": "https://dc.lft.to/lastmile_qr_scan"}, "name": "85014617b9761dab3521270694ed2276", "is_reserved": 0}, {"is_disabled": 0, "fusion_lon": 0.0, "fusion_lat": 0.0, "lat": 38.92009683333333, "type": "electric_scooter", "lon": -77.031977, "bike_id": "47ab2f124247fa5f50ab5333f4f0cbdc", "rental_uris": {"android": "https://dc.lft.to/lastmile_qr_scan", "ios": "https://dc.lft.to/lastmile_qr_scan"}, "name": "47ab2f124247fa5f50ab5333f4f0cbdc", "is_reserved": 0}, {"is_disabled": 0, "fusion_lon": 0.0, "fusion_lat": 0.0, "lat": 38.87732616666667, "type": "electric_scooter", "lon": -77.000637, "bike_id": "c4e88c9c7629d5a4572d07272da9c926", "rental_uris": {"android": "https://dc.lft.to/lastmile_qr_scan", "ios": "https://dc.lft.to/lastmile_qr_scan"}, "name": "c4e88c9c7629d5a4572d07272da9c926", "is_reserved": 0}, {"is_disabled": 0, "fusion_lon": 0.0, "fusion_lat": 0.0, "lat": 38.898767166666666, "type": "electric_scooter", "lon": -76.9318705, "bike_id": "d7a9cc0ecf7a4cf0402752d41d15757a", "rental_uris": {"android": "https://dc.lft.to/lastmile_qr_scan", "ios": "https://dc.lft.to/lastmile_qr_scan"}, "name": "d7a9cc0ecf7a4cf0402752d41d15757a", "is_reserved": 0}, {"is_disabled": 0, "fusion_lon": 0.0, "fusion_lat": 0.0, "lat": 38.90958833333333, "type": "electric_scooter", "lon": -77.0476775, "bike_id": "814bf00b703f05c08280a41f5d7b1f6a", "rental_uris": {"android": "https://dc.lft.to/lastmile_qr_scan", "ios": "https://dc.lft.to/lastmile_qr_scan"}, "name": "814bf00b703f05c08280a41f5d7b1f6a", "is_reserved": 0}, {"is_disabled": 0, "fusion_lon": 0.0, "fusion_lat": 0.0, "lat": 38.907035, "type": "electric_scooter", "lon": -77.06318733333333, "bike_id": "02622194fd8f82216da8390b3bd2e01d", "rental_uris": {"android": "https://dc.lft.to/lastmile_qr_scan", "ios": "https://dc.lft.to/lastmile_qr_scan"}, "name": "02622194fd8f82216da8390b3bd2e01d", "is_reserved": 0}, {"is_disabled": 0, "fusion_lon": 0.0, "fusion_lat": 0.0, "lat": 38.980267, "type": "electric_bike", "lon": -76.929144, "bike_id": "e46e7e1cd72eca6baa688253ab4c54da", "rental_uris": {"android": "https://dc.lft.to/lastmile_qr_scan", "ios": "https://dc.lft.to/lastmile_qr_scan"}, "name": "e46e7e1cd72eca6baa688253ab4c54da", "is_reserved": 0}, {"is_disabled": 0, "fusion_lon": 0.0, "fusion_lat": 0.0, "lat": 38.895719166666666, "type": "electric_scooter", "lon": -77.00452133333333, "bike_id": "3d4c4e9e9fab6b94020b5ae6d812b008", "rental_uris": {"android": "https://dc.lft.to/lastmile_qr_scan", "ios": "https://dc.lft.to/lastmile_qr_scan"}, "name": "3d4c4e9e9fab6b94020b5ae6d812b008", "is_reserved": 0}, {"is_disabled": 0, "fusion_lon": 0.0, "fusion_lat": 0.0, "lat": 38.90280333333333, "type": "electric_scooter", "lon": -77.02432433333334, "bike_id": "f4d41e04d17d4bbcca5d30e517138922", "rental_uris": {"android": "https://dc.lft.to/lastmile_qr_scan", "ios": "https://dc.lft.to/lastmile_qr_scan"}, "name": "f4d41e04d17d4bbcca5d30e517138922", "is_reserved": 0}, {"is_disabled": 0, "fusion_lon": 0.0, "fusion_lat": 0.0, "lat": 38.893116166666665, "type": "electric_scooter", "lon": -77.0220475, "bike_id": "4eaa9079ef576d956aef6b7e894aef5f", "rental_uris": {"android": "https://dc.lft.to/lastmile_qr_scan", "ios": "https://dc.lft.to/lastmile_qr_scan"}, "name": "4eaa9079ef576d956aef6b7e894aef5f", "is_reserved": 0}, {"is_disabled": 0, "fusion_lon": 0.0, "fusion_lat": 0.0, "lat": 38.915645833333336, "type": "electric_scooter", "lon": -77.01211016666667, "bike_id": "5ad279b3f01c11721c98685552c42ceb", "rental_uris": {"android": "https://dc.lft.to/lastmile_qr_scan", "ios": "https://dc.lft.to/lastmile_qr_scan"}, "name": "5ad279b3f01c11721c98685552c42ceb", "is_reserved": 0}, {"is_disabled": 0, "fusion_lon": 0.0, "fusion_lat": 0.0, "lat": 38.85882183333333, "type": "electric_scooter", "lon": -76.99029133333333, "bike_id": "553c8be07adacbb98649dab2f324fe2d", "rental_uris": {"android": "https://dc.lft.to/lastmile_qr_scan", "ios": "https://dc.lft.to/lastmile_qr_scan"}, "name": "553c8be07adacbb98649dab2f324fe2d", "is_reserved": 0}, {"is_disabled": 0, "fusion_lon": 0.0, "fusion_lat": 0.0, "lat": 38.905261333333335, "type": "electric_scooter", "lon": -77.050887, "bike_id": "14e669c46175bbd6c8e9e01371ed30cb", "rental_uris": {"android": "https://dc.lft.to/lastmile_qr_scan", "ios": "https://dc.lft.to/lastmile_qr_scan"}, "name": "14e669c46175bbd6c8e9e01371ed30cb", "is_reserved": 0}, {"is_disabled": 0, "fusion_lon": 0.0, "fusion_lat": 0.0, "lat": 38.895514166666665, "type": "electric_scooter", "lon": -77.02298183333333, "bike_id": "9a02c23db1b6a035521867c5c65d254c", "rental_uris": {"android": "https://dc.lft.to/lastmile_qr_scan", "ios": "https://dc.lft.to/lastmile_qr_scan"}, "name": "9a02c23db1b6a035521867c5c65d254c", "is_reserved": 0}, {"is_disabled": 0, "fusion_lon": 0.0, "fusion_lat": 0.0, "lat": 38.9242805, "type": "electric_scooter", "lon": -77.04477416666667, "bike_id": "e6d908063518c30e0409e4fbb5469b85", "rental_uris": {"android": "https://dc.lft.to/lastmile_qr_scan", "ios": "https://dc.lft.to/lastmile_qr_scan"}, "name": "e6d908063518c30e0409e4fbb5469b85", "is_reserved": 0}, {"is_disabled": 0, "fusion_lon": 0.0, "fusion_lat": 0.0, "lat": 38.91176816666667, "type": "electric_scooter", "lon": -77.02699266666667, "bike_id": "864dc816af5929b01860e8c7396458be", "rental_uris": {"android": "https://dc.lft.to/lastmile_qr_scan", "ios": "https://dc.lft.to/lastmile_qr_scan"}, "name": "864dc816af5929b01860e8c7396458be", "is_reserved": 0}, {"is_disabled": 0, "fusion_lon": 0.0, "fusion_lat": 0.0, "lat": 38.89480283333333, "type": "electric_scooter", "lon": -77.02282683333334, "bike_id": "d720140908c1a5b28c243001cf1242e9", "rental_uris": {"android": "https://dc.lft.to/lastmile_qr_scan", "ios": "https://dc.lft.to/lastmile_qr_scan"}, "name": "d720140908c1a5b28c243001cf1242e9", "is_reserved": 0}, {"is_disabled": 0, "fusion_lon": 0.0, "fusion_lat": 0.0, "lat": 38.935453, "type": "electric_scooter", "lon": -77.05809716666667, "bike_id": "cc410332fceae9d2789101583fd90b54", "rental_uris": {"android": "https://dc.lft.to/lastmile_qr_scan", "ios": "https://dc.lft.to/lastmile_qr_scan"}, "name": "cc410332fceae9d2789101583fd90b54", "is_reserved": 0}, {"is_disabled": 0, "fusion_lon": 0.0, "fusion_lat": 0.0, "lat": 38.9325915, "type": "electric_scooter", "lon": -77.03272666666666, "bike_id": "23bf02f54f9018c0904969cde05b0abe", "rental_uris": {"android": "https://dc.lft.to/lastmile_qr_scan", "ios": "https://dc.lft.to/lastmile_qr_scan"}, "name": "23bf02f54f9018c0904969cde05b0abe", "is_reserved": 0}, {"is_disabled": 0, "fusion_lon": 0.0, "fusion_lat": 0.0, "lat": 38.94491383333333, "type": "electric_bike", "lon": -76.9865805, "bike_id": "32ac0dc8099d644b34492d80ce4b3450", "rental_uris": {"android": "https://dc.lft.to/lastmile_qr_scan", "ios": "https://dc.lft.to/lastmile_qr_scan"}, "name": "32ac0dc8099d644b34492d80ce4b3450", "is_reserved": 0}, {"is_disabled": 0, "fusion_lon": 0.0, "fusion_lat": 0.0, "lat": 38.926353, "type": "electric_scooter", "lon": -77.03861933333333, "bike_id": "54d9e9e8f3098f7574906b1bb44c4a6b", "rental_uris": {"android": "https://dc.lft.to/lastmile_qr_scan", "ios": "https://dc.lft.to/lastmile_qr_scan"}, "name": "54d9e9e8f3098f7574906b1bb44c4a6b", "is_reserved": 0}, {"is_disabled": 0, "fusion_lon": 0.0, "fusion_lat": 0.0, "lat": 38.9370695, "type": "electric_scooter", "lon": -77.0245425, "bike_id": "d4da631918a0edc314c00362ba58240c", "rental_uris": {"android": "https://dc.lft.to/lastmile_qr_scan", "ios": "https://dc.lft.to/lastmile_qr_scan"}, "name": "d4da631918a0edc314c00362ba58240c", "is_reserved": 0}, {"is_disabled": 0, "fusion_lon": 0.0, "fusion_lat": 0.0, "lat": 38.92229783333333, "type": "electric_scooter", "lon": -76.9753365, "bike_id": "c70b103214c28143327337a2cee50a72", "rental_uris": {"android": "https://dc.lft.to/lastmile_qr_scan", "ios": "https://dc.lft.to/lastmile_qr_scan"}, "name": "c70b103214c28143327337a2cee50a72", "is_reserved": 0}, {"is_disabled": 0, "fusion_lon": 0.0, "fusion_lat": 0.0, "lat": 38.90977066666667, "type": "electric_scooter", "lon": -77.03729633333333, "bike_id": "6dc04ef0abd3bd79746f0c184a66e2db", "rental_uris": {"android": "https://dc.lft.to/lastmile_qr_scan", "ios": "https://dc.lft.to/lastmile_qr_scan"}, "name": "6dc04ef0abd3bd79746f0c184a66e2db", "is_reserved": 0}, {"is_disabled": 0, "fusion_lon": 0.0, "fusion_lat": 0.0, "lat": 38.884532666666665, "type": "electric_scooter", "lon": -76.95210866666666, "bike_id": "daf832ec701f781cc30598075f207e93", "rental_uris": {"android": "https://dc.lft.to/lastmile_qr_scan", "ios": "https://dc.lft.to/lastmile_qr_scan"}, "name": "daf832ec701f781cc30598075f207e93", "is_reserved": 0}, {"is_disabled": 0, "fusion_lon": 0.0, "fusion_lat": 0.0, "lat": 38.896285666666664, "type": "electric_scooter", "lon": -77.02672766666667, "bike_id": "0a451aa7e1ddd653d5133d24a301966f", "rental_uris": {"android": "https://dc.lft.to/lastmile_qr_scan", "ios": "https://dc.lft.to/lastmile_qr_scan"}, "name": "0a451aa7e1ddd653d5133d24a301966f", "is_reserved": 0}, {"is_disabled": 0, "fusion_lon": 0.0, "fusion_lat": 0.0, "lat": 38.9369935, "type": "electric_bike", "lon": -77.02980133333334, "bike_id": "4d104205480111c48fe97f07b8a66309", "rental_uris": {"android": "https://dc.lft.to/lastmile_qr_scan", "ios": "https://dc.lft.to/lastmile_qr_scan"}, "name": "4d104205480111c48fe97f07b8a66309", "is_reserved": 0}, {"is_disabled": 0, "fusion_lon": 0.0, "fusion_lat": 0.0, "lat": 38.91826483333333, "type": "electric_scooter", "lon": -77.03454466666666, "bike_id": "e24c0381b73303906fd0139491686698", "rental_uris": {"android": "https://dc.lft.to/lastmile_qr_scan", "ios": "https://dc.lft.to/lastmile_qr_scan"}, "name": "e24c0381b73303906fd0139491686698", "is_reserved": 0}, {"is_disabled": 0, "fusion_lon": 0.0, "fusion_lat": 0.0, "lat": 38.913122666666666, "type": "electric_scooter", "lon": -76.98481383333333, "bike_id": "32194520286f71980ea6ed0a68d1a84b", "rental_uris": {"android": "https://dc.lft.to/lastmile_qr_scan", "ios": "https://dc.lft.to/lastmile_qr_scan"}, "name": "32194520286f71980ea6ed0a68d1a84b", "is_reserved": 0}, {"is_disabled": 0, "fusion_lon": 0.0, "fusion_lat": 0.0, "lat": 38.91038316666667, "type": "electric_scooter", "lon": -77.01489633333334, "bike_id": "23ea2607a4428cab8a118c867d02d6c9", "rental_uris": {"android": "https://dc.lft.to/lastmile_qr_scan", "ios": "https://dc.lft.to/lastmile_qr_scan"}, "name": "23ea2607a4428cab8a118c867d02d6c9", "is_reserved": 0}, {"is_disabled": 0, "fusion_lon": 0.0, "fusion_lat": 0.0, "lat": 38.92251016666667, "type": "electric_scooter", "lon": -77.02990466666667, "bike_id": "b0c3e1abb8715cd6a2232426969be616", "rental_uris": {"android": "https://dc.lft.to/lastmile_qr_scan", "ios": "https://dc.lft.to/lastmile_qr_scan"}, "name": "b0c3e1abb8715cd6a2232426969be616", "is_reserved": 0}, {"is_disabled": 0, "fusion_lon": 0.0, "fusion_lat": 0.0, "lat": 38.88864683333333, "type": "electric_scooter", "lon": -76.97738266666667, "bike_id": "8648d414ca155ae7b93daad28fb556b7", "rental_uris": {"android": "https://dc.lft.to/lastmile_qr_scan", "ios": "https://dc.lft.to/lastmile_qr_scan"}, "name": "8648d414ca155ae7b93daad28fb556b7", "is_reserved": 0}, {"is_disabled": 0, "fusion_lon": 0.0, "fusion_lat": 0.0, "lat": 38.895071333333334, "type": "electric_scooter", "lon": -77.02212583333333, "bike_id": "b5839f052f631aaca47a3669d4bb1062", "rental_uris": {"android": "https://dc.lft.to/lastmile_qr_scan", "ios": "https://dc.lft.to/lastmile_qr_scan"}, "name": "b5839f052f631aaca47a3669d4bb1062", "is_reserved": 0}, {"is_disabled": 0, "fusion_lon": 0.0, "fusion_lat": 0.0, "lat": 38.8929575, "type": "electric_scooter", "lon": -77.01963916666666, "bike_id": "c82a3d333a9c9556f6d80f03a72afd8e", "rental_uris": {"android": "https://dc.lft.to/lastmile_qr_scan", "ios": "https://dc.lft.to/lastmile_qr_scan"}, "name": "c82a3d333a9c9556f6d80f03a72afd8e", "is_reserved": 0}, {"is_disabled": 0, "fusion_lon": 0.0, "fusion_lat": 0.0, "lat": 38.928734166666665, "type": "electric_scooter", "lon": -77.033334, "bike_id": "390d92d8a768bd9a55c0d36792c678a9", "rental_uris": {"android": "https://dc.lft.to/lastmile_qr_scan", "ios": "https://dc.lft.to/lastmile_qr_scan"}, "name": "390d92d8a768bd9a55c0d36792c678a9", "is_reserved": 0}, {"is_disabled": 0, "fusion_lon": 0.0, "fusion_lat": 0.0, "lat": 38.82725716666667, "type": "electric_bike", "lon": -77.00867383333333, "bike_id": "80e42250843007965b6ab2d622f46f7a", "rental_uris": {"android": "https://dc.lft.to/lastmile_qr_scan", "ios": "https://dc.lft.to/lastmile_qr_scan"}, "name": "80e42250843007965b6ab2d622f46f7a", "is_reserved": 0}, {"is_disabled": 0, "fusion_lon": 0.0, "fusion_lat": 0.0, "lat": 38.901550666666665, "type": "electric_scooter", "lon": -77.04154016666666, "bike_id": "53e6f73499f2bcefaa1cb2a77a971ffd", "rental_uris": {"android": "https://dc.lft.to/lastmile_qr_scan", "ios": "https://dc.lft.to/lastmile_qr_scan"}, "name": "53e6f73499f2bcefaa1cb2a77a971ffd", "is_reserved": 0}, {"is_disabled": 0, "fusion_lon": 0.0, "fusion_lat": 0.0, "lat": 38.831204166666666, "type": "electric_bike", "lon": -77.04321533333334, "bike_id": "95cae6e18ee513381c4cb3459d4c9959", "rental_uris": {"android": "https://dc.lft.to/lastmile_qr_scan", "ios": "https://dc.lft.to/lastmile_qr_scan"}, "name": "95cae6e18ee513381c4cb3459d4c9959", "is_reserved": 0}, {"is_disabled": 0, "fusion_lon": 0.0, "fusion_lat": 0.0, "lat": 38.91971483333333, "type": "electric_scooter", "lon": -77.04181966666667, "bike_id": "fb5c085ca9d0b315276bb1434d5ce98a", "rental_uris": {"android": "https://dc.lft.to/lastmile_qr_scan", "ios": "https://dc.lft.to/lastmile_qr_scan"}, "name": "fb5c085ca9d0b315276bb1434d5ce98a", "is_reserved": 0}, {"is_disabled": 0, "fusion_lon": 0.0, "fusion_lat": 0.0, "lat": 38.899544, "type": "electric_scooter", "lon": -77.03351566666667, "bike_id": "d1d883a8e6f13832cbb462c2dc8a7162", "rental_uris": {"android": "https://dc.lft.to/lastmile_qr_scan", "ios": "https://dc.lft.to/lastmile_qr_scan"}, "name": "d1d883a8e6f13832cbb462c2dc8a7162", "is_reserved": 0}, {"is_disabled": 0, "fusion_lon": 0.0, "fusion_lat": 0.0, "lat": 38.90741533333333, "type": "electric_scooter", "lon": -77.03451916666667, "bike_id": "7c2f2098fb00cbc5c1e9d3720f2cb791", "rental_uris": {"android": "https://dc.lft.to/lastmile_qr_scan", "ios": "https://dc.lft.to/lastmile_qr_scan"}, "name": "7c2f2098fb00cbc5c1e9d3720f2cb791", "is_reserved": 0}, {"is_disabled": 0, "fusion_lon": 0.0, "fusion_lat": 0.0, "lat": 38.89980883333333, "type": "electric_scooter", "lon": -77.02200216666667, "bike_id": "d16828e83a714151696793499527d7fd", "rental_uris": {"android": "https://dc.lft.to/lastmile_qr_scan", "ios": "https://dc.lft.to/lastmile_qr_scan"}, "name": "d16828e83a714151696793499527d7fd", "is_reserved": 0}, {"is_disabled": 0, "fusion_lon": 0.0, "fusion_lat": 0.0, "lat": 38.90139216666667, "type": "electric_scooter", "lon": -77.04171516666666, "bike_id": "dc09ce4eb4b2ed913a5c78e7c19cbe43", "rental_uris": {"android": "https://dc.lft.to/lastmile_qr_scan", "ios": "https://dc.lft.to/lastmile_qr_scan"}, "name": "dc09ce4eb4b2ed913a5c78e7c19cbe43", "is_reserved": 0}, {"is_disabled": 0, "fusion_lon": 0.0, "fusion_lat": 0.0, "lat": 38.90557616666667, "type": "electric_scooter", "lon": -77.03362766666666, "bike_id": "ee656117af1e4cc51909ef5a2eef5d14", "rental_uris": {"android": "https://dc.lft.to/lastmile_qr_scan", "ios": "https://dc.lft.to/lastmile_qr_scan"}, "name": "ee656117af1e4cc51909ef5a2eef5d14", "is_reserved": 0}, {"is_disabled": 0, "fusion_lon": 0.0, "fusion_lat": 0.0, "lat": 38.85434516666667, "type": "electric_bike", "lon": -76.90950566666666, "bike_id": "80ce87272ce4095d006e7925b1e2c6d8", "rental_uris": {"android": "https://dc.lft.to/lastmile_qr_scan", "ios": "https://dc.lft.to/lastmile_qr_scan"}, "name": "80ce87272ce4095d006e7925b1e2c6d8", "is_reserved": 0}, {"is_disabled": 0, "fusion_lon": 0.0, "fusion_lat": 0.0, "lat": 38.927082666666664, "type": "electric_scooter", "lon": -77.02331833333334, "bike_id": "1ad6a29d5c74a3b3b5bba3bcb956e473", "rental_uris": {"android": "https://dc.lft.to/lastmile_qr_scan", "ios": "https://dc.lft.to/lastmile_qr_scan"}, "name": "1ad6a29d5c74a3b3b5bba3bcb956e473", "is_reserved": 0}, {"is_disabled": 0, "fusion_lon": 0.0, "fusion_lat": 0.0, "lat": 38.91187133333333, "type": "electric_scooter", "lon": -77.0349645, "bike_id": "796b4043fff976e0919fe9134063c8b7", "rental_uris": {"android": "https://dc.lft.to/lastmile_qr_scan", "ios": "https://dc.lft.to/lastmile_qr_scan"}, "name": "796b4043fff976e0919fe9134063c8b7", "is_reserved": 0}, {"is_disabled": 0, "fusion_lon": 0.0, "fusion_lat": 0.0, "lat": 38.861250166666665, "type": "electric_scooter", "lon": -76.98562866666667, "bike_id": "1c0a6c97397d6288f226b3106f432a02", "rental_uris": {"android": "https://dc.lft.to/lastmile_qr_scan", "ios": "https://dc.lft.to/lastmile_qr_scan"}, "name": "1c0a6c97397d6288f226b3106f432a02", "is_reserved": 0}, {"is_disabled": 0, "fusion_lon": 0.0, "fusion_lat": 0.0, "lat": 38.91192016666667, "type": "electric_scooter", "lon": -77.0383275, "bike_id": "22ad832554f7f5b892184d250d9b1402", "rental_uris": {"android": "https://dc.lft.to/lastmile_qr_scan", "ios": "https://dc.lft.to/lastmile_qr_scan"}, "name": "22ad832554f7f5b892184d250d9b1402", "is_reserved": 0}, {"is_disabled": 0, "fusion_lon": 0.0, "fusion_lat": 0.0, "lat": 38.9273015, "type": "electric_scooter", "lon": -77.0224485, "bike_id": "c32d50c9da8999bee515e446c6ae4d62", "rental_uris": {"android": "https://dc.lft.to/lastmile_qr_scan", "ios": "https://dc.lft.to/lastmile_qr_scan"}, "name": "c32d50c9da8999bee515e446c6ae4d62", "is_reserved": 0}, {"is_disabled": 0, "fusion_lon": 0.0, "fusion_lat": 0.0, "lat": 38.928224666666665, "type": "electric_scooter", "lon": -77.0139405, "bike_id": "8b99d695a53e0b69591b66d276a56fec", "rental_uris": {"android": "https://dc.lft.to/lastmile_qr_scan", "ios": "https://dc.lft.to/lastmile_qr_scan"}, "name": "8b99d695a53e0b69591b66d276a56fec", "is_reserved": 0}, {"is_disabled": 0, "fusion_lon": 0.0, "fusion_lat": 0.0, "lat": 38.9095805, "type": "electric_scooter", "lon": -77.02304666666667, "bike_id": "29a4f4bf2e3d867a76db2972010fb7ce", "rental_uris": {"android": "https://dc.lft.to/lastmile_qr_scan", "ios": "https://dc.lft.to/lastmile_qr_scan"}, "name": "29a4f4bf2e3d867a76db2972010fb7ce", "is_reserved": 0}, {"is_disabled": 0, "fusion_lon": 0.0, "fusion_lat": 0.0, "lat": 38.900453666666664, "type": "electric_scooter", "lon": -76.92271083333333, "bike_id": "fd2a46919f29b53e2cbf494b63f1ecc4", "rental_uris": {"android": "https://dc.lft.to/lastmile_qr_scan", "ios": "https://dc.lft.to/lastmile_qr_scan"}, "name": "fd2a46919f29b53e2cbf494b63f1ecc4", "is_reserved": 0}, {"is_disabled": 0, "fusion_lon": 0.0, "fusion_lat": 0.0, "lat": 38.893753333333336, "type": "electric_scooter", "lon": -76.94995283333333, "bike_id": "5b7e4e3972a5c1f531e28dad459e3ac9", "rental_uris": {"android": "https://dc.lft.to/lastmile_qr_scan", "ios": "https://dc.lft.to/lastmile_qr_scan"}, "name": "5b7e4e3972a5c1f531e28dad459e3ac9", "is_reserved": 0}, {"is_disabled": 0, "fusion_lon": 0.0, "fusion_lat": 0.0, "lat": 38.90016166666667, "type": "electric_scooter", "lon": -77.01209933333334, "bike_id": "73d56e120922273a8ed033bba9682efc", "rental_uris": {"android": "https://dc.lft.to/lastmile_qr_scan", "ios": "https://dc.lft.to/lastmile_qr_scan"}, "name": "73d56e120922273a8ed033bba9682efc", "is_reserved": 0}, {"is_disabled": 0, "fusion_lon": 0.0, "fusion_lat": 0.0, "lat": 38.928421166666666, "type": "electric_scooter", "lon": -77.01392166666666, "bike_id": "82464376a488db59a56fcf90b9e1ae13", "rental_uris": {"android": "https://dc.lft.to/lastmile_qr_scan", "ios": "https://dc.lft.to/lastmile_qr_scan"}, "name": "82464376a488db59a56fcf90b9e1ae13", "is_reserved": 0}, {"is_disabled": 0, "fusion_lon": 0.0, "fusion_lat": 0.0, "lat": 38.9254, "type": "electric_scooter", "lon": -77.07652366666667, "bike_id": "85b0ee6d707a1009f47e16f9e0e5f125", "rental_uris": {"android": "https://dc.lft.to/lastmile_qr_scan", "ios": "https://dc.lft.to/lastmile_qr_scan"}, "name": "85b0ee6d707a1009f47e16f9e0e5f125", "is_reserved": 0}, {"is_disabled": 0, "fusion_lon": 0.0, "fusion_lat": 0.0, "lat": 38.904390666666664, "type": "electric_scooter", "lon": -77.03436616666667, "bike_id": "3fcf63caf99bdd92d0d5f059f419be07", "rental_uris": {"android": "https://dc.lft.to/lastmile_qr_scan", "ios": "https://dc.lft.to/lastmile_qr_scan"}, "name": "3fcf63caf99bdd92d0d5f059f419be07", "is_reserved": 0}, {"is_disabled": 0, "fusion_lon": 0.0, "fusion_lat": 0.0, "lat": 38.8946995, "type": "electric_scooter", "lon": -76.99410966666667, "bike_id": "944d6ec324d747ead1f87d664f6f6171", "rental_uris": {"android": "https://dc.lft.to/lastmile_qr_scan", "ios": "https://dc.lft.to/lastmile_qr_scan"}, "name": "944d6ec324d747ead1f87d664f6f6171", "is_reserved": 0}, {"is_disabled": 0, "fusion_lon": 0.0, "fusion_lat": 0.0, "lat": 38.89965383333333, "type": "electric_scooter", "lon": -77.04790066666666, "bike_id": "84c5f468ee1b9527becee7eb3b07a602", "rental_uris": {"android": "https://dc.lft.to/lastmile_qr_scan", "ios": "https://dc.lft.to/lastmile_qr_scan"}, "name": "84c5f468ee1b9527becee7eb3b07a602", "is_reserved": 0}, {"is_disabled": 0, "fusion_lon": 0.0, "fusion_lat": 0.0, "lat": 38.90707066666667, "type": "electric_scooter", "lon": -76.98689966666667, "bike_id": "2aebe8d4bc95f95b604192c8c3e36d69", "rental_uris": {"android": "https://dc.lft.to/lastmile_qr_scan", "ios": "https://dc.lft.to/lastmile_qr_scan"}, "name": "2aebe8d4bc95f95b604192c8c3e36d69", "is_reserved": 0}, {"is_disabled": 0, "fusion_lon": 0.0, "fusion_lat": 0.0, "lat": 38.897573333333334, "type": "electric_scooter", "lon": -77.05154, "bike_id": "5109a50d133f1d8defbe3ad01106dc09", "rental_uris": {"android": "https://dc.lft.to/lastmile_qr_scan", "ios": "https://dc.lft.to/lastmile_qr_scan"}, "name": "5109a50d133f1d8defbe3ad01106dc09", "is_reserved": 0}, {"is_disabled": 0, "fusion_lon": 0.0, "fusion_lat": 0.0, "lat": 38.89306066666666, "type": "electric_scooter", "lon": -77.02139266666667, "bike_id": "6f29369dd59aa82f88e259f8fd85bbe8", "rental_uris": {"android": "https://dc.lft.to/lastmile_qr_scan", "ios": "https://dc.lft.to/lastmile_qr_scan"}, "name": "6f29369dd59aa82f88e259f8fd85bbe8", "is_reserved": 0}, {"is_disabled": 0, "fusion_lon": 0.0, "fusion_lat": 0.0, "lat": 38.898422833333335, "type": "electric_scooter", "lon": -76.9449445, "bike_id": "6ffb7b79fe4d0d0c76fba6930b9267ef", "rental_uris": {"android": "https://dc.lft.to/lastmile_qr_scan", "ios": "https://dc.lft.to/lastmile_qr_scan"}, "name": "6ffb7b79fe4d0d0c76fba6930b9267ef", "is_reserved": 0}, {"is_disabled": 0, "fusion_lon": 0.0, "fusion_lat": 0.0, "lat": 38.94189266666667, "type": "electric_scooter", "lon": -77.04259266666666, "bike_id": "48fdfed32ee35ea0c1df08d1cf47f4d8", "rental_uris": {"android": "https://dc.lft.to/lastmile_qr_scan", "ios": "https://dc.lft.to/lastmile_qr_scan"}, "name": "48fdfed32ee35ea0c1df08d1cf47f4d8", "is_reserved": 0}, {"is_disabled": 0, "fusion_lon": 0.0, "fusion_lat": 0.0, "lat": 38.890415833333336, "type": "electric_scooter", "lon": -76.937525, "bike_id": "46fe474e44e8f041cd5ba71d5a1978f2", "rental_uris": {"android": "https://dc.lft.to/lastmile_qr_scan", "ios": "https://dc.lft.to/lastmile_qr_scan"}, "name": "46fe474e44e8f041cd5ba71d5a1978f2", "is_reserved": 0}, {"is_disabled": 0, "fusion_lon": 0.0, "fusion_lat": 0.0, "lat": 38.96052533333334, "type": "electric_scooter", "lon": -77.0857505, "bike_id": "2de3bb7d5e06e80b088f079b98663943", "rental_uris": {"android": "https://dc.lft.to/lastmile_qr_scan", "ios": "https://dc.lft.to/lastmile_qr_scan"}, "name": "2de3bb7d5e06e80b088f079b98663943", "is_reserved": 0}, {"is_disabled": 0, "fusion_lon": 0.0, "fusion_lat": 0.0, "lat": 38.906028666666664, "type": "electric_scooter", "lon": -77.01621566666667, "bike_id": "f2edaddee9a35c9c3043141a499b1199", "rental_uris": {"android": "https://dc.lft.to/lastmile_qr_scan", "ios": "https://dc.lft.to/lastmile_qr_scan"}, "name": "f2edaddee9a35c9c3043141a499b1199", "is_reserved": 0}, {"is_disabled": 0, "fusion_lon": 0.0, "fusion_lat": 0.0, "lat": 38.923112333333336, "type": "electric_scooter", "lon": -77.0392565, "bike_id": "d29056fa5a0ef60331e0cc9c10e6c118", "rental_uris": {"android": "https://dc.lft.to/lastmile_qr_scan", "ios": "https://dc.lft.to/lastmile_qr_scan"}, "name": "d29056fa5a0ef60331e0cc9c10e6c118", "is_reserved": 0}, {"is_disabled": 0, "fusion_lon": 0.0, "fusion_lat": 0.0, "lat": 38.93152466666667, "type": "electric_scooter", "lon": -77.0413575, "bike_id": "cd5192112ced0a649a699534e868ca03", "rental_uris": {"android": "https://dc.lft.to/lastmile_qr_scan", "ios": "https://dc.lft.to/lastmile_qr_scan"}, "name": "cd5192112ced0a649a699534e868ca03", "is_reserved": 0}, {"is_disabled": 0, "fusion_lon": 0.0, "fusion_lat": 0.0, "lat": 39.022978333333334, "type": "electric_bike", "lon": -77.02100316666667, "bike_id": "0fa97e120006068638205a6009338ac9", "rental_uris": {"android": "https://dc.lft.to/lastmile_qr_scan", "ios": "https://dc.lft.to/lastmile_qr_scan"}, "name": "0fa97e120006068638205a6009338ac9", "is_reserved": 0}, {"is_disabled": 0, "fusion_lon": 0.0, "fusion_lat": 0.0, "lat": 38.904584666666665, "type": "electric_scooter", "lon": -77.048624, "bike_id": "f016ddc299ec36006cc11c11ff2197ef", "rental_uris": {"android": "https://dc.lft.to/lastmile_qr_scan", "ios": "https://dc.lft.to/lastmile_qr_scan"}, "name": "f016ddc299ec36006cc11c11ff2197ef", "is_reserved": 0}, {"is_disabled": 0, "fusion_lon": 0.0, "fusion_lat": 0.0, "lat": 38.911197666666666, "type": "electric_scooter", "lon": -77.02240066666667, "bike_id": "896ce8ccffd1561bb59e4cf166576216", "rental_uris": {"android": "https://dc.lft.to/lastmile_qr_scan", "ios": "https://dc.lft.to/lastmile_qr_scan"}, "name": "896ce8ccffd1561bb59e4cf166576216", "is_reserved": 0}, {"is_disabled": 0, "fusion_lon": 0.0, "fusion_lat": 0.0, "lat": 38.94197, "type": "electric_scooter", "lon": -77.02577216666667, "bike_id": "13b0a8984fbe5b9774d36de2d9e24278", "rental_uris": {"android": "https://dc.lft.to/lastmile_qr_scan", "ios": "https://dc.lft.to/lastmile_qr_scan"}, "name": "13b0a8984fbe5b9774d36de2d9e24278", "is_reserved": 0}, {"is_disabled": 0, "fusion_lon": 0.0, "fusion_lat": 0.0, "lat": 38.94973933333333, "type": "electric_scooter", "lon": -77.06762433333333, "bike_id": "8720b51da77b90be8891cbfcd25adfb1", "rental_uris": {"android": "https://dc.lft.to/lastmile_qr_scan", "ios": "https://dc.lft.to/lastmile_qr_scan"}, "name": "8720b51da77b90be8891cbfcd25adfb1", "is_reserved": 0}, {"is_disabled": 0, "fusion_lon": 0.0, "fusion_lat": 0.0, "lat": 38.919859333333335, "type": "electric_scooter", "lon": -76.97318116666666, "bike_id": "32c6323e37e0c00d081916532cb0e0f3", "rental_uris": {"android": "https://dc.lft.to/lastmile_qr_scan", "ios": "https://dc.lft.to/lastmile_qr_scan"}, "name": "32c6323e37e0c00d081916532cb0e0f3", "is_reserved": 0}, {"is_disabled": 0, "fusion_lon": 0.0, "fusion_lat": 0.0, "lat": 38.93320583333333, "type": "electric_scooter", "lon": -77.02933783333333, "bike_id": "547201a7d5eed27d872ef60b29b6d2ae", "rental_uris": {"android": "https://dc.lft.to/lastmile_qr_scan", "ios": "https://dc.lft.to/lastmile_qr_scan"}, "name": "547201a7d5eed27d872ef60b29b6d2ae", "is_reserved": 0}, {"is_disabled": 0, "fusion_lon": 0.0, "fusion_lat": 0.0, "lat": 38.99995966666667, "type": "electric_bike", "lon": -76.91803833333333, "bike_id": "0283094c155a06ad348eabd9e873e1d0", "rental_uris": {"android": "https://dc.lft.to/lastmile_qr_scan", "ios": "https://dc.lft.to/lastmile_qr_scan"}, "name": "0283094c155a06ad348eabd9e873e1d0", "is_reserved": 0}, {"is_disabled": 0, "fusion_lon": 0.0, "fusion_lat": 0.0, "lat": 38.935316, "type": "electric_scooter", "lon": -77.02063916666667, "bike_id": "6c7fbd141da657a3c8341f7367c578d4", "rental_uris": {"android": "https://dc.lft.to/lastmile_qr_scan", "ios": "https://dc.lft.to/lastmile_qr_scan"}, "name": "6c7fbd141da657a3c8341f7367c578d4", "is_reserved": 0}, {"is_disabled": 0, "fusion_lon": 0.0, "fusion_lat": 0.0, "lat": 38.90415133333333, "type": "electric_scooter", "lon": -76.99058916666667, "bike_id": "42996ef5bc0b31f82720ec82f14c3962", "rental_uris": {"android": "https://dc.lft.to/lastmile_qr_scan", "ios": "https://dc.lft.to/lastmile_qr_scan"}, "name": "42996ef5bc0b31f82720ec82f14c3962", "is_reserved": 0}, {"is_disabled": 0, "fusion_lon": 0.0, "fusion_lat": 0.0, "lat": 38.90532833333333, "type": "electric_scooter", "lon": -77.049065, "bike_id": "9fcfeae2f0888c29622e376176392650", "rental_uris": {"android": "https://dc.lft.to/lastmile_qr_scan", "ios": "https://dc.lft.to/lastmile_qr_scan"}, "name": "9fcfeae2f0888c29622e376176392650", "is_reserved": 0}, {"is_disabled": 0, "fusion_lon": 0.0, "fusion_lat": 0.0, "lat": 38.92845533333333, "type": "electric_scooter", "lon": -77.0139905, "bike_id": "5d3208d712fa023c86428db26661e51c", "rental_uris": {"android": "https://dc.lft.to/lastmile_qr_scan", "ios": "https://dc.lft.to/lastmile_qr_scan"}, "name": "5d3208d712fa023c86428db26661e51c", "is_reserved": 0}, {"is_disabled": 0, "fusion_lon": 0.0, "fusion_lat": 0.0, "lat": 38.8419945, "type": "electric_bike", "lon": -77.1068395, "bike_id": "a06db12cdc260644fbec932f9c8865b9", "rental_uris": {"android": "https://dc.lft.to/lastmile_qr_scan", "ios": "https://dc.lft.to/lastmile_qr_scan"}, "name": "a06db12cdc260644fbec932f9c8865b9", "is_reserved": 0}, {"is_disabled": 0, "fusion_lon": 0.0, "fusion_lat": 0.0, "lat": 38.895396833333336, "type": "electric_scooter", "lon": -77.02941, "bike_id": "93445b6f867b0519e6da0cebc01fdf29", "rental_uris": {"android": "https://dc.lft.to/lastmile_qr_scan", "ios": "https://dc.lft.to/lastmile_qr_scan"}, "name": "93445b6f867b0519e6da0cebc01fdf29", "is_reserved": 0}, {"is_disabled": 0, "fusion_lon": 0.0, "fusion_lat": 0.0, "lat": 38.88892516666667, "type": "electric_scooter", "lon": -77.01550216666666, "bike_id": "d4b66bde5046f7001d0f95a289f7019a", "rental_uris": {"android": "https://dc.lft.to/lastmile_qr_scan", "ios": "https://dc.lft.to/lastmile_qr_scan"}, "name": "d4b66bde5046f7001d0f95a289f7019a", "is_reserved": 0}, {"is_disabled": 0, "fusion_lon": 0.0, "fusion_lat": 0.0, "lat": 38.907662333333334, "type": "electric_scooter", "lon": -77.03857466666666, "bike_id": "2b14cf1bf4bccd66909fafb4f71b7c98", "rental_uris": {"android": "https://dc.lft.to/lastmile_qr_scan", "ios": "https://dc.lft.to/lastmile_qr_scan"}, "name": "2b14cf1bf4bccd66909fafb4f71b7c98", "is_reserved": 0}, {"is_disabled": 0, "fusion_lon": 0.0, "fusion_lat": 0.0, "lat": 38.912593666666666, "type": "electric_scooter", "lon": -77.04777333333334, "bike_id": "952f63703681ae1de0f04e7b0b29bc1b", "rental_uris": {"android": "https://dc.lft.to/lastmile_qr_scan", "ios": "https://dc.lft.to/lastmile_qr_scan"}, "name": "952f63703681ae1de0f04e7b0b29bc1b", "is_reserved": 0}, {"is_disabled": 0, "fusion_lon": 0.0, "fusion_lat": 0.0, "lat": 38.924831, "type": "electric_scooter", "lon": -77.02711333333333, "bike_id": "5aa9eb6ea0ce60f6a72f32bc71eb4b8c", "rental_uris": {"android": "https://dc.lft.to/lastmile_qr_scan", "ios": "https://dc.lft.to/lastmile_qr_scan"}, "name": "5aa9eb6ea0ce60f6a72f32bc71eb4b8c", "is_reserved": 0}, {"is_disabled": 0, "fusion_lon": 0.0, "fusion_lat": 0.0, "lat": 38.96759216666667, "type": "electric_bike", "lon": -77.09159583333333, "bike_id": "71776dbcd0e07d121e920de8b4a2358e", "rental_uris": {"android": "https://dc.lft.to/lastmile_qr_scan", "ios": "https://dc.lft.to/lastmile_qr_scan"}, "name": "71776dbcd0e07d121e920de8b4a2358e", "is_reserved": 0}, {"is_disabled": 0, "fusion_lon": 0.0, "fusion_lat": 0.0, "lat": 38.897345333333334, "type": "electric_scooter", "lon": -77.02613066666666, "bike_id": "b764991ad4a03b963e5b82b8d84bf0d9", "rental_uris": {"android": "https://dc.lft.to/lastmile_qr_scan", "ios": "https://dc.lft.to/lastmile_qr_scan"}, "name": "b764991ad4a03b963e5b82b8d84bf0d9", "is_reserved": 0}, {"is_disabled": 0, "fusion_lon": 0.0, "fusion_lat": 0.0, "lat": 38.91567116666667, "type": "electric_scooter", "lon": -77.0417285, "bike_id": "28ba6e6a3def294ed93676a641a132ca", "rental_uris": {"android": "https://dc.lft.to/lastmile_qr_scan", "ios": "https://dc.lft.to/lastmile_qr_scan"}, "name": "28ba6e6a3def294ed93676a641a132ca", "is_reserved": 0}, {"is_disabled": 0, "fusion_lon": 0.0, "fusion_lat": 0.0, "lat": 38.85806983333333, "type": "electric_scooter", "lon": -76.98653366666667, "bike_id": "07b5a0e05de1510e580fa46827338a45", "rental_uris": {"android": "https://dc.lft.to/lastmile_qr_scan", "ios": "https://dc.lft.to/lastmile_qr_scan"}, "name": "07b5a0e05de1510e580fa46827338a45", "is_reserved": 0}, {"is_disabled": 0, "fusion_lon": 0.0, "fusion_lat": 0.0, "lat": 38.9126695, "type": "electric_scooter", "lon": -77.01696666666666, "bike_id": "6880053b302264fb927f1f2c77f37a48", "rental_uris": {"android": "https://dc.lft.to/lastmile_qr_scan", "ios": "https://dc.lft.to/lastmile_qr_scan"}, "name": "6880053b302264fb927f1f2c77f37a48", "is_reserved": 0}, {"is_disabled": 0, "fusion_lon": 0.0, "fusion_lat": 0.0, "lat": 38.90119083333333, "type": "electric_scooter", "lon": -77.01196466666667, "bike_id": "c915c7793c1647ac0efa6758fbc0699c", "rental_uris": {"android": "https://dc.lft.to/lastmile_qr_scan", "ios": "https://dc.lft.to/lastmile_qr_scan"}, "name": "c915c7793c1647ac0efa6758fbc0699c", "is_reserved": 0}, {"is_disabled": 0, "fusion_lon": 0.0, "fusion_lat": 0.0, "lat": 38.9985945, "type": "electric_bike", "lon": -77.0289685, "bike_id": "69aa27cd402886d67d2a6ad5b73e807e", "rental_uris": {"android": "https://dc.lft.to/lastmile_qr_scan", "ios": "https://dc.lft.to/lastmile_qr_scan"}, "name": "69aa27cd402886d67d2a6ad5b73e807e", "is_reserved": 0}, {"is_disabled": 0, "fusion_lon": 0.0, "fusion_lat": 0.0, "lat": 38.905059333333334, "type": "electric_scooter", "lon": -77.0249245, "bike_id": "a8baa0e4e84c793fe2c7f6bc14b1ee02", "rental_uris": {"android": "https://dc.lft.to/lastmile_qr_scan", "ios": "https://dc.lft.to/lastmile_qr_scan"}, "name": "a8baa0e4e84c793fe2c7f6bc14b1ee02", "is_reserved": 0}, {"is_disabled": 0, "fusion_lon": 0.0, "fusion_lat": 0.0, "lat": 38.9092775, "type": "electric_scooter", "lon": -77.0232735, "bike_id": "9bbbdb59e8b2a98a4a46564de9a96f85", "rental_uris": {"android": "https://dc.lft.to/lastmile_qr_scan", "ios": "https://dc.lft.to/lastmile_qr_scan"}, "name": "9bbbdb59e8b2a98a4a46564de9a96f85", "is_reserved": 0}, {"is_disabled": 0, "fusion_lon": 0.0, "fusion_lat": 0.0, "lat": 38.900143, "type": "electric_scooter", "lon": -77.01193666666667, "bike_id": "784d2b09acb28935803ed035b151e0db", "rental_uris": {"android": "https://dc.lft.to/lastmile_qr_scan", "ios": "https://dc.lft.to/lastmile_qr_scan"}, "name": "784d2b09acb28935803ed035b151e0db", "is_reserved": 0}, {"is_disabled": 0, "fusion_lon": 0.0, "fusion_lat": 0.0, "lat": 38.916053, "type": "electric_scooter", "lon": -77.03184533333334, "bike_id": "4c2dbbb9ad6047ac1247f87b825b8ab1", "rental_uris": {"android": "https://dc.lft.to/lastmile_qr_scan", "ios": "https://dc.lft.to/lastmile_qr_scan"}, "name": "4c2dbbb9ad6047ac1247f87b825b8ab1", "is_reserved": 0}, {"is_disabled": 0, "fusion_lon": 0.0, "fusion_lat": 0.0, "lat": 38.98504533333333, "type": "electric_bike", "lon": -76.98207466666666, "bike_id": "1e0dac5bd2e9d47f21bace1dc5dde3a9", "rental_uris": {"android": "https://dc.lft.to/lastmile_qr_scan", "ios": "https://dc.lft.to/lastmile_qr_scan"}, "name": "1e0dac5bd2e9d47f21bace1dc5dde3a9", "is_reserved": 0}, {"is_disabled": 0, "fusion_lon": 0.0, "fusion_lat": 0.0, "lat": 38.9168155, "type": "electric_scooter", "lon": -77.041428, "bike_id": "5571f5c3856adeb48f62b90d0d72b9f6", "rental_uris": {"android": "https://dc.lft.to/lastmile_qr_scan", "ios": "https://dc.lft.to/lastmile_qr_scan"}, "name": "5571f5c3856adeb48f62b90d0d72b9f6", "is_reserved": 0}, {"is_disabled": 0, "fusion_lon": 0.0, "fusion_lat": 0.0, "lat": 38.9197055, "type": "electric_scooter", "lon": -77.04179633333334, "bike_id": "6dd70e469e14a22551200616d3f7c1a5", "rental_uris": {"android": "https://dc.lft.to/lastmile_qr_scan", "ios": "https://dc.lft.to/lastmile_qr_scan"}, "name": "6dd70e469e14a22551200616d3f7c1a5", "is_reserved": 0}, {"is_disabled": 0, "fusion_lon": 0.0, "fusion_lat": 0.0, "lat": 38.91964333333333, "type": "electric_scooter", "lon": -77.04165333333333, "bike_id": "f55b646ef6c03570f7661fae9565d72b", "rental_uris": {"android": "https://dc.lft.to/lastmile_qr_scan", "ios": "https://dc.lft.to/lastmile_qr_scan"}, "name": "f55b646ef6c03570f7661fae9565d72b", "is_reserved": 0}, {"is_disabled": 0, "fusion_lon": 0.0, "fusion_lat": 0.0, "lat": 38.95612233333333, "type": "electric_scooter", "lon": -77.02763, "bike_id": "f2824c00ccdd4305fcda658e03d24e3b", "rental_uris": {"android": "https://dc.lft.to/lastmile_qr_scan", "ios": "https://dc.lft.to/lastmile_qr_scan"}, "name": "f2824c00ccdd4305fcda658e03d24e3b", "is_reserved": 0}, {"is_disabled": 0, "fusion_lon": 0.0, "fusion_lat": 0.0, "lat": 38.9070175, "type": "electric_scooter", "lon": -77.06312583333333, "bike_id": "6f908829eff954f33005be796c5a977b", "rental_uris": {"android": "https://dc.lft.to/lastmile_qr_scan", "ios": "https://dc.lft.to/lastmile_qr_scan"}, "name": "6f908829eff954f33005be796c5a977b", "is_reserved": 0}, {"is_disabled": 0, "fusion_lon": 0.0, "fusion_lat": 0.0, "lat": 38.890122833333336, "type": "electric_scooter", "lon": -77.03321433333333, "bike_id": "373f313b9ca931a5cec09e0cd1cc5099", "rental_uris": {"android": "https://dc.lft.to/lastmile_qr_scan", "ios": "https://dc.lft.to/lastmile_qr_scan"}, "name": "373f313b9ca931a5cec09e0cd1cc5099", "is_reserved": 0}, {"is_disabled": 0, "fusion_lon": 0.0, "fusion_lat": 0.0, "lat": 38.88917716666667, "type": "electric_scooter", "lon": -76.98000733333333, "bike_id": "deaa9a05b8a939ebf549606d79f70239", "rental_uris": {"android": "https://dc.lft.to/lastmile_qr_scan", "ios": "https://dc.lft.to/lastmile_qr_scan"}, "name": "deaa9a05b8a939ebf549606d79f70239", "is_reserved": 0}, {"is_disabled": 0, "fusion_lon": 0.0, "fusion_lat": 0.0, "lat": 38.9170645, "type": "electric_scooter", "lon": -77.02618833333334, "bike_id": "9f01c111c99e86836d46cc445509cf04", "rental_uris": {"android": "https://dc.lft.to/lastmile_qr_scan", "ios": "https://dc.lft.to/lastmile_qr_scan"}, "name": "9f01c111c99e86836d46cc445509cf04", "is_reserved": 0}, {"is_disabled": 0, "fusion_lon": 0.0, "fusion_lat": 0.0, "lat": 38.924373833333334, "type": "electric_bike", "lon": -76.90757583333334, "bike_id": "e7bd2992dc0abe00b7496126a1b60aa5", "rental_uris": {"android": "https://dc.lft.to/lastmile_qr_scan", "ios": "https://dc.lft.to/lastmile_qr_scan"}, "name": "e7bd2992dc0abe00b7496126a1b60aa5", "is_reserved": 0}, {"is_disabled": 0, "fusion_lon": 0.0, "fusion_lat": 0.0, "lat": 38.922168166666665, "type": "electric_scooter", "lon": -77.04334333333334, "bike_id": "65b80d18445bbef017e0a832c35b6ab2", "rental_uris": {"android": "https://dc.lft.to/lastmile_qr_scan", "ios": "https://dc.lft.to/lastmile_qr_scan"}, "name": "65b80d18445bbef017e0a832c35b6ab2", "is_reserved": 0}, {"is_disabled": 0, "fusion_lon": 0.0, "fusion_lat": 0.0, "lat": 39.03882316666667, "type": "electric_bike", "lon": -77.10910566666666, "bike_id": "9d2bcc660318cf3a808f0df82b10502d", "rental_uris": {"android": "https://dc.lft.to/lastmile_qr_scan", "ios": "https://dc.lft.to/lastmile_qr_scan"}, "name": "9d2bcc660318cf3a808f0df82b10502d", "is_reserved": 0}, {"is_disabled": 0, "fusion_lon": 0.0, "fusion_lat": 0.0, "lat": 38.892148666666664, "type": "electric_bike", "lon": -76.98554266666666, "bike_id": "d7168348f30a459ecb9adc77d89f9380", "rental_uris": {"android": "https://dc.lft.to/lastmile_qr_scan", "ios": "https://dc.lft.to/lastmile_qr_scan"}, "name": "d7168348f30a459ecb9adc77d89f9380", "is_reserved": 0}, {"is_disabled": 0, "fusion_lon": 0.0, "fusion_lat": 0.0, "lat": 38.885793166666666, "type": "electric_scooter", "lon": -76.91906966666667, "bike_id": "e87217d3d5bdb33737caa16a5ee97de3", "rental_uris": {"android": "https://dc.lft.to/lastmile_qr_scan", "ios": "https://dc.lft.to/lastmile_qr_scan"}, "name": "e87217d3d5bdb33737caa16a5ee97de3", "is_reserved": 0}, {"is_disabled": 0, "fusion_lon": 0.0, "fusion_lat": 0.0, "lat": 38.8983475, "type": "electric_scooter", "lon": -77.02954333333334, "bike_id": "24e1c2c4f4941f915af0ce2eea8eb41d", "rental_uris": {"android": "https://dc.lft.to/lastmile_qr_scan", "ios": "https://dc.lft.to/lastmile_qr_scan"}, "name": "24e1c2c4f4941f915af0ce2eea8eb41d", "is_reserved": 0}, {"is_disabled": 0, "fusion_lon": 0.0, "fusion_lat": 0.0, "lat": 38.9366695, "type": "electric_bike", "lon": -76.95204766666667, "bike_id": "b17e06413b18f4c44d60478dcd667083", "rental_uris": {"android": "https://dc.lft.to/lastmile_qr_scan", "ios": "https://dc.lft.to/lastmile_qr_scan"}, "name": "b17e06413b18f4c44d60478dcd667083", "is_reserved": 0}, {"is_disabled": 0, "fusion_lon": 0.0, "fusion_lat": 0.0, "lat": 38.897309, "type": "electric_scooter", "lon": -77.00374033333334, "bike_id": "dbde6cbfcf5f3055b46cc1eefd2ce532", "rental_uris": {"android": "https://dc.lft.to/lastmile_qr_scan", "ios": "https://dc.lft.to/lastmile_qr_scan"}, "name": "dbde6cbfcf5f3055b46cc1eefd2ce532", "is_reserved": 0}, {"is_disabled": 0, "fusion_lon": 0.0, "fusion_lat": 0.0, "lat": 38.95606083333333, "type": "electric_scooter", "lon": -77.02785416666667, "bike_id": "b8276ad0838460be020c116cda130a20", "rental_uris": {"android": "https://dc.lft.to/lastmile_qr_scan", "ios": "https://dc.lft.to/lastmile_qr_scan"}, "name": "b8276ad0838460be020c116cda130a20", "is_reserved": 0}, {"is_disabled": 0, "fusion_lon": 0.0, "fusion_lat": 0.0, "lat": 38.938614, "type": "electric_scooter", "lon": -77.02650233333334, "bike_id": "a0cba0cf9f5aafb5683082505609a41a", "rental_uris": {"android": "https://dc.lft.to/lastmile_qr_scan", "ios": "https://dc.lft.to/lastmile_qr_scan"}, "name": "a0cba0cf9f5aafb5683082505609a41a", "is_reserved": 0}, {"is_disabled": 0, "fusion_lon": 0.0, "fusion_lat": 0.0, "lat": 38.9532845, "type": "electric_scooter", "lon": -77.06848233333334, "bike_id": "143410e46a2fe2a819e095727da38e23", "rental_uris": {"android": "https://dc.lft.to/lastmile_qr_scan", "ios": "https://dc.lft.to/lastmile_qr_scan"}, "name": "143410e46a2fe2a819e095727da38e23", "is_reserved": 0}, {"is_disabled": 0, "fusion_lon": 0.0, "fusion_lat": 0.0, "lat": 38.926397, "type": "electric_bike", "lon": -77.03824766666666, "bike_id": "a62c263868d43f3998f6ea4b02852920", "rental_uris": {"android": "https://dc.lft.to/lastmile_qr_scan", "ios": "https://dc.lft.to/lastmile_qr_scan"}, "name": "a62c263868d43f3998f6ea4b02852920", "is_reserved": 0}, {"is_disabled": 0, "fusion_lon": 0.0, "fusion_lat": 0.0, "lat": 38.9003525, "type": "electric_scooter", "lon": -77.00200166666667, "bike_id": "49d7b54a51190cd4aab964f536963e4c", "rental_uris": {"android": "https://dc.lft.to/lastmile_qr_scan", "ios": "https://dc.lft.to/lastmile_qr_scan"}, "name": "49d7b54a51190cd4aab964f536963e4c", "is_reserved": 0}, {"is_disabled": 0, "fusion_lon": 0.0, "fusion_lat": 0.0, "lat": 38.91801133333333, "type": "electric_scooter", "lon": -77.04033583333333, "bike_id": "17d935d486dbd8ec6499ff7364ec229d", "rental_uris": {"android": "https://dc.lft.to/lastmile_qr_scan", "ios": "https://dc.lft.to/lastmile_qr_scan"}, "name": "17d935d486dbd8ec6499ff7364ec229d", "is_reserved": 0}, {"is_disabled": 0, "fusion_lon": 0.0, "fusion_lat": 0.0, "lat": 38.915619666666665, "type": "electric_scooter", "lon": -77.03271316666667, "bike_id": "d4b4324ce3cbb45c6cebd4652b7cdef4", "rental_uris": {"android": "https://dc.lft.to/lastmile_qr_scan", "ios": "https://dc.lft.to/lastmile_qr_scan"}, "name": "d4b4324ce3cbb45c6cebd4652b7cdef4", "is_reserved": 0}, {"is_disabled": 0, "fusion_lon": 0.0, "fusion_lat": 0.0, "lat": 38.927576, "type": "electric_scooter", "lon": -77.00590616666666, "bike_id": "a4573d0ff51a4545d09118ef60f5b5d4", "rental_uris": {"android": "https://dc.lft.to/lastmile_qr_scan", "ios": "https://dc.lft.to/lastmile_qr_scan"}, "name": "a4573d0ff51a4545d09118ef60f5b5d4", "is_reserved": 0}, {"is_disabled": 0, "fusion_lon": 0.0, "fusion_lat": 0.0, "lat": 38.876501833333336, "type": "electric_scooter", "lon": -77.00604183333333, "bike_id": "137741d7f95c6bc4dad34f1c542ab7fb", "rental_uris": {"android": "https://dc.lft.to/lastmile_qr_scan", "ios": "https://dc.lft.to/lastmile_qr_scan"}, "name": "137741d7f95c6bc4dad34f1c542ab7fb", "is_reserved": 0}, {"is_disabled": 0, "fusion_lon": 0.0, "fusion_lat": 0.0, "lat": 38.91415883333333, "type": "electric_scooter", "lon": -77.02234166666666, "bike_id": "7c997649d53b7cf2d6dd12575f9d0cdf", "rental_uris": {"android": "https://dc.lft.to/lastmile_qr_scan", "ios": "https://dc.lft.to/lastmile_qr_scan"}, "name": "7c997649d53b7cf2d6dd12575f9d0cdf", "is_reserved": 0}, {"is_disabled": 0, "fusion_lon": 0.0, "fusion_lat": 0.0, "lat": 38.91935316666667, "type": "electric_scooter", "lon": -76.98071066666667, "bike_id": "ac18cb9a7f71e6d8150d6165591215d5", "rental_uris": {"android": "https://dc.lft.to/lastmile_qr_scan", "ios": "https://dc.lft.to/lastmile_qr_scan"}, "name": "ac18cb9a7f71e6d8150d6165591215d5", "is_reserved": 0}, {"is_disabled": 0, "fusion_lon": 0.0, "fusion_lat": 0.0, "lat": 38.855101, "type": "electric_bike", "lon": -76.95839983333333, "bike_id": "953aadcf519d3e625eddbfde35d515e0", "rental_uris": {"android": "https://dc.lft.to/lastmile_qr_scan", "ios": "https://dc.lft.to/lastmile_qr_scan"}, "name": "953aadcf519d3e625eddbfde35d515e0", "is_reserved": 0}, {"is_disabled": 0, "fusion_lon": 0.0, "fusion_lat": 0.0, "lat": 38.94077933333333, "type": "electric_scooter", "lon": -77.02111833333333, "bike_id": "9d70dcf6780632c74f45cce7cfecb9a8", "rental_uris": {"android": "https://dc.lft.to/lastmile_qr_scan", "ios": "https://dc.lft.to/lastmile_qr_scan"}, "name": "9d70dcf6780632c74f45cce7cfecb9a8", "is_reserved": 0}, {"is_disabled": 0, "fusion_lon": 0.0, "fusion_lat": 0.0, "lat": 38.94452733333333, "type": "electric_scooter", "lon": -77.06350166666667, "bike_id": "3777885e9a9514f89f7433a48b2aa98f", "rental_uris": {"android": "https://dc.lft.to/lastmile_qr_scan", "ios": "https://dc.lft.to/lastmile_qr_scan"}, "name": "3777885e9a9514f89f7433a48b2aa98f", "is_reserved": 0}, {"is_disabled": 0, "fusion_lon": 0.0, "fusion_lat": 0.0, "lat": 38.909578333333336, "type": "electric_scooter", "lon": -77.015704, "bike_id": "0c670e1ffb90e1dd21a1e9914184a604", "rental_uris": {"android": "https://dc.lft.to/lastmile_qr_scan", "ios": "https://dc.lft.to/lastmile_qr_scan"}, "name": "0c670e1ffb90e1dd21a1e9914184a604", "is_reserved": 0}, {"is_disabled": 0, "fusion_lon": 0.0, "fusion_lat": 0.0, "lat": 38.91797183333333, "type": "electric_scooter", "lon": -77.03460933333334, "bike_id": "69b3a4e9d97bce915fb09994cca9bb3a", "rental_uris": {"android": "https://dc.lft.to/lastmile_qr_scan", "ios": "https://dc.lft.to/lastmile_qr_scan"}, "name": "69b3a4e9d97bce915fb09994cca9bb3a", "is_reserved": 0}, {"is_disabled": 0, "fusion_lon": 0.0, "fusion_lat": 0.0, "lat": 38.88397483333333, "type": "electric_scooter", "lon": -76.95412966666666, "bike_id": "b732eb518473430cf6b9613a6a77b3a9", "rental_uris": {"android": "https://dc.lft.to/lastmile_qr_scan", "ios": "https://dc.lft.to/lastmile_qr_scan"}, "name": "b732eb518473430cf6b9613a6a77b3a9", "is_reserved": 0}, {"is_disabled": 0, "fusion_lon": 0.0, "fusion_lat": 0.0, "lat": 38.9063625, "type": "electric_scooter", "lon": -77.0489145, "bike_id": "2c7929249b7cad33f56804168a6756c4", "rental_uris": {"android": "https://dc.lft.to/lastmile_qr_scan", "ios": "https://dc.lft.to/lastmile_qr_scan"}, "name": "2c7929249b7cad33f56804168a6756c4", "is_reserved": 0}, {"is_disabled": 0, "fusion_lon": 0.0, "fusion_lat": 0.0, "lat": 38.914813, "type": "electric_scooter", "lon": -77.03471383333333, "bike_id": "46f24902af6fb1f37815103c35ca0807", "rental_uris": {"android": "https://dc.lft.to/lastmile_qr_scan", "ios": "https://dc.lft.to/lastmile_qr_scan"}, "name": "46f24902af6fb1f37815103c35ca0807", "is_reserved": 0}, {"is_disabled": 0, "fusion_lon": 0.0, "fusion_lat": 0.0, "lat": 39.08843383333333, "type": "electric_bike", "lon": -77.17800833333334, "bike_id": "65f519c03ddff3b73670369d8e0a712c", "rental_uris": {"android": "https://dc.lft.to/lastmile_qr_scan", "ios": "https://dc.lft.to/lastmile_qr_scan"}, "name": "65f519c03ddff3b73670369d8e0a712c", "is_reserved": 0}, {"is_disabled": 0, "fusion_lon": 0.0, "fusion_lat": 0.0, "lat": 38.8920565, "type": "electric_scooter", "lon": -76.988088, "bike_id": "6125ccc41476058e66f173955d7e69ea", "rental_uris": {"android": "https://dc.lft.to/lastmile_qr_scan", "ios": "https://dc.lft.to/lastmile_qr_scan"}, "name": "6125ccc41476058e66f173955d7e69ea", "is_reserved": 0}, {"is_disabled": 0, "fusion_lon": 0.0, "fusion_lat": 0.0, "lat": 38.92279466666667, "type": "electric_scooter", "lon": -77.0297705, "bike_id": "8cd7b17fdc2806132563ddb8bfb29df9", "rental_uris": {"android": "https://dc.lft.to/lastmile_qr_scan", "ios": "https://dc.lft.to/lastmile_qr_scan"}, "name": "8cd7b17fdc2806132563ddb8bfb29df9", "is_reserved": 0}, {"is_disabled": 0, "fusion_lon": 0.0, "fusion_lat": 0.0, "lat": 38.90032333333333, "type": "electric_scooter", "lon": -77.0432715, "bike_id": "99f76e876e4cb2cb91f1e712fe9002fc", "rental_uris": {"android": "https://dc.lft.to/lastmile_qr_scan", "ios": "https://dc.lft.to/lastmile_qr_scan"}, "name": "99f76e876e4cb2cb91f1e712fe9002fc", "is_reserved": 0}, {"is_disabled": 0, "fusion_lon": 0.0, "fusion_lat": 0.0, "lat": 38.913345166666666, "type": "electric_scooter", "lon": -77.03270666666667, "bike_id": "f8e352970e28c26ecbd8bfee24f33c2f", "rental_uris": {"android": "https://dc.lft.to/lastmile_qr_scan", "ios": "https://dc.lft.to/lastmile_qr_scan"}, "name": "f8e352970e28c26ecbd8bfee24f33c2f", "is_reserved": 0}, {"is_disabled": 0, "fusion_lon": 0.0, "fusion_lat": 0.0, "lat": 38.9350295, "type": "electric_bike", "lon": -76.94954283333334, "bike_id": "a1ee62d04b19cde31b418ad01ee76a81", "rental_uris": {"android": "https://dc.lft.to/lastmile_qr_scan", "ios": "https://dc.lft.to/lastmile_qr_scan"}, "name": "a1ee62d04b19cde31b418ad01ee76a81", "is_reserved": 0}, {"is_disabled": 0, "fusion_lon": 0.0, "fusion_lat": 0.0, "lat": 38.89747466666667, "type": "electric_scooter", "lon": -77.02845333333333, "bike_id": "a01a4529616f2e2ddc6fa377da52f72f", "rental_uris": {"android": "https://dc.lft.to/lastmile_qr_scan", "ios": "https://dc.lft.to/lastmile_qr_scan"}, "name": "a01a4529616f2e2ddc6fa377da52f72f", "is_reserved": 0}, {"is_disabled": 0, "fusion_lon": 0.0, "fusion_lat": 0.0, "lat": 38.9156845, "type": "electric_scooter", "lon": -77.04172466666667, "bike_id": "dd0f467f4a2c60d865ac5a5ae81ee30e", "rental_uris": {"android": "https://dc.lft.to/lastmile_qr_scan", "ios": "https://dc.lft.to/lastmile_qr_scan"}, "name": "dd0f467f4a2c60d865ac5a5ae81ee30e", "is_reserved": 0}, {"is_disabled": 0, "fusion_lon": 0.0, "fusion_lat": 0.0, "lat": 38.83811766666667, "type": "electric_scooter", "lon": -77.004318, "bike_id": "9897c9e65e31f2ba4233afe118f01560", "rental_uris": {"android": "https://dc.lft.to/lastmile_qr_scan", "ios": "https://dc.lft.to/lastmile_qr_scan"}, "name": "9897c9e65e31f2ba4233afe118f01560", "is_reserved": 0}, {"is_disabled": 0, "fusion_lon": 0.0, "fusion_lat": 0.0, "lat": 39.10005916666667, "type": "electric_bike", "lon": -77.1864625, "bike_id": "5d87fef305a98da1258c92e5098e05f3", "rental_uris": {"android": "https://dc.lft.to/lastmile_qr_scan", "ios": "https://dc.lft.to/lastmile_qr_scan"}, "name": "5d87fef305a98da1258c92e5098e05f3", "is_reserved": 0}, {"is_disabled": 0, "fusion_lon": 0.0, "fusion_lat": 0.0, "lat": 38.90623083333333, "type": "electric_scooter", "lon": -77.05138916666667, "bike_id": "fa9abb5e0d62e46c357a1fd72876e38f", "rental_uris": {"android": "https://dc.lft.to/lastmile_qr_scan", "ios": "https://dc.lft.to/lastmile_qr_scan"}, "name": "fa9abb5e0d62e46c357a1fd72876e38f", "is_reserved": 0}, {"is_disabled": 0, "fusion_lon": 0.0, "fusion_lat": 0.0, "lat": 38.84293916666667, "type": "electric_scooter", "lon": -76.99950033333333, "bike_id": "8deef50730bbbe18d368d667246bf95d", "rental_uris": {"android": "https://dc.lft.to/lastmile_qr_scan", "ios": "https://dc.lft.to/lastmile_qr_scan"}, "name": "8deef50730bbbe18d368d667246bf95d", "is_reserved": 0}, {"is_disabled": 0, "fusion_lon": 0.0, "fusion_lat": 0.0, "lat": 38.902442, "type": "electric_scooter", "lon": -76.9896545, "bike_id": "2a29243eec9d54ff6cdba139e7f530a7", "rental_uris": {"android": "https://dc.lft.to/lastmile_qr_scan", "ios": "https://dc.lft.to/lastmile_qr_scan"}, "name": "2a29243eec9d54ff6cdba139e7f530a7", "is_reserved": 0}, {"is_disabled": 0, "fusion_lon": 0.0, "fusion_lat": 0.0, "lat": 38.88609366666667, "type": "electric_scooter", "lon": -76.99505233333333, "bike_id": "c716efca1e8af81e169fc10036a6c434", "rental_uris": {"android": "https://dc.lft.to/lastmile_qr_scan", "ios": "https://dc.lft.to/lastmile_qr_scan"}, "name": "c716efca1e8af81e169fc10036a6c434", "is_reserved": 0}, {"is_disabled": 0, "fusion_lon": 0.0, "fusion_lat": 0.0, "lat": 38.916608833333335, "type": "electric_scooter", "lon": -77.022767, "bike_id": "0002af3da898f6b8e51b6a14cf4da22e", "rental_uris": {"android": "https://dc.lft.to/lastmile_qr_scan", "ios": "https://dc.lft.to/lastmile_qr_scan"}, "name": "0002af3da898f6b8e51b6a14cf4da22e", "is_reserved": 0}, {"is_disabled": 0, "fusion_lon": 0.0, "fusion_lat": 0.0, "lat": 38.89535266666667, "type": "electric_scooter", "lon": -77.04125716666667, "bike_id": "5879bd1bcdb158bde82193029ae9ac49", "rental_uris": {"android": "https://dc.lft.to/lastmile_qr_scan", "ios": "https://dc.lft.to/lastmile_qr_scan"}, "name": "5879bd1bcdb158bde82193029ae9ac49", "is_reserved": 0}, {"is_disabled": 0, "fusion_lon": 0.0, "fusion_lat": 0.0, "lat": 38.90013366666667, "type": "electric_scooter", "lon": -76.99891516666666, "bike_id": "e057ca9ba329b14bce9420fe66ef3d47", "rental_uris": {"android": "https://dc.lft.to/lastmile_qr_scan", "ios": "https://dc.lft.to/lastmile_qr_scan"}, "name": "e057ca9ba329b14bce9420fe66ef3d47", "is_reserved": 0}, {"is_disabled": 0, "fusion_lon": 0.0, "fusion_lat": 0.0, "lat": 38.898356, "type": "electric_scooter", "lon": -76.9463475, "bike_id": "eacdd647fa3b00f969e2d3aaff1ea10f", "rental_uris": {"android": "https://dc.lft.to/lastmile_qr_scan", "ios": "https://dc.lft.to/lastmile_qr_scan"}, "name": "eacdd647fa3b00f969e2d3aaff1ea10f", "is_reserved": 0}, {"is_disabled": 0, "fusion_lon": 0.0, "fusion_lat": 0.0, "lat": 38.89599533333333, "type": "electric_scooter", "lon": -77.00924783333333, "bike_id": "0224aead5085ee14d235602faf71892e", "rental_uris": {"android": "https://dc.lft.to/lastmile_qr_scan", "ios": "https://dc.lft.to/lastmile_qr_scan"}, "name": "0224aead5085ee14d235602faf71892e", "is_reserved": 0}, {"is_disabled": 0, "fusion_lon": 0.0, "fusion_lat": 0.0, "lat": 38.92528033333333, "type": "electric_scooter", "lon": -77.04422, "bike_id": "687c7d0491a6b309b29a0d3b35771cec", "rental_uris": {"android": "https://dc.lft.to/lastmile_qr_scan", "ios": "https://dc.lft.to/lastmile_qr_scan"}, "name": "687c7d0491a6b309b29a0d3b35771cec", "is_reserved": 0}, {"is_disabled": 0, "fusion_lon": 0.0, "fusion_lat": 0.0, "lat": 38.884827, "type": "electric_scooter", "lon": -76.929693, "bike_id": "81489b0441bd32c877d6ba163faf8cf6", "rental_uris": {"android": "https://dc.lft.to/lastmile_qr_scan", "ios": "https://dc.lft.to/lastmile_qr_scan"}, "name": "81489b0441bd32c877d6ba163faf8cf6", "is_reserved": 0}, {"is_disabled": 0, "fusion_lon": 0.0, "fusion_lat": 0.0, "lat": 38.91421116666667, "type": "electric_scooter", "lon": -77.03186816666667, "bike_id": "5fb63725de32b11f4783f12dc9ad8cd6", "rental_uris": {"android": "https://dc.lft.to/lastmile_qr_scan", "ios": "https://dc.lft.to/lastmile_qr_scan"}, "name": "5fb63725de32b11f4783f12dc9ad8cd6", "is_reserved": 0}, {"is_disabled": 0, "fusion_lon": 0.0, "fusion_lat": 0.0, "lat": 38.902550833333336, "type": "electric_scooter", "lon": -77.03434216666666, "bike_id": "ddc66f610e6d273507d0f903c208b57c", "rental_uris": {"android": "https://dc.lft.to/lastmile_qr_scan", "ios": "https://dc.lft.to/lastmile_qr_scan"}, "name": "ddc66f610e6d273507d0f903c208b57c", "is_reserved": 0}, {"is_disabled": 0, "fusion_lon": 0.0, "fusion_lat": 0.0, "lat": 38.916335333333336, "type": "electric_scooter", "lon": -77.040211, "bike_id": "eeb132aa6809da21341a921444a85ce0", "rental_uris": {"android": "https://dc.lft.to/lastmile_qr_scan", "ios": "https://dc.lft.to/lastmile_qr_scan"}, "name": "eeb132aa6809da21341a921444a85ce0", "is_reserved": 0}, {"is_disabled": 0, "fusion_lon": 0.0, "fusion_lat": 0.0, "lat": 38.90268833333333, "type": "electric_scooter", "lon": -77.05319516666667, "bike_id": "beb7ff52fcd11c981299ba4421e711f8", "rental_uris": {"android": "https://dc.lft.to/lastmile_qr_scan", "ios": "https://dc.lft.to/lastmile_qr_scan"}, "name": "beb7ff52fcd11c981299ba4421e711f8", "is_reserved": 0}, {"is_disabled": 0, "fusion_lon": 0.0, "fusion_lat": 0.0, "lat": 38.91912883333333, "type": "electric_scooter", "lon": -77.04177333333334, "bike_id": "1baa004b140d15a2b5053c6b7a6f710b", "rental_uris": {"android": "https://dc.lft.to/lastmile_qr_scan", "ios": "https://dc.lft.to/lastmile_qr_scan"}, "name": "1baa004b140d15a2b5053c6b7a6f710b", "is_reserved": 0}, {"is_disabled": 0, "fusion_lon": 0.0, "fusion_lat": 0.0, "lat": 38.91565466666667, "type": "electric_scooter", "lon": -77.03149633333334, "bike_id": "5148b9af36cebeeef6c51c166a6087f9", "rental_uris": {"android": "https://dc.lft.to/lastmile_qr_scan", "ios": "https://dc.lft.to/lastmile_qr_scan"}, "name": "5148b9af36cebeeef6c51c166a6087f9", "is_reserved": 0}, {"is_disabled": 0, "fusion_lon": 0.0, "fusion_lat": 0.0, "lat": 38.911281, "type": "electric_scooter", "lon": -77.0593695, "bike_id": "6a83b1fe870b1452648e354e4ae0e111", "rental_uris": {"android": "https://dc.lft.to/lastmile_qr_scan", "ios": "https://dc.lft.to/lastmile_qr_scan"}, "name": "6a83b1fe870b1452648e354e4ae0e111", "is_reserved": 0}, {"is_disabled": 0, "fusion_lon": 0.0, "fusion_lat": 0.0, "lat": 38.905495333333334, "type": "electric_scooter", "lon": -77.04654383333333, "bike_id": "cab01546ab0dc92e02ca598e7180a55a", "rental_uris": {"android": "https://dc.lft.to/lastmile_qr_scan", "ios": "https://dc.lft.to/lastmile_qr_scan"}, "name": "cab01546ab0dc92e02ca598e7180a55a", "is_reserved": 0}, {"is_disabled": 0, "fusion_lon": 0.0, "fusion_lat": 0.0, "lat": 38.900810666666665, "type": "electric_bike", "lon": -77.01228366666666, "bike_id": "d2dc582480fba31a7a225157d7c758b3", "rental_uris": {"android": "https://dc.lft.to/lastmile_qr_scan", "ios": "https://dc.lft.to/lastmile_qr_scan"}, "name": "d2dc582480fba31a7a225157d7c758b3", "is_reserved": 0}, {"is_disabled": 0, "fusion_lon": 0.0, "fusion_lat": 0.0, "lat": 38.92952533333333, "type": "electric_scooter", "lon": -77.02343266666666, "bike_id": "358909ad0f23e7963ad5352700b2c507", "rental_uris": {"android": "https://dc.lft.to/lastmile_qr_scan", "ios": "https://dc.lft.to/lastmile_qr_scan"}, "name": "358909ad0f23e7963ad5352700b2c507", "is_reserved": 0}, {"is_disabled": 0, "fusion_lon": 0.0, "fusion_lat": 0.0, "lat": 38.839346, "type": "electric_bike", "lon": -77.07896833333334, "bike_id": "628da2c4cb84ddf468c3c9340dfef556", "rental_uris": {"android": "https://dc.lft.to/lastmile_qr_scan", "ios": "https://dc.lft.to/lastmile_qr_scan"}, "name": "628da2c4cb84ddf468c3c9340dfef556", "is_reserved": 0}, {"is_disabled": 0, "fusion_lon": 0.0, "fusion_lat": 0.0, "lat": 38.917525499999996, "type": "electric_scooter", "lon": -77.04153616666666, "bike_id": "9852eb2c7e98fa36e816dc15741c0246", "rental_uris": {"android": "https://dc.lft.to/lastmile_qr_scan", "ios": "https://dc.lft.to/lastmile_qr_scan"}, "name": "9852eb2c7e98fa36e816dc15741c0246", "is_reserved": 0}, {"is_disabled": 0, "fusion_lon": 0.0, "fusion_lat": 0.0, "lat": 38.924237166666664, "type": "electric_scooter", "lon": -77.05182683333334, "bike_id": "8d6168911620bdbb1378991f9abe8344", "rental_uris": {"android": "https://dc.lft.to/lastmile_qr_scan", "ios": "https://dc.lft.to/lastmile_qr_scan"}, "name": "8d6168911620bdbb1378991f9abe8344", "is_reserved": 0}, {"is_disabled": 0, "fusion_lon": 0.0, "fusion_lat": 0.0, "lat": 38.9147585, "type": "electric_scooter", "lon": -77.06634316666667, "bike_id": "8a2882d0dbe73ef238ea3471000b9136", "rental_uris": {"android": "https://dc.lft.to/lastmile_qr_scan", "ios": "https://dc.lft.to/lastmile_qr_scan"}, "name": "8a2882d0dbe73ef238ea3471000b9136", "is_reserved": 0}, {"is_disabled": 0, "fusion_lon": 0.0, "fusion_lat": 0.0, "lat": 38.9170285, "type": "electric_scooter", "lon": -77.0429905, "bike_id": "42104a610dcd4203e5bf3e6d7b3c928c", "rental_uris": {"android": "https://dc.lft.to/lastmile_qr_scan", "ios": "https://dc.lft.to/lastmile_qr_scan"}, "name": "42104a610dcd4203e5bf3e6d7b3c928c", "is_reserved": 0}, {"is_disabled": 0, "fusion_lon": 0.0, "fusion_lat": 0.0, "lat": 38.9185055, "type": "electric_bike", "lon": -76.960902, "bike_id": "a963a1dbc6a72896add8866c8d33a593", "rental_uris": {"android": "https://dc.lft.to/lastmile_qr_scan", "ios": "https://dc.lft.to/lastmile_qr_scan"}, "name": "a963a1dbc6a72896add8866c8d33a593", "is_reserved": 0}, {"is_disabled": 0, "fusion_lon": 0.0, "fusion_lat": 0.0, "lat": 38.8780615, "type": "electric_scooter", "lon": -77.01427283333334, "bike_id": "8dee2d8a6fc0bd5ae3e26a0e5d492b71", "rental_uris": {"android": "https://dc.lft.to/lastmile_qr_scan", "ios": "https://dc.lft.to/lastmile_qr_scan"}, "name": "8dee2d8a6fc0bd5ae3e26a0e5d492b71", "is_reserved": 0}, {"is_disabled": 0, "fusion_lon": 0.0, "fusion_lat": 0.0, "lat": 38.92848983333333, "type": "electric_scooter", "lon": -77.05631416666667, "bike_id": "08a5e8c65bddfb0d5d078bcf2012fb0e", "rental_uris": {"android": "https://dc.lft.to/lastmile_qr_scan", "ios": "https://dc.lft.to/lastmile_qr_scan"}, "name": "08a5e8c65bddfb0d5d078bcf2012fb0e", "is_reserved": 0}, {"is_disabled": 0, "fusion_lon": 0.0, "fusion_lat": 0.0, "lat": 38.914994166666666, "type": "electric_scooter", "lon": -76.98373483333333, "bike_id": "45d039bd6f4b67263478fb964d82ad30", "rental_uris": {"android": "https://dc.lft.to/lastmile_qr_scan", "ios": "https://dc.lft.to/lastmile_qr_scan"}, "name": "45d039bd6f4b67263478fb964d82ad30", "is_reserved": 0}, {"is_disabled": 0, "fusion_lon": 0.0, "fusion_lat": 0.0, "lat": 38.911966166666666, "type": "electric_scooter", "lon": -77.0385775, "bike_id": "c543ea406368543f6ca4ad6599bad453", "rental_uris": {"android": "https://dc.lft.to/lastmile_qr_scan", "ios": "https://dc.lft.to/lastmile_qr_scan"}, "name": "c543ea406368543f6ca4ad6599bad453", "is_reserved": 0}, {"is_disabled": 0, "fusion_lon": 0.0, "fusion_lat": 0.0, "lat": 38.918249833333334, "type": "electric_scooter", "lon": -77.01212683333334, "bike_id": "7af9d053143ee7f7be568122f415720c", "rental_uris": {"android": "https://dc.lft.to/lastmile_qr_scan", "ios": "https://dc.lft.to/lastmile_qr_scan"}, "name": "7af9d053143ee7f7be568122f415720c", "is_reserved": 0}, {"is_disabled": 0, "fusion_lon": 0.0, "fusion_lat": 0.0, "lat": 38.920528, "type": "electric_scooter", "lon": -77.02613616666666, "bike_id": "05a3067046e95da164a45d6988bd8279", "rental_uris": {"android": "https://dc.lft.to/lastmile_qr_scan", "ios": "https://dc.lft.to/lastmile_qr_scan"}, "name": "05a3067046e95da164a45d6988bd8279", "is_reserved": 0}, {"is_disabled": 0, "fusion_lon": 0.0, "fusion_lat": 0.0, "lat": 38.90576866666667, "type": "electric_scooter", "lon": -77.0335295, "bike_id": "811f4b536e856df24ceb51102423cd54", "rental_uris": {"android": "https://dc.lft.to/lastmile_qr_scan", "ios": "https://dc.lft.to/lastmile_qr_scan"}, "name": "811f4b536e856df24ceb51102423cd54", "is_reserved": 0}, {"is_disabled": 0, "fusion_lon": 0.0, "fusion_lat": 0.0, "lat": 38.84514516666667, "type": "electric_bike", "lon": -77.077987, "bike_id": "237de584bedb753592d2e75600a74112", "rental_uris": {"android": "https://dc.lft.to/lastmile_qr_scan", "ios": "https://dc.lft.to/lastmile_qr_scan"}, "name": "237de584bedb753592d2e75600a74112", "is_reserved": 0}, {"is_disabled": 0, "fusion_lon": 0.0, "fusion_lat": 0.0, "lat": 38.91093466666667, "type": "electric_scooter", "lon": -77.0319225, "bike_id": "6e1562e779baec3da5729e808e7820dd", "rental_uris": {"android": "https://dc.lft.to/lastmile_qr_scan", "ios": "https://dc.lft.to/lastmile_qr_scan"}, "name": "6e1562e779baec3da5729e808e7820dd", "is_reserved": 0}, {"is_disabled": 0, "fusion_lon": 0.0, "fusion_lat": 0.0, "lat": 38.908328, "type": "electric_scooter", "lon": -76.99687133333333, "bike_id": "fd45270f45e0ef7e71459b3e484fa4a4", "rental_uris": {"android": "https://dc.lft.to/lastmile_qr_scan", "ios": "https://dc.lft.to/lastmile_qr_scan"}, "name": "fd45270f45e0ef7e71459b3e484fa4a4", "is_reserved": 0}, {"is_disabled": 0, "fusion_lon": 0.0, "fusion_lat": 0.0, "lat": 38.9019395, "type": "electric_scooter", "lon": -77.03965116666667, "bike_id": "9558e989c200ab49ba44aadc4d5cc917", "rental_uris": {"android": "https://dc.lft.to/lastmile_qr_scan", "ios": "https://dc.lft.to/lastmile_qr_scan"}, "name": "9558e989c200ab49ba44aadc4d5cc917", "is_reserved": 0}, {"is_disabled": 0, "fusion_lon": 0.0, "fusion_lat": 0.0, "lat": 38.918581, "type": "electric_scooter", "lon": -77.04173, "bike_id": "6491456afd6e956ea008bd3c150cf096", "rental_uris": {"android": "https://dc.lft.to/lastmile_qr_scan", "ios": "https://dc.lft.to/lastmile_qr_scan"}, "name": "6491456afd6e956ea008bd3c150cf096", "is_reserved": 0}, {"is_disabled": 0, "fusion_lon": 0.0, "fusion_lat": 0.0, "lat": 38.90133683333333, "type": "electric_scooter", "lon": -77.01780566666666, "bike_id": "a3ed70162aeb932bc7ea43c1e53d67c8", "rental_uris": {"android": "https://dc.lft.to/lastmile_qr_scan", "ios": "https://dc.lft.to/lastmile_qr_scan"}, "name": "a3ed70162aeb932bc7ea43c1e53d67c8", "is_reserved": 0}, {"is_disabled": 0, "fusion_lon": 0.0, "fusion_lat": 0.0, "lat": 38.89224383333333, "type": "electric_scooter", "lon": -77.03339333333334, "bike_id": "69ffde47e79aaca9a97a3751883bd7a7", "rental_uris": {"android": "https://dc.lft.to/lastmile_qr_scan", "ios": "https://dc.lft.to/lastmile_qr_scan"}, "name": "69ffde47e79aaca9a97a3751883bd7a7", "is_reserved": 0}, {"is_disabled": 0, "fusion_lon": 0.0, "fusion_lat": 0.0, "lat": 38.8714535, "type": "electric_scooter", "lon": -76.97895866666667, "bike_id": "1f4c5e66369d69de62ae1fd1b2ef7a4c", "rental_uris": {"android": "https://dc.lft.to/lastmile_qr_scan", "ios": "https://dc.lft.to/lastmile_qr_scan"}, "name": "1f4c5e66369d69de62ae1fd1b2ef7a4c", "is_reserved": 0}, {"is_disabled": 0, "fusion_lon": 0.0, "fusion_lat": 0.0, "lat": 38.8873675, "type": "electric_scooter", "lon": -77.01528983333333, "bike_id": "a4737130ae9b9c2e9dd4b4cad7be2fd2", "rental_uris": {"android": "https://dc.lft.to/lastmile_qr_scan", "ios": "https://dc.lft.to/lastmile_qr_scan"}, "name": "a4737130ae9b9c2e9dd4b4cad7be2fd2", "is_reserved": 0}, {"is_disabled": 0, "fusion_lon": 0.0, "fusion_lat": 0.0, "lat": 38.9004695, "type": "electric_scooter", "lon": -77.00066116666666, "bike_id": "e41ca965577c236d352b36e9d7f2e478", "rental_uris": {"android": "https://dc.lft.to/lastmile_qr_scan", "ios": "https://dc.lft.to/lastmile_qr_scan"}, "name": "e41ca965577c236d352b36e9d7f2e478", "is_reserved": 0}, {"is_disabled": 0, "fusion_lon": 0.0, "fusion_lat": 0.0, "lat": 38.92415366666667, "type": "electric_scooter", "lon": -77.05647416666666, "bike_id": "e1d5dce25888ae3b825dab4af94c5d9d", "rental_uris": {"android": "https://dc.lft.to/lastmile_qr_scan", "ios": "https://dc.lft.to/lastmile_qr_scan"}, "name": "e1d5dce25888ae3b825dab4af94c5d9d", "is_reserved": 0}, {"is_disabled": 0, "fusion_lon": 0.0, "fusion_lat": 0.0, "lat": 38.93555283333333, "type": "electric_scooter", "lon": -77.02968683333333, "bike_id": "1c9ed85ae00036966cb2d04459843c8f", "rental_uris": {"android": "https://dc.lft.to/lastmile_qr_scan", "ios": "https://dc.lft.to/lastmile_qr_scan"}, "name": "1c9ed85ae00036966cb2d04459843c8f", "is_reserved": 0}, {"is_disabled": 0, "fusion_lon": 0.0, "fusion_lat": 0.0, "lat": 38.907335, "type": "electric_scooter", "lon": -77.0345525, "bike_id": "4aac4c98ef25a22cbc1e10893f97c4f0", "rental_uris": {"android": "https://dc.lft.to/lastmile_qr_scan", "ios": "https://dc.lft.to/lastmile_qr_scan"}, "name": "4aac4c98ef25a22cbc1e10893f97c4f0", "is_reserved": 0}, {"is_disabled": 0, "fusion_lon": 0.0, "fusion_lat": 0.0, "lat": 38.892121, "type": "electric_scooter", "lon": -76.98798933333333, "bike_id": "fd80e382c58ce40849ea12d990e95864", "rental_uris": {"android": "https://dc.lft.to/lastmile_qr_scan", "ios": "https://dc.lft.to/lastmile_qr_scan"}, "name": "fd80e382c58ce40849ea12d990e95864", "is_reserved": 0}, {"is_disabled": 0, "fusion_lon": 0.0, "fusion_lat": 0.0, "lat": 38.9692795, "type": "electric_bike", "lon": -77.02622516666666, "bike_id": "d1e466fd0d57e37992fae3fa01cb3ec7", "rental_uris": {"android": "https://dc.lft.to/lastmile_qr_scan", "ios": "https://dc.lft.to/lastmile_qr_scan"}, "name": "d1e466fd0d57e37992fae3fa01cb3ec7", "is_reserved": 0}, {"is_disabled": 0, "fusion_lon": 0.0, "fusion_lat": 0.0, "lat": 38.916933, "type": "electric_scooter", "lon": -77.03215616666667, "bike_id": "32c1cba535845d2f41decfffaf6aaa3f", "rental_uris": {"android": "https://dc.lft.to/lastmile_qr_scan", "ios": "https://dc.lft.to/lastmile_qr_scan"}, "name": "32c1cba535845d2f41decfffaf6aaa3f", "is_reserved": 0}, {"is_disabled": 0, "fusion_lon": 0.0, "fusion_lat": 0.0, "lat": 38.914713, "type": "electric_scooter", "lon": -77.043986, "bike_id": "61b3f10a691e6bc8b636da2412049366", "rental_uris": {"android": "https://dc.lft.to/lastmile_qr_scan", "ios": "https://dc.lft.to/lastmile_qr_scan"}, "name": "61b3f10a691e6bc8b636da2412049366", "is_reserved": 0}, {"is_disabled": 0, "fusion_lon": 0.0, "fusion_lat": 0.0, "lat": 38.961133333333336, "type": "electric_bike", "lon": -77.06901333333333, "bike_id": "6297aa28cde3352f2fe2a626134cdd10", "rental_uris": {"android": "https://dc.lft.to/lastmile_qr_scan", "ios": "https://dc.lft.to/lastmile_qr_scan"}, "name": "6297aa28cde3352f2fe2a626134cdd10", "is_reserved": 0}, {"is_disabled": 0, "fusion_lon": 0.0, "fusion_lat": 0.0, "lat": 38.93275333333333, "type": "electric_scooter", "lon": -76.9969035, "bike_id": "9cd7beeac7c48763340259db8ccbdcaa", "rental_uris": {"android": "https://dc.lft.to/lastmile_qr_scan", "ios": "https://dc.lft.to/lastmile_qr_scan"}, "name": "9cd7beeac7c48763340259db8ccbdcaa", "is_reserved": 0}, {"is_disabled": 0, "fusion_lon": 0.0, "fusion_lat": 0.0, "lat": 38.89978983333334, "type": "electric_scooter", "lon": -77.026921, "bike_id": "b92a11781fec33994b82029f2b0961a3", "rental_uris": {"android": "https://dc.lft.to/lastmile_qr_scan", "ios": "https://dc.lft.to/lastmile_qr_scan"}, "name": "b92a11781fec33994b82029f2b0961a3", "is_reserved": 0}, {"is_disabled": 0, "fusion_lon": 0.0, "fusion_lat": 0.0, "lat": 38.91494216666667, "type": "electric_scooter", "lon": -77.01982716666667, "bike_id": "b3312e268b733e4bb5d42fe75beb070f", "rental_uris": {"android": "https://dc.lft.to/lastmile_qr_scan", "ios": "https://dc.lft.to/lastmile_qr_scan"}, "name": "b3312e268b733e4bb5d42fe75beb070f", "is_reserved": 0}, {"is_disabled": 0, "fusion_lon": 0.0, "fusion_lat": 0.0, "lat": 38.91859, "type": "electric_bike", "lon": -76.96177733333333, "bike_id": "43e39cec6a082b0828ba65968a9a2684", "rental_uris": {"android": "https://dc.lft.to/lastmile_qr_scan", "ios": "https://dc.lft.to/lastmile_qr_scan"}, "name": "43e39cec6a082b0828ba65968a9a2684", "is_reserved": 0}, {"is_disabled": 0, "fusion_lon": 0.0, "fusion_lat": 0.0, "lat": 38.899075833333335, "type": "electric_scooter", "lon": -76.93394466666666, "bike_id": "98c852a9fd0ed5121d82c9ea7d13dea8", "rental_uris": {"android": "https://dc.lft.to/lastmile_qr_scan", "ios": "https://dc.lft.to/lastmile_qr_scan"}, "name": "98c852a9fd0ed5121d82c9ea7d13dea8", "is_reserved": 0}, {"is_disabled": 0, "fusion_lon": 0.0, "fusion_lat": 0.0, "lat": 38.887534, "type": "electric_scooter", "lon": -76.9961705, "bike_id": "325119b0382cb00ac0154d1587d299a5", "rental_uris": {"android": "https://dc.lft.to/lastmile_qr_scan", "ios": "https://dc.lft.to/lastmile_qr_scan"}, "name": "325119b0382cb00ac0154d1587d299a5", "is_reserved": 0}, {"is_disabled": 0, "fusion_lon": 0.0, "fusion_lat": 0.0, "lat": 38.990621166666664, "type": "electric_bike", "lon": -77.100286, "bike_id": "d5d0c841db0cb60a5c553e01f1c1f191", "rental_uris": {"android": "https://dc.lft.to/lastmile_qr_scan", "ios": "https://dc.lft.to/lastmile_qr_scan"}, "name": "d5d0c841db0cb60a5c553e01f1c1f191", "is_reserved": 0}, {"is_disabled": 0, "fusion_lon": 0.0, "fusion_lat": 0.0, "lat": 38.9053585, "type": "electric_scooter", "lon": -77.06525116666667, "bike_id": "7cf6d06715bf1c3a162030994f8c8269", "rental_uris": {"android": "https://dc.lft.to/lastmile_qr_scan", "ios": "https://dc.lft.to/lastmile_qr_scan"}, "name": "7cf6d06715bf1c3a162030994f8c8269", "is_reserved": 0}, {"is_disabled": 0, "fusion_lon": 0.0, "fusion_lat": 0.0, "lat": 38.911003666666666, "type": "electric_scooter", "lon": -77.037446, "bike_id": "83ac5e2f990932dbf7b91ed1e9369944", "rental_uris": {"android": "https://dc.lft.to/lastmile_qr_scan", "ios": "https://dc.lft.to/lastmile_qr_scan"}, "name": "83ac5e2f990932dbf7b91ed1e9369944", "is_reserved": 0}, {"is_disabled": 0, "fusion_lon": 0.0, "fusion_lat": 0.0, "lat": 38.9000635, "type": "electric_scooter", "lon": -76.99342716666666, "bike_id": "d6774f89e6e2f0ca03803c5895de5a7a", "rental_uris": {"android": "https://dc.lft.to/lastmile_qr_scan", "ios": "https://dc.lft.to/lastmile_qr_scan"}, "name": "d6774f89e6e2f0ca03803c5895de5a7a", "is_reserved": 0}, {"is_disabled": 0, "fusion_lon": 0.0, "fusion_lat": 0.0, "lat": 38.9621625, "type": "electric_scooter", "lon": -77.028035, "bike_id": "04afe2195ff02fec246ef3bc6a70c9c4", "rental_uris": {"android": "https://dc.lft.to/lastmile_qr_scan", "ios": "https://dc.lft.to/lastmile_qr_scan"}, "name": "04afe2195ff02fec246ef3bc6a70c9c4", "is_reserved": 0}, {"is_disabled": 0, "fusion_lon": 0.0, "fusion_lat": 0.0, "lat": 38.928346, "type": "electric_scooter", "lon": -77.01402783333333, "bike_id": "8772560000b55f17b8fb917324982e03", "rental_uris": {"android": "https://dc.lft.to/lastmile_qr_scan", "ios": "https://dc.lft.to/lastmile_qr_scan"}, "name": "8772560000b55f17b8fb917324982e03", "is_reserved": 0}, {"is_disabled": 0, "fusion_lon": 0.0, "fusion_lat": 0.0, "lat": 38.874972166666666, "type": "electric_bike", "lon": -77.04901316666667, "bike_id": "456a6fdeab1912db6175b6c3dd2a8b40", "rental_uris": {"android": "https://dc.lft.to/lastmile_qr_scan", "ios": "https://dc.lft.to/lastmile_qr_scan"}, "name": "456a6fdeab1912db6175b6c3dd2a8b40", "is_reserved": 0}, {"is_disabled": 0, "fusion_lon": 0.0, "fusion_lat": 0.0, "lat": 38.92309133333333, "type": "electric_scooter", "lon": -77.022552, "bike_id": "4f6385992fcc017208de56a4ef11b782", "rental_uris": {"android": "https://dc.lft.to/lastmile_qr_scan", "ios": "https://dc.lft.to/lastmile_qr_scan"}, "name": "4f6385992fcc017208de56a4ef11b782", "is_reserved": 0}, {"is_disabled": 0, "fusion_lon": 0.0, "fusion_lat": 0.0, "lat": 38.95598716666667, "type": "electric_scooter", "lon": -77.00981233333333, "bike_id": "ebb4850edb625f0b8bb8ce25cdb604bf", "rental_uris": {"android": "https://dc.lft.to/lastmile_qr_scan", "ios": "https://dc.lft.to/lastmile_qr_scan"}, "name": "ebb4850edb625f0b8bb8ce25cdb604bf", "is_reserved": 0}, {"is_disabled": 0, "fusion_lon": 0.0, "fusion_lat": 0.0, "lat": 38.86357783333333, "type": "electric_scooter", "lon": -76.99068566666666, "bike_id": "53318cbc4cec7a17843d66097560b27a", "rental_uris": {"android": "https://dc.lft.to/lastmile_qr_scan", "ios": "https://dc.lft.to/lastmile_qr_scan"}, "name": "53318cbc4cec7a17843d66097560b27a", "is_reserved": 0}, {"is_disabled": 0, "fusion_lon": 0.0, "fusion_lat": 0.0, "lat": 38.90661866666667, "type": "electric_scooter", "lon": -77.04179583333334, "bike_id": "166a104db7969b4ab61bf5e3192175a5", "rental_uris": {"android": "https://dc.lft.to/lastmile_qr_scan", "ios": "https://dc.lft.to/lastmile_qr_scan"}, "name": "166a104db7969b4ab61bf5e3192175a5", "is_reserved": 0}, {"is_disabled": 0, "fusion_lon": 0.0, "fusion_lat": 0.0, "lat": 38.99091416666667, "type": "electric_bike", "lon": -76.87494316666667, "bike_id": "7b90efe018c2b7a5a49053b606001d5f", "rental_uris": {"android": "https://dc.lft.to/lastmile_qr_scan", "ios": "https://dc.lft.to/lastmile_qr_scan"}, "name": "7b90efe018c2b7a5a49053b606001d5f", "is_reserved": 0}, {"is_disabled": 0, "fusion_lon": 0.0, "fusion_lat": 0.0, "lat": 38.945715666666665, "type": "electric_bike", "lon": -76.96030733333333, "bike_id": "7d7f8b1d50ba5243d466f106e74b77e1", "rental_uris": {"android": "https://dc.lft.to/lastmile_qr_scan", "ios": "https://dc.lft.to/lastmile_qr_scan"}, "name": "7d7f8b1d50ba5243d466f106e74b77e1", "is_reserved": 0}, {"is_disabled": 0, "fusion_lon": 0.0, "fusion_lat": 0.0, "lat": 38.919881833333335, "type": "electric_scooter", "lon": -77.04164733333333, "bike_id": "0f67e20e42433dd91e7785332f98012a", "rental_uris": {"android": "https://dc.lft.to/lastmile_qr_scan", "ios": "https://dc.lft.to/lastmile_qr_scan"}, "name": "0f67e20e42433dd91e7785332f98012a", "is_reserved": 0}, {"is_disabled": 0, "fusion_lon": 0.0, "fusion_lat": 0.0, "lat": 38.916476333333335, "type": "electric_scooter", "lon": -77.02811283333334, "bike_id": "59f32ffce2187fc9787a3ca13f89b8e7", "rental_uris": {"android": "https://dc.lft.to/lastmile_qr_scan", "ios": "https://dc.lft.to/lastmile_qr_scan"}, "name": "59f32ffce2187fc9787a3ca13f89b8e7", "is_reserved": 0}, {"is_disabled": 0, "fusion_lon": 0.0, "fusion_lat": 0.0, "lat": 38.900092, "type": "electric_scooter", "lon": -77.0416325, "bike_id": "ba052f30c50700df745488b2cc3cd49d", "rental_uris": {"android": "https://dc.lft.to/lastmile_qr_scan", "ios": "https://dc.lft.to/lastmile_qr_scan"}, "name": "ba052f30c50700df745488b2cc3cd49d", "is_reserved": 0}, {"is_disabled": 0, "fusion_lon": 0.0, "fusion_lat": 0.0, "lat": 38.92407133333333, "type": "electric_bike", "lon": -77.04266066666666, "bike_id": "9be044c9ac4fc3aea2fc4faec9827b1b", "rental_uris": {"android": "https://dc.lft.to/lastmile_qr_scan", "ios": "https://dc.lft.to/lastmile_qr_scan"}, "name": "9be044c9ac4fc3aea2fc4faec9827b1b", "is_reserved": 0}, {"is_disabled": 0, "fusion_lon": 0.0, "fusion_lat": 0.0, "lat": 38.99848083333333, "type": "electric_bike", "lon": -77.029004, "bike_id": "a978ecc0466d98bfacddfa14b9e574a0", "rental_uris": {"android": "https://dc.lft.to/lastmile_qr_scan", "ios": "https://dc.lft.to/lastmile_qr_scan"}, "name": "a978ecc0466d98bfacddfa14b9e574a0", "is_reserved": 0}, {"is_disabled": 0, "fusion_lon": 0.0, "fusion_lat": 0.0, "lat": 38.95127083333333, "type": "electric_scooter", "lon": -77.01403666666667, "bike_id": "850809e4a2fec55999f9426f8705d59e", "rental_uris": {"android": "https://dc.lft.to/lastmile_qr_scan", "ios": "https://dc.lft.to/lastmile_qr_scan"}, "name": "850809e4a2fec55999f9426f8705d59e", "is_reserved": 0}, {"is_disabled": 0, "fusion_lon": 0.0, "fusion_lat": 0.0, "lat": 38.9087225, "type": "electric_scooter", "lon": -77.02698133333334, "bike_id": "9f0a5a9efb3a831f9c43a7f1a84d6e9f", "rental_uris": {"android": "https://dc.lft.to/lastmile_qr_scan", "ios": "https://dc.lft.to/lastmile_qr_scan"}, "name": "9f0a5a9efb3a831f9c43a7f1a84d6e9f", "is_reserved": 0}, {"is_disabled": 0, "fusion_lon": 0.0, "fusion_lat": 0.0, "lat": 38.907121833333335, "type": "electric_scooter", "lon": -77.0271355, "bike_id": "5fd97df3c7effd476e043ee43f565d93", "rental_uris": {"android": "https://dc.lft.to/lastmile_qr_scan", "ios": "https://dc.lft.to/lastmile_qr_scan"}, "name": "5fd97df3c7effd476e043ee43f565d93", "is_reserved": 0}, {"is_disabled": 0, "fusion_lon": 0.0, "fusion_lat": 0.0, "lat": 38.84508433333333, "type": "electric_bike", "lon": -76.9721425, "bike_id": "5a1ae14f439900b63e7c69331b0fae36", "rental_uris": {"android": "https://dc.lft.to/lastmile_qr_scan", "ios": "https://dc.lft.to/lastmile_qr_scan"}, "name": "5a1ae14f439900b63e7c69331b0fae36", "is_reserved": 0}, {"is_disabled": 0, "fusion_lon": 0.0, "fusion_lat": 0.0, "lat": 38.9090515, "type": "electric_scooter", "lon": -77.02714833333333, "bike_id": "b9649286863c8bd7532721bf23774ad5", "rental_uris": {"android": "https://dc.lft.to/lastmile_qr_scan", "ios": "https://dc.lft.to/lastmile_qr_scan"}, "name": "b9649286863c8bd7532721bf23774ad5", "is_reserved": 0}, {"is_disabled": 0, "fusion_lon": 0.0, "fusion_lat": 0.0, "lat": 38.9297865, "type": "electric_scooter", "lon": -77.020743, "bike_id": "f2abb669f5cf8394cbdf038123cda641", "rental_uris": {"android": "https://dc.lft.to/lastmile_qr_scan", "ios": "https://dc.lft.to/lastmile_qr_scan"}, "name": "f2abb669f5cf8394cbdf038123cda641", "is_reserved": 0}, {"is_disabled": 0, "fusion_lon": 0.0, "fusion_lat": 0.0, "lat": 38.906998333333334, "type": "electric_scooter", "lon": -77.00749933333333, "bike_id": "5872a7aa47b4432f905392327d1d197e", "rental_uris": {"android": "https://dc.lft.to/lastmile_qr_scan", "ios": "https://dc.lft.to/lastmile_qr_scan"}, "name": "5872a7aa47b4432f905392327d1d197e", "is_reserved": 0}, {"is_disabled": 0, "fusion_lon": 0.0, "fusion_lat": 0.0, "lat": 38.92748866666667, "type": "electric_scooter", "lon": -77.01618883333333, "bike_id": "e5b94c09c3e2844d8e0dae1d12d19d50", "rental_uris": {"android": "https://dc.lft.to/lastmile_qr_scan", "ios": "https://dc.lft.to/lastmile_qr_scan"}, "name": "e5b94c09c3e2844d8e0dae1d12d19d50", "is_reserved": 0}, {"is_disabled": 0, "fusion_lon": 0.0, "fusion_lat": 0.0, "lat": 38.94202883333333, "type": "electric_scooter", "lon": -77.02591016666666, "bike_id": "abc5037ba9e1b1ba50bb71cc0b1a6edb", "rental_uris": {"android": "https://dc.lft.to/lastmile_qr_scan", "ios": "https://dc.lft.to/lastmile_qr_scan"}, "name": "abc5037ba9e1b1ba50bb71cc0b1a6edb", "is_reserved": 0}, {"is_disabled": 0, "fusion_lon": 0.0, "fusion_lat": 0.0, "lat": 38.96418933333333, "type": "electric_scooter", "lon": -77.07531416666667, "bike_id": "dacd985587c399a3f03c5a2d28676fa0", "rental_uris": {"android": "https://dc.lft.to/lastmile_qr_scan", "ios": "https://dc.lft.to/lastmile_qr_scan"}, "name": "dacd985587c399a3f03c5a2d28676fa0", "is_reserved": 0}, {"is_disabled": 0, "fusion_lon": 0.0, "fusion_lat": 0.0, "lat": 38.91766533333333, "type": "electric_scooter", "lon": -77.034327, "bike_id": "4f97a076c5cf4bd1c28903a76b43f47a", "rental_uris": {"android": "https://dc.lft.to/lastmile_qr_scan", "ios": "https://dc.lft.to/lastmile_qr_scan"}, "name": "4f97a076c5cf4bd1c28903a76b43f47a", "is_reserved": 0}, {"is_disabled": 0, "fusion_lon": 0.0, "fusion_lat": 0.0, "lat": 38.921879, "type": "electric_scooter", "lon": -76.99696733333333, "bike_id": "905623e30789a77d5d22e4ed2e9cbaae", "rental_uris": {"android": "https://dc.lft.to/lastmile_qr_scan", "ios": "https://dc.lft.to/lastmile_qr_scan"}, "name": "905623e30789a77d5d22e4ed2e9cbaae", "is_reserved": 0}, {"is_disabled": 0, "fusion_lon": 0.0, "fusion_lat": 0.0, "lat": 38.906802166666665, "type": "electric_scooter", "lon": -76.97999566666667, "bike_id": "87a71ae30e35d0bf17626a745de4fef3", "rental_uris": {"android": "https://dc.lft.to/lastmile_qr_scan", "ios": "https://dc.lft.to/lastmile_qr_scan"}, "name": "87a71ae30e35d0bf17626a745de4fef3", "is_reserved": 0}, {"is_disabled": 0, "fusion_lon": 0.0, "fusion_lat": 0.0, "lat": 38.91036483333333, "type": "electric_scooter", "lon": -77.04014133333334, "bike_id": "ea8efdf290563a59f3b0c3c62f95dc45", "rental_uris": {"android": "https://dc.lft.to/lastmile_qr_scan", "ios": "https://dc.lft.to/lastmile_qr_scan"}, "name": "ea8efdf290563a59f3b0c3c62f95dc45", "is_reserved": 0}, {"is_disabled": 0, "fusion_lon": 0.0, "fusion_lat": 0.0, "lat": 38.8580675, "type": "electric_scooter", "lon": -76.9865475, "bike_id": "5723864ec2e2ba0194868816911361f9", "rental_uris": {"android": "https://dc.lft.to/lastmile_qr_scan", "ios": "https://dc.lft.to/lastmile_qr_scan"}, "name": "5723864ec2e2ba0194868816911361f9", "is_reserved": 0}, {"is_disabled": 0, "fusion_lon": 0.0, "fusion_lat": 0.0, "lat": 38.902345833333335, "type": "electric_scooter", "lon": -77.0617955, "bike_id": "7e338e92e56811faf9d63f614f88b8eb", "rental_uris": {"android": "https://dc.lft.to/lastmile_qr_scan", "ios": "https://dc.lft.to/lastmile_qr_scan"}, "name": "7e338e92e56811faf9d63f614f88b8eb", "is_reserved": 0}, {"is_disabled": 0, "fusion_lon": 0.0, "fusion_lat": 0.0, "lat": 38.90092816666667, "type": "electric_scooter", "lon": -77.018143, "bike_id": "46f16871d7596b171910fc1ece6bcb4e", "rental_uris": {"android": "https://dc.lft.to/lastmile_qr_scan", "ios": "https://dc.lft.to/lastmile_qr_scan"}, "name": "46f16871d7596b171910fc1ece6bcb4e", "is_reserved": 0}, {"is_disabled": 0, "fusion_lon": 0.0, "fusion_lat": 0.0, "lat": 38.928784, "type": "electric_scooter", "lon": -77.03334333333333, "bike_id": "6bb70e41b5ab62fd0a367586e6a031ec", "rental_uris": {"android": "https://dc.lft.to/lastmile_qr_scan", "ios": "https://dc.lft.to/lastmile_qr_scan"}, "name": "6bb70e41b5ab62fd0a367586e6a031ec", "is_reserved": 0}, {"is_disabled": 0, "fusion_lon": 0.0, "fusion_lat": 0.0, "lat": 38.996658, "type": "electric_bike", "lon": -76.99140533333333, "bike_id": "0f6709345d9cb8fa41a9e0071636fa74", "rental_uris": {"android": "https://dc.lft.to/lastmile_qr_scan", "ios": "https://dc.lft.to/lastmile_qr_scan"}, "name": "0f6709345d9cb8fa41a9e0071636fa74", "is_reserved": 0}, {"is_disabled": 0, "fusion_lon": 0.0, "fusion_lat": 0.0, "lat": 38.901873, "type": "electric_scooter", "lon": -77.04789366666667, "bike_id": "40af521aef42ebe5264bd524c4bd6c73", "rental_uris": {"android": "https://dc.lft.to/lastmile_qr_scan", "ios": "https://dc.lft.to/lastmile_qr_scan"}, "name": "40af521aef42ebe5264bd524c4bd6c73", "is_reserved": 0}, {"is_disabled": 0, "fusion_lon": 0.0, "fusion_lat": 0.0, "lat": 38.926572, "type": "electric_scooter", "lon": -77.02277783333334, "bike_id": "f7f88288b9742acfb4456c10f00e0277", "rental_uris": {"android": "https://dc.lft.to/lastmile_qr_scan", "ios": "https://dc.lft.to/lastmile_qr_scan"}, "name": "f7f88288b9742acfb4456c10f00e0277", "is_reserved": 0}, {"is_disabled": 0, "fusion_lon": 0.0, "fusion_lat": 0.0, "lat": 38.935986, "type": "electric_scooter", "lon": -77.08307183333334, "bike_id": "933ba6ca5f7f9ea917da17a21fc61173", "rental_uris": {"android": "https://dc.lft.to/lastmile_qr_scan", "ios": "https://dc.lft.to/lastmile_qr_scan"}, "name": "933ba6ca5f7f9ea917da17a21fc61173", "is_reserved": 0}, {"is_disabled": 0, "fusion_lon": 0.0, "fusion_lat": 0.0, "lat": 38.87568366666667, "type": "electric_scooter", "lon": -77.020949, "bike_id": "8cf7ebd9d5c1444e951697fb7e201dec", "rental_uris": {"android": "https://dc.lft.to/lastmile_qr_scan", "ios": "https://dc.lft.to/lastmile_qr_scan"}, "name": "8cf7ebd9d5c1444e951697fb7e201dec", "is_reserved": 0}, {"is_disabled": 0, "fusion_lon": 0.0, "fusion_lat": 0.0, "lat": 38.9035125, "type": "electric_scooter", "lon": -77.011062, "bike_id": "48af1f04ec86103878c0a8b03a3f1478", "rental_uris": {"android": "https://dc.lft.to/lastmile_qr_scan", "ios": "https://dc.lft.to/lastmile_qr_scan"}, "name": "48af1f04ec86103878c0a8b03a3f1478", "is_reserved": 0}, {"is_disabled": 0, "fusion_lon": 0.0, "fusion_lat": 0.0, "lat": 38.94445616666667, "type": "electric_scooter", "lon": -77.0603445, "bike_id": "236bde6231a99e077bd622ead79be8fd", "rental_uris": {"android": "https://dc.lft.to/lastmile_qr_scan", "ios": "https://dc.lft.to/lastmile_qr_scan"}, "name": "236bde6231a99e077bd622ead79be8fd", "is_reserved": 0}, {"is_disabled": 0, "fusion_lon": 0.0, "fusion_lat": 0.0, "lat": 38.916745666666664, "type": "electric_scooter", "lon": -77.01582633333334, "bike_id": "ceb13a5053d6699715e093cb94904fc9", "rental_uris": {"android": "https://dc.lft.to/lastmile_qr_scan", "ios": "https://dc.lft.to/lastmile_qr_scan"}, "name": "ceb13a5053d6699715e093cb94904fc9", "is_reserved": 0}, {"is_disabled": 0, "fusion_lon": 0.0, "fusion_lat": 0.0, "lat": 38.934677666666666, "type": "electric_scooter", "lon": -77.06874566666667, "bike_id": "408a3f929db85e95d617d6f7c97b8e4f", "rental_uris": {"android": "https://dc.lft.to/lastmile_qr_scan", "ios": "https://dc.lft.to/lastmile_qr_scan"}, "name": "408a3f929db85e95d617d6f7c97b8e4f", "is_reserved": 0}, {"is_disabled": 0, "fusion_lon": 0.0, "fusion_lat": 0.0, "lat": 38.897264666666665, "type": "electric_scooter", "lon": -77.0100475, "bike_id": "cb0f4889c4d8b60730971994a4063690", "rental_uris": {"android": "https://dc.lft.to/lastmile_qr_scan", "ios": "https://dc.lft.to/lastmile_qr_scan"}, "name": "cb0f4889c4d8b60730971994a4063690", "is_reserved": 0}, {"is_disabled": 0, "fusion_lon": 0.0, "fusion_lat": 0.0, "lat": 38.918039, "type": "electric_scooter", "lon": -77.03448166666666, "bike_id": "f1f8c022f6c368c1aa679b97bf605503", "rental_uris": {"android": "https://dc.lft.to/lastmile_qr_scan", "ios": "https://dc.lft.to/lastmile_qr_scan"}, "name": "f1f8c022f6c368c1aa679b97bf605503", "is_reserved": 0}, {"is_disabled": 0, "fusion_lon": 0.0, "fusion_lat": 0.0, "lat": 38.932284, "type": "electric_scooter", "lon": -76.99485466666667, "bike_id": "f302d0e1df5adc8bcdcbce4c4d64b586", "rental_uris": {"android": "https://dc.lft.to/lastmile_qr_scan", "ios": "https://dc.lft.to/lastmile_qr_scan"}, "name": "f302d0e1df5adc8bcdcbce4c4d64b586", "is_reserved": 0}, {"is_disabled": 0, "fusion_lon": 0.0, "fusion_lat": 0.0, "lat": 38.9726035, "type": "electric_bike", "lon": -76.99169033333334, "bike_id": "67ec46a6f9e031c45487bbec455aec06", "rental_uris": {"android": "https://dc.lft.to/lastmile_qr_scan", "ios": "https://dc.lft.to/lastmile_qr_scan"}, "name": "67ec46a6f9e031c45487bbec455aec06", "is_reserved": 0}, {"is_disabled": 0, "fusion_lon": 0.0, "fusion_lat": 0.0, "lat": 38.904067166666664, "type": "electric_scooter", "lon": -77.040488, "bike_id": "ed2f4c60d5f241675d105ade656f00ab", "rental_uris": {"android": "https://dc.lft.to/lastmile_qr_scan", "ios": "https://dc.lft.to/lastmile_qr_scan"}, "name": "ed2f4c60d5f241675d105ade656f00ab", "is_reserved": 0}, {"is_disabled": 0, "fusion_lon": 0.0, "fusion_lat": 0.0, "lat": 38.90528116666667, "type": "electric_scooter", "lon": -77.04581833333333, "bike_id": "37c1940569564b2a49e40b9a5a9e7dea", "rental_uris": {"android": "https://dc.lft.to/lastmile_qr_scan", "ios": "https://dc.lft.to/lastmile_qr_scan"}, "name": "37c1940569564b2a49e40b9a5a9e7dea", "is_reserved": 0}, {"is_disabled": 0, "fusion_lon": 0.0, "fusion_lat": 0.0, "lat": 38.9175075, "type": "electric_scooter", "lon": -77.028127, "bike_id": "e552f3bbcace689a3086ddda70c544b6", "rental_uris": {"android": "https://dc.lft.to/lastmile_qr_scan", "ios": "https://dc.lft.to/lastmile_qr_scan"}, "name": "e552f3bbcace689a3086ddda70c544b6", "is_reserved": 0}, {"is_disabled": 0, "fusion_lon": 0.0, "fusion_lat": 0.0, "lat": 38.839397166666664, "type": "electric_bike", "lon": -77.07897183333333, "bike_id": "4242b739979fc7ee9bc7b8b68a1acc76", "rental_uris": {"android": "https://dc.lft.to/lastmile_qr_scan", "ios": "https://dc.lft.to/lastmile_qr_scan"}, "name": "4242b739979fc7ee9bc7b8b68a1acc76", "is_reserved": 0}, {"is_disabled": 0, "fusion_lon": 0.0, "fusion_lat": 0.0, "lat": 38.812722, "type": "electric_bike", "lon": -77.06173833333334, "bike_id": "be470e037d6a558a6ad4aba74aca640b", "rental_uris": {"android": "https://dc.lft.to/lastmile_qr_scan", "ios": "https://dc.lft.to/lastmile_qr_scan"}, "name": "be470e037d6a558a6ad4aba74aca640b", "is_reserved": 0}, {"is_disabled": 0, "fusion_lon": 0.0, "fusion_lat": 0.0, "lat": 38.9135055, "type": "electric_scooter", "lon": -77.03207166666667, "bike_id": "05d7e7b50ecd1d25d78a9718efe8e300", "rental_uris": {"android": "https://dc.lft.to/lastmile_qr_scan", "ios": "https://dc.lft.to/lastmile_qr_scan"}, "name": "05d7e7b50ecd1d25d78a9718efe8e300", "is_reserved": 0}, {"is_disabled": 0, "fusion_lon": 0.0, "fusion_lat": 0.0, "lat": 38.909439, "type": "electric_scooter", "lon": -76.99221383333334, "bike_id": "5f5184a595f0ad2e07583ed2d0b1b1fc", "rental_uris": {"android": "https://dc.lft.to/lastmile_qr_scan", "ios": "https://dc.lft.to/lastmile_qr_scan"}, "name": "5f5184a595f0ad2e07583ed2d0b1b1fc", "is_reserved": 0},