{"data": {"bikes": [{"bike_id": "b833b5b1a2be62144ae4a94c4078ff2d", "is_reserved": 0, "fusion_lon": 0.0, "lat": 38.9155815, "is_disabled": 0, "name": "b833b5b1a2be62144ae4a94c4078ff2d", "fusion_lat": 0.0, "rental_uris": {"ios": "https://dc.lft.to/lastmile_qr_scan", "android": "https://dc.lft.to/lastmile_qr_scan"}, "lon": -77.03908066666666, "type": "electric_scooter"}, {"bike_id": "9509835fa02969e9c697f52687f5482f", "is_reserved": 0, "fusion_lon": 0.0, "lat": 38.93063016666667, "is_disabled": 0, "name": "9509835fa02969e9c697f52687f5482f", "fusion_lat": 0.0, "rental_uris": {"ios": "https://dc.lft.to/lastmile_qr_scan", "android": "https://dc.lft.to/lastmile_qr_scan"}, "lon": -77.02974983333333, "type": "electric_scooter"}, {"bike_id": "ad5463a0b3eafe509a2c10f64d3bdc3e", "is_reserved": 0, "fusion_lon": 0.0, "lat": 38.921909666666664, "is_disabled": 0, "name": "ad5463a0b3eafe509a2c10f64d3bdc3e", "fusion_lat": 0.0, "rental_uris": {"ios": "https://dc.lft.to/lastmile_qr_scan", "android": "https://dc.lft.to/lastmile_qr_scan"}, "lon": -77.0425375, "type": "electric_scooter"}, {"bike_id": "d3d257d33149e41fb23ad486b3852fe1", "is_reserved": 0, "fusion_lon": 0.0, "lat": 38.909143, "is_disabled": 0, "name": "d3d257d33149e41fb23ad486b3852fe1", "fusion_lat": 0.0, "rental_uris": {"ios": "https://dc.lft.to/lastmile_qr_scan", "android": "https://dc.lft.to/lastmile_qr_scan"}, "lon": -77.03132833333333, "type": "electric_scooter"}, {"bike_id": "b7b0108be4d0675428bed681a1e7ab9e", "is_reserved": 0, "fusion_lon": 0.0, "lat": 38.90954516666667, "is_disabled": 0, "name": "b7b0108be4d0675428bed681a1e7ab9e", "fusion_lat": 0.0, "rental_uris": {"ios": "https://dc.lft.to/lastmile_qr_scan", "android": "https://dc.lft.to/lastmile_qr_scan"}, "lon": -77.01998716666667, "type": "electric_scooter"}, {"bike_id": "551834d84ea62633044efe740eac82ab", "is_reserved": 0, "fusion_lon": 0.0, "lat": 38.921833166666666, "is_disabled": 0, "name": "551834d84ea62633044efe740eac82ab", "fusion_lat": 0.0, "rental_uris": {"ios": "https://dc.lft.to/lastmile_qr_scan", "android": "https://dc.lft.to/lastmile_qr_scan"}, "lon": -77.04282916666666, "type": "electric_scooter"}, {"bike_id": "d7a574dc51e0c3322f27b0551c22d613", "is_reserved": 0, "fusion_lon": 0.0, "lat": 38.892323, "is_disabled": 0, "name": "d7a574dc51e0c3322f27b0551c22d613", "fusion_lat": 0.0, "rental_uris": {"ios": "https://dc.lft.to/lastmile_qr_scan", "android": "https://dc.lft.to/lastmile_qr_scan"}, "lon": -77.021716, "type": "electric_scooter"}, {"bike_id": "c1c0a2e2eb6f8e0de663fb6f46687481", "is_reserved": 0, "fusion_lon": 0.0, "lat": 38.89894, "is_disabled": 0, "name": "c1c0a2e2eb6f8e0de663fb6f46687481", "fusion_lat": 0.0, "rental_uris": {"ios": "https://dc.lft.to/lastmile_qr_scan", "android": "https://dc.lft.to/lastmile_qr_scan"}, "lon": -77.04464416666667, "type": "electric_scooter"}, {"bike_id": "4d0a2a9381ce46c3a9830571830f925b", "is_reserved": 0, "fusion_lon": 0.0, "lat": 38.92574916666667, "is_disabled": 0, "name": "4d0a2a9381ce46c3a9830571830f925b", "fusion_lat": 0.0, "rental_uris": {"ios": "https://dc.lft.to/lastmile_qr_scan", "android": "https://dc.lft.to/lastmile_qr_scan"}, "lon": -77.073073, "type": "electric_scooter"}, {"bike_id": "5d5b92450783351bf44baac94e2efaa1", "is_reserved": 0, "fusion_lon": 0.0, "lat": 38.91041716666667, "is_disabled": 0, "name": "5d5b92450783351bf44baac94e2efaa1", "fusion_lat": 0.0, "rental_uris": {"ios": "https://dc.lft.to/lastmile_qr_scan", "android": "https://dc.lft.to/lastmile_qr_scan"}, "lon": -77.02811766666666, "type": "electric_scooter"}, {"bike_id": "3e227dcd367bcafe2a63d51b91dfb8e1", "is_reserved": 0, "fusion_lon": 0.0, "lat": 38.934817333333335, "is_disabled": 0, "name": "3e227dcd367bcafe2a63d51b91dfb8e1", "fusion_lat": 0.0, "rental_uris": {"ios": "https://dc.lft.to/lastmile_qr_scan", "android": "https://dc.lft.to/lastmile_qr_scan"}, "lon": -77.03514733333333, "type": "electric_scooter"}, {"bike_id": "0bb0a050fe2877af737a621eed81b78d", "is_reserved": 0, "fusion_lon": 0.0, "lat": 38.90253833333333, "is_disabled": 0, "name": "0bb0a050fe2877af737a621eed81b78d", "fusion_lat": 0.0, "rental_uris": {"ios": "https://dc.lft.to/lastmile_qr_scan", "android": "https://dc.lft.to/lastmile_qr_scan"}, "lon": -77.01732683333333, "type": "electric_scooter"}, {"bike_id": "536edfbf388f62b5baf7f6d1504dfd73", "is_reserved": 0, "fusion_lon": 0.0, "lat": 38.950873, "is_disabled": 0, "name": "536edfbf388f62b5baf7f6d1504dfd73", "fusion_lat": 0.0, "rental_uris": {"ios": "https://dc.lft.to/lastmile_qr_scan", "android": "https://dc.lft.to/lastmile_qr_scan"}, "lon": -77.02828666666667, "type": "electric_scooter"}, {"bike_id": "e98eac208b16a2bb420f836461a9cca6", "is_reserved": 0, "fusion_lon": 0.0, "lat": 38.9310685, "is_disabled": 0, "name": "e98eac208b16a2bb420f836461a9cca6", "fusion_lat": 0.0, "rental_uris": {"ios": "https://dc.lft.to/lastmile_qr_scan", "android": "https://dc.lft.to/lastmile_qr_scan"}, "lon": -77.024031, "type": "electric_scooter"}, {"bike_id": "2bbeb2f899814c18ba16d699ed28222d", "is_reserved": 0, "fusion_lon": 0.0, "lat": 38.900678, "is_disabled": 0, "name": "2bbeb2f899814c18ba16d699ed28222d", "fusion_lat": 0.0, "rental_uris": {"ios": "https://dc.lft.to/lastmile_qr_scan", "android": "https://dc.lft.to/lastmile_qr_scan"}, "lon": -76.9338995, "type": "electric_scooter"}, {"bike_id": "16544d91db4bea0af66450975400feea", "is_reserved": 0, "fusion_lon": 0.0, "lat": 38.907551, "is_disabled": 0, "name": "16544d91db4bea0af66450975400feea", "fusion_lat": 0.0, "rental_uris": {"ios": "https://dc.lft.to/lastmile_qr_scan", "android": "https://dc.lft.to/lastmile_qr_scan"}, "lon": -77.03470366666667, "type": "electric_scooter"}, {"bike_id": "c6cc3f76de49aefed603aa63416b41e3", "is_reserved": 0, "fusion_lon": 0.0, "lat": 38.9198245, "is_disabled": 0, "name": "c6cc3f76de49aefed603aa63416b41e3", "fusion_lat": 0.0, "rental_uris": {"ios": "https://dc.lft.to/lastmile_qr_scan", "android": "https://dc.lft.to/lastmile_qr_scan"}, "lon": -77.02602066666667, "type": "electric_scooter"}, {"bike_id": "ac8b9b602db4e7c4aab5fd5baa7b6279", "is_reserved": 0, "fusion_lon": 0.0, "lat": 38.905799, "is_disabled": 0, "name": "ac8b9b602db4e7c4aab5fd5baa7b6279", "fusion_lat": 0.0, "rental_uris": {"ios": "https://dc.lft.to/lastmile_qr_scan", "android": "https://dc.lft.to/lastmile_qr_scan"}, "lon": -77.03470633333333, "type": "electric_scooter"}, {"bike_id": "b3fc60aa7ad02f517ebd41c93476b9ab", "is_reserved": 0, "fusion_lon": 0.0, "lat": 38.86701, "is_disabled": 0, "name": "b3fc60aa7ad02f517ebd41c93476b9ab", "fusion_lat": 0.0, "rental_uris": {"ios": "https://dc.lft.to/lastmile_qr_scan", "android": "https://dc.lft.to/lastmile_qr_scan"}, "lon": -76.9870765, "type": "electric_scooter"}, {"bike_id": "e734165dad9130be0749338b6c11cf73", "is_reserved": 0, "fusion_lon": 0.0, "lat": 38.92289866666667, "is_disabled": 0, "name": "e734165dad9130be0749338b6c11cf73", "fusion_lat": 0.0, "rental_uris": {"ios": "https://dc.lft.to/lastmile_qr_scan", "android": "https://dc.lft.to/lastmile_qr_scan"}, "lon": -77.02070783333333, "type": "electric_scooter"}, {"bike_id": "1fcf5ee1d8c02b210081331328a78242", "is_reserved": 0, "fusion_lon": 0.0, "lat": 38.9056655, "is_disabled": 0, "name": "1fcf5ee1d8c02b210081331328a78242", "fusion_lat": 0.0, "rental_uris": {"ios": "https://dc.lft.to/lastmile_qr_scan", "android": "https://dc.lft.to/lastmile_qr_scan"}, "lon": -77.021704, "type": "electric_scooter"}, {"bike_id": "6591c5d0a4090afe6252b798c9308e91", "is_reserved": 0, "fusion_lon": 0.0, "lat": 38.94146683333334, "is_disabled": 0, "name": "6591c5d0a4090afe6252b798c9308e91", "fusion_lat": 0.0, "rental_uris": {"ios": "https://dc.lft.to/lastmile_qr_scan", "android": "https://dc.lft.to/lastmile_qr_scan"}, "lon": -77.03646566666667, "type": "electric_scooter"}, {"bike_id": "7194b18afaeeaf3216ae7d882e506fd6", "is_reserved": 0, "fusion_lon": 0.0, "lat": 38.905605666666666, "is_disabled": 0, "name": "7194b18afaeeaf3216ae7d882e506fd6", "fusion_lat": 0.0, "rental_uris": {"ios": "https://dc.lft.to/lastmile_qr_scan", "android": "https://dc.lft.to/lastmile_qr_scan"}, "lon": -76.997923, "type": "electric_bike"}, {"bike_id": "11cc1abbfa993cd2388e989982c5ee88", "is_reserved": 0, "fusion_lon": 0.0, "lat": 38.913323166666665, "is_disabled": 0, "name": "11cc1abbfa993cd2388e989982c5ee88", "fusion_lat": 0.0, "rental_uris": {"ios": "https://dc.lft.to/lastmile_qr_scan", "android": "https://dc.lft.to/lastmile_qr_scan"}, "lon": -77.03042783333333, "type": "electric_scooter"}, {"bike_id": "8d13f2d39738d0db4f8db8d294dd8568", "is_reserved": 0, "fusion_lon": 0.0, "lat": 38.884293166666666, "is_disabled": 0, "name": "8d13f2d39738d0db4f8db8d294dd8568", "fusion_lat": 0.0, "rental_uris": {"ios": "https://dc.lft.to/lastmile_qr_scan", "android": "https://dc.lft.to/lastmile_qr_scan"}, "lon": -76.95747816666666, "type": "electric_scooter"}, {"bike_id": "e4a4f8b95c2db19cbcaeddbcc3f6bebe", "is_reserved": 0, "fusion_lon": 0.0, "lat": 38.924067666666666, "is_disabled": 0, "name": "e4a4f8b95c2db19cbcaeddbcc3f6bebe", "fusion_lat": 0.0, "rental_uris": {"ios": "https://dc.lft.to/lastmile_qr_scan", "android": "https://dc.lft.to/lastmile_qr_scan"}, "lon": -77.02543183333333, "type": "electric_scooter"}, {"bike_id": "d2ed9040ab79863f2adb4b6eff8dd3bb", "is_reserved": 0, "fusion_lon": 0.0, "lat": 38.92288666666666, "is_disabled": 0, "name": "d2ed9040ab79863f2adb4b6eff8dd3bb", "fusion_lat": 0.0, "rental_uris": {"ios": "https://dc.lft.to/lastmile_qr_scan", "android": "https://dc.lft.to/lastmile_qr_scan"}, "lon": -77.03195216666667, "type": "electric_scooter"}, {"bike_id": "11e5900fa36730625da4c156632754cd", "is_reserved": 0, "fusion_lon": 0.0, "lat": 38.990906833333334, "is_disabled": 0, "name": "11e5900fa36730625da4c156632754cd", "fusion_lat": 0.0, "rental_uris": {"ios": "https://dc.lft.to/lastmile_qr_scan", "android": "https://dc.lft.to/lastmile_qr_scan"}, "lon": -76.87495883333334, "type": "electric_bike"}, {"bike_id": "58afc6ede227974ff7be64ec885190d3", "is_reserved": 0, "fusion_lon": 0.0, "lat": 38.905314833333335, "is_disabled": 0, "name": "58afc6ede227974ff7be64ec885190d3", "fusion_lat": 0.0, "rental_uris": {"ios": "https://dc.lft.to/lastmile_qr_scan", "android": "https://dc.lft.to/lastmile_qr_scan"}, "lon": -76.99803083333333, "type": "electric_bike"}, {"bike_id": "aff3dc23c3e82744d48a0f64ebbdaf90", "is_reserved": 0, "fusion_lon": 0.0, "lat": 38.940521, "is_disabled": 0, "name": "aff3dc23c3e82744d48a0f64ebbdaf90", "fusion_lat": 0.0, "rental_uris": {"ios": "https://dc.lft.to/lastmile_qr_scan", "android": "https://dc.lft.to/lastmile_qr_scan"}, "lon": -77.09266383333333, "type": "electric_scooter"}, {"bike_id": "944d57dc704d0d2b6fca0b3ddfa5a8e6", "is_reserved": 0, "fusion_lon": 0.0, "lat": 38.9033285, "is_disabled": 0, "name": "944d57dc704d0d2b6fca0b3ddfa5a8e6", "fusion_lat": 0.0, "rental_uris": {"ios": "https://dc.lft.to/lastmile_qr_scan", "android": "https://dc.lft.to/lastmile_qr_scan"}, "lon": -77.03856733333333, "type": "electric_scooter"}, {"bike_id": "87391c51db25df5979e9bfb3ec7b7437", "is_reserved": 0, "fusion_lon": 0.0, "lat": 38.92743016666667, "is_disabled": 0, "name": "87391c51db25df5979e9bfb3ec7b7437", "fusion_lat": 0.0, "rental_uris": {"ios": "https://dc.lft.to/lastmile_qr_scan", "android": "https://dc.lft.to/lastmile_qr_scan"}, "lon": -77.01201033333334, "type": "electric_scooter"}, {"bike_id": "1e779ab5618bf851155f300674fcea85", "is_reserved": 0, "fusion_lon": 0.0, "lat": 38.974340833333336, "is_disabled": 0, "name": "1e779ab5618bf851155f300674fcea85", "fusion_lat": 0.0, "rental_uris": {"ios": "https://dc.lft.to/lastmile_qr_scan", "android": "https://dc.lft.to/lastmile_qr_scan"}, "lon": -77.01528583333334, "type": "electric_scooter"}, {"bike_id": "7b1f55193a014de14979b379e697aa9f", "is_reserved": 0, "fusion_lon": 0.0, "lat": 38.91416383333333, "is_disabled": 0, "name": "7b1f55193a014de14979b379e697aa9f", "fusion_lat": 0.0, "rental_uris": {"ios": "https://dc.lft.to/lastmile_qr_scan", "android": "https://dc.lft.to/lastmile_qr_scan"}, "lon": -77.04144133333334, "type": "electric_scooter"}, {"bike_id": "3065b33323ef92aa6125f8f7429d185c", "is_reserved": 0, "fusion_lon": 0.0, "lat": 38.908652833333335, "is_disabled": 0, "name": "3065b33323ef92aa6125f8f7429d185c", "fusion_lat": 0.0, "rental_uris": {"ios": "https://dc.lft.to/lastmile_qr_scan", "android": "https://dc.lft.to/lastmile_qr_scan"}, "lon": -76.99953116666667, "type": "electric_scooter"}, {"bike_id": "5b27787697731635f2a6b754f693e0f1", "is_reserved": 0, "fusion_lon": 0.0, "lat": 38.913304833333335, "is_disabled": 0, "name": "5b27787697731635f2a6b754f693e0f1", "fusion_lat": 0.0, "rental_uris": {"ios": "https://dc.lft.to/lastmile_qr_scan", "android": "https://dc.lft.to/lastmile_qr_scan"}, "lon": -77.0311485, "type": "electric_scooter"}, {"bike_id": "42f6c730accca9dae556428fb99a68e9", "is_reserved": 0, "fusion_lon": 0.0, "lat": 38.8968085, "is_disabled": 0, "name": "42f6c730accca9dae556428fb99a68e9", "fusion_lat": 0.0, "rental_uris": {"ios": "https://dc.lft.to/lastmile_qr_scan", "android": "https://dc.lft.to/lastmile_qr_scan"}, "lon": -76.99624366666667, "type": "electric_scooter"}, {"bike_id": "944d8bdd41a51412e37eac9f77d0eaec", "is_reserved": 0, "fusion_lon": 0.0, "lat": 38.900376, "is_disabled": 0, "name": "944d8bdd41a51412e37eac9f77d0eaec", "fusion_lat": 0.0, "rental_uris": {"ios": "https://dc.lft.to/lastmile_qr_scan", "android": "https://dc.lft.to/lastmile_qr_scan"}, "lon": -77.00183716666666, "type": "electric_scooter"}, {"bike_id": "ae345dab4ce0f94494f3bd68bc608fff", "is_reserved": 0, "fusion_lon": 0.0, "lat": 38.90450216666667, "is_disabled": 0, "name": "ae345dab4ce0f94494f3bd68bc608fff", "fusion_lat": 0.0, "rental_uris": {"ios": "https://dc.lft.to/lastmile_qr_scan", "android": "https://dc.lft.to/lastmile_qr_scan"}, "lon": -77.01699483333333, "type": "electric_scooter"}, {"bike_id": "b1b2bc23393e3b809b4a62922215c781", "is_reserved": 0, "fusion_lon": 0.0, "lat": 38.84292266666667, "is_disabled": 0, "name": "b1b2bc23393e3b809b4a62922215c781", "fusion_lat": 0.0, "rental_uris": {"ios": "https://dc.lft.to/lastmile_qr_scan", "android": "https://dc.lft.to/lastmile_qr_scan"}, "lon": -76.99946766666666, "type": "electric_scooter"}, {"bike_id": "457bef7436e7658fb1e2e8cd952d653c", "is_reserved": 0, "fusion_lon": 0.0, "lat": 38.906269, "is_disabled": 0, "name": "457bef7436e7658fb1e2e8cd952d653c", "fusion_lat": 0.0, "rental_uris": {"ios": "https://dc.lft.to/lastmile_qr_scan", "android": "https://dc.lft.to/lastmile_qr_scan"}, "lon": -77.05134333333334, "type": "electric_scooter"}, {"bike_id": "02ab8eb419e00fba75109df853a2a834", "is_reserved": 0, "fusion_lon": 0.0, "lat": 38.917465666666665, "is_disabled": 0, "name": "02ab8eb419e00fba75109df853a2a834", "fusion_lat": 0.0, "rental_uris": {"ios": "https://dc.lft.to/lastmile_qr_scan", "android": "https://dc.lft.to/lastmile_qr_scan"}, "lon": -77.00752683333333, "type": "electric_scooter"}, {"bike_id": "7947384112cb3650e8bdd74d9f651faa", "is_reserved": 0, "fusion_lon": 0.0, "lat": 38.86699266666667, "is_disabled": 0, "name": "7947384112cb3650e8bdd74d9f651faa", "fusion_lat": 0.0, "rental_uris": {"ios": "https://dc.lft.to/lastmile_qr_scan", "android": "https://dc.lft.to/lastmile_qr_scan"}, "lon": -76.98713133333334, "type": "electric_scooter"}, {"bike_id": "f2eeaa10ad1f6a0131428ea0b8b13514", "is_reserved": 0, "fusion_lon": 0.0, "lat": 38.90371416666667, "is_disabled": 0, "name": "f2eeaa10ad1f6a0131428ea0b8b13514", "fusion_lat": 0.0, "rental_uris": {"ios": "https://dc.lft.to/lastmile_qr_scan", "android": "https://dc.lft.to/lastmile_qr_scan"}, "lon": -77.01901083333334, "type": "electric_scooter"}, {"bike_id": "1ad3338a794b8949e68b4686800353dd", "is_reserved": 0, "fusion_lon": 0.0, "lat": 38.9076225, "is_disabled": 0, "name": "1ad3338a794b8949e68b4686800353dd", "fusion_lat": 0.0, "rental_uris": {"ios": "https://dc.lft.to/lastmile_qr_scan", "android": "https://dc.lft.to/lastmile_qr_scan"}, "lon": -77.00118016666667, "type": "electric_scooter"}, {"bike_id": "903bb222cc1ddcbe4b0ed12404c36a80", "is_reserved": 0, "fusion_lon": 0.0, "lat": 38.92107883333333, "is_disabled": 0, "name": "903bb222cc1ddcbe4b0ed12404c36a80", "fusion_lat": 0.0, "rental_uris": {"ios": "https://dc.lft.to/lastmile_qr_scan", "android": "https://dc.lft.to/lastmile_qr_scan"}, "lon": -77.04366316666666, "type": "electric_scooter"}, {"bike_id": "226b139550e985c7e6aba4fd6dd8d4a1", "is_reserved": 0, "fusion_lon": 0.0, "lat": 38.921612, "is_disabled": 0, "name": "226b139550e985c7e6aba4fd6dd8d4a1", "fusion_lat": 0.0, "rental_uris": {"ios": "https://dc.lft.to/lastmile_qr_scan", "android": "https://dc.lft.to/lastmile_qr_scan"}, "lon": -77.01804866666667, "type": "electric_scooter"}, {"bike_id": "89d2510f7e1788ded87e60274716ce0f", "is_reserved": 0, "fusion_lon": 0.0, "lat": 38.89825583333333, "is_disabled": 0, "name": "89d2510f7e1788ded87e60274716ce0f", "fusion_lat": 0.0, "rental_uris": {"ios": "https://dc.lft.to/lastmile_qr_scan", "android": "https://dc.lft.to/lastmile_qr_scan"}, "lon": -77.032875, "type": "electric_scooter"}, {"bike_id": "0b775c4d69cc29c55b1e32f083b265b4", "is_reserved": 0, "fusion_lon": 0.0, "lat": 38.90130716666667, "is_disabled": 0, "name": "0b775c4d69cc29c55b1e32f083b265b4", "fusion_lat": 0.0, "rental_uris": {"ios": "https://dc.lft.to/lastmile_qr_scan", "android": "https://dc.lft.to/lastmile_qr_scan"}, "lon": -77.0436015, "type": "electric_scooter"}, {"bike_id": "b7f72bc754113a047c2fa2f16e258bbd", "is_reserved": 0, "fusion_lon": 0.0, "lat": 38.922101166666664, "is_disabled": 0, "name": "b7f72bc754113a047c2fa2f16e258bbd", "fusion_lat": 0.0, "rental_uris": {"ios": "https://dc.lft.to/lastmile_qr_scan", "android": "https://dc.lft.to/lastmile_qr_scan"}, "lon": -77.0365765, "type": "electric_scooter"}, {"bike_id": "8c26c938a6cd03e790e27bf8877114d5", "is_reserved": 0, "fusion_lon": 0.0, "lat": 38.91975983333333, "is_disabled": 0, "name": "8c26c938a6cd03e790e27bf8877114d5", "fusion_lat": 0.0, "rental_uris": {"ios": "https://dc.lft.to/lastmile_qr_scan", "android": "https://dc.lft.to/lastmile_qr_scan"}, "lon": -77.02378983333334, "type": "electric_scooter"}, {"bike_id": "1c866c7871a889691bdcd4ee63ecc086", "is_reserved": 0, "fusion_lon": 0.0, "lat": 38.92987466666666, "is_disabled": 0, "name": "1c866c7871a889691bdcd4ee63ecc086", "fusion_lat": 0.0, "rental_uris": {"ios": "https://dc.lft.to/lastmile_qr_scan", "android": "https://dc.lft.to/lastmile_qr_scan"}, "lon": -77.07942266666667, "type": "electric_scooter"}, {"bike_id": "b54a62d770b58be560f81503605e4ddb", "is_reserved": 0, "fusion_lon": 0.0, "lat": 38.92169666666667, "is_disabled": 0, "name": "b54a62d770b58be560f81503605e4ddb", "fusion_lat": 0.0, "rental_uris": {"ios": "https://dc.lft.to/lastmile_qr_scan", "android": "https://dc.lft.to/lastmile_qr_scan"}, "lon": -76.99401666666667, "type": "electric_scooter"}, {"bike_id": "8d7810c833a13b857b398195ca86d333", "is_reserved": 0, "fusion_lon": 0.0, "lat": 38.87132916666667, "is_disabled": 0, "name": "8d7810c833a13b857b398195ca86d333", "fusion_lat": 0.0, "rental_uris": {"ios": "https://dc.lft.to/lastmile_qr_scan", "android": "https://dc.lft.to/lastmile_qr_scan"}, "lon": -76.93732716666666, "type": "electric_bike"}, {"bike_id": "81ad63f842f33873668c6ac32431ee82", "is_reserved": 0, "fusion_lon": 0.0, "lat": 38.864547, "is_disabled": 0, "name": "81ad63f842f33873668c6ac32431ee82", "fusion_lat": 0.0, "rental_uris": {"ios": "https://dc.lft.to/lastmile_qr_scan", "android": "https://dc.lft.to/lastmile_qr_scan"}, "lon": -76.94548466666667, "type": "electric_bike"}, {"bike_id": "160deafa7a1c8400bee3aa09b9187b81", "is_reserved": 0, "fusion_lon": 0.0, "lat": 38.93678533333333, "is_disabled": 0, "name": "160deafa7a1c8400bee3aa09b9187b81", "fusion_lat": 0.0, "rental_uris": {"ios": "https://dc.lft.to/lastmile_qr_scan", "android": "https://dc.lft.to/lastmile_qr_scan"}, "lon": -77.03592133333333, "type": "electric_scooter"}, {"bike_id": "f0a278d1c0f5759295f11b7167caace5", "is_reserved": 0, "fusion_lon": 0.0, "lat": 38.92411533333333, "is_disabled": 0, "name": "f0a278d1c0f5759295f11b7167caace5", "fusion_lat": 0.0, "rental_uris": {"ios": "https://dc.lft.to/lastmile_qr_scan", "android": "https://dc.lft.to/lastmile_qr_scan"}, "lon": -77.0406625, "type": "electric_bike"}, {"bike_id": "3c235d891f6c1a2d8e22a0450f52dc95", "is_reserved": 0, "fusion_lon": 0.0, "lat": 38.9248815, "is_disabled": 0, "name": "3c235d891f6c1a2d8e22a0450f52dc95", "fusion_lat": 0.0, "rental_uris": {"ios": "https://dc.lft.to/lastmile_qr_scan", "android": "https://dc.lft.to/lastmile_qr_scan"}, "lon": -77.027118, "type": "electric_scooter"}, {"bike_id": "dab439c83e9e77d6c5216b18fd52c51b", "is_reserved": 0, "fusion_lon": 0.0, "lat": 38.913628833333334, "is_disabled": 0, "name": "dab439c83e9e77d6c5216b18fd52c51b", "fusion_lat": 0.0, "rental_uris": {"ios": "https://dc.lft.to/lastmile_qr_scan", "android": "https://dc.lft.to/lastmile_qr_scan"}, "lon": -77.046528, "type": "electric_scooter"}, {"bike_id": "61b552e6f0670560cddb976638c8d7c7", "is_reserved": 0, "fusion_lon": 0.0, "lat": 38.91838816666667, "is_disabled": 0, "name": "61b552e6f0670560cddb976638c8d7c7", "fusion_lat": 0.0, "rental_uris": {"ios": "https://dc.lft.to/lastmile_qr_scan", "android": "https://dc.lft.to/lastmile_qr_scan"}, "lon": -77.022964, "type": "electric_scooter"}, {"bike_id": "af2df5dde1d62b10bc326a10f8ba5b1c", "is_reserved": 0, "fusion_lon": 0.0, "lat": 38.92825633333333, "is_disabled": 0, "name": "af2df5dde1d62b10bc326a10f8ba5b1c", "fusion_lat": 0.0, "rental_uris": {"ios": "https://dc.lft.to/lastmile_qr_scan", "android": "https://dc.lft.to/lastmile_qr_scan"}, "lon": -77.022558, "type": "electric_scooter"}, {"bike_id": "22d5febcf3b0c9c0a35d5786f67a9660", "is_reserved": 0, "fusion_lon": 0.0, "lat": 38.90400366666667, "is_disabled": 0, "name": "22d5febcf3b0c9c0a35d5786f67a9660", "fusion_lat": 0.0, "rental_uris": {"ios": "https://dc.lft.to/lastmile_qr_scan", "android": "https://dc.lft.to/lastmile_qr_scan"}, "lon": -77.04211566666666, "type": "electric_scooter"}, {"bike_id": "f9ad3836789d934b3791f69064add378", "is_reserved": 0, "fusion_lon": 0.0, "lat": 38.9026685, "is_disabled": 0, "name": "f9ad3836789d934b3791f69064add378", "fusion_lat": 0.0, "rental_uris": {"ios": "https://dc.lft.to/lastmile_qr_scan", "android": "https://dc.lft.to/lastmile_qr_scan"}, "lon": -77.02982316666667, "type": "electric_scooter"}, {"bike_id": "0e94c8c6e00aca0f5c04c1de652accba", "is_reserved": 0, "fusion_lon": 0.0, "lat": 38.90171983333333, "is_disabled": 0, "name": "0e94c8c6e00aca0f5c04c1de652accba", "fusion_lat": 0.0, "rental_uris": {"ios": "https://dc.lft.to/lastmile_qr_scan", "android": "https://dc.lft.to/lastmile_qr_scan"}, "lon": -76.980776, "type": "electric_scooter"}, {"bike_id": "0ad35bd01b4770449994f25d3e5c0bd7", "is_reserved": 0, "fusion_lon": 0.0, "lat": 38.91197783333333, "is_disabled": 0, "name": "0ad35bd01b4770449994f25d3e5c0bd7", "fusion_lat": 0.0, "rental_uris": {"ios": "https://dc.lft.to/lastmile_qr_scan", "android": "https://dc.lft.to/lastmile_qr_scan"}, "lon": -77.06097883333334, "type": "electric_scooter"}, {"bike_id": "4edd5abad1e690973d13a88d6b6d7ea3", "is_reserved": 0, "fusion_lon": 0.0, "lat": 38.900934166666666, "is_disabled": 0, "name": "4edd5abad1e690973d13a88d6b6d7ea3", "fusion_lat": 0.0, "rental_uris": {"ios": "https://dc.lft.to/lastmile_qr_scan", "android": "https://dc.lft.to/lastmile_qr_scan"}, "lon": -77.04865133333334, "type": "electric_bike"}, {"bike_id": "daab77bacb7cca8563d36d28f701f86f", "is_reserved": 0, "fusion_lon": 0.0, "lat": 38.88887166666667, "is_disabled": 0, "name": "daab77bacb7cca8563d36d28f701f86f", "fusion_lat": 0.0, "rental_uris": {"ios": "https://dc.lft.to/lastmile_qr_scan", "android": "https://dc.lft.to/lastmile_qr_scan"}, "lon": -77.03320733333334, "type": "electric_bike"}, {"bike_id": "ad9070ed310adc3875f6aa509e271b69", "is_reserved": 0, "fusion_lon": 0.0, "lat": 38.959553, "is_disabled": 0, "name": "ad9070ed310adc3875f6aa509e271b69", "fusion_lat": 0.0, "rental_uris": {"ios": "https://dc.lft.to/lastmile_qr_scan", "android": "https://dc.lft.to/lastmile_qr_scan"}, "lon": -77.10087666666666, "type": "electric_bike"}, {"bike_id": "8ad093105cd67274b4c1c17343a0b5f9", "is_reserved": 0, "fusion_lon": 0.0, "lat": 38.884956, "is_disabled": 0, "name": "8ad093105cd67274b4c1c17343a0b5f9", "fusion_lat": 0.0, "rental_uris": {"ios": "https://dc.lft.to/lastmile_qr_scan", "android": "https://dc.lft.to/lastmile_qr_scan"}, "lon": -77.00727116666667, "type": "electric_scooter"}, {"bike_id": "19bbde0035864b42ab0c6f155ab1c472", "is_reserved": 0, "fusion_lon": 0.0, "lat": 38.905713666666664, "is_disabled": 0, "name": "19bbde0035864b42ab0c6f155ab1c472", "fusion_lat": 0.0, "rental_uris": {"ios": "https://dc.lft.to/lastmile_qr_scan", "android": "https://dc.lft.to/lastmile_qr_scan"}, "lon": -77.03625666666667, "type": "electric_scooter"}, {"bike_id": "481a129067233207ed29cf0fde2e01dd", "is_reserved": 0, "fusion_lon": 0.0, "lat": 38.89741516666667, "is_disabled": 0, "name": "481a129067233207ed29cf0fde2e01dd", "fusion_lat": 0.0, "rental_uris": {"ios": "https://dc.lft.to/lastmile_qr_scan", "android": "https://dc.lft.to/lastmile_qr_scan"}, "lon": -77.027383, "type": "electric_scooter"}, {"bike_id": "b76e4af704414db64b3bdbf910be1048", "is_reserved": 0, "fusion_lon": 0.0, "lat": 38.912024, "is_disabled": 0, "name": "b76e4af704414db64b3bdbf910be1048", "fusion_lat": 0.0, "rental_uris": {"ios": "https://dc.lft.to/lastmile_qr_scan", "android": "https://dc.lft.to/lastmile_qr_scan"}, "lon": -77.07318866666667, "type": "electric_scooter"}, {"bike_id": "8c4c44276f09130a115c0b401fb0a2ea", "is_reserved": 0, "fusion_lon": 0.0, "lat": 38.96204866666667, "is_disabled": 0, "name": "8c4c44276f09130a115c0b401fb0a2ea", "fusion_lat": 0.0, "rental_uris": {"ios": "https://dc.lft.to/lastmile_qr_scan", "android": "https://dc.lft.to/lastmile_qr_scan"}, "lon": -77.0223535, "type": "electric_bike"}, {"bike_id": "0b4dca2d9e51f21edbf97b4d5ad29e69", "is_reserved": 0, "fusion_lon": 0.0, "lat": 38.906759666666666, "is_disabled": 0, "name": "0b4dca2d9e51f21edbf97b4d5ad29e69", "fusion_lat": 0.0, "rental_uris": {"ios": "https://dc.lft.to/lastmile_qr_scan", "android": "https://dc.lft.to/lastmile_qr_scan"}, "lon": -77.00011533333333, "type": "electric_scooter"}, {"bike_id": "fda4a5af0d746c01b8c53b291895f47b", "is_reserved": 0, "fusion_lon": 0.0, "lat": 38.90380866666667, "is_disabled": 0, "name": "fda4a5af0d746c01b8c53b291895f47b", "fusion_lat": 0.0, "rental_uris": {"ios": "https://dc.lft.to/lastmile_qr_scan", "android": "https://dc.lft.to/lastmile_qr_scan"}, "lon": -76.9982805, "type": "electric_scooter"}, {"bike_id": "455a0efcba1416e52d469147fd9b8acd", "is_reserved": 0, "fusion_lon": 0.0, "lat": 38.924600833333336, "is_disabled": 0, "name": "455a0efcba1416e52d469147fd9b8acd", "fusion_lat": 0.0, "rental_uris": {"ios": "https://dc.lft.to/lastmile_qr_scan", "android": "https://dc.lft.to/lastmile_qr_scan"}, "lon": -76.99911866666666, "type": "electric_scooter"}, {"bike_id": "0dea946231fba52d40cbe92bea949881", "is_reserved": 0, "fusion_lon": 0.0, "lat": 38.903467, "is_disabled": 0, "name": "0dea946231fba52d40cbe92bea949881", "fusion_lat": 0.0, "rental_uris": {"ios": "https://dc.lft.to/lastmile_qr_scan", "android": "https://dc.lft.to/lastmile_qr_scan"}, "lon": -77.03851433333334, "type": "electric_scooter"}, {"bike_id": "237ba84d39d1862613c82227fcd71b3e", "is_reserved": 0, "fusion_lon": 0.0, "lat": 38.886378666666666, "is_disabled": 0, "name": "237ba84d39d1862613c82227fcd71b3e", "fusion_lat": 0.0, "rental_uris": {"ios": "https://dc.lft.to/lastmile_qr_scan", "android": "https://dc.lft.to/lastmile_qr_scan"}, "lon": -77.0213825, "type": "electric_scooter"}, {"bike_id": "9b1d641f968afb06cc34986278f24001", "is_reserved": 0, "fusion_lon": 0.0, "lat": 38.8133675, "is_disabled": 0, "name": "9b1d641f968afb06cc34986278f24001", "fusion_lat": 0.0, "rental_uris": {"ios": "https://dc.lft.to/lastmile_qr_scan", "android": "https://dc.lft.to/lastmile_qr_scan"}, "lon": -77.0511015, "type": "electric_bike"}, {"bike_id": "98880cce47d1c66255b0993f155fb284", "is_reserved": 0, "fusion_lon": 0.0, "lat": 38.93375866666667, "is_disabled": 0, "name": "98880cce47d1c66255b0993f155fb284", "fusion_lat": 0.0, "rental_uris": {"ios": "https://dc.lft.to/lastmile_qr_scan", "android": "https://dc.lft.to/lastmile_qr_scan"}, "lon": -77.03462716666667, "type": "electric_scooter"}, {"bike_id": "db183cf01b876baf7f0a3fe769bbfc41", "is_reserved": 0, "fusion_lon": 0.0, "lat": 38.892203, "is_disabled": 0, "name": "db183cf01b876baf7f0a3fe769bbfc41", "fusion_lat": 0.0, "rental_uris": {"ios": "https://dc.lft.to/lastmile_qr_scan", "android": "https://dc.lft.to/lastmile_qr_scan"}, "lon": -77.0316345, "type": "electric_scooter"}, {"bike_id": "6c53b76cfbd5c721614d52d82d6dc1d3", "is_reserved": 0, "fusion_lon": 0.0, "lat": 38.917257, "is_disabled": 0, "name": "6c53b76cfbd5c721614d52d82d6dc1d3", "fusion_lat": 0.0, "rental_uris": {"ios": "https://dc.lft.to/lastmile_qr_scan", "android": "https://dc.lft.to/lastmile_qr_scan"}, "lon": -77.06842333333333, "type": "electric_scooter"}, {"bike_id": "ba77d4287d6a35d35727a5c76a1fe3eb", "is_reserved": 0, "fusion_lon": 0.0, "lat": 38.93903683333333, "is_disabled": 0, "name": "ba77d4287d6a35d35727a5c76a1fe3eb", "fusion_lat": 0.0, "rental_uris": {"ios": "https://dc.lft.to/lastmile_qr_scan", "android": "https://dc.lft.to/lastmile_qr_scan"}, "lon": -77.077247, "type": "electric_scooter"}, {"bike_id": "8e83c8cec38b97b1f949053d5d40cf0c", "is_reserved": 0, "fusion_lon": 0.0, "lat": 38.894731, "is_disabled": 0, "name": "8e83c8cec38b97b1f949053d5d40cf0c", "fusion_lat": 0.0, "rental_uris": {"ios": "https://dc.lft.to/lastmile_qr_scan", "android": "https://dc.lft.to/lastmile_qr_scan"}, "lon": -77.03059133333333, "type": "electric_scooter"}, {"bike_id": "31d26d316a7728eb8a71ced4fe868ed9", "is_reserved": 0, "fusion_lon": 0.0, "lat": 38.906035, "is_disabled": 0, "name": "31d26d316a7728eb8a71ced4fe868ed9", "fusion_lat": 0.0, "rental_uris": {"ios": "https://dc.lft.to/lastmile_qr_scan", "android": "https://dc.lft.to/lastmile_qr_scan"}, "lon": -77.04036683333334, "type": "electric_scooter"}, {"bike_id": "a184bbac30ca9ff333b152edc71efac1", "is_reserved": 0, "fusion_lon": 0.0, "lat": 38.9221565, "is_disabled": 0, "name": "a184bbac30ca9ff333b152edc71efac1", "fusion_lat": 0.0, "rental_uris": {"ios": "https://dc.lft.to/lastmile_qr_scan", "android": "https://dc.lft.to/lastmile_qr_scan"}, "lon": -77.04260716666667, "type": "electric_scooter"}, {"bike_id": "9f714998bc602ccbcccdc7cb20c00cab", "is_reserved": 0, "fusion_lon": 0.0, "lat": 38.9483485, "is_disabled": 0, "name": "9f714998bc602ccbcccdc7cb20c00cab", "fusion_lat": 0.0, "rental_uris": {"ios": "https://dc.lft.to/lastmile_qr_scan", "android": "https://dc.lft.to/lastmile_qr_scan"}, "lon": -77.03902033333334, "type": "electric_bike"}, {"bike_id": "1d51fbb3895f515986125e53242bcb15", "is_reserved": 0, "fusion_lon": 0.0, "lat": 38.92091883333333, "is_disabled": 0, "name": "1d51fbb3895f515986125e53242bcb15", "fusion_lat": 0.0, "rental_uris": {"ios": "https://dc.lft.to/lastmile_qr_scan", "android": "https://dc.lft.to/lastmile_qr_scan"}, "lon": -77.07470066666667, "type": "electric_scooter"}, {"bike_id": "7c8451445e2088f34fe28716bf6afd70", "is_reserved": 0, "fusion_lon": 0.0, "lat": 38.936134333333335, "is_disabled": 0, "name": "7c8451445e2088f34fe28716bf6afd70", "fusion_lat": 0.0, "rental_uris": {"ios": "https://dc.lft.to/lastmile_qr_scan", "android": "https://dc.lft.to/lastmile_qr_scan"}, "lon": -77.032073, "type": "electric_scooter"}, {"bike_id": "bc35b151ae65fb5a30e503ac9b5556a9", "is_reserved": 0, "fusion_lon": 0.0, "lat": 38.90019016666667, "is_disabled": 0, "name": "bc35b151ae65fb5a30e503ac9b5556a9", "fusion_lat": 0.0, "rental_uris": {"ios": "https://dc.lft.to/lastmile_qr_scan", "android": "https://dc.lft.to/lastmile_qr_scan"}, "lon": -77.01121333333333, "type": "electric_scooter"}, {"bike_id": "cf2798583d50d72035af1a3efc28fe6b", "is_reserved": 0, "fusion_lon": 0.0, "lat": 38.901300666666664, "is_disabled": 0, "name": "cf2798583d50d72035af1a3efc28fe6b", "fusion_lat": 0.0, "rental_uris": {"ios": "https://dc.lft.to/lastmile_qr_scan", "android": "https://dc.lft.to/lastmile_qr_scan"}, "lon": -77.0447985, "type": "electric_scooter"}, {"bike_id": "8c81a00297dfc07e4dda6892d1eeba28", "is_reserved": 0, "fusion_lon": 0.0, "lat": 38.862481833333334, "is_disabled": 0, "name": "8c81a00297dfc07e4dda6892d1eeba28", "fusion_lat": 0.0, "rental_uris": {"ios": "https://dc.lft.to/lastmile_qr_scan", "android": "https://dc.lft.to/lastmile_qr_scan"}, "lon": -76.9948595, "type": "electric_scooter"}, {"bike_id": "71661bcc356de71d56a63b3453b50f56", "is_reserved": 0, "fusion_lon": 0.0, "lat": 38.9052315, "is_disabled": 0, "name": "71661bcc356de71d56a63b3453b50f56", "fusion_lat": 0.0, "rental_uris": {"ios": "https://dc.lft.to/lastmile_qr_scan", "android": "https://dc.lft.to/lastmile_qr_scan"}, "lon": -77.04150516666667, "type": "electric_scooter"}, {"bike_id": "251521052ae320dbdd38521464fa5473", "is_reserved": 0, "fusion_lon": 0.0, "lat": 38.9111325, "is_disabled": 0, "name": "251521052ae320dbdd38521464fa5473", "fusion_lat": 0.0, "rental_uris": {"ios": "https://dc.lft.to/lastmile_qr_scan", "android": "https://dc.lft.to/lastmile_qr_scan"}, "lon": -77.00387066666667, "type": "electric_scooter"}, {"bike_id": "bbd0f54de748bfae9add9ecd2e70ece9", "is_reserved": 0, "fusion_lon": 0.0, "lat": 38.898251333333334, "is_disabled": 0, "name": "bbd0f54de748bfae9add9ecd2e70ece9", "fusion_lat": 0.0, "rental_uris": {"ios": "https://dc.lft.to/lastmile_qr_scan", "android": "https://dc.lft.to/lastmile_qr_scan"}, "lon": -77.03346833333333, "type": "electric_scooter"}, {"bike_id": "9fc173dda38b877ee813af7e2df4ce8d", "is_reserved": 0, "fusion_lon": 0.0, "lat": 38.93348316666667, "is_disabled": 0, "name": "9fc173dda38b877ee813af7e2df4ce8d", "fusion_lat": 0.0, "rental_uris": {"ios": "https://dc.lft.to/lastmile_qr_scan", "android": "https://dc.lft.to/lastmile_qr_scan"}, "lon": -77.05863383333333, "type": "electric_scooter"}, {"bike_id": "7bf418588dcb0e95e580bada14fd764e", "is_reserved": 0, "fusion_lon": 0.0, "lat": 38.92344516666667, "is_disabled": 0, "name": "7bf418588dcb0e95e580bada14fd764e", "fusion_lat": 0.0, "rental_uris": {"ios": "https://dc.lft.to/lastmile_qr_scan", "android": "https://dc.lft.to/lastmile_qr_scan"}, "lon": -77.03520883333333, "type": "electric_scooter"}, {"bike_id": "7c4e3eeadccc3896fe4351d79359673c", "is_reserved": 0, "fusion_lon": 0.0, "lat": 38.8617465, "is_disabled": 0, "name": "7c4e3eeadccc3896fe4351d79359673c", "fusion_lat": 0.0, "rental_uris": {"ios": "https://dc.lft.to/lastmile_qr_scan", "android": "https://dc.lft.to/lastmile_qr_scan"}, "lon": -76.96907616666667, "type": "electric_scooter"}, {"bike_id": "baec468d512c30d349673de39eef2151", "is_reserved": 0, "fusion_lon": 0.0, "lat": 38.945521, "is_disabled": 0, "name": "baec468d512c30d349673de39eef2151", "fusion_lat": 0.0, "rental_uris": {"ios": "https://dc.lft.to/lastmile_qr_scan", "android": "https://dc.lft.to/lastmile_qr_scan"}, "lon": -76.89536333333334, "type": "electric_bike"}, {"bike_id": "4b2e0c996bc6acc39f22f23c7c5dbf79", "is_reserved": 0, "fusion_lon": 0.0, "lat": 38.907471666666666, "is_disabled": 0, "name": "4b2e0c996bc6acc39f22f23c7c5dbf79", "fusion_lat": 0.0, "rental_uris": {"ios": "https://dc.lft.to/lastmile_qr_scan", "android": "https://dc.lft.to/lastmile_qr_scan"}, "lon": -77.03470316666667, "type": "electric_scooter"}, {"bike_id": "d39dfcb72ad09b9583f6f334d1bfb714", "is_reserved": 0, "fusion_lon": 0.0, "lat": 38.91479233333333, "is_disabled": 0, "name": "d39dfcb72ad09b9583f6f334d1bfb714", "fusion_lat": 0.0, "rental_uris": {"ios": "https://dc.lft.to/lastmile_qr_scan", "android": "https://dc.lft.to/lastmile_qr_scan"}, "lon": -77.01273866666666, "type": "electric_scooter"}, {"bike_id": "55c9d219cff6ad0104800bffbc9e318c", "is_reserved": 0, "fusion_lon": 0.0, "lat": 38.918007833333334, "is_disabled": 0, "name": "55c9d219cff6ad0104800bffbc9e318c", "fusion_lat": 0.0, "rental_uris": {"ios": "https://dc.lft.to/lastmile_qr_scan", "android": "https://dc.lft.to/lastmile_qr_scan"}, "lon": -77.03437483333333, "type": "electric_scooter"}, {"bike_id": "9e1d644d1418dfa1f563cdd8cad7dd6c", "is_reserved": 0, "fusion_lon": 0.0, "lat": 38.9012895, "is_disabled": 0, "name": "9e1d644d1418dfa1f563cdd8cad7dd6c", "fusion_lat": 0.0, "rental_uris": {"ios": "https://dc.lft.to/lastmile_qr_scan", "android": "https://dc.lft.to/lastmile_qr_scan"}, "lon": -77.019679, "type": "electric_scooter"}, {"bike_id": "9d9d6d66f5d7b6603314d2c87c387c41", "is_reserved": 0, "fusion_lon": 0.0, "lat": 38.933347833333336, "is_disabled": 0, "name": "9d9d6d66f5d7b6603314d2c87c387c41", "fusion_lat": 0.0, "rental_uris": {"ios": "https://dc.lft.to/lastmile_qr_scan", "android": "https://dc.lft.to/lastmile_qr_scan"}, "lon": -77.03282633333333, "type": "electric_scooter"}, {"bike_id": "f8229b41d5a90627c7f90a7be2d988f2", "is_reserved": 0, "fusion_lon": 0.0, "lat": 38.89832833333333, "is_disabled": 0, "name": "f8229b41d5a90627c7f90a7be2d988f2", "fusion_lat": 0.0, "rental_uris": {"ios": "https://dc.lft.to/lastmile_qr_scan", "android": "https://dc.lft.to/lastmile_qr_scan"}, "lon": -76.9463535, "type": "electric_scooter"}, {"bike_id": "3b55536c6ffbd0d6df77e751ab4b358f", "is_reserved": 0, "fusion_lon": 0.0, "lat": 38.90598966666667, "is_disabled": 0, "name": "3b55536c6ffbd0d6df77e751ab4b358f", "fusion_lat": 0.0, "rental_uris": {"ios": "https://dc.lft.to/lastmile_qr_scan", "android": "https://dc.lft.to/lastmile_qr_scan"}, "lon": -77.06301166666667, "type": "electric_scooter"}, {"bike_id": "25770daefedaf783301dc0a1bfba89a4", "is_reserved": 0, "fusion_lon": 0.0, "lat": 38.93336683333333, "is_disabled": 0, "name": "25770daefedaf783301dc0a1bfba89a4", "fusion_lat": 0.0, "rental_uris": {"ios": "https://dc.lft.to/lastmile_qr_scan", "android": "https://dc.lft.to/lastmile_qr_scan"}, "lon": -77.0326695, "type": "electric_scooter"}, {"bike_id": "853d4fe363094fbf807d33496baa2d97", "is_reserved": 0, "fusion_lon": 0.0, "lat": 38.900172833333336, "is_disabled": 0, "name": "853d4fe363094fbf807d33496baa2d97", "fusion_lat": 0.0, "rental_uris": {"ios": "https://dc.lft.to/lastmile_qr_scan", "android": "https://dc.lft.to/lastmile_qr_scan"}, "lon": -77.04646283333334, "type": "electric_scooter"}, {"bike_id": "f3bc3c938aa96df11fe31eea8aaf1b06", "is_reserved": 0, "fusion_lon": 0.0, "lat": 38.928887833333334, "is_disabled": 0, "name": "f3bc3c938aa96df11fe31eea8aaf1b06", "fusion_lat": 0.0, "rental_uris": {"ios": "https://dc.lft.to/lastmile_qr_scan", "android": "https://dc.lft.to/lastmile_qr_scan"}, "lon": -77.03422083333334, "type": "electric_scooter"}, {"bike_id": "0edd645a2813f752099cad8cdac8fd8b", "is_reserved": 0, "fusion_lon": 0.0, "lat": 38.910119333333334, "is_disabled": 0, "name": "0edd645a2813f752099cad8cdac8fd8b", "fusion_lat": 0.0, "rental_uris": {"ios": "https://dc.lft.to/lastmile_qr_scan", "android": "https://dc.lft.to/lastmile_qr_scan"}, "lon": -76.993856, "type": "electric_scooter"}, {"bike_id": "518ac12c5e04806e294efb59be103ba0", "is_reserved": 0, "fusion_lon": 0.0, "lat": 38.883949666666666, "is_disabled": 0, "name": "518ac12c5e04806e294efb59be103ba0", "fusion_lat": 0.0, "rental_uris": {"ios": "https://dc.lft.to/lastmile_qr_scan", "android": "https://dc.lft.to/lastmile_qr_scan"}, "lon": -76.93045833333333, "type": "electric_scooter"}, {"bike_id": "95121778e0ad21420ebc01cf83a0f084", "is_reserved": 0, "fusion_lon": 0.0, "lat": 38.844253, "is_disabled": 0, "name": "95121778e0ad21420ebc01cf83a0f084", "fusion_lat": 0.0, "rental_uris": {"ios": "https://dc.lft.to/lastmile_qr_scan", "android": "https://dc.lft.to/lastmile_qr_scan"}, "lon": -76.99775233333334, "type": "electric_scooter"}, {"bike_id": "993c5bb6905ef600b436752d9f2bb841", "is_reserved": 0, "fusion_lon": 0.0, "lat": 38.906754666666664, "is_disabled": 0, "name": "993c5bb6905ef600b436752d9f2bb841", "fusion_lat": 0.0, "rental_uris": {"ios": "https://dc.lft.to/lastmile_qr_scan", "android": "https://dc.lft.to/lastmile_qr_scan"}, "lon": -77.03520583333334, "type": "electric_scooter"}, {"bike_id": "9cd8176ee4b13a50f82e3a2062a44459", "is_reserved": 0, "fusion_lon": 0.0, "lat": 38.873591833333336, "is_disabled": 0, "name": "9cd8176ee4b13a50f82e3a2062a44459", "fusion_lat": 0.0, "rental_uris": {"ios": "https://dc.lft.to/lastmile_qr_scan", "android": "https://dc.lft.to/lastmile_qr_scan"}, "lon": -76.97164933333333, "type": "electric_scooter"}, {"bike_id": "63261b5082d27a84e527328f00be5f56", "is_reserved": 0, "fusion_lon": 0.0, "lat": 38.973296500000004, "is_disabled": 0, "name": "63261b5082d27a84e527328f00be5f56", "fusion_lat": 0.0, "rental_uris": {"ios": "https://dc.lft.to/lastmile_qr_scan", "android": "https://dc.lft.to/lastmile_qr_scan"}, "lon": -77.02148483333333, "type": "electric_bike"}, {"bike_id": "cbbac5ee883b20127ddf26c7987fb69f", "is_reserved": 0, "fusion_lon": 0.0, "lat": 38.90029283333333, "is_disabled": 0, "name": "cbbac5ee883b20127ddf26c7987fb69f", "fusion_lat": 0.0, "rental_uris": {"ios": "https://dc.lft.to/lastmile_qr_scan", "android": "https://dc.lft.to/lastmile_qr_scan"}, "lon": -77.01199783333334, "type": "electric_scooter"}, {"bike_id": "54ecf283bd5da73cce18d4613591c64e", "is_reserved": 0, "fusion_lon": 0.0, "lat": 38.89483766666667, "is_disabled": 0, "name": "54ecf283bd5da73cce18d4613591c64e", "fusion_lat": 0.0, "rental_uris": {"ios": "https://dc.lft.to/lastmile_qr_scan", "android": "https://dc.lft.to/lastmile_qr_scan"}, "lon": -77.01213333333334, "type": "electric_scooter"}, {"bike_id": "2bae55dfd9f7e35de1b8cb694e93792e", "is_reserved": 0, "fusion_lon": 0.0, "lat": 38.91700766666666, "is_disabled": 0, "name": "2bae55dfd9f7e35de1b8cb694e93792e", "fusion_lat": 0.0, "rental_uris": {"ios": "https://dc.lft.to/lastmile_qr_scan", "android": "https://dc.lft.to/lastmile_qr_scan"}, "lon": -77.022371, "type": "electric_scooter"}, {"bike_id": "176da77eade9610e002a6ced0cba65eb", "is_reserved": 0, "fusion_lon": 0.0, "lat": 38.89824016666667, "is_disabled": 0, "name": "176da77eade9610e002a6ced0cba65eb", "fusion_lat": 0.0, "rental_uris": {"ios": "https://dc.lft.to/lastmile_qr_scan", "android": "https://dc.lft.to/lastmile_qr_scan"}, "lon": -77.03346616666667, "type": "electric_scooter"}, {"bike_id": "33a3f23001c5a7395fbcf647dc5e6b61", "is_reserved": 0, "fusion_lon": 0.0, "lat": 38.865599833333334, "is_disabled": 0, "name": "33a3f23001c5a7395fbcf647dc5e6b61", "fusion_lat": 0.0, "rental_uris": {"ios": "https://dc.lft.to/lastmile_qr_scan", "android": "https://dc.lft.to/lastmile_qr_scan"}, "lon": -76.98951033333333, "type": "electric_scooter"}, {"bike_id": "1e9ea927437d31b09a1a48535dbb8341", "is_reserved": 0, "fusion_lon": 0.0, "lat": 38.9128085, "is_disabled": 0, "name": "1e9ea927437d31b09a1a48535dbb8341", "fusion_lat": 0.0, "rental_uris": {"ios": "https://dc.lft.to/lastmile_qr_scan", "android": "https://dc.lft.to/lastmile_qr_scan"}, "lon": -77.0229825, "type": "electric_scooter"}, {"bike_id": "73f6ab98180e53850a5e20b934143463", "is_reserved": 0, "fusion_lon": 0.0, "lat": 38.918821, "is_disabled": 0, "name": "73f6ab98180e53850a5e20b934143463", "fusion_lat": 0.0, "rental_uris": {"ios": "https://dc.lft.to/lastmile_qr_scan", "android": "https://dc.lft.to/lastmile_qr_scan"}, "lon": -76.971448, "type": "electric_scooter"}, {"bike_id": "13acc404664e7acf9b720974d6f87bab", "is_reserved": 0, "fusion_lon": 0.0, "lat": 38.8949595, "is_disabled": 0, "name": "13acc404664e7acf9b720974d6f87bab", "fusion_lat": 0.0, "rental_uris": {"ios": "https://dc.lft.to/lastmile_qr_scan", "android": "https://dc.lft.to/lastmile_qr_scan"}, "lon": -77.02220283333334, "type": "electric_scooter"}, {"bike_id": "13dd77181a75e2949bbeffdd1c9fc50d", "is_reserved": 0, "fusion_lon": 0.0, "lat": 38.9149415, "is_disabled": 0, "name": "13dd77181a75e2949bbeffdd1c9fc50d", "fusion_lat": 0.0, "rental_uris": {"ios": "https://dc.lft.to/lastmile_qr_scan", "android": "https://dc.lft.to/lastmile_qr_scan"}, "lon": -77.02690833333334, "type": "electric_scooter"}, {"bike_id": "f6fa87dbc2fc408ed4805196cec619d0", "is_reserved": 0, "fusion_lon": 0.0, "lat": 38.899719166666664, "is_disabled": 0, "name": "f6fa87dbc2fc408ed4805196cec619d0", "fusion_lat": 0.0, "rental_uris": {"ios": "https://dc.lft.to/lastmile_qr_scan", "android": "https://dc.lft.to/lastmile_qr_scan"}, "lon": -77.05369116666667, "type": "electric_scooter"}, {"bike_id": "cad8b8adf16b0be49ede0d353d6c1d9a", "is_reserved": 0, "fusion_lon": 0.0, "lat": 38.946100333333334, "is_disabled": 0, "name": "cad8b8adf16b0be49ede0d353d6c1d9a", "fusion_lat": 0.0, "rental_uris": {"ios": "https://dc.lft.to/lastmile_qr_scan", "android": "https://dc.lft.to/lastmile_qr_scan"}, "lon": -77.03503716666667, "type": "electric_scooter"}, {"bike_id": "7b39ecc6ca1113811a17541cd056fe96", "is_reserved": 0, "fusion_lon": 0.0, "lat": 38.949275166666666, "is_disabled": 0, "name": "7b39ecc6ca1113811a17541cd056fe96", "fusion_lat": 0.0, "rental_uris": {"ios": "https://dc.lft.to/lastmile_qr_scan", "android": "https://dc.lft.to/lastmile_qr_scan"}, "lon": -77.01933566666666, "type": "electric_scooter"}, {"bike_id": "6101af53299289dad58ab59e82c7d03f", "is_reserved": 0, "fusion_lon": 0.0, "lat": 38.943264166666665, "is_disabled": 0, "name": "6101af53299289dad58ab59e82c7d03f", "fusion_lat": 0.0, "rental_uris": {"ios": "https://dc.lft.to/lastmile_qr_scan", "android": "https://dc.lft.to/lastmile_qr_scan"}, "lon": -77.073877, "type": "electric_scooter"}, {"bike_id": "9a2e4f490b8d044da6f593e28716879a", "is_reserved": 0, "fusion_lon": 0.0, "lat": 38.90979316666667, "is_disabled": 0, "name": "9a2e4f490b8d044da6f593e28716879a", "fusion_lat": 0.0, "rental_uris": {"ios": "https://dc.lft.to/lastmile_qr_scan", "android": "https://dc.lft.to/lastmile_qr_scan"}, "lon": -77.06710666666666, "type": "electric_scooter"}, {"bike_id": "b784d9f3cfc25344951652b72be9a1e8", "is_reserved": 0, "fusion_lon": 0.0, "lat": 38.8832605, "is_disabled": 0, "name": "b784d9f3cfc25344951652b72be9a1e8", "fusion_lat": 0.0, "rental_uris": {"ios": "https://dc.lft.to/lastmile_qr_scan", "android": "https://dc.lft.to/lastmile_qr_scan"}, "lon": -77.01765833333333, "type": "electric_scooter"}, {"bike_id": "5461b22fd52a454336360a07d7138205", "is_reserved": 0, "fusion_lon": 0.0, "lat": 38.90571466666667, "is_disabled": 0, "name": "5461b22fd52a454336360a07d7138205", "fusion_lat": 0.0, "rental_uris": {"ios": "https://dc.lft.to/lastmile_qr_scan", "android": "https://dc.lft.to/lastmile_qr_scan"}, "lon": -77.02477766666667, "type": "electric_scooter"}, {"bike_id": "35b005d8c8ddeae504b0571052f62345", "is_reserved": 0, "fusion_lon": 0.0, "lat": 38.93114216666667, "is_disabled": 0, "name": "35b005d8c8ddeae504b0571052f62345", "fusion_lat": 0.0, "rental_uris": {"ios": "https://dc.lft.to/lastmile_qr_scan", "android": "https://dc.lft.to/lastmile_qr_scan"}, "lon": -77.02094533333333, "type": "electric_scooter"}, {"bike_id": "396a246cf73eecde5ba7d228c9bc73f2", "is_reserved": 0, "fusion_lon": 0.0, "lat": 38.909028666666664, "is_disabled": 0, "name": "396a246cf73eecde5ba7d228c9bc73f2", "fusion_lat": 0.0, "rental_uris": {"ios": "https://dc.lft.to/lastmile_qr_scan", "android": "https://dc.lft.to/lastmile_qr_scan"}, "lon": -77.02694166666667, "type": "electric_scooter"}, {"bike_id": "6fadd043349f01dd77d0555dbd3195c3", "is_reserved": 0, "fusion_lon": 0.0, "lat": 38.90565183333333, "is_disabled": 0, "name": "6fadd043349f01dd77d0555dbd3195c3", "fusion_lat": 0.0, "rental_uris": {"ios": "https://dc.lft.to/lastmile_qr_scan", "android": "https://dc.lft.to/lastmile_qr_scan"}, "lon": -77.0360585, "type": "electric_scooter"}, {"bike_id": "772c6f7472723fed379f6e2f59a5987f", "is_reserved": 0, "fusion_lon": 0.0, "lat": 38.89563183333333, "is_disabled": 0, "name": "772c6f7472723fed379f6e2f59a5987f", "fusion_lat": 0.0, "rental_uris": {"ios": "https://dc.lft.to/lastmile_qr_scan", "android": "https://dc.lft.to/lastmile_qr_scan"}, "lon": -77.127306, "type": "electric_bike"}, {"bike_id": "752247a47cc07df3aefebca2efe3b60f", "is_reserved": 0, "fusion_lon": 0.0, "lat": 38.907933166666666, "is_disabled": 0, "name": "752247a47cc07df3aefebca2efe3b60f", "fusion_lat": 0.0, "rental_uris": {"ios": "https://dc.lft.to/lastmile_qr_scan", "android": "https://dc.lft.to/lastmile_qr_scan"}, "lon": -77.04820516666666, "type": "electric_scooter"}, {"bike_id": "4a02a0e0657dda55ec388aef8bd07dc7", "is_reserved": 0, "fusion_lon": 0.0, "lat": 38.899143333333335, "is_disabled": 0, "name": "4a02a0e0657dda55ec388aef8bd07dc7", "fusion_lat": 0.0, "rental_uris": {"ios": "https://dc.lft.to/lastmile_qr_scan", "android": "https://dc.lft.to/lastmile_qr_scan"}, "lon": -77.04037866666667, "type": "electric_scooter"}, {"bike_id": "30a9d1c7176db79a7989661ca1398214", "is_reserved": 0, "fusion_lon": 0.0, "lat": 38.90216483333333, "is_disabled": 0, "name": "30a9d1c7176db79a7989661ca1398214", "fusion_lat": 0.0, "rental_uris": {"ios": "https://dc.lft.to/lastmile_qr_scan", "android": "https://dc.lft.to/lastmile_qr_scan"}, "lon": -76.95049633333333, "type": "electric_bike"}, {"bike_id": "e416dd5008247075b21018c4dcd1c31d", "is_reserved": 0, "fusion_lon": 0.0, "lat": 38.92255333333333, "is_disabled": 0, "name": "e416dd5008247075b21018c4dcd1c31d", "fusion_lat": 0.0, "rental_uris": {"ios": "https://dc.lft.to/lastmile_qr_scan", "android": "https://dc.lft.to/lastmile_qr_scan"}, "lon": -77.0413015, "type": "electric_scooter"}, {"bike_id": "69b74afad3b8c82d07f3017d1986a1f6", "is_reserved": 0, "fusion_lon": 0.0, "lat": 38.9168, "is_disabled": 0, "name": "69b74afad3b8c82d07f3017d1986a1f6", "fusion_lat": 0.0, "rental_uris": {"ios": "https://dc.lft.to/lastmile_qr_scan", "android": "https://dc.lft.to/lastmile_qr_scan"}, "lon": -77.036909, "type": "electric_scooter"}, {"bike_id": "d90ebdbdb83d3c7342c79a11b3b0562b", "is_reserved": 0, "fusion_lon": 0.0, "lat": 38.898284333333336, "is_disabled": 0, "name": "d90ebdbdb83d3c7342c79a11b3b0562b", "fusion_lat": 0.0, "rental_uris": {"ios": "https://dc.lft.to/lastmile_qr_scan", "android": "https://dc.lft.to/lastmile_qr_scan"}, "lon": -77.05031283333334, "type": "electric_scooter"}, {"bike_id": "a4cdd6ebce267c1b7508484665fb99c1", "is_reserved": 0, "fusion_lon": 0.0, "lat": 38.92273816666667, "is_disabled": 0, "name": "a4cdd6ebce267c1b7508484665fb99c1", "fusion_lat": 0.0, "rental_uris": {"ios": "https://dc.lft.to/lastmile_qr_scan", "android": "https://dc.lft.to/lastmile_qr_scan"}, "lon": -77.025255, "type": "electric_scooter"}, {"bike_id": "e38ec774edd2ffbed37464b7407cee16", "is_reserved": 0, "fusion_lon": 0.0, "lat": 38.90137033333333, "is_disabled": 0, "name": "e38ec774edd2ffbed37464b7407cee16", "fusion_lat": 0.0, "rental_uris": {"ios": "https://dc.lft.to/lastmile_qr_scan", "android": "https://dc.lft.to/lastmile_qr_scan"}, "lon": -77.04322416666666, "type": "electric_scooter"}, {"bike_id": "607c1d45e70e6823f6b7ab50b3bb34f5", "is_reserved": 0, "fusion_lon": 0.0, "lat": 38.9211565, "is_disabled": 0, "name": "607c1d45e70e6823f6b7ab50b3bb34f5", "fusion_lat": 0.0, "rental_uris": {"ios": "https://dc.lft.to/lastmile_qr_scan", "android": "https://dc.lft.to/lastmile_qr_scan"}, "lon": -77.03636633333333, "type": "electric_scooter"}, {"bike_id": "74241892fd02fd30a38d416d16631999", "is_reserved": 0, "fusion_lon": 0.0, "lat": 38.94209883333333, "is_disabled": 0, "name": "74241892fd02fd30a38d416d16631999", "fusion_lat": 0.0, "rental_uris": {"ios": "https://dc.lft.to/lastmile_qr_scan", "android": "https://dc.lft.to/lastmile_qr_scan"}, "lon": -77.03580383333333, "type": "electric_scooter"}, {"bike_id": "e8381a1f6ee3d1668e78fda1f7496608", "is_reserved": 0, "fusion_lon": 0.0, "lat": 38.90261983333333, "is_disabled": 0, "name": "e8381a1f6ee3d1668e78fda1f7496608", "fusion_lat": 0.0, "rental_uris": {"ios": "https://dc.lft.to/lastmile_qr_scan", "android": "https://dc.lft.to/lastmile_qr_scan"}, "lon": -77.017493, "type": "electric_scooter"}, {"bike_id": "59efd85c167f1d404ff478de5bbb1230", "is_reserved": 0, "fusion_lon": 0.0, "lat": 38.937772333333335, "is_disabled": 0, "name": "59efd85c167f1d404ff478de5bbb1230", "fusion_lat": 0.0, "rental_uris": {"ios": "https://dc.lft.to/lastmile_qr_scan", "android": "https://dc.lft.to/lastmile_qr_scan"}, "lon": -77.02318316666667, "type": "electric_scooter"}, {"bike_id": "12bafc93c2cfe3ef617d1725074edd0a", "is_reserved": 0, "fusion_lon": 0.0, "lat": 38.901871666666665, "is_disabled": 0, "name": "12bafc93c2cfe3ef617d1725074edd0a", "fusion_lat": 0.0, "rental_uris": {"ios": "https://dc.lft.to/lastmile_qr_scan", "android": "https://dc.lft.to/lastmile_qr_scan"}, "lon": -76.929917, "type": "electric_scooter"}, {"bike_id": "e75a20227bf1778ab946e3008342e8c7", "is_reserved": 0, "fusion_lon": 0.0, "lat": 38.900301166666665, "is_disabled": 0, "name": "e75a20227bf1778ab946e3008342e8c7", "fusion_lat": 0.0, "rental_uris": {"ios": "https://dc.lft.to/lastmile_qr_scan", "android": "https://dc.lft.to/lastmile_qr_scan"}, "lon": -76.9879255, "type": "electric_scooter"}, {"bike_id": "b4715964fe7cef3a30a901283edd3e55", "is_reserved": 0, "fusion_lon": 0.0, "lat": 38.90432033333333, "is_disabled": 0, "name": "b4715964fe7cef3a30a901283edd3e55", "fusion_lat": 0.0, "rental_uris": {"ios": "https://dc.lft.to/lastmile_qr_scan", "android": "https://dc.lft.to/lastmile_qr_scan"}, "lon": -76.979139, "type": "electric_scooter"}, {"bike_id": "5206f7747da0921870ccfc24f730ab21", "is_reserved": 0, "fusion_lon": 0.0, "lat": 38.90845616666667, "is_disabled": 0, "name": "5206f7747da0921870ccfc24f730ab21", "fusion_lat": 0.0, "rental_uris": {"ios": "https://dc.lft.to/lastmile_qr_scan", "android": "https://dc.lft.to/lastmile_qr_scan"}, "lon": -77.02590516666666, "type": "electric_scooter"}, {"bike_id": "46cf096c73565edd159b4486b4146906", "is_reserved": 0, "fusion_lon": 0.0, "lat": 38.90578933333333, "is_disabled": 0, "name": "46cf096c73565edd159b4486b4146906", "fusion_lat": 0.0, "rental_uris": {"ios": "https://dc.lft.to/lastmile_qr_scan", "android": "https://dc.lft.to/lastmile_qr_scan"}, "lon": -77.03463, "type": "electric_scooter"}, {"bike_id": "4f81981d98af0f36bd35174d373eb37c", "is_reserved": 0, "fusion_lon": 0.0, "lat": 38.913383333333336, "is_disabled": 0, "name": "4f81981d98af0f36bd35174d373eb37c", "fusion_lat": 0.0, "rental_uris": {"ios": "https://dc.lft.to/lastmile_qr_scan", "android": "https://dc.lft.to/lastmile_qr_scan"}, "lon": -77.04834183333334, "type": "electric_scooter"}, {"bike_id": "1438a278f11060ca1a567e61b41fd5de", "is_reserved": 0, "fusion_lon": 0.0, "lat": 38.89088533333333, "is_disabled": 0, "name": "1438a278f11060ca1a567e61b41fd5de", "fusion_lat": 0.0, "rental_uris": {"ios": "https://dc.lft.to/lastmile_qr_scan", "android": "https://dc.lft.to/lastmile_qr_scan"}, "lon": -76.98745183333334, "type": "electric_scooter"}, {"bike_id": "495f95a625ad3dcecb657248716e8136", "is_reserved": 0, "fusion_lon": 0.0, "lat": 38.91576633333333, "is_disabled": 0, "name": "495f95a625ad3dcecb657248716e8136", "fusion_lat": 0.0, "rental_uris": {"ios": "https://dc.lft.to/lastmile_qr_scan", "android": "https://dc.lft.to/lastmile_qr_scan"}, "lon": -77.05025966666666, "type": "electric_bike"}, {"bike_id": "8e86bb1acd189991eecf14b8846fad11", "is_reserved": 0, "fusion_lon": 0.0, "lat": 38.9097845, "is_disabled": 0, "name": "8e86bb1acd189991eecf14b8846fad11", "fusion_lat": 0.0, "rental_uris": {"ios": "https://dc.lft.to/lastmile_qr_scan", "android": "https://dc.lft.to/lastmile_qr_scan"}, "lon": -77.04874633333333, "type": "electric_scooter"}, {"bike_id": "0590dc0d2ea4186011e2465bb744b72f", "is_reserved": 0, "fusion_lon": 0.0, "lat": 38.914896166666665, "is_disabled": 0, "name": "0590dc0d2ea4186011e2465bb744b72f", "fusion_lat": 0.0, "rental_uris": {"ios": "https://dc.lft.to/lastmile_qr_scan", "android": "https://dc.lft.to/lastmile_qr_scan"}, "lon": -77.04092633333333, "type": "electric_scooter"}, {"bike_id": "930fc3381a0bde5ca814fb0b95086ab2", "is_reserved": 0, "fusion_lon": 0.0, "lat": 38.899541666666664, "is_disabled": 0, "name": "930fc3381a0bde5ca814fb0b95086ab2", "fusion_lat": 0.0, "rental_uris": {"ios": "https://dc.lft.to/lastmile_qr_scan", "android": "https://dc.lft.to/lastmile_qr_scan"}, "lon": -77.01618566666667, "type": "electric_scooter"}, {"bike_id": "636b6dc1374fb363ac95016d88dd9fcd", "is_reserved": 0, "fusion_lon": 0.0, "lat": 38.906808833333336, "is_disabled": 0, "name": "636b6dc1374fb363ac95016d88dd9fcd", "fusion_lat": 0.0, "rental_uris": {"ios": "https://dc.lft.to/lastmile_qr_scan", "android": "https://dc.lft.to/lastmile_qr_scan"}, "lon": -77.035264, "type": "electric_scooter"}, {"bike_id": "8d59d6c356adda8fe3f12fed7a1e87ff", "is_reserved": 0, "fusion_lon": 0.0, "lat": 38.93286833333333, "is_disabled": 0, "name": "8d59d6c356adda8fe3f12fed7a1e87ff", "fusion_lat": 0.0, "rental_uris": {"ios": "https://dc.lft.to/lastmile_qr_scan", "android": "https://dc.lft.to/lastmile_qr_scan"}, "lon": -77.03634866666667, "type": "electric_bike"}, {"bike_id": "a431a84ae71f8418d8a053939464dec6", "is_reserved": 0, "fusion_lon": 0.0, "lat": 38.8840535, "is_disabled": 0, "name": "a431a84ae71f8418d8a053939464dec6", "fusion_lat": 0.0, "rental_uris": {"ios": "https://dc.lft.to/lastmile_qr_scan", "android": "https://dc.lft.to/lastmile_qr_scan"}, "lon": -77.02601683333333, "type": "electric_scooter"}, {"bike_id": "b7ba16a03e5a6aadc1600bcecd8e8662", "is_reserved": 0, "fusion_lon": 0.0, "lat": 38.87690516666667, "is_disabled": 0, "name": "b7ba16a03e5a6aadc1600bcecd8e8662", "fusion_lat": 0.0, "rental_uris": {"ios": "https://dc.lft.to/lastmile_qr_scan", "android": "https://dc.lft.to/lastmile_qr_scan"}, "lon": -77.00733816666667, "type": "electric_scooter"}, {"bike_id": "75652709c8b8c6200d5ef5af8d01fad4", "is_reserved": 0, "fusion_lon": 0.0, "lat": 38.90343133333333, "is_disabled": 0, "name": "75652709c8b8c6200d5ef5af8d01fad4", "fusion_lat": 0.0, "rental_uris": {"ios": "https://dc.lft.to/lastmile_qr_scan", "android": "https://dc.lft.to/lastmile_qr_scan"}, "lon": -77.06648383333334, "type": "electric_scooter"}, {"bike_id": "104271a40c758c7a83fce0f897926bdf", "is_reserved": 0, "fusion_lon": 0.0, "lat": 38.90558516666667, "is_disabled": 0, "name": "104271a40c758c7a83fce0f897926bdf", "fusion_lat": 0.0, "rental_uris": {"ios": "https://dc.lft.to/lastmile_qr_scan", "android": "https://dc.lft.to/lastmile_qr_scan"}, "lon": -77.00585483333333, "type": "electric_scooter"}, {"bike_id": "6f2978a129ad453c080992439a2a7a21", "is_reserved": 0, "fusion_lon": 0.0, "lat": 38.807471166666666, "is_disabled": 0, "name": "6f2978a129ad453c080992439a2a7a21", "fusion_lat": 0.0, "rental_uris": {"ios": "https://dc.lft.to/lastmile_qr_scan", "android": "https://dc.lft.to/lastmile_qr_scan"}, "lon": -77.09429616666667, "type": "electric_bike"}, {"bike_id": "5c97b4ae88c15c9e8a9683b89facf623", "is_reserved": 0, "fusion_lon": 0.0, "lat": 38.863923, "is_disabled": 0, "name": "5c97b4ae88c15c9e8a9683b89facf623", "fusion_lat": 0.0, "rental_uris": {"ios": "https://dc.lft.to/lastmile_qr_scan", "android": "https://dc.lft.to/lastmile_qr_scan"}, "lon": -76.98990766666667, "type": "electric_bike"}, {"bike_id": "24e0d744b5c3db29e2e626717a77c04d", "is_reserved": 0, "fusion_lon": 0.0, "lat": 38.957349666666666, "is_disabled": 0, "name": "24e0d744b5c3db29e2e626717a77c04d", "fusion_lat": 0.0, "rental_uris": {"ios": "https://dc.lft.to/lastmile_qr_scan", "android": "https://dc.lft.to/lastmile_qr_scan"}, "lon": -76.980177, "type": "electric_bike"}, {"bike_id": "d0bdff1a959277e566791e399457d4ed", "is_reserved": 0, "fusion_lon": 0.0, "lat": 38.9417105, "is_disabled": 0, "name": "d0bdff1a959277e566791e399457d4ed", "fusion_lat": 0.0, "rental_uris": {"ios": "https://dc.lft.to/lastmile_qr_scan", "android": "https://dc.lft.to/lastmile_qr_scan"}, "lon": -77.041292, "type": "electric_scooter"}, {"bike_id": "87767d40f3aa3340965adc12d5bd727f", "is_reserved": 0, "fusion_lon": 0.0, "lat": 38.91682333333333, "is_disabled": 0, "name": "87767d40f3aa3340965adc12d5bd727f", "fusion_lat": 0.0, "rental_uris": {"ios": "https://dc.lft.to/lastmile_qr_scan", "android": "https://dc.lft.to/lastmile_qr_scan"}, "lon": -77.01215566666667, "type": "electric_scooter"}, {"bike_id": "52ca41c195b96371d78dfab6acc8dba2", "is_reserved": 0, "fusion_lon": 0.0, "lat": 38.89879, "is_disabled": 0, "name": "52ca41c195b96371d78dfab6acc8dba2", "fusion_lat": 0.0, "rental_uris": {"ios": "https://dc.lft.to/lastmile_qr_scan", "android": "https://dc.lft.to/lastmile_qr_scan"}, "lon": -76.9315985, "type": "electric_scooter"}, {"bike_id": "44fe0f730883bfd52393d24e60ab3c5f", "is_reserved": 0, "fusion_lon": 0.0, "lat": 38.9981255, "is_disabled": 0, "name": "44fe0f730883bfd52393d24e60ab3c5f", "fusion_lat": 0.0, "rental_uris": {"ios": "https://dc.lft.to/lastmile_qr_scan", "android": "https://dc.lft.to/lastmile_qr_scan"}, "lon": -76.8836085, "type": "electric_bike"}, {"bike_id": "a199b050dc4e3905c9f0b587736b8146", "is_reserved": 0, "fusion_lon": 0.0, "lat": 38.903705, "is_disabled": 0, "name": "a199b050dc4e3905c9f0b587736b8146", "fusion_lat": 0.0, "rental_uris": {"ios": "https://dc.lft.to/lastmile_qr_scan", "android": "https://dc.lft.to/lastmile_qr_scan"}, "lon": -77.01104216666667, "type": "electric_scooter"}, {"bike_id": "80122cd6e01c191f149df9eb2c624892", "is_reserved": 0, "fusion_lon": 0.0, "lat": 38.92899116666667, "is_disabled": 0, "name": "80122cd6e01c191f149df9eb2c624892", "fusion_lat": 0.0, "rental_uris": {"ios": "https://dc.lft.to/lastmile_qr_scan", "android": "https://dc.lft.to/lastmile_qr_scan"}, "lon": -77.0545595, "type": "electric_scooter"}, {"bike_id": "809abf1468b59264da1e1d04b671f590", "is_reserved": 0, "fusion_lon": 0.0, "lat": 38.921511833333334, "is_disabled": 0, "name": "809abf1468b59264da1e1d04b671f590", "fusion_lat": 0.0, "rental_uris": {"ios": "https://dc.lft.to/lastmile_qr_scan", "android": "https://dc.lft.to/lastmile_qr_scan"}, "lon": -77.03492783333333, "type": "electric_scooter"}, {"bike_id": "404669740370f62032d34a1680e5ed46", "is_reserved": 0, "fusion_lon": 0.0, "lat": 38.89882016666667, "is_disabled": 0, "name": "404669740370f62032d34a1680e5ed46", "fusion_lat": 0.0, "rental_uris": {"ios": "https://dc.lft.to/lastmile_qr_scan", "android": "https://dc.lft.to/lastmile_qr_scan"}, "lon": -77.03316766666667, "type": "electric_scooter"}, {"bike_id": "3c215db4eabc0756b0bdab31cb580839", "is_reserved": 0, "fusion_lon": 0.0, "lat": 38.940444666666664, "is_disabled": 0, "name": "3c215db4eabc0756b0bdab31cb580839", "fusion_lat": 0.0, "rental_uris": {"ios": "https://dc.lft.to/lastmile_qr_scan", "android": "https://dc.lft.to/lastmile_qr_scan"}, "lon": -77.02893716666667, "type": "electric_scooter"}, {"bike_id": "1ba19195008ad8d45dcb7444454eb6ad", "is_reserved": 0, "fusion_lon": 0.0, "lat": 38.943674, "is_disabled": 0, "name": "1ba19195008ad8d45dcb7444454eb6ad", "fusion_lat": 0.0, "rental_uris": {"ios": "https://dc.lft.to/lastmile_qr_scan", "android": "https://dc.lft.to/lastmile_qr_scan"}, "lon": -77.021786, "type": "electric_scooter"}, {"bike_id": "52b9c7135d9b29da3b40d2ce57fae2af", "is_reserved": 0, "fusion_lon": 0.0, "lat": 38.87331866666667, "is_disabled": 0, "name": "52b9c7135d9b29da3b40d2ce57fae2af", "fusion_lat": 0.0, "rental_uris": {"ios": "https://dc.lft.to/lastmile_qr_scan", "android": "https://dc.lft.to/lastmile_qr_scan"}, "lon": -77.106068, "type": "electric_bike"}, {"bike_id": "5f49ae2ff75924bbef4065c415b4a4e1", "is_reserved": 0, "fusion_lon": 0.0, "lat": 38.92262483333333, "is_disabled": 0, "name": "5f49ae2ff75924bbef4065c415b4a4e1", "fusion_lat": 0.0, "rental_uris": {"ios": "https://dc.lft.to/lastmile_qr_scan", "android": "https://dc.lft.to/lastmile_qr_scan"}, "lon": -76.97425416666667, "type": "electric_bike"}, {"bike_id": "37454cd42417b4ae4d8d21e2e76ba78f", "is_reserved": 0, "fusion_lon": 0.0, "lat": 38.907788833333335, "is_disabled": 0, "name": "37454cd42417b4ae4d8d21e2e76ba78f", "fusion_lat": 0.0, "rental_uris": {"ios": "https://dc.lft.to/lastmile_qr_scan", "android": "https://dc.lft.to/lastmile_qr_scan"}, "lon": -77.04280316666667, "type": "electric_scooter"}, {"bike_id": "824800614534d0d9057e9164b42f5589", "is_reserved": 0, "fusion_lon": 0.0, "lat": 38.89552033333333, "is_disabled": 0, "name": "824800614534d0d9057e9164b42f5589", "fusion_lat": 0.0, "rental_uris": {"ios": "https://dc.lft.to/lastmile_qr_scan", "android": "https://dc.lft.to/lastmile_qr_scan"}, "lon": -77.0091355, "type": "electric_scooter"}, {"bike_id": "23be097c4e78cae276d22bde5da90ef5", "is_reserved": 0, "fusion_lon": 0.0, "lat": 38.887676666666664, "is_disabled": 0, "name": "23be097c4e78cae276d22bde5da90ef5", "fusion_lat": 0.0, "rental_uris": {"ios": "https://dc.lft.to/lastmile_qr_scan", "android": "https://dc.lft.to/lastmile_qr_scan"}, "lon": -76.98051616666666, "type": "electric_scooter"}, {"bike_id": "2bcd60296407f24daf26c9d3287e6a7f", "is_reserved": 0, "fusion_lon": 0.0, "lat": 38.93507116666667, "is_disabled": 0, "name": "2bcd60296407f24daf26c9d3287e6a7f", "fusion_lat": 0.0, "rental_uris": {"ios": "https://dc.lft.to/lastmile_qr_scan", "android": "https://dc.lft.to/lastmile_qr_scan"}, "lon": -77.01996983333333, "type": "electric_scooter"}, {"bike_id": "25185498882c494d02420bd91e08f608", "is_reserved": 0, "fusion_lon": 0.0, "lat": 38.89773266666667, "is_disabled": 0, "name": "25185498882c494d02420bd91e08f608", "fusion_lat": 0.0, "rental_uris": {"ios": "https://dc.lft.to/lastmile_qr_scan", "android": "https://dc.lft.to/lastmile_qr_scan"}, "lon": -77.02711833333333, "type": "electric_scooter"}, {"bike_id": "18d4392b8df349eb521859034fd49844", "is_reserved": 0, "fusion_lon": 0.0, "lat": 38.93447583333333, "is_disabled": 0, "name": "18d4392b8df349eb521859034fd49844", "fusion_lat": 0.0, "rental_uris": {"ios": "https://dc.lft.to/lastmile_qr_scan", "android": "https://dc.lft.to/lastmile_qr_scan"}, "lon": -77.02845883333333, "type": "electric_scooter"}, {"bike_id": "6b929481de1a72842ba886ab928085ab", "is_reserved": 0, "fusion_lon": 0.0, "lat": 38.9563475, "is_disabled": 0, "name": "6b929481de1a72842ba886ab928085ab", "fusion_lat": 0.0, "rental_uris": {"ios": "https://dc.lft.to/lastmile_qr_scan", "android": "https://dc.lft.to/lastmile_qr_scan"}, "lon": -76.9388505, "type": "electric_bike"}, {"bike_id": "85ce1f2df2102b848a757709a0ca4f08", "is_reserved": 0, "fusion_lon": 0.0, "lat": 38.92472516666667, "is_disabled": 0, "name": "85ce1f2df2102b848a757709a0ca4f08", "fusion_lat": 0.0, "rental_uris": {"ios": "https://dc.lft.to/lastmile_qr_scan", "android": "https://dc.lft.to/lastmile_qr_scan"}, "lon": -77.037674, "type": "electric_scooter"}, {"bike_id": "04a4cbd053f3286e36521068920f7ac0", "is_reserved": 0, "fusion_lon": 0.0, "lat": 38.88503983333333, "is_disabled": 0, "name": "04a4cbd053f3286e36521068920f7ac0", "fusion_lat": 0.0, "rental_uris": {"ios": "https://dc.lft.to/lastmile_qr_scan", "android": "https://dc.lft.to/lastmile_qr_scan"}, "lon": -77.00569416666667, "type": "electric_scooter"}, {"bike_id": "d48f6f15b63c63520f2e860a53769153", "is_reserved": 0, "fusion_lon": 0.0, "lat": 38.928381333333334, "is_disabled": 0, "name": "d48f6f15b63c63520f2e860a53769153", "fusion_lat": 0.0, "rental_uris": {"ios": "https://dc.lft.to/lastmile_qr_scan", "android": "https://dc.lft.to/lastmile_qr_scan"}, "lon": -77.05502433333334, "type": "electric_scooter"}, {"bike_id": "0502d08ee9c6b706eb276ee56d3f478d", "is_reserved": 0, "fusion_lon": 0.0, "lat": 38.91706033333333, "is_disabled": 0, "name": "0502d08ee9c6b706eb276ee56d3f478d", "fusion_lat": 0.0, "rental_uris": {"ios": "https://dc.lft.to/lastmile_qr_scan", "android": "https://dc.lft.to/lastmile_qr_scan"}, "lon": -77.02279933333334, "type": "electric_scooter"}, {"bike_id": "be0815a7d62ee85f81baa0a1cc0741ae", "is_reserved": 0, "fusion_lon": 0.0, "lat": 38.86628233333333, "is_disabled": 0, "name": "be0815a7d62ee85f81baa0a1cc0741ae", "fusion_lat": 0.0, "rental_uris": {"ios": "https://dc.lft.to/lastmile_qr_scan", "android": "https://dc.lft.to/lastmile_qr_scan"}, "lon": -76.987179, "type": "electric_scooter"}, {"bike_id": "352543ec1a3b6f4a1bde58d88565c7d1", "is_reserved": 0, "fusion_lon": 0.0, "lat": 38.88038233333333, "is_disabled": 0, "name": "352543ec1a3b6f4a1bde58d88565c7d1", "fusion_lat": 0.0, "rental_uris": {"ios": "https://dc.lft.to/lastmile_qr_scan", "android": "https://dc.lft.to/lastmile_qr_scan"}, "lon": -77.02512283333333, "type": "electric_scooter"}, {"bike_id": "7ba133e8a51438e5fed9ab45807e6b7e", "is_reserved": 0, "fusion_lon": 0.0, "lat": 38.897733833333334, "is_disabled": 0, "name": "7ba133e8a51438e5fed9ab45807e6b7e", "fusion_lat": 0.0, "rental_uris": {"ios": "https://dc.lft.to/lastmile_qr_scan", "android": "https://dc.lft.to/lastmile_qr_scan"}, "lon": -76.904506, "type": "electric_bike"}, {"bike_id": "60fff67a302a8a86e0c0bee7d1f6f585", "is_reserved": 0, "fusion_lon": 0.0, "lat": 38.900209, "is_disabled": 0, "name": "60fff67a302a8a86e0c0bee7d1f6f585", "fusion_lat": 0.0, "rental_uris": {"ios": "https://dc.lft.to/lastmile_qr_scan", "android": "https://dc.lft.to/lastmile_qr_scan"}, "lon": -76.99548983333334, "type": "electric_scooter"}, {"bike_id": "7d98e47c156bb4eb6dc42fa6c9ea8baf", "is_reserved": 0, "fusion_lon": 0.0, "lat": 38.9067025, "is_disabled": 0, "name": "7d98e47c156bb4eb6dc42fa6c9ea8baf", "fusion_lat": 0.0, "rental_uris": {"ios": "https://dc.lft.to/lastmile_qr_scan", "android": "https://dc.lft.to/lastmile_qr_scan"}, "lon": -77.0270845, "type": "electric_scooter"}, {"bike_id": "49be4fcb8ddc14024c05acb4cd8270fc", "is_reserved": 0, "fusion_lon": 0.0, "lat": 38.867226, "is_disabled": 0, "name": "49be4fcb8ddc14024c05acb4cd8270fc", "fusion_lat": 0.0, "rental_uris": {"ios": "https://dc.lft.to/lastmile_qr_scan", "android": "https://dc.lft.to/lastmile_qr_scan"}, "lon": -76.98770833333333, "type": "electric_scooter"}, {"bike_id": "ecd9f4e061f5382db6ea966e93057671", "is_reserved": 0, "fusion_lon": 0.0, "lat": 38.89938016666667, "is_disabled": 0, "name": "ecd9f4e061f5382db6ea966e93057671", "fusion_lat": 0.0, "rental_uris": {"ios": "https://dc.lft.to/lastmile_qr_scan", "android": "https://dc.lft.to/lastmile_qr_scan"}, "lon": -77.0316955, "type": "electric_scooter"}, {"bike_id": "182c1820968d3413c808d0cda05ba287", "is_reserved": 0, "fusion_lon": 0.0, "lat": 38.92856583333333, "is_disabled": 0, "name": "182c1820968d3413c808d0cda05ba287", "fusion_lat": 0.0, "rental_uris": {"ios": "https://dc.lft.to/lastmile_qr_scan", "android": "https://dc.lft.to/lastmile_qr_scan"}, "lon": -77.03603416666667, "type": "electric_scooter"}, {"bike_id": "0938d337676f68a7d335ceba70e2b23b", "is_reserved": 0, "fusion_lon": 0.0, "lat": 38.91606683333333, "is_disabled": 0, "name": "0938d337676f68a7d335ceba70e2b23b", "fusion_lat": 0.0, "rental_uris": {"ios": "https://dc.lft.to/lastmile_qr_scan", "android": "https://dc.lft.to/lastmile_qr_scan"}, "lon": -77.04357266666666, "type": "electric_scooter"}, {"bike_id": "8b46915b120aff4007cc1475c5619e4c", "is_reserved": 0, "fusion_lon": 0.0, "lat": 38.8979775, "is_disabled": 0, "name": "8b46915b120aff4007cc1475c5619e4c", "fusion_lat": 0.0, "rental_uris": {"ios": "https://dc.lft.to/lastmile_qr_scan", "android": "https://dc.lft.to/lastmile_qr_scan"}, "lon": -76.9916105, "type": "electric_scooter"}, {"bike_id": "1707da868e4b6865560948325762d4aa", "is_reserved": 0, "fusion_lon": 0.0, "lat": 38.918437833333336, "is_disabled": 0, "name": "1707da868e4b6865560948325762d4aa", "fusion_lat": 0.0, "rental_uris": {"ios": "https://dc.lft.to/lastmile_qr_scan", "android": "https://dc.lft.to/lastmile_qr_scan"}, "lon": -77.038978, "type": "electric_scooter"}, {"bike_id": "5c8fb3aa62c362246f9cd2829668b237", "is_reserved": 0, "fusion_lon": 0.0, "lat": 38.90547483333334, "is_disabled": 0, "name": "5c8fb3aa62c362246f9cd2829668b237", "fusion_lat": 0.0, "rental_uris": {"ios": "https://dc.lft.to/lastmile_qr_scan", "android": "https://dc.lft.to/lastmile_qr_scan"}, "lon": -77.00570016666667, "type": "electric_scooter"}, {"bike_id": "41f787bed53f0ea9d581689e1eeb9c8b", "is_reserved": 0, "fusion_lon": 0.0, "lat": 38.88328633333333, "is_disabled": 0, "name": "41f787bed53f0ea9d581689e1eeb9c8b", "fusion_lat": 0.0, "rental_uris": {"ios": "https://dc.lft.to/lastmile_qr_scan", "android": "https://dc.lft.to/lastmile_qr_scan"}, "lon": -77.01730233333333, "type": "electric_scooter"}, {"bike_id": "41c4787337e42a13076d210ab596f328", "is_reserved": 0, "fusion_lon": 0.0, "lat": 38.957478333333334, "is_disabled": 0, "name": "41c4787337e42a13076d210ab596f328", "fusion_lat": 0.0, "rental_uris": {"ios": "https://dc.lft.to/lastmile_qr_scan", "android": "https://dc.lft.to/lastmile_qr_scan"}, "lon": -77.02412583333333, "type": "electric_scooter"}, {"bike_id": "20db4832f7b91b32126fe8f0c1cda19d", "is_reserved": 0, "fusion_lon": 0.0, "lat": 38.88735666666667, "is_disabled": 0, "name": "20db4832f7b91b32126fe8f0c1cda19d", "fusion_lat": 0.0, "rental_uris": {"ios": "https://dc.lft.to/lastmile_qr_scan", "android": "https://dc.lft.to/lastmile_qr_scan"}, "lon": -77.022638, "type": "electric_bike"}, {"bike_id": "3d4f2d034105d6a196b5e5b870a54623", "is_reserved": 0, "fusion_lon": 0.0, "lat": 38.90942066666667, "is_disabled": 0, "name": "3d4f2d034105d6a196b5e5b870a54623", "fusion_lat": 0.0, "rental_uris": {"ios": "https://dc.lft.to/lastmile_qr_scan", "android": "https://dc.lft.to/lastmile_qr_scan"}, "lon": -77.04884566666667, "type": "electric_scooter"}, {"bike_id": "2ee96aa0148c45938c569c3bfca4e450", "is_reserved": 0, "fusion_lon": 0.0, "lat": 38.92352833333333, "is_disabled": 0, "name": "2ee96aa0148c45938c569c3bfca4e450", "fusion_lat": 0.0, "rental_uris": {"ios": "https://dc.lft.to/lastmile_qr_scan", "android": "https://dc.lft.to/lastmile_qr_scan"}, "lon": -77.043952, "type": "electric_scooter"}, {"bike_id": "0412b91a9213558bfcaab5825d805e7a", "is_reserved": 0, "fusion_lon": 0.0, "lat": 39.08856766666667, "is_disabled": 0, "name": "0412b91a9213558bfcaab5825d805e7a", "fusion_lat": 0.0, "rental_uris": {"ios": "https://dc.lft.to/lastmile_qr_scan", "android": "https://dc.lft.to/lastmile_qr_scan"}, "lon": -77.17838733333333, "type": "electric_bike"}, {"bike_id": "9cb2b467aaac9f533d1b3ab625aff0f1", "is_reserved": 0, "fusion_lon": 0.0, "lat": 38.90663883333333, "is_disabled": 0, "name": "9cb2b467aaac9f533d1b3ab625aff0f1", "fusion_lat": 0.0, "rental_uris": {"ios": "https://dc.lft.to/lastmile_qr_scan", "android": "https://dc.lft.to/lastmile_qr_scan"}, "lon": -77.03816716666667, "type": "electric_scooter"}, {"bike_id": "afb160f046a701447e263f6255115462", "is_reserved": 0, "fusion_lon": 0.0, "lat": 38.905700833333334, "is_disabled": 0, "name": "afb160f046a701447e263f6255115462", "fusion_lat": 0.0, "rental_uris": {"ios": "https://dc.lft.to/lastmile_qr_scan", "android": "https://dc.lft.to/lastmile_qr_scan"}, "lon": -77.02174116666667, "type": "electric_scooter"}, {"bike_id": "50ffda85ed553b1e707ef2cff423b7f9", "is_reserved": 0, "fusion_lon": 0.0, "lat": 38.91558416666667, "is_disabled": 0, "name": "50ffda85ed553b1e707ef2cff423b7f9", "fusion_lat": 0.0, "rental_uris": {"ios": "https://dc.lft.to/lastmile_qr_scan", "android": "https://dc.lft.to/lastmile_qr_scan"}, "lon": -77.03864166666666, "type": "electric_scooter"}, {"bike_id": "62100423f9994e792bdde8f379d05b2c", "is_reserved": 0, "fusion_lon": 0.0, "lat": 38.95336616666667, "is_disabled": 0, "name": "62100423f9994e792bdde8f379d05b2c", "fusion_lat": 0.0, "rental_uris": {"ios": "https://dc.lft.to/lastmile_qr_scan", "android": "https://dc.lft.to/lastmile_qr_scan"}, "lon": -77.00958483333334, "type": "electric_bike"}, {"bike_id": "355dada27685e18a6e1b01031c3d1411", "is_reserved": 0, "fusion_lon": 0.0, "lat": 38.9564755, "is_disabled": 0, "name": "355dada27685e18a6e1b01031c3d1411", "fusion_lat": 0.0, "rental_uris": {"ios": "https://dc.lft.to/lastmile_qr_scan", "android": "https://dc.lft.to/lastmile_qr_scan"}, "lon": -77.03285633333333, "type": "electric_scooter"}, {"bike_id": "f2e57a58466782c8d5cf615cf218498e", "is_reserved": 0, "fusion_lon": 0.0, "lat": 38.9285565, "is_disabled": 0, "name": "f2e57a58466782c8d5cf615cf218498e", "fusion_lat": 0.0, "rental_uris": {"ios": "https://dc.lft.to/lastmile_qr_scan", "android": "https://dc.lft.to/lastmile_qr_scan"}, "lon": -77.22228683333333, "type": "electric_bike"}, {"bike_id": "c0cc8a96ef529935315eb712d6169d27", "is_reserved": 0, "fusion_lon": 0.0, "lat": 38.8653695, "is_disabled": 0, "name": "c0cc8a96ef529935315eb712d6169d27", "fusion_lat": 0.0, "rental_uris": {"ios": "https://dc.lft.to/lastmile_qr_scan", "android": "https://dc.lft.to/lastmile_qr_scan"}, "lon": -76.98703216666667, "type": "electric_scooter"}, {"bike_id": "c6d0c4614600f2bc720d54df685c780a", "is_reserved": 0, "fusion_lon": 0.0, "lat": 38.917018666666664, "is_disabled": 0, "name": "c6d0c4614600f2bc720d54df685c780a", "fusion_lat": 0.0, "rental_uris": {"ios": "https://dc.lft.to/lastmile_qr_scan", "android": "https://dc.lft.to/lastmile_qr_scan"}, "lon": -77.0230505, "type": "electric_scooter"}, {"bike_id": "27f3f98e5b512faeb4848dcba0d4ebe2", "is_reserved": 0, "fusion_lon": 0.0, "lat": 38.9333555, "is_disabled": 0, "name": "27f3f98e5b512faeb4848dcba0d4ebe2", "fusion_lat": 0.0, "rental_uris": {"ios": "https://dc.lft.to/lastmile_qr_scan", "android": "https://dc.lft.to/lastmile_qr_scan"}, "lon": -77.03264083333333, "type": "electric_scooter"}, {"bike_id": "a42baf71b5b4e26283ed732f3fbee6e4", "is_reserved": 0, "fusion_lon": 0.0, "lat": 38.91545583333333, "is_disabled": 0, "name": "a42baf71b5b4e26283ed732f3fbee6e4", "fusion_lat": 0.0, "rental_uris": {"ios": "https://dc.lft.to/lastmile_qr_scan", "android": "https://dc.lft.to/lastmile_qr_scan"}, "lon": -77.0384755, "type": "electric_scooter"}, {"bike_id": "4d4ba4941ce6af10887b4037a191d9f1", "is_reserved": 0, "fusion_lon": 0.0, "lat": 38.90563933333333, "is_disabled": 0, "name": "4d4ba4941ce6af10887b4037a191d9f1", "fusion_lat": 0.0, "rental_uris": {"ios": "https://dc.lft.to/lastmile_qr_scan", "android": "https://dc.lft.to/lastmile_qr_scan"}, "lon": -77.00572683333333, "type": "electric_scooter"}, {"bike_id": "331620f069584b17de992b2052e36db6", "is_reserved": 0, "fusion_lon": 0.0, "lat": 38.8962555, "is_disabled": 0, "name": "331620f069584b17de992b2052e36db6", "fusion_lat": 0.0, "rental_uris": {"ios": "https://dc.lft.to/lastmile_qr_scan", "android": "https://dc.lft.to/lastmile_qr_scan"}, "lon": -77.009239, "type": "electric_scooter"}, {"bike_id": "ad705a8b35f3ea7ebfa29d42fb021f6e", "is_reserved": 0, "fusion_lon": 0.0, "lat": 39.05201783333333, "is_disabled": 0, "name": "ad705a8b35f3ea7ebfa29d42fb021f6e", "fusion_lat": 0.0, "rental_uris": {"ios": "https://dc.lft.to/lastmile_qr_scan", "android": "https://dc.lft.to/lastmile_qr_scan"}, "lon": -77.109125, "type": "electric_bike"}, {"bike_id": "ee5f1d0f5efd755c94960877dd9e9364", "is_reserved": 0, "fusion_lon": 0.0, "lat": 38.8820965, "is_disabled": 0, "name": "ee5f1d0f5efd755c94960877dd9e9364", "fusion_lat": 0.0, "rental_uris": {"ios": "https://dc.lft.to/lastmile_qr_scan", "android": "https://dc.lft.to/lastmile_qr_scan"}, "lon": -76.92697733333333, "type": "electric_scooter"}, {"bike_id": "904ee5302996540e78d27bf90468b7e6", "is_reserved": 0, "fusion_lon": 0.0, "lat": 38.90135083333333, "is_disabled": 0, "name": "904ee5302996540e78d27bf90468b7e6", "fusion_lat": 0.0, "rental_uris": {"ios": "https://dc.lft.to/lastmile_qr_scan", "android": "https://dc.lft.to/lastmile_qr_scan"}, "lon": -77.04232333333333, "type": "electric_scooter"}, {"bike_id": "6c06d21ff43ce5188b00a0c399748e81", "is_reserved": 0, "fusion_lon": 0.0, "lat": 38.920270333333335, "is_disabled": 0, "name": "6c06d21ff43ce5188b00a0c399748e81", "fusion_lat": 0.0, "rental_uris": {"ios": "https://dc.lft.to/lastmile_qr_scan", "android": "https://dc.lft.to/lastmile_qr_scan"}, "lon": -77.03869916666666, "type": "electric_scooter"}, {"bike_id": "2a738a7fdf75a5cca1b79103414fc717", "is_reserved": 0, "fusion_lon": 0.0, "lat": 38.906773, "is_disabled": 0, "name": "2a738a7fdf75a5cca1b79103414fc717", "fusion_lat": 0.0, "rental_uris": {"ios": "https://dc.lft.to/lastmile_qr_scan", "android": "https://dc.lft.to/lastmile_qr_scan"}, "lon": -77.0758035, "type": "electric_scooter"}, {"bike_id": "26973b6e8bf72d767c3e543fa02539b2", "is_reserved": 0, "fusion_lon": 0.0, "lat": 38.91555683333333, "is_disabled": 0, "name": "26973b6e8bf72d767c3e543fa02539b2", "fusion_lat": 0.0, "rental_uris": {"ios": "https://dc.lft.to/lastmile_qr_scan", "android": "https://dc.lft.to/lastmile_qr_scan"}, "lon": -77.0393555, "type": "electric_scooter"}, {"bike_id": "ef2eeb9684e7feb76f38885012f31a72", "is_reserved": 0, "fusion_lon": 0.0, "lat": 38.922117, "is_disabled": 0, "name": "ef2eeb9684e7feb76f38885012f31a72", "fusion_lat": 0.0, "rental_uris": {"ios": "https://dc.lft.to/lastmile_qr_scan", "android": "https://dc.lft.to/lastmile_qr_scan"}, "lon": -77.03655166666667, "type": "electric_scooter"}, {"bike_id": "fa9d6b9cc38890ff718eeb1d4ba777e1", "is_reserved": 0, "fusion_lon": 0.0, "lat": 38.914622666666666, "is_disabled": 0, "name": "fa9d6b9cc38890ff718eeb1d4ba777e1", "fusion_lat": 0.0, "rental_uris": {"ios": "https://dc.lft.to/lastmile_qr_scan", "android": "https://dc.lft.to/lastmile_qr_scan"}, "lon": -77.03198583333334, "type": "electric_scooter"}, {"bike_id": "371f61f17f0aacff0ef0dcbddc56c5d4", "is_reserved": 0, "fusion_lon": 0.0, "lat": 38.892254333333334, "is_disabled": 0, "name": "371f61f17f0aacff0ef0dcbddc56c5d4", "fusion_lat": 0.0, "rental_uris": {"ios": "https://dc.lft.to/lastmile_qr_scan", "android": "https://dc.lft.to/lastmile_qr_scan"}, "lon": -77.0433225, "type": "electric_scooter"}, {"bike_id": "c5f48903327394a4c56f70b1ddaa7c26", "is_reserved": 0, "fusion_lon": 0.0, "lat": 38.934229, "is_disabled": 0, "name": "c5f48903327394a4c56f70b1ddaa7c26", "fusion_lat": 0.0, "rental_uris": {"ios": "https://dc.lft.to/lastmile_qr_scan", "android": "https://dc.lft.to/lastmile_qr_scan"}, "lon": -77.04317483333334, "type": "electric_scooter"}, {"bike_id": "232e8f2c790e152ed38d2aee450a17ff", "is_reserved": 0, "fusion_lon": 0.0, "lat": 38.9578295, "is_disabled": 0, "name": "232e8f2c790e152ed38d2aee450a17ff", "fusion_lat": 0.0, "rental_uris": {"ios": "https://dc.lft.to/lastmile_qr_scan", "android": "https://dc.lft.to/lastmile_qr_scan"}, "lon": -77.02756533333333, "type": "electric_bike"}, {"bike_id": "a24758d643914c3faa3b77a5edbea111", "is_reserved": 0, "fusion_lon": 0.0, "lat": 38.92332916666667, "is_disabled": 0, "name": "a24758d643914c3faa3b77a5edbea111", "fusion_lat": 0.0, "rental_uris": {"ios": "https://dc.lft.to/lastmile_qr_scan", "android": "https://dc.lft.to/lastmile_qr_scan"}, "lon": -77.04392216666666, "type": "electric_scooter"}, {"bike_id": "80b1bda85c3fd70dcbe5500919a2f878", "is_reserved": 0, "fusion_lon": 0.0, "lat": 38.920625, "is_disabled": 0, "name": "80b1bda85c3fd70dcbe5500919a2f878", "fusion_lat": 0.0, "rental_uris": {"ios": "https://dc.lft.to/lastmile_qr_scan", "android": "https://dc.lft.to/lastmile_qr_scan"}, "lon": -76.97804166666667, "type": "electric_scooter"}, {"bike_id": "36011aba29b1fd3b7a900f6b93bd87b3", "is_reserved": 0, "fusion_lon": 0.0, "lat": 38.9058665, "is_disabled": 0, "name": "36011aba29b1fd3b7a900f6b93bd87b3", "fusion_lat": 0.0, "rental_uris": {"ios": "https://dc.lft.to/lastmile_qr_scan", "android": "https://dc.lft.to/lastmile_qr_scan"}, "lon": -77.0651695, "type": "electric_scooter"}, {"bike_id": "fa25a8bf29708266f80c588ce00f040d", "is_reserved": 0, "fusion_lon": 0.0, "lat": 38.92052433333333, "is_disabled": 0, "name": "fa25a8bf29708266f80c588ce00f040d", "fusion_lat": 0.0, "rental_uris": {"ios": "https://dc.lft.to/lastmile_qr_scan", "android": "https://dc.lft.to/lastmile_qr_scan"}, "lon": -77.03392366666667, "type": "electric_scooter"}, {"bike_id": "5fcaef29141b9aaf24c5ca5ffc8b9b8d", "is_reserved": 0, "fusion_lon": 0.0, "lat": 38.905096, "is_disabled": 0, "name": "5fcaef29141b9aaf24c5ca5ffc8b9b8d", "fusion_lat": 0.0, "rental_uris": {"ios": "https://dc.lft.to/lastmile_qr_scan", "android": "https://dc.lft.to/lastmile_qr_scan"}, "lon": -77.06383266666667, "type": "electric_scooter"}, {"bike_id": "6caa08e9fced81743f1b314b03f1b48c", "is_reserved": 0, "fusion_lon": 0.0, "lat": 38.92049333333333, "is_disabled": 0, "name": "6caa08e9fced81743f1b314b03f1b48c", "fusion_lat": 0.0, "rental_uris": {"ios": "https://dc.lft.to/lastmile_qr_scan", "android": "https://dc.lft.to/lastmile_qr_scan"}, "lon": -77.0330675, "type": "electric_bike"}, {"bike_id": "90f28ecc60de9f1794a3adc237d86904", "is_reserved": 0, "fusion_lon": 0.0, "lat": 38.905744166666665, "is_disabled": 0, "name": "90f28ecc60de9f1794a3adc237d86904", "fusion_lat": 0.0, "rental_uris": {"ios": "https://dc.lft.to/lastmile_qr_scan", "android": "https://dc.lft.to/lastmile_qr_scan"}, "lon": -77.03627833333333, "type": "electric_scooter"}, {"bike_id": "2426cd7134cfa61c8f3b20860d4fe448", "is_reserved": 0, "fusion_lon": 0.0, "lat": 38.92316683333333, "is_disabled": 0, "name": "2426cd7134cfa61c8f3b20860d4fe448", "fusion_lat": 0.0, "rental_uris": {"ios": "https://dc.lft.to/lastmile_qr_scan", "android": "https://dc.lft.to/lastmile_qr_scan"}, "lon": -77.03859916666667, "type": "electric_scooter"}, {"bike_id": "d66e755370cbfcf3c376ea11de8ff482", "is_reserved": 0, "fusion_lon": 0.0, "lat": 38.919716666666666, "is_disabled": 0, "name": "d66e755370cbfcf3c376ea11de8ff482", "fusion_lat": 0.0, "rental_uris": {"ios": "https://dc.lft.to/lastmile_qr_scan", "android": "https://dc.lft.to/lastmile_qr_scan"}, "lon": -77.00106016666666, "type": "electric_scooter"}, {"bike_id": "48d686de3f834e00ec144646127d7709", "is_reserved": 0, "fusion_lon": 0.0, "lat": 38.896752166666666, "is_disabled": 0, "name": "48d686de3f834e00ec144646127d7709", "fusion_lat": 0.0, "rental_uris": {"ios": "https://dc.lft.to/lastmile_qr_scan", "android": "https://dc.lft.to/lastmile_qr_scan"}, "lon": -77.02947433333334, "type": "electric_scooter"}, {"bike_id": "917f2bee39021ce12b075c0b68cb6c5f", "is_reserved": 0, "fusion_lon": 0.0, "lat": 38.911182, "is_disabled": 0, "name": "917f2bee39021ce12b075c0b68cb6c5f", "fusion_lat": 0.0, "rental_uris": {"ios": "https://dc.lft.to/lastmile_qr_scan", "android": "https://dc.lft.to/lastmile_qr_scan"}, "lon": -77.04658366666666, "type": "electric_scooter"}, {"bike_id": "92e3cc20a5148d74ac7cc86fcc967516", "is_reserved": 0, "fusion_lon": 0.0, "lat": 38.923399333333336, "is_disabled": 0, "name": "92e3cc20a5148d74ac7cc86fcc967516", "fusion_lat": 0.0, "rental_uris": {"ios": "https://dc.lft.to/lastmile_qr_scan", "android": "https://dc.lft.to/lastmile_qr_scan"}, "lon": -77.01896983333333, "type": "electric_scooter"}, {"bike_id": "5ecf110b07869f7fcfe38e40b721ac46", "is_reserved": 0, "fusion_lon": 0.0, "lat": 38.897825166666664, "is_disabled": 0, "name": "5ecf110b07869f7fcfe38e40b721ac46", "fusion_lat": 0.0, "rental_uris": {"ios": "https://dc.lft.to/lastmile_qr_scan", "android": "https://dc.lft.to/lastmile_qr_scan"}, "lon": -77.0072595, "type": "electric_scooter"}, {"bike_id": "6972cb5ff1d9e0f5e037cf9e552fe164", "is_reserved": 0, "fusion_lon": 0.0, "lat": 38.87459116666667, "is_disabled": 0, "name": "6972cb5ff1d9e0f5e037cf9e552fe164", "fusion_lat": 0.0, "rental_uris": {"ios": "https://dc.lft.to/lastmile_qr_scan", "android": "https://dc.lft.to/lastmile_qr_scan"}, "lon": -77.005423, "type": "electric_scooter"}, {"bike_id": "9c87b00961b0152d1883ba6f0ce82d14", "is_reserved": 0, "fusion_lon": 0.0, "lat": 38.90613066666667, "is_disabled": 0, "name": "9c87b00961b0152d1883ba6f0ce82d14", "fusion_lat": 0.0, "rental_uris": {"ios": "https://dc.lft.to/lastmile_qr_scan", "android": "https://dc.lft.to/lastmile_qr_scan"}, "lon": -77.03958366666667, "type": "electric_scooter"}, {"bike_id": "53bdf29ac01103feff27f1ab1d490d9c", "is_reserved": 0, "fusion_lon": 0.0, "lat": 38.918754666666665, "is_disabled": 0, "name": "53bdf29ac01103feff27f1ab1d490d9c", "fusion_lat": 0.0, "rental_uris": {"ios": "https://dc.lft.to/lastmile_qr_scan", "android": "https://dc.lft.to/lastmile_qr_scan"}, "lon": -77.04346183333334, "type": "electric_scooter"}, {"bike_id": "c104b32a2c9ad3d274d54f9fa5ee6ffa", "is_reserved": 0, "fusion_lon": 0.0, "lat": 38.92243466666667, "is_disabled": 0, "name": "c104b32a2c9ad3d274d54f9fa5ee6ffa", "fusion_lat": 0.0, "rental_uris": {"ios": "https://dc.lft.to/lastmile_qr_scan", "android": "https://dc.lft.to/lastmile_qr_scan"}, "lon": -77.0366065, "type": "electric_scooter"}, {"bike_id": "892e8be77e297b4b118f544db0d357b4", "is_reserved": 0, "fusion_lon": 0.0, "lat": 38.90312083333333, "is_disabled": 0, "name": "892e8be77e297b4b118f544db0d357b4", "fusion_lat": 0.0, "rental_uris": {"ios": "https://dc.lft.to/lastmile_qr_scan", "android": "https://dc.lft.to/lastmile_qr_scan"}, "lon": -77.037749, "type": "electric_scooter"}, {"bike_id": "5e383f04fe12f9ea0dd7fc231df4c6ec", "is_reserved": 0, "fusion_lon": 0.0, "lat": 38.928801, "is_disabled": 0, "name": "5e383f04fe12f9ea0dd7fc231df4c6ec", "fusion_lat": 0.0, "rental_uris": {"ios": "https://dc.lft.to/lastmile_qr_scan", "android": "https://dc.lft.to/lastmile_qr_scan"}, "lon": -77.037548, "type": "electric_scooter"}, {"bike_id": "e387262702d91317342d3bf496c181a7", "is_reserved": 0, "fusion_lon": 0.0, "lat": 38.938896166666666, "is_disabled": 0, "name": "e387262702d91317342d3bf496c181a7", "fusion_lat": 0.0, "rental_uris": {"ios": "https://dc.lft.to/lastmile_qr_scan", "android": "https://dc.lft.to/lastmile_qr_scan"}, "lon": -77.03326383333334, "type": "electric_scooter"}, {"bike_id": "2139506ec7b78aefa94517aef17180d3", "is_reserved": 0, "fusion_lon": 0.0, "lat": 38.921477, "is_disabled": 0, "name": "2139506ec7b78aefa94517aef17180d3", "fusion_lat": 0.0, "rental_uris": {"ios": "https://dc.lft.to/lastmile_qr_scan", "android": "https://dc.lft.to/lastmile_qr_scan"}, "lon": -77.03520483333334, "type": "electric_scooter"}, {"bike_id": "f2c85350df50303d4125624fd1458f9e", "is_reserved": 0, "fusion_lon": 0.0, "lat": 38.909680333333334, "is_disabled": 0, "name": "f2c85350df50303d4125624fd1458f9e", "fusion_lat": 0.0, "rental_uris": {"ios": "https://dc.lft.to/lastmile_qr_scan", "android": "https://dc.lft.to/lastmile_qr_scan"}, "lon": -77.027231, "type": "electric_scooter"}, {"bike_id": "067aaeb64b86d90d4c80b21471d1a2f6", "is_reserved": 0, "fusion_lon": 0.0, "lat": 38.95912783333333, "is_disabled": 0, "name": "067aaeb64b86d90d4c80b21471d1a2f6", "fusion_lat": 0.0, "rental_uris": {"ios": "https://dc.lft.to/lastmile_qr_scan", "android": "https://dc.lft.to/lastmile_qr_scan"}, "lon": -77.001521, "type": "electric_bike"}, {"bike_id": "0462062b9897e71e1054f2f5b9383505", "is_reserved": 0, "fusion_lon": 0.0, "lat": 38.885061666666665, "is_disabled": 0, "name": "0462062b9897e71e1054f2f5b9383505", "fusion_lat": 0.0, "rental_uris": {"ios": "https://dc.lft.to/lastmile_qr_scan", "android": "https://dc.lft.to/lastmile_qr_scan"}, "lon": -77.0056235, "type": "electric_scooter"}, {"bike_id": "4d7f4544dab6675143bf285635170930", "is_reserved": 0, "fusion_lon": 0.0, "lat": 38.9203965, "is_disabled": 0, "name": "4d7f4544dab6675143bf285635170930", "fusion_lat": 0.0, "rental_uris": {"ios": "https://dc.lft.to/lastmile_qr_scan", "android": "https://dc.lft.to/lastmile_qr_scan"}, "lon": -76.97899016666666, "type": "electric_scooter"}, {"bike_id": "31de7909a378d63db49e007ba62fb641", "is_reserved": 0, "fusion_lon": 0.0, "lat": 38.91844666666667, "is_disabled": 0, "name": "31de7909a378d63db49e007ba62fb641", "fusion_lat": 0.0, "rental_uris": {"ios": "https://dc.lft.to/lastmile_qr_scan", "android": "https://dc.lft.to/lastmile_qr_scan"}, "lon": -77.0229905, "type": "electric_scooter"}, {"bike_id": "9bc50594d27ce2df7e9029a04b2dd307", "is_reserved": 0, "fusion_lon": 0.0, "lat": 38.920979833333334, "is_disabled": 0, "name": "9bc50594d27ce2df7e9029a04b2dd307", "fusion_lat": 0.0, "rental_uris": {"ios": "https://dc.lft.to/lastmile_qr_scan", "android": "https://dc.lft.to/lastmile_qr_scan"}, "lon": -77.02432166666667, "type": "electric_scooter"}, {"bike_id": "f9d3e53fc394cded88acdf12431e96a0", "is_reserved": 0, "fusion_lon": 0.0, "lat": 38.903853833333336, "is_disabled": 0, "name": "f9d3e53fc394cded88acdf12431e96a0", "fusion_lat": 0.0, "rental_uris": {"ios": "https://dc.lft.to/lastmile_qr_scan", "android": "https://dc.lft.to/lastmile_qr_scan"}, "lon": -77.03987116666667, "type": "electric_scooter"}, {"bike_id": "d36aadb32229fa09a2cef57c29de0e3b", "is_reserved": 0, "fusion_lon": 0.0, "lat": 38.93668, "is_disabled": 0, "name": "d36aadb32229fa09a2cef57c29de0e3b", "fusion_lat": 0.0, "rental_uris": {"ios": "https://dc.lft.to/lastmile_qr_scan", "android": "https://dc.lft.to/lastmile_qr_scan"}, "lon": -77.036383, "type": "electric_scooter"}, {"bike_id": "a8f60e4627a9f6a35d165dc30f2a33af", "is_reserved": 0, "fusion_lon": 0.0, "lat": 38.88742633333333, "is_disabled": 0, "name": "a8f60e4627a9f6a35d165dc30f2a33af", "fusion_lat": 0.0, "rental_uris": {"ios": "https://dc.lft.to/lastmile_qr_scan", "android": "https://dc.lft.to/lastmile_qr_scan"}, "lon": -77.01528616666667, "type": "electric_scooter"}, {"bike_id": "e65184fb4d4aa801d2f61abacbb8f88c", "is_reserved": 0, "fusion_lon": 0.0, "lat": 38.89656633333333, "is_disabled": 0, "name": "e65184fb4d4aa801d2f61abacbb8f88c", "fusion_lat": 0.0, "rental_uris": {"ios": "https://dc.lft.to/lastmile_qr_scan", "android": "https://dc.lft.to/lastmile_qr_scan"}, "lon": -77.02945433333333, "type": "electric_scooter"}, {"bike_id": "b9948e16c53ac8e3db2296b7eeef8eaf", "is_reserved": 0, "fusion_lon": 0.0, "lat": 38.883274, "is_disabled": 0, "name": "b9948e16c53ac8e3db2296b7eeef8eaf", "fusion_lat": 0.0, "rental_uris": {"ios": "https://dc.lft.to/lastmile_qr_scan", "android": "https://dc.lft.to/lastmile_qr_scan"}, "lon": -77.01753916666667, "type": "electric_scooter"}, {"bike_id": "0dde846c2917908a0696606ab08eb0b1", "is_reserved": 0, "fusion_lon": 0.0, "lat": 38.92575983333333, "is_disabled": 0, "name": "0dde846c2917908a0696606ab08eb0b1", "fusion_lat": 0.0, "rental_uris": {"ios": "https://dc.lft.to/lastmile_qr_scan", "android": "https://dc.lft.to/lastmile_qr_scan"}, "lon": -77.03917383333334, "type": "electric_scooter"}, {"bike_id": "512d88f80780a0d3fc872e4ade07d8ab", "is_reserved": 0, "fusion_lon": 0.0, "lat": 38.917123833333335, "is_disabled": 0, "name": "512d88f80780a0d3fc872e4ade07d8ab", "fusion_lat": 0.0, "rental_uris": {"ios": "https://dc.lft.to/lastmile_qr_scan", "android": "https://dc.lft.to/lastmile_qr_scan"}, "lon": -77.03104716666667, "type": "electric_scooter"}, {"bike_id": "3f687157c7485a281c6e0acb58d7c51c", "is_reserved": 0, "fusion_lon": 0.0, "lat": 38.92578916666667, "is_disabled": 0, "name": "3f687157c7485a281c6e0acb58d7c51c", "fusion_lat": 0.0, "rental_uris": {"ios": "https://dc.lft.to/lastmile_qr_scan", "android": "https://dc.lft.to/lastmile_qr_scan"}, "lon": -77.03931233333333, "type": "electric_scooter"}, {"bike_id": "e96d15b022f96f056ed0e5ad0506709f", "is_reserved": 0, "fusion_lon": 0.0, "lat": 38.904230166666665, "is_disabled": 0, "name": "e96d15b022f96f056ed0e5ad0506709f", "fusion_lat": 0.0, "rental_uris": {"ios": "https://dc.lft.to/lastmile_qr_scan", "android": "https://dc.lft.to/lastmile_qr_scan"}, "lon": -77.02870016666667, "type": "electric_scooter"}, {"bike_id": "09299f1faa053595c095d510a9b9cecc", "is_reserved": 0, "fusion_lon": 0.0, "lat": 38.915925666666666, "is_disabled": 0, "name": "09299f1faa053595c095d510a9b9cecc", "fusion_lat": 0.0, "rental_uris": {"ios": "https://dc.lft.to/lastmile_qr_scan", "android": "https://dc.lft.to/lastmile_qr_scan"}, "lon": -76.98372066666667, "type": "electric_scooter"}, {"bike_id": "5b521a0e24704e2fbda8acce056f2f10", "is_reserved": 0, "fusion_lon": 0.0, "lat": 38.916974333333336, "is_disabled": 0, "name": "5b521a0e24704e2fbda8acce056f2f10", "fusion_lat": 0.0, "rental_uris": {"ios": "https://dc.lft.to/lastmile_qr_scan", "android": "https://dc.lft.to/lastmile_qr_scan"}, "lon": -77.02901466666667, "type": "electric_scooter"}, {"bike_id": "a82952911e1330381675fdff47d9bf97", "is_reserved": 0, "fusion_lon": 0.0, "lat": 38.9128335, "is_disabled": 0, "name": "a82952911e1330381675fdff47d9bf97", "fusion_lat": 0.0, "rental_uris": {"ios": "https://dc.lft.to/lastmile_qr_scan", "android": "https://dc.lft.to/lastmile_qr_scan"}, "lon": -77.03851516666667, "type": "electric_scooter"}, {"bike_id": "8fac4863c03d16b9dcd369fcfa236759", "is_reserved": 0, "fusion_lon": 0.0, "lat": 38.90144466666667, "is_disabled": 0, "name": "8fac4863c03d16b9dcd369fcfa236759", "fusion_lat": 0.0, "rental_uris": {"ios": "https://dc.lft.to/lastmile_qr_scan", "android": "https://dc.lft.to/lastmile_qr_scan"}, "lon": -77.01620066666666, "type": "electric_scooter"}, {"bike_id": "d18b4fb1e9f5a082862fea18c1b5bf62", "is_reserved": 0, "fusion_lon": 0.0, "lat": 38.936906666666665, "is_disabled": 0, "name": "d18b4fb1e9f5a082862fea18c1b5bf62", "fusion_lat": 0.0, "rental_uris": {"ios": "https://dc.lft.to/lastmile_qr_scan", "android": "https://dc.lft.to/lastmile_qr_scan"}, "lon": -77.06014533333334, "type": "electric_scooter"}, {"bike_id": "0b69a933873297027464fa5007c58f6e", "is_reserved": 0, "fusion_lon": 0.0, "lat": 38.898021666666665, "is_disabled": 0, "name": "0b69a933873297027464fa5007c58f6e", "fusion_lat": 0.0, "rental_uris": {"ios": "https://dc.lft.to/lastmile_qr_scan", "android": "https://dc.lft.to/lastmile_qr_scan"}, "lon": -77.02942216666666, "type": "electric_scooter"}, {"bike_id": "04f2653ffd034d922671af29d922d498", "is_reserved": 0, "fusion_lon": 0.0, "lat": 38.85535466666666, "is_disabled": 0, "name": "04f2653ffd034d922671af29d922d498", "fusion_lat": 0.0, "rental_uris": {"ios": "https://dc.lft.to/lastmile_qr_scan", "android": "https://dc.lft.to/lastmile_qr_scan"}, "lon": -77.11329633333334, "type": "electric_bike"}, {"bike_id": "0b1e03e7912a49749446829250af2ecc", "is_reserved": 0, "fusion_lon": 0.0, "lat": 38.903737666666665, "is_disabled": 0, "name": "0b1e03e7912a49749446829250af2ecc", "fusion_lat": 0.0, "rental_uris": {"ios": "https://dc.lft.to/lastmile_qr_scan", "android": "https://dc.lft.to/lastmile_qr_scan"}, "lon": -77.01775333333333, "type": "electric_scooter"}, {"bike_id": "f79dec4d768d1fd516658f3676e0adc0", "is_reserved": 0, "fusion_lon": 0.0, "lat": 38.9201435, "is_disabled": 0, "name": "f79dec4d768d1fd516658f3676e0adc0", "fusion_lat": 0.0, "rental_uris": {"ios": "https://dc.lft.to/lastmile_qr_scan", "android": "https://dc.lft.to/lastmile_qr_scan"}, "lon": -77.03866316666667, "type": "electric_scooter"}, {"bike_id": "3e43dc7c1a9d04b955cb99fe036c15dd", "is_reserved": 0, "fusion_lon": 0.0, "lat": 38.88748916666667, "is_disabled": 0, "name": "3e43dc7c1a9d04b955cb99fe036c15dd", "fusion_lat": 0.0, "rental_uris": {"ios": "https://dc.lft.to/lastmile_qr_scan", "android": "https://dc.lft.to/lastmile_qr_scan"}, "lon": -77.02858716666667, "type": "electric_scooter"}, {"bike_id": "1874a4bb52824362b367a81f7bb3fab6", "is_reserved": 0, "fusion_lon": 0.0, "lat": 38.9036965, "is_disabled": 0, "name": "1874a4bb52824362b367a81f7bb3fab6", "fusion_lat": 0.0, "rental_uris": {"ios": "https://dc.lft.to/lastmile_qr_scan", "android": "https://dc.lft.to/lastmile_qr_scan"}, "lon": -76.98502866666666, "type": "electric_scooter"}, {"bike_id": "6169e010b1a4dbc84075af41853c34bf", "is_reserved": 0, "fusion_lon": 0.0, "lat": 38.9390145, "is_disabled": 0, "name": "6169e010b1a4dbc84075af41853c34bf", "fusion_lat": 0.0, "rental_uris": {"ios": "https://dc.lft.to/lastmile_qr_scan", "android": "https://dc.lft.to/lastmile_qr_scan"}, "lon": -77.02808483333334, "type": "electric_bike"}, {"bike_id": "d3129739fa52cde8cc97bac88cf7af2d", "is_reserved": 0, "fusion_lon": 0.0, "lat": 38.905679, "is_disabled": 0, "name": "d3129739fa52cde8cc97bac88cf7af2d", "fusion_lat": 0.0, "rental_uris": {"ios": "https://dc.lft.to/lastmile_qr_scan", "android": "https://dc.lft.to/lastmile_qr_scan"}, "lon": -76.98147066666667, "type": "electric_scooter"}, {"bike_id": "07f398ba074579634af619dd121e2e08", "is_reserved": 0, "fusion_lon": 0.0, "lat": 38.94011716666667, "is_disabled": 0, "name": "07f398ba074579634af619dd121e2e08", "fusion_lat": 0.0, "rental_uris": {"ios": "https://dc.lft.to/lastmile_qr_scan", "android": "https://dc.lft.to/lastmile_qr_scan"}, "lon": -77.0716865, "type": "electric_scooter"}, {"bike_id": "2f437a0d07436d6db99a51c7603ac0e7", "is_reserved": 0, "fusion_lon": 0.0, "lat": 38.90408216666667, "is_disabled": 0, "name": "2f437a0d07436d6db99a51c7603ac0e7", "fusion_lat": 0.0, "rental_uris": {"ios": "https://dc.lft.to/lastmile_qr_scan", "android": "https://dc.lft.to/lastmile_qr_scan"}, "lon": -76.97322933333334, "type": "electric_scooter"},