{"data": {"bikes": [{"is_reserved": 0, "fusion_lon": 0.0, "fusion_lat": 0.0, "name": "844fa1620c0ca87d2e14bf70076898c7", "type": "electric_scooter", "is_disabled": 0, "lat": 38.919229666666666, "rental_uris": {"android": "https://dc.lft.to/lastmile_qr_scan", "ios": "https://dc.lft.to/lastmile_qr_scan"}, "bike_id": "844fa1620c0ca87d2e14bf70076898c7", "lon": -77.02501}, {"is_reserved": 0, "fusion_lon": 0.0, "fusion_lat": 0.0, "name": "8f40734e42ac5bdc74667d56813e6109", "type": "electric_scooter", "is_disabled": 0, "lat": 38.88408233333333, "rental_uris": {"android": "https://dc.lft.to/lastmile_qr_scan", "ios": "https://dc.lft.to/lastmile_qr_scan"}, "bike_id": "8f40734e42ac5bdc74667d56813e6109", "lon": -77.01766083333334}, {"is_reserved": 0, "fusion_lon": 0.0, "fusion_lat": 0.0, "name": "a1b8b850e7554129d24c2a469cf4ec06", "type": "electric_scooter", "is_disabled": 0, "lat": 38.9008375, "rental_uris": {"android": "https://dc.lft.to/lastmile_qr_scan", "ios": "https://dc.lft.to/lastmile_qr_scan"}, "bike_id": "a1b8b850e7554129d24c2a469cf4ec06", "lon": -76.9301935}, {"is_reserved": 0, "fusion_lon": 0.0, "fusion_lat": 0.0, "name": "2f641d01c551f985393f3b8f0f005a04", "type": "electric_scooter", "is_disabled": 0, "lat": 38.917656666666666, "rental_uris": {"android": "https://dc.lft.to/lastmile_qr_scan", "ios": "https://dc.lft.to/lastmile_qr_scan"}, "bike_id": "2f641d01c551f985393f3b8f0f005a04", "lon": -77.04060283333334}, {"is_reserved": 0, "fusion_lon": 0.0, "fusion_lat": 0.0, "name": "917f4477e70a276da94690911afe2459", "type": "electric_bike", "is_disabled": 0, "lat": 38.95652333333334, "rental_uris": {"android": "https://dc.lft.to/lastmile_qr_scan", "ios": "https://dc.lft.to/lastmile_qr_scan"}, "bike_id": "917f4477e70a276da94690911afe2459", "lon": -77.01278516666666}, {"is_reserved": 0, "fusion_lon": 0.0, "fusion_lat": 0.0, "name": "f4934eb8a898af16ce9a8d62f0952bd8", "type": "electric_scooter", "is_disabled": 0, "lat": 38.898653833333334, "rental_uris": {"android": "https://dc.lft.to/lastmile_qr_scan", "ios": "https://dc.lft.to/lastmile_qr_scan"}, "bike_id": "f4934eb8a898af16ce9a8d62f0952bd8", "lon": -76.92748433333334}, {"is_reserved": 0, "fusion_lon": 0.0, "fusion_lat": 0.0, "name": "f9f881a094b1e42f196e2f9aca91cf95", "type": "electric_scooter", "is_disabled": 0, "lat": 38.88482466666667, "rental_uris": {"android": "https://dc.lft.to/lastmile_qr_scan", "ios": "https://dc.lft.to/lastmile_qr_scan"}, "bike_id": "f9f881a094b1e42f196e2f9aca91cf95", "lon": -76.9261525}, {"is_reserved": 0, "fusion_lon": 0.0, "fusion_lat": 0.0, "name": "d3f498dd842951751649e7b2a8a54e26", "type": "electric_scooter", "is_disabled": 0, "lat": 38.898046666666666, "rental_uris": {"android": "https://dc.lft.to/lastmile_qr_scan", "ios": "https://dc.lft.to/lastmile_qr_scan"}, "bike_id": "d3f498dd842951751649e7b2a8a54e26", "lon": -77.02949866666667}, {"is_reserved": 0, "fusion_lon": 0.0, "fusion_lat": 0.0, "name": "af5e42505928a4acb18d1f782d12ff62", "type": "electric_scooter", "is_disabled": 0, "lat": 38.85536333333334, "rental_uris": {"android": "https://dc.lft.to/lastmile_qr_scan", "ios": "https://dc.lft.to/lastmile_qr_scan"}, "bike_id": "af5e42505928a4acb18d1f782d12ff62", "lon": -76.9841765}, {"is_reserved": 0, "fusion_lon": 0.0, "fusion_lat": 0.0, "name": "b92134a413d87e236286be49fe360445", "type": "electric_scooter", "is_disabled": 0, "lat": 38.9072745, "rental_uris": {"android": "https://dc.lft.to/lastmile_qr_scan", "ios": "https://dc.lft.to/lastmile_qr_scan"}, "bike_id": "b92134a413d87e236286be49fe360445", "lon": -77.04349666666667}, {"is_reserved": 0, "fusion_lon": 0.0, "fusion_lat": 0.0, "name": "4a2c291ccb50cc5c8dbe7888fe6e3f0e", "type": "electric_scooter", "is_disabled": 0, "lat": 38.9297385, "rental_uris": {"android": "https://dc.lft.to/lastmile_qr_scan", "ios": "https://dc.lft.to/lastmile_qr_scan"}, "bike_id": "4a2c291ccb50cc5c8dbe7888fe6e3f0e", "lon": -77.0131515}, {"is_reserved": 0, "fusion_lon": 0.0, "fusion_lat": 0.0, "name": "5449c836572acb99e70a21a08be21898", "type": "electric_scooter", "is_disabled": 0, "lat": 38.917888833333336, "rental_uris": {"android": "https://dc.lft.to/lastmile_qr_scan", "ios": "https://dc.lft.to/lastmile_qr_scan"}, "bike_id": "5449c836572acb99e70a21a08be21898", "lon": -77.02314233333334}, {"is_reserved": 0, "fusion_lon": 0.0, "fusion_lat": 0.0, "name": "951e48431c6a39a77a72279bdf2c4c90", "type": "electric_scooter", "is_disabled": 0, "lat": 38.895044166666665, "rental_uris": {"android": "https://dc.lft.to/lastmile_qr_scan", "ios": "https://dc.lft.to/lastmile_qr_scan"}, "bike_id": "951e48431c6a39a77a72279bdf2c4c90", "lon": -77.04677683333334}, {"is_reserved": 0, "fusion_lon": 0.0, "fusion_lat": 0.0, "name": "6670cebceb3c14127a4b7b03bf9d99e0", "type": "electric_scooter", "is_disabled": 0, "lat": 38.904423666666666, "rental_uris": {"android": "https://dc.lft.to/lastmile_qr_scan", "ios": "https://dc.lft.to/lastmile_qr_scan"}, "bike_id": "6670cebceb3c14127a4b7b03bf9d99e0", "lon": -77.04477483333334}, {"is_reserved": 0, "fusion_lon": 0.0, "fusion_lat": 0.0, "name": "897e5ec0af554c0f8ed3f039a2d5b520", "type": "electric_scooter", "is_disabled": 0, "lat": 38.8812095, "rental_uris": {"android": "https://dc.lft.to/lastmile_qr_scan", "ios": "https://dc.lft.to/lastmile_qr_scan"}, "bike_id": "897e5ec0af554c0f8ed3f039a2d5b520", "lon": -77.0167225}, {"is_reserved": 0, "fusion_lon": 0.0, "fusion_lat": 0.0, "name": "1df35e0d2657ec768a09456b5c599681", "type": "electric_scooter", "is_disabled": 0, "lat": 38.906803, "rental_uris": {"android": "https://dc.lft.to/lastmile_qr_scan", "ios": "https://dc.lft.to/lastmile_qr_scan"}, "bike_id": "1df35e0d2657ec768a09456b5c599681", "lon": -77.03863433333333}, {"is_reserved": 0, "fusion_lon": 0.0, "fusion_lat": 0.0, "name": "f837945b2f8c6a7a04e6cea5262ed567", "type": "electric_scooter", "is_disabled": 0, "lat": 38.9042365, "rental_uris": {"android": "https://dc.lft.to/lastmile_qr_scan", "ios": "https://dc.lft.to/lastmile_qr_scan"}, "bike_id": "f837945b2f8c6a7a04e6cea5262ed567", "lon": -77.053349}, {"is_reserved": 0, "fusion_lon": 0.0, "fusion_lat": 0.0, "name": "cf44c5d0fbde39f9a74261e3d0ea9c4e", "type": "electric_scooter", "is_disabled": 0, "lat": 38.908241, "rental_uris": {"android": "https://dc.lft.to/lastmile_qr_scan", "ios": "https://dc.lft.to/lastmile_qr_scan"}, "bike_id": "cf44c5d0fbde39f9a74261e3d0ea9c4e", "lon": -77.038582}, {"is_reserved": 0, "fusion_lon": 0.0, "fusion_lat": 0.0, "name": "c4f57c46bb93c245a4f3499062396eae", "type": "electric_scooter", "is_disabled": 0, "lat": 38.862548333333336, "rental_uris": {"android": "https://dc.lft.to/lastmile_qr_scan", "ios": "https://dc.lft.to/lastmile_qr_scan"}, "bike_id": "c4f57c46bb93c245a4f3499062396eae", "lon": -76.99513016666667}, {"is_reserved": 0, "fusion_lon": 0.0, "fusion_lat": 0.0, "name": "40ea6093770844bc9b693dd577bd4631", "type": "electric_scooter", "is_disabled": 0, "lat": 38.922487, "rental_uris": {"android": "https://dc.lft.to/lastmile_qr_scan", "ios": "https://dc.lft.to/lastmile_qr_scan"}, "bike_id": "40ea6093770844bc9b693dd577bd4631", "lon": -77.03080383333334}, {"is_reserved": 0, "fusion_lon": 0.0, "fusion_lat": 0.0, "name": "bda89a52effb170d94893d1b0503d31a", "type": "electric_scooter", "is_disabled": 0, "lat": 38.8859655, "rental_uris": {"android": "https://dc.lft.to/lastmile_qr_scan", "ios": "https://dc.lft.to/lastmile_qr_scan"}, "bike_id": "bda89a52effb170d94893d1b0503d31a", "lon": -76.99099316666667}, {"is_reserved": 0, "fusion_lon": 0.0, "fusion_lat": 0.0, "name": "a9f7128ad56e0752ba4be9937e0f2adc", "type": "electric_scooter", "is_disabled": 0, "lat": 38.887379, "rental_uris": {"android": "https://dc.lft.to/lastmile_qr_scan", "ios": "https://dc.lft.to/lastmile_qr_scan"}, "bike_id": "a9f7128ad56e0752ba4be9937e0f2adc", "lon": -77.0221055}, {"is_reserved": 0, "fusion_lon": 0.0, "fusion_lat": 0.0, "name": "ba127ab88f56f94cfdb23ca563bdc9bd", "type": "electric_scooter", "is_disabled": 0, "lat": 38.91550483333333, "rental_uris": {"android": "https://dc.lft.to/lastmile_qr_scan", "ios": "https://dc.lft.to/lastmile_qr_scan"}, "bike_id": "ba127ab88f56f94cfdb23ca563bdc9bd", "lon": -77.02206533333333}, {"is_reserved": 0, "fusion_lon": 0.0, "fusion_lat": 0.0, "name": "a669c1247393b1d7688eeaec78c67f88", "type": "electric_scooter", "is_disabled": 0, "lat": 38.9063915, "rental_uris": {"android": "https://dc.lft.to/lastmile_qr_scan", "ios": "https://dc.lft.to/lastmile_qr_scan"}, "bike_id": "a669c1247393b1d7688eeaec78c67f88", "lon": -77.04872216666666}, {"is_reserved": 0, "fusion_lon": 0.0, "fusion_lat": 0.0, "name": "0e763b909ec5db529e93d66a36d4f81e", "type": "electric_scooter", "is_disabled": 0, "lat": 38.925141833333335, "rental_uris": {"android": "https://dc.lft.to/lastmile_qr_scan", "ios": "https://dc.lft.to/lastmile_qr_scan"}, "bike_id": "0e763b909ec5db529e93d66a36d4f81e", "lon": -77.05042266666666}, {"is_reserved": 0, "fusion_lon": 0.0, "fusion_lat": 0.0, "name": "fab54d70763fdd458b97113876248116", "type": "electric_scooter", "is_disabled": 0, "lat": 38.912644, "rental_uris": {"android": "https://dc.lft.to/lastmile_qr_scan", "ios": "https://dc.lft.to/lastmile_qr_scan"}, "bike_id": "fab54d70763fdd458b97113876248116", "lon": -77.0314485}, {"is_reserved": 0, "fusion_lon": 0.0, "fusion_lat": 0.0, "name": "415b4641c3da895d6656fb72db9fc0ab", "type": "electric_scooter", "is_disabled": 0, "lat": 38.8991615, "rental_uris": {"android": "https://dc.lft.to/lastmile_qr_scan", "ios": "https://dc.lft.to/lastmile_qr_scan"}, "bike_id": "415b4641c3da895d6656fb72db9fc0ab", "lon": -77.013774}, {"is_reserved": 0, "fusion_lon": 0.0, "fusion_lat": 0.0, "name": "a833e98c4eed32d63ee2b8ebd2629fa6", "type": "electric_scooter", "is_disabled": 0, "lat": 38.92756633333333, "rental_uris": {"android": "https://dc.lft.to/lastmile_qr_scan", "ios": "https://dc.lft.to/lastmile_qr_scan"}, "bike_id": "a833e98c4eed32d63ee2b8ebd2629fa6", "lon": -77.02419316666666}, {"is_reserved": 0, "fusion_lon": 0.0, "fusion_lat": 0.0, "name": "36768c9b0b3e2de463d7ddf8251f0600", "type": "electric_scooter", "is_disabled": 0, "lat": 38.895520833333336, "rental_uris": {"android": "https://dc.lft.to/lastmile_qr_scan", "ios": "https://dc.lft.to/lastmile_qr_scan"}, "bike_id": "36768c9b0b3e2de463d7ddf8251f0600", "lon": -76.94871216666667}, {"is_reserved": 0, "fusion_lon": 0.0, "fusion_lat": 0.0, "name": "8212d5bfca6301694f40a9c51502a3ed", "type": "electric_scooter", "is_disabled": 0, "lat": 38.880847333333335, "rental_uris": {"android": "https://dc.lft.to/lastmile_qr_scan", "ios": "https://dc.lft.to/lastmile_qr_scan"}, "bike_id": "8212d5bfca6301694f40a9c51502a3ed", "lon": -76.98506316666666}, {"is_reserved": 0, "fusion_lon": 0.0, "fusion_lat": 0.0, "name": "43b102914effcdfe28021bee747d8c92", "type": "electric_scooter", "is_disabled": 0, "lat": 38.898653333333336, "rental_uris": {"android": "https://dc.lft.to/lastmile_qr_scan", "ios": "https://dc.lft.to/lastmile_qr_scan"}, "bike_id": "43b102914effcdfe28021bee747d8c92", "lon": -76.94661366666666}, {"is_reserved": 0, "fusion_lon": 0.0, "fusion_lat": 0.0, "name": "0e147276efbad1c7466194c377e835ab", "type": "electric_scooter", "is_disabled": 0, "lat": 38.902401166666664, "rental_uris": {"android": "https://dc.lft.to/lastmile_qr_scan", "ios": "https://dc.lft.to/lastmile_qr_scan"}, "bike_id": "0e147276efbad1c7466194c377e835ab", "lon": -77.00197783333333}, {"is_reserved": 0, "fusion_lon": 0.0, "fusion_lat": 0.0, "name": "c67814ba6ce04c8e6254c5c42d7618bf", "type": "electric_scooter", "is_disabled": 0, "lat": 38.923669333333336, "rental_uris": {"android": "https://dc.lft.to/lastmile_qr_scan", "ios": "https://dc.lft.to/lastmile_qr_scan"}, "bike_id": "c67814ba6ce04c8e6254c5c42d7618bf", "lon": -77.01949483333334}, {"is_reserved": 0, "fusion_lon": 0.0, "fusion_lat": 0.0, "name": "28893c6360bb1586f9f29b6108452552", "type": "electric_scooter", "is_disabled": 0, "lat": 38.885093833333336, "rental_uris": {"android": "https://dc.lft.to/lastmile_qr_scan", "ios": "https://dc.lft.to/lastmile_qr_scan"}, "bike_id": "28893c6360bb1586f9f29b6108452552", "lon": -76.99836033333334}, {"is_reserved": 0, "fusion_lon": 0.0, "fusion_lat": 0.0, "name": "d52e9f524199884540d19c7238c1288c", "type": "electric_scooter", "is_disabled": 0, "lat": 38.892365833333336, "rental_uris": {"android": "https://dc.lft.to/lastmile_qr_scan", "ios": "https://dc.lft.to/lastmile_qr_scan"}, "bike_id": "d52e9f524199884540d19c7238c1288c", "lon": -77.041592}, {"is_reserved": 0, "fusion_lon": 0.0, "fusion_lat": 0.0, "name": "dc47a5c565d2f70ddd7fb6f4a5be57fa", "type": "electric_scooter", "is_disabled": 0, "lat": 38.898250833333336, "rental_uris": {"android": "https://dc.lft.to/lastmile_qr_scan", "ios": "https://dc.lft.to/lastmile_qr_scan"}, "bike_id": "dc47a5c565d2f70ddd7fb6f4a5be57fa", "lon": -76.946519}, {"is_reserved": 0, "fusion_lon": 0.0, "fusion_lat": 0.0, "name": "b0670c40df745baf3275da72511b97ed", "type": "electric_bike", "is_disabled": 0, "lat": 38.996489, "rental_uris": {"android": "https://dc.lft.to/lastmile_qr_scan", "ios": "https://dc.lft.to/lastmile_qr_scan"}, "bike_id": "b0670c40df745baf3275da72511b97ed", "lon": -77.040005}, {"is_reserved": 0, "fusion_lon": 0.0, "fusion_lat": 0.0, "name": "d850f837988d10ed0c73bfdd3c97964e", "type": "electric_scooter", "is_disabled": 0, "lat": 38.9192735, "rental_uris": {"android": "https://dc.lft.to/lastmile_qr_scan", "ios": "https://dc.lft.to/lastmile_qr_scan"}, "bike_id": "d850f837988d10ed0c73bfdd3c97964e", "lon": -77.0317375}, {"is_reserved": 0, "fusion_lon": 0.0, "fusion_lat": 0.0, "name": "4575fbbd6081a4a5a6c3a25920a07914", "type": "electric_scooter", "is_disabled": 0, "lat": 38.89220066666667, "rental_uris": {"android": "https://dc.lft.to/lastmile_qr_scan", "ios": "https://dc.lft.to/lastmile_qr_scan"}, "bike_id": "4575fbbd6081a4a5a6c3a25920a07914", "lon": -77.02228366666667}, {"is_reserved": 0, "fusion_lon": 0.0, "fusion_lat": 0.0, "name": "6915b9dd9a6a8b7dba7f91b9e082fba5", "type": "electric_scooter", "is_disabled": 0, "lat": 38.907726333333336, "rental_uris": {"android": "https://dc.lft.to/lastmile_qr_scan", "ios": "https://dc.lft.to/lastmile_qr_scan"}, "bike_id": "6915b9dd9a6a8b7dba7f91b9e082fba5", "lon": -76.9782875}, {"is_reserved": 0, "fusion_lon": 0.0, "fusion_lat": 0.0, "name": "44d66c94e867f35d3841317496ca038a", "type": "electric_scooter", "is_disabled": 0, "lat": 38.9190125, "rental_uris": {"android": "https://dc.lft.to/lastmile_qr_scan", "ios": "https://dc.lft.to/lastmile_qr_scan"}, "bike_id": "44d66c94e867f35d3841317496ca038a", "lon": -76.98743116666667}, {"is_reserved": 0, "fusion_lon": 0.0, "fusion_lat": 0.0, "name": "b3bb9c97d651cc0cd4289d48bdf91e4b", "type": "electric_scooter", "is_disabled": 0, "lat": 38.90499066666667, "rental_uris": {"android": "https://dc.lft.to/lastmile_qr_scan", "ios": "https://dc.lft.to/lastmile_qr_scan"}, "bike_id": "b3bb9c97d651cc0cd4289d48bdf91e4b", "lon": -77.04659366666667}, {"is_reserved": 0, "fusion_lon": 0.0, "fusion_lat": 0.0, "name": "70dabc3823f28f53ead8680c832d8288", "type": "electric_scooter", "is_disabled": 0, "lat": 38.91592583333333, "rental_uris": {"android": "https://dc.lft.to/lastmile_qr_scan", "ios": "https://dc.lft.to/lastmile_qr_scan"}, "bike_id": "70dabc3823f28f53ead8680c832d8288", "lon": -77.02304966666667}, {"is_reserved": 0, "fusion_lon": 0.0, "fusion_lat": 0.0, "name": "431abbc9672af00bdf6483c637a8eb04", "type": "electric_scooter", "is_disabled": 0, "lat": 38.898940833333334, "rental_uris": {"android": "https://dc.lft.to/lastmile_qr_scan", "ios": "https://dc.lft.to/lastmile_qr_scan"}, "bike_id": "431abbc9672af00bdf6483c637a8eb04", "lon": -77.03273416666667}, {"is_reserved": 0, "fusion_lon": 0.0, "fusion_lat": 0.0, "name": "45f78e16815a2d87f5b9a2a93c1f2dcf", "type": "electric_scooter", "is_disabled": 0, "lat": 38.88855516666667, "rental_uris": {"android": "https://dc.lft.to/lastmile_qr_scan", "ios": "https://dc.lft.to/lastmile_qr_scan"}, "bike_id": "45f78e16815a2d87f5b9a2a93c1f2dcf", "lon": -77.03110283333334}, {"is_reserved": 0, "fusion_lon": 0.0, "fusion_lat": 0.0, "name": "93dcbbb3b17c215f704bc5ecd36ae243", "type": "electric_scooter", "is_disabled": 0, "lat": 38.951833, "rental_uris": {"android": "https://dc.lft.to/lastmile_qr_scan", "ios": "https://dc.lft.to/lastmile_qr_scan"}, "bike_id": "93dcbbb3b17c215f704bc5ecd36ae243", "lon": -77.02727416666667}, {"is_reserved": 0, "fusion_lon": 0.0, "fusion_lat": 0.0, "name": "aa1769542049a93fa303c67193ced755", "type": "electric_scooter", "is_disabled": 0, "lat": 38.891815666666666, "rental_uris": {"android": "https://dc.lft.to/lastmile_qr_scan", "ios": "https://dc.lft.to/lastmile_qr_scan"}, "bike_id": "aa1769542049a93fa303c67193ced755", "lon": -77.036342}, {"is_reserved": 0, "fusion_lon": 0.0, "fusion_lat": 0.0, "name": "6a2c9ff4026c3948c446c293aaa28bbc", "type": "electric_scooter", "is_disabled": 0, "lat": 38.91805083333333, "rental_uris": {"android": "https://dc.lft.to/lastmile_qr_scan", "ios": "https://dc.lft.to/lastmile_qr_scan"}, "bike_id": "6a2c9ff4026c3948c446c293aaa28bbc", "lon": -77.024913}, {"is_reserved": 0, "fusion_lon": 0.0, "fusion_lat": 0.0, "name": "48b0cf50c8fc96f65f63d1947de3584a", "type": "electric_scooter", "is_disabled": 0, "lat": 38.9171995, "rental_uris": {"android": "https://dc.lft.to/lastmile_qr_scan", "ios": "https://dc.lft.to/lastmile_qr_scan"}, "bike_id": "48b0cf50c8fc96f65f63d1947de3584a", "lon": -77.036545}, {"is_reserved": 0, "fusion_lon": 0.0, "fusion_lat": 0.0, "name": "3cfb019995ae844322e1a09ad62e24dd", "type": "electric_scooter", "is_disabled": 0, "lat": 38.912814833333336, "rental_uris": {"android": "https://dc.lft.to/lastmile_qr_scan", "ios": "https://dc.lft.to/lastmile_qr_scan"}, "bike_id": "3cfb019995ae844322e1a09ad62e24dd", "lon": -77.04508483333333}, {"is_reserved": 0, "fusion_lon": 0.0, "fusion_lat": 0.0, "name": "7242f4d5420e6e1f1854b2b7241ec109", "type": "electric_scooter", "is_disabled": 0, "lat": 38.90958833333333, "rental_uris": {"android": "https://dc.lft.to/lastmile_qr_scan", "ios": "https://dc.lft.to/lastmile_qr_scan"}, "bike_id": "7242f4d5420e6e1f1854b2b7241ec109", "lon": -77.03412783333333}, {"is_reserved": 0, "fusion_lon": 0.0, "fusion_lat": 0.0, "name": "a71f4d448de4654fff5f0cafec2e1b6a", "type": "electric_scooter", "is_disabled": 0, "lat": 38.89178783333333, "rental_uris": {"android": "https://dc.lft.to/lastmile_qr_scan", "ios": "https://dc.lft.to/lastmile_qr_scan"}, "bike_id": "a71f4d448de4654fff5f0cafec2e1b6a", "lon": -76.91194116666667}, {"is_reserved": 0, "fusion_lon": 0.0, "fusion_lat": 0.0, "name": "4a8d0f3e2b924f458e52cb22414539e6", "type": "electric_scooter", "is_disabled": 0, "lat": 38.890024833333335, "rental_uris": {"android": "https://dc.lft.to/lastmile_qr_scan", "ios": "https://dc.lft.to/lastmile_qr_scan"}, "bike_id": "4a8d0f3e2b924f458e52cb22414539e6", "lon": -77.04889416666667}, {"is_reserved": 0, "fusion_lon": 0.0, "fusion_lat": 0.0, "name": "f695b263845b906e655faf6518a4879f", "type": "electric_scooter", "is_disabled": 0, "lat": 38.911249833333336, "rental_uris": {"android": "https://dc.lft.to/lastmile_qr_scan", "ios": "https://dc.lft.to/lastmile_qr_scan"}, "bike_id": "f695b263845b906e655faf6518a4879f", "lon": -77.043552}, {"is_reserved": 0, "fusion_lon": 0.0, "fusion_lat": 0.0, "name": "44faff1de5b6294704ab2f4fdaa89613", "type": "electric_scooter", "is_disabled": 0, "lat": 38.92156033333333, "rental_uris": {"android": "https://dc.lft.to/lastmile_qr_scan", "ios": "https://dc.lft.to/lastmile_qr_scan"}, "bike_id": "44faff1de5b6294704ab2f4fdaa89613", "lon": -77.02106116666667}, {"is_reserved": 0, "fusion_lon": 0.0, "fusion_lat": 0.0, "name": "e7efebd55834abae404450ebf558b710", "type": "electric_scooter", "is_disabled": 0, "lat": 38.914748, "rental_uris": {"android": "https://dc.lft.to/lastmile_qr_scan", "ios": "https://dc.lft.to/lastmile_qr_scan"}, "bike_id": "e7efebd55834abae404450ebf558b710", "lon": -77.0208525}, {"is_reserved": 0, "fusion_lon": 0.0, "fusion_lat": 0.0, "name": "7b6d67ad75c77551db4d56105a7314de", "type": "electric_scooter", "is_disabled": 0, "lat": 38.87495766666667, "rental_uris": {"android": "https://dc.lft.to/lastmile_qr_scan", "ios": "https://dc.lft.to/lastmile_qr_scan"}, "bike_id": "7b6d67ad75c77551db4d56105a7314de", "lon": -77.00171416666667}, {"is_reserved": 0, "fusion_lon": 0.0, "fusion_lat": 0.0, "name": "684798512a53bc732293edc0944c9036", "type": "electric_scooter", "is_disabled": 0, "lat": 38.871690666666666, "rental_uris": {"android": "https://dc.lft.to/lastmile_qr_scan", "ios": "https://dc.lft.to/lastmile_qr_scan"}, "bike_id": "684798512a53bc732293edc0944c9036", "lon": -76.97740966666667}, {"is_reserved": 0, "fusion_lon": 0.0, "fusion_lat": 0.0, "name": "fdc36d1789d8825f1026154ec3e33e0f", "type": "electric_scooter", "is_disabled": 0, "lat": 38.900794166666664, "rental_uris": {"android": "https://dc.lft.to/lastmile_qr_scan", "ios": "https://dc.lft.to/lastmile_qr_scan"}, "bike_id": "fdc36d1789d8825f1026154ec3e33e0f", "lon": -77.04883066666666}, {"is_reserved": 0, "fusion_lon": 0.0, "fusion_lat": 0.0, "name": "14f1fcbf43b810ab6576862907695fe9", "type": "electric_scooter", "is_disabled": 0, "lat": 38.92250716666667, "rental_uris": {"android": "https://dc.lft.to/lastmile_qr_scan", "ios": "https://dc.lft.to/lastmile_qr_scan"}, "bike_id": "14f1fcbf43b810ab6576862907695fe9", "lon": -77.04326616666667}, {"is_reserved": 0, "fusion_lon": 0.0, "fusion_lat": 0.0, "name": "146fbf158976638a46224f346bf5fef1", "type": "electric_scooter", "is_disabled": 0, "lat": 38.917102, "rental_uris": {"android": "https://dc.lft.to/lastmile_qr_scan", "ios": "https://dc.lft.to/lastmile_qr_scan"}, "bike_id": "146fbf158976638a46224f346bf5fef1", "lon": -77.03854966666667}, {"is_reserved": 0, "fusion_lon": 0.0, "fusion_lat": 0.0, "name": "b39509af5bfdd64afdd839f37bb04943", "type": "electric_scooter", "is_disabled": 0, "lat": 38.90633566666666, "rental_uris": {"android": "https://dc.lft.to/lastmile_qr_scan", "ios": "https://dc.lft.to/lastmile_qr_scan"}, "bike_id": "b39509af5bfdd64afdd839f37bb04943", "lon": -77.04643233333333}, {"is_reserved": 0, "fusion_lon": 0.0, "fusion_lat": 0.0, "name": "8fad5996916394803ade6d296071680a", "type": "electric_scooter", "is_disabled": 0, "lat": 38.885588, "rental_uris": {"android": "https://dc.lft.to/lastmile_qr_scan", "ios": "https://dc.lft.to/lastmile_qr_scan"}, "bike_id": "8fad5996916394803ade6d296071680a", "lon": -76.99798966666667}, {"is_reserved": 0, "fusion_lon": 0.0, "fusion_lat": 0.0, "name": "16584ec31659fb6e789300ab890605d1", "type": "electric_scooter", "is_disabled": 0, "lat": 38.934021666666666, "rental_uris": {"android": "https://dc.lft.to/lastmile_qr_scan", "ios": "https://dc.lft.to/lastmile_qr_scan"}, "bike_id": "16584ec31659fb6e789300ab890605d1", "lon": -77.03259566666667}, {"is_reserved": 0, "fusion_lon": 0.0, "fusion_lat": 0.0, "name": "bc807ed33da79b97fe9c8c056d879e4f", "type": "electric_scooter", "is_disabled": 0, "lat": 38.877841833333335, "rental_uris": {"android": "https://dc.lft.to/lastmile_qr_scan", "ios": "https://dc.lft.to/lastmile_qr_scan"}, "bike_id": "bc807ed33da79b97fe9c8c056d879e4f", "lon": -76.99408483333333}, {"is_reserved": 0, "fusion_lon": 0.0, "fusion_lat": 0.0, "name": "6d3fd172600e3a54555138eeddc473b6", "type": "electric_bike", "is_disabled": 0, "lat": 38.8323815, "rental_uris": {"android": "https://dc.lft.to/lastmile_qr_scan", "ios": "https://dc.lft.to/lastmile_qr_scan"}, "bike_id": "6d3fd172600e3a54555138eeddc473b6", "lon": -76.94619933333334}, {"is_reserved": 0, "fusion_lon": 0.0, "fusion_lat": 0.0, "name": "80152d5b207b673cbe0f3ded3ffaaee5", "type": "electric_bike", "is_disabled": 0, "lat": 39.05049666666667, "rental_uris": {"android": "https://dc.lft.to/lastmile_qr_scan", "ios": "https://dc.lft.to/lastmile_qr_scan"}, "bike_id": "80152d5b207b673cbe0f3ded3ffaaee5", "lon": -77.05150883333333}, {"is_reserved": 0, "fusion_lon": 0.0, "fusion_lat": 0.0, "name": "be177ee8208f3150684fc02d890f9c94", "type": "electric_scooter", "is_disabled": 0, "lat": 38.904075, "rental_uris": {"android": "https://dc.lft.to/lastmile_qr_scan", "ios": "https://dc.lft.to/lastmile_qr_scan"}, "bike_id": "be177ee8208f3150684fc02d890f9c94", "lon": -76.973304}, {"is_reserved": 0, "fusion_lon": 0.0, "fusion_lat": 0.0, "name": "20b0c763b1243fb17bf689ba7793e035", "type": "electric_scooter", "is_disabled": 0, "lat": 38.93021016666667, "rental_uris": {"android": "https://dc.lft.to/lastmile_qr_scan", "ios": "https://dc.lft.to/lastmile_qr_scan"}, "bike_id": "20b0c763b1243fb17bf689ba7793e035", "lon": -77.06308716666666}, {"is_reserved": 0, "fusion_lon": 0.0, "fusion_lat": 0.0, "name": "ac1bc21992f40bdaa92cdc587bfa7318", "type": "electric_scooter", "is_disabled": 0, "lat": 38.90206233333333, "rental_uris": {"android": "https://dc.lft.to/lastmile_qr_scan", "ios": "https://dc.lft.to/lastmile_qr_scan"}, "bike_id": "ac1bc21992f40bdaa92cdc587bfa7318", "lon": -77.04817183333333}, {"is_reserved": 0, "fusion_lon": 0.0, "fusion_lat": 0.0, "name": "53380c7d8c2d4ce0fc8bda5d4106f792", "type": "electric_scooter", "is_disabled": 0, "lat": 38.90271766666667, "rental_uris": {"android": "https://dc.lft.to/lastmile_qr_scan", "ios": "https://dc.lft.to/lastmile_qr_scan"}, "bike_id": "53380c7d8c2d4ce0fc8bda5d4106f792", "lon": -77.03341416666666}, {"is_reserved": 0, "fusion_lon": 0.0, "fusion_lat": 0.0, "name": "1c75826f50197eb3635b5546db6a809a", "type": "electric_scooter", "is_disabled": 0, "lat": 38.92181516666667, "rental_uris": {"android": "https://dc.lft.to/lastmile_qr_scan", "ios": "https://dc.lft.to/lastmile_qr_scan"}, "bike_id": "1c75826f50197eb3635b5546db6a809a", "lon": -77.0435225}, {"is_reserved": 0, "fusion_lon": 0.0, "fusion_lat": 0.0, "name": "4ccd2167dc4170fcf05e5bdfc368f327", "type": "electric_scooter", "is_disabled": 0, "lat": 38.90424083333333, "rental_uris": {"android": "https://dc.lft.to/lastmile_qr_scan", "ios": "https://dc.lft.to/lastmile_qr_scan"}, "bike_id": "4ccd2167dc4170fcf05e5bdfc368f327", "lon": -77.03090883333333}, {"is_reserved": 0, "fusion_lon": 0.0, "fusion_lat": 0.0, "name": "cbfe2a902ca8d8a995775e0513d81c6e", "type": "electric_bike", "is_disabled": 0, "lat": 38.85376183333333, "rental_uris": {"android": "https://dc.lft.to/lastmile_qr_scan", "ios": "https://dc.lft.to/lastmile_qr_scan"}, "bike_id": "cbfe2a902ca8d8a995775e0513d81c6e", "lon": -77.12466316666666}, {"is_reserved": 0, "fusion_lon": 0.0, "fusion_lat": 0.0, "name": "d405f82f144168243e0366ca3f61eb37", "type": "electric_scooter", "is_disabled": 0, "lat": 38.943077333333335, "rental_uris": {"android": "https://dc.lft.to/lastmile_qr_scan", "ios": "https://dc.lft.to/lastmile_qr_scan"}, "bike_id": "d405f82f144168243e0366ca3f61eb37", "lon": -77.05862783333333}, {"is_reserved": 0, "fusion_lon": 0.0, "fusion_lat": 0.0, "name": "658cb753c5746b29d47b2945caefcbdd", "type": "electric_scooter", "is_disabled": 0, "lat": 38.93620333333333, "rental_uris": {"android": "https://dc.lft.to/lastmile_qr_scan", "ios": "https://dc.lft.to/lastmile_qr_scan"}, "bike_id": "658cb753c5746b29d47b2945caefcbdd", "lon": -77.06757033333334}, {"is_reserved": 0, "fusion_lon": 0.0, "fusion_lat": 0.0, "name": "12b2613561ba8724ae7dc5e949d0b707", "type": "electric_scooter", "is_disabled": 0, "lat": 38.916951166666664, "rental_uris": {"android": "https://dc.lft.to/lastmile_qr_scan", "ios": "https://dc.lft.to/lastmile_qr_scan"}, "bike_id": "12b2613561ba8724ae7dc5e949d0b707", "lon": -77.0289255}, {"is_reserved": 0, "fusion_lon": 0.0, "fusion_lat": 0.0, "name": "b63ba297d1f5e14e5a08b162bad7383e", "type": "electric_bike", "is_disabled": 0, "lat": 38.872970333333335, "rental_uris": {"android": "https://dc.lft.to/lastmile_qr_scan", "ios": "https://dc.lft.to/lastmile_qr_scan"}, "bike_id": "b63ba297d1f5e14e5a08b162bad7383e", "lon": -77.13923366666667}, {"is_reserved": 0, "fusion_lon": 0.0, "fusion_lat": 0.0, "name": "71dd129d0704ae74a72c47a3ce027d2b", "type": "electric_scooter", "is_disabled": 0, "lat": 38.8962055, "rental_uris": {"android": "https://dc.lft.to/lastmile_qr_scan", "ios": "https://dc.lft.to/lastmile_qr_scan"}, "bike_id": "71dd129d0704ae74a72c47a3ce027d2b", "lon": -77.03179233333333}, {"is_reserved": 0, "fusion_lon": 0.0, "fusion_lat": 0.0, "name": "99eea19d277561030a3ac4795a945327", "type": "electric_scooter", "is_disabled": 0, "lat": 38.897293, "rental_uris": {"android": "https://dc.lft.to/lastmile_qr_scan", "ios": "https://dc.lft.to/lastmile_qr_scan"}, "bike_id": "99eea19d277561030a3ac4795a945327", "lon": -77.04403783333333}, {"is_reserved": 0, "fusion_lon": 0.0, "fusion_lat": 0.0, "name": "563687a1a1e35d603b1438951b722037", "type": "electric_scooter", "is_disabled": 0, "lat": 38.910902666666665, "rental_uris": {"android": "https://dc.lft.to/lastmile_qr_scan", "ios": "https://dc.lft.to/lastmile_qr_scan"}, "bike_id": "563687a1a1e35d603b1438951b722037", "lon": -77.0448265}, {"is_reserved": 0, "fusion_lon": 0.0, "fusion_lat": 0.0, "name": "4686c2de2e7cf0cbde910689b6f9703c", "type": "electric_scooter", "is_disabled": 0, "lat": 38.904729833333334, "rental_uris": {"android": "https://dc.lft.to/lastmile_qr_scan", "ios": "https://dc.lft.to/lastmile_qr_scan"}, "bike_id": "4686c2de2e7cf0cbde910689b6f9703c", "lon": -77.035701}, {"is_reserved": 0, "fusion_lon": 0.0, "fusion_lat": 0.0, "name": "02938607d5a59a5a4308d96549631e26", "type": "electric_scooter", "is_disabled": 0, "lat": 38.90435316666667, "rental_uris": {"android": "https://dc.lft.to/lastmile_qr_scan", "ios": "https://dc.lft.to/lastmile_qr_scan"}, "bike_id": "02938607d5a59a5a4308d96549631e26", "lon": -77.0343875}, {"is_reserved": 0, "fusion_lon": 0.0, "fusion_lat": 0.0, "name": "f0bc07637fdf5e58c7baf6de1e3fcdc9", "type": "electric_scooter", "is_disabled": 0, "lat": 38.8922565, "rental_uris": {"android": "https://dc.lft.to/lastmile_qr_scan", "ios": "https://dc.lft.to/lastmile_qr_scan"}, "bike_id": "f0bc07637fdf5e58c7baf6de1e3fcdc9", "lon": -77.03189266666666}, {"is_reserved": 0, "fusion_lon": 0.0, "fusion_lat": 0.0, "name": "d0b469eec1ef51549adeaaa10a4a3094", "type": "electric_scooter", "is_disabled": 0, "lat": 38.945099166666665, "rental_uris": {"android": "https://dc.lft.to/lastmile_qr_scan", "ios": "https://dc.lft.to/lastmile_qr_scan"}, "bike_id": "d0b469eec1ef51549adeaaa10a4a3094", "lon": -77.03316516666666}, {"is_reserved": 0, "fusion_lon": 0.0, "fusion_lat": 0.0, "name": "80b1932b21b4ab256ed2557268f5c761", "type": "electric_scooter", "is_disabled": 0, "lat": 38.90821016666666, "rental_uris": {"android": "https://dc.lft.to/lastmile_qr_scan", "ios": "https://dc.lft.to/lastmile_qr_scan"}, "bike_id": "80b1932b21b4ab256ed2557268f5c761", "lon": -77.04356733333333}, {"is_reserved": 0, "fusion_lon": 0.0, "fusion_lat": 0.0, "name": "b419b778da17721a27e639d6e8b58538", "type": "electric_scooter", "is_disabled": 0, "lat": 38.928754, "rental_uris": {"android": "https://dc.lft.to/lastmile_qr_scan", "ios": "https://dc.lft.to/lastmile_qr_scan"}, "bike_id": "b419b778da17721a27e639d6e8b58538", "lon": -77.03317083333333}, {"is_reserved": 0, "fusion_lon": 0.0, "fusion_lat": 0.0, "name": "bbbb9f72e727dff7d2af01f2fa53363c", "type": "electric_scooter", "is_disabled": 0, "lat": 38.906031666666664, "rental_uris": {"android": "https://dc.lft.to/lastmile_qr_scan", "ios": "https://dc.lft.to/lastmile_qr_scan"}, "bike_id": "bbbb9f72e727dff7d2af01f2fa53363c", "lon": -76.9926435}, {"is_reserved": 0, "fusion_lon": 0.0, "fusion_lat": 0.0, "name": "72c1bf4fd2fa82a195d2b31d41333901", "type": "electric_scooter", "is_disabled": 0, "lat": 38.90793266666667, "rental_uris": {"android": "https://dc.lft.to/lastmile_qr_scan", "ios": "https://dc.lft.to/lastmile_qr_scan"}, "bike_id": "72c1bf4fd2fa82a195d2b31d41333901", "lon": -77.0386425}, {"is_reserved": 0, "fusion_lon": 0.0, "fusion_lat": 0.0, "name": "c6e452fca7eadda5341aed93b1a407a6", "type": "electric_scooter", "is_disabled": 0, "lat": 38.91114783333333, "rental_uris": {"android": "https://dc.lft.to/lastmile_qr_scan", "ios": "https://dc.lft.to/lastmile_qr_scan"}, "bike_id": "c6e452fca7eadda5341aed93b1a407a6", "lon": -77.03153783333333}, {"is_reserved": 0, "fusion_lon": 0.0, "fusion_lat": 0.0, "name": "338554fee8e6b3af6cba56d94e1d6e05", "type": "electric_scooter", "is_disabled": 0, "lat": 38.907236166666664, "rental_uris": {"android": "https://dc.lft.to/lastmile_qr_scan", "ios": "https://dc.lft.to/lastmile_qr_scan"}, "bike_id": "338554fee8e6b3af6cba56d94e1d6e05", "lon": -77.03822066666666}, {"is_reserved": 0, "fusion_lon": 0.0, "fusion_lat": 0.0, "name": "cde4a3b07fe3e996bcef668a1bd0fc07", "type": "electric_bike", "is_disabled": 0, "lat": 38.858922166666666, "rental_uris": {"android": "https://dc.lft.to/lastmile_qr_scan", "ios": "https://dc.lft.to/lastmile_qr_scan"}, "bike_id": "cde4a3b07fe3e996bcef668a1bd0fc07", "lon": -77.11862366666666}, {"is_reserved": 0, "fusion_lon": 0.0, "fusion_lat": 0.0, "name": "4e1cf365e2671f7645036618c0752345", "type": "electric_scooter", "is_disabled": 0, "lat": 38.915319, "rental_uris": {"android": "https://dc.lft.to/lastmile_qr_scan", "ios": "https://dc.lft.to/lastmile_qr_scan"}, "bike_id": "4e1cf365e2671f7645036618c0752345", "lon": -77.03794116666667}, {"is_reserved": 0, "fusion_lon": 0.0, "fusion_lat": 0.0, "name": "e0051e173ac5781eec59a6386427888e", "type": "electric_scooter", "is_disabled": 0, "lat": 38.921593333333334, "rental_uris": {"android": "https://dc.lft.to/lastmile_qr_scan", "ios": "https://dc.lft.to/lastmile_qr_scan"}, "bike_id": "e0051e173ac5781eec59a6386427888e", "lon": -77.03335766666666}, {"is_reserved": 0, "fusion_lon": 0.0, "fusion_lat": 0.0, "name": "7032e9950f2c1a9bd180acd28ef55adb", "type": "electric_scooter", "is_disabled": 0, "lat": 38.90554683333333, "rental_uris": {"android": "https://dc.lft.to/lastmile_qr_scan", "ios": "https://dc.lft.to/lastmile_qr_scan"}, "bike_id": "7032e9950f2c1a9bd180acd28ef55adb", "lon": -77.03435383333333}, {"is_reserved": 0, "fusion_lon": 0.0, "fusion_lat": 0.0, "name": "4a38c42571db90014ace8f7df3f7c80f", "type": "electric_scooter", "is_disabled": 0, "lat": 38.89362583333333, "rental_uris": {"android": "https://dc.lft.to/lastmile_qr_scan", "ios": "https://dc.lft.to/lastmile_qr_scan"}, "bike_id": "4a38c42571db90014ace8f7df3f7c80f", "lon": -77.05492316666667}, {"is_reserved": 0, "fusion_lon": 0.0, "fusion_lat": 0.0, "name": "66ecf4b66c7e32c24abaf92543e718da", "type": "electric_scooter", "is_disabled": 0, "lat": 38.90373066666667, "rental_uris": {"android": "https://dc.lft.to/lastmile_qr_scan", "ios": "https://dc.lft.to/lastmile_qr_scan"}, "bike_id": "66ecf4b66c7e32c24abaf92543e718da", "lon": -77.04018166666667}, {"is_reserved": 0, "fusion_lon": 0.0, "fusion_lat": 0.0, "name": "d5b378a8e625161ee7feb7725e1e748b", "type": "electric_scooter", "is_disabled": 0, "lat": 38.918156, "rental_uris": {"android": "https://dc.lft.to/lastmile_qr_scan", "ios": "https://dc.lft.to/lastmile_qr_scan"}, "bike_id": "d5b378a8e625161ee7feb7725e1e748b", "lon": -77.03252016666667}, {"is_reserved": 0, "fusion_lon": 0.0, "fusion_lat": 0.0, "name": "e60f287f0b326f69ccc3ea631d5f43cf", "type": "electric_scooter", "is_disabled": 0, "lat": 38.89798233333333, "rental_uris": {"android": "https://dc.lft.to/lastmile_qr_scan", "ios": "https://dc.lft.to/lastmile_qr_scan"}, "bike_id": "e60f287f0b326f69ccc3ea631d5f43cf", "lon": -77.02472183333333}, {"is_reserved": 0, "fusion_lon": 0.0, "fusion_lat": 0.0, "name": "061165f54cfcf636d920e253c01f50af", "type": "electric_scooter", "is_disabled": 0, "lat": 38.908036333333335, "rental_uris": {"android": "https://dc.lft.to/lastmile_qr_scan", "ios": "https://dc.lft.to/lastmile_qr_scan"}, "bike_id": "061165f54cfcf636d920e253c01f50af", "lon": -77.031921}, {"is_reserved": 0, "fusion_lon": 0.0, "fusion_lat": 0.0, "name": "f08be9948c68fa15fe4d262527367648", "type": "electric_scooter", "is_disabled": 0, "lat": 38.9077595, "rental_uris": {"android": "https://dc.lft.to/lastmile_qr_scan", "ios": "https://dc.lft.to/lastmile_qr_scan"}, "bike_id": "f08be9948c68fa15fe4d262527367648", "lon": -77.03824733333333}, {"is_reserved": 0, "fusion_lon": 0.0, "fusion_lat": 0.0, "name": "388ac562d355f68c14c9ff2d217234e1", "type": "electric_scooter", "is_disabled": 0, "lat": 38.90951116666667, "rental_uris": {"android": "https://dc.lft.to/lastmile_qr_scan", "ios": "https://dc.lft.to/lastmile_qr_scan"}, "bike_id": "388ac562d355f68c14c9ff2d217234e1", "lon": -77.03206266666666}, {"is_reserved": 0, "fusion_lon": 0.0, "fusion_lat": 0.0, "name": "f2f164130bd4532096992b09beea2b41", "type": "electric_scooter", "is_disabled": 0, "lat": 38.89619016666666, "rental_uris": {"android": "https://dc.lft.to/lastmile_qr_scan", "ios": "https://dc.lft.to/lastmile_qr_scan"}, "bike_id": "f2f164130bd4532096992b09beea2b41", "lon": -76.9816675}, {"is_reserved": 0, "fusion_lon": 0.0, "fusion_lat": 0.0, "name": "6c04dcd532eaf897145df9c586f339c9", "type": "electric_scooter", "is_disabled": 0, "lat": 38.883893666666665, "rental_uris": {"android": "https://dc.lft.to/lastmile_qr_scan", "ios": "https://dc.lft.to/lastmile_qr_scan"}, "bike_id": "6c04dcd532eaf897145df9c586f339c9", "lon": -76.9544485}, {"is_reserved": 0, "fusion_lon": 0.0, "fusion_lat": 0.0, "name": "93dda79e61be788b26affa659f586c30", "type": "electric_bike", "is_disabled": 0, "lat": 38.936908833333334, "rental_uris": {"android": "https://dc.lft.to/lastmile_qr_scan", "ios": "https://dc.lft.to/lastmile_qr_scan"}, "bike_id": "93dda79e61be788b26affa659f586c30", "lon": -76.99057733333333}, {"is_reserved": 0, "fusion_lon": 0.0, "fusion_lat": 0.0, "name": "1815b3e4f2099b92ffb2d2b9b73741b5", "type": "electric_scooter", "is_disabled": 0, "lat": 38.92295, "rental_uris": {"android": "https://dc.lft.to/lastmile_qr_scan", "ios": "https://dc.lft.to/lastmile_qr_scan"}, "bike_id": "1815b3e4f2099b92ffb2d2b9b73741b5", "lon": -77.04265866666667}, {"is_reserved": 0, "fusion_lon": 0.0, "fusion_lat": 0.0, "name": "88af95ca723a52dcedf2b2e8409d0e55", "type": "electric_scooter", "is_disabled": 0, "lat": 38.892985833333334, "rental_uris": {"android": "https://dc.lft.to/lastmile_qr_scan", "ios": "https://dc.lft.to/lastmile_qr_scan"}, "bike_id": "88af95ca723a52dcedf2b2e8409d0e55", "lon": -76.99818616666667}, {"is_reserved": 0, "fusion_lon": 0.0, "fusion_lat": 0.0, "name": "fb15f692ed2fc6f877b1942770900eae", "type": "electric_scooter", "is_disabled": 0, "lat": 38.95184783333333, "rental_uris": {"android": "https://dc.lft.to/lastmile_qr_scan", "ios": "https://dc.lft.to/lastmile_qr_scan"}, "bike_id": "fb15f692ed2fc6f877b1942770900eae", "lon": -77.0261355}, {"is_reserved": 0, "fusion_lon": 0.0, "fusion_lat": 0.0, "name": "9b69b1b4bb6029ea127e1018f04c09b6", "type": "electric_scooter", "is_disabled": 0, "lat": 38.92295166666667, "rental_uris": {"android": "https://dc.lft.to/lastmile_qr_scan", "ios": "https://dc.lft.to/lastmile_qr_scan"}, "bike_id": "9b69b1b4bb6029ea127e1018f04c09b6", "lon": -77.04297733333334}, {"is_reserved": 0, "fusion_lon": 0.0, "fusion_lat": 0.0, "name": "1911f405e2514bb6742a4442d2c41813", "type": "electric_scooter", "is_disabled": 0, "lat": 38.884728, "rental_uris": {"android": "https://dc.lft.to/lastmile_qr_scan", "ios": "https://dc.lft.to/lastmile_qr_scan"}, "bike_id": "1911f405e2514bb6742a4442d2c41813", "lon": -77.0265635}, {"is_reserved": 0, "fusion_lon": 0.0, "fusion_lat": 0.0, "name": "5ffa5cc064c79952b8bcd916ff7350fc", "type": "electric_scooter", "is_disabled": 0, "lat": 38.901711166666665, "rental_uris": {"android": "https://dc.lft.to/lastmile_qr_scan", "ios": "https://dc.lft.to/lastmile_qr_scan"}, "bike_id": "5ffa5cc064c79952b8bcd916ff7350fc", "lon": -77.05092383333333}, {"is_reserved": 0, "fusion_lon": 0.0, "fusion_lat": 0.0, "name": "58f93a8093156ddbb409edc86e521fbf", "type": "electric_scooter", "is_disabled": 0, "lat": 38.889919666666664, "rental_uris": {"android": "https://dc.lft.to/lastmile_qr_scan", "ios": "https://dc.lft.to/lastmile_qr_scan"}, "bike_id": "58f93a8093156ddbb409edc86e521fbf", "lon": -76.93107533333334}, {"is_reserved": 0, "fusion_lon": 0.0, "fusion_lat": 0.0, "name": "e6773b3a20a6fb0aef3e4c1dfb381df0", "type": "electric_scooter", "is_disabled": 0, "lat": 38.940749, "rental_uris": {"android": "https://dc.lft.to/lastmile_qr_scan", "ios": "https://dc.lft.to/lastmile_qr_scan"}, "bike_id": "e6773b3a20a6fb0aef3e4c1dfb381df0", "lon": -77.029869}, {"is_reserved": 0, "fusion_lon": 0.0, "fusion_lat": 0.0, "name": "052ed5a25647ae137b57970a66500125", "type": "electric_scooter", "is_disabled": 0, "lat": 38.92230983333334, "rental_uris": {"android": "https://dc.lft.to/lastmile_qr_scan", "ios": "https://dc.lft.to/lastmile_qr_scan"}, "bike_id": "052ed5a25647ae137b57970a66500125", "lon": -76.9753195}, {"is_reserved": 0, "fusion_lon": 0.0, "fusion_lat": 0.0, "name": "6d70e4dd6e959708f376b26fcf9eb149", "type": "electric_scooter", "is_disabled": 0, "lat": 38.90884233333333, "rental_uris": {"android": "https://dc.lft.to/lastmile_qr_scan", "ios": "https://dc.lft.to/lastmile_qr_scan"}, "bike_id": "6d70e4dd6e959708f376b26fcf9eb149", "lon": -77.07309633333334}, {"is_reserved": 0, "fusion_lon": 0.0, "fusion_lat": 0.0, "name": "2e4bd40bb824a70de0d646fd043bdab6", "type": "electric_scooter", "is_disabled": 0, "lat": 38.91701116666667, "rental_uris": {"android": "https://dc.lft.to/lastmile_qr_scan", "ios": "https://dc.lft.to/lastmile_qr_scan"}, "bike_id": "2e4bd40bb824a70de0d646fd043bdab6", "lon": -77.03201483333333}, {"is_reserved": 0, "fusion_lon": 0.0, "fusion_lat": 0.0, "name": "8b54b3cb24eadca08c24f3343f4a57ca", "type": "electric_scooter", "is_disabled": 0, "lat": 38.89217216666667, "rental_uris": {"android": "https://dc.lft.to/lastmile_qr_scan", "ios": "https://dc.lft.to/lastmile_qr_scan"}, "bike_id": "8b54b3cb24eadca08c24f3343f4a57ca", "lon": -77.04375333333333}, {"is_reserved": 0, "fusion_lon": 0.0, "fusion_lat": 0.0, "name": "7aa373c88250f86fc9711a44e17b96cb", "type": "electric_scooter", "is_disabled": 0, "lat": 38.90309383333334, "rental_uris": {"android": "https://dc.lft.to/lastmile_qr_scan", "ios": "https://dc.lft.to/lastmile_qr_scan"}, "bike_id": "7aa373c88250f86fc9711a44e17b96cb", "lon": -77.0504725}, {"is_reserved": 0, "fusion_lon": 0.0, "fusion_lat": 0.0, "name": "2016fae2380cf02b5ddb9a0350668f9f", "type": "electric_scooter", "is_disabled": 0, "lat": 38.94522933333333, "rental_uris": {"android": "https://dc.lft.to/lastmile_qr_scan", "ios": "https://dc.lft.to/lastmile_qr_scan"}, "bike_id": "2016fae2380cf02b5ddb9a0350668f9f", "lon": -77.020876}, {"is_reserved": 0, "fusion_lon": 0.0, "fusion_lat": 0.0, "name": "b733599cf4f6595873a9491aeacb73cb", "type": "electric_scooter", "is_disabled": 0, "lat": 38.906021333333335, "rental_uris": {"android": "https://dc.lft.to/lastmile_qr_scan", "ios": "https://dc.lft.to/lastmile_qr_scan"}, "bike_id": "b733599cf4f6595873a9491aeacb73cb", "lon": -76.98513183333333}, {"is_reserved": 0, "fusion_lon": 0.0, "fusion_lat": 0.0, "name": "804ed9c57ca55c02b3755b29320b6f97", "type": "electric_scooter", "is_disabled": 0, "lat": 38.915676833333336, "rental_uris": {"android": "https://dc.lft.to/lastmile_qr_scan", "ios": "https://dc.lft.to/lastmile_qr_scan"}, "bike_id": "804ed9c57ca55c02b3755b29320b6f97", "lon": -77.03183916666667}, {"is_reserved": 0, "fusion_lon": 0.0, "fusion_lat": 0.0, "name": "c6c06e1aa380dec62c6e804c992e0879", "type": "electric_scooter", "is_disabled": 0, "lat": 38.918005666666666, "rental_uris": {"android": "https://dc.lft.to/lastmile_qr_scan", "ios": "https://dc.lft.to/lastmile_qr_scan"}, "bike_id": "c6c06e1aa380dec62c6e804c992e0879", "lon": -77.032034}, {"is_reserved": 0, "fusion_lon": 0.0, "fusion_lat": 0.0, "name": "3f36fb33559a076e35032387b1e082f6", "type": "electric_scooter", "is_disabled": 0, "lat": 38.95052283333333, "rental_uris": {"android": "https://dc.lft.to/lastmile_qr_scan", "ios": "https://dc.lft.to/lastmile_qr_scan"}, "bike_id": "3f36fb33559a076e35032387b1e082f6", "lon": -77.007264}, {"is_reserved": 0, "fusion_lon": 0.0, "fusion_lat": 0.0, "name": "296b649ff604030b1d7c6120fee0acaa", "type": "electric_scooter", "is_disabled": 0, "lat": 38.896132, "rental_uris": {"android": "https://dc.lft.to/lastmile_qr_scan", "ios": "https://dc.lft.to/lastmile_qr_scan"}, "bike_id": "296b649ff604030b1d7c6120fee0acaa", "lon": -76.99296916666667}, {"is_reserved": 0, "fusion_lon": 0.0, "fusion_lat": 0.0, "name": "a20d9fc113d68e1b26f14b038a9f4b20", "type": "electric_scooter", "is_disabled": 0, "lat": 38.9133255, "rental_uris": {"android": "https://dc.lft.to/lastmile_qr_scan", "ios": "https://dc.lft.to/lastmile_qr_scan"}, "bike_id": "a20d9fc113d68e1b26f14b038a9f4b20", "lon": -77.0481795}, {"is_reserved": 0, "fusion_lon": 0.0, "fusion_lat": 0.0, "name": "db33c409b9f62370cb1ec08a113a55c5", "type": "electric_scooter", "is_disabled": 0, "lat": 38.90195416666667, "rental_uris": {"android": "https://dc.lft.to/lastmile_qr_scan", "ios": "https://dc.lft.to/lastmile_qr_scan"}, "bike_id": "db33c409b9f62370cb1ec08a113a55c5", "lon": -77.02172916666666}, {"is_reserved": 0, "fusion_lon": 0.0, "fusion_lat": 0.0, "name": "cce20ed39e4093522487fec2688b68fb", "type": "electric_scooter", "is_disabled": 0, "lat": 38.8921805, "rental_uris": {"android": "https://dc.lft.to/lastmile_qr_scan", "ios": "https://dc.lft.to/lastmile_qr_scan"}, "bike_id": "cce20ed39e4093522487fec2688b68fb", "lon": -77.031634}, {"is_reserved": 0, "fusion_lon": 0.0, "fusion_lat": 0.0, "name": "9f3a148a6596da9baffbd07540069918", "type": "electric_scooter", "is_disabled": 0, "lat": 38.925697, "rental_uris": {"android": "https://dc.lft.to/lastmile_qr_scan", "ios": "https://dc.lft.to/lastmile_qr_scan"}, "bike_id": "9f3a148a6596da9baffbd07540069918", "lon": -77.0391515}, {"is_reserved": 0, "fusion_lon": 0.0, "fusion_lat": 0.0, "name": "dde2df43d5c810e9db4338c84c7a9c52", "type": "electric_scooter", "is_disabled": 0, "lat": 38.922044666666665, "rental_uris": {"android": "https://dc.lft.to/lastmile_qr_scan", "ios": "https://dc.lft.to/lastmile_qr_scan"}, "bike_id": "dde2df43d5c810e9db4338c84c7a9c52", "lon": -77.02027933333333}, {"is_reserved": 0, "fusion_lon": 0.0, "fusion_lat": 0.0, "name": "20b192fe814cc63c66efdd1ebe78c1c1", "type": "electric_scooter", "is_disabled": 0, "lat": 38.903790666666666, "rental_uris": {"android": "https://dc.lft.to/lastmile_qr_scan", "ios": "https://dc.lft.to/lastmile_qr_scan"}, "bike_id": "20b192fe814cc63c66efdd1ebe78c1c1", "lon": -77.0383455}, {"is_reserved": 0, "fusion_lon": 0.0, "fusion_lat": 0.0, "name": "ded7f9bda83980066ea5ad4e78785f36", "type": "electric_bike", "is_disabled": 0, "lat": 38.92209866666666, "rental_uris": {"android": "https://dc.lft.to/lastmile_qr_scan", "ios": "https://dc.lft.to/lastmile_qr_scan"}, "bike_id": "ded7f9bda83980066ea5ad4e78785f36", "lon": -76.98799783333334}, {"is_reserved": 0, "fusion_lon": 0.0, "fusion_lat": 0.0, "name": "372116ccf6a8ca1bd305b28bacbe3750", "type": "electric_scooter", "is_disabled": 0, "lat": 38.95742633333333, "rental_uris": {"android": "https://dc.lft.to/lastmile_qr_scan", "ios": "https://dc.lft.to/lastmile_qr_scan"}, "bike_id": "372116ccf6a8ca1bd305b28bacbe3750", "lon": -77.02065316666666}, {"is_reserved": 0, "fusion_lon": 0.0, "fusion_lat": 0.0, "name": "2647c7cf80ce94d767f763c2db6a746c", "type": "electric_scooter", "is_disabled": 0, "lat": 38.879136333333335, "rental_uris": {"android": "https://dc.lft.to/lastmile_qr_scan", "ios": "https://dc.lft.to/lastmile_qr_scan"}, "bike_id": "2647c7cf80ce94d767f763c2db6a746c", "lon": -76.99505366666666}, {"is_reserved": 0, "fusion_lon": 0.0, "fusion_lat": 0.0, "name": "c88abad5c9edb7ee4b03fb96d6b09e26", "type": "electric_scooter", "is_disabled": 0, "lat": 38.891915, "rental_uris": {"android": "https://dc.lft.to/lastmile_qr_scan", "ios": "https://dc.lft.to/lastmile_qr_scan"}, "bike_id": "c88abad5c9edb7ee4b03fb96d6b09e26", "lon": -76.988576}, {"is_reserved": 0, "fusion_lon": 0.0, "fusion_lat": 0.0, "name": "2329c8688956ca61eead41571800a477", "type": "electric_scooter", "is_disabled": 0, "lat": 38.897154, "rental_uris": {"android": "https://dc.lft.to/lastmile_qr_scan", "ios": "https://dc.lft.to/lastmile_qr_scan"}, "bike_id": "2329c8688956ca61eead41571800a477", "lon": -76.97343466666666}, {"is_reserved": 0, "fusion_lon": 0.0, "fusion_lat": 0.0, "name": "61baa39a8ccf3ba78351420e446cacf0", "type": "electric_scooter", "is_disabled": 0, "lat": 38.884417666666664, "rental_uris": {"android": "https://dc.lft.to/lastmile_qr_scan", "ios": "https://dc.lft.to/lastmile_qr_scan"}, "bike_id": "61baa39a8ccf3ba78351420e446cacf0", "lon": -77.02962416666666}, {"is_reserved": 0, "fusion_lon": 0.0, "fusion_lat": 0.0, "name": "5374f000e4de8bb2a2b6de0f2cb9ec6d", "type": "electric_bike", "is_disabled": 0, "lat": 38.9836445, "rental_uris": {"android": "https://dc.lft.to/lastmile_qr_scan", "ios": "https://dc.lft.to/lastmile_qr_scan"}, "bike_id": "5374f000e4de8bb2a2b6de0f2cb9ec6d", "lon": -76.9721235}, {"is_reserved": 0, "fusion_lon": 0.0, "fusion_lat": 0.0, "name": "1882dc91644f16ed1ad6f528116be67c", "type": "electric_scooter", "is_disabled": 0, "lat": 38.89174833333333, "rental_uris": {"android": "https://dc.lft.to/lastmile_qr_scan", "ios": "https://dc.lft.to/lastmile_qr_scan"}, "bike_id": "1882dc91644f16ed1ad6f528116be67c", "lon": -76.99477066666667}, {"is_reserved": 0, "fusion_lon": 0.0, "fusion_lat": 0.0, "name": "e3bd6f3a70fdb0933f4ef64bcc731bef", "type": "electric_scooter", "is_disabled": 0, "lat": 38.930184833333335, "rental_uris": {"android": "https://dc.lft.to/lastmile_qr_scan", "ios": "https://dc.lft.to/lastmile_qr_scan"}, "bike_id": "e3bd6f3a70fdb0933f4ef64bcc731bef", "lon": -77.0553595}, {"is_reserved": 0, "fusion_lon": 0.0, "fusion_lat": 0.0, "name": "87dab5c2528e3c2f70300c5d1fe2958d", "type": "electric_scooter", "is_disabled": 0, "lat": 38.924481, "rental_uris": {"android": "https://dc.lft.to/lastmile_qr_scan", "ios": "https://dc.lft.to/lastmile_qr_scan"}, "bike_id": "87dab5c2528e3c2f70300c5d1fe2958d", "lon": -77.02160483333333}, {"is_reserved": 0, "fusion_lon": 0.0, "fusion_lat": 0.0, "name": "9819a8241f2dac3c4dd30e49371546fa", "type": "electric_bike", "is_disabled": 0, "lat": 38.845619, "rental_uris": {"android": "https://dc.lft.to/lastmile_qr_scan", "ios": "https://dc.lft.to/lastmile_qr_scan"}, "bike_id": "9819a8241f2dac3c4dd30e49371546fa", "lon": -77.066908}, {"is_reserved": 0, "fusion_lon": 0.0, "fusion_lat": 0.0, "name": "5db7060b5cc10f496b4787a6e3393be5", "type": "electric_scooter", "is_disabled": 0, "lat": 38.86655666666667, "rental_uris": {"android": "https://dc.lft.to/lastmile_qr_scan", "ios": "https://dc.lft.to/lastmile_qr_scan"}, "bike_id": "5db7060b5cc10f496b4787a6e3393be5", "lon": -76.98881833333333}, {"is_reserved": 0, "fusion_lon": 0.0, "fusion_lat": 0.0, "name": "89815afd3182cb742d18f3c7ec1fdb62", "type": "electric_scooter", "is_disabled": 0, "lat": 38.9385955, "rental_uris": {"android": "https://dc.lft.to/lastmile_qr_scan", "ios": "https://dc.lft.to/lastmile_qr_scan"}, "bike_id": "89815afd3182cb742d18f3c7ec1fdb62", "lon": -77.02516783333333}, {"is_reserved": 0, "fusion_lon": 0.0, "fusion_lat": 0.0, "name": "4dea0c2627e587ce1d05db615c92931e", "type": "electric_scooter", "is_disabled": 0, "lat": 38.94181966666667, "rental_uris": {"android": "https://dc.lft.to/lastmile_qr_scan", "ios": "https://dc.lft.to/lastmile_qr_scan"}, "bike_id": "4dea0c2627e587ce1d05db615c92931e", "lon": -77.02488116666666}, {"is_reserved": 0, "fusion_lon": 0.0, "fusion_lat": 0.0, "name": "058c9d6ea1c067983b1d39367d563216", "type": "electric_bike", "is_disabled": 0, "lat": 38.99342083333333, "rental_uris": {"android": "https://dc.lft.to/lastmile_qr_scan", "ios": "https://dc.lft.to/lastmile_qr_scan"}, "bike_id": "058c9d6ea1c067983b1d39367d563216", "lon": -77.11575683333334}, {"is_reserved": 0, "fusion_lon": 0.0, "fusion_lat": 0.0, "name": "fdfbe35eaeff2b84a7bc61d5e162bef7", "type": "electric_scooter", "is_disabled": 0, "lat": 38.904611833333334, "rental_uris": {"android": "https://dc.lft.to/lastmile_qr_scan", "ios": "https://dc.lft.to/lastmile_qr_scan"}, "bike_id": "fdfbe35eaeff2b84a7bc61d5e162bef7", "lon": -77.04804133333333}, {"is_reserved": 0, "fusion_lon": 0.0, "fusion_lat": 0.0, "name": "de5c85b2946d3aba95ac8c7f4aaee93f", "type": "electric_scooter", "is_disabled": 0, "lat": 38.90264283333333, "rental_uris": {"android": "https://dc.lft.to/lastmile_qr_scan", "ios": "https://dc.lft.to/lastmile_qr_scan"}, "bike_id": "de5c85b2946d3aba95ac8c7f4aaee93f", "lon": -77.03356983333333}, {"is_reserved": 0, "fusion_lon": 0.0, "fusion_lat": 0.0, "name": "fd583f0312ab681dda5295edb9e40731", "type": "electric_scooter", "is_disabled": 0, "lat": 38.90577183333333, "rental_uris": {"android": "https://dc.lft.to/lastmile_qr_scan", "ios": "https://dc.lft.to/lastmile_qr_scan"}, "bike_id": "fd583f0312ab681dda5295edb9e40731", "lon": -77.00885166666667}, {"is_reserved": 0, "fusion_lon": 0.0, "fusion_lat": 0.0, "name": "b97a68af1c6ef0078405b8b7ea86376f", "type": "electric_scooter", "is_disabled": 0, "lat": 38.9191265, "rental_uris": {"android": "https://dc.lft.to/lastmile_qr_scan", "ios": "https://dc.lft.to/lastmile_qr_scan"}, "bike_id": "b97a68af1c6ef0078405b8b7ea86376f", "lon": -77.02402683333334}, {"is_reserved": 0, "fusion_lon": 0.0, "fusion_lat": 0.0, "name": "1899544f72798598e705f7945e55de1c", "type": "electric_scooter", "is_disabled": 0, "lat": 38.90852366666667, "rental_uris": {"android": "https://dc.lft.to/lastmile_qr_scan", "ios": "https://dc.lft.to/lastmile_qr_scan"}, "bike_id": "1899544f72798598e705f7945e55de1c", "lon": -77.04053266666666}, {"is_reserved": 0, "fusion_lon": 0.0, "fusion_lat": 0.0, "name": "ca0b7e2106bb91aab2d817ba8ecc4625", "type": "electric_scooter", "is_disabled": 0, "lat": 38.90367833333333, "rental_uris": {"android": "https://dc.lft.to/lastmile_qr_scan", "ios": "https://dc.lft.to/lastmile_qr_scan"}, "bike_id": "ca0b7e2106bb91aab2d817ba8ecc4625", "lon": -77.04195816666666}, {"is_reserved": 0, "fusion_lon": 0.0, "fusion_lat": 0.0, "name": "dbc8cbda5150663ad24549de32910f48", "type": "electric_scooter", "is_disabled": 0, "lat": 38.9005635, "rental_uris": {"android": "https://dc.lft.to/lastmile_qr_scan", "ios": "https://dc.lft.to/lastmile_qr_scan"}, "bike_id": "dbc8cbda5150663ad24549de32910f48", "lon": -77.0484755}, {"is_reserved": 0, "fusion_lon": 0.0, "fusion_lat": 0.0, "name": "ac401b02ef92a0441925ef946c5202f2", "type": "electric_bike", "is_disabled": 0, "lat": 38.902234166666666, "rental_uris": {"android": "https://dc.lft.to/lastmile_qr_scan", "ios": "https://dc.lft.to/lastmile_qr_scan"}, "bike_id": "ac401b02ef92a0441925ef946c5202f2", "lon": -77.04524516666666}, {"is_reserved": 0, "fusion_lon": 0.0, "fusion_lat": 0.0, "name": "4cc59fac534b02aa6a6269c267b23777", "type": "electric_scooter", "is_disabled": 0, "lat": 38.905223166666666, "rental_uris": {"android": "https://dc.lft.to/lastmile_qr_scan", "ios": "https://dc.lft.to/lastmile_qr_scan"}, "bike_id": "4cc59fac534b02aa6a6269c267b23777", "lon": -77.0638315}, {"is_reserved": 0, "fusion_lon": 0.0, "fusion_lat": 0.0, "name": "b64a6ba259454eaf0ca40a8fb91b56bb", "type": "electric_scooter", "is_disabled": 0, "lat": 38.96111166666667, "rental_uris": {"android": "https://dc.lft.to/lastmile_qr_scan", "ios": "https://dc.lft.to/lastmile_qr_scan"}, "bike_id": "b64a6ba259454eaf0ca40a8fb91b56bb", "lon": -77.00945916666667}, {"is_reserved": 0, "fusion_lon": 0.0, "fusion_lat": 0.0, "name": "c149198bf53dadd0c4ce600d5581f74c", "type": "electric_scooter", "is_disabled": 0, "lat": 38.9036785, "rental_uris": {"android": "https://dc.lft.to/lastmile_qr_scan", "ios": "https://dc.lft.to/lastmile_qr_scan"}, "bike_id": "c149198bf53dadd0c4ce600d5581f74c", "lon": -77.04008}, {"is_reserved": 0, "fusion_lon": 0.0, "fusion_lat": 0.0, "name": "b5daddc14927742508dcc79399e7af94", "type": "electric_scooter", "is_disabled": 0, "lat": 38.910504, "rental_uris": {"android": "https://dc.lft.to/lastmile_qr_scan", "ios": "https://dc.lft.to/lastmile_qr_scan"}, "bike_id": "b5daddc14927742508dcc79399e7af94", "lon": -77.02190216666666}, {"is_reserved": 0, "fusion_lon": 0.0, "fusion_lat": 0.0, "name": "6022617f782389d05568a3bf0be05c70", "type": "electric_scooter", "is_disabled": 0, "lat": 38.900737166666666, "rental_uris": {"android": "https://dc.lft.to/lastmile_qr_scan", "ios": "https://dc.lft.to/lastmile_qr_scan"}, "bike_id": "6022617f782389d05568a3bf0be05c70", "lon": -77.05072333333334}, {"is_reserved": 0, "fusion_lon": 0.0, "fusion_lat": 0.0, "name": "72948755c1b770cbb97c648ac831da4e", "type": "electric_scooter", "is_disabled": 0, "lat": 38.916912833333335, "rental_uris": {"android": "https://dc.lft.to/lastmile_qr_scan", "ios": "https://dc.lft.to/lastmile_qr_scan"}, "bike_id": "72948755c1b770cbb97c648ac831da4e", "lon": -77.02597316666666}, {"is_reserved": 0, "fusion_lon": 0.0, "fusion_lat": 0.0, "name": "ed7899e007d322309066359cdd2aab49", "type": "electric_scooter", "is_disabled": 0, "lat": 38.90690583333333, "rental_uris": {"android": "https://dc.lft.to/lastmile_qr_scan", "ios": "https://dc.lft.to/lastmile_qr_scan"}, "bike_id": "ed7899e007d322309066359cdd2aab49", "lon": -77.04340833333333}, {"is_reserved": 0, "fusion_lon": 0.0, "fusion_lat": 0.0, "name": "fe00301b5e15302b2fc90df9e2b8c535", "type": "electric_scooter", "is_disabled": 0, "lat": 38.92326533333333, "rental_uris": {"android": "https://dc.lft.to/lastmile_qr_scan", "ios": "https://dc.lft.to/lastmile_qr_scan"}, "bike_id": "fe00301b5e15302b2fc90df9e2b8c535", "lon": -76.99906033333333}, {"is_reserved": 0, "fusion_lon": 0.0, "fusion_lat": 0.0, "name": "f2f8f00c0ab42785b68fb2df9dea268b", "type": "electric_scooter", "is_disabled": 0, "lat": 38.90811133333333, "rental_uris": {"android": "https://dc.lft.to/lastmile_qr_scan", "ios": "https://dc.lft.to/lastmile_qr_scan"}, "bike_id": "f2f8f00c0ab42785b68fb2df9dea268b", "lon": -77.0394155}, {"is_reserved": 0, "fusion_lon": 0.0, "fusion_lat": 0.0, "name": "4bbd57d63714dc6e7f59bac48ec4d22b", "type": "electric_scooter", "is_disabled": 0, "lat": 38.91915933333333, "rental_uris": {"android": "https://dc.lft.to/lastmile_qr_scan", "ios": "https://dc.lft.to/lastmile_qr_scan"}, "bike_id": "4bbd57d63714dc6e7f59bac48ec4d22b", "lon": -77.0481345}, {"is_reserved": 0, "fusion_lon": 0.0, "fusion_lat": 0.0, "name": "6f117ef060389738b6e77a53b77a2e3f", "type": "electric_scooter", "is_disabled": 0, "lat": 38.880229666666665, "rental_uris": {"android": "https://dc.lft.to/lastmile_qr_scan", "ios": "https://dc.lft.to/lastmile_qr_scan"}, "bike_id": "6f117ef060389738b6e77a53b77a2e3f", "lon": -76.98490366666667}, {"is_reserved": 0, "fusion_lon": 0.0, "fusion_lat": 0.0, "name": "addea45db7e203aa622a1896d909bfbd", "type": "electric_scooter", "is_disabled": 0, "lat": 38.88059833333333, "rental_uris": {"android": "https://dc.lft.to/lastmile_qr_scan", "ios": "https://dc.lft.to/lastmile_qr_scan"}, "bike_id": "addea45db7e203aa622a1896d909bfbd", "lon": -77.00591083333333}, {"is_reserved": 0, "fusion_lon": 0.0, "fusion_lat": 0.0, "name": "dfb0595e1d95020f0237dc0d2bbc36c0", "type": "electric_bike", "is_disabled": 0, "lat": 38.88244, "rental_uris": {"android": "https://dc.lft.to/lastmile_qr_scan", "ios": "https://dc.lft.to/lastmile_qr_scan"}, "bike_id": "dfb0595e1d95020f0237dc0d2bbc36c0", "lon": -76.96252183333333}, {"is_reserved": 0, "fusion_lon": 0.0, "fusion_lat": 0.0, "name": "6f401cc040476c9e2c5279d6d7447509", "type": "electric_scooter", "is_disabled": 0, "lat": 38.91436733333333, "rental_uris": {"android": "https://dc.lft.to/lastmile_qr_scan", "ios": "https://dc.lft.to/lastmile_qr_scan"}, "bike_id": "6f401cc040476c9e2c5279d6d7447509", "lon": -77.02037516666667}, {"is_reserved": 0, "fusion_lon": 0.0, "fusion_lat": 0.0, "name": "30ea2ec5ed9d50e488f0711925945653", "type": "electric_scooter", "is_disabled": 0, "lat": 38.87645416666667, "rental_uris": {"android": "https://dc.lft.to/lastmile_qr_scan", "ios": "https://dc.lft.to/lastmile_qr_scan"}, "bike_id": "30ea2ec5ed9d50e488f0711925945653", "lon": -76.96504566666667}, {"is_reserved": 0, "fusion_lon": 0.0, "fusion_lat": 0.0, "name": "11befd48a5fe44b9bb1262cc477e00a8", "type": "electric_scooter", "is_disabled": 0, "lat": 38.869775833333335, "rental_uris": {"android": "https://dc.lft.to/lastmile_qr_scan", "ios": "https://dc.lft.to/lastmile_qr_scan"}, "bike_id": "11befd48a5fe44b9bb1262cc477e00a8", "lon": -77.0122175}, {"is_reserved": 0, "fusion_lon": 0.0, "fusion_lat": 0.0, "name": "03216bb6dfba9d3df3a5fbe982722b29", "type": "electric_scooter", "is_disabled": 0, "lat": 38.91947483333333, "rental_uris": {"android": "https://dc.lft.to/lastmile_qr_scan", "ios": "https://dc.lft.to/lastmile_qr_scan"}, "bike_id": "03216bb6dfba9d3df3a5fbe982722b29", "lon": -77.02887333333334}, {"is_reserved": 0, "fusion_lon": 0.0, "fusion_lat": 0.0, "name": "aa17b5783ccbbf91830bab7928699d93", "type": "electric_bike", "is_disabled": 0, "lat": 38.95504433333333, "rental_uris": {"android": "https://dc.lft.to/lastmile_qr_scan", "ios": "https://dc.lft.to/lastmile_qr_scan"}, "bike_id": "aa17b5783ccbbf91830bab7928699d93", "lon": -76.99352816666666}, {"is_reserved": 0, "fusion_lon": 0.0, "fusion_lat": 0.0, "name": "e304a5f5160c198689ddc6bed3df16b5", "type": "electric_scooter", "is_disabled": 0, "lat": 38.942038333333336, "rental_uris": {"android": "https://dc.lft.to/lastmile_qr_scan", "ios": "https://dc.lft.to/lastmile_qr_scan"}, "bike_id": "e304a5f5160c198689ddc6bed3df16b5", "lon": -77.02511516666667}, {"is_reserved": 0, "fusion_lon": 0.0, "fusion_lat": 0.0, "name": "2b42a97f1a1132e2f27e2b109ef08507", "type": "electric_bike", "is_disabled": 0, "lat": 38.93236016666667, "rental_uris": {"android": "https://dc.lft.to/lastmile_qr_scan", "ios": "https://dc.lft.to/lastmile_qr_scan"}, "bike_id": "2b42a97f1a1132e2f27e2b109ef08507", "lon": -76.9742285}, {"is_reserved": 0, "fusion_lon": 0.0, "fusion_lat": 0.0, "name": "fd92152fce6fd0ca310530de2c343ca3", "type": "electric_scooter", "is_disabled": 0, "lat": 38.913492833333336, "rental_uris": {"android": "https://dc.lft.to/lastmile_qr_scan", "ios": "https://dc.lft.to/lastmile_qr_scan"}, "bike_id": "fd92152fce6fd0ca310530de2c343ca3", "lon": -77.02055016666667}, {"is_reserved": 0, "fusion_lon": 0.0, "fusion_lat": 0.0, "name": "9dd15f8bf9ae596b26ab28316651762b", "type": "electric_scooter", "is_disabled": 0, "lat": 38.929334, "rental_uris": {"android": "https://dc.lft.to/lastmile_qr_scan", "ios": "https://dc.lft.to/lastmile_qr_scan"}, "bike_id": "9dd15f8bf9ae596b26ab28316651762b", "lon": -77.03656083333334}, {"is_reserved": 0, "fusion_lon": 0.0, "fusion_lat": 0.0, "name": "1c394836e303265c0c64ae91c3d931c2", "type": "electric_scooter", "is_disabled": 0, "lat": 38.89222183333333, "rental_uris": {"android": "https://dc.lft.to/lastmile_qr_scan", "ios": "https://dc.lft.to/lastmile_qr_scan"}, "bike_id": "1c394836e303265c0c64ae91c3d931c2", "lon": -77.043074}, {"is_reserved": 0, "fusion_lon": 0.0, "fusion_lat": 0.0, "name": "49c6241a20596f888a039cc1c2119f9b", "type": "electric_scooter", "is_disabled": 0, "lat": 38.9326235, "rental_uris": {"android": "https://dc.lft.to/lastmile_qr_scan", "ios": "https://dc.lft.to/lastmile_qr_scan"}, "bike_id": "49c6241a20596f888a039cc1c2119f9b", "lon": -77.020979}, {"is_reserved": 0, "fusion_lon": 0.0, "fusion_lat": 0.0, "name": "783af95ff8c1d929a8c2a048372a4642", "type": "electric_scooter", "is_disabled": 0, "lat": 38.931008166666665, "rental_uris": {"android": "https://dc.lft.to/lastmile_qr_scan", "ios": "https://dc.lft.to/lastmile_qr_scan"}, "bike_id": "783af95ff8c1d929a8c2a048372a4642", "lon": -77.02798033333333}, {"is_reserved": 0, "fusion_lon": 0.0, "fusion_lat": 0.0, "name": "ca969543febdcadd7cce9de17cc41c2d", "type": "electric_scooter", "is_disabled": 0, "lat": 38.958359, "rental_uris": {"android": "https://dc.lft.to/lastmile_qr_scan", "ios": "https://dc.lft.to/lastmile_qr_scan"}, "bike_id": "ca969543febdcadd7cce9de17cc41c2d", "lon": -77.015114}, {"is_reserved": 0, "fusion_lon": 0.0, "fusion_lat": 0.0, "name": "89c16896fe04ae1c274ec79d73a184ca", "type": "electric_bike", "is_disabled": 0, "lat": 39.0423265, "rental_uris": {"android": "https://dc.lft.to/lastmile_qr_scan", "ios": "https://dc.lft.to/lastmile_qr_scan"}, "bike_id": "89c16896fe04ae1c274ec79d73a184ca", "lon": -77.03079666666666}, {"is_reserved": 0, "fusion_lon": 0.0, "fusion_lat": 0.0, "name": "e15b7a6002b1e67e69aa9a3f38b4cf0c", "type": "electric_scooter", "is_disabled": 0, "lat": 38.908251, "rental_uris": {"android": "https://dc.lft.to/lastmile_qr_scan", "ios": "https://dc.lft.to/lastmile_qr_scan"}, "bike_id": "e15b7a6002b1e67e69aa9a3f38b4cf0c", "lon": -77.03546783333333}, {"is_reserved": 0, "fusion_lon": 0.0, "fusion_lat": 0.0, "name": "cf5c90d6e004434a04b765a94922d2b3", "type": "electric_scooter", "is_disabled": 0, "lat": 38.90308483333333, "rental_uris": {"android": "https://dc.lft.to/lastmile_qr_scan", "ios": "https://dc.lft.to/lastmile_qr_scan"}, "bike_id": "cf5c90d6e004434a04b765a94922d2b3", "lon": -77.0346875}, {"is_reserved": 0, "fusion_lon": 0.0, "fusion_lat": 0.0, "name": "44664d886d085bb3af3efe619fdfe869", "type": "electric_scooter", "is_disabled": 0, "lat": 38.93703333333333, "rental_uris": {"android": "https://dc.lft.to/lastmile_qr_scan", "ios": "https://dc.lft.to/lastmile_qr_scan"}, "bike_id": "44664d886d085bb3af3efe619fdfe869", "lon": -77.0240805}, {"is_reserved": 0, "fusion_lon": 0.0, "fusion_lat": 0.0, "name": "105e2e2de74b74fe966ad87672095eba", "type": "electric_scooter", "is_disabled": 0, "lat": 38.900817, "rental_uris": {"android": "https://dc.lft.to/lastmile_qr_scan", "ios": "https://dc.lft.to/lastmile_qr_scan"}, "bike_id": "105e2e2de74b74fe966ad87672095eba", "lon": -76.993653}, {"is_reserved": 0, "fusion_lon": 0.0, "fusion_lat": 0.0, "name": "98c9f732dee8d4f1c13d30396be84f97", "type": "electric_scooter", "is_disabled": 0, "lat": 38.8919445, "rental_uris": {"android": "https://dc.lft.to/lastmile_qr_scan", "ios": "https://dc.lft.to/lastmile_qr_scan"}, "bike_id": "98c9f732dee8d4f1c13d30396be84f97", "lon": -77.00294633333333}, {"is_reserved": 0, "fusion_lon": 0.0, "fusion_lat": 0.0, "name": "3f273ac9b9a2913f94b900f784b45c9a", "type": "electric_scooter", "is_disabled": 0, "lat": 38.9306135, "rental_uris": {"android": "https://dc.lft.to/lastmile_qr_scan", "ios": "https://dc.lft.to/lastmile_qr_scan"}, "bike_id": "3f273ac9b9a2913f94b900f784b45c9a", "lon": -77.03814666666666}, {"is_reserved": 0, "fusion_lon": 0.0, "fusion_lat": 0.0, "name": "57d2749ddb9c8b86b56db5edd834c34e", "type": "electric_scooter", "is_disabled": 0, "lat": 38.9206455, "rental_uris": {"android": "https://dc.lft.to/lastmile_qr_scan", "ios": "https://dc.lft.to/lastmile_qr_scan"}, "bike_id": "57d2749ddb9c8b86b56db5edd834c34e", "lon": -77.0224675}, {"is_reserved": 0, "fusion_lon": 0.0, "fusion_lat": 0.0, "name": "e016e46d797f4b5f059c014cf15198b4", "type": "electric_scooter", "is_disabled": 0, "lat": 38.88558316666666, "rental_uris": {"android": "https://dc.lft.to/lastmile_qr_scan", "ios": "https://dc.lft.to/lastmile_qr_scan"}, "bike_id": "e016e46d797f4b5f059c014cf15198b4", "lon": -77.019923}, {"is_reserved": 0, "fusion_lon": 0.0, "fusion_lat": 0.0, "name": "fd6aeac1b503627ed363a9dea6c50e0a", "type": "electric_scooter", "is_disabled": 0, "lat": 38.921574666666665, "rental_uris": {"android": "https://dc.lft.to/lastmile_qr_scan", "ios": "https://dc.lft.to/lastmile_qr_scan"}, "bike_id": "fd6aeac1b503627ed363a9dea6c50e0a", "lon": -77.03380166666666}, {"is_reserved": 0, "fusion_lon": 0.0, "fusion_lat": 0.0, "name": "9778d08807a9f5ad031056c47964add4", "type": "electric_scooter", "is_disabled": 0, "lat": 38.9003015, "rental_uris": {"android": "https://dc.lft.to/lastmile_qr_scan", "ios": "https://dc.lft.to/lastmile_qr_scan"}, "bike_id": "9778d08807a9f5ad031056c47964add4", "lon": -77.04348766666666}, {"is_reserved": 0, "fusion_lon": 0.0, "fusion_lat": 0.0, "name": "ce967f101f8e3ce3b6b21ad754d34433", "type": "electric_scooter", "is_disabled": 0, "lat": 38.91699233333333, "rental_uris": {"android": "https://dc.lft.to/lastmile_qr_scan", "ios": "https://dc.lft.to/lastmile_qr_scan"}, "bike_id": "ce967f101f8e3ce3b6b21ad754d34433", "lon": -77.0116575}, {"is_reserved": 0, "fusion_lon": 0.0, "fusion_lat": 0.0, "name": "90618b0e5d6fd20b97846469d5871d7c", "type": "electric_scooter", "is_disabled": 0, "lat": 38.88745466666667, "rental_uris": {"android": "https://dc.lft.to/lastmile_qr_scan", "ios": "https://dc.lft.to/lastmile_qr_scan"}, "bike_id": "90618b0e5d6fd20b97846469d5871d7c", "lon": -77.02734083333333}, {"is_reserved": 0, "fusion_lon": 0.0, "fusion_lat": 0.0, "name": "c1fc1fa6d1d7f1bfb40444f86b6fb1ba", "type": "electric_bike", "is_disabled": 0, "lat": 38.865141, "rental_uris": {"android": "https://dc.lft.to/lastmile_qr_scan", "ios": "https://dc.lft.to/lastmile_qr_scan"}, "bike_id": "c1fc1fa6d1d7f1bfb40444f86b6fb1ba", "lon": -76.97334233333333}, {"is_reserved": 0, "fusion_lon": 0.0, "fusion_lat": 0.0, "name": "3586e27ed111f57d599b370fcc7a3568", "type": "electric_scooter", "is_disabled": 0, "lat": 38.9098685, "rental_uris": {"android": "https://dc.lft.to/lastmile_qr_scan", "ios": "https://dc.lft.to/lastmile_qr_scan"}, "bike_id": "3586e27ed111f57d599b370fcc7a3568", "lon": -77.042585}, {"is_reserved": 0, "fusion_lon": 0.0, "fusion_lat": 0.0, "name": "313b9dd04090234dcd9fd11de87a0936", "type": "electric_scooter", "is_disabled": 0, "lat": 38.926622333333334, "rental_uris": {"android": "https://dc.lft.to/lastmile_qr_scan", "ios": "https://dc.lft.to/lastmile_qr_scan"}, "bike_id": "313b9dd04090234dcd9fd11de87a0936", "lon": -76.995363}, {"is_reserved": 0, "fusion_lon": 0.0, "fusion_lat": 0.0, "name": "6741c67ddbafa0d5fb167592dca62cab", "type": "electric_scooter", "is_disabled": 0, "lat": 38.90967083333334, "rental_uris": {"android": "https://dc.lft.to/lastmile_qr_scan", "ios": "https://dc.lft.to/lastmile_qr_scan"}, "bike_id": "6741c67ddbafa0d5fb167592dca62cab", "lon": -77.04008983333334}, {"is_reserved": 0, "fusion_lon": 0.0, "fusion_lat": 0.0, "name": "b6ce0814038064113999a6d037463bd4", "type": "electric_scooter", "is_disabled": 0, "lat": 38.9420185, "rental_uris": {"android": "https://dc.lft.to/lastmile_qr_scan", "ios": "https://dc.lft.to/lastmile_qr_scan"}, "bike_id": "b6ce0814038064113999a6d037463bd4", "lon": -77.02502766666667}, {"is_reserved": 0, "fusion_lon": 0.0, "fusion_lat": 0.0, "name": "6b279f25f221b2528a21619df2b886af", "type": "electric_scooter", "is_disabled": 0, "lat": 38.900270666666664, "rental_uris": {"android": "https://dc.lft.to/lastmile_qr_scan", "ios": "https://dc.lft.to/lastmile_qr_scan"}, "bike_id": "6b279f25f221b2528a21619df2b886af", "lon": -77.01175266666667}, {"is_reserved": 0, "fusion_lon": 0.0, "fusion_lat": 0.0, "name": "4d2f7a8f5bfc34cbba78963cea486a6a", "type": "electric_scooter", "is_disabled": 0, "lat": 38.90031, "rental_uris": {"android": "https://dc.lft.to/lastmile_qr_scan", "ios": "https://dc.lft.to/lastmile_qr_scan"}, "bike_id": "4d2f7a8f5bfc34cbba78963cea486a6a", "lon": -77.01186416666667}, {"is_reserved": 0, "fusion_lon": 0.0, "fusion_lat": 0.0, "name": "261650886ffb59593fca2025b3bb63bc", "type": "electric_scooter", "is_disabled": 0, "lat": 38.916912333333336, "rental_uris": {"android": "https://dc.lft.to/lastmile_qr_scan", "ios": "https://dc.lft.to/lastmile_qr_scan"}, "bike_id": "261650886ffb59593fca2025b3bb63bc", "lon": -77.0311875}, {"is_reserved": 0, "fusion_lon": 0.0, "fusion_lat": 0.0, "name": "3620c4f53b40395ea04c1e2107ac3a7e", "type": "electric_scooter", "is_disabled": 0, "lat": 38.91255233333333, "rental_uris": {"android": "https://dc.lft.to/lastmile_qr_scan", "ios": "https://dc.lft.to/lastmile_qr_scan"}, "bike_id": "3620c4f53b40395ea04c1e2107ac3a7e", "lon": -77.031235}, {"is_reserved": 0, "fusion_lon": 0.0, "fusion_lat": 0.0, "name": "4ee2cca15d2eaf0594e71cb37c2587c1", "type": "electric_scooter", "is_disabled": 0, "lat": 38.93054816666667, "rental_uris": {"android": "https://dc.lft.to/lastmile_qr_scan", "ios": "https://dc.lft.to/lastmile_qr_scan"}, "bike_id": "4ee2cca15d2eaf0594e71cb37c2587c1", "lon": -77.03275116666667}, {"is_reserved": 0, "fusion_lon": 0.0, "fusion_lat": 0.0, "name": "841fbd91f1509e59da8d2e93abb70824", "type": "electric_scooter", "is_disabled": 0, "lat": 38.917704666666666, "rental_uris": {"android": "https://dc.lft.to/lastmile_qr_scan", "ios": "https://dc.lft.to/lastmile_qr_scan"}, "bike_id": "841fbd91f1509e59da8d2e93abb70824", "lon": -77.04767183333334}, {"is_reserved": 0, "fusion_lon": 0.0, "fusion_lat": 0.0, "name": "3272cf8d555236d006d6a2808a5e2e3b", "type": "electric_scooter", "is_disabled": 0, "lat": 38.90968616666667, "rental_uris": {"android": "https://dc.lft.to/lastmile_qr_scan", "ios": "https://dc.lft.to/lastmile_qr_scan"}, "bike_id": "3272cf8d555236d006d6a2808a5e2e3b", "lon": -77.04517366666667}, {"is_reserved": 0, "fusion_lon": 0.0, "fusion_lat": 0.0, "name": "98cf50ef26b8e1e605a68d53337b908d", "type": "electric_scooter", "is_disabled": 0, "lat": 38.90060416666667, "rental_uris": {"android": "https://dc.lft.to/lastmile_qr_scan", "ios": "https://dc.lft.to/lastmile_qr_scan"}, "bike_id": "98cf50ef26b8e1e605a68d53337b908d", "lon": -77.01769616666667}, {"is_reserved": 0, "fusion_lon": 0.0, "fusion_lat": 0.0, "name": "b84e6543716ec5e19a23f3a443a8e538", "type": "electric_scooter", "is_disabled": 0, "lat": 38.863846, "rental_uris": {"android": "https://dc.lft.to/lastmile_qr_scan", "ios": "https://dc.lft.to/lastmile_qr_scan"}, "bike_id": "b84e6543716ec5e19a23f3a443a8e538", "lon": -76.9890315}, {"is_reserved": 0, "fusion_lon": 0.0, "fusion_lat": 0.0, "name": "3db373db66960f008d4550ad0d4010f6", "type": "electric_bike", "is_disabled": 0, "lat": 38.865819, "rental_uris": {"android": "https://dc.lft.to/lastmile_qr_scan", "ios": "https://dc.lft.to/lastmile_qr_scan"}, "bike_id": "3db373db66960f008d4550ad0d4010f6", "lon": -77.04761133333334}, {"is_reserved": 0, "fusion_lon": 0.0, "fusion_lat": 0.0, "name": "17463d2bff84321b3c0eb9781fcd1e16", "type": "electric_scooter", "is_disabled": 0, "lat": 38.93532166666667, "rental_uris": {"android": "https://dc.lft.to/lastmile_qr_scan", "ios": "https://dc.lft.to/lastmile_qr_scan"}, "bike_id": "17463d2bff84321b3c0eb9781fcd1e16", "lon": -77.02350866666667}, {"is_reserved": 0, "fusion_lon": 0.0, "fusion_lat": 0.0, "name": "e07fbc5502bd9ff0810593b21b1cac42", "type": "electric_scooter", "is_disabled": 0, "lat": 38.911161, "rental_uris": {"android": "https://dc.lft.to/lastmile_qr_scan", "ios": "https://dc.lft.to/lastmile_qr_scan"}, "bike_id": "e07fbc5502bd9ff0810593b21b1cac42", "lon": -77.02382383333334}, {"is_reserved": 0, "fusion_lon": 0.0, "fusion_lat": 0.0, "name": "8dcf2e954a8d130e8ebdfb04c7438918", "type": "electric_scooter", "is_disabled": 0, "lat": 38.90919983333333, "rental_uris": {"android": "https://dc.lft.to/lastmile_qr_scan", "ios": "https://dc.lft.to/lastmile_qr_scan"}, "bike_id": "8dcf2e954a8d130e8ebdfb04c7438918", "lon": -77.0727135}, {"is_reserved": 0, "fusion_lon": 0.0, "fusion_lat": 0.0, "name": "4e70c132420ed71b5f86b6b1be065d1a", "type": "electric_scooter", "is_disabled": 0, "lat": 38.9199245, "rental_uris": {"android": "https://dc.lft.to/lastmile_qr_scan", "ios": "https://dc.lft.to/lastmile_qr_scan"}, "bike_id": "4e70c132420ed71b5f86b6b1be065d1a", "lon": -77.02150566666667}, {"is_reserved": 0, "fusion_lon": 0.0, "fusion_lat": 0.0, "name": "25a1b066724c60f749cf552a59e499fd", "type": "electric_scooter", "is_disabled": 0, "lat": 38.9286835, "rental_uris": {"android": "https://dc.lft.to/lastmile_qr_scan", "ios": "https://dc.lft.to/lastmile_qr_scan"}, "bike_id": "25a1b066724c60f749cf552a59e499fd", "lon": -77.0332085}, {"is_reserved": 0, "fusion_lon": 0.0, "fusion_lat": 0.0, "name": "6c21e2ddfe48973790f180b547c81a23", "type": "electric_scooter", "is_disabled": 0, "lat": 38.928507833333335, "rental_uris": {"android": "https://dc.lft.to/lastmile_qr_scan", "ios": "https://dc.lft.to/lastmile_qr_scan"}, "bike_id": "6c21e2ddfe48973790f180b547c81a23", "lon": -77.027338}, {"is_reserved": 0, "fusion_lon": 0.0, "fusion_lat": 0.0, "name": "9ce510e2500733bbab11f61429356d91", "type": "electric_scooter", "is_disabled": 0, "lat": 38.893102999999996, "rental_uris": {"android": "https://dc.lft.to/lastmile_qr_scan", "ios": "https://dc.lft.to/lastmile_qr_scan"}, "bike_id": "9ce510e2500733bbab11f61429356d91", "lon": -76.93970633333333}, {"is_reserved": 0, "fusion_lon": 0.0, "fusion_lat": 0.0, "name": "a37ee4d7c44dfa83a8d17e897f74b0e9", "type": "electric_scooter", "is_disabled": 0, "lat": 38.9013815, "rental_uris": {"android": "https://dc.lft.to/lastmile_qr_scan", "ios": "https://dc.lft.to/lastmile_qr_scan"}, "bike_id": "a37ee4d7c44dfa83a8d17e897f74b0e9", "lon": -77.01309766666667}, {"is_reserved": 0, "fusion_lon": 0.0, "fusion_lat": 0.0, "name": "b19cbe9b329d1e162cf9d3689306414d", "type": "electric_scooter", "is_disabled": 0, "lat": 38.926604, "rental_uris": {"android": "https://dc.lft.to/lastmile_qr_scan", "ios": "https://dc.lft.to/lastmile_qr_scan"}, "bike_id": "b19cbe9b329d1e162cf9d3689306414d", "lon": -77.03729183333333}, {"is_reserved": 0, "fusion_lon": 0.0, "fusion_lat": 0.0, "name": "c073c1a5721f946bc10996a6182c7aa9", "type": "electric_bike", "is_disabled": 0, "lat": 38.9012985, "rental_uris": {"android": "https://dc.lft.to/lastmile_qr_scan", "ios": "https://dc.lft.to/lastmile_qr_scan"}, "bike_id": "c073c1a5721f946bc10996a6182c7aa9", "lon": -77.01767316666667}, {"is_reserved": 0, "fusion_lon": 0.0, "fusion_lat": 0.0, "name": "a7410d2b9f4b834a802c63999ba92a7b", "type": "electric_scooter", "is_disabled": 0, "lat": 38.89713533333333, "rental_uris": {"android": "https://dc.lft.to/lastmile_qr_scan", "ios": "https://dc.lft.to/lastmile_qr_scan"}, "bike_id": "a7410d2b9f4b834a802c63999ba92a7b", "lon": -77.03184116666667}, {"is_reserved": 0, "fusion_lon": 0.0, "fusion_lat": 0.0, "name": "4adc95b6953972c0ad07df100deba98b", "type": "electric_scooter", "is_disabled": 0, "lat": 38.909562666666666, "rental_uris": {"android": "https://dc.lft.to/lastmile_qr_scan", "ios": "https://dc.lft.to/lastmile_qr_scan"}, "bike_id": "4adc95b6953972c0ad07df100deba98b", "lon": -77.02199166666666}, {"is_reserved": 0, "fusion_lon": 0.0, "fusion_lat": 0.0, "name": "1b014b512c0283c95c17f03eaced5048", "type": "electric_scooter", "is_disabled": 0, "lat": 38.922041666666665, "rental_uris": {"android": "https://dc.lft.to/lastmile_qr_scan", "ios": "https://dc.lft.to/lastmile_qr_scan"}, "bike_id": "1b014b512c0283c95c17f03eaced5048", "lon": -77.02959016666667}, {"is_reserved": 0, "fusion_lon": 0.0, "fusion_lat": 0.0, "name": "ad87845c9f9ee599fffb6c845b6fc80b", "type": "electric_scooter", "is_disabled": 0, "lat": 38.95071383333333, "rental_uris": {"android": "https://dc.lft.to/lastmile_qr_scan", "ios": "https://dc.lft.to/lastmile_qr_scan"}, "bike_id": "ad87845c9f9ee599fffb6c845b6fc80b", "lon": -77.06533916666666}, {"is_reserved": 0, "fusion_lon": 0.0, "fusion_lat": 0.0, "name": "b79f72bb90890fe7bbb7c0e2a70446e5", "type": "electric_scooter", "is_disabled": 0, "lat": 38.850620666666664, "rental_uris": {"android": "https://dc.lft.to/lastmile_qr_scan", "ios": "https://dc.lft.to/lastmile_qr_scan"}, "bike_id": "b79f72bb90890fe7bbb7c0e2a70446e5", "lon": -76.97013083333333}, {"is_reserved": 0, "fusion_lon": 0.0, "fusion_lat": 0.0, "name": "e7a6383477e260bb34706bafb26abaf6", "type": "electric_scooter", "is_disabled": 0, "lat": 38.91727566666667, "rental_uris": {"android": "https://dc.lft.to/lastmile_qr_scan", "ios": "https://dc.lft.to/lastmile_qr_scan"}, "bike_id": "e7a6383477e260bb34706bafb26abaf6", "lon": -77.04090716666667}, {"is_reserved": 0, "fusion_lon": 0.0, "fusion_lat": 0.0, "name": "99e4470f74257adcaf55f49064e9a2f9", "type": "electric_scooter", "is_disabled": 0, "lat": 38.89993616666667, "rental_uris": {"android": "https://dc.lft.to/lastmile_qr_scan", "ios": "https://dc.lft.to/lastmile_qr_scan"}, "bike_id": "99e4470f74257adcaf55f49064e9a2f9", "lon": -77.0091705}, {"is_reserved": 0, "fusion_lon": 0.0, "fusion_lat": 0.0, "name": "39bc589b37615e588e7439616b563205", "type": "electric_scooter", "is_disabled": 0, "lat": 38.922526166666664, "rental_uris": {"android": "https://dc.lft.to/lastmile_qr_scan", "ios": "https://dc.lft.to/lastmile_qr_scan"}, "bike_id": "39bc589b37615e588e7439616b563205", "lon": -77.030595}, {"is_reserved": 0, "fusion_lon": 0.0, "fusion_lat": 0.0, "name": "835c218bcaea2411585de46fb2060830", "type": "electric_scooter", "is_disabled": 0, "lat": 38.89224983333333, "rental_uris": {"android": "https://dc.lft.to/lastmile_qr_scan", "ios": "https://dc.lft.to/lastmile_qr_scan"}, "bike_id": "835c218bcaea2411585de46fb2060830", "lon": -77.0029875}, {"is_reserved": 0, "fusion_lon": 0.0, "fusion_lat": 0.0, "name": "0869ea64cd3f51e9a9a1e79606a3d40e", "type": "electric_scooter", "is_disabled": 0, "lat": 38.91551366666667, "rental_uris": {"android": "https://dc.lft.to/lastmile_qr_scan", "ios": "https://dc.lft.to/lastmile_qr_scan"}, "bike_id": "0869ea64cd3f51e9a9a1e79606a3d40e", "lon": -77.02368466666667}, {"is_reserved": 0, "fusion_lon": 0.0, "fusion_lat": 0.0, "name": "30bf5853f94b9d6711e928b07cd6a7ce", "type": "electric_scooter", "is_disabled": 0, "lat": 38.900016, "rental_uris": {"android": "https://dc.lft.to/lastmile_qr_scan", "ios": "https://dc.lft.to/lastmile_qr_scan"}, "bike_id": "30bf5853f94b9d6711e928b07cd6a7ce", "lon": -76.99835233333333}, {"is_reserved": 0, "fusion_lon": 0.0, "fusion_lat": 0.0, "name": "cd2e916b5bf3cbb92587711cccb4cfdb", "type": "electric_scooter", "is_disabled": 0, "lat": 38.90584466666667, "rental_uris": {"android": "https://dc.lft.to/lastmile_qr_scan", "ios": "https://dc.lft.to/lastmile_qr_scan"}, "bike_id": "cd2e916b5bf3cbb92587711cccb4cfdb", "lon": -77.041815}, {"is_reserved": 0, "fusion_lon": 0.0, "fusion_lat": 0.0, "name": "5445003ee0c681f394472f984823ea5a", "type": "electric_scooter", "is_disabled": 0, "lat": 38.87949, "rental_uris": {"android": "https://dc.lft.to/lastmile_qr_scan", "ios": "https://dc.lft.to/lastmile_qr_scan"}, "bike_id": "5445003ee0c681f394472f984823ea5a", "lon": -77.006924}, {"is_reserved": 0, "fusion_lon": 0.0, "fusion_lat": 0.0, "name": "1ea4273c10e9aea4530a0f8fd34bf7b7", "type": "electric_scooter", "is_disabled": 0, "lat": 38.90555466666667, "rental_uris": {"android": "https://dc.lft.to/lastmile_qr_scan", "ios": "https://dc.lft.to/lastmile_qr_scan"}, "bike_id": "1ea4273c10e9aea4530a0f8fd34bf7b7", "lon": -77.005827}, {"is_reserved": 0, "fusion_lon": 0.0, "fusion_lat": 0.0, "name": "97f3c35ed31eadb388a2d59faa11360c", "type": "electric_scooter", "is_disabled": 0, "lat": 38.902508833333336, "rental_uris": {"android": "https://dc.lft.to/lastmile_qr_scan", "ios": "https://dc.lft.to/lastmile_qr_scan"}, "bike_id": "97f3c35ed31eadb388a2d59faa11360c", "lon": -77.0268475}, {"is_reserved": 0, "fusion_lon": 0.0, "fusion_lat": 0.0, "name": "3fe3b2b8875c9e76790a685644de9f1c", "type": "electric_scooter", "is_disabled": 0, "lat": 38.910298166666664, "rental_uris": {"android": "https://dc.lft.to/lastmile_qr_scan", "ios": "https://dc.lft.to/lastmile_qr_scan"}, "bike_id": "3fe3b2b8875c9e76790a685644de9f1c", "lon": -76.99339083333334}, {"is_reserved": 0, "fusion_lon": 0.0, "fusion_lat": 0.0, "name": "38875ca197234962777ef4bb2f74ef25", "type": "electric_scooter", "is_disabled": 0, "lat": 38.90129016666667, "rental_uris": {"android": "https://dc.lft.to/lastmile_qr_scan", "ios": "https://dc.lft.to/lastmile_qr_scan"}, "bike_id": "38875ca197234962777ef4bb2f74ef25", "lon": -77.04005733333334}, {"is_reserved": 0, "fusion_lon": 0.0, "fusion_lat": 0.0, "name": "f14ea13157400fa7bdb0b62fbcbace87", "type": "electric_bike", "is_disabled": 0, "lat": 38.83788083333334, "rental_uris": {"android": "https://dc.lft.to/lastmile_qr_scan", "ios": "https://dc.lft.to/lastmile_qr_scan"}, "bike_id": "f14ea13157400fa7bdb0b62fbcbace87", "lon": -76.9975445}, {"is_reserved": 0, "fusion_lon": 0.0, "fusion_lat": 0.0, "name": "0b8fc60c5bffc11ccce946f3a795bcd4", "type": "electric_scooter", "is_disabled": 0, "lat": 38.894723, "rental_uris": {"android": "https://dc.lft.to/lastmile_qr_scan", "ios": "https://dc.lft.to/lastmile_qr_scan"}, "bike_id": "0b8fc60c5bffc11ccce946f3a795bcd4", "lon": -77.02313766666667}, {"is_reserved": 0, "fusion_lon": 0.0, "fusion_lat": 0.0, "name": "7fe682a52db2d194009c6e411fd6ac25", "type": "electric_scooter", "is_disabled": 0, "lat": 38.866877333333335, "rental_uris": {"android": "https://dc.lft.to/lastmile_qr_scan", "ios": "https://dc.lft.to/lastmile_qr_scan"}, "bike_id": "7fe682a52db2d194009c6e411fd6ac25", "lon": -76.98606816666667}, {"is_reserved": 0, "fusion_lon": 0.0, "fusion_lat": 0.0, "name": "4f9ad84e6cecb7e8e692dba607f3d592", "type": "electric_bike", "is_disabled": 0, "lat": 38.96138783333333, "rental_uris": {"android": "https://dc.lft.to/lastmile_qr_scan", "ios": "https://dc.lft.to/lastmile_qr_scan"}, "bike_id": "4f9ad84e6cecb7e8e692dba607f3d592", "lon": -77.022911}, {"is_reserved": 0, "fusion_lon": 0.0, "fusion_lat": 0.0, "name": "efb32c1eb476acb644b233b0334771f8", "type": "electric_scooter", "is_disabled": 0, "lat": 38.9038645, "rental_uris": {"android": "https://dc.lft.to/lastmile_qr_scan", "ios": "https://dc.lft.to/lastmile_qr_scan"}, "bike_id": "efb32c1eb476acb644b233b0334771f8", "lon": -77.038359}, {"is_reserved": 0, "fusion_lon": 0.0, "fusion_lat": 0.0, "name": "75208372febcc18fdb424158501eb77e", "type": "electric_scooter", "is_disabled": 0, "lat": 38.92446616666667, "rental_uris": {"android": "https://dc.lft.to/lastmile_qr_scan", "ios": "https://dc.lft.to/lastmile_qr_scan"}, "bike_id": "75208372febcc18fdb424158501eb77e", "lon": -77.04118383333333}, {"is_reserved": 0, "fusion_lon": 0.0, "fusion_lat": 0.0, "name": "a6072f8c3355e84cd0e16a1b9bea49fd", "type": "electric_scooter", "is_disabled": 0, "lat": 38.88727516666667, "rental_uris": {"android": "https://dc.lft.to/lastmile_qr_scan", "ios": "https://dc.lft.to/lastmile_qr_scan"}, "bike_id": "a6072f8c3355e84cd0e16a1b9bea49fd", "lon": -77.028223}, {"is_reserved": 0, "fusion_lon": 0.0, "fusion_lat": 0.0, "name": "aee0863171fafb008e5678ea72b58022", "type": "electric_scooter", "is_disabled": 0, "lat": 38.895581666666665, "rental_uris": {"android": "https://dc.lft.to/lastmile_qr_scan", "ios": "https://dc.lft.to/lastmile_qr_scan"}, "bike_id": "aee0863171fafb008e5678ea72b58022", "lon": -77.0467655}, {"is_reserved": 0, "fusion_lon": 0.0, "fusion_lat": 0.0, "name": "99601324c7fba15106f04a33ba096f62", "type": "electric_bike", "is_disabled": 0, "lat": 38.91014166666667, "rental_uris": {"android": "https://dc.lft.to/lastmile_qr_scan", "ios": "https://dc.lft.to/lastmile_qr_scan"}, "bike_id": "99601324c7fba15106f04a33ba096f62", "lon": -77.22796183333334}, {"is_reserved": 0, "fusion_lon": 0.0, "fusion_lat": 0.0, "name": "a263bfb2a1486abee14cd70e8b45e27a", "type": "electric_scooter", "is_disabled": 0, "lat": 38.90087166666667, "rental_uris": {"android": "https://dc.lft.to/lastmile_qr_scan", "ios": "https://dc.lft.to/lastmile_qr_scan"}, "bike_id": "a263bfb2a1486abee14cd70e8b45e27a", "lon": -77.01180166666667}, {"is_reserved": 0, "fusion_lon": 0.0, "fusion_lat": 0.0, "name": "7209107d738acb2c5edc4b3f69d3feb3", "type": "electric_scooter", "is_disabled": 0, "lat": 38.907917166666664, "rental_uris": {"android": "https://dc.lft.to/lastmile_qr_scan", "ios": "https://dc.lft.to/lastmile_qr_scan"}, "bike_id": "7209107d738acb2c5edc4b3f69d3feb3", "lon": -77.03867233333334}, {"is_reserved": 0, "fusion_lon": 0.0, "fusion_lat": 0.0, "name": "92114b96c9d99e61d473ab9bb0f209e8", "type": "electric_bike", "is_disabled": 0, "lat": 38.88057766666667, "rental_uris": {"android": "https://dc.lft.to/lastmile_qr_scan", "ios": "https://dc.lft.to/lastmile_qr_scan"}, "bike_id": "92114b96c9d99e61d473ab9bb0f209e8", "lon": -76.96236666666667}, {"is_reserved": 0, "fusion_lon": 0.0, "fusion_lat": 0.0, "name": "76d1e1fb82bfd50bb2fe41b9e423ab08", "type": "electric_scooter", "is_disabled": 0, "lat": 38.9353295, "rental_uris": {"android": "https://dc.lft.to/lastmile_qr_scan", "ios": "https://dc.lft.to/lastmile_qr_scan"}, "bike_id": "76d1e1fb82bfd50bb2fe41b9e423ab08", "lon": -77.0234405}, {"is_reserved": 0, "fusion_lon": 0.0, "fusion_lat": 0.0, "name": "fa57483e892c2a5ded8d25a717d29071", "type": "electric_scooter", "is_disabled": 0, "lat": 38.918514333333334, "rental_uris": {"android": "https://dc.lft.to/lastmile_qr_scan", "ios": "https://dc.lft.to/lastmile_qr_scan"}, "bike_id": "fa57483e892c2a5ded8d25a717d29071", "lon": -77.0166755}, {"is_reserved": 0, "fusion_lon": 0.0, "fusion_lat": 0.0, "name": "c1308a7a17fa3212bdea03ddca1f4801", "type": "electric_scooter", "is_disabled": 0, "lat": 38.90723033333333, "rental_uris": {"android": "https://dc.lft.to/lastmile_qr_scan", "ios": "https://dc.lft.to/lastmile_qr_scan"}, "bike_id": "c1308a7a17fa3212bdea03ddca1f4801", "lon": -77.01133616666667}, {"is_reserved": 0, "fusion_lon": 0.0, "fusion_lat": 0.0, "name": "a6959304aed06a11d815d662be7f30f7", "type": "electric_scooter", "is_disabled": 0, "lat": 38.92311083333333, "rental_uris": {"android": "https://dc.lft.to/lastmile_qr_scan", "ios": "https://dc.lft.to/lastmile_qr_scan"}, "bike_id": "a6959304aed06a11d815d662be7f30f7", "lon": -77.02756516666666}, {"is_reserved": 0, "fusion_lon": 0.0, "fusion_lat": 0.0, "name": "ef5178a5d76d04ea0a5cb21dca609440", "type": "electric_scooter", "is_disabled": 0, "lat": 38.86537933333334, "rental_uris": {"android": "https://dc.lft.to/lastmile_qr_scan", "ios": "https://dc.lft.to/lastmile_qr_scan"}, "bike_id": "ef5178a5d76d04ea0a5cb21dca609440", "lon": -76.98704816666667}, {"is_reserved": 0, "fusion_lon": 0.0, "fusion_lat": 0.0, "name": "515ba1823e28f8ee0d7920b6a31ee334", "type": "electric_scooter", "is_disabled": 0, "lat": 38.9155145, "rental_uris": {"android": "https://dc.lft.to/lastmile_qr_scan", "ios": "https://dc.lft.to/lastmile_qr_scan"}, "bike_id": "515ba1823e28f8ee0d7920b6a31ee334", "lon": -77.03165666666666}, {"is_reserved": 0, "fusion_lon": 0.0, "fusion_lat": 0.0, "name": "d83534eae27c3ac2ba167b3e6c513325", "type": "electric_scooter", "is_disabled": 0, "lat": 38.942065166666666, "rental_uris": {"android": "https://dc.lft.to/lastmile_qr_scan", "ios": "https://dc.lft.to/lastmile_qr_scan"}, "bike_id": "d83534eae27c3ac2ba167b3e6c513325", "lon": -77.02515816666667}, {"is_reserved": 0, "fusion_lon": 0.0, "fusion_lat": 0.0, "name": "02184b208fdcc1fbaaa798fb5f2a94d7", "type": "electric_bike", "is_disabled": 0, "lat": 38.8727895, "rental_uris": {"android": "https://dc.lft.to/lastmile_qr_scan", "ios": "https://dc.lft.to/lastmile_qr_scan"}, "bike_id": "02184b208fdcc1fbaaa798fb5f2a94d7", "lon": -77.23316016666666}, {"is_reserved": 0, "fusion_lon": 0.0, "fusion_lat": 0.0, "name": "76609ea0bc8fa5faaa8cd6bfff6e72e2", "type": "electric_scooter", "is_disabled": 0, "lat": 38.87495916666666, "rental_uris": {"android": "https://dc.lft.to/lastmile_qr_scan", "ios": "https://dc.lft.to/lastmile_qr_scan"}, "bike_id": "76609ea0bc8fa5faaa8cd6bfff6e72e2", "lon": -76.999769}, {"is_reserved": 0, "fusion_lon": 0.0, "fusion_lat": 0.0, "name": "643f48ac0e91cfb0e79c19269f99253d", "type": "electric_scooter", "is_disabled": 0, "lat": 38.927674333333336, "rental_uris": {"android": "https://dc.lft.to/lastmile_qr_scan", "ios": "https://dc.lft.to/lastmile_qr_scan"}, "bike_id": "643f48ac0e91cfb0e79c19269f99253d", "lon": -77.02787433333333}, {"is_reserved": 0, "fusion_lon": 0.0, "fusion_lat": 0.0, "name": "25bca7fbed9e05a912e8630a0fe084c9", "type": "electric_scooter", "is_disabled": 0, "lat": 38.9178975, "rental_uris": {"android": "https://dc.lft.to/lastmile_qr_scan", "ios": "https://dc.lft.to/lastmile_qr_scan"}, "bike_id": "25bca7fbed9e05a912e8630a0fe084c9", "lon": -77.0402265}, {"is_reserved": 0, "fusion_lon": 0.0, "fusion_lat": 0.0, "name": "eacb36ec2de63389a3f2cdc99f175685", "type": "electric_scooter", "is_disabled": 0, "lat": 38.86697733333333, "rental_uris": {"android": "https://dc.lft.to/lastmile_qr_scan", "ios": "https://dc.lft.to/lastmile_qr_scan"}, "bike_id": "eacb36ec2de63389a3f2cdc99f175685", "lon": -76.98590733333333}, {"is_reserved": 0, "fusion_lon": 0.0, "fusion_lat": 0.0, "name": "860546ccec5a6f5c54510c8691f19a41", "type": "electric_scooter", "is_disabled": 0, "lat": 38.9155625, "rental_uris": {"android": "https://dc.lft.to/lastmile_qr_scan", "ios": "https://dc.lft.to/lastmile_qr_scan"}, "bike_id": "860546ccec5a6f5c54510c8691f19a41", "lon": -77.04102216666666}, {"is_reserved": 0, "fusion_lon": 0.0, "fusion_lat": 0.0, "name": "85c564ff9ccb5b4ee1a775af8c5c64ca", "type": "electric_scooter", "is_disabled": 0, "lat": 38.922487833333335, "rental_uris": {"android": "https://dc.lft.to/lastmile_qr_scan", "ios": "https://dc.lft.to/lastmile_qr_scan"}, "bike_id": "85c564ff9ccb5b4ee1a775af8c5c64ca", "lon": -77.01936333333333}, {"is_reserved": 0, "fusion_lon": 0.0, "fusion_lat": 0.0, "name": "f03270e20317b57224c9d18779484532", "type": "electric_bike", "is_disabled": 0, "lat": 38.96745116666666, "rental_uris": {"android": "https://dc.lft.to/lastmile_qr_scan", "ios": "https://dc.lft.to/lastmile_qr_scan"}, "bike_id": "f03270e20317b57224c9d18779484532", "lon": -76.98194916666667}, {"is_reserved": 0, "fusion_lon": 0.0, "fusion_lat": 0.0, "name": "7a4ab608508cefde9aa66c566b196bdf", "type": "electric_scooter", "is_disabled": 0, "lat": 38.90237116666667, "rental_uris": {"android": "https://dc.lft.to/lastmile_qr_scan", "ios": "https://dc.lft.to/lastmile_qr_scan"}, "bike_id": "7a4ab608508cefde9aa66c566b196bdf", "lon": -77.00200633333333}, {"is_reserved": 0, "fusion_lon": 0.0, "fusion_lat": 0.0, "name": "614715446783feee1cff7103d028ecbd", "type": "electric_scooter", "is_disabled": 0, "lat": 38.90708566666667, "rental_uris": {"android": "https://dc.lft.to/lastmile_qr_scan", "ios": "https://dc.lft.to/lastmile_qr_scan"}, "bike_id": "614715446783feee1cff7103d028ecbd", "lon": -77.023961}, {"is_reserved": 0, "fusion_lon": 0.0, "fusion_lat": 0.0, "name": "2b8e0a0456d6f8e0eb013c7f2d21e039", "type": "electric_scooter", "is_disabled": 0, "lat": 38.90381133333333, "rental_uris": {"android": "https://dc.lft.to/lastmile_qr_scan", "ios": "https://dc.lft.to/lastmile_qr_scan"}, "bike_id": "2b8e0a0456d6f8e0eb013c7f2d21e039", "lon": -77.04290366666666}, {"is_reserved": 0, "fusion_lon": 0.0, "fusion_lat": 0.0, "name": "480393f4afce6731928e59d28d343478", "type": "electric_scooter", "is_disabled": 0, "lat": 38.910268, "rental_uris": {"android": "https://dc.lft.to/lastmile_qr_scan", "ios": "https://dc.lft.to/lastmile_qr_scan"}, "bike_id": "480393f4afce6731928e59d28d343478", "lon": -77.044971}, {"is_reserved": 0, "fusion_lon": 0.0, "fusion_lat": 0.0, "name": "a2ecebe8fd29259a3121a469cbc5846a", "type": "electric_scooter", "is_disabled": 0, "lat": 38.91266666666667, "rental_uris": {"android": "https://dc.lft.to/lastmile_qr_scan", "ios": "https://dc.lft.to/lastmile_qr_scan"}, "bike_id": "a2ecebe8fd29259a3121a469cbc5846a", "lon": -77.0287}, {"is_reserved": 0, "fusion_lon": 0.0, "fusion_lat": 0.0, "name": "889d0b349e463c5ef5cd548e8be3f567", "type": "electric_scooter", "is_disabled": 0, "lat": 38.911883333333336, "rental_uris": {"android": "https://dc.lft.to/lastmile_qr_scan", "ios": "https://dc.lft.to/lastmile_qr_scan"}, "bike_id": "889d0b349e463c5ef5cd548e8be3f567", "lon": -77.03833616666667}, {"is_reserved": 0, "fusion_lon": 0.0, "fusion_lat": 0.0, "name": "5edf77a86778c9bcab05f10516b3e41b", "type": "electric_bike", "is_disabled": 0, "lat": 39.01479916666667, "rental_uris": {"android": "https://dc.lft.to/lastmile_qr_scan", "ios": "https://dc.lft.to/lastmile_qr_scan"}, "bike_id": "5edf77a86778c9bcab05f10516b3e41b", "lon": -77.05491966666666}, {"is_reserved": 0, "fusion_lon": 0.0, "fusion_lat": 0.0, "name": "fb380a85ec093a8167cbe1649c0ddabc", "type": "electric_scooter", "is_disabled": 0, "lat": 38.90640483333333, "rental_uris": {"android": "https://dc.lft.to/lastmile_qr_scan", "ios": "https://dc.lft.to/lastmile_qr_scan"}, "bike_id": "fb380a85ec093a8167cbe1649c0ddabc", "lon": -77.0238265}, {"is_reserved": 0, "fusion_lon": 0.0, "fusion_lat": 0.0, "name": "a742f69b8903c2d1316e7d3ef694bae5", "type": "electric_scooter", "is_disabled": 0, "lat": 38.89877, "rental_uris": {"android": "https://dc.lft.to/lastmile_qr_scan", "ios": "https://dc.lft.to/lastmile_qr_scan"}, "bike_id": "a742f69b8903c2d1316e7d3ef694bae5", "lon": -76.9318885}, {"is_reserved": 0, "fusion_lon": 0.0, "fusion_lat": 0.0, "name": "353d14b5060fe8dff338558e374a2429", "type": "electric_scooter", "is_disabled": 0, "lat": 38.89353416666667, "rental_uris": {"android": "https://dc.lft.to/lastmile_qr_scan", "ios": "https://dc.lft.to/lastmile_qr_scan"}, "bike_id": "353d14b5060fe8dff338558e374a2429", "lon": -77.003314}, {"is_reserved": 0, "fusion_lon": 0.0, "fusion_lat": 0.0, "name": "ff41b49bdccfaedac6f4e4e64ff53001", "type": "electric_bike", "is_disabled": 0, "lat": 38.903981, "rental_uris": {"android": "https://dc.lft.to/lastmile_qr_scan", "ios": "https://dc.lft.to/lastmile_qr_scan"}, "bike_id": "ff41b49bdccfaedac6f4e4e64ff53001", "lon": -77.04477816666666}, {"is_reserved": 0, "fusion_lon": 0.0, "fusion_lat": 0.0, "name": "f8c4a91e30b786b006bf7aafc0802b1a", "type": "electric_scooter", "is_disabled": 0, "lat": 38.880893666666665, "rental_uris": {"android": "https://dc.lft.to/lastmile_qr_scan", "ios": "https://dc.lft.to/lastmile_qr_scan"}, "bike_id": "f8c4a91e30b786b006bf7aafc0802b1a", "lon": -76.99839966666667}, {"is_reserved": 0, "fusion_lon": 0.0, "fusion_lat": 0.0, "name": "3a063550369aa06e1d6c03eead91f327", "type": "electric_scooter", "is_disabled": 0, "lat": 38.90559316666667, "rental_uris": {"android": "https://dc.lft.to/lastmile_qr_scan", "ios": "https://dc.lft.to/lastmile_qr_scan"}, "bike_id": "3a063550369aa06e1d6c03eead91f327", "lon": -77.005788}, {"is_reserved": 0, "fusion_lon": 0.0, "fusion_lat": 0.0, "name": "425f1f656d52e35795022fc63b348467", "type": "electric_scooter", "is_disabled": 0, "lat": 38.90613716666667, "rental_uris": {"android": "https://dc.lft.to/lastmile_qr_scan", "ios": "https://dc.lft.to/lastmile_qr_scan"}, "bike_id": "425f1f656d52e35795022fc63b348467", "lon": -76.98683633333333}, {"is_reserved": 0, "fusion_lon": 0.0, "fusion_lat": 0.0, "name": "898c15beb0caca3ba609d63fb4fde63a", "type": "electric_scooter", "is_disabled": 0, "lat": 38.91413133333333, "rental_uris": {"android": "https://dc.lft.to/lastmile_qr_scan", "ios": "https://dc.lft.to/lastmile_qr_scan"}, "bike_id": "898c15beb0caca3ba609d63fb4fde63a", "lon": -77.04913633333334}, {"is_reserved": 0, "fusion_lon": 0.0, "fusion_lat": 0.0, "name": "30e2803eeb45114a37f90321dadfbc2e", "type": "electric_scooter", "is_disabled": 0, "lat": 38.874694833333336, "rental_uris": {"android": "https://dc.lft.to/lastmile_qr_scan", "ios": "https://dc.lft.to/lastmile_qr_scan"}, "bike_id": "30e2803eeb45114a37f90321dadfbc2e", "lon": -77.0055395}, {"is_reserved": 0, "fusion_lon": 0.0, "fusion_lat": 0.0, "name": "c9b81cce0e2861282bdfad022bb931c6", "type": "electric_scooter", "is_disabled": 0, "lat": 38.87631533333333, "rental_uris": {"android": "https://dc.lft.to/lastmile_qr_scan", "ios": "https://dc.lft.to/lastmile_qr_scan"}, "bike_id": "c9b81cce0e2861282bdfad022bb931c6", "lon": -77.01258933333334}, {"is_reserved": 0, "fusion_lon": 0.0, "fusion_lat": 0.0, "name": "7d7efb1e248e37b6d562244741e9de9c", "type": "electric_scooter", "is_disabled": 0, "lat": 38.88385066666667, "rental_uris": {"android": "https://dc.lft.to/lastmile_qr_scan", "ios": "https://dc.lft.to/lastmile_qr_scan"}, "bike_id": "7d7efb1e248e37b6d562244741e9de9c", "lon": -77.03031633333333}, {"is_reserved": 0, "fusion_lon": 0.0, "fusion_lat": 0.0, "name": "2bbff22f11808662cb714b12305d0607", "type": "electric_scooter", "is_disabled": 0, "lat": 38.91614666666667, "rental_uris": {"android": "https://dc.lft.to/lastmile_qr_scan", "ios": "https://dc.lft.to/lastmile_qr_scan"}, "bike_id": "2bbff22f11808662cb714b12305d0607", "lon": -77.032028}, {"is_reserved": 0, "fusion_lon": 0.0, "fusion_lat": 0.0, "name": "6bad77b503590df741d1a0e44827befc", "type": "electric_scooter", "is_disabled": 0, "lat": 38.86005816666667, "rental_uris": {"android": "https://dc.lft.to/lastmile_qr_scan", "ios": "https://dc.lft.to/lastmile_qr_scan"}, "bike_id": "6bad77b503590df741d1a0e44827befc", "lon": -76.98517933333333}, {"is_reserved": 0, "fusion_lon": 0.0, "fusion_lat": 0.0, "name": "fc22b6d63dfda9ba7288737798f6f762", "type": "electric_scooter", "is_disabled": 0, "lat": 38.87711066666667, "rental_uris": {"android": "https://dc.lft.to/lastmile_qr_scan", "ios": "https://dc.lft.to/lastmile_qr_scan"}, "bike_id": "fc22b6d63dfda9ba7288737798f6f762", "lon": -77.01680783333333},