{"data": {"bikes": [{"type": "electric_scooter", "rental_uris": {"ios": "https://dc.lft.to/lastmile_qr_scan", "android": "https://dc.lft.to/lastmile_qr_scan"}, "lon": -76.92234166666667, "fusion_lon": 0.0, "is_disabled": 0, "lat": 38.900099166666664, "bike_id": "56b9a0fb15bed8324021364f0d5914a9", "name": "56b9a0fb15bed8324021364f0d5914a9", "is_reserved": 0, "fusion_lat": 0.0}, {"type": "electric_scooter", "rental_uris": {"ios": "https://dc.lft.to/lastmile_qr_scan", "android": "https://dc.lft.to/lastmile_qr_scan"}, "lon": -77.02829133333333, "fusion_lon": 0.0, "is_disabled": 0, "lat": 38.8922755, "bike_id": "dd6b80192ab4321de754cf00f683ee0f", "name": "dd6b80192ab4321de754cf00f683ee0f", "is_reserved": 0, "fusion_lat": 0.0}, {"type": "electric_bike", "rental_uris": {"ios": "https://dc.lft.to/lastmile_qr_scan", "android": "https://dc.lft.to/lastmile_qr_scan"}, "lon": -77.18740933333333, "fusion_lon": 0.0, "is_disabled": 0, "lat": 38.89349683333333, "bike_id": "c6a6f5ff6c1655f1383c499b2b77bf57", "name": "c6a6f5ff6c1655f1383c499b2b77bf57", "is_reserved": 0, "fusion_lat": 0.0}, {"type": "electric_scooter", "rental_uris": {"ios": "https://dc.lft.to/lastmile_qr_scan", "android": "https://dc.lft.to/lastmile_qr_scan"}, "lon": -77.02184483333333, "fusion_lon": 0.0, "is_disabled": 0, "lat": 38.9098035, "bike_id": "7a1ae2e56a21b92c87af8f662abc1388", "name": "7a1ae2e56a21b92c87af8f662abc1388", "is_reserved": 0, "fusion_lat": 0.0}, {"type": "electric_scooter", "rental_uris": {"ios": "https://dc.lft.to/lastmile_qr_scan", "android": "https://dc.lft.to/lastmile_qr_scan"}, "lon": -77.01187816666666, "fusion_lon": 0.0, "is_disabled": 0, "lat": 38.90029066666666, "bike_id": "c851dcaf0bdc7a5c814d139fed837ed1", "name": "c851dcaf0bdc7a5c814d139fed837ed1", "is_reserved": 0, "fusion_lat": 0.0}, {"type": "electric_scooter", "rental_uris": {"ios": "https://dc.lft.to/lastmile_qr_scan", "android": "https://dc.lft.to/lastmile_qr_scan"}, "lon": -77.02837583333333, "fusion_lon": 0.0, "is_disabled": 0, "lat": 38.90266316666667, "bike_id": "c4cd6b89b476b002da11cdffc290c944", "name": "c4cd6b89b476b002da11cdffc290c944", "is_reserved": 0, "fusion_lat": 0.0}, {"type": "electric_scooter", "rental_uris": {"ios": "https://dc.lft.to/lastmile_qr_scan", "android": "https://dc.lft.to/lastmile_qr_scan"}, "lon": -77.04175083333334, "fusion_lon": 0.0, "is_disabled": 0, "lat": 38.905060166666665, "bike_id": "cc18ecea9cbb1e6ee6bf1304d6a33d88", "name": "cc18ecea9cbb1e6ee6bf1304d6a33d88", "is_reserved": 0, "fusion_lat": 0.0}, {"type": "electric_scooter", "rental_uris": {"ios": "https://dc.lft.to/lastmile_qr_scan", "android": "https://dc.lft.to/lastmile_qr_scan"}, "lon": -77.04076166666667, "fusion_lon": 0.0, "is_disabled": 0, "lat": 38.904844, "bike_id": "0e21c6d3e901f8923fb68119405b1d57", "name": "0e21c6d3e901f8923fb68119405b1d57", "is_reserved": 0, "fusion_lat": 0.0}, {"type": "electric_scooter", "rental_uris": {"ios": "https://dc.lft.to/lastmile_qr_scan", "android": "https://dc.lft.to/lastmile_qr_scan"}, "lon": -77.03769016666666, "fusion_lon": 0.0, "is_disabled": 0, "lat": 38.916882333333334, "bike_id": "1af7bf01b94fcc19352358af5d008a4e", "name": "1af7bf01b94fcc19352358af5d008a4e", "is_reserved": 0, "fusion_lat": 0.0}, {"type": "electric_scooter", "rental_uris": {"ios": "https://dc.lft.to/lastmile_qr_scan", "android": "https://dc.lft.to/lastmile_qr_scan"}, "lon": -77.02805916666667, "fusion_lon": 0.0, "is_disabled": 0, "lat": 38.9073245, "bike_id": "4a34f94ee970d7c64091794398e6cd41", "name": "4a34f94ee970d7c64091794398e6cd41", "is_reserved": 0, "fusion_lat": 0.0}, {"type": "electric_scooter", "rental_uris": {"ios": "https://dc.lft.to/lastmile_qr_scan", "android": "https://dc.lft.to/lastmile_qr_scan"}, "lon": -77.04124566666667, "fusion_lon": 0.0, "is_disabled": 0, "lat": 38.91707366666667, "bike_id": "8a451616b6f9fd88ee4ea8ae193fa390", "name": "8a451616b6f9fd88ee4ea8ae193fa390", "is_reserved": 0, "fusion_lat": 0.0}, {"type": "electric_scooter", "rental_uris": {"ios": "https://dc.lft.to/lastmile_qr_scan", "android": "https://dc.lft.to/lastmile_qr_scan"}, "lon": -76.99516116666666, "fusion_lon": 0.0, "is_disabled": 0, "lat": 38.86255833333333, "bike_id": "cfb720d412af36fa4ccc5c67ee48594b", "name": "cfb720d412af36fa4ccc5c67ee48594b", "is_reserved": 0, "fusion_lat": 0.0}, {"type": "electric_scooter", "rental_uris": {"ios": "https://dc.lft.to/lastmile_qr_scan", "android": "https://dc.lft.to/lastmile_qr_scan"}, "lon": -77.0512975, "fusion_lon": 0.0, "is_disabled": 0, "lat": 38.923537833333334, "bike_id": "d0b117eec7b53adf2d04b285af5857c8", "name": "d0b117eec7b53adf2d04b285af5857c8", "is_reserved": 0, "fusion_lat": 0.0}, {"type": "electric_scooter", "rental_uris": {"ios": "https://dc.lft.to/lastmile_qr_scan", "android": "https://dc.lft.to/lastmile_qr_scan"}, "lon": -77.01869866666667, "fusion_lon": 0.0, "is_disabled": 0, "lat": 38.951445166666666, "bike_id": "eaa68f30471a67cf6ba9dba218e533bf", "name": "eaa68f30471a67cf6ba9dba218e533bf", "is_reserved": 0, "fusion_lat": 0.0}, {"type": "electric_scooter", "rental_uris": {"ios": "https://dc.lft.to/lastmile_qr_scan", "android": "https://dc.lft.to/lastmile_qr_scan"}, "lon": -77.036435, "fusion_lon": 0.0, "is_disabled": 0, "lat": 38.913188833333336, "bike_id": "f4eaf70b635fefcafe82abaec99d37c4", "name": "f4eaf70b635fefcafe82abaec99d37c4", "is_reserved": 0, "fusion_lat": 0.0}, {"type": "electric_scooter", "rental_uris": {"ios": "https://dc.lft.to/lastmile_qr_scan", "android": "https://dc.lft.to/lastmile_qr_scan"}, "lon": -77.03167966666666, "fusion_lon": 0.0, "is_disabled": 0, "lat": 38.918561, "bike_id": "2cd5ec35e30bd3be3e67d09deab9ccf1", "name": "2cd5ec35e30bd3be3e67d09deab9ccf1", "is_reserved": 0, "fusion_lat": 0.0}, {"type": "electric_scooter", "rental_uris": {"ios": "https://dc.lft.to/lastmile_qr_scan", "android": "https://dc.lft.to/lastmile_qr_scan"}, "lon": -77.03750683333334, "fusion_lon": 0.0, "is_disabled": 0, "lat": 38.93084416666667, "bike_id": "6b59304215974a121e4f583694ff8ac8", "name": "6b59304215974a121e4f583694ff8ac8", "is_reserved": 0, "fusion_lat": 0.0}, {"type": "electric_scooter", "rental_uris": {"ios": "https://dc.lft.to/lastmile_qr_scan", "android": "https://dc.lft.to/lastmile_qr_scan"}, "lon": -77.04530816666667, "fusion_lon": 0.0, "is_disabled": 0, "lat": 38.9037415, "bike_id": "4005c6aea5b454bf4d49431453ab8ecb", "name": "4005c6aea5b454bf4d49431453ab8ecb", "is_reserved": 0, "fusion_lat": 0.0}, {"type": "electric_scooter", "rental_uris": {"ios": "https://dc.lft.to/lastmile_qr_scan", "android": "https://dc.lft.to/lastmile_qr_scan"}, "lon": -77.03156816666667, "fusion_lon": 0.0, "is_disabled": 0, "lat": 38.8922525, "bike_id": "267e9e2c77e9f475b6554a3554f674e1", "name": "267e9e2c77e9f475b6554a3554f674e1", "is_reserved": 0, "fusion_lat": 0.0}, {"type": "electric_scooter", "rental_uris": {"ios": "https://dc.lft.to/lastmile_qr_scan", "android": "https://dc.lft.to/lastmile_qr_scan"}, "lon": -77.04487183333333, "fusion_lon": 0.0, "is_disabled": 0, "lat": 38.907847333333336, "bike_id": "ac5fd23b64686c87bc32f7d70e860378", "name": "ac5fd23b64686c87bc32f7d70e860378", "is_reserved": 0, "fusion_lat": 0.0}, {"type": "electric_scooter", "rental_uris": {"ios": "https://dc.lft.to/lastmile_qr_scan", "android": "https://dc.lft.to/lastmile_qr_scan"}, "lon": -77.02969, "fusion_lon": 0.0, "is_disabled": 0, "lat": 38.922829666666665, "bike_id": "9b4c24be18035d64f42273c588a0ef0f", "name": "9b4c24be18035d64f42273c588a0ef0f", "is_reserved": 0, "fusion_lat": 0.0}, {"type": "electric_scooter", "rental_uris": {"ios": "https://dc.lft.to/lastmile_qr_scan", "android": "https://dc.lft.to/lastmile_qr_scan"}, "lon": -77.0485545, "fusion_lon": 0.0, "is_disabled": 0, "lat": 38.905362333333336, "bike_id": "d4f9abd9b3b0e447127ff0c1c7b3beab", "name": "d4f9abd9b3b0e447127ff0c1c7b3beab", "is_reserved": 0, "fusion_lat": 0.0}, {"type": "electric_scooter", "rental_uris": {"ios": "https://dc.lft.to/lastmile_qr_scan", "android": "https://dc.lft.to/lastmile_qr_scan"}, "lon": -77.03412433333334, "fusion_lon": 0.0, "is_disabled": 0, "lat": 38.92744116666667, "bike_id": "b0e9a3790b6c6e2b7e71e999a46c6204", "name": "b0e9a3790b6c6e2b7e71e999a46c6204", "is_reserved": 0, "fusion_lat": 0.0}, {"type": "electric_scooter", "rental_uris": {"ios": "https://dc.lft.to/lastmile_qr_scan", "android": "https://dc.lft.to/lastmile_qr_scan"}, "lon": -77.06558633333333, "fusion_lon": 0.0, "is_disabled": 0, "lat": 38.954874, "bike_id": "07c162a925dacd372422507c89705c23", "name": "07c162a925dacd372422507c89705c23", "is_reserved": 0, "fusion_lat": 0.0}, {"type": "electric_scooter", "rental_uris": {"ios": "https://dc.lft.to/lastmile_qr_scan", "android": "https://dc.lft.to/lastmile_qr_scan"}, "lon": -77.02010383333334, "fusion_lon": 0.0, "is_disabled": 0, "lat": 38.90828283333333, "bike_id": "1b287e34486696691f20522bfedb3735", "name": "1b287e34486696691f20522bfedb3735", "is_reserved": 0, "fusion_lat": 0.0}, {"type": "electric_scooter", "rental_uris": {"ios": "https://dc.lft.to/lastmile_qr_scan", "android": "https://dc.lft.to/lastmile_qr_scan"}, "lon": -76.97950783333333, "fusion_lon": 0.0, "is_disabled": 0, "lat": 38.91688366666666, "bike_id": "52f1d0a8b35418ed01af5b0c9521f917", "name": "52f1d0a8b35418ed01af5b0c9521f917", "is_reserved": 0, "fusion_lat": 0.0}, {"type": "electric_bike", "rental_uris": {"ios": "https://dc.lft.to/lastmile_qr_scan", "android": "https://dc.lft.to/lastmile_qr_scan"}, "lon": -77.16260966666667, "fusion_lon": 0.0, "is_disabled": 0, "lat": 38.886562166666664, "bike_id": "e82aa86a003bd7f765735b25db86d60c", "name": "e82aa86a003bd7f765735b25db86d60c", "is_reserved": 0, "fusion_lat": 0.0}, {"type": "electric_scooter", "rental_uris": {"ios": "https://dc.lft.to/lastmile_qr_scan", "android": "https://dc.lft.to/lastmile_qr_scan"}, "lon": -77.050698, "fusion_lon": 0.0, "is_disabled": 0, "lat": 38.90428383333333, "bike_id": "955f104db1d1f3916fe5f5e06575e218", "name": "955f104db1d1f3916fe5f5e06575e218", "is_reserved": 0, "fusion_lat": 0.0}, {"type": "electric_scooter", "rental_uris": {"ios": "https://dc.lft.to/lastmile_qr_scan", "android": "https://dc.lft.to/lastmile_qr_scan"}, "lon": -76.99028433333334, "fusion_lon": 0.0, "is_disabled": 0, "lat": 38.90033666666667, "bike_id": "3ccbd9b70c221e92e9e9f5942a6d7b33", "name": "3ccbd9b70c221e92e9e9f5942a6d7b33", "is_reserved": 0, "fusion_lat": 0.0}, {"type": "electric_bike", "rental_uris": {"ios": "https://dc.lft.to/lastmile_qr_scan", "android": "https://dc.lft.to/lastmile_qr_scan"}, "lon": -77.01283016666666, "fusion_lon": 0.0, "is_disabled": 0, "lat": 38.95663483333333, "bike_id": "426417b3004c4637a419133b189c9db9", "name": "426417b3004c4637a419133b189c9db9", "is_reserved": 0, "fusion_lat": 0.0}, {"type": "electric_scooter", "rental_uris": {"ios": "https://dc.lft.to/lastmile_qr_scan", "android": "https://dc.lft.to/lastmile_qr_scan"}, "lon": -77.01892433333333, "fusion_lon": 0.0, "is_disabled": 0, "lat": 38.886004666666665, "bike_id": "3be26bb6b4a968fa49c0388369640246", "name": "3be26bb6b4a968fa49c0388369640246", "is_reserved": 0, "fusion_lat": 0.0}, {"type": "electric_scooter", "rental_uris": {"ios": "https://dc.lft.to/lastmile_qr_scan", "android": "https://dc.lft.to/lastmile_qr_scan"}, "lon": -77.02416783333334, "fusion_lon": 0.0, "is_disabled": 0, "lat": 38.90721383333333, "bike_id": "0e244607198024ab275b1c9e4bc39a5f", "name": "0e244607198024ab275b1c9e4bc39a5f", "is_reserved": 0, "fusion_lat": 0.0}, {"type": "electric_scooter", "rental_uris": {"ios": "https://dc.lft.to/lastmile_qr_scan", "android": "https://dc.lft.to/lastmile_qr_scan"}, "lon": -77.02655483333334, "fusion_lon": 0.0, "is_disabled": 0, "lat": 38.901201, "bike_id": "06bbcf837cf1bdf468207e14259135da", "name": "06bbcf837cf1bdf468207e14259135da", "is_reserved": 0, "fusion_lat": 0.0}, {"type": "electric_scooter", "rental_uris": {"ios": "https://dc.lft.to/lastmile_qr_scan", "android": "https://dc.lft.to/lastmile_qr_scan"}, "lon": -77.0384185, "fusion_lon": 0.0, "is_disabled": 0, "lat": 38.917553833333336, "bike_id": "b53a936453307b020a0e39c45661df03", "name": "b53a936453307b020a0e39c45661df03", "is_reserved": 0, "fusion_lat": 0.0}, {"type": "electric_scooter", "rental_uris": {"ios": "https://dc.lft.to/lastmile_qr_scan", "android": "https://dc.lft.to/lastmile_qr_scan"}, "lon": -76.9190955, "fusion_lon": 0.0, "is_disabled": 0, "lat": 38.88576233333333, "bike_id": "dd8ac485fe50d9fe77fd2903895e2024", "name": "dd8ac485fe50d9fe77fd2903895e2024", "is_reserved": 0, "fusion_lat": 0.0}, {"type": "electric_scooter", "rental_uris": {"ios": "https://dc.lft.to/lastmile_qr_scan", "android": "https://dc.lft.to/lastmile_qr_scan"}, "lon": -77.04594466666667, "fusion_lon": 0.0, "is_disabled": 0, "lat": 38.91733033333333, "bike_id": "0b16714cf2e2658dc80eb3dc9295bb6e", "name": "0b16714cf2e2658dc80eb3dc9295bb6e", "is_reserved": 0, "fusion_lat": 0.0}, {"type": "electric_scooter", "rental_uris": {"ios": "https://dc.lft.to/lastmile_qr_scan", "android": "https://dc.lft.to/lastmile_qr_scan"}, "lon": -77.03841316666667, "fusion_lon": 0.0, "is_disabled": 0, "lat": 38.9175105, "bike_id": "f34f1f8aa97d7f791e3cfcef212c3d81", "name": "f34f1f8aa97d7f791e3cfcef212c3d81", "is_reserved": 0, "fusion_lat": 0.0}, {"type": "electric_scooter", "rental_uris": {"ios": "https://dc.lft.to/lastmile_qr_scan", "android": "https://dc.lft.to/lastmile_qr_scan"}, "lon": -77.021703, "fusion_lon": 0.0, "is_disabled": 0, "lat": 38.9479565, "bike_id": "d7a9d0cabf5e6a80c28baf48337a228d", "name": "d7a9d0cabf5e6a80c28baf48337a228d", "is_reserved": 0, "fusion_lat": 0.0}, {"type": "electric_scooter", "rental_uris": {"ios": "https://dc.lft.to/lastmile_qr_scan", "android": "https://dc.lft.to/lastmile_qr_scan"}, "lon": -77.0310955, "fusion_lon": 0.0, "is_disabled": 0, "lat": 38.892201166666666, "bike_id": "006d97769435dd8c0b21eb549cded0c0", "name": "006d97769435dd8c0b21eb549cded0c0", "is_reserved": 0, "fusion_lat": 0.0}, {"type": "electric_scooter", "rental_uris": {"ios": "https://dc.lft.to/lastmile_qr_scan", "android": "https://dc.lft.to/lastmile_qr_scan"}, "lon": -77.047121, "fusion_lon": 0.0, "is_disabled": 0, "lat": 38.921804, "bike_id": "b234360a3245f759a9d5d5000e216071", "name": "b234360a3245f759a9d5d5000e216071", "is_reserved": 0, "fusion_lat": 0.0}, {"type": "electric_scooter", "rental_uris": {"ios": "https://dc.lft.to/lastmile_qr_scan", "android": "https://dc.lft.to/lastmile_qr_scan"}, "lon": -77.03995983333333, "fusion_lon": 0.0, "is_disabled": 0, "lat": 38.9133115, "bike_id": "1731f6f7d1499907e6a5b000cf2b6f4c", "name": "1731f6f7d1499907e6a5b000cf2b6f4c", "is_reserved": 0, "fusion_lat": 0.0}, {"type": "electric_scooter", "rental_uris": {"ios": "https://dc.lft.to/lastmile_qr_scan", "android": "https://dc.lft.to/lastmile_qr_scan"}, "lon": -77.047272, "fusion_lon": 0.0, "is_disabled": 0, "lat": 38.89734516666667, "bike_id": "a076330260312ac61e1411f788f2f977", "name": "a076330260312ac61e1411f788f2f977", "is_reserved": 0, "fusion_lat": 0.0}, {"type": "electric_scooter", "rental_uris": {"ios": "https://dc.lft.to/lastmile_qr_scan", "android": "https://dc.lft.to/lastmile_qr_scan"}, "lon": -77.04349516666667, "fusion_lon": 0.0, "is_disabled": 0, "lat": 38.921606833333335, "bike_id": "ff31c858af69ed7116e60370ad72f983", "name": "ff31c858af69ed7116e60370ad72f983", "is_reserved": 0, "fusion_lat": 0.0}, {"type": "electric_scooter", "rental_uris": {"ios": "https://dc.lft.to/lastmile_qr_scan", "android": "https://dc.lft.to/lastmile_qr_scan"}, "lon": -77.04028133333334, "fusion_lon": 0.0, "is_disabled": 0, "lat": 38.91834016666667, "bike_id": "19d28737188e2eefa8425913b5c13198", "name": "19d28737188e2eefa8425913b5c13198", "is_reserved": 0, "fusion_lat": 0.0}, {"type": "electric_scooter", "rental_uris": {"ios": "https://dc.lft.to/lastmile_qr_scan", "android": "https://dc.lft.to/lastmile_qr_scan"}, "lon": -77.03913383333334, "fusion_lon": 0.0, "is_disabled": 0, "lat": 38.90460616666667, "bike_id": "a2aa671457a0c8a7a6d9368115e50e44", "name": "a2aa671457a0c8a7a6d9368115e50e44", "is_reserved": 0, "fusion_lat": 0.0}, {"type": "electric_scooter", "rental_uris": {"ios": "https://dc.lft.to/lastmile_qr_scan", "android": "https://dc.lft.to/lastmile_qr_scan"}, "lon": -76.93175833333333, "fusion_lon": 0.0, "is_disabled": 0, "lat": 38.89881616666667, "bike_id": "1db5cf6aa9dc182c30bcfa5da868eca6", "name": "1db5cf6aa9dc182c30bcfa5da868eca6", "is_reserved": 0, "fusion_lat": 0.0}, {"type": "electric_bike", "rental_uris": {"ios": "https://dc.lft.to/lastmile_qr_scan", "android": "https://dc.lft.to/lastmile_qr_scan"}, "lon": -76.97103883333334, "fusion_lon": 0.0, "is_disabled": 0, "lat": 38.85705433333333, "bike_id": "b756af552e8a9ffda2dc626ec637c8c3", "name": "b756af552e8a9ffda2dc626ec637c8c3", "is_reserved": 0, "fusion_lat": 0.0}, {"type": "electric_scooter", "rental_uris": {"ios": "https://dc.lft.to/lastmile_qr_scan", "android": "https://dc.lft.to/lastmile_qr_scan"}, "lon": -76.957565, "fusion_lon": 0.0, "is_disabled": 0, "lat": 38.884281, "bike_id": "e5455b093721376c2c97aeef9b214d11", "name": "e5455b093721376c2c97aeef9b214d11", "is_reserved": 0, "fusion_lat": 0.0}, {"type": "electric_scooter", "rental_uris": {"ios": "https://dc.lft.to/lastmile_qr_scan", "android": "https://dc.lft.to/lastmile_qr_scan"}, "lon": -76.99777116666667, "fusion_lon": 0.0, "is_disabled": 0, "lat": 38.844218, "bike_id": "9380cc47cbee4dbadf6fd0fba2a947f9", "name": "9380cc47cbee4dbadf6fd0fba2a947f9", "is_reserved": 0, "fusion_lat": 0.0}, {"type": "electric_scooter", "rental_uris": {"ios": "https://dc.lft.to/lastmile_qr_scan", "android": "https://dc.lft.to/lastmile_qr_scan"}, "lon": -77.02234466666667, "fusion_lon": 0.0, "is_disabled": 0, "lat": 38.961349, "bike_id": "763849660f10f592c6ac8d33d2b62317", "name": "763849660f10f592c6ac8d33d2b62317", "is_reserved": 0, "fusion_lat": 0.0}, {"type": "electric_scooter", "rental_uris": {"ios": "https://dc.lft.to/lastmile_qr_scan", "android": "https://dc.lft.to/lastmile_qr_scan"}, "lon": -77.0476905, "fusion_lon": 0.0, "is_disabled": 0, "lat": 38.91756933333333, "bike_id": "38c6ae6d09ae34569a679d05e1e2d3cf", "name": "38c6ae6d09ae34569a679d05e1e2d3cf", "is_reserved": 0, "fusion_lat": 0.0}, {"type": "electric_bike", "rental_uris": {"ios": "https://dc.lft.to/lastmile_qr_scan", "android": "https://dc.lft.to/lastmile_qr_scan"}, "lon": -76.93703583333334, "fusion_lon": 0.0, "is_disabled": 0, "lat": 38.87140683333333, "bike_id": "73627809481a73da3ce003381670e276", "name": "73627809481a73da3ce003381670e276", "is_reserved": 0, "fusion_lat": 0.0}, {"type": "electric_scooter", "rental_uris": {"ios": "https://dc.lft.to/lastmile_qr_scan", "android": "https://dc.lft.to/lastmile_qr_scan"}, "lon": -77.0501945, "fusion_lon": 0.0, "is_disabled": 0, "lat": 38.8964815, "bike_id": "2f9e3742e6544be24192ff653d9d3f4e", "name": "2f9e3742e6544be24192ff653d9d3f4e", "is_reserved": 0, "fusion_lat": 0.0}, {"type": "electric_scooter", "rental_uris": {"ios": "https://dc.lft.to/lastmile_qr_scan", "android": "https://dc.lft.to/lastmile_qr_scan"}, "lon": -77.019488, "fusion_lon": 0.0, "is_disabled": 0, "lat": 38.92249966666667, "bike_id": "671b352678644cd48d276c08a7c0f1ff", "name": "671b352678644cd48d276c08a7c0f1ff", "is_reserved": 0, "fusion_lat": 0.0}, {"type": "electric_scooter", "rental_uris": {"ios": "https://dc.lft.to/lastmile_qr_scan", "android": "https://dc.lft.to/lastmile_qr_scan"}, "lon": -77.0301295, "fusion_lon": 0.0, "is_disabled": 0, "lat": 38.9224875, "bike_id": "926a42caaaa3a75fdd4aa82f1fbabbad", "name": "926a42caaaa3a75fdd4aa82f1fbabbad", "is_reserved": 0, "fusion_lat": 0.0}, {"type": "electric_scooter", "rental_uris": {"ios": "https://dc.lft.to/lastmile_qr_scan", "android": "https://dc.lft.to/lastmile_qr_scan"}, "lon": -77.03371516666667, "fusion_lon": 0.0, "is_disabled": 0, "lat": 38.892231333333335, "bike_id": "abe7f450a8fc0bef2399afc0210e0d55", "name": "abe7f450a8fc0bef2399afc0210e0d55", "is_reserved": 0, "fusion_lat": 0.0}, {"type": "electric_scooter", "rental_uris": {"ios": "https://dc.lft.to/lastmile_qr_scan", "android": "https://dc.lft.to/lastmile_qr_scan"}, "lon": -77.02329683333333, "fusion_lon": 0.0, "is_disabled": 0, "lat": 38.91665833333333, "bike_id": "58a79476ec7e8786f28e020369062abb", "name": "58a79476ec7e8786f28e020369062abb", "is_reserved": 0, "fusion_lat": 0.0}, {"type": "electric_scooter", "rental_uris": {"ios": "https://dc.lft.to/lastmile_qr_scan", "android": "https://dc.lft.to/lastmile_qr_scan"}, "lon": -77.04111716666667, "fusion_lon": 0.0, "is_disabled": 0, "lat": 38.899077, "bike_id": "6b6f09354bf0a64d8f5f07ab936c9a60", "name": "6b6f09354bf0a64d8f5f07ab936c9a60", "is_reserved": 0, "fusion_lat": 0.0}, {"type": "electric_bike", "rental_uris": {"ios": "https://dc.lft.to/lastmile_qr_scan", "android": "https://dc.lft.to/lastmile_qr_scan"}, "lon": -76.95210233333333, "fusion_lon": 0.0, "is_disabled": 0, "lat": 38.936681166666666, "bike_id": "e4b6bfbc4d44ba7264dd95661db7c959", "name": "e4b6bfbc4d44ba7264dd95661db7c959", "is_reserved": 0, "fusion_lat": 0.0}, {"type": "electric_scooter", "rental_uris": {"ios": "https://dc.lft.to/lastmile_qr_scan", "android": "https://dc.lft.to/lastmile_qr_scan"}, "lon": -77.01158266666667, "fusion_lon": 0.0, "is_disabled": 0, "lat": 38.90031416666667, "bike_id": "ddad054cef5263795254ac925f4b413d", "name": "ddad054cef5263795254ac925f4b413d", "is_reserved": 0, "fusion_lat": 0.0}, {"type": "electric_scooter", "rental_uris": {"ios": "https://dc.lft.to/lastmile_qr_scan", "android": "https://dc.lft.to/lastmile_qr_scan"}, "lon": -77.00658266666667, "fusion_lon": 0.0, "is_disabled": 0, "lat": 38.899818333333336, "bike_id": "7413b67c67af4f1a49713af36c19e5ef", "name": "7413b67c67af4f1a49713af36c19e5ef", "is_reserved": 0, "fusion_lat": 0.0}, {"type": "electric_scooter", "rental_uris": {"ios": "https://dc.lft.to/lastmile_qr_scan", "android": "https://dc.lft.to/lastmile_qr_scan"}, "lon": -77.02191933333333, "fusion_lon": 0.0, "is_disabled": 0, "lat": 38.91558833333333, "bike_id": "bc2aa18da716eca0a67d92861137e697", "name": "bc2aa18da716eca0a67d92861137e697", "is_reserved": 0, "fusion_lat": 0.0}, {"type": "electric_bike", "rental_uris": {"ios": "https://dc.lft.to/lastmile_qr_scan", "android": "https://dc.lft.to/lastmile_qr_scan"}, "lon": -77.03140066666667, "fusion_lon": 0.0, "is_disabled": 0, "lat": 38.9943905, "bike_id": "ba8c6f4cbb472fb444398bf63021376d", "name": "ba8c6f4cbb472fb444398bf63021376d", "is_reserved": 0, "fusion_lat": 0.0}, {"type": "electric_scooter", "rental_uris": {"ios": "https://dc.lft.to/lastmile_qr_scan", "android": "https://dc.lft.to/lastmile_qr_scan"}, "lon": -77.03645866666666, "fusion_lon": 0.0, "is_disabled": 0, "lat": 38.90305883333333, "bike_id": "891d4185fe59f9f1a196065ff406e229", "name": "891d4185fe59f9f1a196065ff406e229", "is_reserved": 0, "fusion_lat": 0.0}, {"type": "electric_bike", "rental_uris": {"ios": "https://dc.lft.to/lastmile_qr_scan", "android": "https://dc.lft.to/lastmile_qr_scan"}, "lon": -77.21650166666667, "fusion_lon": 0.0, "is_disabled": 0, "lat": 38.93007633333333, "bike_id": "29d6e0599a8c8a01936595495bb1097b", "name": "29d6e0599a8c8a01936595495bb1097b", "is_reserved": 0, "fusion_lat": 0.0}, {"type": "electric_scooter", "rental_uris": {"ios": "https://dc.lft.to/lastmile_qr_scan", "android": "https://dc.lft.to/lastmile_qr_scan"}, "lon": -77.02613333333333, "fusion_lon": 0.0, "is_disabled": 0, "lat": 38.948216, "bike_id": "fca5033ad26627d5ec5b2ac3cd26365d", "name": "fca5033ad26627d5ec5b2ac3cd26365d", "is_reserved": 0, "fusion_lat": 0.0}, {"type": "electric_scooter", "rental_uris": {"ios": "https://dc.lft.to/lastmile_qr_scan", "android": "https://dc.lft.to/lastmile_qr_scan"}, "lon": -77.01944316666666, "fusion_lon": 0.0, "is_disabled": 0, "lat": 38.94851716666667, "bike_id": "1dbcb274db4a05b2e814880e943cc576", "name": "1dbcb274db4a05b2e814880e943cc576", "is_reserved": 0, "fusion_lat": 0.0}, {"type": "electric_bike", "rental_uris": {"ios": "https://dc.lft.to/lastmile_qr_scan", "android": "https://dc.lft.to/lastmile_qr_scan"}, "lon": -76.97269716666666, "fusion_lon": 0.0, "is_disabled": 0, "lat": 38.91952766666667, "bike_id": "96aabdee02b77f64dd025ab5bbc42dbe", "name": "96aabdee02b77f64dd025ab5bbc42dbe", "is_reserved": 0, "fusion_lat": 0.0}, {"type": "electric_bike", "rental_uris": {"ios": "https://dc.lft.to/lastmile_qr_scan", "android": "https://dc.lft.to/lastmile_qr_scan"}, "lon": -77.080234, "fusion_lon": 0.0, "is_disabled": 0, "lat": 38.949667, "bike_id": "b21e07a7208aa83d9056ac571c83da83", "name": "b21e07a7208aa83d9056ac571c83da83", "is_reserved": 0, "fusion_lat": 0.0}, {"type": "electric_scooter", "rental_uris": {"ios": "https://dc.lft.to/lastmile_qr_scan", "android": "https://dc.lft.to/lastmile_qr_scan"}, "lon": -77.02441133333333, "fusion_lon": 0.0, "is_disabled": 0, "lat": 38.9184905, "bike_id": "289bd3f2bba46e4c541b28e2b82d4476", "name": "289bd3f2bba46e4c541b28e2b82d4476", "is_reserved": 0, "fusion_lat": 0.0}, {"type": "electric_bike", "rental_uris": {"ios": "https://dc.lft.to/lastmile_qr_scan", "android": "https://dc.lft.to/lastmile_qr_scan"}, "lon": -76.96062866666666, "fusion_lon": 0.0, "is_disabled": 0, "lat": 38.884038833333335, "bike_id": "b86da8b349e2f09376d6f341c0ae0305", "name": "b86da8b349e2f09376d6f341c0ae0305", "is_reserved": 0, "fusion_lat": 0.0}, {"type": "electric_scooter", "rental_uris": {"ios": "https://dc.lft.to/lastmile_qr_scan", "android": "https://dc.lft.to/lastmile_qr_scan"}, "lon": -77.0221215, "fusion_lon": 0.0, "is_disabled": 0, "lat": 38.894941833333334, "bike_id": "00d38cd000b68bff78713d75e2e43216", "name": "00d38cd000b68bff78713d75e2e43216", "is_reserved": 0, "fusion_lat": 0.0}, {"type": "electric_scooter", "rental_uris": {"ios": "https://dc.lft.to/lastmile_qr_scan", "android": "https://dc.lft.to/lastmile_qr_scan"}, "lon": -77.03217533333333, "fusion_lon": 0.0, "is_disabled": 0, "lat": 38.91407816666667, "bike_id": "7eb0a4967553e2b6a024ca405f3819c4", "name": "7eb0a4967553e2b6a024ca405f3819c4", "is_reserved": 0, "fusion_lat": 0.0}, {"type": "electric_scooter", "rental_uris": {"ios": "https://dc.lft.to/lastmile_qr_scan", "android": "https://dc.lft.to/lastmile_qr_scan"}, "lon": -77.03320316666667, "fusion_lon": 0.0, "is_disabled": 0, "lat": 38.90019016666667, "bike_id": "dd40e764b393a7394c7750c41b0e786b", "name": "dd40e764b393a7394c7750c41b0e786b", "is_reserved": 0, "fusion_lat": 0.0}, {"type": "electric_scooter", "rental_uris": {"ios": "https://dc.lft.to/lastmile_qr_scan", "android": "https://dc.lft.to/lastmile_qr_scan"}, "lon": -77.03250916666667, "fusion_lon": 0.0, "is_disabled": 0, "lat": 38.91551966666667, "bike_id": "9fa8fc59b7214a0d01339ffcec02a89a", "name": "9fa8fc59b7214a0d01339ffcec02a89a", "is_reserved": 0, "fusion_lat": 0.0}, {"type": "electric_scooter", "rental_uris": {"ios": "https://dc.lft.to/lastmile_qr_scan", "android": "https://dc.lft.to/lastmile_qr_scan"}, "lon": -77.04174066666667, "fusion_lon": 0.0, "is_disabled": 0, "lat": 38.90149316666667, "bike_id": "01fd5ae5f24843d97dfaee085450dcca", "name": "01fd5ae5f24843d97dfaee085450dcca", "is_reserved": 0, "fusion_lat": 0.0}, {"type": "electric_scooter", "rental_uris": {"ios": "https://dc.lft.to/lastmile_qr_scan", "android": "https://dc.lft.to/lastmile_qr_scan"}, "lon": -76.97951583333334, "fusion_lon": 0.0, "is_disabled": 0, "lat": 38.94522116666667, "bike_id": "8355d11f3ecb9573dda052e813e20d1d", "name": "8355d11f3ecb9573dda052e813e20d1d", "is_reserved": 0, "fusion_lat": 0.0}, {"type": "electric_scooter", "rental_uris": {"ios": "https://dc.lft.to/lastmile_qr_scan", "android": "https://dc.lft.to/lastmile_qr_scan"}, "lon": -77.04510833333333, "fusion_lon": 0.0, "is_disabled": 0, "lat": 38.903943, "bike_id": "4bc502e129d876eb8839774cb2c755db", "name": "4bc502e129d876eb8839774cb2c755db", "is_reserved": 0, "fusion_lat": 0.0}, {"type": "electric_scooter", "rental_uris": {"ios": "https://dc.lft.to/lastmile_qr_scan", "android": "https://dc.lft.to/lastmile_qr_scan"}, "lon": -77.0152255, "fusion_lon": 0.0, "is_disabled": 0, "lat": 38.894794166666664, "bike_id": "6d03cc054aa2350ae03fbf6187cc95dc", "name": "6d03cc054aa2350ae03fbf6187cc95dc", "is_reserved": 0, "fusion_lat": 0.0}, {"type": "electric_scooter", "rental_uris": {"ios": "https://dc.lft.to/lastmile_qr_scan", "android": "https://dc.lft.to/lastmile_qr_scan"}, "lon": -77.03697116666666, "fusion_lon": 0.0, "is_disabled": 0, "lat": 38.9263195, "bike_id": "f8bd6db7d2a05a286633180e2bad1d57", "name": "f8bd6db7d2a05a286633180e2bad1d57", "is_reserved": 0, "fusion_lat": 0.0}, {"type": "electric_scooter", "rental_uris": {"ios": "https://dc.lft.to/lastmile_qr_scan", "android": "https://dc.lft.to/lastmile_qr_scan"}, "lon": -77.01160566666667, "fusion_lon": 0.0, "is_disabled": 0, "lat": 38.90041733333333, "bike_id": "b6f820e4ec5d3ca3efc20aaedd0838a3", "name": "b6f820e4ec5d3ca3efc20aaedd0838a3", "is_reserved": 0, "fusion_lat": 0.0}, {"type": "electric_bike", "rental_uris": {"ios": "https://dc.lft.to/lastmile_qr_scan", "android": "https://dc.lft.to/lastmile_qr_scan"}, "lon": -77.020674, "fusion_lon": 0.0, "is_disabled": 0, "lat": 38.96437866666667, "bike_id": "9bb675be38d2efcc43261d8b8343e2d9", "name": "9bb675be38d2efcc43261d8b8343e2d9", "is_reserved": 0, "fusion_lat": 0.0}, {"type": "electric_bike", "rental_uris": {"ios": "https://dc.lft.to/lastmile_qr_scan", "android": "https://dc.lft.to/lastmile_qr_scan"}, "lon": -77.1164565, "fusion_lon": 0.0, "is_disabled": 0, "lat": 38.871870333333334, "bike_id": "49d12b9656fc64a90aa1dc6011dac476", "name": "49d12b9656fc64a90aa1dc6011dac476", "is_reserved": 0, "fusion_lat": 0.0}, {"type": "electric_scooter", "rental_uris": {"ios": "https://dc.lft.to/lastmile_qr_scan", "android": "https://dc.lft.to/lastmile_qr_scan"}, "lon": -77.00620766666667, "fusion_lon": 0.0, "is_disabled": 0, "lat": 38.90584583333333, "bike_id": "8927e4d429d2ab3be4e99bf94b050aa8", "name": "8927e4d429d2ab3be4e99bf94b050aa8", "is_reserved": 0, "fusion_lat": 0.0}, {"type": "electric_scooter", "rental_uris": {"ios": "https://dc.lft.to/lastmile_qr_scan", "android": "https://dc.lft.to/lastmile_qr_scan"}, "lon": -77.02294066666667, "fusion_lon": 0.0, "is_disabled": 0, "lat": 38.916220833333334, "bike_id": "75690f29dc096262dc3d846f4d57bf42", "name": "75690f29dc096262dc3d846f4d57bf42", "is_reserved": 0, "fusion_lat": 0.0}, {"type": "electric_bike", "rental_uris": {"ios": "https://dc.lft.to/lastmile_qr_scan", "android": "https://dc.lft.to/lastmile_qr_scan"}, "lon": -77.09805616666667, "fusion_lon": 0.0, "is_disabled": 0, "lat": 38.850213833333335, "bike_id": "571fdd0052e57ceb156f365ee3fbd5bb", "name": "571fdd0052e57ceb156f365ee3fbd5bb", "is_reserved": 0, "fusion_lat": 0.0}, {"type": "electric_scooter", "rental_uris": {"ios": "https://dc.lft.to/lastmile_qr_scan", "android": "https://dc.lft.to/lastmile_qr_scan"}, "lon": -77.052211, "fusion_lon": 0.0, "is_disabled": 0, "lat": 38.924927, "bike_id": "b1902a13b2fb2708414fb70991d5a8a6", "name": "b1902a13b2fb2708414fb70991d5a8a6", "is_reserved": 0, "fusion_lat": 0.0}, {"type": "electric_scooter", "rental_uris": {"ios": "https://dc.lft.to/lastmile_qr_scan", "android": "https://dc.lft.to/lastmile_qr_scan"}, "lon": -77.028283, "fusion_lon": 0.0, "is_disabled": 0, "lat": 38.902761, "bike_id": "1bc4da5cecee239e3173cf88db96585f", "name": "1bc4da5cecee239e3173cf88db96585f", "is_reserved": 0, "fusion_lat": 0.0}, {"type": "electric_bike", "rental_uris": {"ios": "https://dc.lft.to/lastmile_qr_scan", "android": "https://dc.lft.to/lastmile_qr_scan"}, "lon": -76.99344333333333, "fusion_lon": 0.0, "is_disabled": 0, "lat": 38.972238, "bike_id": "dd7b48e7cf5e413f46f4a8058a2aa5f2", "name": "dd7b48e7cf5e413f46f4a8058a2aa5f2", "is_reserved": 0, "fusion_lat": 0.0}, {"type": "electric_scooter", "rental_uris": {"ios": "https://dc.lft.to/lastmile_qr_scan", "android": "https://dc.lft.to/lastmile_qr_scan"}, "lon": -76.99501416666666, "fusion_lon": 0.0, "is_disabled": 0, "lat": 38.883650333333335, "bike_id": "f5981c6d8276900f3cf32c8c2eb46928", "name": "f5981c6d8276900f3cf32c8c2eb46928", "is_reserved": 0, "fusion_lat": 0.0}, {"type": "electric_scooter", "rental_uris": {"ios": "https://dc.lft.to/lastmile_qr_scan", "android": "https://dc.lft.to/lastmile_qr_scan"}, "lon": -77.04142483333334, "fusion_lon": 0.0, "is_disabled": 0, "lat": 38.922926333333336, "bike_id": "af026ab106b92a11b3be2886bba76a86", "name": "af026ab106b92a11b3be2886bba76a86", "is_reserved": 0, "fusion_lat": 0.0}, {"type": "electric_scooter", "rental_uris": {"ios": "https://dc.lft.to/lastmile_qr_scan", "android": "https://dc.lft.to/lastmile_qr_scan"}, "lon": -76.99695516666667, "fusion_lon": 0.0, "is_disabled": 0, "lat": 38.90836016666667, "bike_id": "9a6bcbe718a32b2d8e9712a289b0986c", "name": "9a6bcbe718a32b2d8e9712a289b0986c", "is_reserved": 0, "fusion_lat": 0.0}, {"type": "electric_scooter", "rental_uris": {"ios": "https://dc.lft.to/lastmile_qr_scan", "android": "https://dc.lft.to/lastmile_qr_scan"}, "lon": -76.93301433333333, "fusion_lon": 0.0, "is_disabled": 0, "lat": 38.881329666666666, "bike_id": "25e307e4df79fb66c1ad36ef595c3c12", "name": "25e307e4df79fb66c1ad36ef595c3c12", "is_reserved": 0, "fusion_lat": 0.0}, {"type": "electric_scooter", "rental_uris": {"ios": "https://dc.lft.to/lastmile_qr_scan", "android": "https://dc.lft.to/lastmile_qr_scan"}, "lon": -76.99780066666666, "fusion_lon": 0.0, "is_disabled": 0, "lat": 38.844226166666665, "bike_id": "d53630b8ec6744e39c938f87cb9106cd", "name": "d53630b8ec6744e39c938f87cb9106cd", "is_reserved": 0, "fusion_lat": 0.0}, {"type": "electric_scooter", "rental_uris": {"ios": "https://dc.lft.to/lastmile_qr_scan", "android": "https://dc.lft.to/lastmile_qr_scan"}, "lon": -77.05034433333333, "fusion_lon": 0.0, "is_disabled": 0, "lat": 38.9233845, "bike_id": "105b7c7214026a5712f0b4271ac99ec5", "name": "105b7c7214026a5712f0b4271ac99ec5", "is_reserved": 0, "fusion_lat": 0.0}, {"type": "electric_scooter", "rental_uris": {"ios": "https://dc.lft.to/lastmile_qr_scan", "android": "https://dc.lft.to/lastmile_qr_scan"}, "lon": -77.0452835, "fusion_lon": 0.0, "is_disabled": 0, "lat": 38.933210833333334, "bike_id": "cc161aa915b815339c2c5336f1b408d5", "name": "cc161aa915b815339c2c5336f1b408d5", "is_reserved": 0, "fusion_lat": 0.0}, {"type": "electric_scooter", "rental_uris": {"ios": "https://dc.lft.to/lastmile_qr_scan", "android": "https://dc.lft.to/lastmile_qr_scan"}, "lon": -77.032269, "fusion_lon": 0.0, "is_disabled": 0, "lat": 38.892239333333336, "bike_id": "fc5b5e2a5d11727200f5a6194c0136e4", "name": "fc5b5e2a5d11727200f5a6194c0136e4", "is_reserved": 0, "fusion_lat": 0.0}, {"type": "electric_scooter", "rental_uris": {"ios": "https://dc.lft.to/lastmile_qr_scan", "android": "https://dc.lft.to/lastmile_qr_scan"}, "lon": -77.020319, "fusion_lon": 0.0, "is_disabled": 0, "lat": 38.931833833333336, "bike_id": "8bb9a4429fee7b6102aeb996b320f7c8", "name": "8bb9a4429fee7b6102aeb996b320f7c8", "is_reserved": 0, "fusion_lat": 0.0}, {"type": "electric_scooter", "rental_uris": {"ios": "https://dc.lft.to/lastmile_qr_scan", "android": "https://dc.lft.to/lastmile_qr_scan"}, "lon": -77.03180316666666, "fusion_lon": 0.0, "is_disabled": 0, "lat": 38.91811283333333, "bike_id": "03c13530a2558fd53bb84d7b053694ae", "name": "03c13530a2558fd53bb84d7b053694ae", "is_reserved": 0, "fusion_lat": 0.0}, {"type": "electric_scooter", "rental_uris": {"ios": "https://dc.lft.to/lastmile_qr_scan", "android": "https://dc.lft.to/lastmile_qr_scan"}, "lon": -77.04178266666666, "fusion_lon": 0.0, "is_disabled": 0, "lat": 38.91835583333334, "bike_id": "53616e72206c39fa1bff54abb6344704", "name": "53616e72206c39fa1bff54abb6344704", "is_reserved": 0, "fusion_lat": 0.0}, {"type": "electric_scooter", "rental_uris": {"ios": "https://dc.lft.to/lastmile_qr_scan", "android": "https://dc.lft.to/lastmile_qr_scan"}, "lon": -77.059356, "fusion_lon": 0.0, "is_disabled": 0, "lat": 38.90936383333333, "bike_id": "95575019bd8213e23654511d778b0ddf", "name": "95575019bd8213e23654511d778b0ddf", "is_reserved": 0, "fusion_lat": 0.0}, {"type": "electric_bike", "rental_uris": {"ios": "https://dc.lft.to/lastmile_qr_scan", "android": "https://dc.lft.to/lastmile_qr_scan"}, "lon": -77.0458915, "fusion_lon": 0.0, "is_disabled": 0, "lat": 38.903559333333334, "bike_id": "1579d3a97627b7d2fdc993512886ef9d", "name": "1579d3a97627b7d2fdc993512886ef9d", "is_reserved": 0, "fusion_lat": 0.0}, {"type": "electric_scooter", "rental_uris": {"ios": "https://dc.lft.to/lastmile_qr_scan", "android": "https://dc.lft.to/lastmile_qr_scan"}, "lon": -77.04563816666666, "fusion_lon": 0.0, "is_disabled": 0, "lat": 38.913223, "bike_id": "755bdf2a65145f8e168c1389c27e4eef", "name": "755bdf2a65145f8e168c1389c27e4eef", "is_reserved": 0, "fusion_lat": 0.0}, {"type": "electric_scooter", "rental_uris": {"ios": "https://dc.lft.to/lastmile_qr_scan", "android": "https://dc.lft.to/lastmile_qr_scan"}, "lon": -77.03953066666666, "fusion_lon": 0.0, "is_disabled": 0, "lat": 38.9083425, "bike_id": "b849b0cc52711cf1f557a4c6aa30be96", "name": "b849b0cc52711cf1f557a4c6aa30be96", "is_reserved": 0, "fusion_lat": 0.0}, {"type": "electric_scooter", "rental_uris": {"ios": "https://dc.lft.to/lastmile_qr_scan", "android": "https://dc.lft.to/lastmile_qr_scan"}, "lon": -77.027931, "fusion_lon": 0.0, "is_disabled": 0, "lat": 38.93077516666666, "bike_id": "0fe0f9abbe02b41ccaa6e39a2fd328c1", "name": "0fe0f9abbe02b41ccaa6e39a2fd328c1", "is_reserved": 0, "fusion_lat": 0.0}, {"type": "electric_bike", "rental_uris": {"ios": "https://dc.lft.to/lastmile_qr_scan", "android": "https://dc.lft.to/lastmile_qr_scan"}, "lon": -76.92499533333333, "fusion_lon": 0.0, "is_disabled": 0, "lat": 38.99997116666667, "bike_id": "e9bfd5fffb4666dbb3fe9a0fc7c4a1c0", "name": "e9bfd5fffb4666dbb3fe9a0fc7c4a1c0", "is_reserved": 0, "fusion_lat": 0.0}, {"type": "electric_scooter", "rental_uris": {"ios": "https://dc.lft.to/lastmile_qr_scan", "android": "https://dc.lft.to/lastmile_qr_scan"}, "lon": -77.0095875, "fusion_lon": 0.0, "is_disabled": 0, "lat": 38.90787733333333, "bike_id": "45fb11eb6a9b957c7bfb1292dff1ca8c", "name": "45fb11eb6a9b957c7bfb1292dff1ca8c", "is_reserved": 0, "fusion_lat": 0.0}, {"type": "electric_scooter", "rental_uris": {"ios": "https://dc.lft.to/lastmile_qr_scan", "android": "https://dc.lft.to/lastmile_qr_scan"}, "lon": -77.033567, "fusion_lon": 0.0, "is_disabled": 0, "lat": 38.916996, "bike_id": "b56409e885e076e1c3fce24ef607cfbf", "name": "b56409e885e076e1c3fce24ef607cfbf", "is_reserved": 0, "fusion_lat": 0.0}, {"type": "electric_scooter", "rental_uris": {"ios": "https://dc.lft.to/lastmile_qr_scan", "android": "https://dc.lft.to/lastmile_qr_scan"}, "lon": -77.04001483333333, "fusion_lon": 0.0, "is_disabled": 0, "lat": 38.9023335, "bike_id": "fac75955a9694903151b89c16dad5142", "name": "fac75955a9694903151b89c16dad5142", "is_reserved": 0, "fusion_lat": 0.0}, {"type": "electric_scooter", "rental_uris": {"ios": "https://dc.lft.to/lastmile_qr_scan", "android": "https://dc.lft.to/lastmile_qr_scan"}, "lon": -77.02923433333333, "fusion_lon": 0.0, "is_disabled": 0, "lat": 38.905561666666664, "bike_id": "5ee3006ea73bba58e1317eae532dc8d1", "name": "5ee3006ea73bba58e1317eae532dc8d1", "is_reserved": 0, "fusion_lat": 0.0}, {"type": "electric_scooter", "rental_uris": {"ios": "https://dc.lft.to/lastmile_qr_scan", "android": "https://dc.lft.to/lastmile_qr_scan"}, "lon": -77.04767366666667, "fusion_lon": 0.0, "is_disabled": 0, "lat": 38.90846233333333, "bike_id": "6acae371d4afcf113f663db7549b6851", "name": "6acae371d4afcf113f663db7549b6851", "is_reserved": 0, "fusion_lat": 0.0}, {"type": "electric_scooter", "rental_uris": {"ios": "https://dc.lft.to/lastmile_qr_scan", "android": "https://dc.lft.to/lastmile_qr_scan"}, "lon": -77.00198916666666, "fusion_lon": 0.0, "is_disabled": 0, "lat": 38.900651333333336, "bike_id": "fc6183caf8255079bf5721d89c7e7eb6", "name": "fc6183caf8255079bf5721d89c7e7eb6", "is_reserved": 0, "fusion_lat": 0.0}, {"type": "electric_scooter", "rental_uris": {"ios": "https://dc.lft.to/lastmile_qr_scan", "android": "https://dc.lft.to/lastmile_qr_scan"}, "lon": -76.97723783333333, "fusion_lon": 0.0, "is_disabled": 0, "lat": 38.872451833333336, "bike_id": "18682f6f180750d31f6bd66555205c6d", "name": "18682f6f180750d31f6bd66555205c6d", "is_reserved": 0, "fusion_lat": 0.0}, {"type": "electric_scooter", "rental_uris": {"ios": "https://dc.lft.to/lastmile_qr_scan", "android": "https://dc.lft.to/lastmile_qr_scan"}, "lon": -77.02720183333334, "fusion_lon": 0.0, "is_disabled": 0, "lat": 38.92481866666667, "bike_id": "15fbbd60ae63a4b3905131a31f60c0dc", "name": "15fbbd60ae63a4b3905131a31f60c0dc", "is_reserved": 0, "fusion_lat": 0.0}, {"type": "electric_scooter", "rental_uris": {"ios": "https://dc.lft.to/lastmile_qr_scan", "android": "https://dc.lft.to/lastmile_qr_scan"}, "lon": -76.96859816666667, "fusion_lon": 0.0, "is_disabled": 0, "lat": 38.8707245, "bike_id": "0d6f5243db871cd78510d8d59957f26e", "name": "0d6f5243db871cd78510d8d59957f26e", "is_reserved": 0, "fusion_lat": 0.0}, {"type": "electric_scooter", "rental_uris": {"ios": "https://dc.lft.to/lastmile_qr_scan", "android": "https://dc.lft.to/lastmile_qr_scan"}, "lon": -76.95751966666667, "fusion_lon": 0.0, "is_disabled": 0, "lat": 38.8842775, "bike_id": "655ae59ffc4c5b44d133a95c907b20cf", "name": "655ae59ffc4c5b44d133a95c907b20cf", "is_reserved": 0, "fusion_lat": 0.0}, {"type": "electric_scooter", "rental_uris": {"ios": "https://dc.lft.to/lastmile_qr_scan", "android": "https://dc.lft.to/lastmile_qr_scan"}, "lon": -77.0228755, "fusion_lon": 0.0, "is_disabled": 0, "lat": 38.916755333333334, "bike_id": "823f90b2ef455a7fd4b55c68574043b4", "name": "823f90b2ef455a7fd4b55c68574043b4", "is_reserved": 0, "fusion_lat": 0.0}, {"type": "electric_scooter", "rental_uris": {"ios": "https://dc.lft.to/lastmile_qr_scan", "android": "https://dc.lft.to/lastmile_qr_scan"}, "lon": -77.02716016666666, "fusion_lon": 0.0, "is_disabled": 0, "lat": 38.907356666666665, "bike_id": "f172f9986ac9487d3da3994869605936", "name": "f172f9986ac9487d3da3994869605936", "is_reserved": 0, "fusion_lat": 0.0}, {"type": "electric_scooter", "rental_uris": {"ios": "https://dc.lft.to/lastmile_qr_scan", "android": "https://dc.lft.to/lastmile_qr_scan"}, "lon": -77.02422033333333, "fusion_lon": 0.0, "is_disabled": 0, "lat": 38.920452166666664, "bike_id": "98e07fa75d1d0bcc1865f344eb97c2bc", "name": "98e07fa75d1d0bcc1865f344eb97c2bc", "is_reserved": 0, "fusion_lat": 0.0}, {"type": "electric_scooter", "rental_uris": {"ios": "https://dc.lft.to/lastmile_qr_scan", "android": "https://dc.lft.to/lastmile_qr_scan"}, "lon": -77.011911, "fusion_lon": 0.0, "is_disabled": 0, "lat": 38.903120666666666, "bike_id": "f0376223c7dfca41c7e448e0a708ce16", "name": "f0376223c7dfca41c7e448e0a708ce16", "is_reserved": 0, "fusion_lat": 0.0}, {"type": "electric_scooter", "rental_uris": {"ios": "https://dc.lft.to/lastmile_qr_scan", "android": "https://dc.lft.to/lastmile_qr_scan"}, "lon": -77.03172566666667, "fusion_lon": 0.0, "is_disabled": 0, "lat": 38.899517833333334, "bike_id": "3a147235b6ad4037efd280528801294d", "name": "3a147235b6ad4037efd280528801294d", "is_reserved": 0, "fusion_lat": 0.0}, {"type": "electric_scooter", "rental_uris": {"ios": "https://dc.lft.to/lastmile_qr_scan", "android": "https://dc.lft.to/lastmile_qr_scan"}, "lon": -77.040355, "fusion_lon": 0.0, "is_disabled": 0, "lat": 38.914041833333336, "bike_id": "5b5a5d8055c9753d3a63f1384778d855", "name": "5b5a5d8055c9753d3a63f1384778d855", "is_reserved": 0, "fusion_lat": 0.0}, {"type": "electric_scooter", "rental_uris": {"ios": "https://dc.lft.to/lastmile_qr_scan", "android": "https://dc.lft.to/lastmile_qr_scan"}, "lon": -76.99778983333333, "fusion_lon": 0.0, "is_disabled": 0, "lat": 38.84430583333334, "bike_id": "83e025c2ad83b266167a4ecdb5a9d273", "name": "83e025c2ad83b266167a4ecdb5a9d273", "is_reserved": 0, "fusion_lat": 0.0}, {"type": "electric_scooter", "rental_uris": {"ios": "https://dc.lft.to/lastmile_qr_scan", "android": "https://dc.lft.to/lastmile_qr_scan"}, "lon": -77.0132205, "fusion_lon": 0.0, "is_disabled": 0, "lat": 38.90598266666667, "bike_id": "2eb61ee6863e4a757357838d8d843cd6", "name": "2eb61ee6863e4a757357838d8d843cd6", "is_reserved": 0, "fusion_lat": 0.0}, {"type": "electric_scooter", "rental_uris": {"ios": "https://dc.lft.to/lastmile_qr_scan", "android": "https://dc.lft.to/lastmile_qr_scan"}, "lon": -77.040348, "fusion_lon": 0.0, "is_disabled": 0, "lat": 38.923543, "bike_id": "a764b576b358bf67e4d81ffaed28d48c", "name": "a764b576b358bf67e4d81ffaed28d48c", "is_reserved": 0, "fusion_lat": 0.0}, {"type": "electric_scooter", "rental_uris": {"ios": "https://dc.lft.to/lastmile_qr_scan", "android": "https://dc.lft.to/lastmile_qr_scan"}, "lon": -77.04144133333334, "fusion_lon": 0.0, "is_disabled": 0, "lat": 38.93424916666667, "bike_id": "7dd4d5fd9feccbade4d5edb7014333ff", "name": "7dd4d5fd9feccbade4d5edb7014333ff", "is_reserved": 0, "fusion_lat": 0.0}, {"type": "electric_scooter", "rental_uris": {"ios": "https://dc.lft.to/lastmile_qr_scan", "android": "https://dc.lft.to/lastmile_qr_scan"}, "lon": -77.03241133333333, "fusion_lon": 0.0, "is_disabled": 0, "lat": 38.90977, "bike_id": "bf7cbfab0fdcfc2c7157ff5cda9496dc", "name": "bf7cbfab0fdcfc2c7157ff5cda9496dc", "is_reserved": 0, "fusion_lat": 0.0}, {"type": "electric_scooter", "rental_uris": {"ios": "https://dc.lft.to/lastmile_qr_scan", "android": "https://dc.lft.to/lastmile_qr_scan"}, "lon": -77.03847616666667, "fusion_lon": 0.0, "is_disabled": 0, "lat": 38.9042285, "bike_id": "33fb05a65e8b4dd5545c1420239977df", "name": "33fb05a65e8b4dd5545c1420239977df", "is_reserved": 0, "fusion_lat": 0.0}, {"type": "electric_scooter", "rental_uris": {"ios": "https://dc.lft.to/lastmile_qr_scan", "android": "https://dc.lft.to/lastmile_qr_scan"}, "lon": -77.0322445, "fusion_lon": 0.0, "is_disabled": 0, "lat": 38.90278033333333, "bike_id": "ea4cddf276b03f995604c037c4ce362b", "name": "ea4cddf276b03f995604c037c4ce362b", "is_reserved": 0, "fusion_lat": 0.0}, {"type": "electric_scooter", "rental_uris": {"ios": "https://dc.lft.to/lastmile_qr_scan", "android": "https://dc.lft.to/lastmile_qr_scan"}, "lon": -77.001879, "fusion_lon": 0.0, "is_disabled": 0, "lat": 38.90009416666667, "bike_id": "fe3493f1d8b86b5d94580196b480dcda", "name": "fe3493f1d8b86b5d94580196b480dcda", "is_reserved": 0, "fusion_lat": 0.0}, {"type": "electric_scooter", "rental_uris": {"ios": "https://dc.lft.to/lastmile_qr_scan", "android": "https://dc.lft.to/lastmile_qr_scan"}, "lon": -76.927079, "fusion_lon": 0.0, "is_disabled": 0, "lat": 38.8995945, "bike_id": "9d52179c6cf9ef64c9b8525bf3f8d0f7", "name": "9d52179c6cf9ef64c9b8525bf3f8d0f7", "is_reserved": 0, "fusion_lat": 0.0}, {"type": "electric_scooter", "rental_uris": {"ios": "https://dc.lft.to/lastmile_qr_scan", "android": "https://dc.lft.to/lastmile_qr_scan"}, "lon": -77.04031333333333, "fusion_lon": 0.0, "is_disabled": 0, "lat": 38.924422166666666, "bike_id": "a13e35cfa5a06d7edf0b58230a0dec62", "name": "a13e35cfa5a06d7edf0b58230a0dec62", "is_reserved": 0, "fusion_lat": 0.0}, {"type": "electric_scooter", "rental_uris": {"ios": "https://dc.lft.to/lastmile_qr_scan", "android": "https://dc.lft.to/lastmile_qr_scan"}, "lon": -77.02207816666666, "fusion_lon": 0.0, "is_disabled": 0, "lat": 38.92480916666667, "bike_id": "956c0dfc75919465e36883055b59e193", "name": "956c0dfc75919465e36883055b59e193", "is_reserved": 0, "fusion_lat": 0.0}, {"type": "electric_scooter", "rental_uris": {"ios": "https://dc.lft.to/lastmile_qr_scan", "android": "https://dc.lft.to/lastmile_qr_scan"}, "lon": -77.03154466666666, "fusion_lon": 0.0, "is_disabled": 0, "lat": 38.91561183333334, "bike_id": "b498a47b5945c67077a73f781cf77067", "name": "b498a47b5945c67077a73f781cf77067", "is_reserved": 0, "fusion_lat": 0.0}, {"type": "electric_bike", "rental_uris": {"ios": "https://dc.lft.to/lastmile_qr_scan", "android": "https://dc.lft.to/lastmile_qr_scan"}, "lon": -77.08808633333334, "fusion_lon": 0.0, "is_disabled": 0, "lat": 38.86230416666667, "bike_id": "9a54ab5f237277cb35dc897f6275dd3d", "name": "9a54ab5f237277cb35dc897f6275dd3d", "is_reserved": 0, "fusion_lat": 0.0}, {"type": "electric_scooter", "rental_uris": {"ios": "https://dc.lft.to/lastmile_qr_scan", "android": "https://dc.lft.to/lastmile_qr_scan"}, "lon": -77.044238, "fusion_lon": 0.0, "is_disabled": 0, "lat": 38.93195866666667, "bike_id": "48cd42e88a1bdc718433aaf6183002bf", "name": "48cd42e88a1bdc718433aaf6183002bf", "is_reserved": 0, "fusion_lat": 0.0}, {"type": "electric_scooter", "rental_uris": {"ios": "https://dc.lft.to/lastmile_qr_scan", "android": "https://dc.lft.to/lastmile_qr_scan"}, "lon": -76.9940655, "fusion_lon": 0.0, "is_disabled": 0, "lat": 38.87794916666667, "bike_id": "bd335fd206da3c78788d864232997617", "name": "bd335fd206da3c78788d864232997617", "is_reserved": 0, "fusion_lat": 0.0}, {"type": "electric_scooter", "rental_uris": {"ios": "https://dc.lft.to/lastmile_qr_scan", "android": "https://dc.lft.to/lastmile_qr_scan"}, "lon": -77.0358375, "fusion_lon": 0.0, "is_disabled": 0, "lat": 38.93311116666667, "bike_id": "0108bad37e507f582f81532787023137", "name": "0108bad37e507f582f81532787023137", "is_reserved": 0, "fusion_lat": 0.0}, {"type": "electric_scooter", "rental_uris": {"ios": "https://dc.lft.to/lastmile_qr_scan", "android": "https://dc.lft.to/lastmile_qr_scan"}, "lon": -77.0502855, "fusion_lon": 0.0, "is_disabled": 0, "lat": 38.893775833333336, "bike_id": "bf7a4f96547b1e1b3c73619a1bdf8e1e", "name": "bf7a4f96547b1e1b3c73619a1bdf8e1e", "is_reserved": 0, "fusion_lat": 0.0}, {"type": "electric_scooter", "rental_uris": {"ios": "https://dc.lft.to/lastmile_qr_scan", "android": "https://dc.lft.to/lastmile_qr_scan"}, "lon": -77.04342883333334, "fusion_lon": 0.0, "is_disabled": 0, "lat": 38.90612616666667, "bike_id": "316914f633fddfc312d078f2c9df119c", "name": "316914f633fddfc312d078f2c9df119c", "is_reserved": 0, "fusion_lat": 0.0}, {"type": "electric_bike", "rental_uris": {"ios": "https://dc.lft.to/lastmile_qr_scan", "android": "https://dc.lft.to/lastmile_qr_scan"}, "lon": -76.987988, "fusion_lon": 0.0, "is_disabled": 0, "lat": 38.92217866666667, "bike_id": "9bd7d22a2734efeaa33ae05cd3537430", "name": "9bd7d22a2734efeaa33ae05cd3537430", "is_reserved": 0, "fusion_lat": 0.0}, {"type": "electric_scooter", "rental_uris": {"ios": "https://dc.lft.to/lastmile_qr_scan", "android": "https://dc.lft.to/lastmile_qr_scan"}, "lon": -77.02696816666666, "fusion_lon": 0.0, "is_disabled": 0, "lat": 38.9112165, "bike_id": "33f153e166ba026c36b3d863c149e50a", "name": "33f153e166ba026c36b3d863c149e50a", "is_reserved": 0, "fusion_lat": 0.0}, {"type": "electric_scooter", "rental_uris": {"ios": "https://dc.lft.to/lastmile_qr_scan", "android": "https://dc.lft.to/lastmile_qr_scan"}, "lon": -76.96012316666666, "fusion_lon": 0.0, "is_disabled": 0, "lat": 38.88017383333333, "bike_id": "e65382b0e5dc4e5515979ebeb0ec11d0", "name": "e65382b0e5dc4e5515979ebeb0ec11d0", "is_reserved": 0, "fusion_lat": 0.0}, {"type": "electric_scooter", "rental_uris": {"ios": "https://dc.lft.to/lastmile_qr_scan", "android": "https://dc.lft.to/lastmile_qr_scan"}, "lon": -77.051315, "fusion_lon": 0.0, "is_disabled": 0, "lat": 38.92357766666667, "bike_id": "aaa4a6d0cb59836e675756f371b12242", "name": "aaa4a6d0cb59836e675756f371b12242", "is_reserved": 0, "fusion_lat": 0.0}, {"type": "electric_scooter", "rental_uris": {"ios": "https://dc.lft.to/lastmile_qr_scan", "android": "https://dc.lft.to/lastmile_qr_scan"}, "lon": -77.03086716666667, "fusion_lon": 0.0, "is_disabled": 0, "lat": 38.93853933333333, "bike_id": "c472ebb03dc1cbad524752f746798aa6", "name": "c472ebb03dc1cbad524752f746798aa6", "is_reserved": 0, "fusion_lat": 0.0}, {"type": "electric_scooter", "rental_uris": {"ios": "https://dc.lft.to/lastmile_qr_scan", "android": "https://dc.lft.to/lastmile_qr_scan"}, "lon": -76.98887383333333, "fusion_lon": 0.0, "is_disabled": 0, "lat": 38.86644666666667, "bike_id": "d4dcad8fb8e681a8bc8c5183a6fd3260", "name": "d4dcad8fb8e681a8bc8c5183a6fd3260", "is_reserved": 0, "fusion_lat": 0.0}, {"type": "electric_scooter", "rental_uris": {"ios": "https://dc.lft.to/lastmile_qr_scan", "android": "https://dc.lft.to/lastmile_qr_scan"}, "lon": -77.02804766666667, "fusion_lon": 0.0, "is_disabled": 0, "lat": 38.895546833333334, "bike_id": "c3a7a0e6f989d1d310eed366ae53c7da", "name": "c3a7a0e6f989d1d310eed366ae53c7da", "is_reserved": 0, "fusion_lat": 0.0}, {"type": "electric_scooter", "rental_uris": {"ios": "https://dc.lft.to/lastmile_qr_scan", "android": "https://dc.lft.to/lastmile_qr_scan"}, "lon": -77.0423645, "fusion_lon": 0.0, "is_disabled": 0, "lat": 38.921903, "bike_id": "54d77f58e0454551efec34bbbeb69bea", "name": "54d77f58e0454551efec34bbbeb69bea", "is_reserved": 0, "fusion_lat": 0.0}, {"type": "electric_scooter", "rental_uris": {"ios": "https://dc.lft.to/lastmile_qr_scan", "android": "https://dc.lft.to/lastmile_qr_scan"}, "lon": -77.05273066666666, "fusion_lon": 0.0, "is_disabled": 0, "lat": 38.92544633333333, "bike_id": "c83263ddfa5b6cb20bfcdab9a0dc130e", "name": "c83263ddfa5b6cb20bfcdab9a0dc130e", "is_reserved": 0, "fusion_lat": 0.0}, {"type": "electric_scooter", "rental_uris": {"ios": "https://dc.lft.to/lastmile_qr_scan", "android": "https://dc.lft.to/lastmile_qr_scan"}, "lon": -77.03803183333333, "fusion_lon": 0.0, "is_disabled": 0, "lat": 38.9066985, "bike_id": "a3cf0dc19610e80978e18117bd18f799", "name": "a3cf0dc19610e80978e18117bd18f799", "is_reserved": 0, "fusion_lat": 0.0}, {"type": "electric_scooter", "rental_uris": {"ios": "https://dc.lft.to/lastmile_qr_scan", "android": "https://dc.lft.to/lastmile_qr_scan"}, "lon": -77.01430283333333, "fusion_lon": 0.0, "is_disabled": 0, "lat": 38.914546666666666, "bike_id": "d9a0e3d8753ddbcab3d36681e600065f", "name": "d9a0e3d8753ddbcab3d36681e600065f", "is_reserved": 0, "fusion_lat": 0.0}, {"type": "electric_scooter", "rental_uris": {"ios": "https://dc.lft.to/lastmile_qr_scan", "android": "https://dc.lft.to/lastmile_qr_scan"}, "lon": -77.0222985, "fusion_lon": 0.0, "is_disabled": 0, "lat": 38.912520666666666, "bike_id": "e9ecbc31c0ba1ded14417acf0f9c451e", "name": "e9ecbc31c0ba1ded14417acf0f9c451e", "is_reserved": 0, "fusion_lat": 0.0}, {"type": "electric_bike", "rental_uris": {"ios": "https://dc.lft.to/lastmile_qr_scan", "android": "https://dc.lft.to/lastmile_qr_scan"}, "lon": -76.96261533333333, "fusion_lon": 0.0, "is_disabled": 0, "lat": 38.88243666666666, "bike_id": "562320e1822c66e97f56bbd942dfa3b4", "name": "562320e1822c66e97f56bbd942dfa3b4", "is_reserved": 0, "fusion_lat": 0.0}, {"type": "electric_scooter", "rental_uris": {"ios": "https://dc.lft.to/lastmile_qr_scan", "android": "https://dc.lft.to/lastmile_qr_scan"}, "lon": -76.98696333333334, "fusion_lon": 0.0, "is_disabled": 0, "lat": 38.907053, "bike_id": "49c16c96b0c5d3b613280d6e8630398f", "name": "49c16c96b0c5d3b613280d6e8630398f", "is_reserved": 0, "fusion_lat": 0.0}, {"type": "electric_scooter", "rental_uris": {"ios": "https://dc.lft.to/lastmile_qr_scan", "android": "https://dc.lft.to/lastmile_qr_scan"}, "lon": -77.02964583333333, "fusion_lon": 0.0, "is_disabled": 0, "lat": 38.9258625, "bike_id": "e109425c817aea68d974aaf878108d1f", "name": "e109425c817aea68d974aaf878108d1f", "is_reserved": 0, "fusion_lat": 0.0}, {"type": "electric_scooter", "rental_uris": {"ios": "https://dc.lft.to/lastmile_qr_scan", "android": "https://dc.lft.to/lastmile_qr_scan"}, "lon": -77.043896, "fusion_lon": 0.0, "is_disabled": 0, "lat": 38.910714166666665, "bike_id": "bf0cc0a4b8a882c72b64626979210945", "name": "bf0cc0a4b8a882c72b64626979210945", "is_reserved": 0, "fusion_lat": 0.0}, {"type": "electric_scooter", "rental_uris": {"ios": "https://dc.lft.to/lastmile_qr_scan", "android": "https://dc.lft.to/lastmile_qr_scan"}, "lon": -77.03968533333334, "fusion_lon": 0.0, "is_disabled": 0, "lat": 38.896319, "bike_id": "c180a348c71424c2f37ff3d2647c8872", "name": "c180a348c71424c2f37ff3d2647c8872", "is_reserved": 0, "fusion_lat": 0.0}, {"type": "electric_bike", "rental_uris": {"ios": "https://dc.lft.to/lastmile_qr_scan", "android": "https://dc.lft.to/lastmile_qr_scan"}, "lon": -76.97831333333333, "fusion_lon": 0.0, "is_disabled": 0, "lat": 38.87072216666667, "bike_id": "23a3e94328b5976ae5addf37be8255d1", "name": "23a3e94328b5976ae5addf37be8255d1", "is_reserved": 0, "fusion_lat": 0.0}, {"type": "electric_scooter", "rental_uris": {"ios": "https://dc.lft.to/lastmile_qr_scan", "android": "https://dc.lft.to/lastmile_qr_scan"}, "lon": -76.954144, "fusion_lon": 0.0, "is_disabled": 0, "lat": 38.8905715, "bike_id": "3fc138e781b92e7979db14257397896a", "name": "3fc138e781b92e7979db14257397896a", "is_reserved": 0, "fusion_lat": 0.0}, {"type": "electric_scooter", "rental_uris": {"ios": "https://dc.lft.to/lastmile_qr_scan", "android": "https://dc.lft.to/lastmile_qr_scan"}, "lon": -77.04198616666666, "fusion_lon": 0.0, "is_disabled": 0, "lat": 38.90554133333333, "bike_id": "9f3ddad1643ebbf748db80514bd6d25b", "name": "9f3ddad1643ebbf748db80514bd6d25b", "is_reserved": 0, "fusion_lat": 0.0}, {"type": "electric_scooter", "rental_uris": {"ios": "https://dc.lft.to/lastmile_qr_scan", "android": "https://dc.lft.to/lastmile_qr_scan"}, "lon": -77.02717833333334, "fusion_lon": 0.0, "is_disabled": 0, "lat": 38.901244166666665, "bike_id": "8af74420b6b9e1a38bb6108950d02792", "name": "8af74420b6b9e1a38bb6108950d02792", "is_reserved": 0, "fusion_lat": 0.0}, {"type": "electric_scooter", "rental_uris": {"ios": "https://dc.lft.to/lastmile_qr_scan", "android": "https://dc.lft.to/lastmile_qr_scan"}, "lon": -77.05221616666667, "fusion_lon": 0.0, "is_disabled": 0, "lat": 38.924894333333334, "bike_id": "2f9569dea58b687caedf1f16a5180b45", "name": "2f9569dea58b687caedf1f16a5180b45", "is_reserved": 0, "fusion_lat": 0.0}, {"type": "electric_scooter", "rental_uris": {"ios": "https://dc.lft.to/lastmile_qr_scan", "android": "https://dc.lft.to/lastmile_qr_scan"}, "lon": -77.03195333333333, "fusion_lon": 0.0, "is_disabled": 0, "lat": 38.9173625, "bike_id": "d8cad98f8a02ea119d6e5cc5aabb5112", "name": "d8cad98f8a02ea119d6e5cc5aabb5112", "is_reserved": 0, "fusion_lat": 0.0}, {"type": "electric_scooter", "rental_uris": {"ios": "https://dc.lft.to/lastmile_qr_scan", "android": "https://dc.lft.to/lastmile_qr_scan"}, "lon": -77.03234866666666, "fusion_lon": 0.0, "is_disabled": 0, "lat": 38.90858566666667, "bike_id": "2dcbabf3acf322e95cce940cf7083010", "name": "2dcbabf3acf322e95cce940cf7083010", "is_reserved": 0, "fusion_lat": 0.0}, {"type": "electric_scooter", "rental_uris": {"ios": "https://dc.lft.to/lastmile_qr_scan", "android": "https://dc.lft.to/lastmile_qr_scan"}, "lon": -76.999048, "fusion_lon": 0.0, "is_disabled": 0, "lat": 38.9482285, "bike_id": "6492d92d0978a7406bb7749802b80f04", "name": "6492d92d0978a7406bb7749802b80f04", "is_reserved": 0, "fusion_lat": 0.0}, {"type": "electric_scooter", "rental_uris": {"ios": "https://dc.lft.to/lastmile_qr_scan", "android": "https://dc.lft.to/lastmile_qr_scan"}, "lon": -77.06031316666666, "fusion_lon": 0.0, "is_disabled": 0, "lat": 38.94467516666667, "bike_id": "add0e1370c9c1e68aedb0cb71248fab2", "name": "add0e1370c9c1e68aedb0cb71248fab2", "is_reserved": 0, "fusion_lat": 0.0}, {"type": "electric_scooter", "rental_uris": {"ios": "https://dc.lft.to/lastmile_qr_scan", "android": "https://dc.lft.to/lastmile_qr_scan"}, "lon": -77.0606055, "fusion_lon": 0.0, "is_disabled": 0, "lat": 38.902168833333334, "bike_id": "9ff4dbd6678bac80444d0a767cd26039", "name": "9ff4dbd6678bac80444d0a767cd26039", "is_reserved": 0, "fusion_lat": 0.0}, {"type": "electric_scooter", "rental_uris": {"ios": "https://dc.lft.to/lastmile_qr_scan", "android": "https://dc.lft.to/lastmile_qr_scan"}, "lon": -77.02199033333333, "fusion_lon": 0.0, "is_disabled": 0, "lat": 38.914895, "bike_id": "1e97f5dcabfaf94f0e0531e98c87d5ce", "name": "1e97f5dcabfaf94f0e0531e98c87d5ce", "is_reserved": 0, "fusion_lat": 0.0}, {"type": "electric_scooter", "rental_uris": {"ios": "https://dc.lft.to/lastmile_qr_scan", "android": "https://dc.lft.to/lastmile_qr_scan"}, "lon": -76.936086, "fusion_lon": 0.0, "is_disabled": 0, "lat": 38.89677483333333, "bike_id": "d5602cf824e4cf728ac9e24761bb1436", "name": "d5602cf824e4cf728ac9e24761bb1436", "is_reserved": 0, "fusion_lat": 0.0}, {"type": "electric_scooter", "rental_uris": {"ios": "https://dc.lft.to/lastmile_qr_scan", "android": "https://dc.lft.to/lastmile_qr_scan"}, "lon": -76.990031, "fusion_lon": 0.0, "is_disabled": 0, "lat": 38.86342483333333, "bike_id": "cde61368683b6458931383e324d03af0", "name": "cde61368683b6458931383e324d03af0", "is_reserved": 0, "fusion_lat": 0.0}, {"type": "electric_scooter", "rental_uris": {"ios": "https://dc.lft.to/lastmile_qr_scan", "android": "https://dc.lft.to/lastmile_qr_scan"}, "lon": -76.933686, "fusion_lon": 0.0, "is_disabled": 0, "lat": 38.899238, "bike_id": "aaa471130d5ca6927d573bf3614de371", "name": "aaa471130d5ca6927d573bf3614de371", "is_reserved": 0, "fusion_lat": 0.0}, {"type": "electric_bike", "rental_uris": {"ios": "https://dc.lft.to/lastmile_qr_scan", "android": "https://dc.lft.to/lastmile_qr_scan"}, "lon": -77.08167716666667, "fusion_lon": 0.0, "is_disabled": 0, "lat": 38.888760166666664, "bike_id": "5eedbbeefac98647b394143b9fb2bfec", "name": "5eedbbeefac98647b394143b9fb2bfec", "is_reserved": 0, "fusion_lat": 0.0}, {"type": "electric_scooter", "rental_uris": {"ios": "https://dc.lft.to/lastmile_qr_scan", "android": "https://dc.lft.to/lastmile_qr_scan"}, "lon": -77.02727916666667, "fusion_lon": 0.0, "is_disabled": 0, "lat": 38.90674683333334, "bike_id": "f0577ab51a09c34ed5f5bc8041bd6dcd", "name": "f0577ab51a09c34ed5f5bc8041bd6dcd", "is_reserved": 0, "fusion_lat": 0.0}, {"type": "electric_scooter", "rental_uris": {"ios": "https://dc.lft.to/lastmile_qr_scan", "android": "https://dc.lft.to/lastmile_qr_scan"}, "lon": -77.034419, "fusion_lon": 0.0, "is_disabled": 0, "lat": 38.9184545, "bike_id": "767332f28ea076060417485ff2c39f8c", "name": "767332f28ea076060417485ff2c39f8c", "is_reserved": 0, "fusion_lat": 0.0}, {"type": "electric_bike", "rental_uris": {"ios": "https://dc.lft.to/lastmile_qr_scan", "android": "https://dc.lft.to/lastmile_qr_scan"}, "lon": -76.93543566666666, "fusion_lon": 0.0, "is_disabled": 0, "lat": 38.955519, "bike_id": "6e4d827474b63f121d409150a25cc436", "name": "6e4d827474b63f121d409150a25cc436", "is_reserved": 0, "fusion_lat": 0.0}, {"type": "electric_bike", "rental_uris": {"ios": "https://dc.lft.to/lastmile_qr_scan", "android": "https://dc.lft.to/lastmile_qr_scan"}, "lon": -77.0365115, "fusion_lon": 0.0, "is_disabled": 0, "lat": 38.95569883333334, "bike_id": "f99419744dbad6f146c98b9a805068f7", "name": "f99419744dbad6f146c98b9a805068f7", "is_reserved": 0, "fusion_lat": 0.0}, {"type": "electric_scooter", "rental_uris": {"ios": "https://dc.lft.to/lastmile_qr_scan", "android": "https://dc.lft.to/lastmile_qr_scan"}, "lon": -77.02973733333333, "fusion_lon": 0.0, "is_disabled": 0, "lat": 38.922771833333336, "bike_id": "1c8ad7b79e2b1473fec99587036adda2", "name": "1c8ad7b79e2b1473fec99587036adda2", "is_reserved": 0, "fusion_lat": 0.0}, {"type": "electric_bike", "rental_uris": {"ios": "https://dc.lft.to/lastmile_qr_scan", "android": "https://dc.lft.to/lastmile_qr_scan"}, "lon": -77.0692725, "fusion_lon": 0.0, "is_disabled": 0, "lat": 38.95552416666666, "bike_id": "230400e58573206b74d14b64491ad3d4", "name": "230400e58573206b74d14b64491ad3d4", "is_reserved": 0, "fusion_lat": 0.0}, {"type": "electric_scooter", "rental_uris": {"ios": "https://dc.lft.to/lastmile_qr_scan", "android": "https://dc.lft.to/lastmile_qr_scan"}, "lon": -77.03325733333334, "fusion_lon": 0.0, "is_disabled": 0, "lat": 38.91263133333333, "bike_id": "fec3961649859758dcb66681a9f9d8a9", "name": "fec3961649859758dcb66681a9f9d8a9", "is_reserved": 0, "fusion_lat": 0.0}, {"type": "electric_scooter", "rental_uris": {"ios": "https://dc.lft.to/lastmile_qr_scan", "android": "https://dc.lft.to/lastmile_qr_scan"}, "lon": -77.00841916666667, "fusion_lon": 0.0, "is_disabled": 0, "lat": 38.87064983333333, "bike_id": "3060a4b519e38e9464da03971b20c0cf", "name": "3060a4b519e38e9464da03971b20c0cf", "is_reserved": 0, "fusion_lat": 0.0}, {"type": "electric_scooter", "rental_uris": {"ios": "https://dc.lft.to/lastmile_qr_scan", "android": "https://dc.lft.to/lastmile_qr_scan"}, "lon": -77.04039766666666, "fusion_lon": 0.0, "is_disabled": 0, "lat": 38.8988885, "bike_id": "97436681d580bccfcc8023b27e119b11", "name": "97436681d580bccfcc8023b27e119b11", "is_reserved": 0, "fusion_lat": 0.0}, {"type": "electric_scooter", "rental_uris": {"ios": "https://dc.lft.to/lastmile_qr_scan", "android": "https://dc.lft.to/lastmile_qr_scan"}, "lon": -77.0219635, "fusion_lon": 0.0, "is_disabled": 0, "lat": 38.905107, "bike_id": "679397b3d57d58a954332deaa1117d8f", "name": "679397b3d57d58a954332deaa1117d8f", "is_reserved": 0, "fusion_lat": 0.0}, {"type": "electric_scooter", "rental_uris": {"ios": "https://dc.lft.to/lastmile_qr_scan", "android": "https://dc.lft.to/lastmile_qr_scan"}, "lon": -77.06305333333333, "fusion_lon": 0.0, "is_disabled": 0, "lat": 38.90395983333333, "bike_id": "8ae7cce99b79cca1a7480486b5df8a2f", "name": "8ae7cce99b79cca1a7480486b5df8a2f", "is_reserved": 0, "fusion_lat": 0.0}, {"type": "electric_scooter", "rental_uris": {"ios": "https://dc.lft.to/lastmile_qr_scan", "android": "https://dc.lft.to/lastmile_qr_scan"}, "lon": -77.02161516666666, "fusion_lon": 0.0, "is_disabled": 0, "lat": 38.9260905, "bike_id": "8309f85cf859291432a513d251e011b2", "name": "8309f85cf859291432a513d251e011b2", "is_reserved": 0, "fusion_lat": 0.0}, {"type": "electric_scooter", "rental_uris": {"ios": "https://dc.lft.to/lastmile_qr_scan", "android": "https://dc.lft.to/lastmile_qr_scan"}, "lon": -77.03659733333333, "fusion_lon": 0.0, "is_disabled": 0, "lat": 38.9171115, "bike_id": "f07a7f94dbafebdc7c04a1c870218640", "name": "f07a7f94dbafebdc7c04a1c870218640", "is_reserved": 0, "fusion_lat": 0.0}, {"type": "electric_scooter", "rental_uris": {"ios": "https://dc.lft.to/lastmile_qr_scan", "android": "https://dc.lft.to/lastmile_qr_scan"}, "lon": -77.00335683333333, "fusion_lon": 0.0, "is_disabled": 0, "lat": 38.88735283333333, "bike_id": "b6c6a1a56817d5163bd77b0e5fde7511", "name": "b6c6a1a56817d5163bd77b0e5fde7511", "is_reserved": 0, "fusion_lat": 0.0}, {"type": "electric_scooter", "rental_uris": {"ios": "https://dc.lft.to/lastmile_qr_scan", "android": "https://dc.lft.to/lastmile_qr_scan"}, "lon": -77.04034583333333, "fusion_lon": 0.0, "is_disabled": 0, "lat": 38.91853416666667, "bike_id": "1b9bda71a6ea64def1adeb08d6f8ec18", "name": "1b9bda71a6ea64def1adeb08d6f8ec18", "is_reserved": 0, "fusion_lat": 0.0}, {"type": "electric_scooter", "rental_uris": {"ios": "https://dc.lft.to/lastmile_qr_scan", "android": "https://dc.lft.to/lastmile_qr_scan"}, "lon": -77.03874866666666, "fusion_lon": 0.0, "is_disabled": 0, "lat": 38.92146483333333, "bike_id": "7538f6a0861f0602d95ad104c0e8abac", "name": "7538f6a0861f0602d95ad104c0e8abac", "is_reserved": 0, "fusion_lat": 0.0}, {"type": "electric_scooter", "rental_uris": {"ios": "https://dc.lft.to/lastmile_qr_scan", "android": "https://dc.lft.to/lastmile_qr_scan"}, "lon": -77.02570733333333, "fusion_lon": 0.0, "is_disabled": 0, "lat": 38.91405916666667, "bike_id": "5f40986a7a1a441c83cf7dbcb5d97709", "name": "5f40986a7a1a441c83cf7dbcb5d97709", "is_reserved": 0, "fusion_lat": 0.0}, {"type": "electric_scooter", "rental_uris": {"ios": "https://dc.lft.to/lastmile_qr_scan", "android": "https://dc.lft.to/lastmile_qr_scan"}, "lon": -77.043934, "fusion_lon": 0.0, "is_disabled": 0, "lat": 38.92345, "bike_id": "029dddb7a7322d1860b6fbb1cf6e6eb8", "name": "029dddb7a7322d1860b6fbb1cf6e6eb8", "is_reserved": 0, "fusion_lat": 0.0}, {"type": "electric_scooter", "rental_uris": {"ios": "https://dc.lft.to/lastmile_qr_scan", "android": "https://dc.lft.to/lastmile_qr_scan"}, "lon": -77.03162333333333, "fusion_lon": 0.0, "is_disabled": 0, "lat": 38.92367016666667, "bike_id": "336d653184ca3b48a1c480a321a6ce80", "name": "336d653184ca3b48a1c480a321a6ce80", "is_reserved": 0, "fusion_lat": 0.0}, {"type": "electric_scooter", "rental_uris": {"ios": "https://dc.lft.to/lastmile_qr_scan", "android": "https://dc.lft.to/lastmile_qr_scan"}, "lon": -76.98372666666667, "fusion_lon": 0.0, "is_disabled": 0, "lat": 38.861056833333336, "bike_id": "5951f18feb851b63f64369e7d92bc688", "name": "5951f18feb851b63f64369e7d92bc688", "is_reserved": 0, "fusion_lat": 0.0}, {"type": "electric_scooter", "rental_uris": {"ios": "https://dc.lft.to/lastmile_qr_scan", "android": "https://dc.lft.to/lastmile_qr_scan"}, "lon": -76.97228016666666, "fusion_lon": 0.0, "is_disabled": 0, "lat": 38.854600166666664, "bike_id": "e22c1c543967572124444f2593be8382", "name": "e22c1c543967572124444f2593be8382", "is_reserved": 0, "fusion_lat": 0.0}, {"type": "electric_scooter", "rental_uris": {"ios": "https://dc.lft.to/lastmile_qr_scan", "android": "https://dc.lft.to/lastmile_qr_scan"}, "lon": -77.02693783333333, "fusion_lon": 0.0, "is_disabled": 0, "lat": 38.91122416666666, "bike_id": "bd809463a0500c0d1f94194f2f3e1ba9", "name": "bd809463a0500c0d1f94194f2f3e1ba9", "is_reserved": 0, "fusion_lat": 0.0}, {"type": "electric_scooter", "rental_uris": {"ios": "https://dc.lft.to/lastmile_qr_scan", "android": "https://dc.lft.to/lastmile_qr_scan"}, "lon": -76.992504, "fusion_lon": 0.0, "is_disabled": 0, "lat": 38.86382166666667, "bike_id": "08e90da7403b0b7e26f6149801f4b716", "name": "08e90da7403b0b7e26f6149801f4b716", "is_reserved": 0, "fusion_lat": 0.0}, {"type": "electric_scooter", "rental_uris": {"ios": "https://dc.lft.to/lastmile_qr_scan", "android": "https://dc.lft.to/lastmile_qr_scan"}, "lon": -77.021946, "fusion_lon": 0.0, "is_disabled": 0, "lat": 38.9165945, "bike_id": "affaea5529caa0ac3a2ae95167f5f8ff", "name": "affaea5529caa0ac3a2ae95167f5f8ff", "is_reserved": 0, "fusion_lat": 0.0}, {"type": "electric_scooter", "rental_uris": {"ios": "https://dc.lft.to/lastmile_qr_scan", "android": "https://dc.lft.to/lastmile_qr_scan"}, "lon": -77.03806433333334, "fusion_lon": 0.0, "is_disabled": 0, "lat": 38.9096115, "bike_id": "7ee16ed66ba14f171199b46d75d098df", "name": "7ee16ed66ba14f171199b46d75d098df", "is_reserved": 0, "fusion_lat": 0.0}, {"type": "electric_scooter", "rental_uris": {"ios": "https://dc.lft.to/lastmile_qr_scan", "android": "https://dc.lft.to/lastmile_qr_scan"}, "lon": -77.02697466666666, "fusion_lon": 0.0, "is_disabled": 0, "lat": 38.918218833333334, "bike_id": "2818e2b4e165dd0718352ee373b3dc19", "name": "2818e2b4e165dd0718352ee373b3dc19", "is_reserved": 0, "fusion_lat": 0.0}, {"type": "electric_scooter", "rental_uris": {"ios": "https://dc.lft.to/lastmile_qr_scan", "android": "https://dc.lft.to/lastmile_qr_scan"}, "lon": -77.01683166666666, "fusion_lon": 0.0, "is_disabled": 0, "lat": 38.9072385, "bike_id": "818d52d25d90b2ba2aaa167b30720a0b", "name": "818d52d25d90b2ba2aaa167b30720a0b", "is_reserved": 0, "fusion_lat": 0.0}, {"type": "electric_bike", "rental_uris": {"ios": "https://dc.lft.to/lastmile_qr_scan", "android": "https://dc.lft.to/lastmile_qr_scan"}, "lon": -77.03267816666667, "fusion_lon": 0.0, "is_disabled": 0, "lat": 38.902299666666664, "bike_id": "3da41a63573e795a4ed9ec1d602216af", "name": "3da41a63573e795a4ed9ec1d602216af", "is_reserved": 0, "fusion_lat": 0.0}, {"type": "electric_scooter", "rental_uris": {"ios": "https://dc.lft.to/lastmile_qr_scan", "android": "https://dc.lft.to/lastmile_qr_scan"}, "lon": -77.01485966666667, "fusion_lon": 0.0, "is_disabled": 0, "lat": 38.88815683333333, "bike_id": "991f4ae72a53ad1a9989dccf794d1024", "name": "991f4ae72a53ad1a9989dccf794d1024", "is_reserved": 0, "fusion_lat": 0.0}, {"type": "electric_scooter", "rental_uris": {"ios": "https://dc.lft.to/lastmile_qr_scan", "android": "https://dc.lft.to/lastmile_qr_scan"}, "lon": -76.93185716666666, "fusion_lon": 0.0, "is_disabled": 0, "lat": 38.898714, "bike_id": "e9cd7c97020f59a4f42d9327e09bdedd", "name": "e9cd7c97020f59a4f42d9327e09bdedd", "is_reserved": 0, "fusion_lat": 0.0}, {"type": "electric_bike", "rental_uris": {"ios": "https://dc.lft.to/lastmile_qr_scan", "android": "https://dc.lft.to/lastmile_qr_scan"}, "lon": -77.10129933333333, "fusion_lon": 0.0, "is_disabled": 0, "lat": 38.85197333333333, "bike_id": "a947367fea3ac9936108b16472855b0b", "name": "a947367fea3ac9936108b16472855b0b", "is_reserved": 0, "fusion_lat": 0.0}, {"type": "electric_scooter", "rental_uris": {"ios": "https://dc.lft.to/lastmile_qr_scan", "android": "https://dc.lft.to/lastmile_qr_scan"}, "lon": -77.00574783333333, "fusion_lon": 0.0, "is_disabled": 0, "lat": 38.905574333333334, "bike_id": "500bbf26fba244a5b712a8e75f656e5d", "name": "500bbf26fba244a5b712a8e75f656e5d", "is_reserved": 0, "fusion_lat": 0.0}, {"type": "electric_scooter", "rental_uris": {"ios": "https://dc.lft.to/lastmile_qr_scan", "android": "https://dc.lft.to/lastmile_qr_scan"}, "lon": -77.033428, "fusion_lon": 0.0, "is_disabled": 0, "lat": 38.917120833333335, "bike_id": "b27f6810dce91bfad91edfda84f6133f", "name": "b27f6810dce91bfad91edfda84f6133f", "is_reserved": 0, "fusion_lat": 0.0}, {"type": "electric_scooter", "rental_uris": {"ios": "https://dc.lft.to/lastmile_qr_scan", "android": "https://dc.lft.to/lastmile_qr_scan"}, "lon": -77.03093666666666, "fusion_lon": 0.0, "is_disabled": 0, "lat": 38.879156333333334, "bike_id": "500c9fd573577ca37f56e3488f1a5811", "name": "500c9fd573577ca37f56e3488f1a5811", "is_reserved": 0, "fusion_lat": 0.0}, {"type": "electric_scooter", "rental_uris": {"ios": "https://dc.lft.to/lastmile_qr_scan", "android": "https://dc.lft.to/lastmile_qr_scan"}, "lon": -77.0271955, "fusion_lon": 0.0, "is_disabled": 0, "lat": 38.9247695, "bike_id": "ab506e1746284ce031bc6a9b83d82691", "name": "ab506e1746284ce031bc6a9b83d82691", "is_reserved": 0, "fusion_lat": 0.0}, {"type": "electric_scooter", "rental_uris": {"ios": "https://dc.lft.to/lastmile_qr_scan", "android": "https://dc.lft.to/lastmile_qr_scan"}, "lon": -77.02662283333333, "fusion_lon": 0.0, "is_disabled": 0, "lat": 38.91701966666667, "bike_id": "f7fb5b630c12cdda4e7c19f3330a71cc", "name": "f7fb5b630c12cdda4e7c19f3330a71cc", "is_reserved": 0, "fusion_lat": 0.0}, {"type": "electric_scooter", "rental_uris": {"ios": "https://dc.lft.to/lastmile_qr_scan", "android": "https://dc.lft.to/lastmile_qr_scan"}, "lon": -77.04198533333333, "fusion_lon": 0.0, "is_disabled": 0, "lat": 38.9055505, "bike_id": "b2d52a7f7111e9524952379ecb99f2bf", "name": "b2d52a7f7111e9524952379ecb99f2bf", "is_reserved": 0, "fusion_lat": 0.0}, {"type": "electric_bike", "rental_uris": {"ios": "https://dc.lft.to/lastmile_qr_scan", "android": "https://dc.lft.to/lastmile_qr_scan"}, "lon": -77.06967583333333, "fusion_lon": 0.0, "is_disabled": 0, "lat": 38.97087966666667, "bike_id": "925e6abdedaf7ebd61a432011d26933c", "name": "925e6abdedaf7ebd61a432011d26933c", "is_reserved": 0, "fusion_lat": 0.0}, {"type": "electric_scooter", "rental_uris": {"ios": "https://dc.lft.to/lastmile_qr_scan", "android": "https://dc.lft.to/lastmile_qr_scan"}, "lon": -77.026163, "fusion_lon": 0.0, "is_disabled": 0, "lat": 38.905553166666664, "bike_id": "c08635769ccd35117eda3ddfd46bfdc3", "name": "c08635769ccd35117eda3ddfd46bfdc3", "is_reserved": 0, "fusion_lat": 0.0}, {"type": "electric_scooter", "rental_uris": {"ios": "https://dc.lft.to/lastmile_qr_scan", "android": "https://dc.lft.to/lastmile_qr_scan"}, "lon": -77.02697083333334, "fusion_lon": 0.0, "is_disabled": 0, "lat": 38.906653166666665, "bike_id": "af7a3a7f279b79bdd1066494f56dd282", "name": "af7a3a7f279b79bdd1066494f56dd282", "is_reserved": 0, "fusion_lat": 0.0}, {"type": "electric_bike", "rental_uris": {"ios": "https://dc.lft.to/lastmile_qr_scan", "android": "https://dc.lft.to/lastmile_qr_scan"}, "lon": -76.96802316666667, "fusion_lon": 0.0, "is_disabled": 0, "lat": 38.9553, "bike_id": "3e57936eaf5f3ad60ce25667b4df315d", "name": "3e57936eaf5f3ad60ce25667b4df315d", "is_reserved": 0, "fusion_lat": 0.0}, {"type": "electric_scooter", "rental_uris": {"ios": "https://dc.lft.to/lastmile_qr_scan", "android": "https://dc.lft.to/lastmile_qr_scan"}, "lon": -77.02325066666667, "fusion_lon": 0.0, "is_disabled": 0, "lat": 38.930563666666664, "bike_id": "b4f0d909893f336d10d2aae9220774e7", "name": "b4f0d909893f336d10d2aae9220774e7", "is_reserved": 0, "fusion_lat": 0.0}, {"type": "electric_scooter", "rental_uris": {"ios": "https://dc.lft.to/lastmile_qr_scan", "android": "https://dc.lft.to/lastmile_qr_scan"}, "lon": -76.969821, "fusion_lon": 0.0, "is_disabled": 0, "lat": 38.919512, "bike_id": "b40a9df67d8c333ee6bb0bca14fa7f34", "name": "b40a9df67d8c333ee6bb0bca14fa7f34", "is_reserved": 0, "fusion_lat": 0.0}, {"type": "electric_scooter", "rental_uris": {"ios": "https://dc.lft.to/lastmile_qr_scan", "android": "https://dc.lft.to/lastmile_qr_scan"}, "lon": -77.04354033333334, "fusion_lon": 0.0, "is_disabled": 0, "lat": 38.92229366666667, "bike_id": "b5e92dcef822d9e9e059ee5f17279d6a", "name": "b5e92dcef822d9e9e059ee5f17279d6a", "is_reserved": 0, "fusion_lat": 0.0}, {"type": "electric_scooter", "rental_uris": {"ios": "https://dc.lft.to/lastmile_qr_scan", "android": "https://dc.lft.to/lastmile_qr_scan"}, "lon": -77.04024316666667, "fusion_lon": 0.0, "is_disabled": 0, "lat": 38.924392166666664, "bike_id": "2c82884a5939871022e32a537c5fd802", "name": "2c82884a5939871022e32a537c5fd802", "is_reserved": 0, "fusion_lat": 0.0}, {"type": "electric_bike", "rental_uris": {"ios": "https://dc.lft.to/lastmile_qr_scan", "android": "https://dc.lft.to/lastmile_qr_scan"}, "lon": -77.07917, "fusion_lon": 0.0, "is_disabled": 0, "lat": 38.8022615, "bike_id": "d391b49418ee825360733c7858502381", "name": "d391b49418ee825360733c7858502381", "is_reserved": 0, "fusion_lat": 0.0}, {"type": "electric_scooter", "rental_uris": {"ios": "https://dc.lft.to/lastmile_qr_scan", "android": "https://dc.lft.to/lastmile_qr_scan"}, "lon": -77.034777, "fusion_lon": 0.0, "is_disabled": 0, "lat": 38.884821333333335, "bike_id": "4cf2a55ef799070161b5541b8e0b95b1", "name": "4cf2a55ef799070161b5541b8e0b95b1", "is_reserved": 0, "fusion_lat": 0.0}, {"type": "electric_scooter", "rental_uris": {"ios": "https://dc.lft.to/lastmile_qr_scan", "android": "https://dc.lft.to/lastmile_qr_scan"}, "lon": -76.99033166666666, "fusion_lon": 0.0, "is_disabled": 0, "lat": 38.86364066666667, "bike_id": "ca6cd42c406f4a12c52f519738a9ac47", "name": "ca6cd42c406f4a12c52f519738a9ac47", "is_reserved": 0, "fusion_lat": 0.0}, {"type": "electric_scooter", "rental_uris": {"ios": "https://dc.lft.to/lastmile_qr_scan", "android": "https://dc.lft.to/lastmile_qr_scan"}, "lon": -77.03326016666666, "fusion_lon": 0.0, "is_disabled": 0, "lat": 38.91262916666667, "bike_id": "5e10b24a503844eb9d7b0c0930f89dcd", "name": "5e10b24a503844eb9d7b0c0930f89dcd", "is_reserved": 0, "fusion_lat": 0.0}, {"type": "electric_scooter", "rental_uris": {"ios": "https://dc.lft.to/lastmile_qr_scan", "android": "https://dc.lft.to/lastmile_qr_scan"}, "lon": -77.04335566666667, "fusion_lon": 0.0, "is_disabled": 0, "lat": 38.9023775, "bike_id": "8465c85659958307f7805ad439aeb89b", "name": "8465c85659958307f7805ad439aeb89b", "is_reserved": 0, "fusion_lat": 0.0}, {"type": "electric_scooter", "rental_uris": {"ios": "https://dc.lft.to/lastmile_qr_scan", "android": "https://dc.lft.to/lastmile_qr_scan"}, "lon": -77.01478216666666, "fusion_lon": 0.0, "is_disabled": 0, "lat": 38.9267635, "bike_id": "90f16b556d2af6f78dde5ec7078331cc", "name": "90f16b556d2af6f78dde5ec7078331cc", "is_reserved": 0, "fusion_lat": 0.0}, {"type": "electric_scooter", "rental_uris": {"ios": "https://dc.lft.to/lastmile_qr_scan", "android": "https://dc.lft.to/lastmile_qr_scan"}, "lon": -77.01460433333334, "fusion_lon": 0.0, "is_disabled": 0, "lat": 38.877252, "bike_id": "042b42a083cc5ab338797a528090157b", "name": "042b42a083cc5ab338797a528090157b", "is_reserved": 0, "fusion_lat": 0.0}, {"type": "electric_scooter", "rental_uris": {"ios": "https://dc.lft.to/lastmile_qr_scan", "android": "https://dc.lft.to/lastmile_qr_scan"}, "lon": -77.01522216666666, "fusion_lon": 0.0, "is_disabled": 0, "lat": 38.91451216666667, "bike_id": "97a3255b1da931dd3bf4d1b3ade90233", "name": "97a3255b1da931dd3bf4d1b3ade90233", "is_reserved": 0, "fusion_lat": 0.0}, {"type": "electric_scooter", "rental_uris": {"ios": "https://dc.lft.to/lastmile_qr_scan", "android": "https://dc.lft.to/lastmile_qr_scan"}, "lon": -77.04362883333333, "fusion_lon": 0.0, "is_disabled": 0, "lat": 38.921426333333336, "bike_id": "54510bd94d30e21df3b50b20c40126bb", "name": "54510bd94d30e21df3b50b20c40126bb", "is_reserved": 0, "fusion_lat": 0.0}, {"type": "electric_bike", "rental_uris": {"ios": "https://dc.lft.to/lastmile_qr_scan", "android": "https://dc.lft.to/lastmile_qr_scan"}, "lon": -76.98961266666667, "fusion_lon": 0.0, "is_disabled": 0, "lat": 38.867451, "bike_id": "f4b9c5d5a6e8232019f03c59b46e5c6d", "name": "f4b9c5d5a6e8232019f03c59b46e5c6d", "is_reserved": 0, "fusion_lat": 0.0}, {"type": "electric_scooter", "rental_uris": {"ios": "https://dc.lft.to/lastmile_qr_scan", "android": "https://dc.lft.to/lastmile_qr_scan"}, "lon": -77.024945, "fusion_lon": 0.0, "is_disabled": 0, "lat": 38.918023166666664, "bike_id": "5b03f1aa665111005107ff11d5eae0f6", "name": "5b03f1aa665111005107ff11d5eae0f6", "is_reserved": 0, "fusion_lat": 0.0}, {"type": "electric_scooter", "rental_uris": {"ios": "https://dc.lft.to/lastmile_qr_scan", "android": "https://dc.lft.to/lastmile_qr_scan"}, "lon": -77.034797, "fusion_lon": 0.0, "is_disabled": 0, "lat": 38.90445733333333, "bike_id": "1807baa1a497add66e80eec432a50359", "name": "1807baa1a497add66e80eec432a50359", "is_reserved": 0, "fusion_lat": 0.0}, {"type": "electric_bike", "rental_uris": {"ios": "https://dc.lft.to/lastmile_qr_scan", "android": "https://dc.lft.to/lastmile_qr_scan"}, "lon": -77.00193683333333, "fusion_lon": 0.0, "is_disabled": 0, "lat": 38.9414825, "bike_id": "8d4b92d90d7601f016a471686dd8feb3", "name": "8d4b92d90d7601f016a471686dd8feb3", "is_reserved": 0, "fusion_lat": 0.0}, {"type": "electric_scooter", "rental_uris": {"ios": "https://dc.lft.to/lastmile_qr_scan", "android": "https://dc.lft.to/lastmile_qr_scan"}, "lon": -77.0340715, "fusion_lon": 0.0, "is_disabled": 0, "lat": 38.920486833333335, "bike_id": "a60b582aeadfdd8f859888fa378b80b1", "name": "a60b582aeadfdd8f859888fa378b80b1", "is_reserved": 0, "fusion_lat": 0.0}, {"type": "electric_scooter", "rental_uris": {"ios": "https://dc.lft.to/lastmile_qr_scan", "android": "https://dc.lft.to/lastmile_qr_scan"}, "lon": -76.93342483333333, "fusion_lon": 0.0, "is_disabled": 0, "lat": 38.88809783333333, "bike_id": "a90f10e6db6350130027891f2d48bc7d", "name": "a90f10e6db6350130027891f2d48bc7d", "is_reserved": 0, "fusion_lat": 0.0}, {"type": "electric_scooter", "rental_uris": {"ios": "https://dc.lft.to/lastmile_qr_scan", "android": "https://dc.lft.to/lastmile_qr_scan"}, "lon": -77.07065466666667, "fusion_lon": 0.0, "is_disabled": 0, "lat": 38.931728666666665, "bike_id": "99e0a34eccaf7d58e2746f701a5a1e64", "name": "99e0a34eccaf7d58e2746f701a5a1e64", "is_reserved": 0, "fusion_lat": 0.0}, {"type": "electric_scooter", "rental_uris": {"ios": "https://dc.lft.to/lastmile_qr_scan", "android": "https://dc.lft.to/lastmile_qr_scan"}, "lon": -77.03206316666666, "fusion_lon": 0.0, "is_disabled": 0, "lat": 38.908952166666666, "bike_id": "c3eb51e6c9ed40a173c134c2abb1e5c4", "name": "c3eb51e6c9ed40a173c134c2abb1e5c4", "is_reserved": 0, "fusion_lat": 0.0}, {"type": "electric_bike", "rental_uris": {"ios": "https://dc.lft.to/lastmile_qr_scan", "android": "https://dc.lft.to/lastmile_qr_scan"}, "lon": -76.93701966666667, "fusion_lon": 0.0, "is_disabled": 0, "lat": 38.871432, "bike_id": "920d148c6eed32dc26100759921edcd9", "name": "920d148c6eed32dc26100759921edcd9", "is_reserved": 0, "fusion_lat": 0.0}, {"type": "electric_bike", "rental_uris": {"ios": "https://dc.lft.to/lastmile_qr_scan", "android": "https://dc.lft.to/lastmile_qr_scan"}, "lon": -77.00569533333334, "fusion_lon": 0.0, "is_disabled": 0, "lat": 38.839804, "bike_id": "0aee2db8bb53cdb2b667c5e9281455b0", "name": "0aee2db8bb53cdb2b667c5e9281455b0", "is_reserved": 0, "fusion_lat": 0.0}, {"type": "electric_scooter", "rental_uris": {"ios": "https://dc.lft.to/lastmile_qr_scan", "android": "https://dc.lft.to/lastmile_qr_scan"}, "lon": -77.04248566666666, "fusion_lon": 0.0, "is_disabled": 0, "lat": 38.921974166666665, "bike_id": "b30fdf324426226c5e98ead37ea811a9", "name": "b30fdf324426226c5e98ead37ea811a9", "is_reserved": 0, "fusion_lat": 0.0}, {"type": "electric_scooter", "rental_uris": {"ios": "https://dc.lft.to/lastmile_qr_scan", "android": "https://dc.lft.to/lastmile_qr_scan"}, "lon": -76.99679666666667, "fusion_lon": 0.0, "is_disabled": 0, "lat": 38.90727783333333, "bike_id": "a76dcd59508c4d744671590090633639", "name": "a76dcd59508c4d744671590090633639", "is_reserved": 0, "fusion_lat": 0.0}, {"type": "electric_scooter", "rental_uris": {"ios": "https://dc.lft.to/lastmile_qr_scan", "android": "https://dc.lft.to/lastmile_qr_scan"}, "lon": -77.020072, "fusion_lon": 0.0, "is_disabled": 0, "lat": 38.91560416666667, "bike_id": "e6b3f8005f71f45157a37c588353c6b8", "name": "e6b3f8005f71f45157a37c588353c6b8", "is_reserved": 0, "fusion_lat": 0.0}, {"type": "electric_scooter", "rental_uris": {"ios": "https://dc.lft.to/lastmile_qr_scan", "android": "https://dc.lft.to/lastmile_qr_scan"}, "lon": -77.02180683333333, "fusion_lon": 0.0, "is_disabled": 0, "lat": 38.90621183333333, "bike_id": "8c30d5d59d6dec4d1a211e7e05f78ee2", "name": "8c30d5d59d6dec4d1a211e7e05f78ee2", "is_reserved": 0, "fusion_lat": 0.0}, {"type": "electric_scooter", "rental_uris": {"ios": "https://dc.lft.to/lastmile_qr_scan", "android": "https://dc.lft.to/lastmile_qr_scan"}, "lon": -77.02624733333333, "fusion_lon": 0.0, "is_disabled": 0, "lat": 38.89218183333333, "bike_id": "c4a6d431276e2fa934350356213b7ace", "name": "c4a6d431276e2fa934350356213b7ace", "is_reserved": 0, "fusion_lat": 0.0}, {"type": "electric_scooter", "rental_uris": {"ios": "https://dc.lft.to/lastmile_qr_scan", "android": "https://dc.lft.to/lastmile_qr_scan"}, "lon": -77.02188466666666, "fusion_lon": 0.0, "is_disabled": 0, "lat": 38.914722166666664, "bike_id": "4803ca9c97180b5ac26e6da8b0ff3218", "name": "4803ca9c97180b5ac26e6da8b0ff3218", "is_reserved": 0, "fusion_lat": 0.0}, {"type": "electric_scooter", "rental_uris": {"ios": "https://dc.lft.to/lastmile_qr_scan", "android": "https://dc.lft.to/lastmile_qr_scan"}, "lon": -77.03842566666667, "fusion_lon": 0.0, "is_disabled": 0, "lat": 38.917555, "bike_id": "dcfca7cb2a5a18a59d78059871f6fe7b", "name": "dcfca7cb2a5a18a59d78059871f6fe7b", "is_reserved": 0, "fusion_lat": 0.0}, {"type": "electric_scooter", "rental_uris": {"ios": "https://dc.lft.to/lastmile_qr_scan", "android": "https://dc.lft.to/lastmile_qr_scan"}, "lon": -76.94999316666667, "fusion_lon": 0.0, "is_disabled": 0, "lat": 38.893927166666664, "bike_id": "da0dca509446df0439a6f0314d6e7d53", "name": "da0dca509446df0439a6f0314d6e7d53", "is_reserved": 0, "fusion_lat": 0.0}, {"type": "electric_scooter", "rental_uris": {"ios": "https://dc.lft.to/lastmile_qr_scan", "android": "https://dc.lft.to/lastmile_qr_scan"}, "lon": -77.05129116666667, "fusion_lon": 0.0, "is_disabled": 0, "lat": 38.923601, "bike_id": "0a5aae0e32c926756496cdb4b5679221", "name": "0a5aae0e32c926756496cdb4b5679221", "is_reserved": 0, "fusion_lat": 0.0}, {"type": "electric_scooter", "rental_uris": {"ios": "https://dc.lft.to/lastmile_qr_scan", "android": "https://dc.lft.to/lastmile_qr_scan"}, "lon": -77.04028816666667, "fusion_lon": 0.0, "is_disabled": 0, "lat": 38.918038833333334, "bike_id": "ab343d9c3a728e750d2a205479088796", "name": "ab343d9c3a728e750d2a205479088796", "is_reserved": 0, "fusion_lat": 0.0}, {"type": "electric_scooter", "rental_uris": {"ios": "https://dc.lft.to/lastmile_qr_scan", "android": "https://dc.lft.to/lastmile_qr_scan"}, "lon": -77.03144383333333, "fusion_lon": 0.0, "is_disabled": 0, "lat": 38.9110395, "bike_id": "d0b03241f37342cc1f054f4561343901", "name": "d0b03241f37342cc1f054f4561343901", "is_reserved": 0, "fusion_lat": 0.0}, {"type": "electric_scooter", "rental_uris": {"ios": "https://dc.lft.to/lastmile_qr_scan", "android": "https://dc.lft.to/lastmile_qr_scan"}, "lon": -77.05519016666666, "fusion_lon": 0.0, "is_disabled": 0, "lat": 38.944099, "bike_id": "685dd258aedb6e422aa92b59ef465801", "name": "685dd258aedb6e422aa92b59ef465801", "is_reserved": 0, "fusion_lat": 0.0}, {"type": "electric_scooter", "rental_uris": {"ios": "https://dc.lft.to/lastmile_qr_scan", "android": "https://dc.lft.to/lastmile_qr_scan"}, "lon": -77.04166433333333, "fusion_lon": 0.0, "is_disabled": 0, "lat": 38.9188315, "bike_id": "c2b400535b32de00a4d2576aefd79052", "name": "c2b400535b32de00a4d2576aefd79052", "is_reserved": 0, "fusion_lat": 0.0}, {"type": "electric_scooter", "rental_uris": {"ios": "https://dc.lft.to/lastmile_qr_scan", "android": "https://dc.lft.to/lastmile_qr_scan"}, "lon": -77.0233855, "fusion_lon": 0.0, "is_disabled": 0, "lat": 38.91773466666667, "bike_id": "be86acb1fad1d722eb9b177a17093cd6", "name": "be86acb1fad1d722eb9b177a17093cd6", "is_reserved": 0, "fusion_lat": 0.0}, {"type": "electric_scooter", "rental_uris": {"ios": "https://dc.lft.to/lastmile_qr_scan", "android": "https://dc.lft.to/lastmile_qr_scan"}, "lon": -77.0228515, "fusion_lon": 0.0, "is_disabled": 0, "lat": 38.91674033333334, "bike_id": "fe4d85b85a3147a97b5cd6724f2c6d40", "name": "fe4d85b85a3147a97b5cd6724f2c6d40", "is_reserved": 0, "fusion_lat": 0.0}, {"type": "electric_scooter", "rental_uris": {"ios": "https://dc.lft.to/lastmile_qr_scan", "android": "https://dc.lft.to/lastmile_qr_scan"}, "lon": -77.03384516666667, "fusion_lon": 0.0, "is_disabled": 0, "lat": 38.906296166666664, "bike_id": "72a4e203f6cbbb644a9cfe526df168c4", "name": "72a4e203f6cbbb644a9cfe526df168c4", "is_reserved": 0, "fusion_lat": 0.0}, {"type": "electric_bike", "rental_uris": {"ios": "https://dc.lft.to/lastmile_qr_scan", "android": "https://dc.lft.to/lastmile_qr_scan"}, "lon": -77.03446883333334, "fusion_lon": 0.0, "is_disabled": 0, "lat": 38.892223666666666, "bike_id": "d93a75c2583f5a12cd062e4e688d992d", "name": "d93a75c2583f5a12cd062e4e688d992d", "is_reserved": 0, "fusion_lat": 0.0}, {"type": "electric_scooter", "rental_uris": {"ios": "https://dc.lft.to/lastmile_qr_scan", "android": "https://dc.lft.to/lastmile_qr_scan"}, "lon": -77.02667333333333, "fusion_lon": 0.0, "is_disabled": 0, "lat": 38.896306833333334, "bike_id": "05f3173932afbeab13d915e24c3c1301", "name": "05f3173932afbeab13d915e24c3c1301", "is_reserved": 0, "fusion_lat": 0.0}, {"type": "electric_scooter", "rental_uris": {"ios": "https://dc.lft.to/lastmile_qr_scan", "android": "https://dc.lft.to/lastmile_qr_scan"}, "lon": -77.04284566666666, "fusion_lon": 0.0, "is_disabled": 0, "lat": 38.935019833333335, "bike_id": "322852af249ddf5210176cae8af54f2f", "name": "322852af249ddf5210176cae8af54f2f", "is_reserved": 0, "fusion_lat": 0.0}, {"type": "electric_scooter", "rental_uris": {"ios": "https://dc.lft.to/lastmile_qr_scan", "android": "https://dc.lft.to/lastmile_qr_scan"}, "lon": -77.031534, "fusion_lon": 0.0, "is_disabled": 0, "lat": 38.92786133333333, "bike_id": "08eec3290760e3e917c03be8d2922d7a", "name": "08eec3290760e3e917c03be8d2922d7a", "is_reserved": 0, "fusion_lat": 0.0}, {"type": "electric_scooter", "rental_uris": {"ios": "https://dc.lft.to/lastmile_qr_scan", "android": "https://dc.lft.to/lastmile_qr_scan"}, "lon": -77.01975033333333, "fusion_lon": 0.0, "is_disabled": 0, "lat": 38.90243483333333, "bike_id": "c9d566eb24a6c6eb14ca6e07bf94c61d", "name": "c9d566eb24a6c6eb14ca6e07bf94c61d", "is_reserved": 0, "fusion_lat": 0.0}, {"type": "electric_scooter", "rental_uris": {"ios": "https://dc.lft.to/lastmile_qr_scan", "android": "https://dc.lft.to/lastmile_qr_scan"}, "lon": -77.0317535, "fusion_lon": 0.0, "is_disabled": 0, "lat": 38.9154895, "bike_id": "1e30f85c89dd70aaac8245982e6fe97e", "name": "1e30f85c89dd70aaac8245982e6fe97e", "is_reserved": 0, "fusion_lat": 0.0}, {"type": "electric_scooter", "rental_uris": {"ios": "https://dc.lft.to/lastmile_qr_scan", "android": "https://dc.lft.to/lastmile_qr_scan"}, "lon": -77.04334633333333, "fusion_lon": 0.0, "is_disabled": 0, "lat": 38.892227, "bike_id": "edca7f5658eb7c657f498cd4b0892dde", "name": "edca7f5658eb7c657f498cd4b0892dde", "is_reserved": 0, "fusion_lat": 0.0}, {"type": "electric_scooter", "rental_uris": {"ios": "https://dc.lft.to/lastmile_qr_scan", "android": "https://dc.lft.to/lastmile_qr_scan"}, "lon": -76.99849716666667, "fusion_lon": 0.0, "is_disabled": 0, "lat": 38.901591833333335, "bike_id": "94b18e17daf20d6ea05a3718dd1996ad", "name": "94b18e17daf20d6ea05a3718dd1996ad", "is_reserved": 0, "fusion_lat": 0.0}, {"type": "electric_scooter", "rental_uris": {"ios": "https://dc.lft.to/lastmile_qr_scan", "android": "https://dc.lft.to/lastmile_qr_scan"}, "lon": -77.02181333333333, "fusion_lon": 0.0, "is_disabled": 0, "lat": 38.91741283333333, "bike_id": "ec627491f911324de61ca86210944cfb", "name": "ec627491f911324de61ca86210944cfb", "is_reserved": 0, "fusion_lat": 0.0}, {"type": "electric_scooter", "rental_uris": {"ios": "https://dc.lft.to/lastmile_qr_scan", "android": "https://dc.lft.to/lastmile_qr_scan"}, "lon": -77.0450755, "fusion_lon": 0.0, "is_disabled": 0, "lat": 38.91281633333333, "bike_id": "1c32a6fd10c89d12f797390633c97b09", "name": "1c32a6fd10c89d12f797390633c97b09", "is_reserved": 0, "fusion_lat": 0.0}, {"type": "electric_scooter", "rental_uris": {"ios": "https://dc.lft.to/lastmile_qr_scan", "android": "https://dc.lft.to/lastmile_qr_scan"}, "lon": -76.9913875, "fusion_lon": 0.0, "is_disabled": 0, "lat": 38.85950233333333, "bike_id": "a487f44eac54c1b8e7f86506f6c9021f", "name": "a487f44eac54c1b8e7f86506f6c9021f", "is_reserved": 0, "fusion_lat": 0.0}, {"type": "electric_scooter", "rental_uris": {"ios": "https://dc.lft.to/lastmile_qr_scan", "android": "https://dc.lft.to/lastmile_qr_scan"}, "lon": -77.03508716666667, "fusion_lon": 0.0, "is_disabled": 0, "lat": 38.921494, "bike_id": "74380be36bc2064434d4ce0f03170a96", "name": "74380be36bc2064434d4ce0f03170a96", "is_reserved": 0, "fusion_lat": 0.0}, {"type": "electric_bike", "rental_uris": {"ios": "https://dc.lft.to/lastmile_qr_scan", "android": "https://dc.lft.to/lastmile_qr_scan"}, "lon": -77.11804866666667, "fusion_lon": 0.0, "is_disabled": 0, "lat": 38.8736725, "bike_id": "0a04ade51bfe076298143f939e773766", "name": "0a04ade51bfe076298143f939e773766", "is_reserved": 0, "fusion_lat": 0.0}, {"type": "electric_scooter", "rental_uris": {"ios": "https://dc.lft.to/lastmile_qr_scan", "android": "https://dc.lft.to/lastmile_qr_scan"}, "lon": -77.02627, "fusion_lon": 0.0, "is_disabled": 0, "lat": 38.89222133333333, "bike_id": "60053a9c87255e8ea29081916b75ba22", "name": "60053a9c87255e8ea29081916b75ba22", "is_reserved": 0, "fusion_lat": 0.0}, {"type": "electric_scooter", "rental_uris": {"ios": "https://dc.lft.to/lastmile_qr_scan", "android": "https://dc.lft.to/lastmile_qr_scan"}, "lon": -77.0322665, "fusion_lon": 0.0, "is_disabled": 0, "lat": 38.89891683333333, "bike_id": "7d3a9f1e6b4eceab597527e8a4656952", "name": "7d3a9f1e6b4eceab597527e8a4656952", "is_reserved": 0, "fusion_lat": 0.0}, {"type": "electric_scooter", "rental_uris": {"ios": "https://dc.lft.to/lastmile_qr_scan", "android": "https://dc.lft.to/lastmile_qr_scan"}, "lon": -77.00931266666667, "fusion_lon": 0.0, "is_disabled": 0, "lat": 38.883352333333335, "bike_id": "0031335c35dfaa7ff6451984b500f44e", "name": "0031335c35dfaa7ff6451984b500f44e", "is_reserved": 0, "fusion_lat": 0.0}, {"type": "electric_scooter", "rental_uris": {"ios": "https://dc.lft.to/lastmile_qr_scan", "android": "https://dc.lft.to/lastmile_qr_scan"}, "lon": -77.04394066666667, "fusion_lon": 0.0, "is_disabled": 0, "lat": 38.90140266666667, "bike_id": "172082b2b63ee8c9aa6608d9c7e1cba6", "name": "172082b2b63ee8c9aa6608d9c7e1cba6", "is_reserved": 0, "fusion_lat": 0.0}, {"type": "electric_scooter", "rental_uris": {"ios": "https://dc.lft.to/lastmile_qr_scan", "android": "https://dc.lft.to/lastmile_qr_scan"}, "lon": -77.0282345, "fusion_lon": 0.0, "is_disabled": 0, "lat": 38.93188633333333, "bike_id": "38d800d4abac8e00c2f641da79e615fb", "name": "38d800d4abac8e00c2f641da79e615fb", "is_reserved": 0, "fusion_lat": 0.0}, {"type": "electric_scooter", "rental_uris": {"ios": "https://dc.lft.to/lastmile_qr_scan", "android": "https://dc.lft.to/lastmile_qr_scan"}, "lon": -77.0086965, "fusion_lon": 0.0, "is_disabled": 0, "lat": 38.91700433333333, "bike_id": "9526094fb0d0d9c042ca776563cdd645", "name": "9526094fb0d0d9c042ca776563cdd645", "is_reserved": 0, "fusion_lat": 0.0}, {"type": "electric_scooter", "rental_uris": {"ios": "https://dc.lft.to/lastmile_qr_scan", "android": "https://dc.lft.to/lastmile_qr_scan"}, "lon": -77.03189833333333, "fusion_lon": 0.0, "is_disabled": 0, "lat": 38.91321116666667, "bike_id": "419687b3839cf1c0474d36d85226064b", "name": "419687b3839cf1c0474d36d85226064b", "is_reserved": 0, "fusion_lat": 0.0}, {"type": "electric_scooter", "rental_uris": {"ios": "https://dc.lft.to/lastmile_qr_scan", "android": "https://dc.lft.to/lastmile_qr_scan"}, "lon": -77.02691116666666, "fusion_lon": 0.0, "is_disabled": 0, "lat": 38.90679933333333, "bike_id": "4d801bbcc4a6d889ccd24c9babee22e1", "name": "4d801bbcc4a6d889ccd24c9babee22e1", "is_reserved": 0, "fusion_lat": 0.0}, {"type": "electric_bike", "rental_uris": {"ios": "https://dc.lft.to/lastmile_qr_scan", "android": "https://dc.lft.to/lastmile_qr_scan"}, "lon": -77.0401575, "fusion_lon": 0.0, "is_disabled": 0, "lat": 38.793185, "bike_id": "3280ff1672bfbb76cfbd9c5b8505db15", "name": "3280ff1672bfbb76cfbd9c5b8505db15", "is_reserved": 0, "fusion_lat": 0.0}, {"type": "electric_bike", "rental_uris": {"ios": "https://dc.lft.to/lastmile_qr_scan", "android": "https://dc.lft.to/lastmile_qr_scan"}, "lon": -76.97238066666667, "fusion_lon": 0.0, "is_disabled": 0, "lat": 38.949012, "bike_id": "70d775c663d034ceda5933d199a56058", "name": "70d775c663d034ceda5933d199a56058", "is_reserved": 0, "fusion_lat": 0.0}, {"type": "electric_scooter", "rental_uris": {"ios": "https://dc.lft.to/lastmile_qr_scan", "android": "https://dc.lft.to/lastmile_qr_scan"}, "lon": -76.99518316666666, "fusion_lon": 0.0, "is_disabled": 0, "lat": 38.88364516666667, "bike_id": "50ecd50c58d696d68f2436645ddc7b84", "name": "50ecd50c58d696d68f2436645ddc7b84", "is_reserved": 0, "fusion_lat": 0.0}, {"type": "electric_scooter", "rental_uris": {"ios": "https://dc.lft.to/lastmile_qr_scan", "android": "https://dc.lft.to/lastmile_qr_scan"}, "lon": -77.03185866666666, "fusion_lon": 0.0, "is_disabled": 0, "lat": 38.91416983333333, "bike_id": "0c6b71d30bb5a31ec1fb99ac0a0b423e", "name": "0c6b71d30bb5a31ec1fb99ac0a0b423e", "is_reserved": 0, "fusion_lat": 0.0}, {"type": "electric_scooter", "rental_uris": {"ios": "https://dc.lft.to/lastmile_qr_scan", "android": "https://dc.lft.to/lastmile_qr_scan"}, "lon": -77.0363465, "fusion_lon": 0.0, "is_disabled": 0, "lat": 38.9305545, "bike_id": "7e329db0f9437fb0ff6f7b7758714cd1", "name": "7e329db0f9437fb0ff6f7b7758714cd1", "is_reserved": 0, "fusion_lat": 0.0}, {"type": "electric_scooter", "rental_uris": {"ios": "https://dc.lft.to/lastmile_qr_scan", "android": "https://dc.lft.to/lastmile_qr_scan"}, "lon": -77.021492, "fusion_lon": 0.0, "is_disabled": 0, "lat": 38.89689883333333, "bike_id": "343203023eaae8a27b3be58cccc893f8", "name": "343203023eaae8a27b3be58cccc893f8", "is_reserved": 0, "fusion_lat": 0.0}, {"type": "electric_scooter", "rental_uris": {"ios": "https://dc.lft.to/lastmile_qr_scan", "android": "https://dc.lft.to/lastmile_qr_scan"}, "lon": -76.95128083333333, "fusion_lon": 0.0, "is_disabled": 0, "lat": 38.89023433333333, "bike_id": "5fc5c3f850e16186b5094ecd5de2fefa", "name": "5fc5c3f850e16186b5094ecd5de2fefa", "is_reserved": 0, "fusion_lat": 0.0}, {"type": "electric_scooter", "rental_uris": {"ios": "https://dc.lft.to/lastmile_qr_scan", "android": "https://dc.lft.to/lastmile_qr_scan"}, "lon": -77.03738833333334, "fusion_lon": 0.0, "is_disabled": 0, "lat": 38.93072016666667, "bike_id": "ff1be4a779dc91cbed9e7b7b480934e2", "name": "ff1be4a779dc91cbed9e7b7b480934e2", "is_reserved": 0, "fusion_lat": 0.0}, {"type": "electric_bike", "rental_uris": {"ios": "https://dc.lft.to/lastmile_qr_scan", "android": "https://dc.lft.to/lastmile_qr_scan"}, "lon": -77.11897633333334, "fusion_lon": 0.0, "is_disabled": 0, "lat": 39.07499683333333, "bike_id": "a6fc80a92d8596a0817a3faa7c470ad7", "name": "a6fc80a92d8596a0817a3faa7c470ad7", "is_reserved": 0, "fusion_lat": 0.0},