{"data": {"bikes": [{"lat": 38.923561, "fusion_lon": 0.0, "fusion_lat": 0.0, "is_disabled": 0, "type": "electric_scooter", "lon": -77.01906083333333, "rental_uris": {"android": "https://dc.lft.to/lastmile_qr_scan", "ios": "https://dc.lft.to/lastmile_qr_scan"}, "is_reserved": 0, "bike_id": "e7848833c4ec6e0a26f8f31bdd9b9aa2", "name": "e7848833c4ec6e0a26f8f31bdd9b9aa2"}, {"lat": 38.874984, "fusion_lon": 0.0, "fusion_lat": 0.0, "is_disabled": 0, "type": "electric_bike", "lon": -77.04900066666667, "rental_uris": {"android": "https://dc.lft.to/lastmile_qr_scan", "ios": "https://dc.lft.to/lastmile_qr_scan"}, "is_reserved": 0, "bike_id": "55248bdc964d45b537f12669fddac9c0", "name": "55248bdc964d45b537f12669fddac9c0"}, {"lat": 38.914001666666664, "fusion_lon": 0.0, "fusion_lat": 0.0, "is_disabled": 0, "type": "electric_scooter", "lon": -77.039507, "rental_uris": {"android": "https://dc.lft.to/lastmile_qr_scan", "ios": "https://dc.lft.to/lastmile_qr_scan"}, "is_reserved": 0, "bike_id": "85ab6fcc14a400a0eb6000f8cb92559b", "name": "85ab6fcc14a400a0eb6000f8cb92559b"}, {"lat": 38.929109, "fusion_lon": 0.0, "fusion_lat": 0.0, "is_disabled": 0, "type": "electric_scooter", "lon": -77.029651, "rental_uris": {"android": "https://dc.lft.to/lastmile_qr_scan", "ios": "https://dc.lft.to/lastmile_qr_scan"}, "is_reserved": 0, "bike_id": "7b4c41c12a43bda144d1f0cbf7bd663c", "name": "7b4c41c12a43bda144d1f0cbf7bd663c"}, {"lat": 38.92243116666667, "fusion_lon": 0.0, "fusion_lat": 0.0, "is_disabled": 0, "type": "electric_scooter", "lon": -77.02422066666666, "rental_uris": {"android": "https://dc.lft.to/lastmile_qr_scan", "ios": "https://dc.lft.to/lastmile_qr_scan"}, "is_reserved": 0, "bike_id": "000bde5ab0e4dd9aae538cb6b474cfc3", "name": "000bde5ab0e4dd9aae538cb6b474cfc3"}, {"lat": 38.89355166666667, "fusion_lon": 0.0, "fusion_lat": 0.0, "is_disabled": 0, "type": "electric_scooter", "lon": -77.00334583333333, "rental_uris": {"android": "https://dc.lft.to/lastmile_qr_scan", "ios": "https://dc.lft.to/lastmile_qr_scan"}, "is_reserved": 0, "bike_id": "24987460051e08cf33f976e0150c9e0a", "name": "24987460051e08cf33f976e0150c9e0a"}, {"lat": 38.924852666666666, "fusion_lon": 0.0, "fusion_lat": 0.0, "is_disabled": 0, "type": "electric_scooter", "lon": -77.02140366666667, "rental_uris": {"android": "https://dc.lft.to/lastmile_qr_scan", "ios": "https://dc.lft.to/lastmile_qr_scan"}, "is_reserved": 0, "bike_id": "e1980cb2faa98b97c4c43bcee923ccff", "name": "e1980cb2faa98b97c4c43bcee923ccff"}, {"lat": 38.8989385, "fusion_lon": 0.0, "fusion_lat": 0.0, "is_disabled": 0, "type": "electric_scooter", "lon": -77.03971216666666, "rental_uris": {"android": "https://dc.lft.to/lastmile_qr_scan", "ios": "https://dc.lft.to/lastmile_qr_scan"}, "is_reserved": 0, "bike_id": "1a26ceed78a17b847346c5cfe22742ff", "name": "1a26ceed78a17b847346c5cfe22742ff"}, {"lat": 38.91636666666667, "fusion_lon": 0.0, "fusion_lat": 0.0, "is_disabled": 0, "type": "electric_scooter", "lon": -77.02552633333333, "rental_uris": {"android": "https://dc.lft.to/lastmile_qr_scan", "ios": "https://dc.lft.to/lastmile_qr_scan"}, "is_reserved": 0, "bike_id": "45f3fb0d5e96e601873c9c994d29a369", "name": "45f3fb0d5e96e601873c9c994d29a369"}, {"lat": 38.90884466666667, "fusion_lon": 0.0, "fusion_lat": 0.0, "is_disabled": 0, "type": "electric_scooter", "lon": -77.06455966666667, "rental_uris": {"android": "https://dc.lft.to/lastmile_qr_scan", "ios": "https://dc.lft.to/lastmile_qr_scan"}, "is_reserved": 0, "bike_id": "7817135e1dc2711df5f045bb310f5498", "name": "7817135e1dc2711df5f045bb310f5498"}, {"lat": 38.9168855, "fusion_lon": 0.0, "fusion_lat": 0.0, "is_disabled": 0, "type": "electric_scooter", "lon": -77.03196883333334, "rental_uris": {"android": "https://dc.lft.to/lastmile_qr_scan", "ios": "https://dc.lft.to/lastmile_qr_scan"}, "is_reserved": 0, "bike_id": "114d81f53c5643c7f1b07d88d8cc36ac", "name": "114d81f53c5643c7f1b07d88d8cc36ac"}, {"lat": 38.919773166666666, "fusion_lon": 0.0, "fusion_lat": 0.0, "is_disabled": 0, "type": "electric_scooter", "lon": -77.03968883333333, "rental_uris": {"android": "https://dc.lft.to/lastmile_qr_scan", "ios": "https://dc.lft.to/lastmile_qr_scan"}, "is_reserved": 0, "bike_id": "21689218edb916487bba7a7b4e962603", "name": "21689218edb916487bba7a7b4e962603"}, {"lat": 38.938811666666666, "fusion_lon": 0.0, "fusion_lat": 0.0, "is_disabled": 0, "type": "electric_scooter", "lon": -77.02474783333334, "rental_uris": {"android": "https://dc.lft.to/lastmile_qr_scan", "ios": "https://dc.lft.to/lastmile_qr_scan"}, "is_reserved": 0, "bike_id": "53c8ce55c0cb75bfe99f16e6d7e45c82", "name": "53c8ce55c0cb75bfe99f16e6d7e45c82"}, {"lat": 38.90677916666667, "fusion_lon": 0.0, "fusion_lat": 0.0, "is_disabled": 0, "type": "electric_scooter", "lon": -77.00621633333333, "rental_uris": {"android": "https://dc.lft.to/lastmile_qr_scan", "ios": "https://dc.lft.to/lastmile_qr_scan"}, "is_reserved": 0, "bike_id": "6fc8b83edf5e4571e08564d7b0643d08", "name": "6fc8b83edf5e4571e08564d7b0643d08"}, {"lat": 38.90107866666666, "fusion_lon": 0.0, "fusion_lat": 0.0, "is_disabled": 0, "type": "electric_scooter", "lon": -77.043441, "rental_uris": {"android": "https://dc.lft.to/lastmile_qr_scan", "ios": "https://dc.lft.to/lastmile_qr_scan"}, "is_reserved": 0, "bike_id": "6bb71a0d021955d7203bd81de2fc6cdb", "name": "6bb71a0d021955d7203bd81de2fc6cdb"}, {"lat": 38.89876433333333, "fusion_lon": 0.0, "fusion_lat": 0.0, "is_disabled": 0, "type": "electric_scooter", "lon": -77.009182, "rental_uris": {"android": "https://dc.lft.to/lastmile_qr_scan", "ios": "https://dc.lft.to/lastmile_qr_scan"}, "is_reserved": 0, "bike_id": "d81df67a86d91b22b695ee4c44b2d95f", "name": "d81df67a86d91b22b695ee4c44b2d95f"}, {"lat": 38.893540333333334, "fusion_lon": 0.0, "fusion_lat": 0.0, "is_disabled": 0, "type": "electric_scooter", "lon": -77.016004, "rental_uris": {"android": "https://dc.lft.to/lastmile_qr_scan", "ios": "https://dc.lft.to/lastmile_qr_scan"}, "is_reserved": 0, "bike_id": "1d31d28f8c369c63182d126b2ba28d7b", "name": "1d31d28f8c369c63182d126b2ba28d7b"}, {"lat": 38.938661, "fusion_lon": 0.0, "fusion_lat": 0.0, "is_disabled": 0, "type": "electric_scooter", "lon": -77.02649183333334, "rental_uris": {"android": "https://dc.lft.to/lastmile_qr_scan", "ios": "https://dc.lft.to/lastmile_qr_scan"}, "is_reserved": 0, "bike_id": "30efed0f660af150f7f98fc80fb051a5", "name": "30efed0f660af150f7f98fc80fb051a5"}, {"lat": 38.884087666666666, "fusion_lon": 0.0, "fusion_lat": 0.0, "is_disabled": 0, "type": "electric_scooter", "lon": -77.03055266666667, "rental_uris": {"android": "https://dc.lft.to/lastmile_qr_scan", "ios": "https://dc.lft.to/lastmile_qr_scan"}, "is_reserved": 0, "bike_id": "178281777c8443adf4fe433a22d769fe", "name": "178281777c8443adf4fe433a22d769fe"}, {"lat": 38.929219, "fusion_lon": 0.0, "fusion_lat": 0.0, "is_disabled": 0, "type": "electric_scooter", "lon": -77.03754983333333, "rental_uris": {"android": "https://dc.lft.to/lastmile_qr_scan", "ios": "https://dc.lft.to/lastmile_qr_scan"}, "is_reserved": 0, "bike_id": "aa9fd3c94e5f78776f463104fbf068e4", "name": "aa9fd3c94e5f78776f463104fbf068e4"}, {"lat": 38.99063233333333, "fusion_lon": 0.0, "fusion_lat": 0.0, "is_disabled": 0, "type": "electric_bike", "lon": -77.10027883333333, "rental_uris": {"android": "https://dc.lft.to/lastmile_qr_scan", "ios": "https://dc.lft.to/lastmile_qr_scan"}, "is_reserved": 0, "bike_id": "32c88e08b55cc7f0cbc3d3cb4c36db5d", "name": "32c88e08b55cc7f0cbc3d3cb4c36db5d"}, {"lat": 38.89887316666667, "fusion_lon": 0.0, "fusion_lat": 0.0, "is_disabled": 0, "type": "electric_scooter", "lon": -76.98568816666666, "rental_uris": {"android": "https://dc.lft.to/lastmile_qr_scan", "ios": "https://dc.lft.to/lastmile_qr_scan"}, "is_reserved": 0, "bike_id": "99f1b260aac934e88cce4b5c10bab1a8", "name": "99f1b260aac934e88cce4b5c10bab1a8"}, {"lat": 38.892297, "fusion_lon": 0.0, "fusion_lat": 0.0, "is_disabled": 0, "type": "electric_scooter", "lon": -77.0254985, "rental_uris": {"android": "https://dc.lft.to/lastmile_qr_scan", "ios": "https://dc.lft.to/lastmile_qr_scan"}, "is_reserved": 0, "bike_id": "1fd77dacafe3f3c435e67e0982e2498d", "name": "1fd77dacafe3f3c435e67e0982e2498d"}, {"lat": 38.91334033333333, "fusion_lon": 0.0, "fusion_lat": 0.0, "is_disabled": 0, "type": "electric_scooter", "lon": -77.04839, "rental_uris": {"android": "https://dc.lft.to/lastmile_qr_scan", "ios": "https://dc.lft.to/lastmile_qr_scan"}, "is_reserved": 0, "bike_id": "8486ee23761a3fe9eb858c0fae096d61", "name": "8486ee23761a3fe9eb858c0fae096d61"}, {"lat": 38.8953705, "fusion_lon": 0.0, "fusion_lat": 0.0, "is_disabled": 0, "type": "electric_scooter", "lon": -77.00348166666667, "rental_uris": {"android": "https://dc.lft.to/lastmile_qr_scan", "ios": "https://dc.lft.to/lastmile_qr_scan"}, "is_reserved": 0, "bike_id": "0224fd1f4bef897cd1bb439ab8bb3272", "name": "0224fd1f4bef897cd1bb439ab8bb3272"}, {"lat": 39.003821333333335, "fusion_lon": 0.0, "fusion_lat": 0.0, "is_disabled": 0, "type": "electric_bike", "lon": -77.01293533333333, "rental_uris": {"android": "https://dc.lft.to/lastmile_qr_scan", "ios": "https://dc.lft.to/lastmile_qr_scan"}, "is_reserved": 0, "bike_id": "0453244f87503f0aa0b8bff3c264fe03", "name": "0453244f87503f0aa0b8bff3c264fe03"}, {"lat": 38.90425883333333, "fusion_lon": 0.0, "fusion_lat": 0.0, "is_disabled": 0, "type": "electric_scooter", "lon": -77.02801983333333, "rental_uris": {"android": "https://dc.lft.to/lastmile_qr_scan", "ios": "https://dc.lft.to/lastmile_qr_scan"}, "is_reserved": 0, "bike_id": "0ad2ee9a2f2cd86381ecb7a9a5a8fdb2", "name": "0ad2ee9a2f2cd86381ecb7a9a5a8fdb2"}, {"lat": 38.85648, "fusion_lon": 0.0, "fusion_lat": 0.0, "is_disabled": 0, "type": "electric_bike", "lon": -77.08527966666666, "rental_uris": {"android": "https://dc.lft.to/lastmile_qr_scan", "ios": "https://dc.lft.to/lastmile_qr_scan"}, "is_reserved": 0, "bike_id": "3be82c44e1dfdd41d9ed7d92050f37a4", "name": "3be82c44e1dfdd41d9ed7d92050f37a4"}, {"lat": 38.885941, "fusion_lon": 0.0, "fusion_lat": 0.0, "is_disabled": 0, "type": "electric_scooter", "lon": -77.01720383333334, "rental_uris": {"android": "https://dc.lft.to/lastmile_qr_scan", "ios": "https://dc.lft.to/lastmile_qr_scan"}, "is_reserved": 0, "bike_id": "ed477ef8c611805466842ece7f619c95", "name": "ed477ef8c611805466842ece7f619c95"}, {"lat": 38.87709233333333, "fusion_lon": 0.0, "fusion_lat": 0.0, "is_disabled": 0, "type": "electric_scooter", "lon": -77.00598783333334, "rental_uris": {"android": "https://dc.lft.to/lastmile_qr_scan", "ios": "https://dc.lft.to/lastmile_qr_scan"}, "is_reserved": 0, "bike_id": "004a425508b8ffa3296df84759a4b185", "name": "004a425508b8ffa3296df84759a4b185"}, {"lat": 38.909754666666664, "fusion_lon": 0.0, "fusion_lat": 0.0, "is_disabled": 0, "type": "electric_scooter", "lon": -77.03879216666667, "rental_uris": {"android": "https://dc.lft.to/lastmile_qr_scan", "ios": "https://dc.lft.to/lastmile_qr_scan"}, "is_reserved": 0, "bike_id": "30c9364debadf44549ec8e940449a450", "name": "30c9364debadf44549ec8e940449a450"}, {"lat": 38.894838666666665, "fusion_lon": 0.0, "fusion_lat": 0.0, "is_disabled": 0, "type": "electric_scooter", "lon": -76.94842033333333, "rental_uris": {"android": "https://dc.lft.to/lastmile_qr_scan", "ios": "https://dc.lft.to/lastmile_qr_scan"}, "is_reserved": 0, "bike_id": "b6ec6765356fadef78eb591108e49c40", "name": "b6ec6765356fadef78eb591108e49c40"}, {"lat": 38.921712, "fusion_lon": 0.0, "fusion_lat": 0.0, "is_disabled": 0, "type": "electric_scooter", "lon": -77.06319016666667, "rental_uris": {"android": "https://dc.lft.to/lastmile_qr_scan", "ios": "https://dc.lft.to/lastmile_qr_scan"}, "is_reserved": 0, "bike_id": "134404b879b952428da02b108a91c4b5", "name": "134404b879b952428da02b108a91c4b5"}, {"lat": 38.90356766666667, "fusion_lon": 0.0, "fusion_lat": 0.0, "is_disabled": 0, "type": "electric_scooter", "lon": -77.0111485, "rental_uris": {"android": "https://dc.lft.to/lastmile_qr_scan", "ios": "https://dc.lft.to/lastmile_qr_scan"}, "is_reserved": 0, "bike_id": "33765bb4dd3ee7f98310c4bae6533184", "name": "33765bb4dd3ee7f98310c4bae6533184"}, {"lat": 38.90649166666667, "fusion_lon": 0.0, "fusion_lat": 0.0, "is_disabled": 0, "type": "electric_scooter", "lon": -77.0113895, "rental_uris": {"android": "https://dc.lft.to/lastmile_qr_scan", "ios": "https://dc.lft.to/lastmile_qr_scan"}, "is_reserved": 0, "bike_id": "9b896fa72c1b7941f286b0a61c065d4f", "name": "9b896fa72c1b7941f286b0a61c065d4f"}, {"lat": 38.917834, "fusion_lon": 0.0, "fusion_lat": 0.0, "is_disabled": 0, "type": "electric_scooter", "lon": -77.02282983333333, "rental_uris": {"android": "https://dc.lft.to/lastmile_qr_scan", "ios": "https://dc.lft.to/lastmile_qr_scan"}, "is_reserved": 0, "bike_id": "0a13f6296184c7d78ffb20f869afbbef", "name": "0a13f6296184c7d78ffb20f869afbbef"}, {"lat": 38.84425733333333, "fusion_lon": 0.0, "fusion_lat": 0.0, "is_disabled": 0, "type": "electric_scooter", "lon": -76.997776, "rental_uris": {"android": "https://dc.lft.to/lastmile_qr_scan", "ios": "https://dc.lft.to/lastmile_qr_scan"}, "is_reserved": 0, "bike_id": "2b12308792cb5e159201ebec565772a1", "name": "2b12308792cb5e159201ebec565772a1"}, {"lat": 38.901852833333336, "fusion_lon": 0.0, "fusion_lat": 0.0, "is_disabled": 0, "type": "electric_scooter", "lon": -76.93461183333334, "rental_uris": {"android": "https://dc.lft.to/lastmile_qr_scan", "ios": "https://dc.lft.to/lastmile_qr_scan"}, "is_reserved": 0, "bike_id": "4c273e93e6cb02190b71cd68a3f70d0c", "name": "4c273e93e6cb02190b71cd68a3f70d0c"}, {"lat": 38.9241495, "fusion_lon": 0.0, "fusion_lat": 0.0, "is_disabled": 0, "type": "electric_scooter", "lon": -77.0194315, "rental_uris": {"android": "https://dc.lft.to/lastmile_qr_scan", "ios": "https://dc.lft.to/lastmile_qr_scan"}, "is_reserved": 0, "bike_id": "40eb7892c881a6ba3d586a3d63da58bc", "name": "40eb7892c881a6ba3d586a3d63da58bc"}, {"lat": 38.969766166666666, "fusion_lon": 0.0, "fusion_lat": 0.0, "is_disabled": 0, "type": "electric_bike", "lon": -76.934565, "rental_uris": {"android": "https://dc.lft.to/lastmile_qr_scan", "ios": "https://dc.lft.to/lastmile_qr_scan"}, "is_reserved": 0, "bike_id": "fadb40b5b1729d48f4f9af7746180bbf", "name": "fadb40b5b1729d48f4f9af7746180bbf"}, {"lat": 38.84620133333333, "fusion_lon": 0.0, "fusion_lat": 0.0, "is_disabled": 0, "type": "electric_scooter", "lon": -76.99632033333333, "rental_uris": {"android": "https://dc.lft.to/lastmile_qr_scan", "ios": "https://dc.lft.to/lastmile_qr_scan"}, "is_reserved": 0, "bike_id": "2a4ba4d2c5872b86f31894ca2556f545", "name": "2a4ba4d2c5872b86f31894ca2556f545"}, {"lat": 38.93413016666667, "fusion_lon": 0.0, "fusion_lat": 0.0, "is_disabled": 0, "type": "electric_scooter", "lon": -77.03250683333333, "rental_uris": {"android": "https://dc.lft.to/lastmile_qr_scan", "ios": "https://dc.lft.to/lastmile_qr_scan"}, "is_reserved": 0, "bike_id": "7dba220796f10ec327f1b2085fcb6f25", "name": "7dba220796f10ec327f1b2085fcb6f25"}, {"lat": 38.9882465, "fusion_lon": 0.0, "fusion_lat": 0.0, "is_disabled": 0, "type": "electric_bike", "lon": -76.98750283333334, "rental_uris": {"android": "https://dc.lft.to/lastmile_qr_scan", "ios": "https://dc.lft.to/lastmile_qr_scan"}, "is_reserved": 0, "bike_id": "c6adfa183234560fab0deb8374fde533", "name": "c6adfa183234560fab0deb8374fde533"}, {"lat": 38.89233183333333, "fusion_lon": 0.0, "fusion_lat": 0.0, "is_disabled": 0, "type": "electric_scooter", "lon": -77.04365383333334, "rental_uris": {"android": "https://dc.lft.to/lastmile_qr_scan", "ios": "https://dc.lft.to/lastmile_qr_scan"}, "is_reserved": 0, "bike_id": "dc7c542bc67804bca7da1287d6d4ca6f", "name": "dc7c542bc67804bca7da1287d6d4ca6f"}, {"lat": 38.91190316666667, "fusion_lon": 0.0, "fusion_lat": 0.0, "is_disabled": 0, "type": "electric_scooter", "lon": -77.0336025, "rental_uris": {"android": "https://dc.lft.to/lastmile_qr_scan", "ios": "https://dc.lft.to/lastmile_qr_scan"}, "is_reserved": 0, "bike_id": "27d65ea5f3e780eefdb32c21eef990cd", "name": "27d65ea5f3e780eefdb32c21eef990cd"}, {"lat": 38.916855, "fusion_lon": 0.0, "fusion_lat": 0.0, "is_disabled": 0, "type": "electric_scooter", "lon": -76.98037233333334, "rental_uris": {"android": "https://dc.lft.to/lastmile_qr_scan", "ios": "https://dc.lft.to/lastmile_qr_scan"}, "is_reserved": 0, "bike_id": "1fbd3cae734bea22841c92e34715aa39", "name": "1fbd3cae734bea22841c92e34715aa39"}, {"lat": 38.84292933333333, "fusion_lon": 0.0, "fusion_lat": 0.0, "is_disabled": 0, "type": "electric_scooter", "lon": -76.999482, "rental_uris": {"android": "https://dc.lft.to/lastmile_qr_scan", "ios": "https://dc.lft.to/lastmile_qr_scan"}, "is_reserved": 0, "bike_id": "cccd9cc17be520d35554383a795aa3ea", "name": "cccd9cc17be520d35554383a795aa3ea"}, {"lat": 38.88739533333333, "fusion_lon": 0.0, "fusion_lat": 0.0, "is_disabled": 0, "type": "electric_scooter", "lon": -77.01532416666667, "rental_uris": {"android": "https://dc.lft.to/lastmile_qr_scan", "ios": "https://dc.lft.to/lastmile_qr_scan"}, "is_reserved": 0, "bike_id": "7dde4e2bcd8b6b999a18903156c68ea6", "name": "7dde4e2bcd8b6b999a18903156c68ea6"}, {"lat": 38.895959500000004, "fusion_lon": 0.0, "fusion_lat": 0.0, "is_disabled": 0, "type": "electric_scooter", "lon": -77.054438, "rental_uris": {"android": "https://dc.lft.to/lastmile_qr_scan", "ios": "https://dc.lft.to/lastmile_qr_scan"}, "is_reserved": 0, "bike_id": "4604a1be70ef6f4a61ee13b8e372599b", "name": "4604a1be70ef6f4a61ee13b8e372599b"}, {"lat": 38.88499933333333, "fusion_lon": 0.0, "fusion_lat": 0.0, "is_disabled": 0, "type": "electric_scooter", "lon": -77.005665, "rental_uris": {"android": "https://dc.lft.to/lastmile_qr_scan", "ios": "https://dc.lft.to/lastmile_qr_scan"}, "is_reserved": 0, "bike_id": "bfd6de55a00a2267d96e97af0585c8e4", "name": "bfd6de55a00a2267d96e97af0585c8e4"}, {"lat": 38.928491666666666, "fusion_lon": 0.0, "fusion_lat": 0.0, "is_disabled": 0, "type": "electric_scooter", "lon": -77.05431533333334, "rental_uris": {"android": "https://dc.lft.to/lastmile_qr_scan", "ios": "https://dc.lft.to/lastmile_qr_scan"}, "is_reserved": 0, "bike_id": "1bf3dc1d8fb46ce89c4feb24e99fcf5f", "name": "1bf3dc1d8fb46ce89c4feb24e99fcf5f"}, {"lat": 38.917533, "fusion_lon": 0.0, "fusion_lat": 0.0, "is_disabled": 0, "type": "electric_scooter", "lon": -77.0230935, "rental_uris": {"android": "https://dc.lft.to/lastmile_qr_scan", "ios": "https://dc.lft.to/lastmile_qr_scan"}, "is_reserved": 0, "bike_id": "32f7dbeb3a132f8a5117457e11d950a9", "name": "32f7dbeb3a132f8a5117457e11d950a9"}, {"lat": 38.92255933333333, "fusion_lon": 0.0, "fusion_lat": 0.0, "is_disabled": 0, "type": "electric_scooter", "lon": -77.03215216666666, "rental_uris": {"android": "https://dc.lft.to/lastmile_qr_scan", "ios": "https://dc.lft.to/lastmile_qr_scan"}, "is_reserved": 0, "bike_id": "19e0c332d9393546c619fc594b707f03", "name": "19e0c332d9393546c619fc594b707f03"}, {"lat": 38.90568433333333, "fusion_lon": 0.0, "fusion_lat": 0.0, "is_disabled": 0, "type": "electric_scooter", "lon": -77.00599683333333, "rental_uris": {"android": "https://dc.lft.to/lastmile_qr_scan", "ios": "https://dc.lft.to/lastmile_qr_scan"}, "is_reserved": 0, "bike_id": "0b6c753e9bcbe1f37159cb14260e4ac0", "name": "0b6c753e9bcbe1f37159cb14260e4ac0"}, {"lat": 38.89676133333333, "fusion_lon": 0.0, "fusion_lat": 0.0, "is_disabled": 0, "type": "electric_scooter", "lon": -76.947243, "rental_uris": {"android": "https://dc.lft.to/lastmile_qr_scan", "ios": "https://dc.lft.to/lastmile_qr_scan"}, "is_reserved": 0, "bike_id": "57605ca424733f9a4d59c43551d73b7c", "name": "57605ca424733f9a4d59c43551d73b7c"}, {"lat": 38.974059833333335, "fusion_lon": 0.0, "fusion_lat": 0.0, "is_disabled": 0, "type": "electric_bike", "lon": -77.02494216666666, "rental_uris": {"android": "https://dc.lft.to/lastmile_qr_scan", "ios": "https://dc.lft.to/lastmile_qr_scan"}, "is_reserved": 0, "bike_id": "e398b36fc9171ff5ee30d29a89a0be96", "name": "e398b36fc9171ff5ee30d29a89a0be96"}, {"lat": 38.90269033333333, "fusion_lon": 0.0, "fusion_lat": 0.0, "is_disabled": 0, "type": "electric_scooter", "lon": -77.01748466666666, "rental_uris": {"android": "https://dc.lft.to/lastmile_qr_scan", "ios": "https://dc.lft.to/lastmile_qr_scan"}, "is_reserved": 0, "bike_id": "19355c1ca967f43bd500fe2acb44cf45", "name": "19355c1ca967f43bd500fe2acb44cf45"}, {"lat": 38.903499333333336, "fusion_lon": 0.0, "fusion_lat": 0.0, "is_disabled": 0, "type": "electric_scooter", "lon": -77.01117083333334, "rental_uris": {"android": "https://dc.lft.to/lastmile_qr_scan", "ios": "https://dc.lft.to/lastmile_qr_scan"}, "is_reserved": 0, "bike_id": "f35cb7ca19ba235a31f1e5887bd71a79", "name": "f35cb7ca19ba235a31f1e5887bd71a79"}, {"lat": 38.90120733333333, "fusion_lon": 0.0, "fusion_lat": 0.0, "is_disabled": 0, "type": "electric_bike", "lon": -77.0499395, "rental_uris": {"android": "https://dc.lft.to/lastmile_qr_scan", "ios": "https://dc.lft.to/lastmile_qr_scan"}, "is_reserved": 0, "bike_id": "cf09a557f0aa12b70c6081615d03bf95", "name": "cf09a557f0aa12b70c6081615d03bf95"}, {"lat": 38.907423, "fusion_lon": 0.0, "fusion_lat": 0.0, "is_disabled": 0, "type": "electric_scooter", "lon": -77.0321735, "rental_uris": {"android": "https://dc.lft.to/lastmile_qr_scan", "ios": "https://dc.lft.to/lastmile_qr_scan"}, "is_reserved": 0, "bike_id": "44a611b0f473969ec66d7290a4c26129", "name": "44a611b0f473969ec66d7290a4c26129"}, {"lat": 38.8974905, "fusion_lon": 0.0, "fusion_lat": 0.0, "is_disabled": 0, "type": "electric_scooter", "lon": -77.04810383333333, "rental_uris": {"android": "https://dc.lft.to/lastmile_qr_scan", "ios": "https://dc.lft.to/lastmile_qr_scan"}, "is_reserved": 0, "bike_id": "321e85da903641b6229574638835f01d", "name": "321e85da903641b6229574638835f01d"}, {"lat": 38.907255166666666, "fusion_lon": 0.0, "fusion_lat": 0.0, "is_disabled": 0, "type": "electric_scooter", "lon": -77.02486433333333, "rental_uris": {"android": "https://dc.lft.to/lastmile_qr_scan", "ios": "https://dc.lft.to/lastmile_qr_scan"}, "is_reserved": 0, "bike_id": "173893af5a08c0f5837ed427a0391c04", "name": "173893af5a08c0f5837ed427a0391c04"}, {"lat": 38.93502433333333, "fusion_lon": 0.0, "fusion_lat": 0.0, "is_disabled": 0, "type": "electric_bike", "lon": -76.9495715, "rental_uris": {"android": "https://dc.lft.to/lastmile_qr_scan", "ios": "https://dc.lft.to/lastmile_qr_scan"}, "is_reserved": 0, "bike_id": "76374706107711195ede1cbd83aa86c4", "name": "76374706107711195ede1cbd83aa86c4"}, {"lat": 38.90591383333334, "fusion_lon": 0.0, "fusion_lat": 0.0, "is_disabled": 0, "type": "electric_bike", "lon": -77.04718766666667, "rental_uris": {"android": "https://dc.lft.to/lastmile_qr_scan", "ios": "https://dc.lft.to/lastmile_qr_scan"}, "is_reserved": 0, "bike_id": "6bf2cbcfda102a85b2d1b12d76c332c6", "name": "6bf2cbcfda102a85b2d1b12d76c332c6"}, {"lat": 38.89220916666667, "fusion_lon": 0.0, "fusion_lat": 0.0, "is_disabled": 0, "type": "electric_scooter", "lon": -77.02717566666666, "rental_uris": {"android": "https://dc.lft.to/lastmile_qr_scan", "ios": "https://dc.lft.to/lastmile_qr_scan"}, "is_reserved": 0, "bike_id": "aad3c20d48fab42d7667fb9ee5d01651", "name": "aad3c20d48fab42d7667fb9ee5d01651"}, {"lat": 38.89538983333333, "fusion_lon": 0.0, "fusion_lat": 0.0, "is_disabled": 0, "type": "electric_scooter", "lon": -77.02423683333333, "rental_uris": {"android": "https://dc.lft.to/lastmile_qr_scan", "ios": "https://dc.lft.to/lastmile_qr_scan"}, "is_reserved": 0, "bike_id": "ba7dc18fc62871a5c7fadd57f91731f2", "name": "ba7dc18fc62871a5c7fadd57f91731f2"}, {"lat": 38.90020166666667, "fusion_lon": 0.0, "fusion_lat": 0.0, "is_disabled": 0, "type": "electric_scooter", "lon": -76.99287983333333, "rental_uris": {"android": "https://dc.lft.to/lastmile_qr_scan", "ios": "https://dc.lft.to/lastmile_qr_scan"}, "is_reserved": 0, "bike_id": "07b9a9f2abc3da61c656d6034bd30f3c", "name": "07b9a9f2abc3da61c656d6034bd30f3c"}, {"lat": 38.90006783333333, "fusion_lon": 0.0, "fusion_lat": 0.0, "is_disabled": 0, "type": "electric_scooter", "lon": -77.04576666666667, "rental_uris": {"android": "https://dc.lft.to/lastmile_qr_scan", "ios": "https://dc.lft.to/lastmile_qr_scan"}, "is_reserved": 0, "bike_id": "61a3fdf1676e85d3a9c9aace03355faa", "name": "61a3fdf1676e85d3a9c9aace03355faa"}, {"lat": 38.90916933333333, "fusion_lon": 0.0, "fusion_lat": 0.0, "is_disabled": 0, "type": "electric_scooter", "lon": -77.07276966666667, "rental_uris": {"android": "https://dc.lft.to/lastmile_qr_scan", "ios": "https://dc.lft.to/lastmile_qr_scan"}, "is_reserved": 0, "bike_id": "78803a854bace78d5309e2f76911639f", "name": "78803a854bace78d5309e2f76911639f"}, {"lat": 38.900203833333336, "fusion_lon": 0.0, "fusion_lat": 0.0, "is_disabled": 0, "type": "electric_scooter", "lon": -77.00139033333333, "rental_uris": {"android": "https://dc.lft.to/lastmile_qr_scan", "ios": "https://dc.lft.to/lastmile_qr_scan"}, "is_reserved": 0, "bike_id": "149372c643cf601706f914387c3276e5", "name": "149372c643cf601706f914387c3276e5"}, {"lat": 38.9097305, "fusion_lon": 0.0, "fusion_lat": 0.0, "is_disabled": 0, "type": "electric_scooter", "lon": -77.04126916666667, "rental_uris": {"android": "https://dc.lft.to/lastmile_qr_scan", "ios": "https://dc.lft.to/lastmile_qr_scan"}, "is_reserved": 0, "bike_id": "f5545a1a0fea0419f54d0c94e91b22de", "name": "f5545a1a0fea0419f54d0c94e91b22de"}, {"lat": 38.918355166666665, "fusion_lon": 0.0, "fusion_lat": 0.0, "is_disabled": 0, "type": "electric_scooter", "lon": -77.02276583333334, "rental_uris": {"android": "https://dc.lft.to/lastmile_qr_scan", "ios": "https://dc.lft.to/lastmile_qr_scan"}, "is_reserved": 0, "bike_id": "9e95dd529762a40266f26ff0ce8fc821", "name": "9e95dd529762a40266f26ff0ce8fc821"}, {"lat": 38.93144316666667, "fusion_lon": 0.0, "fusion_lat": 0.0, "is_disabled": 0, "type": "electric_scooter", "lon": -77.078474, "rental_uris": {"android": "https://dc.lft.to/lastmile_qr_scan", "ios": "https://dc.lft.to/lastmile_qr_scan"}, "is_reserved": 0, "bike_id": "d3474144671aea10f1e5b20d144fe333", "name": "d3474144671aea10f1e5b20d144fe333"}, {"lat": 38.905742333333336, "fusion_lon": 0.0, "fusion_lat": 0.0, "is_disabled": 0, "type": "electric_scooter", "lon": -77.03860666666667, "rental_uris": {"android": "https://dc.lft.to/lastmile_qr_scan", "ios": "https://dc.lft.to/lastmile_qr_scan"}, "is_reserved": 0, "bike_id": "5606533303c651f08d406a18de2dfa29", "name": "5606533303c651f08d406a18de2dfa29"}, {"lat": 38.924591666666664, "fusion_lon": 0.0, "fusion_lat": 0.0, "is_disabled": 0, "type": "electric_scooter", "lon": -77.0296535, "rental_uris": {"android": "https://dc.lft.to/lastmile_qr_scan", "ios": "https://dc.lft.to/lastmile_qr_scan"}, "is_reserved": 0, "bike_id": "89b6b2415f8c32dee56b1f181f93225a", "name": "89b6b2415f8c32dee56b1f181f93225a"}, {"lat": 38.897976, "fusion_lon": 0.0, "fusion_lat": 0.0, "is_disabled": 0, "type": "electric_scooter", "lon": -77.02816266666666, "rental_uris": {"android": "https://dc.lft.to/lastmile_qr_scan", "ios": "https://dc.lft.to/lastmile_qr_scan"}, "is_reserved": 0, "bike_id": "e19c2f7bc6a24dffc9f2454627fc4c3f", "name": "e19c2f7bc6a24dffc9f2454627fc4c3f"}, {"lat": 38.8838435, "fusion_lon": 0.0, "fusion_lat": 0.0, "is_disabled": 0, "type": "electric_scooter", "lon": -76.98557716666667, "rental_uris": {"android": "https://dc.lft.to/lastmile_qr_scan", "ios": "https://dc.lft.to/lastmile_qr_scan"}, "is_reserved": 0, "bike_id": "813b9a4624ba466e2051e188109602cf", "name": "813b9a4624ba466e2051e188109602cf"}, {"lat": 38.900947333333335, "fusion_lon": 0.0, "fusion_lat": 0.0, "is_disabled": 0, "type": "electric_scooter", "lon": -76.994871, "rental_uris": {"android": "https://dc.lft.to/lastmile_qr_scan", "ios": "https://dc.lft.to/lastmile_qr_scan"}, "is_reserved": 0, "bike_id": "b98f81ff19c4a149017bc42206bd8537", "name": "b98f81ff19c4a149017bc42206bd8537"}, {"lat": 38.90532916666667, "fusion_lon": 0.0, "fusion_lat": 0.0, "is_disabled": 0, "type": "electric_bike", "lon": -77.05012533333333, "rental_uris": {"android": "https://dc.lft.to/lastmile_qr_scan", "ios": "https://dc.lft.to/lastmile_qr_scan"}, "is_reserved": 0, "bike_id": "52b0dc253d0368fe217f754a5d16e29c", "name": "52b0dc253d0368fe217f754a5d16e29c"}, {"lat": 38.903823833333334, "fusion_lon": 0.0, "fusion_lat": 0.0, "is_disabled": 0, "type": "electric_scooter", "lon": -77.0582215, "rental_uris": {"android": "https://dc.lft.to/lastmile_qr_scan", "ios": "https://dc.lft.to/lastmile_qr_scan"}, "is_reserved": 0, "bike_id": "0c241517b4a87cc0221b1352805a9085", "name": "0c241517b4a87cc0221b1352805a9085"}, {"lat": 38.94514233333334, "fusion_lon": 0.0, "fusion_lat": 0.0, "is_disabled": 0, "type": "electric_bike", "lon": -77.0067665, "rental_uris": {"android": "https://dc.lft.to/lastmile_qr_scan", "ios": "https://dc.lft.to/lastmile_qr_scan"}, "is_reserved": 0, "bike_id": "f1cb0e7a8a9b986c3b47427f264068c9", "name": "f1cb0e7a8a9b986c3b47427f264068c9"}, {"lat": 38.921282, "fusion_lon": 0.0, "fusion_lat": 0.0, "is_disabled": 0, "type": "electric_scooter", "lon": -77.04418233333334, "rental_uris": {"android": "https://dc.lft.to/lastmile_qr_scan", "ios": "https://dc.lft.to/lastmile_qr_scan"}, "is_reserved": 0, "bike_id": "94258e796cabfcec7b889a926ae20ef2", "name": "94258e796cabfcec7b889a926ae20ef2"}, {"lat": 38.911071166666666, "fusion_lon": 0.0, "fusion_lat": 0.0, "is_disabled": 0, "type": "electric_scooter", "lon": -77.02093466666666, "rental_uris": {"android": "https://dc.lft.to/lastmile_qr_scan", "ios": "https://dc.lft.to/lastmile_qr_scan"}, "is_reserved": 0, "bike_id": "f93707da0ae04940e090263a0b88f547", "name": "f93707da0ae04940e090263a0b88f547"}, {"lat": 38.911959333333336, "fusion_lon": 0.0, "fusion_lat": 0.0, "is_disabled": 0, "type": "electric_scooter", "lon": -77.01883783333334, "rental_uris": {"android": "https://dc.lft.to/lastmile_qr_scan", "ios": "https://dc.lft.to/lastmile_qr_scan"}, "is_reserved": 0, "bike_id": "071aa041f366f39a3a02f49e2f961eea", "name": "071aa041f366f39a3a02f49e2f961eea"}, {"lat": 38.869734, "fusion_lon": 0.0, "fusion_lat": 0.0, "is_disabled": 0, "type": "electric_bike", "lon": -77.13229483333333, "rental_uris": {"android": "https://dc.lft.to/lastmile_qr_scan", "ios": "https://dc.lft.to/lastmile_qr_scan"}, "is_reserved": 0, "bike_id": "5d7220672e741285beb8b9e4fb0ac623", "name": "5d7220672e741285beb8b9e4fb0ac623"}, {"lat": 38.90383516666667, "fusion_lon": 0.0, "fusion_lat": 0.0, "is_disabled": 0, "type": "electric_scooter", "lon": -77.02954766666667, "rental_uris": {"android": "https://dc.lft.to/lastmile_qr_scan", "ios": "https://dc.lft.to/lastmile_qr_scan"}, "is_reserved": 0, "bike_id": "cf454aa031342938e4621d9ecad23bde", "name": "cf454aa031342938e4621d9ecad23bde"}, {"lat": 38.92235, "fusion_lon": 0.0, "fusion_lat": 0.0, "is_disabled": 0, "type": "electric_scooter", "lon": -77.04251066666667, "rental_uris": {"android": "https://dc.lft.to/lastmile_qr_scan", "ios": "https://dc.lft.to/lastmile_qr_scan"}, "is_reserved": 0, "bike_id": "b481afe6d6758e481910cafc66abddf5", "name": "b481afe6d6758e481910cafc66abddf5"}, {"lat": 38.91429133333333, "fusion_lon": 0.0, "fusion_lat": 0.0, "is_disabled": 0, "type": "electric_scooter", "lon": -77.00201016666666, "rental_uris": {"android": "https://dc.lft.to/lastmile_qr_scan", "ios": "https://dc.lft.to/lastmile_qr_scan"}, "is_reserved": 0, "bike_id": "5c57bc86bf9f021a1bb4d0dba5d00b67", "name": "5c57bc86bf9f021a1bb4d0dba5d00b67"}, {"lat": 38.9345875, "fusion_lon": 0.0, "fusion_lat": 0.0, "is_disabled": 0, "type": "electric_bike", "lon": -77.08949483333333, "rental_uris": {"android": "https://dc.lft.to/lastmile_qr_scan", "ios": "https://dc.lft.to/lastmile_qr_scan"}, "is_reserved": 0, "bike_id": "9fa56f34f0bb953a0d495b37832b819a", "name": "9fa56f34f0bb953a0d495b37832b819a"}, {"lat": 38.9223745, "fusion_lon": 0.0, "fusion_lat": 0.0, "is_disabled": 0, "type": "electric_scooter", "lon": -77.03518466666667, "rental_uris": {"android": "https://dc.lft.to/lastmile_qr_scan", "ios": "https://dc.lft.to/lastmile_qr_scan"}, "is_reserved": 0, "bike_id": "27076361781e20bd1bc6b6d9aab8b3c0", "name": "27076361781e20bd1bc6b6d9aab8b3c0"}, {"lat": 38.89624883333333, "fusion_lon": 0.0, "fusion_lat": 0.0, "is_disabled": 0, "type": "electric_scooter", "lon": -77.0114925, "rental_uris": {"android": "https://dc.lft.to/lastmile_qr_scan", "ios": "https://dc.lft.to/lastmile_qr_scan"}, "is_reserved": 0, "bike_id": "002d291843b9f447af0379b38c8ff39c", "name": "002d291843b9f447af0379b38c8ff39c"}, {"lat": 38.89871266666667, "fusion_lon": 0.0, "fusion_lat": 0.0, "is_disabled": 0, "type": "electric_scooter", "lon": -76.94663, "rental_uris": {"android": "https://dc.lft.to/lastmile_qr_scan", "ios": "https://dc.lft.to/lastmile_qr_scan"}, "is_reserved": 0, "bike_id": "5fc083b6ac88e347abca72cc41ee7a33", "name": "5fc083b6ac88e347abca72cc41ee7a33"}, {"lat": 38.91401283333333, "fusion_lon": 0.0, "fusion_lat": 0.0, "is_disabled": 0, "type": "electric_scooter", "lon": -77.04465283333333, "rental_uris": {"android": "https://dc.lft.to/lastmile_qr_scan", "ios": "https://dc.lft.to/lastmile_qr_scan"}, "is_reserved": 0, "bike_id": "3dc4312f3544fb9e146c3224e9d59656", "name": "3dc4312f3544fb9e146c3224e9d59656"}, {"lat": 38.8999285, "fusion_lon": 0.0, "fusion_lat": 0.0, "is_disabled": 0, "type": "electric_scooter", "lon": -77.03148833333333, "rental_uris": {"android": "https://dc.lft.to/lastmile_qr_scan", "ios": "https://dc.lft.to/lastmile_qr_scan"}, "is_reserved": 0, "bike_id": "839716f24ce302a83d39eb4b7726ac54", "name": "839716f24ce302a83d39eb4b7726ac54"}, {"lat": 38.90735816666667, "fusion_lon": 0.0, "fusion_lat": 0.0, "is_disabled": 0, "type": "electric_scooter", "lon": -77.03845266666667, "rental_uris": {"android": "https://dc.lft.to/lastmile_qr_scan", "ios": "https://dc.lft.to/lastmile_qr_scan"}, "is_reserved": 0, "bike_id": "d64c90788f76d8c21aa281cb9da4ae47", "name": "d64c90788f76d8c21aa281cb9da4ae47"}, {"lat": 38.90062433333333, "fusion_lon": 0.0, "fusion_lat": 0.0, "is_disabled": 0, "type": "electric_scooter", "lon": -77.03174783333333, "rental_uris": {"android": "https://dc.lft.to/lastmile_qr_scan", "ios": "https://dc.lft.to/lastmile_qr_scan"}, "is_reserved": 0, "bike_id": "e10608b84558a550ce1a1379ae9b0a62", "name": "e10608b84558a550ce1a1379ae9b0a62"}, {"lat": 38.879402166666665, "fusion_lon": 0.0, "fusion_lat": 0.0, "is_disabled": 0, "type": "electric_scooter", "lon": -77.00792033333333, "rental_uris": {"android": "https://dc.lft.to/lastmile_qr_scan", "ios": "https://dc.lft.to/lastmile_qr_scan"}, "is_reserved": 0, "bike_id": "1db6f2a847012fdf65eb0e05a209f89c", "name": "1db6f2a847012fdf65eb0e05a209f89c"}, {"lat": 38.914781, "fusion_lon": 0.0, "fusion_lat": 0.0, "is_disabled": 0, "type": "electric_scooter", "lon": -77.02198483333333, "rental_uris": {"android": "https://dc.lft.to/lastmile_qr_scan", "ios": "https://dc.lft.to/lastmile_qr_scan"}, "is_reserved": 0, "bike_id": "f6d7d185c10ea9a2d79f139d2bed447f", "name": "f6d7d185c10ea9a2d79f139d2bed447f"}, {"lat": 38.887471166666664, "fusion_lon": 0.0, "fusion_lat": 0.0, "is_disabled": 0, "type": "electric_scooter", "lon": -77.022699, "rental_uris": {"android": "https://dc.lft.to/lastmile_qr_scan", "ios": "https://dc.lft.to/lastmile_qr_scan"}, "is_reserved": 0, "bike_id": "c45ee934b44facd445f413a1c2c2101e", "name": "c45ee934b44facd445f413a1c2c2101e"}, {"lat": 38.903644166666666, "fusion_lon": 0.0, "fusion_lat": 0.0, "is_disabled": 0, "type": "electric_scooter", "lon": -77.03636083333333, "rental_uris": {"android": "https://dc.lft.to/lastmile_qr_scan", "ios": "https://dc.lft.to/lastmile_qr_scan"}, "is_reserved": 0, "bike_id": "f3275950a37bf1c2ac39dc33da8af3cb", "name": "f3275950a37bf1c2ac39dc33da8af3cb"}, {"lat": 38.900738, "fusion_lon": 0.0, "fusion_lat": 0.0, "is_disabled": 0, "type": "electric_scooter", "lon": -77.002059, "rental_uris": {"android": "https://dc.lft.to/lastmile_qr_scan", "ios": "https://dc.lft.to/lastmile_qr_scan"}, "is_reserved": 0, "bike_id": "f6bdff3bd3926e4e78cc15b9fcb99056", "name": "f6bdff3bd3926e4e78cc15b9fcb99056"}, {"lat": 38.926758, "fusion_lon": 0.0, "fusion_lat": 0.0, "is_disabled": 0, "type": "electric_scooter", "lon": -77.07830133333333, "rental_uris": {"android": "https://dc.lft.to/lastmile_qr_scan", "ios": "https://dc.lft.to/lastmile_qr_scan"}, "is_reserved": 0, "bike_id": "50b6c2fba559f17df81a32fa72b8c1d8", "name": "50b6c2fba559f17df81a32fa72b8c1d8"}, {"lat": 38.89674883333333, "fusion_lon": 0.0, "fusion_lat": 0.0, "is_disabled": 0, "type": "electric_scooter", "lon": -76.99638116666667, "rental_uris": {"android": "https://dc.lft.to/lastmile_qr_scan", "ios": "https://dc.lft.to/lastmile_qr_scan"}, "is_reserved": 0, "bike_id": "f22c6adbece7c6e72829288fda43a10a", "name": "f22c6adbece7c6e72829288fda43a10a"}, {"lat": 38.894765166666666, "fusion_lon": 0.0, "fusion_lat": 0.0, "is_disabled": 0, "type": "electric_scooter", "lon": -77.02775483333333, "rental_uris": {"android": "https://dc.lft.to/lastmile_qr_scan", "ios": "https://dc.lft.to/lastmile_qr_scan"}, "is_reserved": 0, "bike_id": "8b11e16474f76b6a3569c394003f0998", "name": "8b11e16474f76b6a3569c394003f0998"}, {"lat": 38.89815383333333, "fusion_lon": 0.0, "fusion_lat": 0.0, "is_disabled": 0, "type": "electric_scooter", "lon": -77.02768716666667, "rental_uris": {"android": "https://dc.lft.to/lastmile_qr_scan", "ios": "https://dc.lft.to/lastmile_qr_scan"}, "is_reserved": 0, "bike_id": "ded5800e32978d20a46b6e15e2a4ad9e", "name": "ded5800e32978d20a46b6e15e2a4ad9e"}, {"lat": 38.92245333333334, "fusion_lon": 0.0, "fusion_lat": 0.0, "is_disabled": 0, "type": "electric_scooter", "lon": -77.099588, "rental_uris": {"android": "https://dc.lft.to/lastmile_qr_scan", "ios": "https://dc.lft.to/lastmile_qr_scan"}, "is_reserved": 0, "bike_id": "3421627ead2cc645a9337a772d97e97b", "name": "3421627ead2cc645a9337a772d97e97b"}, {"lat": 38.9049405, "fusion_lon": 0.0, "fusion_lat": 0.0, "is_disabled": 0, "type": "electric_scooter", "lon": -77.04325433333334, "rental_uris": {"android": "https://dc.lft.to/lastmile_qr_scan", "ios": "https://dc.lft.to/lastmile_qr_scan"}, "is_reserved": 0, "bike_id": "c9e87d95351b282c9e8d800c59de7c24", "name": "c9e87d95351b282c9e8d800c59de7c24"}, {"lat": 38.9186545, "fusion_lon": 0.0, "fusion_lat": 0.0, "is_disabled": 0, "type": "electric_bike", "lon": -76.9617635, "rental_uris": {"android": "https://dc.lft.to/lastmile_qr_scan", "ios": "https://dc.lft.to/lastmile_qr_scan"}, "is_reserved": 0, "bike_id": "8d74b19e9003f3477f6a1e42f3047244", "name": "8d74b19e9003f3477f6a1e42f3047244"}, {"lat": 38.938657, "fusion_lon": 0.0, "fusion_lat": 0.0, "is_disabled": 0, "type": "electric_scooter", "lon": -77.02649083333333, "rental_uris": {"android": "https://dc.lft.to/lastmile_qr_scan", "ios": "https://dc.lft.to/lastmile_qr_scan"}, "is_reserved": 0, "bike_id": "5a81cf0b62fab15bbbfcbd45b33960e5", "name": "5a81cf0b62fab15bbbfcbd45b33960e5"}, {"lat": 38.887529, "fusion_lon": 0.0, "fusion_lat": 0.0, "is_disabled": 0, "type": "electric_scooter", "lon": -77.0158965, "rental_uris": {"android": "https://dc.lft.to/lastmile_qr_scan", "ios": "https://dc.lft.to/lastmile_qr_scan"}, "is_reserved": 0, "bike_id": "77d4eb2ac860e9dd731a849c6070a9ea", "name": "77d4eb2ac860e9dd731a849c6070a9ea"}, {"lat": 38.89877333333333, "fusion_lon": 0.0, "fusion_lat": 0.0, "is_disabled": 0, "type": "electric_scooter", "lon": -76.93187166666667, "rental_uris": {"android": "https://dc.lft.to/lastmile_qr_scan", "ios": "https://dc.lft.to/lastmile_qr_scan"}, "is_reserved": 0, "bike_id": "e512d5e9a2223098b2c672bb02b2c435", "name": "e512d5e9a2223098b2c672bb02b2c435"}, {"lat": 38.879224666666666, "fusion_lon": 0.0, "fusion_lat": 0.0, "is_disabled": 0, "type": "electric_scooter", "lon": -76.99169733333333, "rental_uris": {"android": "https://dc.lft.to/lastmile_qr_scan", "ios": "https://dc.lft.to/lastmile_qr_scan"}, "is_reserved": 0, "bike_id": "61c3340af2fd489a0b4e169aba2bc801", "name": "61c3340af2fd489a0b4e169aba2bc801"}, {"lat": 38.8922205, "fusion_lon": 0.0, "fusion_lat": 0.0, "is_disabled": 0, "type": "electric_scooter", "lon": -77.0321845, "rental_uris": {"android": "https://dc.lft.to/lastmile_qr_scan", "ios": "https://dc.lft.to/lastmile_qr_scan"}, "is_reserved": 0, "bike_id": "57861c10480b83dfe4b204a60762b756", "name": "57861c10480b83dfe4b204a60762b756"}, {"lat": 38.89222316666667, "fusion_lon": 0.0, "fusion_lat": 0.0, "is_disabled": 0, "type": "electric_scooter", "lon": -77.043262, "rental_uris": {"android": "https://dc.lft.to/lastmile_qr_scan", "ios": "https://dc.lft.to/lastmile_qr_scan"}, "is_reserved": 0, "bike_id": "0caa52ef5b727557b020445d497bdfda", "name": "0caa52ef5b727557b020445d497bdfda"}, {"lat": 38.9066755, "fusion_lon": 0.0, "fusion_lat": 0.0, "is_disabled": 0, "type": "electric_scooter", "lon": -77.01212783333334, "rental_uris": {"android": "https://dc.lft.to/lastmile_qr_scan", "ios": "https://dc.lft.to/lastmile_qr_scan"}, "is_reserved": 0, "bike_id": "77fe58bcfc259693849dab5ce4fa1f07", "name": "77fe58bcfc259693849dab5ce4fa1f07"}, {"lat": 38.903688833333334, "fusion_lon": 0.0, "fusion_lat": 0.0, "is_disabled": 0, "type": "electric_scooter", "lon": -77.0330665, "rental_uris": {"android": "https://dc.lft.to/lastmile_qr_scan", "ios": "https://dc.lft.to/lastmile_qr_scan"}, "is_reserved": 0, "bike_id": "2e71415f35ddeb46dedd8b130684ae59", "name": "2e71415f35ddeb46dedd8b130684ae59"}, {"lat": 38.960916166666664, "fusion_lon": 0.0, "fusion_lat": 0.0, "is_disabled": 0, "type": "electric_bike", "lon": -77.0094285, "rental_uris": {"android": "https://dc.lft.to/lastmile_qr_scan", "ios": "https://dc.lft.to/lastmile_qr_scan"}, "is_reserved": 0, "bike_id": "c43814b6f96ca4c1ac1ae863008c6280", "name": "c43814b6f96ca4c1ac1ae863008c6280"}, {"lat": 38.973850166666665, "fusion_lon": 0.0, "fusion_lat": 0.0, "is_disabled": 0, "type": "electric_bike", "lon": -77.064721, "rental_uris": {"android": "https://dc.lft.to/lastmile_qr_scan", "ios": "https://dc.lft.to/lastmile_qr_scan"}, "is_reserved": 0, "bike_id": "f0bde3ffc025b4589a60e5c64f6f0e1f", "name": "f0bde3ffc025b4589a60e5c64f6f0e1f"}, {"lat": 38.89243533333333, "fusion_lon": 0.0, "fusion_lat": 0.0, "is_disabled": 0, "type": "electric_scooter", "lon": -77.0218665, "rental_uris": {"android": "https://dc.lft.to/lastmile_qr_scan", "ios": "https://dc.lft.to/lastmile_qr_scan"}, "is_reserved": 0, "bike_id": "1f87af9dc357c338920f425a6ca4ed4d", "name": "1f87af9dc357c338920f425a6ca4ed4d"}, {"lat": 38.899266, "fusion_lon": 0.0, "fusion_lat": 0.0, "is_disabled": 0, "type": "electric_scooter", "lon": -77.03302716666667, "rental_uris": {"android": "https://dc.lft.to/lastmile_qr_scan", "ios": "https://dc.lft.to/lastmile_qr_scan"}, "is_reserved": 0, "bike_id": "a3b12db50568d95a55e9468fd7892223", "name": "a3b12db50568d95a55e9468fd7892223"}, {"lat": 38.911069499999996, "fusion_lon": 0.0, "fusion_lat": 0.0, "is_disabled": 0, "type": "electric_scooter", "lon": -77.0383155, "rental_uris": {"android": "https://dc.lft.to/lastmile_qr_scan", "ios": "https://dc.lft.to/lastmile_qr_scan"}, "is_reserved": 0, "bike_id": "1a407e1cd5e1fcaa6cc7077539c77cdb", "name": "1a407e1cd5e1fcaa6cc7077539c77cdb"}, {"lat": 38.88214333333333, "fusion_lon": 0.0, "fusion_lat": 0.0, "is_disabled": 0, "type": "electric_scooter", "lon": -76.99149983333334, "rental_uris": {"android": "https://dc.lft.to/lastmile_qr_scan", "ios": "https://dc.lft.to/lastmile_qr_scan"}, "is_reserved": 0, "bike_id": "050a9c1c3e68fa8a90234d230aaf57d9", "name": "050a9c1c3e68fa8a90234d230aaf57d9"}, {"lat": 38.907752, "fusion_lon": 0.0, "fusion_lat": 0.0, "is_disabled": 0, "type": "electric_scooter", "lon": -77.03192466666667, "rental_uris": {"android": "https://dc.lft.to/lastmile_qr_scan", "ios": "https://dc.lft.to/lastmile_qr_scan"}, "is_reserved": 0, "bike_id": "1af348129c311823e4a7242b61920086", "name": "1af348129c311823e4a7242b61920086"}, {"lat": 38.929908166666664, "fusion_lon": 0.0, "fusion_lat": 0.0, "is_disabled": 0, "type": "electric_scooter", "lon": -77.01054316666666, "rental_uris": {"android": "https://dc.lft.to/lastmile_qr_scan", "ios": "https://dc.lft.to/lastmile_qr_scan"}, "is_reserved": 0, "bike_id": "106390e0fa29a1bdfbef2ecde06613b7", "name": "106390e0fa29a1bdfbef2ecde06613b7"}, {"lat": 38.8985655, "fusion_lon": 0.0, "fusion_lat": 0.0, "is_disabled": 0, "type": "electric_scooter", "lon": -77.03314533333334, "rental_uris": {"android": "https://dc.lft.to/lastmile_qr_scan", "ios": "https://dc.lft.to/lastmile_qr_scan"}, "is_reserved": 0, "bike_id": "36188090ed1cc3096b92334d4142c756", "name": "36188090ed1cc3096b92334d4142c756"}, {"lat": 38.8922315, "fusion_lon": 0.0, "fusion_lat": 0.0, "is_disabled": 0, "type": "electric_scooter", "lon": -77.02718116666667, "rental_uris": {"android": "https://dc.lft.to/lastmile_qr_scan", "ios": "https://dc.lft.to/lastmile_qr_scan"}, "is_reserved": 0, "bike_id": "5fe4bbf8785434aa37f6844623c74bbb", "name": "5fe4bbf8785434aa37f6844623c74bbb"}, {"lat": 38.8950805, "fusion_lon": 0.0, "fusion_lat": 0.0, "is_disabled": 0, "type": "electric_scooter", "lon": -77.04671583333334, "rental_uris": {"android": "https://dc.lft.to/lastmile_qr_scan", "ios": "https://dc.lft.to/lastmile_qr_scan"}, "is_reserved": 0, "bike_id": "ae5e85aac785f80330b2aa27a9a2c988", "name": "ae5e85aac785f80330b2aa27a9a2c988"}, {"lat": 38.95128616666667, "fusion_lon": 0.0, "fusion_lat": 0.0, "is_disabled": 0, "type": "electric_scooter", "lon": -77.02724666666667, "rental_uris": {"android": "https://dc.lft.to/lastmile_qr_scan", "ios": "https://dc.lft.to/lastmile_qr_scan"}, "is_reserved": 0, "bike_id": "c5d370ebfcfef878eaaa1bd9f8a7b24a", "name": "c5d370ebfcfef878eaaa1bd9f8a7b24a"}, {"lat": 38.89618566666667, "fusion_lon": 0.0, "fusion_lat": 0.0, "is_disabled": 0, "type": "electric_scooter", "lon": -76.99934416666666, "rental_uris": {"android": "https://dc.lft.to/lastmile_qr_scan", "ios": "https://dc.lft.to/lastmile_qr_scan"}, "is_reserved": 0, "bike_id": "05f395f743a75f3da93c487d2cf7ac10", "name": "05f395f743a75f3da93c487d2cf7ac10"}, {"lat": 38.93322166666667, "fusion_lon": 0.0, "fusion_lat": 0.0, "is_disabled": 0, "type": "electric_scooter", "lon": -77.03792316666667, "rental_uris": {"android": "https://dc.lft.to/lastmile_qr_scan", "ios": "https://dc.lft.to/lastmile_qr_scan"}, "is_reserved": 0, "bike_id": "ae5541145f58aaf39265154b5061aa18", "name": "ae5541145f58aaf39265154b5061aa18"}, {"lat": 38.92510133333333, "fusion_lon": 0.0, "fusion_lat": 0.0, "is_disabled": 0, "type": "electric_scooter", "lon": -77.02576983333333, "rental_uris": {"android": "https://dc.lft.to/lastmile_qr_scan", "ios": "https://dc.lft.to/lastmile_qr_scan"}, "is_reserved": 0, "bike_id": "366fa4bde8770177cdaba35aa87c6042", "name": "366fa4bde8770177cdaba35aa87c6042"}, {"lat": 38.8831365, "fusion_lon": 0.0, "fusion_lat": 0.0, "is_disabled": 0, "type": "electric_scooter", "lon": -76.98766283333333, "rental_uris": {"android": "https://dc.lft.to/lastmile_qr_scan", "ios": "https://dc.lft.to/lastmile_qr_scan"}, "is_reserved": 0, "bike_id": "3eab9293e5845efc1122e5b1025b845f", "name": "3eab9293e5845efc1122e5b1025b845f"}, {"lat": 38.902949166666666, "fusion_lon": 0.0, "fusion_lat": 0.0, "is_disabled": 0, "type": "electric_scooter", "lon": -77.04889716666666, "rental_uris": {"android": "https://dc.lft.to/lastmile_qr_scan", "ios": "https://dc.lft.to/lastmile_qr_scan"}, "is_reserved": 0, "bike_id": "9017e53aec47126c967f42d813298380", "name": "9017e53aec47126c967f42d813298380"}, {"lat": 38.923494, "fusion_lon": 0.0, "fusion_lat": 0.0, "is_disabled": 0, "type": "electric_scooter", "lon": -77.04149033333333, "rental_uris": {"android": "https://dc.lft.to/lastmile_qr_scan", "ios": "https://dc.lft.to/lastmile_qr_scan"}, "is_reserved": 0, "bike_id": "214443200f00003070f63867aac17268", "name": "214443200f00003070f63867aac17268"}, {"lat": 38.90415266666667, "fusion_lon": 0.0, "fusion_lat": 0.0, "is_disabled": 0, "type": "electric_scooter", "lon": -77.02783483333333, "rental_uris": {"android": "https://dc.lft.to/lastmile_qr_scan", "ios": "https://dc.lft.to/lastmile_qr_scan"}, "is_reserved": 0, "bike_id": "0e18b4e246a0316a5c11a9f79dafdd5a", "name": "0e18b4e246a0316a5c11a9f79dafdd5a"}, {"lat": 38.935871666666664, "fusion_lon": 0.0, "fusion_lat": 0.0, "is_disabled": 0, "type": "electric_scooter", "lon": -77.03366266666667, "rental_uris": {"android": "https://dc.lft.to/lastmile_qr_scan", "ios": "https://dc.lft.to/lastmile_qr_scan"}, "is_reserved": 0, "bike_id": "87680d7e449f6ed5473551406f95c67e", "name": "87680d7e449f6ed5473551406f95c67e"}, {"lat": 38.92845633333334, "fusion_lon": 0.0, "fusion_lat": 0.0, "is_disabled": 0, "type": "electric_scooter", "lon": -77.013816, "rental_uris": {"android": "https://dc.lft.to/lastmile_qr_scan", "ios": "https://dc.lft.to/lastmile_qr_scan"}, "is_reserved": 0, "bike_id": "fb013fb251d85ca6f7a603509729f0cd", "name": "fb013fb251d85ca6f7a603509729f0cd"}, {"lat": 38.892646, "fusion_lon": 0.0, "fusion_lat": 0.0, "is_disabled": 0, "type": "electric_scooter", "lon": -77.04156983333333, "rental_uris": {"android": "https://dc.lft.to/lastmile_qr_scan", "ios": "https://dc.lft.to/lastmile_qr_scan"}, "is_reserved": 0, "bike_id": "d9ec159a7f0ebcb45556cb8d99ada538", "name": "d9ec159a7f0ebcb45556cb8d99ada538"}, {"lat": 38.898896666666666, "fusion_lon": 0.0, "fusion_lat": 0.0, "is_disabled": 0, "type": "electric_scooter", "lon": -77.00730833333333, "rental_uris": {"android": "https://dc.lft.to/lastmile_qr_scan", "ios": "https://dc.lft.to/lastmile_qr_scan"}, "is_reserved": 0, "bike_id": "55f9c2b5d356bac5013e24e33588c13f", "name": "55f9c2b5d356bac5013e24e33588c13f"}, {"lat": 38.900135, "fusion_lon": 0.0, "fusion_lat": 0.0, "is_disabled": 0, "type": "electric_scooter", "lon": -76.985978, "rental_uris": {"android": "https://dc.lft.to/lastmile_qr_scan", "ios": "https://dc.lft.to/lastmile_qr_scan"}, "is_reserved": 0, "bike_id": "3618f44a09517c4e3f8258fc81f81bb8", "name": "3618f44a09517c4e3f8258fc81f81bb8"}, {"lat": 38.916934833333336, "fusion_lon": 0.0, "fusion_lat": 0.0, "is_disabled": 0, "type": "electric_scooter", "lon": -77.03217416666666, "rental_uris": {"android": "https://dc.lft.to/lastmile_qr_scan", "ios": "https://dc.lft.to/lastmile_qr_scan"}, "is_reserved": 0, "bike_id": "5a68ad54c8188e499e334c9dc836b351", "name": "5a68ad54c8188e499e334c9dc836b351"}, {"lat": 38.90672933333333, "fusion_lon": 0.0, "fusion_lat": 0.0, "is_disabled": 0, "type": "electric_scooter", "lon": -77.04597933333334, "rental_uris": {"android": "https://dc.lft.to/lastmile_qr_scan", "ios": "https://dc.lft.to/lastmile_qr_scan"}, "is_reserved": 0, "bike_id": "bdbb0ee8285deef148777d09ba9a3094", "name": "bdbb0ee8285deef148777d09ba9a3094"}, {"lat": 38.8913375, "fusion_lon": 0.0, "fusion_lat": 0.0, "is_disabled": 0, "type": "electric_scooter", "lon": -76.95181166666667, "rental_uris": {"android": "https://dc.lft.to/lastmile_qr_scan", "ios": "https://dc.lft.to/lastmile_qr_scan"}, "is_reserved": 0, "bike_id": "a91c117ce668f06926de8800fb319f13", "name": "a91c117ce668f06926de8800fb319f13"}, {"lat": 38.96593133333333, "fusion_lon": 0.0, "fusion_lat": 0.0, "is_disabled": 0, "type": "electric_scooter", "lon": -77.01595033333334, "rental_uris": {"android": "https://dc.lft.to/lastmile_qr_scan", "ios": "https://dc.lft.to/lastmile_qr_scan"}, "is_reserved": 0, "bike_id": "baaf873de6ef1dedf94487bc61fdcb43", "name": "baaf873de6ef1dedf94487bc61fdcb43"}, {"lat": 38.93855466666667, "fusion_lon": 0.0, "fusion_lat": 0.0, "is_disabled": 0, "type": "electric_scooter", "lon": -77.024604, "rental_uris": {"android": "https://dc.lft.to/lastmile_qr_scan", "ios": "https://dc.lft.to/lastmile_qr_scan"}, "is_reserved": 0, "bike_id": "de86f04bc0c73ce39c23ef6feb2f0a15", "name": "de86f04bc0c73ce39c23ef6feb2f0a15"}, {"lat": 38.922594833333335, "fusion_lon": 0.0, "fusion_lat": 0.0, "is_disabled": 0, "type": "electric_scooter", "lon": -77.01953416666667, "rental_uris": {"android": "https://dc.lft.to/lastmile_qr_scan", "ios": "https://dc.lft.to/lastmile_qr_scan"}, "is_reserved": 0, "bike_id": "de0132dfae688df11fde8c6308ef598e", "name": "de0132dfae688df11fde8c6308ef598e"}, {"lat": 38.90400066666667, "fusion_lon": 0.0, "fusion_lat": 0.0, "is_disabled": 0, "type": "electric_scooter", "lon": -77.04032533333333, "rental_uris": {"android": "https://dc.lft.to/lastmile_qr_scan", "ios": "https://dc.lft.to/lastmile_qr_scan"}, "is_reserved": 0, "bike_id": "8b14eca6548efd85c8aa7b4151156bae", "name": "8b14eca6548efd85c8aa7b4151156bae"}, {"lat": 38.902468166666665, "fusion_lon": 0.0, "fusion_lat": 0.0, "is_disabled": 0, "type": "electric_scooter", "lon": -77.045112, "rental_uris": {"android": "https://dc.lft.to/lastmile_qr_scan", "ios": "https://dc.lft.to/lastmile_qr_scan"}, "is_reserved": 0, "bike_id": "6e8b155076a5577b889fce6252aeb963", "name": "6e8b155076a5577b889fce6252aeb963"}, {"lat": 38.90270183333333, "fusion_lon": 0.0, "fusion_lat": 0.0, "is_disabled": 0, "type": "electric_scooter", "lon": -77.03267516666666, "rental_uris": {"android": "https://dc.lft.to/lastmile_qr_scan", "ios": "https://dc.lft.to/lastmile_qr_scan"}, "is_reserved": 0, "bike_id": "1cd1629341a69233495a903022e2f59e", "name": "1cd1629341a69233495a903022e2f59e"}, {"lat": 38.8874775, "fusion_lon": 0.0, "fusion_lat": 0.0, "is_disabled": 0, "type": "electric_scooter", "lon": -77.0216955, "rental_uris": {"android": "https://dc.lft.to/lastmile_qr_scan", "ios": "https://dc.lft.to/lastmile_qr_scan"}, "is_reserved": 0, "bike_id": "95b3476f9ae0e45dc5ebdd6fd7cd2621", "name": "95b3476f9ae0e45dc5ebdd6fd7cd2621"}, {"lat": 38.9237915, "fusion_lon": 0.0, "fusion_lat": 0.0, "is_disabled": 0, "type": "electric_scooter", "lon": -77.05257316666666, "rental_uris": {"android": "https://dc.lft.to/lastmile_qr_scan", "ios": "https://dc.lft.to/lastmile_qr_scan"}, "is_reserved": 0, "bike_id": "678c9fb4f6af40259bca0d62bfbdc164", "name": "678c9fb4f6af40259bca0d62bfbdc164"}, {"lat": 38.94415766666667, "fusion_lon": 0.0, "fusion_lat": 0.0, "is_disabled": 0, "type": "electric_scooter", "lon": -77.05516833333333, "rental_uris": {"android": "https://dc.lft.to/lastmile_qr_scan", "ios": "https://dc.lft.to/lastmile_qr_scan"}, "is_reserved": 0, "bike_id": "df6eb793cff264c805da84da3f376f4e", "name": "df6eb793cff264c805da84da3f376f4e"}, {"lat": 38.921110666666664, "fusion_lon": 0.0, "fusion_lat": 0.0, "is_disabled": 0, "type": "electric_scooter", "lon": -77.03184933333333, "rental_uris": {"android": "https://dc.lft.to/lastmile_qr_scan", "ios": "https://dc.lft.to/lastmile_qr_scan"}, "is_reserved": 0, "bike_id": "629ca2d7817fd3c92bb04c10bc026e68", "name": "629ca2d7817fd3c92bb04c10bc026e68"}, {"lat": 38.9012815, "fusion_lon": 0.0, "fusion_lat": 0.0, "is_disabled": 0, "type": "electric_scooter", "lon": -77.03204383333333, "rental_uris": {"android": "https://dc.lft.to/lastmile_qr_scan", "ios": "https://dc.lft.to/lastmile_qr_scan"}, "is_reserved": 0, "bike_id": "6531db70422de761d50d19c78650eac3", "name": "6531db70422de761d50d19c78650eac3"}, {"lat": 38.892830000000004, "fusion_lon": 0.0, "fusion_lat": 0.0, "is_disabled": 0, "type": "electric_scooter", "lon": -77.026259, "rental_uris": {"android": "https://dc.lft.to/lastmile_qr_scan", "ios": "https://dc.lft.to/lastmile_qr_scan"}, "is_reserved": 0, "bike_id": "c958ca21ec1fb3149168ec282694820e", "name": "c958ca21ec1fb3149168ec282694820e"}, {"lat": 38.91561316666667, "fusion_lon": 0.0, "fusion_lat": 0.0, "is_disabled": 0, "type": "electric_scooter", "lon": -77.00833183333333, "rental_uris": {"android": "https://dc.lft.to/lastmile_qr_scan", "ios": "https://dc.lft.to/lastmile_qr_scan"}, "is_reserved": 0, "bike_id": "4a3beba025c8b068d8ef961feaed54ca", "name": "4a3beba025c8b068d8ef961feaed54ca"}, {"lat": 38.93707033333333, "fusion_lon": 0.0, "fusion_lat": 0.0, "is_disabled": 0, "type": "electric_scooter", "lon": -77.02396416666667, "rental_uris": {"android": "https://dc.lft.to/lastmile_qr_scan", "ios": "https://dc.lft.to/lastmile_qr_scan"}, "is_reserved": 0, "bike_id": "a58407b4209e9d028b67451a7c420266", "name": "a58407b4209e9d028b67451a7c420266"}, {"lat": 38.8973825, "fusion_lon": 0.0, "fusion_lat": 0.0, "is_disabled": 0, "type": "electric_bike", "lon": -76.9053605, "rental_uris": {"android": "https://dc.lft.to/lastmile_qr_scan", "ios": "https://dc.lft.to/lastmile_qr_scan"}, "is_reserved": 0, "bike_id": "dbe17a89b85dc6dd972b461e46817e9b", "name": "dbe17a89b85dc6dd972b461e46817e9b"}, {"lat": 38.897658, "fusion_lon": 0.0, "fusion_lat": 0.0, "is_disabled": 0, "type": "electric_scooter", "lon": -77.02720816666667, "rental_uris": {"android": "https://dc.lft.to/lastmile_qr_scan", "ios": "https://dc.lft.to/lastmile_qr_scan"}, "is_reserved": 0, "bike_id": "5f36d31f0b0c861d41b9fdcc5c36f232", "name": "5f36d31f0b0c861d41b9fdcc5c36f232"}, {"lat": 38.893248, "fusion_lon": 0.0, "fusion_lat": 0.0, "is_disabled": 0, "type": "electric_scooter", "lon": -77.02964333333334, "rental_uris": {"android": "https://dc.lft.to/lastmile_qr_scan", "ios": "https://dc.lft.to/lastmile_qr_scan"}, "is_reserved": 0, "bike_id": "0bc6ce7acf8287f7fd05255dbe00a8fd", "name": "0bc6ce7acf8287f7fd05255dbe00a8fd"}, {"lat": 38.87920783333333, "fusion_lon": 0.0, "fusion_lat": 0.0, "is_disabled": 0, "type": "electric_scooter", "lon": -76.99159716666666, "rental_uris": {"android": "https://dc.lft.to/lastmile_qr_scan", "ios": "https://dc.lft.to/lastmile_qr_scan"}, "is_reserved": 0, "bike_id": "29ac871ea86be3ecf011456fbf36e5e8", "name": "29ac871ea86be3ecf011456fbf36e5e8"}, {"lat": 38.88989383333333, "fusion_lon": 0.0, "fusion_lat": 0.0, "is_disabled": 0, "type": "electric_scooter", "lon": -76.924079, "rental_uris": {"android": "https://dc.lft.to/lastmile_qr_scan", "ios": "https://dc.lft.to/lastmile_qr_scan"}, "is_reserved": 0, "bike_id": "cf1fc457a339f26a7bdc33b5605c2e9e", "name": "cf1fc457a339f26a7bdc33b5605c2e9e"}, {"lat": 38.865084333333336, "fusion_lon": 0.0, "fusion_lat": 0.0, "is_disabled": 0, "type": "electric_scooter", "lon": -76.9734695, "rental_uris": {"android": "https://dc.lft.to/lastmile_qr_scan", "ios": "https://dc.lft.to/lastmile_qr_scan"}, "is_reserved": 0, "bike_id": "90071c867ddf0114bd3be3f64c7a6ce8", "name": "90071c867ddf0114bd3be3f64c7a6ce8"}, {"lat": 38.903773, "fusion_lon": 0.0, "fusion_lat": 0.0, "is_disabled": 0, "type": "electric_scooter", "lon": -77.04466716666667, "rental_uris": {"android": "https://dc.lft.to/lastmile_qr_scan", "ios": "https://dc.lft.to/lastmile_qr_scan"}, "is_reserved": 0, "bike_id": "f5176c64b1d39e00854f53edc30dbed8", "name": "f5176c64b1d39e00854f53edc30dbed8"}, {"lat": 38.9024255, "fusion_lon": 0.0, "fusion_lat": 0.0, "is_disabled": 0, "type": "electric_scooter", "lon": -77.00202016666667, "rental_uris": {"android": "https://dc.lft.to/lastmile_qr_scan", "ios": "https://dc.lft.to/lastmile_qr_scan"}, "is_reserved": 0, "bike_id": "719d2246b868b05b71b702f3697d17c0", "name": "719d2246b868b05b71b702f3697d17c0"}, {"lat": 38.907883, "fusion_lon": 0.0, "fusion_lat": 0.0, "is_disabled": 0, "type": "electric_scooter", "lon": -77.045129, "rental_uris": {"android": "https://dc.lft.to/lastmile_qr_scan", "ios": "https://dc.lft.to/lastmile_qr_scan"}, "is_reserved": 0, "bike_id": "53c2f396a3ad6612a25a296ed8c38e96", "name": "53c2f396a3ad6612a25a296ed8c38e96"}, {"lat": 38.892418666666664, "fusion_lon": 0.0, "fusion_lat": 0.0, "is_disabled": 0, "type": "electric_scooter", "lon": -77.0218725, "rental_uris": {"android": "https://dc.lft.to/lastmile_qr_scan", "ios": "https://dc.lft.to/lastmile_qr_scan"}, "is_reserved": 0, "bike_id": "c9aebecd9471b97916579b7603e2f44b", "name": "c9aebecd9471b97916579b7603e2f44b"}, {"lat": 38.92887666666667, "fusion_lon": 0.0, "fusion_lat": 0.0, "is_disabled": 0, "type": "electric_scooter", "lon": -77.0230845, "rental_uris": {"android": "https://dc.lft.to/lastmile_qr_scan", "ios": "https://dc.lft.to/lastmile_qr_scan"}, "is_reserved": 0, "bike_id": "ded8321d6602917d743115fd5c700437", "name": "ded8321d6602917d743115fd5c700437"}, {"lat": 38.90021383333333, "fusion_lon": 0.0, "fusion_lat": 0.0, "is_disabled": 0, "type": "electric_scooter", "lon": -77.040065, "rental_uris": {"android": "https://dc.lft.to/lastmile_qr_scan", "ios": "https://dc.lft.to/lastmile_qr_scan"}, "is_reserved": 0, "bike_id": "7547c3794083b82d393d5290b7d38996", "name": "7547c3794083b82d393d5290b7d38996"}, {"lat": 38.907243, "fusion_lon": 0.0, "fusion_lat": 0.0, "is_disabled": 0, "type": "electric_scooter", "lon": -77.034414, "rental_uris": {"android": "https://dc.lft.to/lastmile_qr_scan", "ios": "https://dc.lft.to/lastmile_qr_scan"}, "is_reserved": 0, "bike_id": "0d14557451b735230f5212582a4516cb", "name": "0d14557451b735230f5212582a4516cb"}, {"lat": 38.951341, "fusion_lon": 0.0, "fusion_lat": 0.0, "is_disabled": 0, "type": "electric_scooter", "lon": -77.02723833333333, "rental_uris": {"android": "https://dc.lft.to/lastmile_qr_scan", "ios": "https://dc.lft.to/lastmile_qr_scan"}, "is_reserved": 0, "bike_id": "7982b4fa94126e31d6a83509ec6f4ce8", "name": "7982b4fa94126e31d6a83509ec6f4ce8"}, {"lat": 38.9027035, "fusion_lon": 0.0, "fusion_lat": 0.0, "is_disabled": 0, "type": "electric_scooter", "lon": -77.03441233333334, "rental_uris": {"android": "https://dc.lft.to/lastmile_qr_scan", "ios": "https://dc.lft.to/lastmile_qr_scan"}, "is_reserved": 0, "bike_id": "a34c6d6c9694789ca3548251c570e0c1", "name": "a34c6d6c9694789ca3548251c570e0c1"}, {"lat": 38.950023333333334, "fusion_lon": 0.0, "fusion_lat": 0.0, "is_disabled": 0, "type": "electric_bike", "lon": -77.35311366666667, "rental_uris": {"android": "https://dc.lft.to/lastmile_qr_scan", "ios": "https://dc.lft.to/lastmile_qr_scan"}, "is_reserved": 0, "bike_id": "2cf986cee489b0a1b1dfe8e767ba0c24", "name": "2cf986cee489b0a1b1dfe8e767ba0c24"}, {"lat": 38.921939, "fusion_lon": 0.0, "fusion_lat": 0.0, "is_disabled": 0, "type": "electric_scooter", "lon": -77.042322, "rental_uris": {"android": "https://dc.lft.to/lastmile_qr_scan", "ios": "https://dc.lft.to/lastmile_qr_scan"}, "is_reserved": 0, "bike_id": "7d5d9cb1e6aafddcef94329e3969ef7c", "name": "7d5d9cb1e6aafddcef94329e3969ef7c"}, {"lat": 38.89618566666667, "fusion_lon": 0.0, "fusion_lat": 0.0, "is_disabled": 0, "type": "electric_scooter", "lon": -77.00919666666667, "rental_uris": {"android": "https://dc.lft.to/lastmile_qr_scan", "ios": "https://dc.lft.to/lastmile_qr_scan"}, "is_reserved": 0, "bike_id": "0da239259bfed0ca68c512d35e791ca6", "name": "0da239259bfed0ca68c512d35e791ca6"}, {"lat": 38.96022216666667, "fusion_lon": 0.0, "fusion_lat": 0.0, "is_disabled": 0, "type": "electric_bike", "lon": -77.02000533333333, "rental_uris": {"android": "https://dc.lft.to/lastmile_qr_scan", "ios": "https://dc.lft.to/lastmile_qr_scan"}, "is_reserved": 0, "bike_id": "ef28879e279c511843f9012c686ad75e", "name": "ef28879e279c511843f9012c686ad75e"}, {"lat": 38.8832995, "fusion_lon": 0.0, "fusion_lat": 0.0, "is_disabled": 0, "type": "electric_scooter", "lon": -77.01629883333334, "rental_uris": {"android": "https://dc.lft.to/lastmile_qr_scan", "ios": "https://dc.lft.to/lastmile_qr_scan"}, "is_reserved": 0, "bike_id": "ef36896d7e0eba9a5a03a8c3db2fb02a", "name": "ef36896d7e0eba9a5a03a8c3db2fb02a"}, {"lat": 38.9345125, "fusion_lon": 0.0, "fusion_lat": 0.0, "is_disabled": 0, "type": "electric_scooter", "lon": -77.02719716666667, "rental_uris": {"android": "https://dc.lft.to/lastmile_qr_scan", "ios": "https://dc.lft.to/lastmile_qr_scan"}, "is_reserved": 0, "bike_id": "60de3120965e9811116470ab015bf078", "name": "60de3120965e9811116470ab015bf078"}, {"lat": 38.900447166666666, "fusion_lon": 0.0, "fusion_lat": 0.0, "is_disabled": 0, "type": "electric_scooter", "lon": -76.9908445, "rental_uris": {"android": "https://dc.lft.to/lastmile_qr_scan", "ios": "https://dc.lft.to/lastmile_qr_scan"}, "is_reserved": 0, "bike_id": "09455f2ed3c2422f0f4e4c6166c745c7", "name": "09455f2ed3c2422f0f4e4c6166c745c7"}, {"lat": 38.9023855, "fusion_lon": 0.0, "fusion_lat": 0.0, "is_disabled": 0, "type": "electric_scooter", "lon": -77.04469, "rental_uris": {"android": "https://dc.lft.to/lastmile_qr_scan", "ios": "https://dc.lft.to/lastmile_qr_scan"}, "is_reserved": 0, "bike_id": "911cfc8985c5edac6efc9a28998096d5", "name": "911cfc8985c5edac6efc9a28998096d5"}, {"lat": 38.90581533333334, "fusion_lon": 0.0, "fusion_lat": 0.0, "is_disabled": 0, "type": "electric_scooter", "lon": -77.03955083333334, "rental_uris": {"android": "https://dc.lft.to/lastmile_qr_scan", "ios": "https://dc.lft.to/lastmile_qr_scan"}, "is_reserved": 0, "bike_id": "d82d159b838e633bbb869fb05d7ae855", "name": "d82d159b838e633bbb869fb05d7ae855"}, {"lat": 38.902013833333335, "fusion_lon": 0.0, "fusion_lat": 0.0, "is_disabled": 0, "type": "electric_scooter", "lon": -77.02374633333334, "rental_uris": {"android": "https://dc.lft.to/lastmile_qr_scan", "ios": "https://dc.lft.to/lastmile_qr_scan"}, "is_reserved": 0, "bike_id": "be60628614e2c3fada187b0004299943", "name": "be60628614e2c3fada187b0004299943"}, {"lat": 38.86569566666667, "fusion_lon": 0.0, "fusion_lat": 0.0, "is_disabled": 0, "type": "electric_scooter", "lon": -76.97416866666667, "rental_uris": {"android": "https://dc.lft.to/lastmile_qr_scan", "ios": "https://dc.lft.to/lastmile_qr_scan"}, "is_reserved": 0, "bike_id": "b96211211b17066d2166c62b7e9cab76", "name": "b96211211b17066d2166c62b7e9cab76"}, {"lat": 38.87307066666666, "fusion_lon": 0.0, "fusion_lat": 0.0, "is_disabled": 0, "type": "electric_scooter", "lon": -77.010947, "rental_uris": {"android": "https://dc.lft.to/lastmile_qr_scan", "ios": "https://dc.lft.to/lastmile_qr_scan"}, "is_reserved": 0, "bike_id": "4eee8218e51beb1ba548bb0b90696aeb", "name": "4eee8218e51beb1ba548bb0b90696aeb"}, {"lat": 38.90233833333333, "fusion_lon": 0.0, "fusion_lat": 0.0, "is_disabled": 0, "type": "electric_scooter", "lon": -77.00200133333334, "rental_uris": {"android": "https://dc.lft.to/lastmile_qr_scan", "ios": "https://dc.lft.to/lastmile_qr_scan"}, "is_reserved": 0, "bike_id": "0389dfb2b95454cbadc8fb0c8fab3cb9", "name": "0389dfb2b95454cbadc8fb0c8fab3cb9"}, {"lat": 38.90862533333333, "fusion_lon": 0.0, "fusion_lat": 0.0, "is_disabled": 0, "type": "electric_scooter", "lon": -77.03308566666666, "rental_uris": {"android": "https://dc.lft.to/lastmile_qr_scan", "ios": "https://dc.lft.to/lastmile_qr_scan"}, "is_reserved": 0, "bike_id": "5a91a6653eacf699dc8040eb62b965f9", "name": "5a91a6653eacf699dc8040eb62b965f9"}, {"lat": 38.903507, "fusion_lon": 0.0, "fusion_lat": 0.0, "is_disabled": 0, "type": "electric_scooter", "lon": -77.04002083333333, "rental_uris": {"android": "https://dc.lft.to/lastmile_qr_scan", "ios": "https://dc.lft.to/lastmile_qr_scan"}, "is_reserved": 0, "bike_id": "5fc0a117e6fcc3fa627689ed8553ce94", "name": "5fc0a117e6fcc3fa627689ed8553ce94"}, {"lat": 38.893569166666666, "fusion_lon": 0.0, "fusion_lat": 0.0, "is_disabled": 0, "type": "electric_scooter", "lon": -77.00332533333334, "rental_uris": {"android": "https://dc.lft.to/lastmile_qr_scan", "ios": "https://dc.lft.to/lastmile_qr_scan"}, "is_reserved": 0, "bike_id": "59d2e0f4bef0780e0dee225108d09806", "name": "59d2e0f4bef0780e0dee225108d09806"}, {"lat": 38.892223666666666, "fusion_lon": 0.0, "fusion_lat": 0.0, "is_disabled": 0, "type": "electric_scooter", "lon": -77.03227716666666, "rental_uris": {"android": "https://dc.lft.to/lastmile_qr_scan", "ios": "https://dc.lft.to/lastmile_qr_scan"}, "is_reserved": 0, "bike_id": "e99da5e86650538bf6a410281cf428d6", "name": "e99da5e86650538bf6a410281cf428d6"}, {"lat": 38.9234465, "fusion_lon": 0.0, "fusion_lat": 0.0, "is_disabled": 0, "type": "electric_scooter", "lon": -77.05118283333333, "rental_uris": {"android": "https://dc.lft.to/lastmile_qr_scan", "ios": "https://dc.lft.to/lastmile_qr_scan"}, "is_reserved": 0, "bike_id": "377c9822301441f4bf71d3cc8cc110bf", "name": "377c9822301441f4bf71d3cc8cc110bf"}, {"lat": 38.903694, "fusion_lon": 0.0, "fusion_lat": 0.0, "is_disabled": 0, "type": "electric_scooter", "lon": -77.02602966666667, "rental_uris": {"android": "https://dc.lft.to/lastmile_qr_scan", "ios": "https://dc.lft.to/lastmile_qr_scan"}, "is_reserved": 0, "bike_id": "bec6abe62d38b96306c6920466377b88", "name": "bec6abe62d38b96306c6920466377b88"}, {"lat": 38.90501316666667, "fusion_lon": 0.0, "fusion_lat": 0.0, "is_disabled": 0, "type": "electric_scooter", "lon": -77.04976466666666, "rental_uris": {"android": "https://dc.lft.to/lastmile_qr_scan", "ios": "https://dc.lft.to/lastmile_qr_scan"}, "is_reserved": 0, "bike_id": "fceece7df90b58f8d4e588de38c7169c", "name": "fceece7df90b58f8d4e588de38c7169c"}, {"lat": 38.93369766666667, "fusion_lon": 0.0, "fusion_lat": 0.0, "is_disabled": 0, "type": "electric_scooter", "lon": -77.0572425, "rental_uris": {"android": "https://dc.lft.to/lastmile_qr_scan", "ios": "https://dc.lft.to/lastmile_qr_scan"}, "is_reserved": 0, "bike_id": "935db69a93cf5e7804cd9d3ee71028af", "name": "935db69a93cf5e7804cd9d3ee71028af"}, {"lat": 38.900263833333334, "fusion_lon": 0.0, "fusion_lat": 0.0, "is_disabled": 0, "type": "electric_scooter", "lon": -76.99450333333333, "rental_uris": {"android": "https://dc.lft.to/lastmile_qr_scan", "ios": "https://dc.lft.to/lastmile_qr_scan"}, "is_reserved": 0, "bike_id": "136e979d894bf1612fa26e345db23bcb", "name": "136e979d894bf1612fa26e345db23bcb"}, {"lat": 38.92234666666667, "fusion_lon": 0.0, "fusion_lat": 0.0, "is_disabled": 0, "type": "electric_scooter", "lon": -77.0388855, "rental_uris": {"android": "https://dc.lft.to/lastmile_qr_scan", "ios": "https://dc.lft.to/lastmile_qr_scan"}, "is_reserved": 0, "bike_id": "e7eda03711aa649d4f2ad5597ceaa512", "name": "e7eda03711aa649d4f2ad5597ceaa512"}, {"lat": 38.86711316666667, "fusion_lon": 0.0, "fusion_lat": 0.0, "is_disabled": 0, "type": "electric_scooter", "lon": -76.98729616666667, "rental_uris": {"android": "https://dc.lft.to/lastmile_qr_scan", "ios": "https://dc.lft.to/lastmile_qr_scan"}, "is_reserved": 0, "bike_id": "791c50a04bddf59589790fe477b04893", "name": "791c50a04bddf59589790fe477b04893"}, {"lat": 38.87449, "fusion_lon": 0.0, "fusion_lat": 0.0, "is_disabled": 0, "type": "electric_scooter", "lon": -77.00915183333333, "rental_uris": {"android": "https://dc.lft.to/lastmile_qr_scan", "ios": "https://dc.lft.to/lastmile_qr_scan"}, "is_reserved": 0, "bike_id": "a45e55fbb834d684276cb5896df33034", "name": "a45e55fbb834d684276cb5896df33034"}, {"lat": 38.894368666666665, "fusion_lon": 0.0, "fusion_lat": 0.0, "is_disabled": 0, "type": "electric_scooter", "lon": -76.94986283333333, "rental_uris": {"android": "https://dc.lft.to/lastmile_qr_scan", "ios": "https://dc.lft.to/lastmile_qr_scan"}, "is_reserved": 0, "bike_id": "2f8dfd789ad416de1cc017d932a32aae", "name": "2f8dfd789ad416de1cc017d932a32aae"}, {"lat": 38.90271033333333, "fusion_lon": 0.0, "fusion_lat": 0.0, "is_disabled": 0, "type": "electric_scooter", "lon": -77.03666866666667, "rental_uris": {"android": "https://dc.lft.to/lastmile_qr_scan", "ios": "https://dc.lft.to/lastmile_qr_scan"}, "is_reserved": 0, "bike_id": "fbf6a34b9a3f7ef57ba4422bdec888bf", "name": "fbf6a34b9a3f7ef57ba4422bdec888bf"}, {"lat": 38.905389166666666, "fusion_lon": 0.0, "fusion_lat": 0.0, "is_disabled": 0, "type": "electric_scooter", "lon": -77.0475705, "rental_uris": {"android": "https://dc.lft.to/lastmile_qr_scan", "ios": "https://dc.lft.to/lastmile_qr_scan"}, "is_reserved": 0, "bike_id": "3a43de9faceb723cc511bbdb8ab64167", "name": "3a43de9faceb723cc511bbdb8ab64167"}, {"lat": 38.90132333333333, "fusion_lon": 0.0, "fusion_lat": 0.0, "is_disabled": 0, "type": "electric_scooter", "lon": -77.04999433333333, "rental_uris": {"android": "https://dc.lft.to/lastmile_qr_scan", "ios": "https://dc.lft.to/lastmile_qr_scan"}, "is_reserved": 0, "bike_id": "4749024a9be88432c9f8e808333c1aad", "name": "4749024a9be88432c9f8e808333c1aad"}, {"lat": 38.92189166666667, "fusion_lon": 0.0, "fusion_lat": 0.0, "is_disabled": 0, "type": "electric_scooter", "lon": -77.04348016666667, "rental_uris": {"android": "https://dc.lft.to/lastmile_qr_scan", "ios": "https://dc.lft.to/lastmile_qr_scan"}, "is_reserved": 0, "bike_id": "c774a419dbb4d4a7be1b8edcbc9a3ace", "name": "c774a419dbb4d4a7be1b8edcbc9a3ace"}, {"lat": 38.912129, "fusion_lon": 0.0, "fusion_lat": 0.0, "is_disabled": 0, "type": "electric_scooter", "lon": -77.03843583333334, "rental_uris": {"android": "https://dc.lft.to/lastmile_qr_scan", "ios": "https://dc.lft.to/lastmile_qr_scan"}, "is_reserved": 0, "bike_id": "1c009a84f04f24f9c354b623a8c4e5c7", "name": "1c009a84f04f24f9c354b623a8c4e5c7"}, {"lat": 38.9201915, "fusion_lon": 0.0, "fusion_lat": 0.0, "is_disabled": 0, "type": "electric_scooter", "lon": -76.978877, "rental_uris": {"android": "https://dc.lft.to/lastmile_qr_scan", "ios": "https://dc.lft.to/lastmile_qr_scan"}, "is_reserved": 0, "bike_id": "387877420dc864e0c52843a37bf1f357", "name": "387877420dc864e0c52843a37bf1f357"}, {"lat": 38.893761833333336, "fusion_lon": 0.0, "fusion_lat": 0.0, "is_disabled": 0, "type": "electric_scooter", "lon": -77.04798933333333, "rental_uris": {"android": "https://dc.lft.to/lastmile_qr_scan", "ios": "https://dc.lft.to/lastmile_qr_scan"}, "is_reserved": 0, "bike_id": "63e0aeca87723bd250c871ca3ba25293", "name": "63e0aeca87723bd250c871ca3ba25293"}, {"lat": 38.883464000000004, "fusion_lon": 0.0, "fusion_lat": 0.0, "is_disabled": 0, "type": "electric_bike", "lon": -77.18293916666667, "rental_uris": {"android": "https://dc.lft.to/lastmile_qr_scan", "ios": "https://dc.lft.to/lastmile_qr_scan"}, "is_reserved": 0, "bike_id": "9ce8611cf720d823fce82988f13a4cd2", "name": "9ce8611cf720d823fce82988f13a4cd2"}, {"lat": 38.91106683333334, "fusion_lon": 0.0, "fusion_lat": 0.0, "is_disabled": 0, "type": "electric_scooter", "lon": -77.02144383333334, "rental_uris": {"android": "https://dc.lft.to/lastmile_qr_scan", "ios": "https://dc.lft.to/lastmile_qr_scan"}, "is_reserved": 0, "bike_id": "4c38fd415a6af1f9b52ce61ab01c0c4c", "name": "4c38fd415a6af1f9b52ce61ab01c0c4c"}, {"lat": 38.950161666666666, "fusion_lon": 0.0, "fusion_lat": 0.0, "is_disabled": 0, "type": "electric_scooter", "lon": -77.06731733333334, "rental_uris": {"android": "https://dc.lft.to/lastmile_qr_scan", "ios": "https://dc.lft.to/lastmile_qr_scan"}, "is_reserved": 0, "bike_id": "993db87d05dad69fe12a409b6cfb6ad6", "name": "993db87d05dad69fe12a409b6cfb6ad6"}, {"lat": 38.907514, "fusion_lon": 0.0, "fusion_lat": 0.0, "is_disabled": 0, "type": "electric_scooter", "lon": -77.0319725, "rental_uris": {"android": "https://dc.lft.to/lastmile_qr_scan", "ios": "https://dc.lft.to/lastmile_qr_scan"}, "is_reserved": 0, "bike_id": "3ef78fc4948ccc0d8508000fa88b18b5", "name": "3ef78fc4948ccc0d8508000fa88b18b5"}, {"lat": 38.90874783333334, "fusion_lon": 0.0, "fusion_lat": 0.0, "is_disabled": 0, "type": "electric_scooter", "lon": -77.03238766666666, "rental_uris": {"android": "https://dc.lft.to/lastmile_qr_scan", "ios": "https://dc.lft.to/lastmile_qr_scan"}, "is_reserved": 0, "bike_id": "b77f89b8e510fa396b297389ca8c3b96", "name": "b77f89b8e510fa396b297389ca8c3b96"}, {"lat": 38.86045333333333, "fusion_lon": 0.0, "fusion_lat": 0.0, "is_disabled": 0, "type": "electric_scooter", "lon": -76.98492216666666, "rental_uris": {"android": "https://dc.lft.to/lastmile_qr_scan", "ios": "https://dc.lft.to/lastmile_qr_scan"}, "is_reserved": 0, "bike_id": "79fc1fe504979b6475b5d38bd22832e9", "name": "79fc1fe504979b6475b5d38bd22832e9"}, {"lat": 38.85868933333333, "fusion_lon": 0.0, "fusion_lat": 0.0, "is_disabled": 0, "type": "electric_scooter", "lon": -76.99021716666667, "rental_uris": {"android": "https://dc.lft.to/lastmile_qr_scan", "ios": "https://dc.lft.to/lastmile_qr_scan"}, "is_reserved": 0, "bike_id": "565b63601f9d87d438466b1d23c23d1b", "name": "565b63601f9d87d438466b1d23c23d1b"}, {"lat": 38.903610666666665, "fusion_lon": 0.0, "fusion_lat": 0.0, "is_disabled": 0, "type": "electric_scooter", "lon": -77.02613133333334, "rental_uris": {"android": "https://dc.lft.to/lastmile_qr_scan", "ios": "https://dc.lft.to/lastmile_qr_scan"}, "is_reserved": 0, "bike_id": "582ee28b2f62cbea6262b507ac205e13", "name": "582ee28b2f62cbea6262b507ac205e13"}, {"lat": 38.892289, "fusion_lon": 0.0, "fusion_lat": 0.0, "is_disabled": 0, "type": "electric_scooter", "lon": -77.02545583333334, "rental_uris": {"android": "https://dc.lft.to/lastmile_qr_scan", "ios": "https://dc.lft.to/lastmile_qr_scan"}, "is_reserved": 0, "bike_id": "e940a040b95b9eb3b0c458080e3a02f6", "name": "e940a040b95b9eb3b0c458080e3a02f6"}, {"lat": 38.903527833333335, "fusion_lon": 0.0, "fusion_lat": 0.0, "is_disabled": 0, "type": "electric_scooter", "lon": -77.04344316666666, "rental_uris": {"android": "https://dc.lft.to/lastmile_qr_scan", "ios": "https://dc.lft.to/lastmile_qr_scan"}, "is_reserved": 0, "bike_id": "965a677ec0dff903c98c58e8f01076b5", "name": "965a677ec0dff903c98c58e8f01076b5"}, {"lat": 38.89854916666667, "fusion_lon": 0.0, "fusion_lat": 0.0, "is_disabled": 0, "type": "electric_scooter", "lon": -77.03957316666667, "rental_uris": {"android": "https://dc.lft.to/lastmile_qr_scan", "ios": "https://dc.lft.to/lastmile_qr_scan"}, "is_reserved": 0, "bike_id": "32833f16665562ff05439444347104ea", "name": "32833f16665562ff05439444347104ea"}, {"lat": 38.914786166666666, "fusion_lon": 0.0, "fusion_lat": 0.0, "is_disabled": 0, "type": "electric_scooter", "lon": -77.00281, "rental_uris": {"android": "https://dc.lft.to/lastmile_qr_scan", "ios": "https://dc.lft.to/lastmile_qr_scan"}, "is_reserved": 0, "bike_id": "d11d762de62b85de5ee2c03306bb434f", "name": "d11d762de62b85de5ee2c03306bb434f"}, {"lat": 38.939046, "fusion_lon": 0.0, "fusion_lat": 0.0, "is_disabled": 0, "type": "electric_scooter", "lon": -77.02479683333334, "rental_uris": {"android": "https://dc.lft.to/lastmile_qr_scan", "ios": "https://dc.lft.to/lastmile_qr_scan"}, "is_reserved": 0, "bike_id": "19cf298a48e14ecfe726f5378a34db30", "name": "19cf298a48e14ecfe726f5378a34db30"}, {"lat": 38.87670516666667, "fusion_lon": 0.0, "fusion_lat": 0.0, "is_disabled": 0, "type": "electric_scooter", "lon": -77.01577433333334, "rental_uris": {"android": "https://dc.lft.to/lastmile_qr_scan", "ios": "https://dc.lft.to/lastmile_qr_scan"}, "is_reserved": 0, "bike_id": "efa08ff03183d623a5acd60fbefddfb0", "name": "efa08ff03183d623a5acd60fbefddfb0"}, {"lat": 38.9213805, "fusion_lon": 0.0, "fusion_lat": 0.0, "is_disabled": 0, "type": "electric_scooter", "lon": -77.009575, "rental_uris": {"android": "https://dc.lft.to/lastmile_qr_scan", "ios": "https://dc.lft.to/lastmile_qr_scan"}, "is_reserved": 0, "bike_id": "fa2563958635f4c0465ef8deb28037cb", "name": "fa2563958635f4c0465ef8deb28037cb"}, {"lat": 38.90505183333333, "fusion_lon": 0.0, "fusion_lat": 0.0, "is_disabled": 0, "type": "electric_scooter", "lon": -77.0345305, "rental_uris": {"android": "https://dc.lft.to/lastmile_qr_scan", "ios": "https://dc.lft.to/lastmile_qr_scan"}, "is_reserved": 0, "bike_id": "b237d5c7e6509c401f7a50cafd3b1f15", "name": "b237d5c7e6509c401f7a50cafd3b1f15"}, {"lat": 38.82869766666666, "fusion_lon": 0.0, "fusion_lat": 0.0, "is_disabled": 0, "type": "electric_bike", "lon": -77.1122095, "rental_uris": {"android": "https://dc.lft.to/lastmile_qr_scan", "ios": "https://dc.lft.to/lastmile_qr_scan"}, "is_reserved": 0, "bike_id": "4f8fac1d9dc044eb1b1f77db5c34f666", "name": "4f8fac1d9dc044eb1b1f77db5c34f666"}, {"lat": 38.920661, "fusion_lon": 0.0, "fusion_lat": 0.0, "is_disabled": 0, "type": "electric_scooter", "lon": -77.03407566666667, "rental_uris": {"android": "https://dc.lft.to/lastmile_qr_scan", "ios": "https://dc.lft.to/lastmile_qr_scan"}, "is_reserved": 0, "bike_id": "3c5ebcdcd1c21b491f76877c7d6b6e2f", "name": "3c5ebcdcd1c21b491f76877c7d6b6e2f"}, {"lat": 38.905753, "fusion_lon": 0.0, "fusion_lat": 0.0, "is_disabled": 0, "type": "electric_scooter", "lon": -77.0216435, "rental_uris": {"android": "https://dc.lft.to/lastmile_qr_scan", "ios": "https://dc.lft.to/lastmile_qr_scan"}, "is_reserved": 0, "bike_id": "ae205d75684a33b9fea49061931bfd38", "name": "ae205d75684a33b9fea49061931bfd38"}, {"lat": 38.99090833333333, "fusion_lon": 0.0, "fusion_lat": 0.0, "is_disabled": 0, "type": "electric_bike", "lon": -76.87495183333333, "rental_uris": {"android": "https://dc.lft.to/lastmile_qr_scan", "ios": "https://dc.lft.to/lastmile_qr_scan"}, "is_reserved": 0, "bike_id": "ee682038b090f38641a709bdbfad87d1", "name": "ee682038b090f38641a709bdbfad87d1"}, {"lat": 38.898832, "fusion_lon": 0.0, "fusion_lat": 0.0, "is_disabled": 0, "type": "electric_scooter", "lon": -76.9315865, "rental_uris": {"android": "https://dc.lft.to/lastmile_qr_scan", "ios": "https://dc.lft.to/lastmile_qr_scan"}, "is_reserved": 0, "bike_id": "52c1c8fb41daa3983bb7bd8e92bcca22", "name": "52c1c8fb41daa3983bb7bd8e92bcca22"}, {"lat": 38.8986115, "fusion_lon": 0.0, "fusion_lat": 0.0, "is_disabled": 0, "type": "electric_scooter", "lon": -77.03310033333334, "rental_uris": {"android": "https://dc.lft.to/lastmile_qr_scan", "ios": "https://dc.lft.to/lastmile_qr_scan"}, "is_reserved": 0, "bike_id": "9f6de450db56f501408bab3d373d9031", "name": "9f6de450db56f501408bab3d373d9031"}, {"lat": 38.94098816666666, "fusion_lon": 0.0, "fusion_lat": 0.0, "is_disabled": 0, "type": "electric_scooter", "lon": -77.0211245, "rental_uris": {"android": "https://dc.lft.to/lastmile_qr_scan", "ios": "https://dc.lft.to/lastmile_qr_scan"}, "is_reserved": 0, "bike_id": "0949f07f614a3510ea6a12ec1551d374", "name": "0949f07f614a3510ea6a12ec1551d374"}, {"lat": 38.912375833333336, "fusion_lon": 0.0, "fusion_lat": 0.0, "is_disabled": 0, "type": "electric_scooter", "lon": -77.0042735, "rental_uris": {"android": "https://dc.lft.to/lastmile_qr_scan", "ios": "https://dc.lft.to/lastmile_qr_scan"}, "is_reserved": 0, "bike_id": "7164d79c239c4f8743fc64b7cd7a3373", "name": "7164d79c239c4f8743fc64b7cd7a3373"}, {"lat": 38.922079, "fusion_lon": 0.0, "fusion_lat": 0.0, "is_disabled": 0, "type": "electric_scooter", "lon": -77.03220633333333, "rental_uris": {"android": "https://dc.lft.to/lastmile_qr_scan", "ios": "https://dc.lft.to/lastmile_qr_scan"}, "is_reserved": 0, "bike_id": "232fc7130ef52f9cdfdafa19d27d0972", "name": "232fc7130ef52f9cdfdafa19d27d0972"}, {"lat": 38.908452, "fusion_lon": 0.0, "fusion_lat": 0.0, "is_disabled": 0, "type": "electric_scooter", "lon": -77.02697333333333, "rental_uris": {"android": "https://dc.lft.to/lastmile_qr_scan", "ios": "https://dc.lft.to/lastmile_qr_scan"}, "is_reserved": 0, "bike_id": "7042b3b584a7cbd9da880e1c1391a2ed", "name": "7042b3b584a7cbd9da880e1c1391a2ed"}, {"lat": 38.91135466666667, "fusion_lon": 0.0, "fusion_lat": 0.0, "is_disabled": 0, "type": "electric_scooter", "lon": -77.03658716666666, "rental_uris": {"android": "https://dc.lft.to/lastmile_qr_scan", "ios": "https://dc.lft.to/lastmile_qr_scan"}, "is_reserved": 0, "bike_id": "7dba986d6ab5eb1364e49dd9eea8cf00", "name": "7dba986d6ab5eb1364e49dd9eea8cf00"}, {"lat": 38.871995166666665, "fusion_lon": 0.0, "fusion_lat": 0.0, "is_disabled": 0, "type": "electric_scooter", "lon": -77.01239916666667, "rental_uris": {"android": "https://dc.lft.to/lastmile_qr_scan", "ios": "https://dc.lft.to/lastmile_qr_scan"}, "is_reserved": 0, "bike_id": "6e476a24c5bbc5a732a2c0adcc5bbb17", "name": "6e476a24c5bbc5a732a2c0adcc5bbb17"}, {"lat": 38.907812, "fusion_lon": 0.0, "fusion_lat": 0.0, "is_disabled": 0, "type": "electric_scooter", "lon": -77.04512983333333, "rental_uris": {"android": "https://dc.lft.to/lastmile_qr_scan", "ios": "https://dc.lft.to/lastmile_qr_scan"}, "is_reserved": 0, "bike_id": "45fad65b5dbb40d9ecc362bb847208a9", "name": "45fad65b5dbb40d9ecc362bb847208a9"}, {"lat": 38.92464583333334, "fusion_lon": 0.0, "fusion_lat": 0.0, "is_disabled": 0, "type": "electric_scooter", "lon": -77.02153933333334, "rental_uris": {"android": "https://dc.lft.to/lastmile_qr_scan", "ios": "https://dc.lft.to/lastmile_qr_scan"}, "is_reserved": 0, "bike_id": "7de8e62ce82eb6d214384a40d86889c7", "name": "7de8e62ce82eb6d214384a40d86889c7"}, {"lat": 38.912228666666664, "fusion_lon": 0.0, "fusion_lat": 0.0, "is_disabled": 0, "type": "electric_scooter", "lon": -77.03796083333333, "rental_uris": {"android": "https://dc.lft.to/lastmile_qr_scan", "ios": "https://dc.lft.to/lastmile_qr_scan"}, "is_reserved": 0, "bike_id": "5a3234c002047362edbe934d9aaa5fa6", "name": "5a3234c002047362edbe934d9aaa5fa6"}, {"lat": 38.92979966666667, "fusion_lon": 0.0, "fusion_lat": 0.0, "is_disabled": 0, "type": "electric_scooter", "lon": -77.03187, "rental_uris": {"android": "https://dc.lft.to/lastmile_qr_scan", "ios": "https://dc.lft.to/lastmile_qr_scan"}, "is_reserved": 0, "bike_id": "4da58db626ca0d3591e1607a2879a74b", "name": "4da58db626ca0d3591e1607a2879a74b"}, {"lat": 38.8833585, "fusion_lon": 0.0, "fusion_lat": 0.0, "is_disabled": 0, "type": "electric_scooter", "lon": -77.00641116666667, "rental_uris": {"android": "https://dc.lft.to/lastmile_qr_scan", "ios": "https://dc.lft.to/lastmile_qr_scan"}, "is_reserved": 0, "bike_id": "7b564fe015a3e56b659b7fcc7450feb8", "name": "7b564fe015a3e56b659b7fcc7450feb8"}, {"lat": 38.89852833333333, "fusion_lon": 0.0, "fusion_lat": 0.0, "is_disabled": 0, "type": "electric_scooter", "lon": -77.0331325, "rental_uris": {"android": "https://dc.lft.to/lastmile_qr_scan", "ios": "https://dc.lft.to/lastmile_qr_scan"}, "is_reserved": 0, "bike_id": "08a0bc6f85b90e7f3ddbf13811e01157", "name": "08a0bc6f85b90e7f3ddbf13811e01157"}, {"lat": 38.900589833333335, "fusion_lon": 0.0, "fusion_lat": 0.0, "is_disabled": 0, "type": "electric_scooter", "lon": -77.04833733333334, "rental_uris": {"android": "https://dc.lft.to/lastmile_qr_scan", "ios": "https://dc.lft.to/lastmile_qr_scan"}, "is_reserved": 0, "bike_id": "98f6da5e40fe2da3294747cf1577553b", "name": "98f6da5e40fe2da3294747cf1577553b"}, {"lat": 38.87712366666667, "fusion_lon": 0.0, "fusion_lat": 0.0, "is_disabled": 0, "type": "electric_scooter", "lon": -77.018138, "rental_uris": {"android": "https://dc.lft.to/lastmile_qr_scan", "ios": "https://dc.lft.to/lastmile_qr_scan"}, "is_reserved": 0, "bike_id": "c9e59473f5aa4341d56b21406e4fa9ae", "name": "c9e59473f5aa4341d56b21406e4fa9ae"}, {"lat": 38.9291265, "fusion_lon": 0.0, "fusion_lat": 0.0, "is_disabled": 0, "type": "electric_scooter", "lon": -77.02087833333333, "rental_uris": {"android": "https://dc.lft.to/lastmile_qr_scan", "ios": "https://dc.lft.to/lastmile_qr_scan"}, "is_reserved": 0, "bike_id": "620e86e1a1c6767c2855f06d28fdaec2", "name": "620e86e1a1c6767c2855f06d28fdaec2"}, {"lat": 38.92668366666667, "fusion_lon": 0.0, "fusion_lat": 0.0, "is_disabled": 0, "type": "electric_scooter", "lon": -77.01471316666667, "rental_uris": {"android": "https://dc.lft.to/lastmile_qr_scan", "ios": "https://dc.lft.to/lastmile_qr_scan"}, "is_reserved": 0, "bike_id": "30205e63b6723a88d3a2e08f2f3d5d85", "name": "30205e63b6723a88d3a2e08f2f3d5d85"}, {"lat": 38.84293666666667, "fusion_lon": 0.0, "fusion_lat": 0.0, "is_disabled": 0, "type": "electric_scooter", "lon": -76.99953283333333, "rental_uris": {"android": "https://dc.lft.to/lastmile_qr_scan", "ios": "https://dc.lft.to/lastmile_qr_scan"}, "is_reserved": 0, "bike_id": "28bd550518eea27e955e405948b301f9", "name": "28bd550518eea27e955e405948b301f9"}, {"lat": 38.912691833333334, "fusion_lon": 0.0, "fusion_lat": 0.0, "is_disabled": 0, "type": "electric_scooter", "lon": -77.02219783333334, "rental_uris": {"android": "https://dc.lft.to/lastmile_qr_scan", "ios": "https://dc.lft.to/lastmile_qr_scan"}, "is_reserved": 0, "bike_id": "375cdd13a0e56f359e7e581893bd4d73", "name": "375cdd13a0e56f359e7e581893bd4d73"}, {"lat": 38.9011525, "fusion_lon": 0.0, "fusion_lat": 0.0, "is_disabled": 0, "type": "electric_scooter", "lon": -77.04482783333333, "rental_uris": {"android": "https://dc.lft.to/lastmile_qr_scan", "ios": "https://dc.lft.to/lastmile_qr_scan"}, "is_reserved": 0, "bike_id": "1689c88eb65b93038461aff478fc13cd", "name": "1689c88eb65b93038461aff478fc13cd"}, {"lat": 38.9278265, "fusion_lon": 0.0, "fusion_lat": 0.0, "is_disabled": 0, "type": "electric_scooter", "lon": -77.055868, "rental_uris": {"android": "https://dc.lft.to/lastmile_qr_scan", "ios": "https://dc.lft.to/lastmile_qr_scan"}, "is_reserved": 0, "bike_id": "2a18760392e3e312b49968e518f0ed83", "name": "2a18760392e3e312b49968e518f0ed83"}, {"lat": 38.904121333333336, "fusion_lon": 0.0, "fusion_lat": 0.0, "is_disabled": 0, "type": "electric_scooter", "lon": -77.0436155, "rental_uris": {"android": "https://dc.lft.to/lastmile_qr_scan", "ios": "https://dc.lft.to/lastmile_qr_scan"}, "is_reserved": 0, "bike_id": "7f20d19af9364c15dc8f01be596ecc2d", "name": "7f20d19af9364c15dc8f01be596ecc2d"}, {"lat": 38.92033766666667, "fusion_lon": 0.0, "fusion_lat": 0.0, "is_disabled": 0, "type": "electric_scooter", "lon": -76.99566766666666, "rental_uris": {"android": "https://dc.lft.to/lastmile_qr_scan", "ios": "https://dc.lft.to/lastmile_qr_scan"}, "is_reserved": 0, "bike_id": "5586a8b9b8a327e8e578d1643f02ad77", "name": "5586a8b9b8a327e8e578d1643f02ad77"}, {"lat": 38.83812966666667, "fusion_lon": 0.0, "fusion_lat": 0.0, "is_disabled": 0, "type": "electric_bike", "lon": -77.09520116666667, "rental_uris": {"android": "https://dc.lft.to/lastmile_qr_scan", "ios": "https://dc.lft.to/lastmile_qr_scan"}, "is_reserved": 0, "bike_id": "8c0de950f0b0ee2cef208f188243614f", "name": "8c0de950f0b0ee2cef208f188243614f"}, {"lat": 38.91276383333334, "fusion_lon": 0.0, "fusion_lat": 0.0, "is_disabled": 0, "type": "electric_scooter", "lon": -77.0375355, "rental_uris": {"android": "https://dc.lft.to/lastmile_qr_scan", "ios": "https://dc.lft.to/lastmile_qr_scan"}, "is_reserved": 0, "bike_id": "cf5a8ae843c30ef7c45a6f0d3c4d6045", "name": "cf5a8ae843c30ef7c45a6f0d3c4d6045"}, {"lat": 38.91484966666667, "fusion_lon": 0.0, "fusion_lat": 0.0, "is_disabled": 0, "type": "electric_scooter", "lon": -77.04170716666667, "rental_uris": {"android": "https://dc.lft.to/lastmile_qr_scan", "ios": "https://dc.lft.to/lastmile_qr_scan"}, "is_reserved": 0, "bike_id": "7ac2f2061fb94720e868d33e265d0d13", "name": "7ac2f2061fb94720e868d33e265d0d13"}, {"lat": 38.90780066666667, "fusion_lon": 0.0, "fusion_lat": 0.0, "is_disabled": 0, "type": "electric_scooter", "lon": -77.07167816666667, "rental_uris": {"android": "https://dc.lft.to/lastmile_qr_scan", "ios": "https://dc.lft.to/lastmile_qr_scan"}, "is_reserved": 0, "bike_id": "21385e290b385b13cbae4ad436dd25f7", "name": "21385e290b385b13cbae4ad436dd25f7"}, {"lat": 38.89376216666667, "fusion_lon": 0.0, "fusion_lat": 0.0, "is_disabled": 0, "type": "electric_scooter", "lon": -77.0241645, "rental_uris": {"android": "https://dc.lft.to/lastmile_qr_scan", "ios": "https://dc.lft.to/lastmile_qr_scan"}, "is_reserved": 0, "bike_id": "7db4b8906b6abb100ddc061bdec1a5d4", "name": "7db4b8906b6abb100ddc061bdec1a5d4"}, {"lat": 38.90263216666666, "fusion_lon": 0.0, "fusion_lat": 0.0, "is_disabled": 0, "type": "electric_scooter", "lon": -77.00206783333333, "rental_uris": {"android": "https://dc.lft.to/lastmile_qr_scan", "ios": "https://dc.lft.to/lastmile_qr_scan"}, "is_reserved": 0, "bike_id": "45359055523c005a2adacebcada08dd3", "name": "45359055523c005a2adacebcada08dd3"}, {"lat": 38.9213, "fusion_lon": 0.0, "fusion_lat": 0.0, "is_disabled": 0, "type": "electric_scooter", "lon": -77.04579566666666, "rental_uris": {"android": "https://dc.lft.to/lastmile_qr_scan", "ios": "https://dc.lft.to/lastmile_qr_scan"}, "is_reserved": 0, "bike_id": "b51c5bab3dfd144fb7a027e9209c91a4", "name": "b51c5bab3dfd144fb7a027e9209c91a4"}, {"lat": 38.892244166666664, "fusion_lon": 0.0, "fusion_lat": 0.0, "is_disabled": 0, "type": "electric_scooter", "lon": -77.02842233333334, "rental_uris": {"android": "https://dc.lft.to/lastmile_qr_scan", "ios": "https://dc.lft.to/lastmile_qr_scan"}, "is_reserved": 0, "bike_id": "45424097f51bfa33d6807b636f3b0760", "name": "45424097f51bfa33d6807b636f3b0760"}, {"lat": 38.907799833333335, "fusion_lon": 0.0, "fusion_lat": 0.0, "is_disabled": 0, "type": "electric_scooter", "lon": -77.011116, "rental_uris": {"android": "https://dc.lft.to/lastmile_qr_scan", "ios": "https://dc.lft.to/lastmile_qr_scan"}, "is_reserved": 0, "bike_id": "4e45aebdf5d979dde460f0803efd76eb", "name": "4e45aebdf5d979dde460f0803efd76eb"}, {"lat": 38.8842045, "fusion_lon": 0.0, "fusion_lat": 0.0, "is_disabled": 0, "type": "electric_scooter", "lon": -76.99548, "rental_uris": {"android": "https://dc.lft.to/lastmile_qr_scan", "ios": "https://dc.lft.to/lastmile_qr_scan"}, "is_reserved": 0, "bike_id": "3fb51dc0bfdacfd29025d366fce9fba9", "name": "3fb51dc0bfdacfd29025d366fce9fba9"}, {"lat": 38.90487733333333, "fusion_lon": 0.0, "fusion_lat": 0.0, "is_disabled": 0, "type": "electric_scooter", "lon": -77.02938716666667, "rental_uris": {"android": "https://dc.lft.to/lastmile_qr_scan", "ios": "https://dc.lft.to/lastmile_qr_scan"}, "is_reserved": 0, "bike_id": "8a83f45bcfdff6885e88d40b9fde9d02", "name": "8a83f45bcfdff6885e88d40b9fde9d02"}, {"lat": 38.88771583333333, "fusion_lon": 0.0, "fusion_lat": 0.0, "is_disabled": 0, "type": "electric_scooter", "lon": -77.02173133333334, "rental_uris": {"android": "https://dc.lft.to/lastmile_qr_scan", "ios": "https://dc.lft.to/lastmile_qr_scan"}, "is_reserved": 0, "bike_id": "fed179cd0b624de68980f89612112500", "name": "fed179cd0b624de68980f89612112500"}, {"lat": 38.89232166666667, "fusion_lon": 0.0, "fusion_lat": 0.0, "is_disabled": 0, "type": "electric_scooter", "lon": -77.02828333333333, "rental_uris": {"android": "https://dc.lft.to/lastmile_qr_scan", "ios": "https://dc.lft.to/lastmile_qr_scan"}, "is_reserved": 0, "bike_id": "09fc90be017356f011ea81d1ba717d4b", "name": "09fc90be017356f011ea81d1ba717d4b"}, {"lat": 38.9049035, "fusion_lon": 0.0, "fusion_lat": 0.0, "is_disabled": 0, "type": "electric_scooter", "lon": -77.04060816666667, "rental_uris": {"android": "https://dc.lft.to/lastmile_qr_scan", "ios": "https://dc.lft.to/lastmile_qr_scan"}, "is_reserved": 0, "bike_id": "f6bf8116204bafbc2046786847168408", "name": "f6bf8116204bafbc2046786847168408"}, {"lat": 38.8524765, "fusion_lon": 0.0, "fusion_lat": 0.0, "is_disabled": 0, "type": "electric_bike", "lon": -77.11428983333333, "rental_uris": {"android": "https://dc.lft.to/lastmile_qr_scan", "ios": "https://dc.lft.to/lastmile_qr_scan"}, "is_reserved": 0, "bike_id": "93db069aaa74f1898a4b714cf7cb833a", "name": "93db069aaa74f1898a4b714cf7cb833a"}, {"lat": 38.916886833333336, "fusion_lon": 0.0, "fusion_lat": 0.0, "is_disabled": 0, "type": "electric_scooter", "lon": -77.03633533333333, "rental_uris": {"android": "https://dc.lft.to/lastmile_qr_scan", "ios": "https://dc.lft.to/lastmile_qr_scan"}, "is_reserved": 0, "bike_id": "36665dfcff7b7522367b5aa5dc7a05e4", "name": "36665dfcff7b7522367b5aa5dc7a05e4"}, {"lat": 38.86478983333333, "fusion_lon": 0.0, "fusion_lat": 0.0, "is_disabled": 0, "type": "electric_scooter", "lon": -76.98363183333333, "rental_uris": {"android": "https://dc.lft.to/lastmile_qr_scan", "ios": "https://dc.lft.to/lastmile_qr_scan"}, "is_reserved": 0, "bike_id": "85418c9dbdfafeae24deb6a22c1c4e08", "name": "85418c9dbdfafeae24deb6a22c1c4e08"}, {"lat": 38.923012666666665, "fusion_lon": 0.0, "fusion_lat": 0.0, "is_disabled": 0, "type": "electric_scooter", "lon": -76.9977845, "rental_uris": {"android": "https://dc.lft.to/lastmile_qr_scan", "ios": "https://dc.lft.to/lastmile_qr_scan"}, "is_reserved": 0, "bike_id": "570a08aaae53f424f57a1826feb9ba8e", "name": "570a08aaae53f424f57a1826feb9ba8e"}, {"lat": 38.94087433333333, "fusion_lon": 0.0, "fusion_lat": 0.0, "is_disabled": 0, "type": "electric_scooter", "lon": -77.0217145, "rental_uris": {"android": "https://dc.lft.to/lastmile_qr_scan", "ios": "https://dc.lft.to/lastmile_qr_scan"}, "is_reserved": 0, "bike_id": "e213699c7a1f10d53931937f7707d66e", "name": "e213699c7a1f10d53931937f7707d66e"}, {"lat": 38.9237365, "fusion_lon": 0.0, "fusion_lat": 0.0, "is_disabled": 0, "type": "electric_scooter", "lon": -77.04026266666666, "rental_uris": {"android": "https://dc.lft.to/lastmile_qr_scan", "ios": "https://dc.lft.to/lastmile_qr_scan"}, "is_reserved": 0, "bike_id": "bea603ecd9c975388ebeaf64f94e0c4e", "name": "bea603ecd9c975388ebeaf64f94e0c4e"}, {"lat": 38.87658066666667, "fusion_lon": 0.0, "fusion_lat": 0.0, "is_disabled": 0, "type": "electric_scooter", "lon": -76.9933795, "rental_uris": {"android": "https://dc.lft.to/lastmile_qr_scan", "ios": "https://dc.lft.to/lastmile_qr_scan"}, "is_reserved": 0, "bike_id": "03715a2d6da46518798c8483c91bd3bf", "name": "03715a2d6da46518798c8483c91bd3bf"}, {"lat": 38.90384266666667, "fusion_lon": 0.0, "fusion_lat": 0.0, "is_disabled": 0, "type": "electric_scooter", "lon": -77.04364783333334, "rental_uris": {"android": "https://dc.lft.to/lastmile_qr_scan", "ios": "https://dc.lft.to/lastmile_qr_scan"}, "is_reserved": 0, "bike_id": "05903014e9ad9a4a066f13c0ae773000", "name": "05903014e9ad9a4a066f13c0ae773000"}, {"lat": 38.901172833333334, "fusion_lon": 0.0, "fusion_lat": 0.0, "is_disabled": 0, "type": "electric_scooter", "lon": -77.04748516666666, "rental_uris": {"android": "https://dc.lft.to/lastmile_qr_scan", "ios": "https://dc.lft.to/lastmile_qr_scan"}, "is_reserved": 0, "bike_id": "5c0e4858ab103486bee4d9801db0f7bb", "name": "5c0e4858ab103486bee4d9801db0f7bb"}, {"lat": 38.8922325, "fusion_lon": 0.0, "fusion_lat": 0.0, "is_disabled": 0, "type": "electric_scooter", "lon": -77.03223166666666, "rental_uris": {"android": "https://dc.lft.to/lastmile_qr_scan", "ios": "https://dc.lft.to/lastmile_qr_scan"}, "is_reserved": 0, "bike_id": "0d9a047c425b8d7cbdd6d49383daa76c", "name": "0d9a047c425b8d7cbdd6d49383daa76c"}, {"lat": 38.92537733333333, "fusion_lon": 0.0, "fusion_lat": 0.0, "is_disabled": 0, "type": "electric_bike", "lon": -77.2325715, "rental_uris": {"android": "https://dc.lft.to/lastmile_qr_scan", "ios": "https://dc.lft.to/lastmile_qr_scan"}, "is_reserved": 0, "bike_id": "36bd972f5146e3395cc541e17ffde2ea", "name": "36bd972f5146e3395cc541e17ffde2ea"}, {"lat": 38.891601666666666, "fusion_lon": 0.0, "fusion_lat": 0.0, "is_disabled": 0, "type": "electric_scooter", "lon": -76.95410883333334, "rental_uris": {"android": "https://dc.lft.to/lastmile_qr_scan", "ios": "https://dc.lft.to/lastmile_qr_scan"}, "is_reserved": 0, "bike_id": "e630ae1c58396cfa578a6ddabe88496a", "name": "e630ae1c58396cfa578a6ddabe88496a"}, {"lat": 38.91306383333333, "fusion_lon": 0.0, "fusion_lat": 0.0, "is_disabled": 0, "type": "electric_scooter", "lon": -77.04011883333334, "rental_uris": {"android": "https://dc.lft.to/lastmile_qr_scan", "ios": "https://dc.lft.to/lastmile_qr_scan"}, "is_reserved": 0, "bike_id": "c7665e5e7def4569b55173e4aec29e17", "name": "c7665e5e7def4569b55173e4aec29e17"}, {"lat": 38.9007885, "fusion_lon": 0.0, "fusion_lat": 0.0, "is_disabled": 0, "type": "electric_bike", "lon": -77.0505085, "rental_uris": {"android": "https://dc.lft.to/lastmile_qr_scan", "ios": "https://dc.lft.to/lastmile_qr_scan"}, "is_reserved": 0, "bike_id": "7922c885f9ce911965aa077b6dc809a0", "name": "7922c885f9ce911965aa077b6dc809a0"}, {"lat": 38.89734583333333, "fusion_lon": 0.0, "fusion_lat": 0.0, "is_disabled": 0, "type": "electric_bike", "lon": -77.12267833333334, "rental_uris": {"android": "https://dc.lft.to/lastmile_qr_scan", "ios": "https://dc.lft.to/lastmile_qr_scan"}, "is_reserved": 0, "bike_id": "166fa366b5643baa6079b918f8a99d83", "name": "166fa366b5643baa6079b918f8a99d83"}, {"lat": 38.906416666666665, "fusion_lon": 0.0, "fusion_lat": 0.0, "is_disabled": 0, "type": "electric_scooter", "lon": -77.04375666666667, "rental_uris": {"android": "https://dc.lft.to/lastmile_qr_scan", "ios": "https://dc.lft.to/lastmile_qr_scan"}, "is_reserved": 0, "bike_id": "4a5a65a2c46bcdf64b568ae0b8cc639a", "name": "4a5a65a2c46bcdf64b568ae0b8cc639a"}, {"lat": 38.911049166666665, "fusion_lon": 0.0, "fusion_lat": 0.0, "is_disabled": 0, "type": "electric_scooter", "lon": -77.073465, "rental_uris": {"android": "https://dc.lft.to/lastmile_qr_scan", "ios": "https://dc.lft.to/lastmile_qr_scan"}, "is_reserved": 0, "bike_id": "c42bc788dcbd799f4d244d2a297e035c", "name": "c42bc788dcbd799f4d244d2a297e035c"}, {"lat": 38.9039535, "fusion_lon": 0.0, "fusion_lat": 0.0, "is_disabled": 0, "type": "electric_scooter", "lon": -77.04198083333333, "rental_uris": {"android": "https://dc.lft.to/lastmile_qr_scan", "ios": "https://dc.lft.to/lastmile_qr_scan"}, "is_reserved": 0, "bike_id": "ed39521d7d273bd9be3a4a5e8ec2e984", "name": "ed39521d7d273bd9be3a4a5e8ec2e984"}, {"lat": 38.86860766666667, "fusion_lon": 0.0, "fusion_lat": 0.0, "is_disabled": 0, "type": "electric_bike", "lon": -76.91656833333333, "rental_uris": {"android": "https://dc.lft.to/lastmile_qr_scan", "ios": "https://dc.lft.to/lastmile_qr_scan"}, "is_reserved": 0, "bike_id": "a217cb3463db17e25a56fd4591f2bd22", "name": "a217cb3463db17e25a56fd4591f2bd22"},