{"data": {"bikes": [{"fusion_lat": 0.0, "name": "9b6e7bf3072e7715b32bd6df6770740f", "is_disabled": 0, "rental_uris": {"android": "https://dc.lft.to/lastmile_qr_scan", "ios": "https://dc.lft.to/lastmile_qr_scan"}, "fusion_lon": 0.0, "lat": 38.88512516666667, "bike_id": "9b6e7bf3072e7715b32bd6df6770740f", "type": "electric_scooter", "is_reserved": 0, "lon": -76.92949216666666}, {"fusion_lat": 0.0, "name": "246e235ac5991ace3432ee9641e83d0e", "is_disabled": 0, "rental_uris": {"android": "https://dc.lft.to/lastmile_qr_scan", "ios": "https://dc.lft.to/lastmile_qr_scan"}, "fusion_lon": 0.0, "lat": 38.93191516666667, "bike_id": "246e235ac5991ace3432ee9641e83d0e", "type": "electric_scooter", "is_reserved": 0, "lon": -77.04295866666666}, {"fusion_lat": 0.0, "name": "722b14d91a0b9cf8d0990ee46282e7c5", "is_disabled": 0, "rental_uris": {"android": "https://dc.lft.to/lastmile_qr_scan", "ios": "https://dc.lft.to/lastmile_qr_scan"}, "fusion_lon": 0.0, "lat": 38.884544, "bike_id": "722b14d91a0b9cf8d0990ee46282e7c5", "type": "electric_scooter", "is_reserved": 0, "lon": -76.998478}, {"fusion_lat": 0.0, "name": "ed079db2fc9981ccee2d804d48cb790a", "is_disabled": 0, "rental_uris": {"android": "https://dc.lft.to/lastmile_qr_scan", "ios": "https://dc.lft.to/lastmile_qr_scan"}, "fusion_lon": 0.0, "lat": 38.894953, "bike_id": "ed079db2fc9981ccee2d804d48cb790a", "type": "electric_scooter", "is_reserved": 0, "lon": -77.01508216666667}, {"fusion_lat": 0.0, "name": "4a34aec6bb5a05c30fa54f5dd6e01809", "is_disabled": 0, "rental_uris": {"android": "https://dc.lft.to/lastmile_qr_scan", "ios": "https://dc.lft.to/lastmile_qr_scan"}, "fusion_lon": 0.0, "lat": 38.91120816666667, "bike_id": "4a34aec6bb5a05c30fa54f5dd6e01809", "type": "electric_scooter", "is_reserved": 0, "lon": -77.02085883333334}, {"fusion_lat": 0.0, "name": "2ad0bc987a2c08263ccc97e65951cec9", "is_disabled": 0, "rental_uris": {"android": "https://dc.lft.to/lastmile_qr_scan", "ios": "https://dc.lft.to/lastmile_qr_scan"}, "fusion_lon": 0.0, "lat": 38.919136333333334, "bike_id": "2ad0bc987a2c08263ccc97e65951cec9", "type": "electric_scooter", "is_reserved": 0, "lon": -77.033107}, {"fusion_lat": 0.0, "name": "e5c8e5ec47a5b55ce3547b0b3759375e", "is_disabled": 0, "rental_uris": {"android": "https://dc.lft.to/lastmile_qr_scan", "ios": "https://dc.lft.to/lastmile_qr_scan"}, "fusion_lon": 0.0, "lat": 38.932979833333334, "bike_id": "e5c8e5ec47a5b55ce3547b0b3759375e", "type": "electric_scooter", "is_reserved": 0, "lon": -77.02466766666667}, {"fusion_lat": 0.0, "name": "b7205c5a00ff4bdd23c2169fb018726c", "is_disabled": 0, "rental_uris": {"android": "https://dc.lft.to/lastmile_qr_scan", "ios": "https://dc.lft.to/lastmile_qr_scan"}, "fusion_lon": 0.0, "lat": 38.920778166666665, "bike_id": "b7205c5a00ff4bdd23c2169fb018726c", "type": "electric_scooter", "is_reserved": 0, "lon": -77.0045885}, {"fusion_lat": 0.0, "name": "5dfdae6540d71fc91d68a12998100ed9", "is_disabled": 0, "rental_uris": {"android": "https://dc.lft.to/lastmile_qr_scan", "ios": "https://dc.lft.to/lastmile_qr_scan"}, "fusion_lon": 0.0, "lat": 38.917634666666665, "bike_id": "5dfdae6540d71fc91d68a12998100ed9", "type": "electric_scooter", "is_reserved": 0, "lon": -77.01901383333333}, {"fusion_lat": 0.0, "name": "d769376a145c6ec82cbf104adbdf2bee", "is_disabled": 0, "rental_uris": {"android": "https://dc.lft.to/lastmile_qr_scan", "ios": "https://dc.lft.to/lastmile_qr_scan"}, "fusion_lon": 0.0, "lat": 38.91715416666667, "bike_id": "d769376a145c6ec82cbf104adbdf2bee", "type": "electric_scooter", "is_reserved": 0, "lon": -77.0120665}, {"fusion_lat": 0.0, "name": "17fc85d7f19f9f87d59e24644bd12780", "is_disabled": 0, "rental_uris": {"android": "https://dc.lft.to/lastmile_qr_scan", "ios": "https://dc.lft.to/lastmile_qr_scan"}, "fusion_lon": 0.0, "lat": 38.90823016666667, "bike_id": "17fc85d7f19f9f87d59e24644bd12780", "type": "electric_scooter", "is_reserved": 0, "lon": -77.05495683333334}, {"fusion_lat": 0.0, "name": "6cd198bdaee159755f01a2651b75fd6a", "is_disabled": 0, "rental_uris": {"android": "https://dc.lft.to/lastmile_qr_scan", "ios": "https://dc.lft.to/lastmile_qr_scan"}, "fusion_lon": 0.0, "lat": 38.94647, "bike_id": "6cd198bdaee159755f01a2651b75fd6a", "type": "electric_bike", "is_reserved": 0, "lon": -77.03057033333333}, {"fusion_lat": 0.0, "name": "b84c5ed593193d25d70a90a3c53d7b0f", "is_disabled": 0, "rental_uris": {"android": "https://dc.lft.to/lastmile_qr_scan", "ios": "https://dc.lft.to/lastmile_qr_scan"}, "fusion_lon": 0.0, "lat": 38.96117566666667, "bike_id": "b84c5ed593193d25d70a90a3c53d7b0f", "type": "electric_scooter", "is_reserved": 0, "lon": -77.02867516666667}, {"fusion_lat": 0.0, "name": "96c9c8aa00fa21f715824a9e94a7e56a", "is_disabled": 0, "rental_uris": {"android": "https://dc.lft.to/lastmile_qr_scan", "ios": "https://dc.lft.to/lastmile_qr_scan"}, "fusion_lon": 0.0, "lat": 38.91807716666667, "bike_id": "96c9c8aa00fa21f715824a9e94a7e56a", "type": "electric_scooter", "is_reserved": 0, "lon": -76.99981966666667}, {"fusion_lat": 0.0, "name": "b906fee61c0d9c17e95b7d7a56a489c2", "is_disabled": 0, "rental_uris": {"android": "https://dc.lft.to/lastmile_qr_scan", "ios": "https://dc.lft.to/lastmile_qr_scan"}, "fusion_lon": 0.0, "lat": 38.951201833333336, "bike_id": "b906fee61c0d9c17e95b7d7a56a489c2", "type": "electric_scooter", "is_reserved": 0, "lon": -77.01368566666666}, {"fusion_lat": 0.0, "name": "cf1ffc6e3963859dd35572bae35a5ca2", "is_disabled": 0, "rental_uris": {"android": "https://dc.lft.to/lastmile_qr_scan", "ios": "https://dc.lft.to/lastmile_qr_scan"}, "fusion_lon": 0.0, "lat": 38.93675266666666, "bike_id": "cf1ffc6e3963859dd35572bae35a5ca2", "type": "electric_scooter", "is_reserved": 0, "lon": -77.03592683333333}, {"fusion_lat": 0.0, "name": "d7db9427b76500256b85272054467208", "is_disabled": 0, "rental_uris": {"android": "https://dc.lft.to/lastmile_qr_scan", "ios": "https://dc.lft.to/lastmile_qr_scan"}, "fusion_lon": 0.0, "lat": 38.974998166666666, "bike_id": "d7db9427b76500256b85272054467208", "type": "electric_scooter", "is_reserved": 0, "lon": -77.01695866666667}, {"fusion_lat": 0.0, "name": "60f056464a61fd2b1ed5d512ab5ea56b", "is_disabled": 0, "rental_uris": {"android": "https://dc.lft.to/lastmile_qr_scan", "ios": "https://dc.lft.to/lastmile_qr_scan"}, "fusion_lon": 0.0, "lat": 38.937876333333335, "bike_id": "60f056464a61fd2b1ed5d512ab5ea56b", "type": "electric_scooter", "is_reserved": 0, "lon": -77.02438916666667}, {"fusion_lat": 0.0, "name": "6dea0b1f0b69fd92048b85c5eb118d04", "is_disabled": 0, "rental_uris": {"android": "https://dc.lft.to/lastmile_qr_scan", "ios": "https://dc.lft.to/lastmile_qr_scan"}, "fusion_lon": 0.0, "lat": 38.947031333333335, "bike_id": "6dea0b1f0b69fd92048b85c5eb118d04", "type": "electric_scooter", "is_reserved": 0, "lon": -77.01942066666666}, {"fusion_lat": 0.0, "name": "f05f5609e5554d9490e8833534fda5cf", "is_disabled": 0, "rental_uris": {"android": "https://dc.lft.to/lastmile_qr_scan", "ios": "https://dc.lft.to/lastmile_qr_scan"}, "fusion_lon": 0.0, "lat": 38.93263283333334, "bike_id": "f05f5609e5554d9490e8833534fda5cf", "type": "electric_scooter", "is_reserved": 0, "lon": -77.0209685}, {"fusion_lat": 0.0, "name": "e55c60af1588c402958a3f44449cf647", "is_disabled": 0, "rental_uris": {"android": "https://dc.lft.to/lastmile_qr_scan", "ios": "https://dc.lft.to/lastmile_qr_scan"}, "fusion_lon": 0.0, "lat": 38.907948, "bike_id": "e55c60af1588c402958a3f44449cf647", "type": "electric_scooter", "is_reserved": 0, "lon": -77.03825066666667}, {"fusion_lat": 0.0, "name": "ac1059513418b8b69ab2410c66631442", "is_disabled": 0, "rental_uris": {"android": "https://dc.lft.to/lastmile_qr_scan", "ios": "https://dc.lft.to/lastmile_qr_scan"}, "fusion_lon": 0.0, "lat": 38.90520083333333, "bike_id": "ac1059513418b8b69ab2410c66631442", "type": "electric_scooter", "is_reserved": 0, "lon": -77.06874933333333}, {"fusion_lat": 0.0, "name": "1f1a885234ac2902b4635d46d145349e", "is_disabled": 0, "rental_uris": {"android": "https://dc.lft.to/lastmile_qr_scan", "ios": "https://dc.lft.to/lastmile_qr_scan"}, "fusion_lon": 0.0, "lat": 38.92736633333333, "bike_id": "1f1a885234ac2902b4635d46d145349e", "type": "electric_scooter", "is_reserved": 0, "lon": -77.03451}, {"fusion_lat": 0.0, "name": "5d4d9a42084151252d9254185418b1d0", "is_disabled": 0, "rental_uris": {"android": "https://dc.lft.to/lastmile_qr_scan", "ios": "https://dc.lft.to/lastmile_qr_scan"}, "fusion_lon": 0.0, "lat": 38.8843565, "bike_id": "5d4d9a42084151252d9254185418b1d0", "type": "electric_scooter", "is_reserved": 0, "lon": -77.02570883333334}, {"fusion_lat": 0.0, "name": "490284e30936474e2f7f5c9d28c72b33", "is_disabled": 0, "rental_uris": {"android": "https://dc.lft.to/lastmile_qr_scan", "ios": "https://dc.lft.to/lastmile_qr_scan"}, "fusion_lon": 0.0, "lat": 38.91355433333333, "bike_id": "490284e30936474e2f7f5c9d28c72b33", "type": "electric_scooter", "is_reserved": 0, "lon": -77.0487495}, {"fusion_lat": 0.0, "name": "72738b519102e27873252440fe3ecba1", "is_disabled": 0, "rental_uris": {"android": "https://dc.lft.to/lastmile_qr_scan", "ios": "https://dc.lft.to/lastmile_qr_scan"}, "fusion_lon": 0.0, "lat": 38.903624666666666, "bike_id": "72738b519102e27873252440fe3ecba1", "type": "electric_scooter", "is_reserved": 0, "lon": -77.00343133333334}, {"fusion_lat": 0.0, "name": "b0589c71d2170459458221876e82fe30", "is_disabled": 0, "rental_uris": {"android": "https://dc.lft.to/lastmile_qr_scan", "ios": "https://dc.lft.to/lastmile_qr_scan"}, "fusion_lon": 0.0, "lat": 38.93375066666667, "bike_id": "b0589c71d2170459458221876e82fe30", "type": "electric_scooter", "is_reserved": 0, "lon": -77.026839}, {"fusion_lat": 0.0, "name": "d989f0400a211264f2c34b3227706a2d", "is_disabled": 0, "rental_uris": {"android": "https://dc.lft.to/lastmile_qr_scan", "ios": "https://dc.lft.to/lastmile_qr_scan"}, "fusion_lon": 0.0, "lat": 39.0563605, "bike_id": "d989f0400a211264f2c34b3227706a2d", "type": "electric_bike", "is_reserved": 0, "lon": -77.125263}, {"fusion_lat": 0.0, "name": "ca2d7ad226897b2ee280f19c67f913ba", "is_disabled": 0, "rental_uris": {"android": "https://dc.lft.to/lastmile_qr_scan", "ios": "https://dc.lft.to/lastmile_qr_scan"}, "fusion_lon": 0.0, "lat": 38.898622833333334, "bike_id": "ca2d7ad226897b2ee280f19c67f913ba", "type": "electric_scooter", "is_reserved": 0, "lon": -76.94639866666667}, {"fusion_lat": 0.0, "name": "938f7d924cb18427065fd54658d5cc96", "is_disabled": 0, "rental_uris": {"android": "https://dc.lft.to/lastmile_qr_scan", "ios": "https://dc.lft.to/lastmile_qr_scan"}, "fusion_lon": 0.0, "lat": 38.89389283333333, "bike_id": "938f7d924cb18427065fd54658d5cc96", "type": "electric_scooter", "is_reserved": 0, "lon": -76.92309433333334}, {"fusion_lat": 0.0, "name": "a6243c5705e93c2080b8be516fa1a2b9", "is_disabled": 0, "rental_uris": {"android": "https://dc.lft.to/lastmile_qr_scan", "ios": "https://dc.lft.to/lastmile_qr_scan"}, "fusion_lon": 0.0, "lat": 38.928714, "bike_id": "a6243c5705e93c2080b8be516fa1a2b9", "type": "electric_scooter", "is_reserved": 0, "lon": -77.01925416666667}, {"fusion_lat": 0.0, "name": "559db18537b1b0e09efad1629e921eee", "is_disabled": 0, "rental_uris": {"android": "https://dc.lft.to/lastmile_qr_scan", "ios": "https://dc.lft.to/lastmile_qr_scan"}, "fusion_lon": 0.0, "lat": 38.92041916666667, "bike_id": "559db18537b1b0e09efad1629e921eee", "type": "electric_scooter", "is_reserved": 0, "lon": -77.024303}, {"fusion_lat": 0.0, "name": "0035ef405f3b177c47096e5765158b5a", "is_disabled": 0, "rental_uris": {"android": "https://dc.lft.to/lastmile_qr_scan", "ios": "https://dc.lft.to/lastmile_qr_scan"}, "fusion_lon": 0.0, "lat": 38.91267283333333, "bike_id": "0035ef405f3b177c47096e5765158b5a", "type": "electric_scooter", "is_reserved": 0, "lon": -77.04916416666667}, {"fusion_lat": 0.0, "name": "e9cfbc52b4461acb229e5ce51f53a35e", "is_disabled": 0, "rental_uris": {"android": "https://dc.lft.to/lastmile_qr_scan", "ios": "https://dc.lft.to/lastmile_qr_scan"}, "fusion_lon": 0.0, "lat": 38.91029183333333, "bike_id": "e9cfbc52b4461acb229e5ce51f53a35e", "type": "electric_scooter", "is_reserved": 0, "lon": -77.01513166666666}, {"fusion_lat": 0.0, "name": "587c2fbee4727ba19db6f396ba23a25e", "is_disabled": 0, "rental_uris": {"android": "https://dc.lft.to/lastmile_qr_scan", "ios": "https://dc.lft.to/lastmile_qr_scan"}, "fusion_lon": 0.0, "lat": 38.86058383333334, "bike_id": "587c2fbee4727ba19db6f396ba23a25e", "type": "electric_scooter", "is_reserved": 0, "lon": -76.98510333333333}, {"fusion_lat": 0.0, "name": "f2fbda63a9ae8a1bd37defa1a9562efb", "is_disabled": 0, "rental_uris": {"android": "https://dc.lft.to/lastmile_qr_scan", "ios": "https://dc.lft.to/lastmile_qr_scan"}, "fusion_lon": 0.0, "lat": 38.898700166666664, "bike_id": "f2fbda63a9ae8a1bd37defa1a9562efb", "type": "electric_scooter", "is_reserved": 0, "lon": -77.02801683333334}, {"fusion_lat": 0.0, "name": "4873e24a0cfbce4b646bc4d9a43145a0", "is_disabled": 0, "rental_uris": {"android": "https://dc.lft.to/lastmile_qr_scan", "ios": "https://dc.lft.to/lastmile_qr_scan"}, "fusion_lon": 0.0, "lat": 38.904702, "bike_id": "4873e24a0cfbce4b646bc4d9a43145a0", "type": "electric_scooter", "is_reserved": 0, "lon": -77.03373116666667}, {"fusion_lat": 0.0, "name": "719583ee7206c972175e954075e68f1d", "is_disabled": 0, "rental_uris": {"android": "https://dc.lft.to/lastmile_qr_scan", "ios": "https://dc.lft.to/lastmile_qr_scan"}, "fusion_lon": 0.0, "lat": 38.9037315, "bike_id": "719583ee7206c972175e954075e68f1d", "type": "electric_scooter", "is_reserved": 0, "lon": -77.0515555}, {"fusion_lat": 0.0, "name": "78ee8de3d82858290dbdbc5c6123f811", "is_disabled": 0, "rental_uris": {"android": "https://dc.lft.to/lastmile_qr_scan", "ios": "https://dc.lft.to/lastmile_qr_scan"}, "fusion_lon": 0.0, "lat": 38.92534966666667, "bike_id": "78ee8de3d82858290dbdbc5c6123f811", "type": "electric_bike", "is_reserved": 0, "lon": -77.0011225}, {"fusion_lat": 0.0, "name": "47179c48e7781b6d5bb6c8f2ee939885", "is_disabled": 0, "rental_uris": {"android": "https://dc.lft.to/lastmile_qr_scan", "ios": "https://dc.lft.to/lastmile_qr_scan"}, "fusion_lon": 0.0, "lat": 38.887397166666666, "bike_id": "47179c48e7781b6d5bb6c8f2ee939885", "type": "electric_scooter", "is_reserved": 0, "lon": -77.03175416666667}, {"fusion_lat": 0.0, "name": "718fb13f8621f4542de1397daa114189", "is_disabled": 0, "rental_uris": {"android": "https://dc.lft.to/lastmile_qr_scan", "ios": "https://dc.lft.to/lastmile_qr_scan"}, "fusion_lon": 0.0, "lat": 38.922179666666665, "bike_id": "718fb13f8621f4542de1397daa114189", "type": "electric_bike", "is_reserved": 0, "lon": -77.20139416666666}, {"fusion_lat": 0.0, "name": "67a325320c2e9dab730e17696dad4183", "is_disabled": 0, "rental_uris": {"android": "https://dc.lft.to/lastmile_qr_scan", "ios": "https://dc.lft.to/lastmile_qr_scan"}, "fusion_lon": 0.0, "lat": 38.917767833333336, "bike_id": "67a325320c2e9dab730e17696dad4183", "type": "electric_scooter", "is_reserved": 0, "lon": -77.01223783333333}, {"fusion_lat": 0.0, "name": "9ebbaf8a087da8b980bfb162c50a4812", "is_disabled": 0, "rental_uris": {"android": "https://dc.lft.to/lastmile_qr_scan", "ios": "https://dc.lft.to/lastmile_qr_scan"}, "fusion_lon": 0.0, "lat": 38.923356166666665, "bike_id": "9ebbaf8a087da8b980bfb162c50a4812", "type": "electric_scooter", "is_reserved": 0, "lon": -77.0362135}, {"fusion_lat": 0.0, "name": "616004185077323c3fa3628858ac0449", "is_disabled": 0, "rental_uris": {"android": "https://dc.lft.to/lastmile_qr_scan", "ios": "https://dc.lft.to/lastmile_qr_scan"}, "fusion_lon": 0.0, "lat": 38.928301, "bike_id": "616004185077323c3fa3628858ac0449", "type": "electric_scooter", "is_reserved": 0, "lon": -77.05438583333333}, {"fusion_lat": 0.0, "name": "3107672000272b8f363bcdca09913aa0", "is_disabled": 0, "rental_uris": {"android": "https://dc.lft.to/lastmile_qr_scan", "ios": "https://dc.lft.to/lastmile_qr_scan"}, "fusion_lon": 0.0, "lat": 38.920747, "bike_id": "3107672000272b8f363bcdca09913aa0", "type": "electric_scooter", "is_reserved": 0, "lon": -77.014259}, {"fusion_lat": 0.0, "name": "d9fc114aa2d59a8fa141696a6e983d84", "is_disabled": 0, "rental_uris": {"android": "https://dc.lft.to/lastmile_qr_scan", "ios": "https://dc.lft.to/lastmile_qr_scan"}, "fusion_lon": 0.0, "lat": 38.941995166666665, "bike_id": "d9fc114aa2d59a8fa141696a6e983d84", "type": "electric_scooter", "is_reserved": 0, "lon": -77.02593333333333}, {"fusion_lat": 0.0, "name": "3eadf3eb2b98e16b4cb458b5a15901d5", "is_disabled": 0, "rental_uris": {"android": "https://dc.lft.to/lastmile_qr_scan", "ios": "https://dc.lft.to/lastmile_qr_scan"}, "fusion_lon": 0.0, "lat": 38.9384565, "bike_id": "3eadf3eb2b98e16b4cb458b5a15901d5", "type": "electric_scooter", "is_reserved": 0, "lon": -77.03394283333333}, {"fusion_lat": 0.0, "name": "e56cd4b74260917057196af3d04d9876", "is_disabled": 0, "rental_uris": {"android": "https://dc.lft.to/lastmile_qr_scan", "ios": "https://dc.lft.to/lastmile_qr_scan"}, "fusion_lon": 0.0, "lat": 38.96407133333334, "bike_id": "e56cd4b74260917057196af3d04d9876", "type": "electric_scooter", "is_reserved": 0, "lon": -77.07534333333334}, {"fusion_lat": 0.0, "name": "8ebc8a962074219b16acdd54865dc1f8", "is_disabled": 0, "rental_uris": {"android": "https://dc.lft.to/lastmile_qr_scan", "ios": "https://dc.lft.to/lastmile_qr_scan"}, "fusion_lon": 0.0, "lat": 38.89404533333333, "bike_id": "8ebc8a962074219b16acdd54865dc1f8", "type": "electric_scooter", "is_reserved": 0, "lon": -76.99492466666666}, {"fusion_lat": 0.0, "name": "c12ade002817af9ae65f1414029e1ff9", "is_disabled": 0, "rental_uris": {"android": "https://dc.lft.to/lastmile_qr_scan", "ios": "https://dc.lft.to/lastmile_qr_scan"}, "fusion_lon": 0.0, "lat": 38.934591166666664, "bike_id": "c12ade002817af9ae65f1414029e1ff9", "type": "electric_scooter", "is_reserved": 0, "lon": -77.057827}, {"fusion_lat": 0.0, "name": "94313291fac56698fa9982a3c370ff85", "is_disabled": 0, "rental_uris": {"android": "https://dc.lft.to/lastmile_qr_scan", "ios": "https://dc.lft.to/lastmile_qr_scan"}, "fusion_lon": 0.0, "lat": 38.897459833333336, "bike_id": "94313291fac56698fa9982a3c370ff85", "type": "electric_scooter", "is_reserved": 0, "lon": -77.03192316666667}, {"fusion_lat": 0.0, "name": "f00d2e28f04689d55216050a3b178361", "is_disabled": 0, "rental_uris": {"android": "https://dc.lft.to/lastmile_qr_scan", "ios": "https://dc.lft.to/lastmile_qr_scan"}, "fusion_lon": 0.0, "lat": 38.935318333333335, "bike_id": "f00d2e28f04689d55216050a3b178361", "type": "electric_scooter", "is_reserved": 0, "lon": -77.02347766666666}, {"fusion_lat": 0.0, "name": "3108c5ba483b6c6e2694e469f83d23e1", "is_disabled": 0, "rental_uris": {"android": "https://dc.lft.to/lastmile_qr_scan", "ios": "https://dc.lft.to/lastmile_qr_scan"}, "fusion_lon": 0.0, "lat": 38.920925833333335, "bike_id": "3108c5ba483b6c6e2694e469f83d23e1", "type": "electric_scooter", "is_reserved": 0, "lon": -77.03944033333333}, {"fusion_lat": 0.0, "name": "86f7ab65f5ef0e0851a7ee0741ac05c8", "is_disabled": 0, "rental_uris": {"android": "https://dc.lft.to/lastmile_qr_scan", "ios": "https://dc.lft.to/lastmile_qr_scan"}, "fusion_lon": 0.0, "lat": 38.92104033333333, "bike_id": "86f7ab65f5ef0e0851a7ee0741ac05c8", "type": "electric_scooter", "is_reserved": 0, "lon": -77.04682366666667}, {"fusion_lat": 0.0, "name": "74568628bdd8299d82022688e86807d4", "is_disabled": 0, "rental_uris": {"android": "https://dc.lft.to/lastmile_qr_scan", "ios": "https://dc.lft.to/lastmile_qr_scan"}, "fusion_lon": 0.0, "lat": 38.91240916666667, "bike_id": "74568628bdd8299d82022688e86807d4", "type": "electric_scooter", "is_reserved": 0, "lon": -77.04873166666667}, {"fusion_lat": 0.0, "name": "bb1c6998a5f9af1b531f51f67371966d", "is_disabled": 0, "rental_uris": {"android": "https://dc.lft.to/lastmile_qr_scan", "ios": "https://dc.lft.to/lastmile_qr_scan"}, "fusion_lon": 0.0, "lat": 38.923503833333335, "bike_id": "bb1c6998a5f9af1b531f51f67371966d", "type": "electric_scooter", "is_reserved": 0, "lon": -77.02450333333333}, {"fusion_lat": 0.0, "name": "d6d2a21c647c8a7e2e0f066cccf9e7f7", "is_disabled": 0, "rental_uris": {"android": "https://dc.lft.to/lastmile_qr_scan", "ios": "https://dc.lft.to/lastmile_qr_scan"}, "fusion_lon": 0.0, "lat": 38.924597, "bike_id": "d6d2a21c647c8a7e2e0f066cccf9e7f7", "type": "electric_scooter", "is_reserved": 0, "lon": -77.02410683333333}, {"fusion_lat": 0.0, "name": "c307e4dc5fb1b8001623140af8ae4b48", "is_disabled": 0, "rental_uris": {"android": "https://dc.lft.to/lastmile_qr_scan", "ios": "https://dc.lft.to/lastmile_qr_scan"}, "fusion_lon": 0.0, "lat": 38.8427805, "bike_id": "c307e4dc5fb1b8001623140af8ae4b48", "type": "electric_bike", "is_reserved": 0, "lon": -76.98841833333333}, {"fusion_lat": 0.0, "name": "a18fac520ba45eb9540b4ddeb5dcb723", "is_disabled": 0, "rental_uris": {"android": "https://dc.lft.to/lastmile_qr_scan", "ios": "https://dc.lft.to/lastmile_qr_scan"}, "fusion_lon": 0.0, "lat": 38.93368483333333, "bike_id": "a18fac520ba45eb9540b4ddeb5dcb723", "type": "electric_scooter", "is_reserved": 0, "lon": -77.03085566666667}, {"fusion_lat": 0.0, "name": "070e4a09b9e0b892b1969ac0573c79a5", "is_disabled": 0, "rental_uris": {"android": "https://dc.lft.to/lastmile_qr_scan", "ios": "https://dc.lft.to/lastmile_qr_scan"}, "fusion_lon": 0.0, "lat": 38.922611333333336, "bike_id": "070e4a09b9e0b892b1969ac0573c79a5", "type": "electric_bike", "is_reserved": 0, "lon": -77.07030916666666}, {"fusion_lat": 0.0, "name": "fe0fa123f96b869baa873bff6b6e8d60", "is_disabled": 0, "rental_uris": {"android": "https://dc.lft.to/lastmile_qr_scan", "ios": "https://dc.lft.to/lastmile_qr_scan"}, "fusion_lon": 0.0, "lat": 38.9112945, "bike_id": "fe0fa123f96b869baa873bff6b6e8d60", "type": "electric_scooter", "is_reserved": 0, "lon": -77.022008}, {"fusion_lat": 0.0, "name": "c43b53c122f8f9be95e0c29a5940a656", "is_disabled": 0, "rental_uris": {"android": "https://dc.lft.to/lastmile_qr_scan", "ios": "https://dc.lft.to/lastmile_qr_scan"}, "fusion_lon": 0.0, "lat": 38.90881133333333, "bike_id": "c43b53c122f8f9be95e0c29a5940a656", "type": "electric_scooter", "is_reserved": 0, "lon": -77.04436666666666}, {"fusion_lat": 0.0, "name": "851ac91a0d18a7cb5375804ea75f8960", "is_disabled": 0, "rental_uris": {"android": "https://dc.lft.to/lastmile_qr_scan", "ios": "https://dc.lft.to/lastmile_qr_scan"}, "fusion_lon": 0.0, "lat": 38.9202685, "bike_id": "851ac91a0d18a7cb5375804ea75f8960", "type": "electric_scooter", "is_reserved": 0, "lon": -77.03070333333334}, {"fusion_lat": 0.0, "name": "f2f9054c1fb01fae88c5287391e2ebcc", "is_disabled": 0, "rental_uris": {"android": "https://dc.lft.to/lastmile_qr_scan", "ios": "https://dc.lft.to/lastmile_qr_scan"}, "fusion_lon": 0.0, "lat": 38.9207305, "bike_id": "f2f9054c1fb01fae88c5287391e2ebcc", "type": "electric_scooter", "is_reserved": 0, "lon": -77.02856616666666}, {"fusion_lat": 0.0, "name": "cb8e770ee6ef2121df9975b0dd62aa14", "is_disabled": 0, "rental_uris": {"android": "https://dc.lft.to/lastmile_qr_scan", "ios": "https://dc.lft.to/lastmile_qr_scan"}, "fusion_lon": 0.0, "lat": 38.918182333333334, "bike_id": "cb8e770ee6ef2121df9975b0dd62aa14", "type": "electric_scooter", "is_reserved": 0, "lon": -77.03272533333333}, {"fusion_lat": 0.0, "name": "917d2d719aa0e2a94b42bd99acb4bf77", "is_disabled": 0, "rental_uris": {"android": "https://dc.lft.to/lastmile_qr_scan", "ios": "https://dc.lft.to/lastmile_qr_scan"}, "fusion_lon": 0.0, "lat": 38.91652966666667, "bike_id": "917d2d719aa0e2a94b42bd99acb4bf77", "type": "electric_scooter", "is_reserved": 0, "lon": -77.04195816666666}, {"fusion_lat": 0.0, "name": "9a89b36febd06616d72567f735f67587", "is_disabled": 0, "rental_uris": {"android": "https://dc.lft.to/lastmile_qr_scan", "ios": "https://dc.lft.to/lastmile_qr_scan"}, "fusion_lon": 0.0, "lat": 38.88719733333333, "bike_id": "9a89b36febd06616d72567f735f67587", "type": "electric_scooter", "is_reserved": 0, "lon": -76.99684166666667}, {"fusion_lat": 0.0, "name": "fc6172068d371d9a8ffe6098d08e842d", "is_disabled": 0, "rental_uris": {"android": "https://dc.lft.to/lastmile_qr_scan", "ios": "https://dc.lft.to/lastmile_qr_scan"}, "fusion_lon": 0.0, "lat": 38.93969283333333, "bike_id": "fc6172068d371d9a8ffe6098d08e842d", "type": "electric_scooter", "is_reserved": 0, "lon": -77.03257683333334}, {"fusion_lat": 0.0, "name": "afbac59b545c6b993023e28c3709ca7f", "is_disabled": 0, "rental_uris": {"android": "https://dc.lft.to/lastmile_qr_scan", "ios": "https://dc.lft.to/lastmile_qr_scan"}, "fusion_lon": 0.0, "lat": 38.8994345, "bike_id": "afbac59b545c6b993023e28c3709ca7f", "type": "electric_scooter", "is_reserved": 0, "lon": -76.98167216666667}, {"fusion_lat": 0.0, "name": "395f956e73af9228171d68d86960e153", "is_disabled": 0, "rental_uris": {"android": "https://dc.lft.to/lastmile_qr_scan", "ios": "https://dc.lft.to/lastmile_qr_scan"}, "fusion_lon": 0.0, "lat": 38.9168685, "bike_id": "395f956e73af9228171d68d86960e153", "type": "electric_scooter", "is_reserved": 0, "lon": -77.04137683333333}, {"fusion_lat": 0.0, "name": "a67ff8b07b3ac783bc5933ca8e0c3c9a", "is_disabled": 0, "rental_uris": {"android": "https://dc.lft.to/lastmile_qr_scan", "ios": "https://dc.lft.to/lastmile_qr_scan"}, "fusion_lon": 0.0, "lat": 38.88413416666667, "bike_id": "a67ff8b07b3ac783bc5933ca8e0c3c9a", "type": "electric_scooter", "is_reserved": 0, "lon": -76.98627716666667}, {"fusion_lat": 0.0, "name": "8619a8b659186939bd3ee3ccab7e739b", "is_disabled": 0, "rental_uris": {"android": "https://dc.lft.to/lastmile_qr_scan", "ios": "https://dc.lft.to/lastmile_qr_scan"}, "fusion_lon": 0.0, "lat": 38.92440033333333, "bike_id": "8619a8b659186939bd3ee3ccab7e739b", "type": "electric_scooter", "is_reserved": 0, "lon": -77.03409}, {"fusion_lat": 0.0, "name": "b8943f7484dad9f31ae23fb41dc029a8", "is_disabled": 0, "rental_uris": {"android": "https://dc.lft.to/lastmile_qr_scan", "ios": "https://dc.lft.to/lastmile_qr_scan"}, "fusion_lon": 0.0, "lat": 38.92437266666666, "bike_id": "b8943f7484dad9f31ae23fb41dc029a8", "type": "electric_scooter", "is_reserved": 0, "lon": -77.051863}, {"fusion_lat": 0.0, "name": "9b2b102e8c4247f4783685368f2005a8", "is_disabled": 0, "rental_uris": {"android": "https://dc.lft.to/lastmile_qr_scan", "ios": "https://dc.lft.to/lastmile_qr_scan"}, "fusion_lon": 0.0, "lat": 38.900283, "bike_id": "9b2b102e8c4247f4783685368f2005a8", "type": "electric_scooter", "is_reserved": 0, "lon": -77.01188966666666}, {"fusion_lat": 0.0, "name": "ea4e7ba46ba0ad591af5a0c92bf724a1", "is_disabled": 0, "rental_uris": {"android": "https://dc.lft.to/lastmile_qr_scan", "ios": "https://dc.lft.to/lastmile_qr_scan"}, "fusion_lon": 0.0, "lat": 38.9057945, "bike_id": "ea4e7ba46ba0ad591af5a0c92bf724a1", "type": "electric_scooter", "is_reserved": 0, "lon": -77.02208416666667}, {"fusion_lat": 0.0, "name": "75144ddcbcd3d9d6ebd4a15789f52317", "is_disabled": 0, "rental_uris": {"android": "https://dc.lft.to/lastmile_qr_scan", "ios": "https://dc.lft.to/lastmile_qr_scan"}, "fusion_lon": 0.0, "lat": 38.932589, "bike_id": "75144ddcbcd3d9d6ebd4a15789f52317", "type": "electric_scooter", "is_reserved": 0, "lon": -77.0662165}, {"fusion_lat": 0.0, "name": "3b489d27d10076b852ade1b0e6100255", "is_disabled": 0, "rental_uris": {"android": "https://dc.lft.to/lastmile_qr_scan", "ios": "https://dc.lft.to/lastmile_qr_scan"}, "fusion_lon": 0.0, "lat": 38.89005216666666, "bike_id": "3b489d27d10076b852ade1b0e6100255", "type": "electric_scooter", "is_reserved": 0, "lon": -76.93746}, {"fusion_lat": 0.0, "name": "ad8aeccad1b7178f88182624711fcfdc", "is_disabled": 0, "rental_uris": {"android": "https://dc.lft.to/lastmile_qr_scan", "ios": "https://dc.lft.to/lastmile_qr_scan"}, "fusion_lon": 0.0, "lat": 38.8924335, "bike_id": "ad8aeccad1b7178f88182624711fcfdc", "type": "electric_scooter", "is_reserved": 0, "lon": -77.0334865}, {"fusion_lat": 0.0, "name": "f0a045e19b67635cd14b15779dab348d", "is_disabled": 0, "rental_uris": {"android": "https://dc.lft.to/lastmile_qr_scan", "ios": "https://dc.lft.to/lastmile_qr_scan"}, "fusion_lon": 0.0, "lat": 38.92285583333334, "bike_id": "f0a045e19b67635cd14b15779dab348d", "type": "electric_scooter", "is_reserved": 0, "lon": -77.03660916666666}, {"fusion_lat": 0.0, "name": "65602dd1c0393fe9a090a1876decb216", "is_disabled": 0, "rental_uris": {"android": "https://dc.lft.to/lastmile_qr_scan", "ios": "https://dc.lft.to/lastmile_qr_scan"}, "fusion_lon": 0.0, "lat": 38.937057333333335, "bike_id": "65602dd1c0393fe9a090a1876decb216", "type": "electric_scooter", "is_reserved": 0, "lon": -77.0610395}, {"fusion_lat": 0.0, "name": "5491d542b7862af74f5c37a201a9e5e5", "is_disabled": 0, "rental_uris": {"android": "https://dc.lft.to/lastmile_qr_scan", "ios": "https://dc.lft.to/lastmile_qr_scan"}, "fusion_lon": 0.0, "lat": 38.93265566666667, "bike_id": "5491d542b7862af74f5c37a201a9e5e5", "type": "electric_scooter", "is_reserved": 0, "lon": -77.03267983333333}, {"fusion_lat": 0.0, "name": "325820eb9b0f8628667d1c6436ba09d6", "is_disabled": 0, "rental_uris": {"android": "https://dc.lft.to/lastmile_qr_scan", "ios": "https://dc.lft.to/lastmile_qr_scan"}, "fusion_lon": 0.0, "lat": 38.908268666666665, "bike_id": "325820eb9b0f8628667d1c6436ba09d6", "type": "electric_scooter", "is_reserved": 0, "lon": -76.98430333333333}, {"fusion_lat": 0.0, "name": "98a613a05ea780849ad1f9ea2554da1d", "is_disabled": 0, "rental_uris": {"android": "https://dc.lft.to/lastmile_qr_scan", "ios": "https://dc.lft.to/lastmile_qr_scan"}, "fusion_lon": 0.0, "lat": 38.89673033333333, "bike_id": "98a613a05ea780849ad1f9ea2554da1d", "type": "electric_scooter", "is_reserved": 0, "lon": -77.005183}, {"fusion_lat": 0.0, "name": "983e3585d6f292a10d0b2097fe7b66a0", "is_disabled": 0, "rental_uris": {"android": "https://dc.lft.to/lastmile_qr_scan", "ios": "https://dc.lft.to/lastmile_qr_scan"}, "fusion_lon": 0.0, "lat": 38.910530333333334, "bike_id": "983e3585d6f292a10d0b2097fe7b66a0", "type": "electric_scooter", "is_reserved": 0, "lon": -77.04107533333334}, {"fusion_lat": 0.0, "name": "063dc8a600c7015c5f1e3232eec04704", "is_disabled": 0, "rental_uris": {"android": "https://dc.lft.to/lastmile_qr_scan", "ios": "https://dc.lft.to/lastmile_qr_scan"}, "fusion_lon": 0.0, "lat": 38.88593066666667, "bike_id": "063dc8a600c7015c5f1e3232eec04704", "type": "electric_scooter", "is_reserved": 0, "lon": -77.01719183333333}, {"fusion_lat": 0.0, "name": "873654a4172888c79ffadce1804ff709", "is_disabled": 0, "rental_uris": {"android": "https://dc.lft.to/lastmile_qr_scan", "ios": "https://dc.lft.to/lastmile_qr_scan"}, "fusion_lon": 0.0, "lat": 38.9505505, "bike_id": "873654a4172888c79ffadce1804ff709", "type": "electric_scooter", "is_reserved": 0, "lon": -77.08027416666667}, {"fusion_lat": 0.0, "name": "b525c2564888c932c3acfef41f966ab6", "is_disabled": 0, "rental_uris": {"android": "https://dc.lft.to/lastmile_qr_scan", "ios": "https://dc.lft.to/lastmile_qr_scan"}, "fusion_lon": 0.0, "lat": 38.93399383333333, "bike_id": "b525c2564888c932c3acfef41f966ab6", "type": "electric_scooter", "is_reserved": 0, "lon": -77.05741116666667}, {"fusion_lat": 0.0, "name": "a54f4983d5550fba50749ec0ad5634c2", "is_disabled": 0, "rental_uris": {"android": "https://dc.lft.to/lastmile_qr_scan", "ios": "https://dc.lft.to/lastmile_qr_scan"}, "fusion_lon": 0.0, "lat": 38.89806, "bike_id": "a54f4983d5550fba50749ec0ad5634c2", "type": "electric_scooter", "is_reserved": 0, "lon": -77.028252}, {"fusion_lat": 0.0, "name": "d3f99cdc48b7c795c1c5e02e937f9aaf", "is_disabled": 0, "rental_uris": {"android": "https://dc.lft.to/lastmile_qr_scan", "ios": "https://dc.lft.to/lastmile_qr_scan"}, "fusion_lon": 0.0, "lat": 38.93196233333333, "bike_id": "d3f99cdc48b7c795c1c5e02e937f9aaf", "type": "electric_scooter", "is_reserved": 0, "lon": -77.07319133333333}, {"fusion_lat": 0.0, "name": "9a7eb043d836412f3e6a6997a75e17fc", "is_disabled": 0, "rental_uris": {"android": "https://dc.lft.to/lastmile_qr_scan", "ios": "https://dc.lft.to/lastmile_qr_scan"}, "fusion_lon": 0.0, "lat": 38.884957166666666, "bike_id": "9a7eb043d836412f3e6a6997a75e17fc", "type": "electric_scooter", "is_reserved": 0, "lon": -77.01087283333334}, {"fusion_lat": 0.0, "name": "8b4fd4110b30fc0ebaedd5b9039b18a5", "is_disabled": 0, "rental_uris": {"android": "https://dc.lft.to/lastmile_qr_scan", "ios": "https://dc.lft.to/lastmile_qr_scan"}, "fusion_lon": 0.0, "lat": 38.900497, "bike_id": "8b4fd4110b30fc0ebaedd5b9039b18a5", "type": "electric_scooter", "is_reserved": 0, "lon": -77.03163033333334}, {"fusion_lat": 0.0, "name": "9ed90c75eb6367b505800790a1b8cb36", "is_disabled": 0, "rental_uris": {"android": "https://dc.lft.to/lastmile_qr_scan", "ios": "https://dc.lft.to/lastmile_qr_scan"}, "fusion_lon": 0.0, "lat": 38.88321366666667, "bike_id": "9ed90c75eb6367b505800790a1b8cb36", "type": "electric_scooter", "is_reserved": 0, "lon": -77.0168535}, {"fusion_lat": 0.0, "name": "50a4d2e404e1aa9d413c42bb90b9d722", "is_disabled": 0, "rental_uris": {"android": "https://dc.lft.to/lastmile_qr_scan", "ios": "https://dc.lft.to/lastmile_qr_scan"}, "fusion_lon": 0.0, "lat": 38.9077005, "bike_id": "50a4d2e404e1aa9d413c42bb90b9d722", "type": "electric_scooter", "is_reserved": 0, "lon": -77.0386705}, {"fusion_lat": 0.0, "name": "0f1cb92483237a52cca62c0325a9656d", "is_disabled": 0, "rental_uris": {"android": "https://dc.lft.to/lastmile_qr_scan", "ios": "https://dc.lft.to/lastmile_qr_scan"}, "fusion_lon": 0.0, "lat": 38.93538933333333, "bike_id": "0f1cb92483237a52cca62c0325a9656d", "type": "electric_scooter", "is_reserved": 0, "lon": -77.03266033333334}, {"fusion_lat": 0.0, "name": "97be948657fb4979abd8fc91c361fa52", "is_disabled": 0, "rental_uris": {"android": "https://dc.lft.to/lastmile_qr_scan", "ios": "https://dc.lft.to/lastmile_qr_scan"}, "fusion_lon": 0.0, "lat": 38.907932833333334, "bike_id": "97be948657fb4979abd8fc91c361fa52", "type": "electric_scooter", "is_reserved": 0, "lon": -77.0343575}, {"fusion_lat": 0.0, "name": "0363e7224617e1ca54672f0d44738f42", "is_disabled": 0, "rental_uris": {"android": "https://dc.lft.to/lastmile_qr_scan", "ios": "https://dc.lft.to/lastmile_qr_scan"}, "fusion_lon": 0.0, "lat": 38.923769166666666, "bike_id": "0363e7224617e1ca54672f0d44738f42", "type": "electric_scooter", "is_reserved": 0, "lon": -77.02139583333333}, {"fusion_lat": 0.0, "name": "e3e1d3a6a261363c8246b4b7e2fe78b7", "is_disabled": 0, "rental_uris": {"android": "https://dc.lft.to/lastmile_qr_scan", "ios": "https://dc.lft.to/lastmile_qr_scan"}, "fusion_lon": 0.0, "lat": 38.905795499999996, "bike_id": "e3e1d3a6a261363c8246b4b7e2fe78b7", "type": "electric_scooter", "is_reserved": 0, "lon": -77.022016}, {"fusion_lat": 0.0, "name": "43d52df89d73fff705b56cfb5d8dcc81", "is_disabled": 0, "rental_uris": {"android": "https://dc.lft.to/lastmile_qr_scan", "ios": "https://dc.lft.to/lastmile_qr_scan"}, "fusion_lon": 0.0, "lat": 38.913306, "bike_id": "43d52df89d73fff705b56cfb5d8dcc81", "type": "electric_scooter", "is_reserved": 0, "lon": -77.021384}, {"fusion_lat": 0.0, "name": "d5617f23a628ae98a500720f55b10d26", "is_disabled": 0, "rental_uris": {"android": "https://dc.lft.to/lastmile_qr_scan", "ios": "https://dc.lft.to/lastmile_qr_scan"}, "fusion_lon": 0.0, "lat": 38.88459433333333, "bike_id": "d5617f23a628ae98a500720f55b10d26", "type": "electric_scooter", "is_reserved": 0, "lon": -77.015222}, {"fusion_lat": 0.0, "name": "92ade6b6b14f10dace27b7b5a41bacff", "is_disabled": 0, "rental_uris": {"android": "https://dc.lft.to/lastmile_qr_scan", "ios": "https://dc.lft.to/lastmile_qr_scan"}, "fusion_lon": 0.0, "lat": 39.003844666666666, "bike_id": "92ade6b6b14f10dace27b7b5a41bacff", "type": "electric_bike", "is_reserved": 0, "lon": -77.01286333333333}, {"fusion_lat": 0.0, "name": "8b663224cac14d607c210e9d404fa7e0", "is_disabled": 0, "rental_uris": {"android": "https://dc.lft.to/lastmile_qr_scan", "ios": "https://dc.lft.to/lastmile_qr_scan"}, "fusion_lon": 0.0, "lat": 38.9096465, "bike_id": "8b663224cac14d607c210e9d404fa7e0", "type": "electric_scooter", "is_reserved": 0, "lon": -77.03384783333334}, {"fusion_lat": 0.0, "name": "11a62a3e8b837865ef7341039b356ffe", "is_disabled": 0, "rental_uris": {"android": "https://dc.lft.to/lastmile_qr_scan", "ios": "https://dc.lft.to/lastmile_qr_scan"}, "fusion_lon": 0.0, "lat": 38.896368, "bike_id": "11a62a3e8b837865ef7341039b356ffe", "type": "electric_scooter", "is_reserved": 0, "lon": -77.03225616666667}, {"fusion_lat": 0.0, "name": "205678ea473e074884f17d5693975ab9", "is_disabled": 0, "rental_uris": {"android": "https://dc.lft.to/lastmile_qr_scan", "ios": "https://dc.lft.to/lastmile_qr_scan"}, "fusion_lon": 0.0, "lat": 38.897462833333336, "bike_id": "205678ea473e074884f17d5693975ab9", "type": "electric_scooter", "is_reserved": 0, "lon": -77.00432066666667}, {"fusion_lat": 0.0, "name": "e00c3533701ad2bad0c0b77953bcd63f", "is_disabled": 0, "rental_uris": {"android": "https://dc.lft.to/lastmile_qr_scan", "ios": "https://dc.lft.to/lastmile_qr_scan"}, "fusion_lon": 0.0, "lat": 38.8643695, "bike_id": "e00c3533701ad2bad0c0b77953bcd63f", "type": "electric_scooter", "is_reserved": 0, "lon": -76.97455783333334}, {"fusion_lat": 0.0, "name": "51bdceeac55c58d00bb0a8c88c5c1a70", "is_disabled": 0, "rental_uris": {"android": "https://dc.lft.to/lastmile_qr_scan", "ios": "https://dc.lft.to/lastmile_qr_scan"}, "fusion_lon": 0.0, "lat": 38.9499145, "bike_id": "51bdceeac55c58d00bb0a8c88c5c1a70", "type": "electric_scooter", "is_reserved": 0, "lon": -77.066921}, {"fusion_lat": 0.0, "name": "5550c2482529e28fddca3c6a80323439", "is_disabled": 0, "rental_uris": {"android": "https://dc.lft.to/lastmile_qr_scan", "ios": "https://dc.lft.to/lastmile_qr_scan"}, "fusion_lon": 0.0, "lat": 38.897951166666665, "bike_id": "5550c2482529e28fddca3c6a80323439", "type": "electric_scooter", "is_reserved": 0, "lon": -76.93122283333334}, {"fusion_lat": 0.0, "name": "ec75c6a292a8ceba06d22b82ee938760", "is_disabled": 0, "rental_uris": {"android": "https://dc.lft.to/lastmile_qr_scan", "ios": "https://dc.lft.to/lastmile_qr_scan"}, "fusion_lon": 0.0, "lat": 38.862456, "bike_id": "ec75c6a292a8ceba06d22b82ee938760", "type": "electric_scooter", "is_reserved": 0, "lon": -76.99499066666667}, {"fusion_lat": 0.0, "name": "d31188b09c33cbd3ec82decd6ed8536e", "is_disabled": 0, "rental_uris": {"android": "https://dc.lft.to/lastmile_qr_scan", "ios": "https://dc.lft.to/lastmile_qr_scan"}, "fusion_lon": 0.0, "lat": 38.93218616666667, "bike_id": "d31188b09c33cbd3ec82decd6ed8536e", "type": "electric_scooter", "is_reserved": 0, "lon": -77.03348983333333}, {"fusion_lat": 0.0, "name": "238717cacc7f9122c20bb312b18152b9", "is_disabled": 0, "rental_uris": {"android": "https://dc.lft.to/lastmile_qr_scan", "ios": "https://dc.lft.to/lastmile_qr_scan"}, "fusion_lon": 0.0, "lat": 38.917315, "bike_id": "238717cacc7f9122c20bb312b18152b9", "type": "electric_scooter", "is_reserved": 0, "lon": -77.0250065}, {"fusion_lat": 0.0, "name": "33a53bfd3fe65d9f4cf319db4c6a5235", "is_disabled": 0, "rental_uris": {"android": "https://dc.lft.to/lastmile_qr_scan", "ios": "https://dc.lft.to/lastmile_qr_scan"}, "fusion_lon": 0.0, "lat": 38.88665316666667, "bike_id": "33a53bfd3fe65d9f4cf319db4c6a5235", "type": "electric_scooter", "is_reserved": 0, "lon": -77.00110866666667}, {"fusion_lat": 0.0, "name": "89b1453936e41cd1980673071e31b01c", "is_disabled": 0, "rental_uris": {"android": "https://dc.lft.to/lastmile_qr_scan", "ios": "https://dc.lft.to/lastmile_qr_scan"}, "fusion_lon": 0.0, "lat": 38.85357233333333, "bike_id": "89b1453936e41cd1980673071e31b01c", "type": "electric_bike", "is_reserved": 0, "lon": -77.13462333333334}, {"fusion_lat": 0.0, "name": "66869d5a800bb878524aeb662020cc12", "is_disabled": 0, "rental_uris": {"android": "https://dc.lft.to/lastmile_qr_scan", "ios": "https://dc.lft.to/lastmile_qr_scan"}, "fusion_lon": 0.0, "lat": 38.91462833333333, "bike_id": "66869d5a800bb878524aeb662020cc12", "type": "electric_scooter", "is_reserved": 0, "lon": -77.002091}, {"fusion_lat": 0.0, "name": "429212d5a01184b7408ec226e55e85b4", "is_disabled": 0, "rental_uris": {"android": "https://dc.lft.to/lastmile_qr_scan", "ios": "https://dc.lft.to/lastmile_qr_scan"}, "fusion_lon": 0.0, "lat": 38.95056233333333, "bike_id": "429212d5a01184b7408ec226e55e85b4", "type": "electric_scooter", "is_reserved": 0, "lon": -77.0802695}, {"fusion_lat": 0.0, "name": "5a64030a334886684d9f9856af14d637", "is_disabled": 0, "rental_uris": {"android": "https://dc.lft.to/lastmile_qr_scan", "ios": "https://dc.lft.to/lastmile_qr_scan"}, "fusion_lon": 0.0, "lat": 38.936033333333334, "bike_id": "5a64030a334886684d9f9856af14d637", "type": "electric_scooter", "is_reserved": 0, "lon": -77.03654716666667}, {"fusion_lat": 0.0, "name": "a556dd162178c78403d17a6bc79df3d2", "is_disabled": 0, "rental_uris": {"android": "https://dc.lft.to/lastmile_qr_scan", "ios": "https://dc.lft.to/lastmile_qr_scan"}, "fusion_lon": 0.0, "lat": 38.92255166666666, "bike_id": "a556dd162178c78403d17a6bc79df3d2", "type": "electric_scooter", "is_reserved": 0, "lon": -77.019526}, {"fusion_lat": 0.0, "name": "57cf4ac08bda4bf2efcd63ac78fcd8fb", "is_disabled": 0, "rental_uris": {"android": "https://dc.lft.to/lastmile_qr_scan", "ios": "https://dc.lft.to/lastmile_qr_scan"}, "fusion_lon": 0.0, "lat": 38.89616266666667, "bike_id": "57cf4ac08bda4bf2efcd63ac78fcd8fb", "type": "electric_scooter", "is_reserved": 0, "lon": -77.03246}, {"fusion_lat": 0.0, "name": "6ca6bf6638146aacad915fa1cca33532", "is_disabled": 0, "rental_uris": {"android": "https://dc.lft.to/lastmile_qr_scan", "ios": "https://dc.lft.to/lastmile_qr_scan"}, "fusion_lon": 0.0, "lat": 38.87581633333333, "bike_id": "6ca6bf6638146aacad915fa1cca33532", "type": "electric_bike", "is_reserved": 0, "lon": -77.23409016666666}, {"fusion_lat": 0.0, "name": "62a1e11f5db13ad69a9c7501b8403e94", "is_disabled": 0, "rental_uris": {"android": "https://dc.lft.to/lastmile_qr_scan", "ios": "https://dc.lft.to/lastmile_qr_scan"}, "fusion_lon": 0.0, "lat": 38.891933, "bike_id": "62a1e11f5db13ad69a9c7501b8403e94", "type": "electric_scooter", "is_reserved": 0, "lon": -76.99841916666666}, {"fusion_lat": 0.0, "name": "33439d49103cd479467a4513bb66b15d", "is_disabled": 0, "rental_uris": {"android": "https://dc.lft.to/lastmile_qr_scan", "ios": "https://dc.lft.to/lastmile_qr_scan"}, "fusion_lon": 0.0, "lat": 38.918867166666665, "bike_id": "33439d49103cd479467a4513bb66b15d", "type": "electric_scooter", "is_reserved": 0, "lon": -77.04830933333334}, {"fusion_lat": 0.0, "name": "52379e8956f73a23f0e3c9ba062ede0a", "is_disabled": 0, "rental_uris": {"android": "https://dc.lft.to/lastmile_qr_scan", "ios": "https://dc.lft.to/lastmile_qr_scan"}, "fusion_lon": 0.0, "lat": 38.91612933333333, "bike_id": "52379e8956f73a23f0e3c9ba062ede0a", "type": "electric_scooter", "is_reserved": 0, "lon": -77.0313055}, {"fusion_lat": 0.0, "name": "49c89ea94dd1d3ae9fe79edd580f854a", "is_disabled": 0, "rental_uris": {"android": "https://dc.lft.to/lastmile_qr_scan", "ios": "https://dc.lft.to/lastmile_qr_scan"}, "fusion_lon": 0.0, "lat": 38.9170645, "bike_id": "49c89ea94dd1d3ae9fe79edd580f854a", "type": "electric_scooter", "is_reserved": 0, "lon": -77.03237433333334}, {"fusion_lat": 0.0, "name": "343f25557e1961c75019ed1ac12cda9d", "is_disabled": 0, "rental_uris": {"android": "https://dc.lft.to/lastmile_qr_scan", "ios": "https://dc.lft.to/lastmile_qr_scan"}, "fusion_lon": 0.0, "lat": 38.88530683333333, "bike_id": "343f25557e1961c75019ed1ac12cda9d", "type": "electric_scooter", "is_reserved": 0, "lon": -76.92921133333333}, {"fusion_lat": 0.0, "name": "95273fb19c2938ed849ea7a26595c693", "is_disabled": 0, "rental_uris": {"android": "https://dc.lft.to/lastmile_qr_scan", "ios": "https://dc.lft.to/lastmile_qr_scan"}, "fusion_lon": 0.0, "lat": 38.90042833333333, "bike_id": "95273fb19c2938ed849ea7a26595c693", "type": "electric_scooter", "is_reserved": 0, "lon": -77.034859}, {"fusion_lat": 0.0, "name": "b81aaf5e0ddba61fe4deeeb640490d0e", "is_disabled": 0, "rental_uris": {"android": "https://dc.lft.to/lastmile_qr_scan", "ios": "https://dc.lft.to/lastmile_qr_scan"}, "fusion_lon": 0.0, "lat": 38.90792866666666, "bike_id": "b81aaf5e0ddba61fe4deeeb640490d0e", "type": "electric_scooter", "is_reserved": 0, "lon": -77.0433975}, {"fusion_lat": 0.0, "name": "78d6d7768b04101f7782deebb3834043", "is_disabled": 0, "rental_uris": {"android": "https://dc.lft.to/lastmile_qr_scan", "ios": "https://dc.lft.to/lastmile_qr_scan"}, "fusion_lon": 0.0, "lat": 38.898292833333336, "bike_id": "78d6d7768b04101f7782deebb3834043", "type": "electric_scooter", "is_reserved": 0, "lon": -76.94655366666667}, {"fusion_lat": 0.0, "name": "1f7eb3c23ead5747d2f486ff4f0daced", "is_disabled": 0, "rental_uris": {"android": "https://dc.lft.to/lastmile_qr_scan", "ios": "https://dc.lft.to/lastmile_qr_scan"}, "fusion_lon": 0.0, "lat": 38.899093666666666, "bike_id": "1f7eb3c23ead5747d2f486ff4f0daced", "type": "electric_scooter", "is_reserved": 0, "lon": -76.93352183333333}, {"fusion_lat": 0.0, "name": "88848a3fb61b484a9320c5beb02aed9f", "is_disabled": 0, "rental_uris": {"android": "https://dc.lft.to/lastmile_qr_scan", "ios": "https://dc.lft.to/lastmile_qr_scan"}, "fusion_lon": 0.0, "lat": 38.940891, "bike_id": "88848a3fb61b484a9320c5beb02aed9f", "type": "electric_scooter", "is_reserved": 0, "lon": -77.06185783333333}, {"fusion_lat": 0.0, "name": "148b7aecf3b7b547938c943a2bfe8773", "is_disabled": 0, "rental_uris": {"android": "https://dc.lft.to/lastmile_qr_scan", "ios": "https://dc.lft.to/lastmile_qr_scan"}, "fusion_lon": 0.0, "lat": 38.93773016666667, "bike_id": "148b7aecf3b7b547938c943a2bfe8773", "type": "electric_bike", "is_reserved": 0, "lon": -77.0191255}, {"fusion_lat": 0.0, "name": "24ee6ef27d2c7047fa86755f20fcfe32", "is_disabled": 0, "rental_uris": {"android": "https://dc.lft.to/lastmile_qr_scan", "ios": "https://dc.lft.to/lastmile_qr_scan"}, "fusion_lon": 0.0, "lat": 38.933976, "bike_id": "24ee6ef27d2c7047fa86755f20fcfe32", "type": "electric_scooter", "is_reserved": 0, "lon": -77.02843216666666}, {"fusion_lat": 0.0, "name": "a309ca400aa4d681baae948a979ec1d3", "is_disabled": 0, "rental_uris": {"android": "https://dc.lft.to/lastmile_qr_scan", "ios": "https://dc.lft.to/lastmile_qr_scan"}, "fusion_lon": 0.0, "lat": 38.929178666666665, "bike_id": "a309ca400aa4d681baae948a979ec1d3", "type": "electric_scooter", "is_reserved": 0, "lon": -77.037453}, {"fusion_lat": 0.0, "name": "08be0410061f6bad054310a113fa8c09", "is_disabled": 0, "rental_uris": {"android": "https://dc.lft.to/lastmile_qr_scan", "ios": "https://dc.lft.to/lastmile_qr_scan"}, "fusion_lon": 0.0, "lat": 38.857723166666666, "bike_id": "08be0410061f6bad054310a113fa8c09", "type": "electric_bike", "is_reserved": 0, "lon": -76.98769616666667}, {"fusion_lat": 0.0, "name": "f598635af01880b96ac9e91895485df2", "is_disabled": 0, "rental_uris": {"android": "https://dc.lft.to/lastmile_qr_scan", "ios": "https://dc.lft.to/lastmile_qr_scan"}, "fusion_lon": 0.0, "lat": 38.883961666666664, "bike_id": "f598635af01880b96ac9e91895485df2", "type": "electric_scooter", "is_reserved": 0, "lon": -76.93048333333333}, {"fusion_lat": 0.0, "name": "373ce159b8eb146dedb550d7d7fe3996", "is_disabled": 0, "rental_uris": {"android": "https://dc.lft.to/lastmile_qr_scan", "ios": "https://dc.lft.to/lastmile_qr_scan"}, "fusion_lon": 0.0, "lat": 38.9140055, "bike_id": "373ce159b8eb146dedb550d7d7fe3996", "type": "electric_scooter", "is_reserved": 0, "lon": -77.033219}, {"fusion_lat": 0.0, "name": "7808045501be36f0153804be1d8a610a", "is_disabled": 0, "rental_uris": {"android": "https://dc.lft.to/lastmile_qr_scan", "ios": "https://dc.lft.to/lastmile_qr_scan"}, "fusion_lon": 0.0, "lat": 38.91651866666667, "bike_id": "7808045501be36f0153804be1d8a610a", "type": "electric_scooter", "is_reserved": 0, "lon": -77.0281685}, {"fusion_lat": 0.0, "name": "8c4e5fc1dd3642c6c05677be035bae70", "is_disabled": 0, "rental_uris": {"android": "https://dc.lft.to/lastmile_qr_scan", "ios": "https://dc.lft.to/lastmile_qr_scan"}, "fusion_lon": 0.0, "lat": 38.93029383333333, "bike_id": "8c4e5fc1dd3642c6c05677be035bae70", "type": "electric_bike", "is_reserved": 0, "lon": -77.02020633333333}, {"fusion_lat": 0.0, "name": "78f5d234b128de36cb0e4577caa89c65", "is_disabled": 0, "rental_uris": {"android": "https://dc.lft.to/lastmile_qr_scan", "ios": "https://dc.lft.to/lastmile_qr_scan"}, "fusion_lon": 0.0, "lat": 38.915570833333334, "bike_id": "78f5d234b128de36cb0e4577caa89c65", "type": "electric_scooter", "is_reserved": 0, "lon": -77.03223933333334}, {"fusion_lat": 0.0, "name": "4c400d3e220a3a85d1a5b3b94dbf43cb", "is_disabled": 0, "rental_uris": {"android": "https://dc.lft.to/lastmile_qr_scan", "ios": "https://dc.lft.to/lastmile_qr_scan"}, "fusion_lon": 0.0, "lat": 38.9206175, "bike_id": "4c400d3e220a3a85d1a5b3b94dbf43cb", "type": "electric_scooter", "is_reserved": 0, "lon": -77.03263266666667}, {"fusion_lat": 0.0, "name": "58c7bb82239602f47163ddde0bc830a1", "is_disabled": 0, "rental_uris": {"android": "https://dc.lft.to/lastmile_qr_scan", "ios": "https://dc.lft.to/lastmile_qr_scan"}, "fusion_lon": 0.0, "lat": 38.85699433333333, "bike_id": "58c7bb82239602f47163ddde0bc830a1", "type": "electric_scooter", "is_reserved": 0, "lon": -76.996003}, {"fusion_lat": 0.0, "name": "7d883394534fde38b7f3736542fa7ad3", "is_disabled": 0, "rental_uris": {"android": "https://dc.lft.to/lastmile_qr_scan", "ios": "https://dc.lft.to/lastmile_qr_scan"}, "fusion_lon": 0.0, "lat": 38.90181416666667, "bike_id": "7d883394534fde38b7f3736542fa7ad3", "type": "electric_scooter", "is_reserved": 0, "lon": -77.02213466666667}, {"fusion_lat": 0.0, "name": "12f41090a22656598b574fdfe559ee14", "is_disabled": 0, "rental_uris": {"android": "https://dc.lft.to/lastmile_qr_scan", "ios": "https://dc.lft.to/lastmile_qr_scan"}, "fusion_lon": 0.0, "lat": 38.91572883333333, "bike_id": "12f41090a22656598b574fdfe559ee14", "type": "electric_scooter", "is_reserved": 0, "lon": -77.03772833333333}, {"fusion_lat": 0.0, "name": "31073d8b7fc06ddbe14f8e80cbc84c26", "is_disabled": 0, "rental_uris": {"android": "https://dc.lft.to/lastmile_qr_scan", "ios": "https://dc.lft.to/lastmile_qr_scan"}, "fusion_lon": 0.0, "lat": 38.90224116666667, "bike_id": "31073d8b7fc06ddbe14f8e80cbc84c26", "type": "electric_scooter", "is_reserved": 0, "lon": -77.02365116666667}, {"fusion_lat": 0.0, "name": "b1024ccee750d32736fa8bea506c2c4d", "is_disabled": 0, "rental_uris": {"android": "https://dc.lft.to/lastmile_qr_scan", "ios": "https://dc.lft.to/lastmile_qr_scan"}, "fusion_lon": 0.0, "lat": 38.93216183333333, "bike_id": "b1024ccee750d32736fa8bea506c2c4d", "type": "electric_scooter", "is_reserved": 0, "lon": -77.03348083333333}, {"fusion_lat": 0.0, "name": "a0385eaebce589bb42c1b720aa93815c", "is_disabled": 0, "rental_uris": {"android": "https://dc.lft.to/lastmile_qr_scan", "ios": "https://dc.lft.to/lastmile_qr_scan"}, "fusion_lon": 0.0, "lat": 38.9248545, "bike_id": "a0385eaebce589bb42c1b720aa93815c", "type": "electric_scooter", "is_reserved": 0, "lon": -77.02659316666667}, {"fusion_lat": 0.0, "name": "90801730916ed94aec46a992926a632b", "is_disabled": 0, "rental_uris": {"android": "https://dc.lft.to/lastmile_qr_scan", "ios": "https://dc.lft.to/lastmile_qr_scan"}, "fusion_lon": 0.0, "lat": 38.88991683333333, "bike_id": "90801730916ed94aec46a992926a632b", "type": "electric_scooter", "is_reserved": 0, "lon": -76.98414583333333}, {"fusion_lat": 0.0, "name": "29243bc2ccdf601eb6a0ced011c28c74", "is_disabled": 0, "rental_uris": {"android": "https://dc.lft.to/lastmile_qr_scan", "ios": "https://dc.lft.to/lastmile_qr_scan"}, "fusion_lon": 0.0, "lat": 38.9280225, "bike_id": "29243bc2ccdf601eb6a0ced011c28c74", "type": "electric_scooter", "is_reserved": 0, "lon": -77.05529283333334}, {"fusion_lat": 0.0, "name": "9cf720f51bb122f76744251aa731b463", "is_disabled": 0, "rental_uris": {"android": "https://dc.lft.to/lastmile_qr_scan", "ios": "https://dc.lft.to/lastmile_qr_scan"}, "fusion_lon": 0.0, "lat": 38.896381166666664, "bike_id": "9cf720f51bb122f76744251aa731b463", "type": "electric_scooter", "is_reserved": 0, "lon": -77.00930483333333}, {"fusion_lat": 0.0, "name": "62ae807d215b4f5b3ec9a385768ae424", "is_disabled": 0, "rental_uris": {"android": "https://dc.lft.to/lastmile_qr_scan", "ios": "https://dc.lft.to/lastmile_qr_scan"}, "fusion_lon": 0.0, "lat": 38.907293333333335, "bike_id": "62ae807d215b4f5b3ec9a385768ae424", "type": "electric_scooter", "is_reserved": 0, "lon": -77.02828633333333}, {"fusion_lat": 0.0, "name": "45b254f3617223ae3c21f120beecaca0", "is_disabled": 0, "rental_uris": {"android": "https://dc.lft.to/lastmile_qr_scan", "ios": "https://dc.lft.to/lastmile_qr_scan"}, "fusion_lon": 0.0, "lat": 38.904028333333336, "bike_id": "45b254f3617223ae3c21f120beecaca0", "type": "electric_scooter", "is_reserved": 0, "lon": -77.05355966666667}, {"fusion_lat": 0.0, "name": "6fdfce122094357be04e6034a88e7b71", "is_disabled": 0, "rental_uris": {"android": "https://dc.lft.to/lastmile_qr_scan", "ios": "https://dc.lft.to/lastmile_qr_scan"}, "fusion_lon": 0.0, "lat": 38.866217166666665, "bike_id": "6fdfce122094357be04e6034a88e7b71", "type": "electric_bike", "is_reserved": 0, "lon": -76.94569766666666}, {"fusion_lat": 0.0, "name": "9316f8bd2691c0394bb6c37c1dc7503d", "is_disabled": 0, "rental_uris": {"android": "https://dc.lft.to/lastmile_qr_scan", "ios": "https://dc.lft.to/lastmile_qr_scan"}, "fusion_lon": 0.0, "lat": 38.92848133333333, "bike_id": "9316f8bd2691c0394bb6c37c1dc7503d", "type": "electric_scooter", "is_reserved": 0, "lon": -77.014198}, {"fusion_lat": 0.0, "name": "5f3a8a75107052b8ff7f76c77a210304", "is_disabled": 0, "rental_uris": {"android": "https://dc.lft.to/lastmile_qr_scan", "ios": "https://dc.lft.to/lastmile_qr_scan"}, "fusion_lon": 0.0, "lat": 38.916438666666664, "bike_id": "5f3a8a75107052b8ff7f76c77a210304", "type": "electric_scooter", "is_reserved": 0, "lon": -77.0399065}, {"fusion_lat": 0.0, "name": "81ba896d53d8cfecfaea8e8abd5cd097", "is_disabled": 0, "rental_uris": {"android": "https://dc.lft.to/lastmile_qr_scan", "ios": "https://dc.lft.to/lastmile_qr_scan"}, "fusion_lon": 0.0, "lat": 38.92063316666667, "bike_id": "81ba896d53d8cfecfaea8e8abd5cd097", "type": "electric_scooter", "is_reserved": 0, "lon": -77.02387133333333}, {"fusion_lat": 0.0, "name": "b6fc85d55c7cbba8124eece3a553d854", "is_disabled": 0, "rental_uris": {"android": "https://dc.lft.to/lastmile_qr_scan", "ios": "https://dc.lft.to/lastmile_qr_scan"}, "fusion_lon": 0.0, "lat": 38.864614833333334, "bike_id": "b6fc85d55c7cbba8124eece3a553d854", "type": "electric_bike", "is_reserved": 0, "lon": -76.94528683333333}, {"fusion_lat": 0.0, "name": "93ffc3c3142a1b08d535d9cbedfa2666", "is_disabled": 0, "rental_uris": {"android": "https://dc.lft.to/lastmile_qr_scan", "ios": "https://dc.lft.to/lastmile_qr_scan"}, "fusion_lon": 0.0, "lat": 38.91413933333333, "bike_id": "93ffc3c3142a1b08d535d9cbedfa2666", "type": "electric_scooter", "is_reserved": 0, "lon": -77.01325833333334}, {"fusion_lat": 0.0, "name": "6a62bdc25aeac4b90553395c2c8dcd3a", "is_disabled": 0, "rental_uris": {"android": "https://dc.lft.to/lastmile_qr_scan", "ios": "https://dc.lft.to/lastmile_qr_scan"}, "fusion_lon": 0.0, "lat": 38.91935683333333, "bike_id": "6a62bdc25aeac4b90553395c2c8dcd3a", "type": "electric_scooter", "is_reserved": 0, "lon": -77.04478283333333}, {"fusion_lat": 0.0, "name": "c3bf763cf05ce32a24f8cb41901dd717", "is_disabled": 0, "rental_uris": {"android": "https://dc.lft.to/lastmile_qr_scan", "ios": "https://dc.lft.to/lastmile_qr_scan"}, "fusion_lon": 0.0, "lat": 38.922487833333335, "bike_id": "c3bf763cf05ce32a24f8cb41901dd717", "type": "electric_scooter", "is_reserved": 0, "lon": -77.04250866666666}, {"fusion_lat": 0.0, "name": "e82323ccd3acb12b46ad5ec52b950d96", "is_disabled": 0, "rental_uris": {"android": "https://dc.lft.to/lastmile_qr_scan", "ios": "https://dc.lft.to/lastmile_qr_scan"}, "fusion_lon": 0.0, "lat": 38.949204, "bike_id": "e82323ccd3acb12b46ad5ec52b950d96", "type": "electric_bike", "is_reserved": 0, "lon": -77.06510966666667}, {"fusion_lat": 0.0, "name": "4c1f8a4d9833adc0c761ae3b7f091ec5", "is_disabled": 0, "rental_uris": {"android": "https://dc.lft.to/lastmile_qr_scan", "ios": "https://dc.lft.to/lastmile_qr_scan"}, "fusion_lon": 0.0, "lat": 38.89730433333333, "bike_id": "4c1f8a4d9833adc0c761ae3b7f091ec5", "type": "electric_scooter", "is_reserved": 0, "lon": -77.003754}, {"fusion_lat": 0.0, "name": "25d8d88c19d1f80130b22e957ab7ec92", "is_disabled": 0, "rental_uris": {"android": "https://dc.lft.to/lastmile_qr_scan", "ios": "https://dc.lft.to/lastmile_qr_scan"}, "fusion_lon": 0.0, "lat": 38.90837766666667, "bike_id": "25d8d88c19d1f80130b22e957ab7ec92", "type": "electric_scooter", "is_reserved": 0, "lon": -77.043643}, {"fusion_lat": 0.0, "name": "9a0956c4f42ad3eca50604a8425b1940", "is_disabled": 0, "rental_uris": {"android": "https://dc.lft.to/lastmile_qr_scan", "ios": "https://dc.lft.to/lastmile_qr_scan"}, "fusion_lon": 0.0, "lat": 38.919109, "bike_id": "9a0956c4f42ad3eca50604a8425b1940", "type": "electric_scooter", "is_reserved": 0, "lon": -77.002178}, {"fusion_lat": 0.0, "name": "2285458a74800e7fd81beddc5cd7247a", "is_disabled": 0, "rental_uris": {"android": "https://dc.lft.to/lastmile_qr_scan", "ios": "https://dc.lft.to/lastmile_qr_scan"}, "fusion_lon": 0.0, "lat": 38.89683433333333, "bike_id": "2285458a74800e7fd81beddc5cd7247a", "type": "electric_scooter", "is_reserved": 0, "lon": -77.04351166666666}, {"fusion_lat": 0.0, "name": "dfb9733d8f0545d773b2c58119a6483e", "is_disabled": 0, "rental_uris": {"android": "https://dc.lft.to/lastmile_qr_scan", "ios": "https://dc.lft.to/lastmile_qr_scan"}, "fusion_lon": 0.0, "lat": 38.90693383333333, "bike_id": "dfb9733d8f0545d773b2c58119a6483e", "type": "electric_scooter", "is_reserved": 0, "lon": -77.027182}, {"fusion_lat": 0.0, "name": "bbc3eee694982ccb1ecf17309c35b706", "is_disabled": 0, "rental_uris": {"android": "https://dc.lft.to/lastmile_qr_scan", "ios": "https://dc.lft.to/lastmile_qr_scan"}, "fusion_lon": 0.0, "lat": 38.91126516666667, "bike_id": "bbc3eee694982ccb1ecf17309c35b706", "type": "electric_scooter", "is_reserved": 0, "lon": -77.0208875}, {"fusion_lat": 0.0, "name": "ff88ce7829cb2fb349468c1245a771d1", "is_disabled": 0, "rental_uris": {"android": "https://dc.lft.to/lastmile_qr_scan", "ios": "https://dc.lft.to/lastmile_qr_scan"}, "fusion_lon": 0.0, "lat": 38.891185166666666, "bike_id": "ff88ce7829cb2fb349468c1245a771d1", "type": "electric_scooter", "is_reserved": 0, "lon": -76.94384483333333}, {"fusion_lat": 0.0, "name": "0de1a9bb1add4e5eba0a82fecf90d2b7", "is_disabled": 0, "rental_uris": {"android": "https://dc.lft.to/lastmile_qr_scan", "ios": "https://dc.lft.to/lastmile_qr_scan"}, "fusion_lon": 0.0, "lat": 38.856542, "bike_id": "0de1a9bb1add4e5eba0a82fecf90d2b7", "type": "electric_scooter", "is_reserved": 0, "lon": -76.9967585}, {"fusion_lat": 0.0, "name": "cc0935f1e7adddfc4b61194c5b26638e", "is_disabled": 0, "rental_uris": {"android": "https://dc.lft.to/lastmile_qr_scan", "ios": "https://dc.lft.to/lastmile_qr_scan"}, "fusion_lon": 0.0, "lat": 38.8973115, "bike_id": "cc0935f1e7adddfc4b61194c5b26638e", "type": "electric_bike", "is_reserved": 0, "lon": -76.92049466666667}, {"fusion_lat": 0.0, "name": "3105535862af4e00468fa7ec0ff59191", "is_disabled": 0, "rental_uris": {"android": "https://dc.lft.to/lastmile_qr_scan", "ios": "https://dc.lft.to/lastmile_qr_scan"}, "fusion_lon": 0.0, "lat": 38.9749865, "bike_id": "3105535862af4e00468fa7ec0ff59191", "type": "electric_scooter", "is_reserved": 0, "lon": -77.01699166666667}, {"fusion_lat": 0.0, "name": "e646ab3e2231f3c99253ff00d1cdbdc0", "is_disabled": 0, "rental_uris": {"android": "https://dc.lft.to/lastmile_qr_scan", "ios": "https://dc.lft.to/lastmile_qr_scan"}, "fusion_lon": 0.0, "lat": 38.926435, "bike_id": "e646ab3e2231f3c99253ff00d1cdbdc0", "type": "electric_scooter", "is_reserved": 0, "lon": -77.03322}, {"fusion_lat": 0.0, "name": "10c968aa066a66e0052e57f08e60574d", "is_disabled": 0, "rental_uris": {"android": "https://dc.lft.to/lastmile_qr_scan", "ios": "https://dc.lft.to/lastmile_qr_scan"}, "fusion_lon": 0.0, "lat": 38.96991283333333, "bike_id": "10c968aa066a66e0052e57f08e60574d", "type": "electric_scooter", "is_reserved": 0, "lon": -77.011599}, {"fusion_lat": 0.0, "name": "596733eb5fa7e0e6bd8257ef08ff9ac7", "is_disabled": 0, "rental_uris": {"android": "https://dc.lft.to/lastmile_qr_scan", "ios": "https://dc.lft.to/lastmile_qr_scan"}, "fusion_lon": 0.0, "lat": 38.88116633333333, "bike_id": "596733eb5fa7e0e6bd8257ef08ff9ac7", "type": "electric_bike", "is_reserved": 0, "lon": -77.01641516666666}, {"fusion_lat": 0.0, "name": "2b621256e1d43f628f4cb250a13d03ce", "is_disabled": 0, "rental_uris": {"android": "https://dc.lft.to/lastmile_qr_scan", "ios": "https://dc.lft.to/lastmile_qr_scan"}, "fusion_lon": 0.0, "lat": 38.91109066666667, "bike_id": "2b621256e1d43f628f4cb250a13d03ce", "type": "electric_scooter", "is_reserved": 0, "lon": -77.02911166666667}, {"fusion_lat": 0.0, "name": "2211f645ff082baf57e9e3360a0d3051", "is_disabled": 0, "rental_uris": {"android": "https://dc.lft.to/lastmile_qr_scan", "ios": "https://dc.lft.to/lastmile_qr_scan"}, "fusion_lon": 0.0, "lat": 38.9307135, "bike_id": "2211f645ff082baf57e9e3360a0d3051", "type": "electric_scooter", "is_reserved": 0, "lon": -77.04052316666667}, {"fusion_lat": 0.0, "name": "83befbfc2c42c3dbdc28cc81cb3a2787", "is_disabled": 0, "rental_uris": {"android": "https://dc.lft.to/lastmile_qr_scan", "ios": "https://dc.lft.to/lastmile_qr_scan"}, "fusion_lon": 0.0, "lat": 38.918185333333334, "bike_id": "83befbfc2c42c3dbdc28cc81cb3a2787", "type": "electric_scooter", "is_reserved": 0, "lon": -77.01208933333334}, {"fusion_lat": 0.0, "name": "eeeaf9659a000680744ab4cca21efc7c", "is_disabled": 0, "rental_uris": {"android": "https://dc.lft.to/lastmile_qr_scan", "ios": "https://dc.lft.to/lastmile_qr_scan"}, "fusion_lon": 0.0, "lat": 38.909274833333335, "bike_id": "eeeaf9659a000680744ab4cca21efc7c", "type": "electric_scooter", "is_reserved": 0, "lon": -77.07295733333333}, {"fusion_lat": 0.0, "name": "2f4d5f4ca8e2ae02ddc9c6f7bb943c0a", "is_disabled": 0, "rental_uris": {"android": "https://dc.lft.to/lastmile_qr_scan", "ios": "https://dc.lft.to/lastmile_qr_scan"}, "fusion_lon": 0.0, "lat": 38.89224683333333, "bike_id": "2f4d5f4ca8e2ae02ddc9c6f7bb943c0a", "type": "electric_scooter", "is_reserved": 0, "lon": -77.04688466666667}, {"fusion_lat": 0.0, "name": "05296204a54e23edf3f2335da95f273e", "is_disabled": 0, "rental_uris": {"android": "https://dc.lft.to/lastmile_qr_scan", "ios": "https://dc.lft.to/lastmile_qr_scan"}, "fusion_lon": 0.0, "lat": 38.9191845, "bike_id": "05296204a54e23edf3f2335da95f273e", "type": "electric_scooter", "is_reserved": 0, "lon": -77.02505533333333}, {"fusion_lat": 0.0, "name": "7a6a7a5309708f9951432a77b064e4b6", "is_disabled": 0, "rental_uris": {"android": "https://dc.lft.to/lastmile_qr_scan", "ios": "https://dc.lft.to/lastmile_qr_scan"}, "fusion_lon": 0.0, "lat": 38.93147616666667, "bike_id": "7a6a7a5309708f9951432a77b064e4b6", "type": "electric_scooter", "is_reserved": 0, "lon": -77.07858566666667}, {"fusion_lat": 0.0, "name": "66f9306b5d20621ffa22b884e104fa25", "is_disabled": 0, "rental_uris": {"android": "https://dc.lft.to/lastmile_qr_scan", "ios": "https://dc.lft.to/lastmile_qr_scan"}, "fusion_lon": 0.0, "lat": 38.9445135, "bike_id": "66f9306b5d20621ffa22b884e104fa25", "type": "electric_scooter", "is_reserved": 0, "lon": -77.02340366666667}, {"fusion_lat": 0.0, "name": "dea486ce803b57438765eb3de3d5a55a", "is_disabled": 0, "rental_uris": {"android": "https://dc.lft.to/lastmile_qr_scan", "ios": "https://dc.lft.to/lastmile_qr_scan"}, "fusion_lon": 0.0, "lat": 38.86627583333333, "bike_id": "dea486ce803b57438765eb3de3d5a55a", "type": "electric_scooter", "is_reserved": 0, "lon": -76.98716266666666}, {"fusion_lat": 0.0, "name": "3542ef732dac1dc6bd7ac552ed38c9dc", "is_disabled": 0, "rental_uris": {"android": "https://dc.lft.to/lastmile_qr_scan", "ios": "https://dc.lft.to/lastmile_qr_scan"}, "fusion_lon": 0.0, "lat": 38.91988033333333, "bike_id": "3542ef732dac1dc6bd7ac552ed38c9dc", "type": "electric_scooter", "is_reserved": 0, "lon": -77.023781}, {"fusion_lat": 0.0, "name": "7492c9be849142fe5dfaadbd151794fd", "is_disabled": 0, "rental_uris": {"android": "https://dc.lft.to/lastmile_qr_scan", "ios": "https://dc.lft.to/lastmile_qr_scan"}, "fusion_lon": 0.0, "lat": 38.90089716666667, "bike_id": "7492c9be849142fe5dfaadbd151794fd", "type": "electric_scooter", "is_reserved": 0, "lon": -77.05834816666666}, {"fusion_lat": 0.0, "name": "47f2d86c641ae24523b536bb362e696f", "is_disabled": 0, "rental_uris": {"android": "https://dc.lft.to/lastmile_qr_scan", "ios": "https://dc.lft.to/lastmile_qr_scan"}, "fusion_lon": 0.0, "lat": 38.905298333333334, "bike_id": "47f2d86c641ae24523b536bb362e696f", "type": "electric_scooter", "is_reserved": 0, "lon": -77.03470883333334}, {"fusion_lat": 0.0, "name": "468d4cf08b8bd45b2c1188245cd0a97c", "is_disabled": 0, "rental_uris": {"android": "https://dc.lft.to/lastmile_qr_scan", "ios": "https://dc.lft.to/lastmile_qr_scan"}, "fusion_lon": 0.0, "lat": 38.88398766666667, "bike_id": "468d4cf08b8bd45b2c1188245cd0a97c", "type": "electric_scooter", "is_reserved": 0, "lon": -76.93042466666667}, {"fusion_lat": 0.0, "name": "f522c7e2951b14d59cb4ff6f2a8a3e84", "is_disabled": 0, "rental_uris": {"android": "https://dc.lft.to/lastmile_qr_scan", "ios": "https://dc.lft.to/lastmile_qr_scan"}, "fusion_lon": 0.0, "lat": 38.903932, "bike_id": "f522c7e2951b14d59cb4ff6f2a8a3e84", "type": "electric_scooter", "is_reserved": 0, "lon": -77.06717666666667}, {"fusion_lat": 0.0, "name": "f08959c2c9805153f568da319d1233cb", "is_disabled": 0, "rental_uris": {"android": "https://dc.lft.to/lastmile_qr_scan", "ios": "https://dc.lft.to/lastmile_qr_scan"}, "fusion_lon": 0.0, "lat": 38.92249316666667, "bike_id": "f08959c2c9805153f568da319d1233cb", "type": "electric_scooter", "is_reserved": 0, "lon": -77.08079933333333}, {"fusion_lat": 0.0, "name": "87f1690d8212d32c9ea9b5bd71941370", "is_disabled": 0, "rental_uris": {"android": "https://dc.lft.to/lastmile_qr_scan", "ios": "https://dc.lft.to/lastmile_qr_scan"}, "fusion_lon": 0.0, "lat": 38.915520666666666, "bike_id": "87f1690d8212d32c9ea9b5bd71941370", "type": "electric_scooter", "is_reserved": 0, "lon": -77.04119283333333}, {"fusion_lat": 0.0, "name": "223b492fb5fcea0bf89ace9bb29a1165", "is_disabled": 0, "rental_uris": {"android": "https://dc.lft.to/lastmile_qr_scan", "ios": "https://dc.lft.to/lastmile_qr_scan"}, "fusion_lon": 0.0, "lat": 38.89670866666667, "bike_id": "223b492fb5fcea0bf89ace9bb29a1165", "type": "electric_scooter", "is_reserved": 0, "lon": -77.0051515}, {"fusion_lat": 0.0, "name": "ecd26fac73870ea519d63c6a7f9bd36d", "is_disabled": 0, "rental_uris": {"android": "https://dc.lft.to/lastmile_qr_scan", "ios": "https://dc.lft.to/lastmile_qr_scan"}, "fusion_lon": 0.0, "lat": 38.89656633333333, "bike_id": "ecd26fac73870ea519d63c6a7f9bd36d", "type": "electric_scooter", "is_reserved": 0, "lon": -77.04998016666667}, {"fusion_lat": 0.0, "name": "b4b6d9c4f02c2c73fdc5ab426413ccbc", "is_disabled": 0, "rental_uris": {"android": "https://dc.lft.to/lastmile_qr_scan", "ios": "https://dc.lft.to/lastmile_qr_scan"}, "fusion_lon": 0.0, "lat": 38.81331016666667, "bike_id": "b4b6d9c4f02c2c73fdc5ab426413ccbc", "type": "electric_bike", "is_reserved": 0, "lon": -77.05088783333333}, {"fusion_lat": 0.0, "name": "f73360aab6b8274ea7eeee598b776faa", "is_disabled": 0, "rental_uris": {"android": "https://dc.lft.to/lastmile_qr_scan", "ios": "https://dc.lft.to/lastmile_qr_scan"}, "fusion_lon": 0.0, "lat": 38.95890416666667, "bike_id": "f73360aab6b8274ea7eeee598b776faa", "type": "electric_scooter", "is_reserved": 0, "lon": -77.02788683333333}, {"fusion_lat": 0.0, "name": "f76d75ee7fa8449007f4d415ff6db81f", "is_disabled": 0, "rental_uris": {"android": "https://dc.lft.to/lastmile_qr_scan", "ios": "https://dc.lft.to/lastmile_qr_scan"}, "fusion_lon": 0.0, "lat": 38.90888916666667, "bike_id": "f76d75ee7fa8449007f4d415ff6db81f", "type": "electric_scooter", "is_reserved": 0, "lon": -77.04472}, {"fusion_lat": 0.0, "name": "38391c9451063e3995894cde93cf8ce8", "is_disabled": 0, "rental_uris": {"android": "https://dc.lft.to/lastmile_qr_scan", "ios": "https://dc.lft.to/lastmile_qr_scan"}, "fusion_lon": 0.0, "lat": 38.90061683333333, "bike_id": "38391c9451063e3995894cde93cf8ce8", "type": "electric_scooter", "is_reserved": 0, "lon": -76.93387883333334}, {"fusion_lat": 0.0, "name": "685f4a0a8487a5ec0662daccc5f31787", "is_disabled": 0, "rental_uris": {"android": "https://dc.lft.to/lastmile_qr_scan", "ios": "https://dc.lft.to/lastmile_qr_scan"}, "fusion_lon": 0.0, "lat": 38.922381666666666, "bike_id": "685f4a0a8487a5ec0662daccc5f31787", "type": "electric_scooter", "is_reserved": 0, "lon": -77.04241983333333}, {"fusion_lat": 0.0, "name": "d4fdf95c8d021184b58f76acc492d09e", "is_disabled": 0, "rental_uris": {"android": "https://dc.lft.to/lastmile_qr_scan", "ios": "https://dc.lft.to/lastmile_qr_scan"}, "fusion_lon": 0.0, "lat": 38.83548183333333, "bike_id": "d4fdf95c8d021184b58f76acc492d09e", "type": "electric_bike", "is_reserved": 0, "lon": -76.98730066666667}, {"fusion_lat": 0.0, "name": "63ea775fb75c969c75c4027c500f6fc2", "is_disabled": 0, "rental_uris": {"android": "https://dc.lft.to/lastmile_qr_scan", "ios": "https://dc.lft.to/lastmile_qr_scan"}, "fusion_lon": 0.0, "lat": 38.905693166666666, "bike_id": "63ea775fb75c969c75c4027c500f6fc2", "type": "electric_scooter", "is_reserved": 0, "lon": -77.0058795}, {"fusion_lat": 0.0, "name": "51a5ca828127a70acd1bf3c71d2bfbb4", "is_disabled": 0, "rental_uris": {"android": "https://dc.lft.to/lastmile_qr_scan", "ios": "https://dc.lft.to/lastmile_qr_scan"}, "fusion_lon": 0.0, "lat": 38.91555266666667, "bike_id": "51a5ca828127a70acd1bf3c71d2bfbb4", "type": "electric_scooter", "is_reserved": 0, "lon": -77.04149233333334}, {"fusion_lat": 0.0, "name": "dbc08f0b02b69a77da49b0624d50af63", "is_disabled": 0, "rental_uris": {"android": "https://dc.lft.to/lastmile_qr_scan", "ios": "https://dc.lft.to/lastmile_qr_scan"}, "fusion_lon": 0.0, "lat": 38.88098516666667, "bike_id": "dbc08f0b02b69a77da49b0624d50af63", "type": "electric_scooter", "is_reserved": 0, "lon": -76.98665833333334}, {"fusion_lat": 0.0, "name": "b4525c10749c37dbe9a6b263ede86861", "is_disabled": 0, "rental_uris": {"android": "https://dc.lft.to/lastmile_qr_scan", "ios": "https://dc.lft.to/lastmile_qr_scan"}, "fusion_lon": 0.0, "lat": 38.88613133333333, "bike_id": "b4525c10749c37dbe9a6b263ede86861", "type": "electric_scooter", "is_reserved": 0, "lon": -77.015577}, {"fusion_lat": 0.0, "name": "ce4c1e55149ec42961d3b240743bffe1", "is_disabled": 0, "rental_uris": {"android": "https://dc.lft.to/lastmile_qr_scan", "ios": "https://dc.lft.to/lastmile_qr_scan"}, "fusion_lon": 0.0, "lat": 38.93259966666667, "bike_id": "ce4c1e55149ec42961d3b240743bffe1", "type": "electric_scooter", "is_reserved": 0, "lon": -77.03447866666667}, {"fusion_lat": 0.0, "name": "04c8eeaa1883d11135136c94e23f3a94", "is_disabled": 0, "rental_uris": {"android": "https://dc.lft.to/lastmile_qr_scan", "ios": "https://dc.lft.to/lastmile_qr_scan"}, "fusion_lon": 0.0, "lat": 38.934318, "bike_id": "04c8eeaa1883d11135136c94e23f3a94", "type": "electric_scooter", "is_reserved": 0, "lon": -77.04003016666667}, {"fusion_lat": 0.0, "name": "4b31a438affff178dd95af48820f64a3", "is_disabled": 0, "rental_uris": {"android": "https://dc.lft.to/lastmile_qr_scan", "ios": "https://dc.lft.to/lastmile_qr_scan"}, "fusion_lon": 0.0, "lat": 38.923889333333335, "bike_id": "4b31a438affff178dd95af48820f64a3", "type": "electric_scooter", "is_reserved": 0, "lon": -77.03652433333333}, {"fusion_lat": 0.0, "name": "24ea017d853cb221e24abe37952478cd", "is_disabled": 0, "rental_uris": {"android": "https://dc.lft.to/lastmile_qr_scan", "ios": "https://dc.lft.to/lastmile_qr_scan"}, "fusion_lon": 0.0, "lat": 38.95406166666667, "bike_id": "24ea017d853cb221e24abe37952478cd", "type": "electric_scooter", "is_reserved": 0, "lon": -77.02748966666667}, {"fusion_lat": 0.0, "name": "7bdee33c35907f5c89a0040c0e32cd4c", "is_disabled": 0, "rental_uris": {"android": "https://dc.lft.to/lastmile_qr_scan", "ios": "https://dc.lft.to/lastmile_qr_scan"}, "fusion_lon": 0.0, "lat": 38.89234166666667, "bike_id": "7bdee33c35907f5c89a0040c0e32cd4c", "type": "electric_scooter", "is_reserved": 0, "lon": -77.03354266666666}, {"fusion_lat": 0.0, "name": "0d21700d9b381c8dff4d772a8b079640", "is_disabled": 0, "rental_uris": {"android": "https://dc.lft.to/lastmile_qr_scan", "ios": "https://dc.lft.to/lastmile_qr_scan"}, "fusion_lon": 0.0, "lat": 38.9156125, "bike_id": "0d21700d9b381c8dff4d772a8b079640", "type": "electric_scooter", "is_reserved": 0, "lon": -77.0322405}, {"fusion_lat": 0.0, "name": "a9f40a2f67285ea47392f3fc2c448d86", "is_disabled": 0, "rental_uris": {"android": "https://dc.lft.to/lastmile_qr_scan", "ios": "https://dc.lft.to/lastmile_qr_scan"}, "fusion_lon": 0.0, "lat": 38.882332166666664, "bike_id": "a9f40a2f67285ea47392f3fc2c448d86", "type": "electric_scooter", "is_reserved": 0, "lon": -77.02616833333333}, {"fusion_lat": 0.0, "name": "c4b9cc7cd7ade0d2929c99732939416b", "is_disabled": 0, "rental_uris": {"android": "https://dc.lft.to/lastmile_qr_scan", "ios": "https://dc.lft.to/lastmile_qr_scan"}, "fusion_lon": 0.0, "lat": 38.879149, "bike_id": "c4b9cc7cd7ade0d2929c99732939416b", "type": "electric_scooter", "is_reserved": 0, "lon": -77.009069}, {"fusion_lat": 0.0, "name": "0a67b5c92b6f6092fe8b7a159f3b8110", "is_disabled": 0, "rental_uris": {"android": "https://dc.lft.to/lastmile_qr_scan", "ios": "https://dc.lft.to/lastmile_qr_scan"}, "fusion_lon": 0.0, "lat": 38.9247715, "bike_id": "0a67b5c92b6f6092fe8b7a159f3b8110", "type": "electric_scooter", "is_reserved": 0, "lon": -77.02650966666667}, {"fusion_lat": 0.0, "name": "97777fe5961ea841eb2d46e8c4130aaf", "is_disabled": 0, "rental_uris": {"android": "https://dc.lft.to/lastmile_qr_scan", "ios": "https://dc.lft.to/lastmile_qr_scan"}, "fusion_lon": 0.0, "lat": 38.932644, "bike_id": "97777fe5961ea841eb2d46e8c4130aaf", "type": "electric_scooter", "is_reserved": 0, "lon": -77.03272466666667}, {"fusion_lat": 0.0, "name": "2b7267a41ef107ce25aa595542d1fcab", "is_disabled": 0, "rental_uris": {"android": "https://dc.lft.to/lastmile_qr_scan", "ios": "https://dc.lft.to/lastmile_qr_scan"}, "fusion_lon": 0.0, "lat": 38.958852, "bike_id": "2b7267a41ef107ce25aa595542d1fcab", "type": "electric_scooter", "is_reserved": 0, "lon": -77.01166233333333}, {"fusion_lat": 0.0, "name": "32750d54a717cc42f21a618987a11804", "is_disabled": 0, "rental_uris": {"android": "https://dc.lft.to/lastmile_qr_scan", "ios": "https://dc.lft.to/lastmile_qr_scan"}, "fusion_lon": 0.0, "lat": 38.919007666666666, "bike_id": "32750d54a717cc42f21a618987a11804", "type": "electric_scooter", "is_reserved": 0, "lon": -77.02375416666666}, {"fusion_lat": 0.0, "name": "9f554bd887b07907bdaddf21f8f42438", "is_disabled": 0, "rental_uris": {"android": "https://dc.lft.to/lastmile_qr_scan", "ios": "https://dc.lft.to/lastmile_qr_scan"}, "fusion_lon": 0.0, "lat": 38.9155605, "bike_id": "9f554bd887b07907bdaddf21f8f42438", "type": "electric_scooter", "is_reserved": 0, "lon": -77.0323115}, {"fusion_lat": 0.0, "name": "50e2834f485fc0ca2c483dd92005a90d", "is_disabled": 0, "rental_uris": {"android": "https://dc.lft.to/lastmile_qr_scan", "ios": "https://dc.lft.to/lastmile_qr_scan"}, "fusion_lon": 0.0, "lat": 38.876556666666666, "bike_id": "50e2834f485fc0ca2c483dd92005a90d", "type": "electric_scooter", "is_reserved": 0, "lon": -77.0091865}, {"fusion_lat": 0.0, "name": "61ed11b90c8379df20da459e8f681ee2", "is_disabled": 0, "rental_uris": {"android": "https://dc.lft.to/lastmile_qr_scan", "ios": "https://dc.lft.to/lastmile_qr_scan"}, "fusion_lon": 0.0, "lat": 38.909816666666664, "bike_id": "61ed11b90c8379df20da459e8f681ee2", "type": "electric_scooter", "is_reserved": 0, "lon": -77.022936}, {"fusion_lat": 0.0, "name": "cc38f3f41e73c13234b6b4e6273b2cec", "is_disabled": 0, "rental_uris": {"android": "https://dc.lft.to/lastmile_qr_scan", "ios": "https://dc.lft.to/lastmile_qr_scan"}, "fusion_lon": 0.0, "lat": 38.924862833333336, "bike_id": "cc38f3f41e73c13234b6b4e6273b2cec", "type": "electric_scooter", "is_reserved": 0, "lon": -77.02546066666666}, {"fusion_lat": 0.0, "name": "cb96d94276f6658e526b13c8b85c6f9b", "is_disabled": 0, "rental_uris": {"android": "https://dc.lft.to/lastmile_qr_scan", "ios": "https://dc.lft.to/lastmile_qr_scan"}, "fusion_lon": 0.0, "lat": 38.925844833333336, "bike_id": "cb96d94276f6658e526b13c8b85c6f9b", "type": "electric_scooter", "is_reserved": 0, "lon": -77.0324535}, {"fusion_lat": 0.0, "name": "71134f1b03dd5dc5e68bad53fc0331cf", "is_disabled": 0, "rental_uris": {"android": "https://dc.lft.to/lastmile_qr_scan", "ios": "https://dc.lft.to/lastmile_qr_scan"}, "fusion_lon": 0.0, "lat": 38.923442333333334, "bike_id": "71134f1b03dd5dc5e68bad53fc0331cf", "type": "electric_scooter", "is_reserved": 0, "lon": -77.02431566666667}, {"fusion_lat": 0.0, "name": "6869eaf43bf914cebcfacf3401567d3e", "is_disabled": 0, "rental_uris": {"android": "https://dc.lft.to/lastmile_qr_scan", "ios": "https://dc.lft.to/lastmile_qr_scan"}, "fusion_lon": 0.0, "lat": 38.86557283333333, "bike_id": "6869eaf43bf914cebcfacf3401567d3e", "type": "electric_scooter", "is_reserved": 0, "lon": -76.98349566666667}, {"fusion_lat": 0.0, "name": "eb5ba26b0c4173412c977503493cfa59", "is_disabled": 0, "rental_uris": {"android": "https://dc.lft.to/lastmile_qr_scan", "ios": "https://dc.lft.to/lastmile_qr_scan"}, "fusion_lon": 0.0, "lat": 38.89726683333333, "bike_id": "eb5ba26b0c4173412c977503493cfa59", "type": "electric_scooter", "is_reserved": 0, "lon": -76.947011}, {"fusion_lat": 0.0, "name": "cec67040d57461a3bc5aee6bfb0555ab", "is_disabled": 0, "rental_uris": {"android": "https://dc.lft.to/lastmile_qr_scan", "ios": "https://dc.lft.to/lastmile_qr_scan"}, "fusion_lon": 0.0, "lat": 38.895741, "bike_id": "cec67040d57461a3bc5aee6bfb0555ab", "type": "electric_scooter", "is_reserved": 0, "lon": -77.02722733333333}, {"fusion_lat": 0.0, "name": "e3c064cb16c2818299a1cf30bcce9bbd", "is_disabled": 0, "rental_uris": {"android": "https://dc.lft.to/lastmile_qr_scan", "ios": "https://dc.lft.to/lastmile_qr_scan"}, "fusion_lon": 0.0, "lat": 38.907908166666665, "bike_id": "e3c064cb16c2818299a1cf30bcce9bbd", "type": "electric_scooter", "is_reserved": 0, "lon": -77.0110955}, {"fusion_lat": 0.0, "name": "428283bd6b75acf332e0c7dcf05510f7", "is_disabled": 0, "rental_uris": {"android": "https://dc.lft.to/lastmile_qr_scan", "ios": "https://dc.lft.to/lastmile_qr_scan"}, "fusion_lon": 0.0, "lat": 38.8980225, "bike_id": "428283bd6b75acf332e0c7dcf05510f7", "type": "electric_scooter", "is_reserved": 0, "lon": -77.01049133333333}, {"fusion_lat": 0.0, "name": "cd96acb633bfb5e8203f394148f7bf2b", "is_disabled": 0, "rental_uris": {"android": "https://dc.lft.to/lastmile_qr_scan", "ios": "https://dc.lft.to/lastmile_qr_scan"}, "fusion_lon": 0.0, "lat": 38.884022333333334, "bike_id": "cd96acb633bfb5e8203f394148f7bf2b", "type": "electric_bike", "is_reserved": 0, "lon": -76.9605985}, {"fusion_lat": 0.0, "name": "76efc20b9938da26702110ce2af2d415", "is_disabled": 0, "rental_uris": {"android": "https://dc.lft.to/lastmile_qr_scan", "ios": "https://dc.lft.to/lastmile_qr_scan"}, "fusion_lon": 0.0, "lat": 38.885045833333336, "bike_id": "76efc20b9938da26702110ce2af2d415", "type": "electric_scooter", "is_reserved": 0, "lon": -77.00699916666666}, {"fusion_lat": 0.0, "name": "6177f26b810cb9c76615ec3d962c589d", "is_disabled": 0, "rental_uris": {"android": "https://dc.lft.to/lastmile_qr_scan", "ios": "https://dc.lft.to/lastmile_qr_scan"}, "fusion_lon": 0.0, "lat": 38.923119666666665, "bike_id": "6177f26b810cb9c76615ec3d962c589d", "type": "electric_scooter", "is_reserved": 0, "lon": -77.0290575}, {"fusion_lat": 0.0, "name": "d8a753619942c8a61d73845cf25480e7", "is_disabled": 0, "rental_uris": {"android": "https://dc.lft.to/lastmile_qr_scan", "ios": "https://dc.lft.to/lastmile_qr_scan"}, "fusion_lon": 0.0, "lat": 38.93218016666667, "bike_id": "d8a753619942c8a61d73845cf25480e7", "type": "electric_scooter", "is_reserved": 0, "lon": -77.03519266666666}, {"fusion_lat": 0.0, "name": "0d2e90c232ebd0756febaf82fc02a17f", "is_disabled": 0, "rental_uris": {"android": "https://dc.lft.to/lastmile_qr_scan", "ios": "https://dc.lft.to/lastmile_qr_scan"}, "fusion_lon": 0.0, "lat": 38.8856065, "bike_id": "0d2e90c232ebd0756febaf82fc02a17f", "type": "electric_scooter", "is_reserved": 0, "lon": -76.97717716666666}, {"fusion_lat": 0.0, "name": "c8d213646d796802225aaf3bcbebb695", "is_disabled": 0, "rental_uris": {"android": "https://dc.lft.to/lastmile_qr_scan", "ios": "https://dc.lft.to/lastmile_qr_scan"}, "fusion_lon": 0.0, "lat": 38.9165905, "bike_id": "c8d213646d796802225aaf3bcbebb695", "type": "electric_scooter", "is_reserved": 0, "lon": -77.02816366666667}, {"fusion_lat": 0.0, "name": "fd6627bb0e1aa3d298de4725ec53751a", "is_disabled": 0, "rental_uris": {"android": "https://dc.lft.to/lastmile_qr_scan", "ios": "https://dc.lft.to/lastmile_qr_scan"}, "fusion_lon": 0.0, "lat": 38.91926816666667, "bike_id": "fd6627bb0e1aa3d298de4725ec53751a", "type": "electric_scooter", "is_reserved": 0, "lon": -77.0096855}, {"fusion_lat": 0.0, "name": "1e9017183242acdaa750559554e13280", "is_disabled": 0, "rental_uris": {"android": "https://dc.lft.to/lastmile_qr_scan", "ios": "https://dc.lft.to/lastmile_qr_scan"}, "fusion_lon": 0.0, "lat": 38.900665333333336, "bike_id": "1e9017183242acdaa750559554e13280", "type": "electric_scooter", "is_reserved": 0, "lon": -77.05424983333333}, {"fusion_lat": 0.0, "name": "d290ea3065b0230c9927b3ed8ffedc14", "is_disabled": 0, "rental_uris": {"android": "https://dc.lft.to/lastmile_qr_scan", "ios": "https://dc.lft.to/lastmile_qr_scan"}, "fusion_lon": 0.0, "lat": 38.92109716666667, "bike_id": "d290ea3065b0230c9927b3ed8ffedc14", "type": "electric_scooter", "is_reserved": 0, "lon": -77.04172783333334}, {"fusion_lat": 0.0, "name": "f07c2226d38aa7ac6ac1b31fd08484cc", "is_disabled": 0, "rental_uris": {"android": "https://dc.lft.to/lastmile_qr_scan", "ios": "https://dc.lft.to/lastmile_qr_scan"}, "fusion_lon": 0.0, "lat": 38.90890383333333, "bike_id": "f07c2226d38aa7ac6ac1b31fd08484cc", "type": "electric_scooter", "is_reserved": 0, "lon": -76.99861883333334}, {"fusion_lat": 0.0, "name": "5ba8092dc49c2e32abeaf446c11db42f", "is_disabled": 0, "rental_uris": {"android": "https://dc.lft.to/lastmile_qr_scan", "ios": "https://dc.lft.to/lastmile_qr_scan"}, "fusion_lon": 0.0, "lat": 38.9051545, "bike_id": "5ba8092dc49c2e32abeaf446c11db42f", "type": "electric_scooter", "is_reserved": 0, "lon": -77.06886133333333}, {"fusion_lat": 0.0, "name": "8db688d05e71c106e679af1f6aa6b2ef", "is_disabled": 0, "rental_uris": {"android": "https://dc.lft.to/lastmile_qr_scan", "ios": "https://dc.lft.to/lastmile_qr_scan"}, "fusion_lon": 0.0, "lat": 38.88643183333333, "bike_id": "8db688d05e71c106e679af1f6aa6b2ef", "type": "electric_scooter", "is_reserved": 0, "lon": -77.0194145}, {"fusion_lat": 0.0, "name": "147a5ec9c6ffca5770717211b1939a9f", "is_disabled": 0, "rental_uris": {"android": "https://dc.lft.to/lastmile_qr_scan", "ios": "https://dc.lft.to/lastmile_qr_scan"}, "fusion_lon": 0.0, "lat": 38.959231833333334, "bike_id": "147a5ec9c6ffca5770717211b1939a9f", "type": "electric_bike", "is_reserved": 0, "lon": -77.03123583333333}, {"fusion_lat": 0.0, "name": "1359bcb4b06f96761b16fd868a3d1976", "is_disabled": 0, "rental_uris": {"android": "https://dc.lft.to/lastmile_qr_scan", "ios": "https://dc.lft.to/lastmile_qr_scan"}, "fusion_lon": 0.0, "lat": 38.91118933333333, "bike_id": "1359bcb4b06f96761b16fd868a3d1976", "type": "electric_scooter", "is_reserved": 0, "lon": -76.997667}, {"fusion_lat": 0.0, "name": "eb9f1503fde457957db132a828e0b0d3", "is_disabled": 0, "rental_uris": {"android": "https://dc.lft.to/lastmile_qr_scan", "ios": "https://dc.lft.to/lastmile_qr_scan"}, "fusion_lon": 0.0, "lat": 38.8994685, "bike_id": "eb9f1503fde457957db132a828e0b0d3", "type": "electric_scooter", "is_reserved": 0, "lon": -77.00688566666666}, {"fusion_lat": 0.0, "name": "81a30c4def391ddd1c94a069021da3ed", "is_disabled": 0, "rental_uris": {"android": "https://dc.lft.to/lastmile_qr_scan", "ios": "https://dc.lft.to/lastmile_qr_scan"}, "fusion_lon": 0.0, "lat": 38.886121833333334, "bike_id": "81a30c4def391ddd1c94a069021da3ed", "type": "electric_scooter", "is_reserved": 0, "lon": -77.01250166666667}, {"fusion_lat": 0.0, "name": "f498d41818c94c091501ef6370043206", "is_disabled": 0, "rental_uris": {"android": "https://dc.lft.to/lastmile_qr_scan", "ios": "https://dc.lft.to/lastmile_qr_scan"}, "fusion_lon": 0.0, "lat": 38.916698333333336, "bike_id": "f498d41818c94c091501ef6370043206", "type": "electric_scooter", "is_reserved": 0, "lon": -77.02264733333334}, {"fusion_lat": 0.0, "name": "7b138a150e02eb7736d0176de31662ad", "is_disabled": 0, "rental_uris": {"android": "https://dc.lft.to/lastmile_qr_scan", "ios": "https://dc.lft.to/lastmile_qr_scan"}, "fusion_lon": 0.0, "lat": 38.90045683333334, "bike_id": "7b138a150e02eb7736d0176de31662ad", "type": "electric_scooter", "is_reserved": 0, "lon": -77.03220733333333}, {"fusion_lat": 0.0, "name": "4fc0cc217a5256bc1662f968d384a922", "is_disabled": 0, "rental_uris": {"android": "https://dc.lft.to/lastmile_qr_scan", "ios": "https://dc.lft.to/lastmile_qr_scan"}, "fusion_lon": 0.0, "lat": 38.929578166666666, "bike_id": "4fc0cc217a5256bc1662f968d384a922", "type": "electric_scooter", "is_reserved": 0, "lon": -77.0298015}, {"fusion_lat": 0.0, "name": "64a8e3c4c1389dd10f4c7d20f7c08ec4", "is_disabled": 0, "rental_uris": {"android": "https://dc.lft.to/lastmile_qr_scan", "ios": "https://dc.lft.to/lastmile_qr_scan"}, "fusion_lon": 0.0, "lat": 38.902931833333334, "bike_id": "64a8e3c4c1389dd10f4c7d20f7c08ec4", "type": "electric_scooter", "is_reserved": 0, "lon": -76.976376}, {"fusion_lat": 0.0, "name": "c53d114cd317e0149ae2c1e8ffa75301", "is_disabled": 0, "rental_uris": {"android": "https://dc.lft.to/lastmile_qr_scan", "ios": "https://dc.lft.to/lastmile_qr_scan"}, "fusion_lon": 0.0, "lat": 38.93862266666667, "bike_id": "c53d114cd317e0149ae2c1e8ffa75301", "type": "electric_scooter", "is_reserved": 0, "lon": -77.02324733333333}, {"fusion_lat": 0.0, "name": "ccd5a91b1bd441f96157ab5b401d8738", "is_disabled": 0, "rental_uris": {"android": "https://dc.lft.to/lastmile_qr_scan", "ios": "https://dc.lft.to/lastmile_qr_scan"}, "fusion_lon": 0.0, "lat": 38.8961555, "bike_id": "ccd5a91b1bd441f96157ab5b401d8738", "type": "electric_scooter", "is_reserved": 0, "lon": -77.03168466666666}, {"fusion_lat": 0.0, "name": "897d92041c65ef4347347ed895d544d3", "is_disabled": 0, "rental_uris": {"android": "https://dc.lft.to/lastmile_qr_scan", "ios": "https://dc.lft.to/lastmile_qr_scan"}, "fusion_lon": 0.0, "lat": 38.997743, "bike_id": "897d92041c65ef4347347ed895d544d3", "type": "electric_bike", "is_reserved": 0, "lon": -77.04716533333334}, {"fusion_lat": 0.0, "name": "c7d3c8eb136d71ae9b7eb8f1f9fcdd51", "is_disabled": 0, "rental_uris": {"android": "https://dc.lft.to/lastmile_qr_scan", "ios": "https://dc.lft.to/lastmile_qr_scan"}, "fusion_lon": 0.0, "lat": 38.90306266666666, "bike_id": "c7d3c8eb136d71ae9b7eb8f1f9fcdd51", "type": "electric_bike", "is_reserved": 0, "lon": -76.97651633333334}, {"fusion_lat": 0.0, "name": "f94f7e64d028b79924085f5f70c81dbc", "is_disabled": 0, "rental_uris": {"android": "https://dc.lft.to/lastmile_qr_scan", "ios": "https://dc.lft.to/lastmile_qr_scan"}, "fusion_lon": 0.0, "lat": 38.918273166666665, "bike_id": "f94f7e64d028b79924085f5f70c81dbc", "type": "electric_scooter", "is_reserved": 0, "lon": -77.0363785}, {"fusion_lat": 0.0, "name": "e39c4a60d08ce376619c2b59f3cb1809", "is_disabled": 0, "rental_uris": {"android": "https://dc.lft.to/lastmile_qr_scan", "ios": "https://dc.lft.to/lastmile_qr_scan"}, "fusion_lon": 0.0, "lat": 38.94158133333333, "bike_id": "e39c4a60d08ce376619c2b59f3cb1809", "type": "electric_scooter", "is_reserved": 0, "lon": -77.0262585}, {"fusion_lat": 0.0, "name": "787ecec8f1929cd3eb96b59a26a8b2b3", "is_disabled": 0, "rental_uris": {"android": "https://dc.lft.to/lastmile_qr_scan", "ios": "https://dc.lft.to/lastmile_qr_scan"}, "fusion_lon": 0.0, "lat": 38.92287966666667, "bike_id": "787ecec8f1929cd3eb96b59a26a8b2b3", "type": "electric_scooter", "is_reserved": 0, "lon": -77.01993683333333}, {"fusion_lat": 0.0, "name": "9a505ddc9a446f5df6ecc75a8be25982", "is_disabled": 0, "rental_uris": {"android": "https://dc.lft.to/lastmile_qr_scan", "ios": "https://dc.lft.to/lastmile_qr_scan"}, "fusion_lon": 0.0, "lat": 38.884133, "bike_id": "9a505ddc9a446f5df6ecc75a8be25982", "type": "electric_scooter", "is_reserved": 0, "lon": -77.02180366666667}, {"fusion_lat": 0.0, "name": "918dc242d10c29bacde3992d8213a0cc", "is_disabled": 0, "rental_uris": {"android": "https://dc.lft.to/lastmile_qr_scan", "ios": "https://dc.lft.to/lastmile_qr_scan"}, "fusion_lon": 0.0, "lat": 38.9353315, "bike_id": "918dc242d10c29bacde3992d8213a0cc", "type": "electric_scooter", "is_reserved": 0, "lon": -77.0235295}, {"fusion_lat": 0.0, "name": "85155e8047e135ff2d155a2c6ad2616d", "is_disabled": 0, "rental_uris": {"android": "https://dc.lft.to/lastmile_qr_scan", "ios": "https://dc.lft.to/lastmile_qr_scan"}, "fusion_lon": 0.0, "lat": 38.93399133333333, "bike_id": "85155e8047e135ff2d155a2c6ad2616d", "type": "electric_scooter", "is_reserved": 0, "lon": -77.0574305}, {"fusion_lat": 0.0, "name": "e7d9bddfb148306d89a37df8d45f668d", "is_disabled": 0, "rental_uris": {"android": "https://dc.lft.to/lastmile_qr_scan", "ios": "https://dc.lft.to/lastmile_qr_scan"}, "fusion_lon": 0.0, "lat": 38.96207016666666, "bike_id": "e7d9bddfb148306d89a37df8d45f668d", "type": "electric_scooter", "is_reserved": 0, "lon": -77.02231166666667}, {"fusion_lat": 0.0, "name": "e063a450d8aa5641ea4290273d633d98", "is_disabled": 0, "rental_uris": {"android": "https://dc.lft.to/lastmile_qr_scan", "ios": "https://dc.lft.to/lastmile_qr_scan"}, "fusion_lon": 0.0, "lat": 38.88718316666667, "bike_id": "e063a450d8aa5641ea4290273d633d98", "type": "electric_scooter", "is_reserved": 0, "lon": -77.0132905}, {"fusion_lat": 0.0, "name": "e2a0e61b6ae0a81a6393a6abd8e39f3b", "is_disabled": 0, "rental_uris": {"android": "https://dc.lft.to/lastmile_qr_scan", "ios": "https://dc.lft.to/lastmile_qr_scan"}, "fusion_lon": 0.0, "lat": 38.90508633333334, "bike_id": "e2a0e61b6ae0a81a6393a6abd8e39f3b", "type": "electric_scooter", "is_reserved": 0, "lon": -77.01783566666667}, {"fusion_lat": 0.0, "name": "e5ad8077965e92e695f2c62992a44c60", "is_disabled": 0, "rental_uris": {"android": "https://dc.lft.to/lastmile_qr_scan", "ios": "https://dc.lft.to/lastmile_qr_scan"}, "fusion_lon": 0.0, "lat": 38.91117933333334, "bike_id": "e5ad8077965e92e695f2c62992a44c60", "type": "electric_scooter", "is_reserved": 0, "lon": -77.08132533333334}, {"fusion_lat": 0.0, "name": "a404c8bbf5630588542dc60e38d96761", "is_disabled": 0, "rental_uris": {"android": "https://dc.lft.to/lastmile_qr_scan", "ios": "https://dc.lft.to/lastmile_qr_scan"}, "fusion_lon": 0.0, "lat": 38.82786883333333, "bike_id": "a404c8bbf5630588542dc60e38d96761", "type": "electric_bike", "is_reserved": 0, "lon": -77.12487866666666}, {"fusion_lat": 0.0, "name": "5fb2eff98830a3c87b097d92146fb236", "is_disabled": 0, "rental_uris": {"android": "https://dc.lft.to/lastmile_qr_scan", "ios": "https://dc.lft.to/lastmile_qr_scan"}, "fusion_lon": 0.0, "lat": 38.88736166666666, "bike_id": "5fb2eff98830a3c87b097d92146fb236", "type": "electric_scooter", "is_reserved": 0, "lon": -77.00336316666667}, {"fusion_lat": 0.0, "name": "24438dae9b4c4ddfbd8c6bdd9cf33f82", "is_disabled": 0, "rental_uris": {"android": "https://dc.lft.to/lastmile_qr_scan", "ios": "https://dc.lft.to/lastmile_qr_scan"}, "fusion_lon": 0.0, "lat": 38.897346, "bike_id": "24438dae9b4c4ddfbd8c6bdd9cf33f82", "type": "electric_scooter", "is_reserved": 0, "lon": -77.02334416666666}, {"fusion_lat": 0.0, "name": "b459b855fe3259a132a5b27d726c2b61", "is_disabled": 0, "rental_uris": {"android": "https://dc.lft.to/lastmile_qr_scan", "ios": "https://dc.lft.to/lastmile_qr_scan"}, "fusion_lon": 0.0, "lat": 38.91763866666667, "bike_id": "b459b855fe3259a132a5b27d726c2b61", "type": "electric_scooter", "is_reserved": 0, "lon": -77.03079666666666}, {"fusion_lat": 0.0, "name": "1637c6999d4e7913fdcaf80cdaa53b25", "is_disabled": 0, "rental_uris": {"android": "https://dc.lft.to/lastmile_qr_scan", "ios": "https://dc.lft.to/lastmile_qr_scan"}, "fusion_lon": 0.0, "lat": 38.917757, "bike_id": "1637c6999d4e7913fdcaf80cdaa53b25", "type": "electric_scooter", "is_reserved": 0, "lon": -77.014522}, {"fusion_lat": 0.0, "name": "b0096c4fd0ed445c92503b7ead573f6a", "is_disabled": 0, "rental_uris": {"android": "https://dc.lft.to/lastmile_qr_scan", "ios": "https://dc.lft.to/lastmile_qr_scan"}, "fusion_lon": 0.0, "lat": 38.909540666666665, "bike_id": "b0096c4fd0ed445c92503b7ead573f6a", "type": "electric_bike", "is_reserved": 0, "lon": -76.98439166666667}, {"fusion_lat": 0.0, "name": "1ccaaf1c3a8b8d0c4e7a2fca5f2603b5", "is_disabled": 0, "rental_uris": {"android": "https://dc.lft.to/lastmile_qr_scan", "ios": "https://dc.lft.to/lastmile_qr_scan"}, "fusion_lon": 0.0, "lat": 38.8972035, "bike_id": "1ccaaf1c3a8b8d0c4e7a2fca5f2603b5", "type": "electric_scooter", "is_reserved": 0, "lon": -77.02344583333333}, {"fusion_lat": 0.0, "name": "6eadd440fc342e21968a3f52b083ecdf", "is_disabled": 0, "rental_uris": {"android": "https://dc.lft.to/lastmile_qr_scan", "ios": "https://dc.lft.to/lastmile_qr_scan"}, "fusion_lon": 0.0, "lat": 38.86626033333334, "bike_id": "6eadd440fc342e21968a3f52b083ecdf", "type": "electric_scooter", "is_reserved": 0, "lon": -76.98712816666666}, {"fusion_lat": 0.0, "name": "7bdbf4e2ed56eea37d9ce56ffd6c6b0f", "is_disabled": 0, "rental_uris": {"android": "https://dc.lft.to/lastmile_qr_scan", "ios": "https://dc.lft.to/lastmile_qr_scan"}, "fusion_lon": 0.0, "lat": 38.9224705, "bike_id": "7bdbf4e2ed56eea37d9ce56ffd6c6b0f", "type": "electric_scooter", "is_reserved": 0, "lon": -77.02985966666667}, {"fusion_lat": 0.0, "name": "eb9d7a3754872d748e59b8b206a42d8e", "is_disabled": 0, "rental_uris": {"android": "https://dc.lft.to/lastmile_qr_scan", "ios": "https://dc.lft.to/lastmile_qr_scan"}, "fusion_lon": 0.0, "lat": 38.9026715, "bike_id": "eb9d7a3754872d748e59b8b206a42d8e", "type": "electric_scooter", "is_reserved": 0, "lon": -77.05319766666666}, {"fusion_lat": 0.0, "name": "12d3f5d91878e1b1ecb9185a21dbbde7", "is_disabled": 0, "rental_uris": {"android": "https://dc.lft.to/lastmile_qr_scan", "ios": "https://dc.lft.to/lastmile_qr_scan"}, "fusion_lon": 0.0, "lat": 38.926927166666665, "bike_id": "12d3f5d91878e1b1ecb9185a21dbbde7", "type": "electric_scooter", "is_reserved": 0, "lon": -77.02185133333333}, {"fusion_lat": 0.0, "name": "5150581a17773ae41dc56090a59a8e8e", "is_disabled": 0, "rental_uris": {"android": "https://dc.lft.to/lastmile_qr_scan", "ios": "https://dc.lft.to/lastmile_qr_scan"}, "fusion_lon": 0.0, "lat": 38.92053166666667, "bike_id": "5150581a17773ae41dc56090a59a8e8e", "type": "electric_scooter", "is_reserved": 0, "lon": -77.02190133333333}, {"fusion_lat": 0.0, "name": "e2d284951ccc404c731edd2d1b7d9f8c", "is_disabled": 0, "rental_uris": {"android": "https://dc.lft.to/lastmile_qr_scan", "ios": "https://dc.lft.to/lastmile_qr_scan"}, "fusion_lon": 0.0, "lat": 38.91994116666667, "bike_id": "e2d284951ccc404c731edd2d1b7d9f8c", "type": "electric_scooter", "is_reserved": 0, "lon": -77.0241125}, {"fusion_lat": 0.0, "name": "dc51f7441d10b0b98109617bdb5a19d5", "is_disabled": 0, "rental_uris": {"android": "https://dc.lft.to/lastmile_qr_scan", "ios": "https://dc.lft.to/lastmile_qr_scan"}, "fusion_lon": 0.0, "lat": 38.925901333333336, "bike_id": "dc51f7441d10b0b98109617bdb5a19d5", "type": "electric_scooter", "is_reserved": 0, "lon": -77.04403666666667}, {"fusion_lat": 0.0, "name": "1422cd5922887d4d724fadfea0d117fe", "is_disabled": 0, "rental_uris": {"android": "https://dc.lft.to/lastmile_qr_scan", "ios": "https://dc.lft.to/lastmile_qr_scan"}, "fusion_lon": 0.0, "lat": 38.90462, "bike_id": "1422cd5922887d4d724fadfea0d117fe", "type": "electric_scooter", "is_reserved": 0, "lon": -77.02705816666666}, {"fusion_lat": 0.0, "name": "8576fbfa06e74c0f1854b6af384a03ec", "is_disabled": 0, "rental_uris": {"android": "https://dc.lft.to/lastmile_qr_scan", "ios": "https://dc.lft.to/lastmile_qr_scan"}, "fusion_lon": 0.0, "lat": 38.9064665, "bike_id": "8576fbfa06e74c0f1854b6af384a03ec", "type": "electric_scooter", "is_reserved": 0, "lon": -77.04881533333334}, {"fusion_lat": 0.0, "name": "ac35c988e94217556779522c4bd112ad", "is_disabled": 0, "rental_uris": {"android": "https://dc.lft.to/lastmile_qr_scan", "ios": "https://dc.lft.to/lastmile_qr_scan"}, "fusion_lon": 0.0, "lat": 38.885415, "bike_id": "ac35c988e94217556779522c4bd112ad", "type": "electric_scooter", "is_reserved": 0, "lon": -77.00048216666667}, {"fusion_lat": 0.0, "name": "4525a823ece2a0f6392ea6dbf3983e12", "is_disabled": 0, "rental_uris": {"android": "https://dc.lft.to/lastmile_qr_scan", "ios": "https://dc.lft.to/lastmile_qr_scan"}, "fusion_lon": 0.0, "lat": 38.93168266666667, "bike_id": "4525a823ece2a0f6392ea6dbf3983e12", "type": "electric_scooter", "is_reserved": 0, "lon": -77.02850266666667}, {"fusion_lat": 0.0, "name": "32b215c06d814406362e682c40f8add4", "is_disabled": 0, "rental_uris": {"android": "https://dc.lft.to/lastmile_qr_scan", "ios": "https://dc.lft.to/lastmile_qr_scan"}, "fusion_lon": 0.0, "lat": 38.936975833333335, "bike_id": "32b215c06d814406362e682c40f8add4", "type": "electric_scooter", "is_reserved": 0, "lon": -77.0559635}, {"fusion_lat": 0.0, "name": "062979665736d97a84ae8d0252bbddd7", "is_disabled": 0, "rental_uris": {"android": "https://dc.lft.to/lastmile_qr_scan", "ios": "https://dc.lft.to/lastmile_qr_scan"}, "fusion_lon": 0.0, "lat": 38.901884333333335, "bike_id": "062979665736d97a84ae8d0252bbddd7", "type": "electric_scooter", "is_reserved": 0, "lon": -76.92901266666667}, {"fusion_lat": 0.0, "name": "8da88b29a5054578e9fdb7a50051acdc", "is_disabled": 0, "rental_uris": {"android": "https://dc.lft.to/lastmile_qr_scan", "ios": "https://dc.lft.to/lastmile_qr_scan"}, "fusion_lon": 0.0, "lat": 38.88629533333334, "bike_id": "8da88b29a5054578e9fdb7a50051acdc", "type": "electric_scooter", "is_reserved": 0, "lon": -76.92589}, {"fusion_lat": 0.0, "name": "679b33c74ad6086c5f5e1a9151bdbd94", "is_disabled": 0, "rental_uris": {"android": "https://dc.lft.to/lastmile_qr_scan", "ios": "https://dc.lft.to/lastmile_qr_scan"}, "fusion_lon": 0.0, "lat": 38.855146166666664, "bike_id": "679b33c74ad6086c5f5e1a9151bdbd94", "type": "electric_bike", "is_reserved": 0, "lon": -77.10538583333333}, {"fusion_lat": 0.0, "name": "b4970dcb1bf70fdb6f5c38c4975597d9", "is_disabled": 0, "rental_uris": {"android": "https://dc.lft.to/lastmile_qr_scan", "ios": "https://dc.lft.to/lastmile_qr_scan"}, "fusion_lon": 0.0, "lat": 38.88347683333333, "bike_id": "b4970dcb1bf70fdb6f5c38c4975597d9", "type": "electric_scooter", "is_reserved": 0, "lon": -76.99504066666667}, {"fusion_lat": 0.0, "name": "970f78debf9e2eba725f8decedb03bcd", "is_disabled": 0, "rental_uris": {"android": "https://dc.lft.to/lastmile_qr_scan", "ios": "https://dc.lft.to/lastmile_qr_scan"}, "fusion_lon": 0.0, "lat": 38.919639, "bike_id": "970f78debf9e2eba725f8decedb03bcd", "type": "electric_scooter", "is_reserved": 0, "lon": -77.00107883333334}, {"fusion_lat": 0.0, "name": "186d6a76b5b8676c46b529a0bd32e28f", "is_disabled": 0, "rental_uris": {"android": "https://dc.lft.to/lastmile_qr_scan", "ios": "https://dc.lft.to/lastmile_qr_scan"}, "fusion_lon": 0.0, "lat": 38.92831066666667, "bike_id": "186d6a76b5b8676c46b529a0bd32e28f", "type": "electric_scooter", "is_reserved": 0, "lon": -77.05440533333334}, {"fusion_lat": 0.0, "name": "e6e5b042c75c1b5f7810e655b1363254", "is_disabled": 0, "rental_uris": {"android": "https://dc.lft.to/lastmile_qr_scan", "ios": "https://dc.lft.to/lastmile_qr_scan"}, "fusion_lon": 0.0, "lat": 38.90573416666667, "bike_id": "e6e5b042c75c1b5f7810e655b1363254", "type": "electric_scooter", "is_reserved": 0, "lon": -77.0306185}, {"fusion_lat": 0.0, "name": "080d393c790a3b67a4cb46d94a01ad0a", "is_disabled": 0, "rental_uris": {"android": "https://dc.lft.to/lastmile_qr_scan", "ios": "https://dc.lft.to/lastmile_qr_scan"},