{"data": {"bikes": [{"type": "electric_scooter", "rental_uris": {"ios": "https://dc.lft.to/lastmile_qr_scan", "android": "https://dc.lft.to/lastmile_qr_scan"}, "lon": -77.02797166666667, "fusion_lon": 0.0, "is_disabled": 0, "lat": 38.954004833333336, "bike_id": "453b2823e445c39b18623f2d4b5393ce", "name": "453b2823e445c39b18623f2d4b5393ce", "is_reserved": 0, "fusion_lat": 0.0}, {"type": "electric_scooter", "rental_uris": {"ios": "https://dc.lft.to/lastmile_qr_scan", "android": "https://dc.lft.to/lastmile_qr_scan"}, "lon": -77.0416335, "fusion_lon": 0.0, "is_disabled": 0, "lat": 38.905256, "bike_id": "7bff346550dd7621e54fd00e062f8239", "name": "7bff346550dd7621e54fd00e062f8239", "is_reserved": 0, "fusion_lat": 0.0}, {"type": "electric_scooter", "rental_uris": {"ios": "https://dc.lft.to/lastmile_qr_scan", "android": "https://dc.lft.to/lastmile_qr_scan"}, "lon": -77.02752483333333, "fusion_lon": 0.0, "is_disabled": 0, "lat": 38.95780633333333, "bike_id": "051488a515750a6559e81821543ea392", "name": "051488a515750a6559e81821543ea392", "is_reserved": 0, "fusion_lat": 0.0}, {"type": "electric_scooter", "rental_uris": {"ios": "https://dc.lft.to/lastmile_qr_scan", "android": "https://dc.lft.to/lastmile_qr_scan"}, "lon": -77.04170783333333, "fusion_lon": 0.0, "is_disabled": 0, "lat": 38.9201055, "bike_id": "d857db8f55e313625508e923595c7c6f", "name": "d857db8f55e313625508e923595c7c6f", "is_reserved": 0, "fusion_lat": 0.0}, {"type": "electric_scooter", "rental_uris": {"ios": "https://dc.lft.to/lastmile_qr_scan", "android": "https://dc.lft.to/lastmile_qr_scan"}, "lon": -77.04147966666666, "fusion_lon": 0.0, "is_disabled": 0, "lat": 38.89221083333333, "bike_id": "72b6557d071cbcfb6226caa4d6145c7c", "name": "72b6557d071cbcfb6226caa4d6145c7c", "is_reserved": 0, "fusion_lat": 0.0}, {"type": "electric_scooter", "rental_uris": {"ios": "https://dc.lft.to/lastmile_qr_scan", "android": "https://dc.lft.to/lastmile_qr_scan"}, "lon": -77.036451, "fusion_lon": 0.0, "is_disabled": 0, "lat": 38.923397666666666, "bike_id": "da22efc7dc483a335ce7bf69d118b06d", "name": "da22efc7dc483a335ce7bf69d118b06d", "is_reserved": 0, "fusion_lat": 0.0}, {"type": "electric_scooter", "rental_uris": {"ios": "https://dc.lft.to/lastmile_qr_scan", "android": "https://dc.lft.to/lastmile_qr_scan"}, "lon": -77.026268, "fusion_lon": 0.0, "is_disabled": 0, "lat": 38.892223, "bike_id": "128501e73a08f25f733df0b616aef83d", "name": "128501e73a08f25f733df0b616aef83d", "is_reserved": 0, "fusion_lat": 0.0}, {"type": "electric_scooter", "rental_uris": {"ios": "https://dc.lft.to/lastmile_qr_scan", "android": "https://dc.lft.to/lastmile_qr_scan"}, "lon": -76.99944783333333, "fusion_lon": 0.0, "is_disabled": 0, "lat": 38.84298366666667, "bike_id": "b1e61b629c7bc52ba3bfeaeb61c6fbdf", "name": "b1e61b629c7bc52ba3bfeaeb61c6fbdf", "is_reserved": 0, "fusion_lat": 0.0}, {"type": "electric_scooter", "rental_uris": {"ios": "https://dc.lft.to/lastmile_qr_scan", "android": "https://dc.lft.to/lastmile_qr_scan"}, "lon": -77.02176116666666, "fusion_lon": 0.0, "is_disabled": 0, "lat": 38.906221333333335, "bike_id": "59b4a1efa2c108298473bb2fe36053a8", "name": "59b4a1efa2c108298473bb2fe36053a8", "is_reserved": 0, "fusion_lat": 0.0}, {"type": "electric_scooter", "rental_uris": {"ios": "https://dc.lft.to/lastmile_qr_scan", "android": "https://dc.lft.to/lastmile_qr_scan"}, "lon": -77.042569, "fusion_lon": 0.0, "is_disabled": 0, "lat": 38.922006333333336, "bike_id": "d0006b6d6d383933df5018f0399f87f0", "name": "d0006b6d6d383933df5018f0399f87f0", "is_reserved": 0, "fusion_lat": 0.0}, {"type": "electric_scooter", "rental_uris": {"ios": "https://dc.lft.to/lastmile_qr_scan", "android": "https://dc.lft.to/lastmile_qr_scan"}, "lon": -77.05128416666666, "fusion_lon": 0.0, "is_disabled": 0, "lat": 38.923659666666666, "bike_id": "41bc8c1471e7c61d335df3f33569b153", "name": "41bc8c1471e7c61d335df3f33569b153", "is_reserved": 0, "fusion_lat": 0.0}, {"type": "electric_scooter", "rental_uris": {"ios": "https://dc.lft.to/lastmile_qr_scan", "android": "https://dc.lft.to/lastmile_qr_scan"}, "lon": -77.0068465, "fusion_lon": 0.0, "is_disabled": 0, "lat": 38.905217666666665, "bike_id": "e263ad6671abd573e3c0f3f17e59b2fc", "name": "e263ad6671abd573e3c0f3f17e59b2fc", "is_reserved": 0, "fusion_lat": 0.0}, {"type": "electric_scooter", "rental_uris": {"ios": "https://dc.lft.to/lastmile_qr_scan", "android": "https://dc.lft.to/lastmile_qr_scan"}, "lon": -77.03149333333333, "fusion_lon": 0.0, "is_disabled": 0, "lat": 38.91112733333333, "bike_id": "243663a6f6907b80fb7270526afe0416", "name": "243663a6f6907b80fb7270526afe0416", "is_reserved": 0, "fusion_lat": 0.0}, {"type": "electric_scooter", "rental_uris": {"ios": "https://dc.lft.to/lastmile_qr_scan", "android": "https://dc.lft.to/lastmile_qr_scan"}, "lon": -77.04025933333334, "fusion_lon": 0.0, "is_disabled": 0, "lat": 38.91804583333333, "bike_id": "c41d005f2fd9f5ad649336d45ecf9fc9", "name": "c41d005f2fd9f5ad649336d45ecf9fc9", "is_reserved": 0, "fusion_lat": 0.0}, {"type": "electric_scooter", "rental_uris": {"ios": "https://dc.lft.to/lastmile_qr_scan", "android": "https://dc.lft.to/lastmile_qr_scan"}, "lon": -77.038419, "fusion_lon": 0.0, "is_disabled": 0, "lat": 38.91760083333333, "bike_id": "b728f3a77ef231164c820ed5c39f884f", "name": "b728f3a77ef231164c820ed5c39f884f", "is_reserved": 0, "fusion_lat": 0.0}, {"type": "electric_scooter", "rental_uris": {"ios": "https://dc.lft.to/lastmile_qr_scan", "android": "https://dc.lft.to/lastmile_qr_scan"}, "lon": -76.949977, "fusion_lon": 0.0, "is_disabled": 0, "lat": 38.8939555, "bike_id": "e5f89d52afdc6e928887080bd040ec69", "name": "e5f89d52afdc6e928887080bd040ec69", "is_reserved": 0, "fusion_lat": 0.0}, {"type": "electric_scooter", "rental_uris": {"ios": "https://dc.lft.to/lastmile_qr_scan", "android": "https://dc.lft.to/lastmile_qr_scan"}, "lon": -77.05519483333333, "fusion_lon": 0.0, "is_disabled": 0, "lat": 38.944158, "bike_id": "2a2810c3a53540e9eabc7c442040c056", "name": "2a2810c3a53540e9eabc7c442040c056", "is_reserved": 0, "fusion_lat": 0.0}, {"type": "electric_scooter", "rental_uris": {"ios": "https://dc.lft.to/lastmile_qr_scan", "android": "https://dc.lft.to/lastmile_qr_scan"}, "lon": -77.02798783333333, "fusion_lon": 0.0, "is_disabled": 0, "lat": 38.892367166666666, "bike_id": "873ac50f6998e78f629bdd9b2a5acdaa", "name": "873ac50f6998e78f629bdd9b2a5acdaa", "is_reserved": 0, "fusion_lat": 0.0}, {"type": "electric_scooter", "rental_uris": {"ios": "https://dc.lft.to/lastmile_qr_scan", "android": "https://dc.lft.to/lastmile_qr_scan"}, "lon": -77.04474183333333, "fusion_lon": 0.0, "is_disabled": 0, "lat": 38.911132, "bike_id": "b9eede92f419ae9fb715e09f80112f1b", "name": "b9eede92f419ae9fb715e09f80112f1b", "is_reserved": 0, "fusion_lat": 0.0}, {"type": "electric_scooter", "rental_uris": {"ios": "https://dc.lft.to/lastmile_qr_scan", "android": "https://dc.lft.to/lastmile_qr_scan"}, "lon": -77.03389533333333, "fusion_lon": 0.0, "is_disabled": 0, "lat": 38.90955, "bike_id": "d3467e5a408902235c22e9cae21c0e30", "name": "d3467e5a408902235c22e9cae21c0e30", "is_reserved": 0, "fusion_lat": 0.0}, {"type": "electric_scooter", "rental_uris": {"ios": "https://dc.lft.to/lastmile_qr_scan", "android": "https://dc.lft.to/lastmile_qr_scan"}, "lon": -77.02006533333333, "fusion_lon": 0.0, "is_disabled": 0, "lat": 38.91568083333333, "bike_id": "cf32642393378a55826509f4766f4c78", "name": "cf32642393378a55826509f4766f4c78", "is_reserved": 0, "fusion_lat": 0.0}, {"type": "electric_scooter", "rental_uris": {"ios": "https://dc.lft.to/lastmile_qr_scan", "android": "https://dc.lft.to/lastmile_qr_scan"}, "lon": -77.015788, "fusion_lon": 0.0, "is_disabled": 0, "lat": 38.916838166666665, "bike_id": "6c45e59f0922990ddf5ed340f334ac80", "name": "6c45e59f0922990ddf5ed340f334ac80", "is_reserved": 0, "fusion_lat": 0.0}, {"type": "electric_scooter", "rental_uris": {"ios": "https://dc.lft.to/lastmile_qr_scan", "android": "https://dc.lft.to/lastmile_qr_scan"}, "lon": -76.927386, "fusion_lon": 0.0, "is_disabled": 0, "lat": 38.8997205, "bike_id": "a37a14cf6f0f6d603a47ffdf5cc1835f", "name": "a37a14cf6f0f6d603a47ffdf5cc1835f", "is_reserved": 0, "fusion_lat": 0.0}, {"type": "electric_scooter", "rental_uris": {"ios": "https://dc.lft.to/lastmile_qr_scan", "android": "https://dc.lft.to/lastmile_qr_scan"}, "lon": -77.01139033333334, "fusion_lon": 0.0, "is_disabled": 0, "lat": 38.91709133333333, "bike_id": "ca7d8c24cd885c20b9ad3e1a8fc942f2", "name": "ca7d8c24cd885c20b9ad3e1a8fc942f2", "is_reserved": 0, "fusion_lat": 0.0}, {"type": "electric_scooter", "rental_uris": {"ios": "https://dc.lft.to/lastmile_qr_scan", "android": "https://dc.lft.to/lastmile_qr_scan"}, "lon": -77.03210133333333, "fusion_lon": 0.0, "is_disabled": 0, "lat": 38.9028345, "bike_id": "7c8620f26729384b9893cea6bd91cc7d", "name": "7c8620f26729384b9893cea6bd91cc7d", "is_reserved": 0, "fusion_lat": 0.0}, {"type": "electric_scooter", "rental_uris": {"ios": "https://dc.lft.to/lastmile_qr_scan", "android": "https://dc.lft.to/lastmile_qr_scan"}, "lon": -77.04037933333333, "fusion_lon": 0.0, "is_disabled": 0, "lat": 38.92448783333333, "bike_id": "62a2a014f399bac1d907645a1dc72b14", "name": "62a2a014f399bac1d907645a1dc72b14", "is_reserved": 0, "fusion_lat": 0.0}, {"type": "electric_scooter", "rental_uris": {"ios": "https://dc.lft.to/lastmile_qr_scan", "android": "https://dc.lft.to/lastmile_qr_scan"}, "lon": -77.01318666666667, "fusion_lon": 0.0, "is_disabled": 0, "lat": 38.90605516666667, "bike_id": "8c4cf10ac149a7289963d3f8f782f703", "name": "8c4cf10ac149a7289963d3f8f782f703", "is_reserved": 0, "fusion_lat": 0.0}, {"type": "electric_scooter", "rental_uris": {"ios": "https://dc.lft.to/lastmile_qr_scan", "android": "https://dc.lft.to/lastmile_qr_scan"}, "lon": -76.9883175, "fusion_lon": 0.0, "is_disabled": 0, "lat": 38.89251933333333, "bike_id": "586f9535ebada42cdc800d114f126f67", "name": "586f9535ebada42cdc800d114f126f67", "is_reserved": 0, "fusion_lat": 0.0}, {"type": "electric_scooter", "rental_uris": {"ios": "https://dc.lft.to/lastmile_qr_scan", "android": "https://dc.lft.to/lastmile_qr_scan"}, "lon": -77.03162316666666, "fusion_lon": 0.0, "is_disabled": 0, "lat": 38.89972133333333, "bike_id": "7e1f99b1d06288eafa45701f90cc3ab1", "name": "7e1f99b1d06288eafa45701f90cc3ab1", "is_reserved": 0, "fusion_lat": 0.0}, {"type": "electric_scooter", "rental_uris": {"ios": "https://dc.lft.to/lastmile_qr_scan", "android": "https://dc.lft.to/lastmile_qr_scan"}, "lon": -77.04480966666667, "fusion_lon": 0.0, "is_disabled": 0, "lat": 38.91165316666667, "bike_id": "2ccd6ee46e9fb807920d32809ed8d900", "name": "2ccd6ee46e9fb807920d32809ed8d900", "is_reserved": 0, "fusion_lat": 0.0}, {"type": "electric_scooter", "rental_uris": {"ios": "https://dc.lft.to/lastmile_qr_scan", "android": "https://dc.lft.to/lastmile_qr_scan"}, "lon": -77.032903, "fusion_lon": 0.0, "is_disabled": 0, "lat": 38.925502, "bike_id": "3cec1562a24d68a9363f145c4e55cedf", "name": "3cec1562a24d68a9363f145c4e55cedf", "is_reserved": 0, "fusion_lat": 0.0}, {"type": "electric_scooter", "rental_uris": {"ios": "https://dc.lft.to/lastmile_qr_scan", "android": "https://dc.lft.to/lastmile_qr_scan"}, "lon": -77.011846, "fusion_lon": 0.0, "is_disabled": 0, "lat": 38.903151, "bike_id": "60e9866d2c139bf3d37265037d3b34d1", "name": "60e9866d2c139bf3d37265037d3b34d1", "is_reserved": 0, "fusion_lat": 0.0}, {"type": "electric_scooter", "rental_uris": {"ios": "https://dc.lft.to/lastmile_qr_scan", "android": "https://dc.lft.to/lastmile_qr_scan"}, "lon": -76.9977845, "fusion_lon": 0.0, "is_disabled": 0, "lat": 38.844326333333335, "bike_id": "357ea0f53484eb57b6b3ea5ead8c9da2", "name": "357ea0f53484eb57b6b3ea5ead8c9da2", "is_reserved": 0, "fusion_lat": 0.0}, {"type": "electric_scooter", "rental_uris": {"ios": "https://dc.lft.to/lastmile_qr_scan", "android": "https://dc.lft.to/lastmile_qr_scan"}, "lon": -77.04025033333333, "fusion_lon": 0.0, "is_disabled": 0, "lat": 38.92362266666667, "bike_id": "21d81f2a9cec1461da86feea010274f1", "name": "21d81f2a9cec1461da86feea010274f1", "is_reserved": 0, "fusion_lat": 0.0}, {"type": "electric_scooter", "rental_uris": {"ios": "https://dc.lft.to/lastmile_qr_scan", "android": "https://dc.lft.to/lastmile_qr_scan"}, "lon": -77.040463, "fusion_lon": 0.0, "is_disabled": 0, "lat": 38.91415683333334, "bike_id": "6ebcee88a1e7e2f9696586c4e1e44ca5", "name": "6ebcee88a1e7e2f9696586c4e1e44ca5", "is_reserved": 0, "fusion_lat": 0.0}, {"type": "electric_scooter", "rental_uris": {"ios": "https://dc.lft.to/lastmile_qr_scan", "android": "https://dc.lft.to/lastmile_qr_scan"}, "lon": -77.0344615, "fusion_lon": 0.0, "is_disabled": 0, "lat": 38.930938, "bike_id": "558be8e2ec45d58146f0ccc351ec2680", "name": "558be8e2ec45d58146f0ccc351ec2680", "is_reserved": 0, "fusion_lat": 0.0}, {"type": "electric_scooter", "rental_uris": {"ios": "https://dc.lft.to/lastmile_qr_scan", "android": "https://dc.lft.to/lastmile_qr_scan"}, "lon": -76.95759516666666, "fusion_lon": 0.0, "is_disabled": 0, "lat": 38.88431683333334, "bike_id": "e809c7a7fbfd6d10f4a30fc5530bfa65", "name": "e809c7a7fbfd6d10f4a30fc5530bfa65", "is_reserved": 0, "fusion_lat": 0.0}, {"type": "electric_scooter", "rental_uris": {"ios": "https://dc.lft.to/lastmile_qr_scan", "android": "https://dc.lft.to/lastmile_qr_scan"}, "lon": -77.0270105, "fusion_lon": 0.0, "is_disabled": 0, "lat": 38.90671483333333, "bike_id": "a605006c07b018af0aca5c324824e6b3", "name": "a605006c07b018af0aca5c324824e6b3", "is_reserved": 0, "fusion_lat": 0.0}, {"type": "electric_bike", "rental_uris": {"ios": "https://dc.lft.to/lastmile_qr_scan", "android": "https://dc.lft.to/lastmile_qr_scan"}, "lon": -77.10604983333333, "fusion_lon": 0.0, "is_disabled": 0, "lat": 38.9289945, "bike_id": "e384e32fc217c9b2097e9d73e091ddff", "name": "e384e32fc217c9b2097e9d73e091ddff", "is_reserved": 0, "fusion_lat": 0.0}, {"type": "electric_scooter", "rental_uris": {"ios": "https://dc.lft.to/lastmile_qr_scan", "android": "https://dc.lft.to/lastmile_qr_scan"}, "lon": -77.02130966666667, "fusion_lon": 0.0, "is_disabled": 0, "lat": 38.8874885, "bike_id": "234de4022ca7804d1d37e26dd3f12a69", "name": "234de4022ca7804d1d37e26dd3f12a69", "is_reserved": 0, "fusion_lat": 0.0}, {"type": "electric_scooter", "rental_uris": {"ios": "https://dc.lft.to/lastmile_qr_scan", "android": "https://dc.lft.to/lastmile_qr_scan"}, "lon": -76.99693766666667, "fusion_lon": 0.0, "is_disabled": 0, "lat": 38.908386666666665, "bike_id": "a58f11d2e3c9dd0dbd8121657dc9c766", "name": "a58f11d2e3c9dd0dbd8121657dc9c766", "is_reserved": 0, "fusion_lat": 0.0}, {"type": "electric_bike", "rental_uris": {"ios": "https://dc.lft.to/lastmile_qr_scan", "android": "https://dc.lft.to/lastmile_qr_scan"}, "lon": -76.99347866666666, "fusion_lon": 0.0, "is_disabled": 0, "lat": 38.9722675, "bike_id": "81c6b167a1fa1c3e904cb431c669d58f", "name": "81c6b167a1fa1c3e904cb431c669d58f", "is_reserved": 0, "fusion_lat": 0.0}, {"type": "electric_scooter", "rental_uris": {"ios": "https://dc.lft.to/lastmile_qr_scan", "android": "https://dc.lft.to/lastmile_qr_scan"}, "lon": -77.00309983333334, "fusion_lon": 0.0, "is_disabled": 0, "lat": 38.8259825, "bike_id": "9a02ede7f52305685b0dda25f6429870", "name": "9a02ede7f52305685b0dda25f6429870", "is_reserved": 0, "fusion_lat": 0.0}, {"type": "electric_scooter", "rental_uris": {"ios": "https://dc.lft.to/lastmile_qr_scan", "android": "https://dc.lft.to/lastmile_qr_scan"}, "lon": -77.04367766666667, "fusion_lon": 0.0, "is_disabled": 0, "lat": 38.8922295, "bike_id": "54d2bd163b65de91d47542aab011d835", "name": "54d2bd163b65de91d47542aab011d835", "is_reserved": 0, "fusion_lat": 0.0}, {"type": "electric_scooter", "rental_uris": {"ios": "https://dc.lft.to/lastmile_qr_scan", "android": "https://dc.lft.to/lastmile_qr_scan"}, "lon": -76.99509516666667, "fusion_lon": 0.0, "is_disabled": 0, "lat": 38.883662, "bike_id": "0c5d13e805297a0f1b84085ae83e4841", "name": "0c5d13e805297a0f1b84085ae83e4841", "is_reserved": 0, "fusion_lat": 0.0}, {"type": "electric_scooter", "rental_uris": {"ios": "https://dc.lft.to/lastmile_qr_scan", "android": "https://dc.lft.to/lastmile_qr_scan"}, "lon": -77.0281525, "fusion_lon": 0.0, "is_disabled": 0, "lat": 38.90258816666667, "bike_id": "c72a15c1e7b2aa1f45693496a199a93a", "name": "c72a15c1e7b2aa1f45693496a199a93a", "is_reserved": 0, "fusion_lat": 0.0}, {"type": "electric_scooter", "rental_uris": {"ios": "https://dc.lft.to/lastmile_qr_scan", "android": "https://dc.lft.to/lastmile_qr_scan"}, "lon": -77.03670983333333, "fusion_lon": 0.0, "is_disabled": 0, "lat": 38.917095, "bike_id": "1c5c16d97a58a359387f57e48f116cce", "name": "1c5c16d97a58a359387f57e48f116cce", "is_reserved": 0, "fusion_lat": 0.0}, {"type": "electric_scooter", "rental_uris": {"ios": "https://dc.lft.to/lastmile_qr_scan", "android": "https://dc.lft.to/lastmile_qr_scan"}, "lon": -77.0318145, "fusion_lon": 0.0, "is_disabled": 0, "lat": 38.913332833333335, "bike_id": "ccc1740d94b0ec60594ca7a3cbfbb486", "name": "ccc1740d94b0ec60594ca7a3cbfbb486", "is_reserved": 0, "fusion_lat": 0.0}, {"type": "electric_scooter", "rental_uris": {"ios": "https://dc.lft.to/lastmile_qr_scan", "android": "https://dc.lft.to/lastmile_qr_scan"}, "lon": -76.933058, "fusion_lon": 0.0, "is_disabled": 0, "lat": 38.88138933333333, "bike_id": "e0623ecbf2c8c1ef7ac7d55c3f42159a", "name": "e0623ecbf2c8c1ef7ac7d55c3f42159a", "is_reserved": 0, "fusion_lat": 0.0}, {"type": "electric_scooter", "rental_uris": {"ios": "https://dc.lft.to/lastmile_qr_scan", "android": "https://dc.lft.to/lastmile_qr_scan"}, "lon": -77.039592, "fusion_lon": 0.0, "is_disabled": 0, "lat": 38.924612, "bike_id": "380f436b3935fe33ddc488dc77c112e1", "name": "380f436b3935fe33ddc488dc77c112e1", "is_reserved": 0, "fusion_lat": 0.0}, {"type": "electric_scooter", "rental_uris": {"ios": "https://dc.lft.to/lastmile_qr_scan", "android": "https://dc.lft.to/lastmile_qr_scan"}, "lon": -77.01868816666666, "fusion_lon": 0.0, "is_disabled": 0, "lat": 38.93150766666667, "bike_id": "4a9628b61c4689a5090dc7841d8be544", "name": "4a9628b61c4689a5090dc7841d8be544", "is_reserved": 0, "fusion_lat": 0.0}, {"type": "electric_scooter", "rental_uris": {"ios": "https://dc.lft.to/lastmile_qr_scan", "android": "https://dc.lft.to/lastmile_qr_scan"}, "lon": -77.03254983333333, "fusion_lon": 0.0, "is_disabled": 0, "lat": 38.939735166666665, "bike_id": "4e5b1b0d9cb49d492af67477887276c1", "name": "4e5b1b0d9cb49d492af67477887276c1", "is_reserved": 0, "fusion_lat": 0.0}, {"type": "electric_bike", "rental_uris": {"ios": "https://dc.lft.to/lastmile_qr_scan", "android": "https://dc.lft.to/lastmile_qr_scan"}, "lon": -77.03636133333333, "fusion_lon": 0.0, "is_disabled": 0, "lat": 38.92808816666667, "bike_id": "058bd730e75cbaa77e59bc227444ed7f", "name": "058bd730e75cbaa77e59bc227444ed7f", "is_reserved": 0, "fusion_lat": 0.0}, {"type": "electric_scooter", "rental_uris": {"ios": "https://dc.lft.to/lastmile_qr_scan", "android": "https://dc.lft.to/lastmile_qr_scan"}, "lon": -76.948918, "fusion_lon": 0.0, "is_disabled": 0, "lat": 38.89527016666667, "bike_id": "7fd1b8268548da4737a44c4dd3d01ef7", "name": "7fd1b8268548da4737a44c4dd3d01ef7", "is_reserved": 0, "fusion_lat": 0.0}, {"type": "electric_bike", "rental_uris": {"ios": "https://dc.lft.to/lastmile_qr_scan", "android": "https://dc.lft.to/lastmile_qr_scan"}, "lon": -77.09476216666667, "fusion_lon": 0.0, "is_disabled": 0, "lat": 39.030441333333336, "bike_id": "e5a1499b09f45a5e3bf77f4fa7dc8f75", "name": "e5a1499b09f45a5e3bf77f4fa7dc8f75", "is_reserved": 0, "fusion_lat": 0.0}, {"type": "electric_scooter", "rental_uris": {"ios": "https://dc.lft.to/lastmile_qr_scan", "android": "https://dc.lft.to/lastmile_qr_scan"}, "lon": -77.028483, "fusion_lon": 0.0, "is_disabled": 0, "lat": 38.961144, "bike_id": "10bf7026ea5110acc955b3847e0d0f07", "name": "10bf7026ea5110acc955b3847e0d0f07", "is_reserved": 0, "fusion_lat": 0.0}, {"type": "electric_scooter", "rental_uris": {"ios": "https://dc.lft.to/lastmile_qr_scan", "android": "https://dc.lft.to/lastmile_qr_scan"}, "lon": -76.98470533333334, "fusion_lon": 0.0, "is_disabled": 0, "lat": 38.91316833333333, "bike_id": "49ebea5bacb3816ea136a9341cebe215", "name": "49ebea5bacb3816ea136a9341cebe215", "is_reserved": 0, "fusion_lat": 0.0}, {"type": "electric_scooter", "rental_uris": {"ios": "https://dc.lft.to/lastmile_qr_scan", "android": "https://dc.lft.to/lastmile_qr_scan"}, "lon": -77.02494783333333, "fusion_lon": 0.0, "is_disabled": 0, "lat": 38.91954116666667, "bike_id": "155de16ee84eaa8795e0f3330b9247a9", "name": "155de16ee84eaa8795e0f3330b9247a9", "is_reserved": 0, "fusion_lat": 0.0}, {"type": "electric_scooter", "rental_uris": {"ios": "https://dc.lft.to/lastmile_qr_scan", "android": "https://dc.lft.to/lastmile_qr_scan"}, "lon": -77.030984, "fusion_lon": 0.0, "is_disabled": 0, "lat": 38.938703833333335, "bike_id": "b9d5ea8c794274f168512ce5816e5c43", "name": "b9d5ea8c794274f168512ce5816e5c43", "is_reserved": 0, "fusion_lat": 0.0}, {"type": "electric_scooter", "rental_uris": {"ios": "https://dc.lft.to/lastmile_qr_scan", "android": "https://dc.lft.to/lastmile_qr_scan"}, "lon": -77.011626, "fusion_lon": 0.0, "is_disabled": 0, "lat": 38.900279833333336, "bike_id": "dd14c825f04d54d1d1845f585733e166", "name": "dd14c825f04d54d1d1845f585733e166", "is_reserved": 0, "fusion_lat": 0.0}, {"type": "electric_scooter", "rental_uris": {"ios": "https://dc.lft.to/lastmile_qr_scan", "android": "https://dc.lft.to/lastmile_qr_scan"}, "lon": -77.02191983333333, "fusion_lon": 0.0, "is_disabled": 0, "lat": 38.91124083333333, "bike_id": "472527f2082da8ccb04378f315c83e10", "name": "472527f2082da8ccb04378f315c83e10", "is_reserved": 0, "fusion_lat": 0.0}, {"type": "electric_bike", "rental_uris": {"ios": "https://dc.lft.to/lastmile_qr_scan", "android": "https://dc.lft.to/lastmile_qr_scan"}, "lon": -77.060789, "fusion_lon": 0.0, "is_disabled": 0, "lat": 38.88579566666667, "bike_id": "6ebf920ff0581fcd61b095de0c5756a5", "name": "6ebf920ff0581fcd61b095de0c5756a5", "is_reserved": 0, "fusion_lat": 0.0}, {"type": "electric_bike", "rental_uris": {"ios": "https://dc.lft.to/lastmile_qr_scan", "android": "https://dc.lft.to/lastmile_qr_scan"}, "lon": -77.13100583333333, "fusion_lon": 0.0, "is_disabled": 0, "lat": 39.024372, "bike_id": "d4b6bd8e71bd29920180048549254398", "name": "d4b6bd8e71bd29920180048549254398", "is_reserved": 0, "fusion_lat": 0.0}, {"type": "electric_scooter", "rental_uris": {"ios": "https://dc.lft.to/lastmile_qr_scan", "android": "https://dc.lft.to/lastmile_qr_scan"}, "lon": -77.032911, "fusion_lon": 0.0, "is_disabled": 0, "lat": 38.90787683333333, "bike_id": "ae5ac7b4ec33ed4169ffe468fcb43bbf", "name": "ae5ac7b4ec33ed4169ffe468fcb43bbf", "is_reserved": 0, "fusion_lat": 0.0}, {"type": "electric_scooter", "rental_uris": {"ios": "https://dc.lft.to/lastmile_qr_scan", "android": "https://dc.lft.to/lastmile_qr_scan"}, "lon": -77.026525, "fusion_lon": 0.0, "is_disabled": 0, "lat": 38.89221, "bike_id": "c07dfbff85eee4dd579605925e5ac6b1", "name": "c07dfbff85eee4dd579605925e5ac6b1", "is_reserved": 0, "fusion_lat": 0.0}, {"type": "electric_scooter", "rental_uris": {"ios": "https://dc.lft.to/lastmile_qr_scan", "android": "https://dc.lft.to/lastmile_qr_scan"}, "lon": -77.0046535, "fusion_lon": 0.0, "is_disabled": 0, "lat": 38.911074666666664, "bike_id": "38c3bdf746d10f65a71ee168fa62a97a", "name": "38c3bdf746d10f65a71ee168fa62a97a", "is_reserved": 0, "fusion_lat": 0.0}, {"type": "electric_scooter", "rental_uris": {"ios": "https://dc.lft.to/lastmile_qr_scan", "android": "https://dc.lft.to/lastmile_qr_scan"}, "lon": -77.00391283333333, "fusion_lon": 0.0, "is_disabled": 0, "lat": 38.910718333333335, "bike_id": "cc6e17ef416f9eee8014d689729a9b6c", "name": "cc6e17ef416f9eee8014d689729a9b6c", "is_reserved": 0, "fusion_lat": 0.0}, {"type": "electric_scooter", "rental_uris": {"ios": "https://dc.lft.to/lastmile_qr_scan", "android": "https://dc.lft.to/lastmile_qr_scan"}, "lon": -77.03725583333333, "fusion_lon": 0.0, "is_disabled": 0, "lat": 38.9170995, "bike_id": "ca86bc06b2cd4e6373cc9d9bcb79f638", "name": "ca86bc06b2cd4e6373cc9d9bcb79f638", "is_reserved": 0, "fusion_lat": 0.0}, {"type": "electric_scooter", "rental_uris": {"ios": "https://dc.lft.to/lastmile_qr_scan", "android": "https://dc.lft.to/lastmile_qr_scan"}, "lon": -77.03538466666667, "fusion_lon": 0.0, "is_disabled": 0, "lat": 38.92638216666667, "bike_id": "ade3a21fb47379ef8cd6b2b07aeef5b3", "name": "ade3a21fb47379ef8cd6b2b07aeef5b3", "is_reserved": 0, "fusion_lat": 0.0}, {"type": "electric_scooter", "rental_uris": {"ios": "https://dc.lft.to/lastmile_qr_scan", "android": "https://dc.lft.to/lastmile_qr_scan"}, "lon": -77.02713116666666, "fusion_lon": 0.0, "is_disabled": 0, "lat": 38.90735166666666, "bike_id": "58fac1a2147eb481546c844c19e4c98c", "name": "58fac1a2147eb481546c844c19e4c98c", "is_reserved": 0, "fusion_lat": 0.0}, {"type": "electric_scooter", "rental_uris": {"ios": "https://dc.lft.to/lastmile_qr_scan", "android": "https://dc.lft.to/lastmile_qr_scan"}, "lon": -77.0432845, "fusion_lon": 0.0, "is_disabled": 0, "lat": 38.89224466666667, "bike_id": "09e8c7f9e294be443df2df99ac55d4a4", "name": "09e8c7f9e294be443df2df99ac55d4a4", "is_reserved": 0, "fusion_lat": 0.0}, {"type": "electric_scooter", "rental_uris": {"ios": "https://dc.lft.to/lastmile_qr_scan", "android": "https://dc.lft.to/lastmile_qr_scan"}, "lon": -77.022213, "fusion_lon": 0.0, "is_disabled": 0, "lat": 38.912756, "bike_id": "cd5516e7da6242e38fd1e37e01dc280a", "name": "cd5516e7da6242e38fd1e37e01dc280a", "is_reserved": 0, "fusion_lat": 0.0}, {"type": "electric_scooter", "rental_uris": {"ios": "https://dc.lft.to/lastmile_qr_scan", "android": "https://dc.lft.to/lastmile_qr_scan"}, "lon": -77.01372383333333, "fusion_lon": 0.0, "is_disabled": 0, "lat": 38.892259333333335, "bike_id": "5ddd1dd946450fb1bd71cf97744a875d", "name": "5ddd1dd946450fb1bd71cf97744a875d", "is_reserved": 0, "fusion_lat": 0.0}, {"type": "electric_scooter", "rental_uris": {"ios": "https://dc.lft.to/lastmile_qr_scan", "android": "https://dc.lft.to/lastmile_qr_scan"}, "lon": -77.0279515, "fusion_lon": 0.0, "is_disabled": 0, "lat": 38.89233983333333, "bike_id": "3584a4a44bdd2ac34beb01bb2f586c55", "name": "3584a4a44bdd2ac34beb01bb2f586c55", "is_reserved": 0, "fusion_lat": 0.0}, {"type": "electric_scooter", "rental_uris": {"ios": "https://dc.lft.to/lastmile_qr_scan", "android": "https://dc.lft.to/lastmile_qr_scan"}, "lon": -77.0277315, "fusion_lon": 0.0, "is_disabled": 0, "lat": 38.89739016666667, "bike_id": "3ebb71fc1ec9eb50945bc94d23836f3d", "name": "3ebb71fc1ec9eb50945bc94d23836f3d", "is_reserved": 0, "fusion_lat": 0.0}, {"type": "electric_scooter", "rental_uris": {"ios": "https://dc.lft.to/lastmile_qr_scan", "android": "https://dc.lft.to/lastmile_qr_scan"}, "lon": -77.03341283333333, "fusion_lon": 0.0, "is_disabled": 0, "lat": 38.892251, "bike_id": "d1b89ff9abd56f21108b9ba63e04a6ef", "name": "d1b89ff9abd56f21108b9ba63e04a6ef", "is_reserved": 0, "fusion_lat": 0.0}, {"type": "electric_scooter", "rental_uris": {"ios": "https://dc.lft.to/lastmile_qr_scan", "android": "https://dc.lft.to/lastmile_qr_scan"}, "lon": -76.98924083333333, "fusion_lon": 0.0, "is_disabled": 0, "lat": 38.84076683333333, "bike_id": "5283981da5a74d43212264e6d2406cd4", "name": "5283981da5a74d43212264e6d2406cd4", "is_reserved": 0, "fusion_lat": 0.0}, {"type": "electric_scooter", "rental_uris": {"ios": "https://dc.lft.to/lastmile_qr_scan", "android": "https://dc.lft.to/lastmile_qr_scan"}, "lon": -77.0279555, "fusion_lon": 0.0, "is_disabled": 0, "lat": 38.930812833333334, "bike_id": "39bde6a3bd9c54817b48e5813353abaf", "name": "39bde6a3bd9c54817b48e5813353abaf", "is_reserved": 0, "fusion_lat": 0.0}, {"type": "electric_scooter", "rental_uris": {"ios": "https://dc.lft.to/lastmile_qr_scan", "android": "https://dc.lft.to/lastmile_qr_scan"}, "lon": -77.03344316666667, "fusion_lon": 0.0, "is_disabled": 0, "lat": 38.892480166666665, "bike_id": "bba4287fc951307e9e4656a00ccfa45a", "name": "bba4287fc951307e9e4656a00ccfa45a", "is_reserved": 0, "fusion_lat": 0.0}, {"type": "electric_scooter", "rental_uris": {"ios": "https://dc.lft.to/lastmile_qr_scan", "android": "https://dc.lft.to/lastmile_qr_scan"}, "lon": -77.0593345, "fusion_lon": 0.0, "is_disabled": 0, "lat": 38.90940366666667, "bike_id": "b00f4c482b159654f97185169e74677f", "name": "b00f4c482b159654f97185169e74677f", "is_reserved": 0, "fusion_lat": 0.0}, {"type": "electric_scooter", "rental_uris": {"ios": "https://dc.lft.to/lastmile_qr_scan", "android": "https://dc.lft.to/lastmile_qr_scan"}, "lon": -77.020356, "fusion_lon": 0.0, "is_disabled": 0, "lat": 38.9319245, "bike_id": "7d71efd795904263dc02419cbb3d4297", "name": "7d71efd795904263dc02419cbb3d4297", "is_reserved": 0, "fusion_lat": 0.0}, {"type": "electric_bike", "rental_uris": {"ios": "https://dc.lft.to/lastmile_qr_scan", "android": "https://dc.lft.to/lastmile_qr_scan"}, "lon": -76.924998, "fusion_lon": 0.0, "is_disabled": 0, "lat": 39.0000065, "bike_id": "81948dcda9cbf734c8543b3e9a999b63", "name": "81948dcda9cbf734c8543b3e9a999b63", "is_reserved": 0, "fusion_lat": 0.0}, {"type": "electric_scooter", "rental_uris": {"ios": "https://dc.lft.to/lastmile_qr_scan", "android": "https://dc.lft.to/lastmile_qr_scan"}, "lon": -77.0321685, "fusion_lon": 0.0, "is_disabled": 0, "lat": 38.909763166666664, "bike_id": "22dfb40369cdae69d21bb234e29cca25", "name": "22dfb40369cdae69d21bb234e29cca25", "is_reserved": 0, "fusion_lat": 0.0}, {"type": "electric_scooter", "rental_uris": {"ios": "https://dc.lft.to/lastmile_qr_scan", "android": "https://dc.lft.to/lastmile_qr_scan"}, "lon": -77.03131916666666, "fusion_lon": 0.0, "is_disabled": 0, "lat": 38.91809533333333, "bike_id": "8b6b4e07ab525ed5f66b5ebed7d052b5", "name": "8b6b4e07ab525ed5f66b5ebed7d052b5", "is_reserved": 0, "fusion_lat": 0.0}, {"type": "electric_scooter", "rental_uris": {"ios": "https://dc.lft.to/lastmile_qr_scan", "android": "https://dc.lft.to/lastmile_qr_scan"}, "lon": -77.02498016666667, "fusion_lon": 0.0, "is_disabled": 0, "lat": 38.9180805, "bike_id": "27c9b5639c9c5b483aade2361f040252", "name": "27c9b5639c9c5b483aade2361f040252", "is_reserved": 0, "fusion_lat": 0.0}, {"type": "electric_scooter", "rental_uris": {"ios": "https://dc.lft.to/lastmile_qr_scan", "android": "https://dc.lft.to/lastmile_qr_scan"}, "lon": -77.02275916666666, "fusion_lon": 0.0, "is_disabled": 0, "lat": 38.916413666666664, "bike_id": "19230544da36628f5bc1492adece61c4", "name": "19230544da36628f5bc1492adece61c4", "is_reserved": 0, "fusion_lat": 0.0}, {"type": "electric_scooter", "rental_uris": {"ios": "https://dc.lft.to/lastmile_qr_scan", "android": "https://dc.lft.to/lastmile_qr_scan"}, "lon": -77.03412016666667, "fusion_lon": 0.0, "is_disabled": 0, "lat": 38.91927733333333, "bike_id": "5b2c73373835af51c2ae2819bb2bcb42", "name": "5b2c73373835af51c2ae2819bb2bcb42", "is_reserved": 0, "fusion_lat": 0.0}, {"type": "electric_scooter", "rental_uris": {"ios": "https://dc.lft.to/lastmile_qr_scan", "android": "https://dc.lft.to/lastmile_qr_scan"}, "lon": -77.0317275, "fusion_lon": 0.0, "is_disabled": 0, "lat": 38.919109666666664, "bike_id": "b37d715fc66a4c28446d171b5508f305", "name": "b37d715fc66a4c28446d171b5508f305", "is_reserved": 0, "fusion_lat": 0.0}, {"type": "electric_bike", "rental_uris": {"ios": "https://dc.lft.to/lastmile_qr_scan", "android": "https://dc.lft.to/lastmile_qr_scan"}, "lon": -77.13468216666666, "fusion_lon": 0.0, "is_disabled": 0, "lat": 38.853535, "bike_id": "58ac02f1445ac7caaa2dd051cb225f67", "name": "58ac02f1445ac7caaa2dd051cb225f67", "is_reserved": 0, "fusion_lat": 0.0}, {"type": "electric_scooter", "rental_uris": {"ios": "https://dc.lft.to/lastmile_qr_scan", "android": "https://dc.lft.to/lastmile_qr_scan"}, "lon": -77.03358833333333, "fusion_lon": 0.0, "is_disabled": 0, "lat": 38.887582, "bike_id": "8e517632ac49019a66c02ba05d639105", "name": "8e517632ac49019a66c02ba05d639105", "is_reserved": 0, "fusion_lat": 0.0}, {"type": "electric_bike", "rental_uris": {"ios": "https://dc.lft.to/lastmile_qr_scan", "android": "https://dc.lft.to/lastmile_qr_scan"}, "lon": -76.92481033333334, "fusion_lon": 0.0, "is_disabled": 0, "lat": 38.958965166666665, "bike_id": "8a2bb981de66a714bfea0ab7cc94bfdf", "name": "8a2bb981de66a714bfea0ab7cc94bfdf", "is_reserved": 0, "fusion_lat": 0.0}, {"type": "electric_scooter", "rental_uris": {"ios": "https://dc.lft.to/lastmile_qr_scan", "android": "https://dc.lft.to/lastmile_qr_scan"}, "lon": -77.03213966666667, "fusion_lon": 0.0, "is_disabled": 0, "lat": 38.908989, "bike_id": "5617b45c9bfa020cfce59a812a88552e", "name": "5617b45c9bfa020cfce59a812a88552e", "is_reserved": 0, "fusion_lat": 0.0}, {"type": "electric_scooter", "rental_uris": {"ios": "https://dc.lft.to/lastmile_qr_scan", "android": "https://dc.lft.to/lastmile_qr_scan"}, "lon": -77.03254033333333, "fusion_lon": 0.0, "is_disabled": 0, "lat": 38.90714333333333, "bike_id": "11cb933cafa7b812a5d9c0adffd19c60", "name": "11cb933cafa7b812a5d9c0adffd19c60", "is_reserved": 0, "fusion_lat": 0.0}, {"type": "electric_bike", "rental_uris": {"ios": "https://dc.lft.to/lastmile_qr_scan", "android": "https://dc.lft.to/lastmile_qr_scan"}, "lon": -76.98023966666666, "fusion_lon": 0.0, "is_disabled": 0, "lat": 38.95755666666667, "bike_id": "1df95dbc77fbf85a8be6392081e432c5", "name": "1df95dbc77fbf85a8be6392081e432c5", "is_reserved": 0, "fusion_lat": 0.0}, {"type": "electric_scooter", "rental_uris": {"ios": "https://dc.lft.to/lastmile_qr_scan", "android": "https://dc.lft.to/lastmile_qr_scan"}, "lon": -77.01653183333333, "fusion_lon": 0.0, "is_disabled": 0, "lat": 38.9105615, "bike_id": "106e633ae7e7de29d78d6e3cee2c0523", "name": "106e633ae7e7de29d78d6e3cee2c0523", "is_reserved": 0, "fusion_lat": 0.0}, {"type": "electric_scooter", "rental_uris": {"ios": "https://dc.lft.to/lastmile_qr_scan", "android": "https://dc.lft.to/lastmile_qr_scan"}, "lon": -76.931746, "fusion_lon": 0.0, "is_disabled": 0, "lat": 38.898878, "bike_id": "68d116fb0fc957c6b8337a24059703dd", "name": "68d116fb0fc957c6b8337a24059703dd", "is_reserved": 0, "fusion_lat": 0.0}, {"type": "electric_scooter", "rental_uris": {"ios": "https://dc.lft.to/lastmile_qr_scan", "android": "https://dc.lft.to/lastmile_qr_scan"}, "lon": -77.01224283333333, "fusion_lon": 0.0, "is_disabled": 0, "lat": 38.914978833333336, "bike_id": "911c1df6ccb4aef4ce5ee2959d2f2f0c", "name": "911c1df6ccb4aef4ce5ee2959d2f2f0c", "is_reserved": 0, "fusion_lat": 0.0}, {"type": "electric_scooter", "rental_uris": {"ios": "https://dc.lft.to/lastmile_qr_scan", "android": "https://dc.lft.to/lastmile_qr_scan"}, "lon": -77.03405, "fusion_lon": 0.0, "is_disabled": 0, "lat": 38.931240333333335, "bike_id": "903e7e3cc1ea4b0a2effcdf396f2c5d5", "name": "903e7e3cc1ea4b0a2effcdf396f2c5d5", "is_reserved": 0, "fusion_lat": 0.0}, {"type": "electric_scooter", "rental_uris": {"ios": "https://dc.lft.to/lastmile_qr_scan", "android": "https://dc.lft.to/lastmile_qr_scan"}, "lon": -77.03475733333333, "fusion_lon": 0.0, "is_disabled": 0, "lat": 38.90962733333333, "bike_id": "be1960f368c0ac5b1f26c8446e047161", "name": "be1960f368c0ac5b1f26c8446e047161", "is_reserved": 0, "fusion_lat": 0.0}, {"type": "electric_scooter", "rental_uris": {"ios": "https://dc.lft.to/lastmile_qr_scan", "android": "https://dc.lft.to/lastmile_qr_scan"}, "lon": -77.0400415, "fusion_lon": 0.0, "is_disabled": 0, "lat": 38.90800866666667, "bike_id": "bbc6c1829d1426610cc998e8e3e8464f", "name": "bbc6c1829d1426610cc998e8e3e8464f", "is_reserved": 0, "fusion_lat": 0.0}, {"type": "electric_scooter", "rental_uris": {"ios": "https://dc.lft.to/lastmile_qr_scan", "android": "https://dc.lft.to/lastmile_qr_scan"}, "lon": -77.00112933333334, "fusion_lon": 0.0, "is_disabled": 0, "lat": 38.9170595, "bike_id": "1b473183fa1b257ef9afb0c714f6ba58", "name": "1b473183fa1b257ef9afb0c714f6ba58", "is_reserved": 0, "fusion_lat": 0.0}, {"type": "electric_scooter", "rental_uris": {"ios": "https://dc.lft.to/lastmile_qr_scan", "android": "https://dc.lft.to/lastmile_qr_scan"}, "lon": -77.04244133333333, "fusion_lon": 0.0, "is_disabled": 0, "lat": 38.92222733333333, "bike_id": "c3e7520c90c92f645878a3833cf74cc2", "name": "c3e7520c90c92f645878a3833cf74cc2", "is_reserved": 0, "fusion_lat": 0.0}, {"type": "electric_scooter", "rental_uris": {"ios": "https://dc.lft.to/lastmile_qr_scan", "android": "https://dc.lft.to/lastmile_qr_scan"}, "lon": -77.03189383333333, "fusion_lon": 0.0, "is_disabled": 0, "lat": 38.91742416666666, "bike_id": "30d29853dd926b852c93350dfb8f9a4f", "name": "30d29853dd926b852c93350dfb8f9a4f", "is_reserved": 0, "fusion_lat": 0.0}, {"type": "electric_scooter", "rental_uris": {"ios": "https://dc.lft.to/lastmile_qr_scan", "android": "https://dc.lft.to/lastmile_qr_scan"}, "lon": -76.9872925, "fusion_lon": 0.0, "is_disabled": 0, "lat": 38.86713116666667, "bike_id": "1a3537b179a10f798e2e750fecaccec9", "name": "1a3537b179a10f798e2e750fecaccec9", "is_reserved": 0, "fusion_lat": 0.0}, {"type": "electric_scooter", "rental_uris": {"ios": "https://dc.lft.to/lastmile_qr_scan", "android": "https://dc.lft.to/lastmile_qr_scan"}, "lon": -77.02664333333334, "fusion_lon": 0.0, "is_disabled": 0, "lat": 38.91708766666667, "bike_id": "651598e7810819ce5af6d61f67d23b2d", "name": "651598e7810819ce5af6d61f67d23b2d", "is_reserved": 0, "fusion_lat": 0.0}, {"type": "electric_scooter", "rental_uris": {"ios": "https://dc.lft.to/lastmile_qr_scan", "android": "https://dc.lft.to/lastmile_qr_scan"}, "lon": -77.00986083333333, "fusion_lon": 0.0, "is_disabled": 0, "lat": 38.87293666666667, "bike_id": "ea981353efe38e8e87b0d2261449ee66", "name": "ea981353efe38e8e87b0d2261449ee66", "is_reserved": 0, "fusion_lat": 0.0}, {"type": "electric_scooter", "rental_uris": {"ios": "https://dc.lft.to/lastmile_qr_scan", "android": "https://dc.lft.to/lastmile_qr_scan"}, "lon": -77.03626183333333, "fusion_lon": 0.0, "is_disabled": 0, "lat": 38.93683433333333, "bike_id": "53d41fe80bc23c09b439224e3de7538d", "name": "53d41fe80bc23c09b439224e3de7538d", "is_reserved": 0, "fusion_lat": 0.0}, {"type": "electric_scooter", "rental_uris": {"ios": "https://dc.lft.to/lastmile_qr_scan", "android": "https://dc.lft.to/lastmile_qr_scan"}, "lon": -77.02804433333333, "fusion_lon": 0.0, "is_disabled": 0, "lat": 38.91105616666667, "bike_id": "e94b94a145ca430a5860249189875d82", "name": "e94b94a145ca430a5860249189875d82", "is_reserved": 0, "fusion_lat": 0.0}, {"type": "electric_scooter", "rental_uris": {"ios": "https://dc.lft.to/lastmile_qr_scan", "android": "https://dc.lft.to/lastmile_qr_scan"}, "lon": -77.04184416666666, "fusion_lon": 0.0, "is_disabled": 0, "lat": 38.9205485, "bike_id": "98368583eca0a0d1db763b0253cd86ce", "name": "98368583eca0a0d1db763b0253cd86ce", "is_reserved": 0, "fusion_lat": 0.0}, {"type": "electric_scooter", "rental_uris": {"ios": "https://dc.lft.to/lastmile_qr_scan", "android": "https://dc.lft.to/lastmile_qr_scan"}, "lon": -77.0325065, "fusion_lon": 0.0, "is_disabled": 0, "lat": 38.929358, "bike_id": "0ddb914e806c0b295832d9f45a96b023", "name": "0ddb914e806c0b295832d9f45a96b023", "is_reserved": 0, "fusion_lat": 0.0}, {"type": "electric_scooter", "rental_uris": {"ios": "https://dc.lft.to/lastmile_qr_scan", "android": "https://dc.lft.to/lastmile_qr_scan"}, "lon": -77.03151983333333, "fusion_lon": 0.0, "is_disabled": 0, "lat": 38.897618, "bike_id": "e4d8aa60a1bb92040ef67371991ef01c", "name": "e4d8aa60a1bb92040ef67371991ef01c", "is_reserved": 0, "fusion_lat": 0.0}, {"type": "electric_scooter", "rental_uris": {"ios": "https://dc.lft.to/lastmile_qr_scan", "android": "https://dc.lft.to/lastmile_qr_scan"}, "lon": -77.02495966666666, "fusion_lon": 0.0, "is_disabled": 0, "lat": 38.919852, "bike_id": "bc3ff5e462bdf4b67bc2192b5d326b46", "name": "bc3ff5e462bdf4b67bc2192b5d326b46", "is_reserved": 0, "fusion_lat": 0.0}, {"type": "electric_bike", "rental_uris": {"ios": "https://dc.lft.to/lastmile_qr_scan", "android": "https://dc.lft.to/lastmile_qr_scan"}, "lon": -77.05338733333333, "fusion_lon": 0.0, "is_disabled": 0, "lat": 38.9024055, "bike_id": "f0f2188d0e995201ff41ac3b7bca0b50", "name": "f0f2188d0e995201ff41ac3b7bca0b50", "is_reserved": 0, "fusion_lat": 0.0}, {"type": "electric_scooter", "rental_uris": {"ios": "https://dc.lft.to/lastmile_qr_scan", "android": "https://dc.lft.to/lastmile_qr_scan"}, "lon": -76.9868915, "fusion_lon": 0.0, "is_disabled": 0, "lat": 38.862561166666666, "bike_id": "abafdab38b6e445b54f2b760cac91a5b", "name": "abafdab38b6e445b54f2b760cac91a5b", "is_reserved": 0, "fusion_lat": 0.0}, {"type": "electric_scooter", "rental_uris": {"ios": "https://dc.lft.to/lastmile_qr_scan", "android": "https://dc.lft.to/lastmile_qr_scan"}, "lon": -77.0317885, "fusion_lon": 0.0, "is_disabled": 0, "lat": 38.919126166666665, "bike_id": "dd7b6dbe33b7decc12b51bd497e9980b", "name": "dd7b6dbe33b7decc12b51bd497e9980b", "is_reserved": 0, "fusion_lat": 0.0}, {"type": "electric_scooter", "rental_uris": {"ios": "https://dc.lft.to/lastmile_qr_scan", "android": "https://dc.lft.to/lastmile_qr_scan"}, "lon": -77.04573283333333, "fusion_lon": 0.0, "is_disabled": 0, "lat": 38.922384666666666, "bike_id": "65a770e21e2169ea55d9241601ecab5d", "name": "65a770e21e2169ea55d9241601ecab5d", "is_reserved": 0, "fusion_lat": 0.0}, {"type": "electric_scooter", "rental_uris": {"ios": "https://dc.lft.to/lastmile_qr_scan", "android": "https://dc.lft.to/lastmile_qr_scan"}, "lon": -76.9773155, "fusion_lon": 0.0, "is_disabled": 0, "lat": 38.872955833333336, "bike_id": "151603f632ce57631c53d7cdd4f45901", "name": "151603f632ce57631c53d7cdd4f45901", "is_reserved": 0, "fusion_lat": 0.0}, {"type": "electric_scooter", "rental_uris": {"ios": "https://dc.lft.to/lastmile_qr_scan", "android": "https://dc.lft.to/lastmile_qr_scan"}, "lon": -77.03505166666666, "fusion_lon": 0.0, "is_disabled": 0, "lat": 38.918755, "bike_id": "c12c75ce96e9f8781bd87a4db43ec4e2", "name": "c12c75ce96e9f8781bd87a4db43ec4e2", "is_reserved": 0, "fusion_lat": 0.0}, {"type": "electric_scooter", "rental_uris": {"ios": "https://dc.lft.to/lastmile_qr_scan", "android": "https://dc.lft.to/lastmile_qr_scan"}, "lon": -77.04182466666667, "fusion_lon": 0.0, "is_disabled": 0, "lat": 38.905246166666664, "bike_id": "be26b860f1d607005adb439ede46367d", "name": "be26b860f1d607005adb439ede46367d", "is_reserved": 0, "fusion_lat": 0.0}, {"type": "electric_scooter", "rental_uris": {"ios": "https://dc.lft.to/lastmile_qr_scan", "android": "https://dc.lft.to/lastmile_qr_scan"}, "lon": -77.03222983333333, "fusion_lon": 0.0, "is_disabled": 0, "lat": 38.91832183333333, "bike_id": "f9bac509a424864f64f9a8f5720c99d4", "name": "f9bac509a424864f64f9a8f5720c99d4", "is_reserved": 0, "fusion_lat": 0.0}, {"type": "electric_scooter", "rental_uris": {"ios": "https://dc.lft.to/lastmile_qr_scan", "android": "https://dc.lft.to/lastmile_qr_scan"}, "lon": -77.03669433333333, "fusion_lon": 0.0, "is_disabled": 0, "lat": 38.9068005, "bike_id": "766a190814b56ed586cbe253cf4cc36a", "name": "766a190814b56ed586cbe253cf4cc36a", "is_reserved": 0, "fusion_lat": 0.0}, {"type": "electric_scooter", "rental_uris": {"ios": "https://dc.lft.to/lastmile_qr_scan", "android": "https://dc.lft.to/lastmile_qr_scan"}, "lon": -76.9909105, "fusion_lon": 0.0, "is_disabled": 0, "lat": 38.882423, "bike_id": "d65a78b821a12db6eeb0deadd20b878f", "name": "d65a78b821a12db6eeb0deadd20b878f", "is_reserved": 0, "fusion_lat": 0.0}, {"type": "electric_scooter", "rental_uris": {"ios": "https://dc.lft.to/lastmile_qr_scan", "android": "https://dc.lft.to/lastmile_qr_scan"}, "lon": -77.0219875, "fusion_lon": 0.0, "is_disabled": 0, "lat": 38.92101516666666, "bike_id": "3cc71d90a8c1bf857f41ee0667c10d0b", "name": "3cc71d90a8c1bf857f41ee0667c10d0b", "is_reserved": 0, "fusion_lat": 0.0}, {"type": "electric_scooter", "rental_uris": {"ios": "https://dc.lft.to/lastmile_qr_scan", "android": "https://dc.lft.to/lastmile_qr_scan"}, "lon": -77.058967, "fusion_lon": 0.0, "is_disabled": 0, "lat": 38.902359833333335, "bike_id": "02263a1b5b5f945f3e8b6e92379aac4d", "name": "02263a1b5b5f945f3e8b6e92379aac4d", "is_reserved": 0, "fusion_lat": 0.0}, {"type": "electric_scooter", "rental_uris": {"ios": "https://dc.lft.to/lastmile_qr_scan", "android": "https://dc.lft.to/lastmile_qr_scan"}, "lon": -76.99632983333333, "fusion_lon": 0.0, "is_disabled": 0, "lat": 38.908863333333336, "bike_id": "b85770bb5b205cafc0c39af09d06e98d", "name": "b85770bb5b205cafc0c39af09d06e98d", "is_reserved": 0, "fusion_lat": 0.0}, {"type": "electric_scooter", "rental_uris": {"ios": "https://dc.lft.to/lastmile_qr_scan", "android": "https://dc.lft.to/lastmile_qr_scan"}, "lon": -77.04195966666667, "fusion_lon": 0.0, "is_disabled": 0, "lat": 38.90563383333333, "bike_id": "f4e10838d3d61f11c6acc13e06dbe01a", "name": "f4e10838d3d61f11c6acc13e06dbe01a", "is_reserved": 0, "fusion_lat": 0.0}, {"type": "electric_scooter", "rental_uris": {"ios": "https://dc.lft.to/lastmile_qr_scan", "android": "https://dc.lft.to/lastmile_qr_scan"}, "lon": -77.023057, "fusion_lon": 0.0, "is_disabled": 0, "lat": 38.91608033333333, "bike_id": "c395e0b406f164c84a940c455e55af00", "name": "c395e0b406f164c84a940c455e55af00", "is_reserved": 0, "fusion_lat": 0.0}, {"type": "electric_scooter", "rental_uris": {"ios": "https://dc.lft.to/lastmile_qr_scan", "android": "https://dc.lft.to/lastmile_qr_scan"}, "lon": -77.04421966666666, "fusion_lon": 0.0, "is_disabled": 0, "lat": 38.9259985, "bike_id": "56116385d2a58d3bed3fbd1e860a4e2c", "name": "56116385d2a58d3bed3fbd1e860a4e2c", "is_reserved": 0, "fusion_lat": 0.0}, {"type": "electric_bike", "rental_uris": {"ios": "https://dc.lft.to/lastmile_qr_scan", "android": "https://dc.lft.to/lastmile_qr_scan"}, "lon": -77.02775733333333, "fusion_lon": 0.0, "is_disabled": 0, "lat": 38.929067333333336, "bike_id": "da3d3cf9628fec29e9ec9e4c438dbf89", "name": "da3d3cf9628fec29e9ec9e4c438dbf89", "is_reserved": 0, "fusion_lat": 0.0}, {"type": "electric_scooter", "rental_uris": {"ios": "https://dc.lft.to/lastmile_qr_scan", "android": "https://dc.lft.to/lastmile_qr_scan"}, "lon": -77.03862066666667, "fusion_lon": 0.0, "is_disabled": 0, "lat": 38.90968566666667, "bike_id": "de047cb2674955191866343be3d5f8f3", "name": "de047cb2674955191866343be3d5f8f3", "is_reserved": 0, "fusion_lat": 0.0}, {"type": "electric_scooter", "rental_uris": {"ios": "https://dc.lft.to/lastmile_qr_scan", "android": "https://dc.lft.to/lastmile_qr_scan"}, "lon": -77.0443035, "fusion_lon": 0.0, "is_disabled": 0, "lat": 38.92130983333333, "bike_id": "1e5500a887ea971504df91ea77b68366", "name": "1e5500a887ea971504df91ea77b68366", "is_reserved": 0, "fusion_lat": 0.0}, {"type": "electric_scooter", "rental_uris": {"ios": "https://dc.lft.to/lastmile_qr_scan", "android": "https://dc.lft.to/lastmile_qr_scan"}, "lon": -77.03511166666667, "fusion_lon": 0.0, "is_disabled": 0, "lat": 38.921603833333336, "bike_id": "f2ed4f7cb1bc270b8b496a868d676c9f", "name": "f2ed4f7cb1bc270b8b496a868d676c9f", "is_reserved": 0, "fusion_lat": 0.0}, {"type": "electric_bike", "rental_uris": {"ios": "https://dc.lft.to/lastmile_qr_scan", "android": "https://dc.lft.to/lastmile_qr_scan"}, "lon": -77.03891116666667, "fusion_lon": 0.0, "is_disabled": 0, "lat": 38.923317833333336, "bike_id": "481d23d4ad10a2a8d0e79f50ab2c4c33", "name": "481d23d4ad10a2a8d0e79f50ab2c4c33", "is_reserved": 0, "fusion_lat": 0.0}, {"type": "electric_scooter", "rental_uris": {"ios": "https://dc.lft.to/lastmile_qr_scan", "android": "https://dc.lft.to/lastmile_qr_scan"}, "lon": -77.038944, "fusion_lon": 0.0, "is_disabled": 0, "lat": 38.902476, "bike_id": "3e148b869360f33fd0a451fe531cc9f9", "name": "3e148b869360f33fd0a451fe531cc9f9", "is_reserved": 0, "fusion_lat": 0.0}, {"type": "electric_scooter", "rental_uris": {"ios": "https://dc.lft.to/lastmile_qr_scan", "android": "https://dc.lft.to/lastmile_qr_scan"}, "lon": -77.0269625, "fusion_lon": 0.0, "is_disabled": 0, "lat": 38.9061295, "bike_id": "87570a419d848d30083b3b4c6cfaf5fe", "name": "87570a419d848d30083b3b4c6cfaf5fe", "is_reserved": 0, "fusion_lat": 0.0}, {"type": "electric_scooter", "rental_uris": {"ios": "https://dc.lft.to/lastmile_qr_scan", "android": "https://dc.lft.to/lastmile_qr_scan"}, "lon": -76.99822966666666, "fusion_lon": 0.0, "is_disabled": 0, "lat": 38.900163, "bike_id": "422a0c55452a980339937b2e7c4593fd", "name": "422a0c55452a980339937b2e7c4593fd", "is_reserved": 0, "fusion_lat": 0.0}, {"type": "electric_scooter", "rental_uris": {"ios": "https://dc.lft.to/lastmile_qr_scan", "android": "https://dc.lft.to/lastmile_qr_scan"}, "lon": -77.04347816666667, "fusion_lon": 0.0, "is_disabled": 0, "lat": 38.9134405, "bike_id": "570ca2d9f1492370bdd7965071779fc0", "name": "570ca2d9f1492370bdd7965071779fc0", "is_reserved": 0, "fusion_lat": 0.0}, {"type": "electric_scooter", "rental_uris": {"ios": "https://dc.lft.to/lastmile_qr_scan", "android": "https://dc.lft.to/lastmile_qr_scan"}, "lon": -77.077091, "fusion_lon": 0.0, "is_disabled": 0, "lat": 38.9438865, "bike_id": "9940bf0bf23f55b419e4192331001113", "name": "9940bf0bf23f55b419e4192331001113", "is_reserved": 0, "fusion_lat": 0.0}, {"type": "electric_bike", "rental_uris": {"ios": "https://dc.lft.to/lastmile_qr_scan", "android": "https://dc.lft.to/lastmile_qr_scan"}, "lon": -77.04927866666667, "fusion_lon": 0.0, "is_disabled": 0, "lat": 39.0293525, "bike_id": "b5b30910758c6b86833d8bf8201efd09", "name": "b5b30910758c6b86833d8bf8201efd09", "is_reserved": 0, "fusion_lat": 0.0}, {"type": "electric_scooter", "rental_uris": {"ios": "https://dc.lft.to/lastmile_qr_scan", "android": "https://dc.lft.to/lastmile_qr_scan"}, "lon": -77.03661383333333, "fusion_lon": 0.0, "is_disabled": 0, "lat": 38.922801, "bike_id": "bca4cdad0fe1d8d4ed0ec0ed00285b47", "name": "bca4cdad0fe1d8d4ed0ec0ed00285b47", "is_reserved": 0, "fusion_lat": 0.0}, {"type": "electric_bike", "rental_uris": {"ios": "https://dc.lft.to/lastmile_qr_scan", "android": "https://dc.lft.to/lastmile_qr_scan"}, "lon": -77.1078535, "fusion_lon": 0.0, "is_disabled": 0, "lat": 38.892214, "bike_id": "9222d048ace0af17b13cd977a911d7de", "name": "9222d048ace0af17b13cd977a911d7de", "is_reserved": 0, "fusion_lat": 0.0}, {"type": "electric_scooter", "rental_uris": {"ios": "https://dc.lft.to/lastmile_qr_scan", "android": "https://dc.lft.to/lastmile_qr_scan"}, "lon": -77.05765366666667, "fusion_lon": 0.0, "is_disabled": 0, "lat": 38.92382116666667, "bike_id": "debd8d04fe9f28e249c2599b96e11d8b", "name": "debd8d04fe9f28e249c2599b96e11d8b", "is_reserved": 0, "fusion_lat": 0.0}, {"type": "electric_scooter", "rental_uris": {"ios": "https://dc.lft.to/lastmile_qr_scan", "android": "https://dc.lft.to/lastmile_qr_scan"}, "lon": -76.99937816666667, "fusion_lon": 0.0, "is_disabled": 0, "lat": 38.8897655, "bike_id": "b0a05c30c8573e5de5a2e3f2f508b44f", "name": "b0a05c30c8573e5de5a2e3f2f508b44f", "is_reserved": 0, "fusion_lat": 0.0}, {"type": "electric_scooter", "rental_uris": {"ios": "https://dc.lft.to/lastmile_qr_scan", "android": "https://dc.lft.to/lastmile_qr_scan"}, "lon": -76.9858135, "fusion_lon": 0.0, "is_disabled": 0, "lat": 38.8545115, "bike_id": "577fccb8316c0f49d590b98ed3c837d2", "name": "577fccb8316c0f49d590b98ed3c837d2", "is_reserved": 0, "fusion_lat": 0.0}, {"type": "electric_scooter", "rental_uris": {"ios": "https://dc.lft.to/lastmile_qr_scan", "android": "https://dc.lft.to/lastmile_qr_scan"}, "lon": -77.0138865, "fusion_lon": 0.0, "is_disabled": 0, "lat": 38.88669216666667, "bike_id": "f163b08000d514dca7689842354a6632", "name": "f163b08000d514dca7689842354a6632", "is_reserved": 0, "fusion_lat": 0.0}, {"type": "electric_scooter", "rental_uris": {"ios": "https://dc.lft.to/lastmile_qr_scan", "android": "https://dc.lft.to/lastmile_qr_scan"}, "lon": -77.0200065, "fusion_lon": 0.0, "is_disabled": 0, "lat": 38.92413766666667, "bike_id": "3aa3dce3e63d7e93c129b7dd8a675ca1", "name": "3aa3dce3e63d7e93c129b7dd8a675ca1", "is_reserved": 0, "fusion_lat": 0.0}, {"type": "electric_scooter", "rental_uris": {"ios": "https://dc.lft.to/lastmile_qr_scan", "android": "https://dc.lft.to/lastmile_qr_scan"}, "lon": -77.036615, "fusion_lon": 0.0, "is_disabled": 0, "lat": 38.92252916666666, "bike_id": "a56beca72c5bf9ea71bd4f50ab7fb0f8", "name": "a56beca72c5bf9ea71bd4f50ab7fb0f8", "is_reserved": 0, "fusion_lat": 0.0}, {"type": "electric_scooter", "rental_uris": {"ios": "https://dc.lft.to/lastmile_qr_scan", "android": "https://dc.lft.to/lastmile_qr_scan"}, "lon": -77.02242083333333, "fusion_lon": 0.0, "is_disabled": 0, "lat": 38.878676666666664, "bike_id": "b70f2eb9e483110856f627dcfc7d8793", "name": "b70f2eb9e483110856f627dcfc7d8793", "is_reserved": 0, "fusion_lat": 0.0}, {"type": "electric_scooter", "rental_uris": {"ios": "https://dc.lft.to/lastmile_qr_scan", "android": "https://dc.lft.to/lastmile_qr_scan"}, "lon": -77.04363266666667, "fusion_lon": 0.0, "is_disabled": 0, "lat": 38.902567, "bike_id": "c1f174587587356b14789d4d6a14a444", "name": "c1f174587587356b14789d4d6a14a444", "is_reserved": 0, "fusion_lat": 0.0}, {"type": "electric_scooter", "rental_uris": {"ios": "https://dc.lft.to/lastmile_qr_scan", "android": "https://dc.lft.to/lastmile_qr_scan"}, "lon": -76.96529833333334, "fusion_lon": 0.0, "is_disabled": 0, "lat": 38.87629833333333, "bike_id": "c7207361535301abdb42780c3e6475ba", "name": "c7207361535301abdb42780c3e6475ba", "is_reserved": 0, "fusion_lat": 0.0}, {"type": "electric_bike", "rental_uris": {"ios": "https://dc.lft.to/lastmile_qr_scan", "android": "https://dc.lft.to/lastmile_qr_scan"}, "lon": -77.033455, "fusion_lon": 0.0, "is_disabled": 0, "lat": 38.96940216666667, "bike_id": "0b637d80cc69a5d1c3e39c074c372fbd", "name": "0b637d80cc69a5d1c3e39c074c372fbd", "is_reserved": 0, "fusion_lat": 0.0}, {"type": "electric_scooter", "rental_uris": {"ios": "https://dc.lft.to/lastmile_qr_scan", "android": "https://dc.lft.to/lastmile_qr_scan"}, "lon": -76.9314265, "fusion_lon": 0.0, "is_disabled": 0, "lat": 38.89340833333333, "bike_id": "9b554a7616ab39ff3bd5ca27bcda3971", "name": "9b554a7616ab39ff3bd5ca27bcda3971", "is_reserved": 0, "fusion_lat": 0.0}, {"type": "electric_scooter", "rental_uris": {"ios": "https://dc.lft.to/lastmile_qr_scan", "android": "https://dc.lft.to/lastmile_qr_scan"}, "lon": -77.004505, "fusion_lon": 0.0, "is_disabled": 0, "lat": 38.9113535, "bike_id": "c8cd7f2be71cdfe3fb7b4b723d9334c5", "name": "c8cd7f2be71cdfe3fb7b4b723d9334c5", "is_reserved": 0, "fusion_lat": 0.0}, {"type": "electric_scooter", "rental_uris": {"ios": "https://dc.lft.to/lastmile_qr_scan", "android": "https://dc.lft.to/lastmile_qr_scan"}, "lon": -77.00577383333334, "fusion_lon": 0.0, "is_disabled": 0, "lat": 38.90883616666667, "bike_id": "cc9312e0ffb76bf2992e100149f90e96", "name": "cc9312e0ffb76bf2992e100149f90e96", "is_reserved": 0, "fusion_lat": 0.0}, {"type": "electric_scooter", "rental_uris": {"ios": "https://dc.lft.to/lastmile_qr_scan", "android": "https://dc.lft.to/lastmile_qr_scan"}, "lon": -77.00578466666667, "fusion_lon": 0.0, "is_disabled": 0, "lat": 38.906425, "bike_id": "e53caf2080f1dbfe39ad28025a9cb520", "name": "e53caf2080f1dbfe39ad28025a9cb520", "is_reserved": 0, "fusion_lat": 0.0}, {"type": "electric_scooter", "rental_uris": {"ios": "https://dc.lft.to/lastmile_qr_scan", "android": "https://dc.lft.to/lastmile_qr_scan"}, "lon": -77.02171316666667, "fusion_lon": 0.0, "is_disabled": 0, "lat": 38.94293066666667, "bike_id": "fc867727d9c38f966626596b60bdc73a", "name": "fc867727d9c38f966626596b60bdc73a", "is_reserved": 0, "fusion_lat": 0.0}, {"type": "electric_scooter", "rental_uris": {"ios": "https://dc.lft.to/lastmile_qr_scan", "android": "https://dc.lft.to/lastmile_qr_scan"}, "lon": -77.02317066666667, "fusion_lon": 0.0, "is_disabled": 0, "lat": 38.9021395, "bike_id": "9794b252acd95185eb4f467689983739", "name": "9794b252acd95185eb4f467689983739", "is_reserved": 0, "fusion_lat": 0.0}, {"type": "electric_bike", "rental_uris": {"ios": "https://dc.lft.to/lastmile_qr_scan", "android": "https://dc.lft.to/lastmile_qr_scan"}, "lon": -77.02629383333333, "fusion_lon": 0.0, "is_disabled": 0, "lat": 38.96225116666667, "bike_id": "99d11ca416924af3d07039ffe1db74e2", "name": "99d11ca416924af3d07039ffe1db74e2", "is_reserved": 0, "fusion_lat": 0.0}, {"type": "electric_scooter", "rental_uris": {"ios": "https://dc.lft.to/lastmile_qr_scan", "android": "https://dc.lft.to/lastmile_qr_scan"}, "lon": -77.03425733333333, "fusion_lon": 0.0, "is_disabled": 0, "lat": 38.9354745, "bike_id": "f4181a9648b7fe790dfb823755e6c73e", "name": "f4181a9648b7fe790dfb823755e6c73e", "is_reserved": 0, "fusion_lat": 0.0}, {"type": "electric_scooter", "rental_uris": {"ios": "https://dc.lft.to/lastmile_qr_scan", "android": "https://dc.lft.to/lastmile_qr_scan"}, "lon": -77.026499, "fusion_lon": 0.0, "is_disabled": 0, "lat": 38.92485816666667, "bike_id": "2b8dc2f3b38cf4e758bdeeed91757fa2", "name": "2b8dc2f3b38cf4e758bdeeed91757fa2", "is_reserved": 0, "fusion_lat": 0.0}, {"type": "electric_scooter", "rental_uris": {"ios": "https://dc.lft.to/lastmile_qr_scan", "android": "https://dc.lft.to/lastmile_qr_scan"}, "lon": -77.0395625, "fusion_lon": 0.0, "is_disabled": 0, "lat": 38.898915833333334, "bike_id": "08260dae285fc6869b87687a347e2e38", "name": "08260dae285fc6869b87687a347e2e38", "is_reserved": 0, "fusion_lat": 0.0}, {"type": "electric_scooter", "rental_uris": {"ios": "https://dc.lft.to/lastmile_qr_scan", "android": "https://dc.lft.to/lastmile_qr_scan"}, "lon": -77.04002666666666, "fusion_lon": 0.0, "is_disabled": 0, "lat": 38.91419066666667, "bike_id": "2effe3218c5c0f321245122c9af657ec", "name": "2effe3218c5c0f321245122c9af657ec", "is_reserved": 0, "fusion_lat": 0.0}, {"type": "electric_scooter", "rental_uris": {"ios": "https://dc.lft.to/lastmile_qr_scan", "android": "https://dc.lft.to/lastmile_qr_scan"}, "lon": -76.98686883333333, "fusion_lon": 0.0, "is_disabled": 0, "lat": 38.867218333333334, "bike_id": "5333c59110ed0289df0686dea16e2d41", "name": "5333c59110ed0289df0686dea16e2d41", "is_reserved": 0, "fusion_lat": 0.0}, {"type": "electric_scooter", "rental_uris": {"ios": "https://dc.lft.to/lastmile_qr_scan", "android": "https://dc.lft.to/lastmile_qr_scan"}, "lon": -77.0394085, "fusion_lon": 0.0, "is_disabled": 0, "lat": 38.91567533333333, "bike_id": "ea0ce1911e0af41e1a5ed6ac5b9e6aa3", "name": "ea0ce1911e0af41e1a5ed6ac5b9e6aa3", "is_reserved": 0, "fusion_lat": 0.0}, {"type": "electric_scooter", "rental_uris": {"ios": "https://dc.lft.to/lastmile_qr_scan", "android": "https://dc.lft.to/lastmile_qr_scan"}, "lon": -76.97742533333333, "fusion_lon": 0.0, "is_disabled": 0, "lat": 38.86835466666667, "bike_id": "c7853168e1773ad4de2a1fa4f9ac99a9", "name": "c7853168e1773ad4de2a1fa4f9ac99a9", "is_reserved": 0, "fusion_lat": 0.0}, {"type": "electric_scooter", "rental_uris": {"ios": "https://dc.lft.to/lastmile_qr_scan", "android": "https://dc.lft.to/lastmile_qr_scan"}, "lon": -77.017619, "fusion_lon": 0.0, "is_disabled": 0, "lat": 38.876735833333335, "bike_id": "b06c37c9b2670802eb8f8db233302ef7", "name": "b06c37c9b2670802eb8f8db233302ef7", "is_reserved": 0, "fusion_lat": 0.0}, {"type": "electric_scooter", "rental_uris": {"ios": "https://dc.lft.to/lastmile_qr_scan", "android": "https://dc.lft.to/lastmile_qr_scan"}, "lon": -77.03169133333333, "fusion_lon": 0.0, "is_disabled": 0, "lat": 38.897796, "bike_id": "48990b5995d915bacb2b792594449bb5", "name": "48990b5995d915bacb2b792594449bb5", "is_reserved": 0, "fusion_lat": 0.0}, {"type": "electric_scooter", "rental_uris": {"ios": "https://dc.lft.to/lastmile_qr_scan", "android": "https://dc.lft.to/lastmile_qr_scan"}, "lon": -77.03159983333333, "fusion_lon": 0.0, "is_disabled": 0, "lat": 38.89217633333333, "bike_id": "01c7cced8939d1ac766e587a4cff1412", "name": "01c7cced8939d1ac766e587a4cff1412", "is_reserved": 0, "fusion_lat": 0.0}, {"type": "electric_bike", "rental_uris": {"ios": "https://dc.lft.to/lastmile_qr_scan", "android": "https://dc.lft.to/lastmile_qr_scan"}, "lon": -77.0344765, "fusion_lon": 0.0, "is_disabled": 0, "lat": 38.92480583333333, "bike_id": "962bfe37002711bade67edf76546ff0d", "name": "962bfe37002711bade67edf76546ff0d", "is_reserved": 0, "fusion_lat": 0.0}, {"type": "electric_scooter", "rental_uris": {"ios": "https://dc.lft.to/lastmile_qr_scan", "android": "https://dc.lft.to/lastmile_qr_scan"}, "lon": -77.0531025, "fusion_lon": 0.0, "is_disabled": 0, "lat": 38.90074533333333, "bike_id": "c1379754dfa5f408643a20586f41c32c", "name": "c1379754dfa5f408643a20586f41c32c", "is_reserved": 0, "fusion_lat": 0.0}, {"type": "electric_scooter", "rental_uris": {"ios": "https://dc.lft.to/lastmile_qr_scan", "android": "https://dc.lft.to/lastmile_qr_scan"}, "lon": -77.03633466666666, "fusion_lon": 0.0, "is_disabled": 0, "lat": 38.9374415, "bike_id": "89ec7202f2914611b0dd6acb526f7cd8", "name": "89ec7202f2914611b0dd6acb526f7cd8", "is_reserved": 0, "fusion_lat": 0.0}, {"type": "electric_bike", "rental_uris": {"ios": "https://dc.lft.to/lastmile_qr_scan", "android": "https://dc.lft.to/lastmile_qr_scan"}, "lon": -76.946252, "fusion_lon": 0.0, "is_disabled": 0, "lat": 38.83236383333333, "bike_id": "6f2d4fdf3e5889258002cb451c41ff9e", "name": "6f2d4fdf3e5889258002cb451c41ff9e", "is_reserved": 0, "fusion_lat": 0.0}, {"type": "electric_scooter", "rental_uris": {"ios": "https://dc.lft.to/lastmile_qr_scan", "android": "https://dc.lft.to/lastmile_qr_scan"}, "lon": -77.04653883333333, "fusion_lon": 0.0, "is_disabled": 0, "lat": 38.89242383333333, "bike_id": "7966b8fa9ee20ae0061a24f064746584", "name": "7966b8fa9ee20ae0061a24f064746584", "is_reserved": 0, "fusion_lat": 0.0}, {"type": "electric_scooter", "rental_uris": {"ios": "https://dc.lft.to/lastmile_qr_scan", "android": "https://dc.lft.to/lastmile_qr_scan"}, "lon": -77.0464735, "fusion_lon": 0.0, "is_disabled": 0, "lat": 38.896448, "bike_id": "01911b51df037b4c87df4e3f7363c64a", "name": "01911b51df037b4c87df4e3f7363c64a", "is_reserved": 0, "fusion_lat": 0.0}, {"type": "electric_scooter", "rental_uris": {"ios": "https://dc.lft.to/lastmile_qr_scan", "android": "https://dc.lft.to/lastmile_qr_scan"}, "lon": -77.04646133333334, "fusion_lon": 0.0, "is_disabled": 0, "lat": 38.8922485, "bike_id": "c7c41407fa1a6bde22644dbb62eba880", "name": "c7c41407fa1a6bde22644dbb62eba880", "is_reserved": 0, "fusion_lat": 0.0}, {"type": "electric_scooter", "rental_uris": {"ios": "https://dc.lft.to/lastmile_qr_scan", "android": "https://dc.lft.to/lastmile_qr_scan"}, "lon": -76.99516533333333, "fusion_lon": 0.0, "is_disabled": 0, "lat": 38.86257533333333, "bike_id": "7fea279a20e83c8042fe72d147fb2d42", "name": "7fea279a20e83c8042fe72d147fb2d42", "is_reserved": 0, "fusion_lat": 0.0}, {"type": "electric_scooter", "rental_uris": {"ios": "https://dc.lft.to/lastmile_qr_scan", "android": "https://dc.lft.to/lastmile_qr_scan"}, "lon": -77.02797016666666, "fusion_lon": 0.0, "is_disabled": 0, "lat": 38.898408833333335, "bike_id": "fd36dcbc1d1ec3e600639e81d3e35d35", "name": "fd36dcbc1d1ec3e600639e81d3e35d35", "is_reserved": 0, "fusion_lat": 0.0}, {"type": "electric_scooter", "rental_uris": {"ios": "https://dc.lft.to/lastmile_qr_scan", "android": "https://dc.lft.to/lastmile_qr_scan"}, "lon": -77.03180833333333, "fusion_lon": 0.0, "is_disabled": 0, "lat": 38.89228266666667, "bike_id": "0485f2d4bd52231a3838cdbad52522fc", "name": "0485f2d4bd52231a3838cdbad52522fc", "is_reserved": 0, "fusion_lat": 0.0}, {"type": "electric_scooter", "rental_uris": {"ios": "https://dc.lft.to/lastmile_qr_scan", "android": "https://dc.lft.to/lastmile_qr_scan"}, "lon": -77.034171, "fusion_lon": 0.0, "is_disabled": 0, "lat": 38.907938333333334, "bike_id": "63ae762d0984b6aa7de3461dd25783d5", "name": "63ae762d0984b6aa7de3461dd25783d5", "is_reserved": 0, "fusion_lat": 0.0}, {"type": "electric_scooter", "rental_uris": {"ios": "https://dc.lft.to/lastmile_qr_scan", "android": "https://dc.lft.to/lastmile_qr_scan"}, "lon": -77.03604583333333, "fusion_lon": 0.0, "is_disabled": 0, "lat": 38.907583833333334, "bike_id": "e973fdb7b62f7c7d8b5428962930ef96", "name": "e973fdb7b62f7c7d8b5428962930ef96", "is_reserved": 0, "fusion_lat": 0.0}, {"type": "electric_scooter", "rental_uris": {"ios": "https://dc.lft.to/lastmile_qr_scan", "android": "https://dc.lft.to/lastmile_qr_scan"}, "lon": -77.0385685, "fusion_lon": 0.0, "is_disabled": 0, "lat": 38.915474833333334, "bike_id": "fdf7cc9610783413dbcde6ac43e1c615", "name": "fdf7cc9610783413dbcde6ac43e1c615", "is_reserved": 0, "fusion_lat": 0.0}, {"type": "electric_scooter", "rental_uris": {"ios": "https://dc.lft.to/lastmile_qr_scan", "android": "https://dc.lft.to/lastmile_qr_scan"}, "lon": -77.02831266666666, "fusion_lon": 0.0, "is_disabled": 0, "lat": 38.8923155, "bike_id": "fc3fe0556c5165bfad251decb623519c", "name": "fc3fe0556c5165bfad251decb623519c", "is_reserved": 0, "fusion_lat": 0.0}, {"type": "electric_scooter", "rental_uris": {"ios": "https://dc.lft.to/lastmile_qr_scan", "android": "https://dc.lft.to/lastmile_qr_scan"}, "lon": -77.0316, "fusion_lon": 0.0, "is_disabled": 0, "lat": 38.892198666666665, "bike_id": "20bd792b43b099c530f58e89c6fae1e8", "name": "20bd792b43b099c530f58e89c6fae1e8", "is_reserved": 0, "fusion_lat": 0.0}, {"type": "electric_scooter", "rental_uris": {"ios": "https://dc.lft.to/lastmile_qr_scan", "android": "https://dc.lft.to/lastmile_qr_scan"}, "lon": -77.03415366666667, "fusion_lon": 0.0, "is_disabled": 0, "lat": 38.90985466666667, "bike_id": "6d0f13b9703ef11fd6fbdad3c8649929", "name": "6d0f13b9703ef11fd6fbdad3c8649929", "is_reserved": 0, "fusion_lat": 0.0}, {"type": "electric_scooter", "rental_uris": {"ios": "https://dc.lft.to/lastmile_qr_scan", "android": "https://dc.lft.to/lastmile_qr_scan"}, "lon": -77.05133733333334, "fusion_lon": 0.0, "is_disabled": 0, "lat": 38.9236555, "bike_id": "20ddb5bcc13934283a4297c3a2960763", "name": "20ddb5bcc13934283a4297c3a2960763", "is_reserved": 0, "fusion_lat": 0.0}, {"type": "electric_scooter", "rental_uris": {"ios": "https://dc.lft.to/lastmile_qr_scan", "android": "https://dc.lft.to/lastmile_qr_scan"}, "lon": -77.01848533333333, "fusion_lon": 0.0, "is_disabled": 0, "lat": 38.97366266666667, "bike_id": "164294c85d30153850a0f212de1832eb", "name": "164294c85d30153850a0f212de1832eb", "is_reserved": 0, "fusion_lat": 0.0}, {"type": "electric_scooter", "rental_uris": {"ios": "https://dc.lft.to/lastmile_qr_scan", "android": "https://dc.lft.to/lastmile_qr_scan"}, "lon": -76.99497733333334, "fusion_lon": 0.0, "is_disabled": 0, "lat": 38.86243783333333, "bike_id": "3c3d83a2faf01fd5a90906654038891a", "name": "3c3d83a2faf01fd5a90906654038891a", "is_reserved": 0, "fusion_lat": 0.0}, {"type": "electric_scooter", "rental_uris": {"ios": "https://dc.lft.to/lastmile_qr_scan", "android": "https://dc.lft.to/lastmile_qr_scan"}, "lon": -77.0383495, "fusion_lon": 0.0, "is_disabled": 0, "lat": 38.911161, "bike_id": "e5f0efc374584d207efebe01e95d35c0", "name": "e5f0efc374584d207efebe01e95d35c0", "is_reserved": 0, "fusion_lat": 0.0}, {"type": "electric_scooter", "rental_uris": {"ios": "https://dc.lft.to/lastmile_qr_scan", "android": "https://dc.lft.to/lastmile_qr_scan"}, "lon": -77.02514116666667, "fusion_lon": 0.0, "is_disabled": 0, "lat": 38.9376025, "bike_id": "a7281eb8b4e9804890d899da6cccbd9e", "name": "a7281eb8b4e9804890d899da6cccbd9e", "is_reserved": 0, "fusion_lat": 0.0}, {"type": "electric_scooter", "rental_uris": {"ios": "https://dc.lft.to/lastmile_qr_scan", "android": "https://dc.lft.to/lastmile_qr_scan"}, "lon": -77.04122866666667, "fusion_lon": 0.0, "is_disabled": 0, "lat": 38.91706116666667, "bike_id": "788e8992b4602e17b79a000f6e8e54ec", "name": "788e8992b4602e17b79a000f6e8e54ec", "is_reserved": 0, "fusion_lat": 0.0}, {"type": "electric_scooter", "rental_uris": {"ios": "https://dc.lft.to/lastmile_qr_scan", "android": "https://dc.lft.to/lastmile_qr_scan"}, "lon": -77.027985, "fusion_lon": 0.0, "is_disabled": 0, "lat": 38.9073095, "bike_id": "832ec8b6fb304b050b6538f14b8b228a", "name": "832ec8b6fb304b050b6538f14b8b228a", "is_reserved": 0, "fusion_lat": 0.0}, {"type": "electric_bike", "rental_uris": {"ios": "https://dc.lft.to/lastmile_qr_scan", "android": "https://dc.lft.to/lastmile_qr_scan"}, "lon": -76.94785233333333, "fusion_lon": 0.0, "is_disabled": 0, "lat": 38.89412266666667, "bike_id": "3c8802c11f7f945cf5ed18b04891b42d", "name": "3c8802c11f7f945cf5ed18b04891b42d", "is_reserved": 0, "fusion_lat": 0.0}, {"type": "electric_scooter", "rental_uris": {"ios": "https://dc.lft.to/lastmile_qr_scan", "android": "https://dc.lft.to/lastmile_qr_scan"}, "lon": -77.0223185, "fusion_lon": 0.0, "is_disabled": 0, "lat": 38.912543666666664, "bike_id": "fc3b172f2bf59ab7e43b3121e64cef3f", "name": "fc3b172f2bf59ab7e43b3121e64cef3f", "is_reserved": 0, "fusion_lat": 0.0}, {"type": "electric_bike", "rental_uris": {"ios": "https://dc.lft.to/lastmile_qr_scan", "android": "https://dc.lft.to/lastmile_qr_scan"}, "lon": -76.99020183333333, "fusion_lon": 0.0, "is_disabled": 0, "lat": 38.954784, "bike_id": "b02360ea61180c994ccfcf77f5b060cd", "name": "b02360ea61180c994ccfcf77f5b060cd", "is_reserved": 0, "fusion_lat": 0.0}, {"type": "electric_scooter", "rental_uris": {"ios": "https://dc.lft.to/lastmile_qr_scan", "android": "https://dc.lft.to/lastmile_qr_scan"}, "lon": -76.98341116666667, "fusion_lon": 0.0, "is_disabled": 0, "lat": 38.9074875, "bike_id": "1acfbc33fba06d24bd382c4509027e27", "name": "1acfbc33fba06d24bd382c4509027e27", "is_reserved": 0, "fusion_lat": 0.0}, {"type": "electric_scooter", "rental_uris": {"ios": "https://dc.lft.to/lastmile_qr_scan", "android": "https://dc.lft.to/lastmile_qr_scan"}, "lon": -77.03427883333333, "fusion_lon": 0.0, "is_disabled": 0, "lat": 38.90728633333333, "bike_id": "794eed7bcfeb70c465eb7bd340db4a0c", "name": "794eed7bcfeb70c465eb7bd340db4a0c", "is_reserved": 0, "fusion_lat": 0.0}, {"type": "electric_bike", "rental_uris": {"ios": "https://dc.lft.to/lastmile_qr_scan", "android": "https://dc.lft.to/lastmile_qr_scan"}, "lon": -76.96262266666666, "fusion_lon": 0.0, "is_disabled": 0, "lat": 38.88245, "bike_id": "47ea338a2370a4d1c482443e86a73edd", "name": "47ea338a2370a4d1c482443e86a73edd", "is_reserved": 0, "fusion_lat": 0.0}, {"type": "electric_bike", "rental_uris": {"ios": "https://dc.lft.to/lastmile_qr_scan", "android": "https://dc.lft.to/lastmile_qr_scan"}, "lon": -77.00681683333333, "fusion_lon": 0.0, "is_disabled": 0, "lat": 38.945181833333336, "bike_id": "2f2df759f787f03913d41a0234168876", "name": "2f2df759f787f03913d41a0234168876", "is_reserved": 0, "fusion_lat": 0.0}, {"type": "electric_scooter", "rental_uris": {"ios": "https://dc.lft.to/lastmile_qr_scan", "android": "https://dc.lft.to/lastmile_qr_scan"}, "lon": -77.04386366666667, "fusion_lon": 0.0, "is_disabled": 0, "lat": 38.910717, "bike_id": "06500351fadbf2699bc2509f3ddcee95", "name": "06500351fadbf2699bc2509f3ddcee95", "is_reserved": 0, "fusion_lat": 0.0}, {"type": "electric_scooter", "rental_uris": {"ios": "https://dc.lft.to/lastmile_qr_scan", "android": "https://dc.lft.to/lastmile_qr_scan"}, "lon": -77.0385735, "fusion_lon": 0.0, "is_disabled": 0, "lat": 38.867537, "bike_id": "c0d59bd0243d2b43ae19e46a41806ae8", "name": "c0d59bd0243d2b43ae19e46a41806ae8", "is_reserved": 0, "fusion_lat": 0.0}, {"type": "electric_scooter", "rental_uris": {"ios": "https://dc.lft.to/lastmile_qr_scan", "android": "https://dc.lft.to/lastmile_qr_scan"}, "lon": -76.9541525, "fusion_lon": 0.0, "is_disabled": 0, "lat": 38.89065866666667, "bike_id": "28bef91415cbb5199ff75ca7dc2c8f78", "name": "28bef91415cbb5199ff75ca7dc2c8f78", "is_reserved": 0, "fusion_lat": 0.0}, {"type": "electric_scooter", "rental_uris": {"ios": "https://dc.lft.to/lastmile_qr_scan", "android": "https://dc.lft.to/lastmile_qr_scan"}, "lon": -77.04440066666666, "fusion_lon": 0.0, "is_disabled": 0, "lat": 38.91257183333333, "bike_id": "37f83b9368ba667a7021a60af4a00a05", "name": "37f83b9368ba667a7021a60af4a00a05", "is_reserved": 0, "fusion_lat": 0.0}, {"type": "electric_scooter", "rental_uris": {"ios": "https://dc.lft.to/lastmile_qr_scan", "android": "https://dc.lft.to/lastmile_qr_scan"}, "lon": -77.02958783333334, "fusion_lon": 0.0, "is_disabled": 0, "lat": 38.92595433333334, "bike_id": "729cd2fbc9fb4897e08b1aadbafacff1", "name": "729cd2fbc9fb4897e08b1aadbafacff1", "is_reserved": 0, "fusion_lat": 0.0}, {"type": "electric_bike", "rental_uris": {"ios": "https://dc.lft.to/lastmile_qr_scan", "android": "https://dc.lft.to/lastmile_qr_scan"}, "lon": -76.97832, "fusion_lon": 0.0, "is_disabled": 0, "lat": 38.87071816666667, "bike_id": "aadc0882d560f560ead8199ce0b4b398", "name": "aadc0882d560f560ead8199ce0b4b398", "is_reserved": 0, "fusion_lat": 0.0}, {"type": "electric_scooter", "rental_uris": {"ios": "https://dc.lft.to/lastmile_qr_scan", "android": "https://dc.lft.to/lastmile_qr_scan"}, "lon": -77.006103, "fusion_lon": 0.0, "is_disabled": 0, "lat": 38.87183516666666, "bike_id": "9b4d7012902145bd3790b18ef4a000c3", "name": "9b4d7012902145bd3790b18ef4a000c3", "is_reserved": 0, "fusion_lat": 0.0}, {"type": "electric_scooter", "rental_uris": {"ios": "https://dc.lft.to/lastmile_qr_scan", "android": "https://dc.lft.to/lastmile_qr_scan"}, "lon": -77.03134850000001, "fusion_lon": 0.0, "is_disabled": 0, "lat": 38.92042583333333, "bike_id": "e1d1b6dd5a967835baea8414ea5b684a", "name": "e1d1b6dd5a967835baea8414ea5b684a", "is_reserved": 0, "fusion_lat": 0.0}, {"type": "electric_scooter", "rental_uris": {"ios": "https://dc.lft.to/lastmile_qr_scan", "android": "https://dc.lft.to/lastmile_qr_scan"}, "lon": -77.03913116666666, "fusion_lon": 0.0, "is_disabled": 0, "lat": 38.918135, "bike_id": "405ebf4b98df72e43bc364aa4331a2f1", "name": "405ebf4b98df72e43bc364aa4331a2f1", "is_reserved": 0, "fusion_lat": 0.0}, {"type": "electric_scooter", "rental_uris": {"ios": "https://dc.lft.to/lastmile_qr_scan", "android": "https://dc.lft.to/lastmile_qr_scan"}, "lon": -77.028347, "fusion_lon": 0.0, "is_disabled": 0, "lat": 38.93281183333333, "bike_id": "96c11ecd9e067367eee2e269ce3f44f2", "name": "96c11ecd9e067367eee2e269ce3f44f2", "is_reserved": 0, "fusion_lat": 0.0}, {"type": "electric_scooter", "rental_uris": {"ios": "https://dc.lft.to/lastmile_qr_scan", "android": "https://dc.lft.to/lastmile_qr_scan"}, "lon": -77.0768155, "fusion_lon": 0.0, "is_disabled": 0, "lat": 38.94228733333333, "bike_id": "e6a984b3f673d88592b27a7536cf98bc", "name": "e6a984b3f673d88592b27a7536cf98bc", "is_reserved": 0, "fusion_lat": 0.0}, {"type": "electric_scooter", "rental_uris": {"ios": "https://dc.lft.to/lastmile_qr_scan", "android": "https://dc.lft.to/lastmile_qr_scan"}, "lon": -77.03190433333333, "fusion_lon": 0.0, "is_disabled": 0, "lat": 38.892257, "bike_id": "181d53fb3720598bb21c84422b763e2c", "name": "181d53fb3720598bb21c84422b763e2c", "is_reserved": 0, "fusion_lat": 0.0}, {"type": "electric_scooter", "rental_uris": {"ios": "https://dc.lft.to/lastmile_qr_scan", "android": "https://dc.lft.to/lastmile_qr_scan"}, "lon": -77.0233235, "fusion_lon": 0.0, "is_disabled": 0, "lat": 38.917762833333335, "bike_id": "25d87464ae5826d7e056dd4e7211c828", "name": "25d87464ae5826d7e056dd4e7211c828", "is_reserved": 0, "fusion_lat": 0.0}, {"type": "electric_scooter", "rental_uris": {"ios": "https://dc.lft.to/lastmile_qr_scan", "android": "https://dc.lft.to/lastmile_qr_scan"}, "lon": -77.03660316666667, "fusion_lon": 0.0, "is_disabled": 0, "lat": 38.920273333333334, "bike_id": "25eb3ef649bfb5f422f5b0e9cc100328", "name": "25eb3ef649bfb5f422f5b0e9cc100328", "is_reserved": 0, "fusion_lat": 0.0}, {"type": "electric_scooter", "rental_uris": {"ios": "https://dc.lft.to/lastmile_qr_scan", "android": "https://dc.lft.to/lastmile_qr_scan"}, "lon": -77.049053, "fusion_lon": 0.0, "is_disabled": 0, "lat": 38.900837333333335, "bike_id": "e1bf371bc5aac6f69fb3aff740855884", "name": "e1bf371bc5aac6f69fb3aff740855884", "is_reserved": 0, "fusion_lat": 0.0}, {"type": "electric_scooter", "rental_uris": {"ios": "https://dc.lft.to/lastmile_qr_scan", "android": "https://dc.lft.to/lastmile_qr_scan"}, "lon": -76.99033283333333, "fusion_lon": 0.0, "is_disabled": 0, "lat": 38.891447, "bike_id": "34675c35a1acc6d830c9ef504c46c241", "name": "34675c35a1acc6d830c9ef504c46c241", "is_reserved": 0, "fusion_lat": 0.0}, {"type": "electric_scooter", "rental_uris": {"ios": "https://dc.lft.to/lastmile_qr_scan", "android": "https://dc.lft.to/lastmile_qr_scan"}, "lon": -77.04075583333334, "fusion_lon": 0.0, "is_disabled": 0, "lat": 38.914192666666665, "bike_id": "1fdbf73755d574ce7ea9eeccab2cec2a", "name": "1fdbf73755d574ce7ea9eeccab2cec2a", "is_reserved": 0, "fusion_lat": 0.0}, {"type": "electric_scooter", "rental_uris": {"ios": "https://dc.lft.to/lastmile_qr_scan", "android": "https://dc.lft.to/lastmile_qr_scan"}, "lon": -77.04684583333334, "fusion_lon": 0.0, "is_disabled": 0, "lat": 38.91582533333333, "bike_id": "9eb7044695126608c183d1547c0579d8", "name": "9eb7044695126608c183d1547c0579d8", "is_reserved": 0, "fusion_lat": 0.0}, {"type": "electric_scooter", "rental_uris": {"ios": "https://dc.lft.to/lastmile_qr_scan", "android": "https://dc.lft.to/lastmile_qr_scan"}, "lon": -77.02979833333333, "fusion_lon": 0.0, "is_disabled": 0, "lat": 38.915681166666666, "bike_id": "15633decfeccd7f557cd9b80852a583b", "name": "15633decfeccd7f557cd9b80852a583b", "is_reserved": 0, "fusion_lat": 0.0}, {"type": "electric_bike", "rental_uris": {"ios": "https://dc.lft.to/lastmile_qr_scan", "android": "https://dc.lft.to/lastmile_qr_scan"}, "lon": -77.11724833333334, "fusion_lon": 0.0, "is_disabled": 0, "lat": 39.054578166666666, "bike_id": "26fc70d7aa290d78e177be268482f7a3", "name": "26fc70d7aa290d78e177be268482f7a3", "is_reserved": 0, "fusion_lat": 0.0}, {"type": "electric_scooter", "rental_uris": {"ios": "https://dc.lft.to/lastmile_qr_scan", "android": "https://dc.lft.to/lastmile_qr_scan"}, "lon": -77.0434395, "fusion_lon": 0.0, "is_disabled": 0, "lat": 38.9080345, "bike_id": "b200fea1205340c976aa9057f0c48845", "name": "b200fea1205340c976aa9057f0c48845", "is_reserved": 0, "fusion_lat": 0.0}, {"type": "electric_scooter", "rental_uris": {"ios": "https://dc.lft.to/lastmile_qr_scan", "android": "https://dc.lft.to/lastmile_qr_scan"}, "lon": -77.032204, "fusion_lon": 0.0, "is_disabled": 0, "lat": 38.89223633333334, "bike_id": "1f3d4b1976eeaae8344dc06a63fa79a4", "name": "1f3d4b1976eeaae8344dc06a63fa79a4", "is_reserved": 0, "fusion_lat": 0.0}, {"type": "electric_scooter", "rental_uris": {"ios": "https://dc.lft.to/lastmile_qr_scan", "android": "https://dc.lft.to/lastmile_qr_scan"}, "lon": -77.02221116666666, "fusion_lon": 0.0, "is_disabled": 0, "lat": 38.89220516666666, "bike_id": "d6ab6d23714dcdc7b508d7acecfc88fb", "name": "d6ab6d23714dcdc7b508d7acecfc88fb", "is_reserved": 0, "fusion_lat": 0.0}, {"type": "electric_scooter", "rental_uris": {"ios": "https://dc.lft.to/lastmile_qr_scan", "android": "https://dc.lft.to/lastmile_qr_scan"}, "lon": -77.00217883333333, "fusion_lon": 0.0, "is_disabled": 0, "lat": 38.900296166666664, "bike_id": "64da0bbbd68723aeb9c8c715c7888cac", "name": "64da0bbbd68723aeb9c8c715c7888cac", "is_reserved": 0, "fusion_lat": 0.0}, {"type": "electric_scooter", "rental_uris": {"ios": "https://dc.lft.to/lastmile_qr_scan", "android": "https://dc.lft.to/lastmile_qr_scan"}, "lon": -77.03218966666667, "fusion_lon": 0.0, "is_disabled": 0, "lat": 38.892199, "bike_id": "2a3cb7e7b66f9d904fdf86a8bebd8413", "name": "2a3cb7e7b66f9d904fdf86a8bebd8413", "is_reserved": 0, "fusion_lat": 0.0}, {"type": "electric_scooter", "rental_uris": {"ios": "https://dc.lft.to/lastmile_qr_scan", "android": "https://dc.lft.to/lastmile_qr_scan"}, "lon": -77.02160216666667, "fusion_lon": 0.0, "is_disabled": 0, "lat": 38.93972683333333, "bike_id": "550613b6c555be85539817d9729ffa77", "name": "550613b6c555be85539817d9729ffa77", "is_reserved": 0, "fusion_lat": 0.0}, {"type": "electric_scooter", "rental_uris": {"ios": "https://dc.lft.to/lastmile_qr_scan", "android": "https://dc.lft.to/lastmile_qr_scan"}, "lon": -77.02855433333333, "fusion_lon": 0.0, "is_disabled": 0, "lat": 38.925799, "bike_id": "6b287fca95a7890ac0a7dd4f7a9c4bea", "name": "6b287fca95a7890ac0a7dd4f7a9c4bea", "is_reserved": 0, "fusion_lat": 0.0}, {"type": "electric_scooter", "rental_uris": {"ios": "https://dc.lft.to/lastmile_qr_scan", "android": "https://dc.lft.to/lastmile_qr_scan"}, "lon": -77.02886983333333, "fusion_lon": 0.0, "is_disabled": 0, "lat": 38.90730116666667, "bike_id": "52a2deed8fa5404d045fef3c58b212b5", "name": "52a2deed8fa5404d045fef3c58b212b5", "is_reserved": 0, "fusion_lat": 0.0}, {"type": "electric_scooter", "rental_uris": {"ios": "https://dc.lft.to/lastmile_qr_scan", "android": "https://dc.lft.to/lastmile_qr_scan"}, "lon": -77.0209745, "fusion_lon": 0.0, "is_disabled": 0, "lat": 38.91085366666667, "bike_id": "dfdf1cd4f02993bca5e574700ec016d3", "name": "dfdf1cd4f02993bca5e574700ec016d3", "is_reserved": 0, "fusion_lat": 0.0}, {"type": "electric_scooter", "rental_uris": {"ios": "https://dc.lft.to/lastmile_qr_scan", "android": "https://dc.lft.to/lastmile_qr_scan"}, "lon": -77.04684583333334, "fusion_lon": 0.0, "is_disabled": 0, "lat": 38.89740233333333, "bike_id": "af3789151d2714bd8592aa3e7fa3fea2", "name": "af3789151d2714bd8592aa3e7fa3fea2", "is_reserved": 0, "fusion_lat": 0.0}, {"type": "electric_scooter", "rental_uris": {"ios": "https://dc.lft.to/lastmile_qr_scan", "android": "https://dc.lft.to/lastmile_qr_scan"}, "lon": -77.00309283333333, "fusion_lon": 0.0, "is_disabled": 0, "lat": 38.92487583333333, "bike_id": "5387d5387e5bc7f4f14d81098ecdafb6", "name": "5387d5387e5bc7f4f14d81098ecdafb6", "is_reserved": 0, "fusion_lat": 0.0}, {"type": "electric_scooter", "rental_uris": {"ios": "https://dc.lft.to/lastmile_qr_scan", "android": "https://dc.lft.to/lastmile_qr_scan"}, "lon": -76.98610766666667, "fusion_lon": 0.0, "is_disabled": 0, "lat": 38.880081833333335, "bike_id": "a467c143aba32283856f6e6b2f1e0f7f", "name": "a467c143aba32283856f6e6b2f1e0f7f", "is_reserved": 0, "fusion_lat": 0.0}, {"type": "electric_scooter", "rental_uris": {"ios": "https://dc.lft.to/lastmile_qr_scan", "android": "https://dc.lft.to/lastmile_qr_scan"}, "lon": -76.953362, "fusion_lon": 0.0, "is_disabled": 0, "lat": 38.89237816666667, "bike_id": "062e4120d2556e8a8df54661c1168ec1", "name": "062e4120d2556e8a8df54661c1168ec1", "is_reserved": 0, "fusion_lat": 0.0}, {"type": "electric_scooter", "rental_uris": {"ios": "https://dc.lft.to/lastmile_qr_scan", "android": "https://dc.lft.to/lastmile_qr_scan"}, "lon": -77.04177583333333, "fusion_lon": 0.0, "is_disabled": 0, "lat": 38.9172995, "bike_id": "09d9b36fc56171ceb3af91027d3a12cc", "name": "09d9b36fc56171ceb3af91027d3a12cc", "is_reserved": 0, "fusion_lat": 0.0}, {"type": "electric_scooter", "rental_uris": {"ios": "https://dc.lft.to/lastmile_qr_scan", "android": "https://dc.lft.to/lastmile_qr_scan"}, "lon": -77.02180083333333, "fusion_lon": 0.0, "is_disabled": 0, "lat": 38.8987385, "bike_id": "decc0e57adb3a494d5ed0a8144d04675", "name": "decc0e57adb3a494d5ed0a8144d04675", "is_reserved": 0, "fusion_lat": 0.0}, {"type": "electric_scooter", "rental_uris": {"ios": "https://dc.lft.to/lastmile_qr_scan", "android": "https://dc.lft.to/lastmile_qr_scan"}, "lon": -77.04158166666667, "fusion_lon": 0.0, "is_disabled": 0, "lat": 38.915983833333335, "bike_id": "4b3929b9a44c3f1a290019e44fafb052", "name": "4b3929b9a44c3f1a290019e44fafb052", "is_reserved": 0, "fusion_lat": 0.0}, {"type": "electric_scooter", "rental_uris": {"ios": "https://dc.lft.to/lastmile_qr_scan", "android": "https://dc.lft.to/lastmile_qr_scan"}, "lon": -77.0135385, "fusion_lon": 0.0, "is_disabled": 0, "lat": 38.864256, "bike_id": "aba026ff81923d617a697a011929c377", "name": "aba026ff81923d617a697a011929c377", "is_reserved": 0, "fusion_lat": 0.0}, {"type": "electric_scooter", "rental_uris": {"ios": "https://dc.lft.to/lastmile_qr_scan", "android": "https://dc.lft.to/lastmile_qr_scan"}, "lon": -77.0358985, "fusion_lon": 0.0, "is_disabled": 0, "lat": 38.93747166666667, "bike_id": "f1be018aa965a2f50d8be33cc3de360e", "name": "f1be018aa965a2f50d8be33cc3de360e", "is_reserved": 0, "fusion_lat": 0.0}, {"type": "electric_scooter", "rental_uris": {"ios": "https://dc.lft.to/lastmile_qr_scan", "android": "https://dc.lft.to/lastmile_qr_scan"}, "lon": -77.04060466666667, "fusion_lon": 0.0, "is_disabled": 0, "lat": 38.91281133333333, "bike_id": "4d7ad501f4b52d2f7b70cf32e982bc54", "name": "4d7ad501f4b52d2f7b70cf32e982bc54", "is_reserved": 0, "fusion_lat": 0.0}, {"type": "electric_scooter", "rental_uris": {"ios": "https://dc.lft.to/lastmile_qr_scan", "android": "https://dc.lft.to/lastmile_qr_scan"}, "lon": -77.0213045, "fusion_lon": 0.0, "is_disabled": 0, "lat": 38.88745683333333, "bike_id": "a4afdbaaa47c3bf89e303f4a8efe9bcb", "name": "a4afdbaaa47c3bf89e303f4a8efe9bcb", "is_reserved": 0, "fusion_lat": 0.0}, {"type": "electric_scooter", "rental_uris": {"ios": "https://dc.lft.to/lastmile_qr_scan", "android": "https://dc.lft.to/lastmile_qr_scan"}, "lon": -77.023214, "fusion_lon": 0.0, "is_disabled": 0, "lat": 38.892223666666666, "bike_id": "c13c4569c6f0b80731d2c3a7bc2984ff", "name": "c13c4569c6f0b80731d2c3a7bc2984ff", "is_reserved": 0, "fusion_lat": 0.0}, {"type": "electric_bike", "rental_uris": {"ios": "https://dc.lft.to/lastmile_qr_scan", "android": "https://dc.lft.to/lastmile_qr_scan"}, "lon": -77.20836416666667, "fusion_lon": 0.0, "is_disabled": 0, "lat": 38.92469216666667, "bike_id": "94959f807b7ecfc440f4e7237b9e0ccf", "name": "94959f807b7ecfc440f4e7237b9e0ccf", "is_reserved": 0, "fusion_lat": 0.0}, {"type": "electric_scooter", "rental_uris": {"ios": "https://dc.lft.to/lastmile_qr_scan", "android": "https://dc.lft.to/lastmile_qr_scan"}, "lon": -76.99702633333334, "fusion_lon": 0.0, "is_disabled": 0, "lat": 38.908337833333334, "bike_id": "c0ba710c93702b013be8b6e236998373", "name": "c0ba710c93702b013be8b6e236998373", "is_reserved": 0, "fusion_lat": 0.0}, {"type": "electric_scooter", "rental_uris": {"ios": "https://dc.lft.to/lastmile_qr_scan", "android": "https://dc.lft.to/lastmile_qr_scan"}, "lon": -77.03898, "fusion_lon": 0.0, "is_disabled": 0, "lat": 38.902614166666666, "bike_id": "8c6eba26cc5b8015c75fb983e41c2504", "name": "8c6eba26cc5b8015c75fb983e41c2504", "is_reserved": 0, "fusion_lat": 0.0}, {"type": "electric_scooter", "rental_uris": {"ios": "https://dc.lft.to/lastmile_qr_scan", "android": "https://dc.lft.to/lastmile_qr_scan"}, "lon": -77.03468383333333, "fusion_lon": 0.0, "is_disabled": 0, "lat": 38.908131166666664, "bike_id": "34c3ffbf7d9940db8f61bbb74a4f9ec0", "name": "34c3ffbf7d9940db8f61bbb74a4f9ec0", "is_reserved": 0, "fusion_lat": 0.0}, {"type": "electric_scooter", "rental_uris": {"ios": "https://dc.lft.to/lastmile_qr_scan", "android": "https://dc.lft.to/lastmile_qr_scan"}, "lon": -77.032296, "fusion_lon": 0.0, "is_disabled": 0, "lat": 38.921764, "bike_id": "ecdae0af15cc8dca6882a8767432053c", "name": "ecdae0af15cc8dca6882a8767432053c", "is_reserved": 0, "fusion_lat": 0.0}, {"type": "electric_bike", "rental_uris": {"ios": "https://dc.lft.to/lastmile_qr_scan", "android": "https://dc.lft.to/lastmile_qr_scan"}, "lon": -77.1265445, "fusion_lon": 0.0, "is_disabled": 0, "lat": 38.8151455, "bike_id": "fdb993c4f9b16e82b705a60680510055", "name": "fdb993c4f9b16e82b705a60680510055", "is_reserved": 0, "fusion_lat": 0.0}, {"type": "electric_scooter", "rental_uris": {"ios": "https://dc.lft.to/lastmile_qr_scan", "android": "https://dc.lft.to/lastmile_qr_scan"}, "lon": -77.03665016666666, "fusion_lon": 0.0, "is_disabled": 0, "lat": 38.922485333333334, "bike_id": "cb058410cf9941fb2f91e6eb42ed38c6", "name": "cb058410cf9941fb2f91e6eb42ed38c6", "is_reserved": 0, "fusion_lat": 0.0}, {"type": "electric_scooter", "rental_uris": {"ios": "https://dc.lft.to/lastmile_qr_scan", "android": "https://dc.lft.to/lastmile_qr_scan"}, "lon": -77.038978, "fusion_lon": 0.0, "is_disabled": 0, "lat": 38.917063666666664, "bike_id": "4b0ace671ce2eb5d7872a44077faeaad", "name": "4b0ace671ce2eb5d7872a44077faeaad", "is_reserved": 0, "fusion_lat": 0.0}, {"type": "electric_scooter", "rental_uris": {"ios": "https://dc.lft.to/lastmile_qr_scan", "android": "https://dc.lft.to/lastmile_qr_scan"}, "lon": -77.021891, "fusion_lon": 0.0, "is_disabled": 0, "lat": 38.91083666666667, "bike_id": "a7abc77e7b965bfbc4f43d489c749596", "name": "a7abc77e7b965bfbc4f43d489c749596", "is_reserved": 0, "fusion_lat": 0.0}, {"type": "electric_scooter", "rental_uris": {"ios": "https://dc.lft.to/lastmile_qr_scan", "android": "https://dc.lft.to/lastmile_qr_scan"}, "lon": -77.04002283333334, "fusion_lon": 0.0, "is_disabled": 0, "lat": 38.915614166666664, "bike_id": "6be87db684cce800f085272603605f30", "name": "6be87db684cce800f085272603605f30", "is_reserved": 0, "fusion_lat": 0.0}, {"type": "electric_bike", "rental_uris": {"ios": "https://dc.lft.to/lastmile_qr_scan", "android": "https://dc.lft.to/lastmile_qr_scan"}, "lon": -77.11299, "fusion_lon": 0.0, "is_disabled": 0, "lat": 38.831671666666665, "bike_id": "29b7c426e946f6df56222f4cea6f9403", "name": "29b7c426e946f6df56222f4cea6f9403", "is_reserved": 0, "fusion_lat": 0.0}, {"type": "electric_scooter", "rental_uris": {"ios": "https://dc.lft.to/lastmile_qr_scan", "android": "https://dc.lft.to/lastmile_qr_scan"}, "lon": -77.03240766666667, "fusion_lon": 0.0, "is_disabled": 0, "lat": 38.917041, "bike_id": "3820262f10417b37189d0d6e32408443", "name": "3820262f10417b37189d0d6e32408443", "is_reserved": 0, "fusion_lat": 0.0}, {"type": "electric_scooter", "rental_uris": {"ios": "https://dc.lft.to/lastmile_qr_scan", "android": "https://dc.lft.to/lastmile_qr_scan"}, "lon": -77.02435266666667, "fusion_lon": 0.0, "is_disabled": 0, "lat": 38.922560833333335, "bike_id": "359a38aa48d950d87130691e7d96e43e", "name": "359a38aa48d950d87130691e7d96e43e", "is_reserved": 0, "fusion_lat": 0.0}, {"type": "electric_scooter", "rental_uris": {"ios": "https://dc.lft.to/lastmile_qr_scan", "android": "https://dc.lft.to/lastmile_qr_scan"}, "lon": -77.00608566666666, "fusion_lon": 0.0, "is_disabled": 0, "lat": 38.87185916666667, "bike_id": "76f5d25b8c67d7c1d34b22eabec84d32", "name": "76f5d25b8c67d7c1d34b22eabec84d32", "is_reserved": 0, "fusion_lat": 0.0}, {"type": "electric_scooter", "rental_uris": {"ios": "https://dc.lft.to/lastmile_qr_scan", "android": "https://dc.lft.to/lastmile_qr_scan"}, "lon": -77.03867516666666, "fusion_lon": 0.0, "is_disabled": 0, "lat": 38.9096965, "bike_id": "c1a8d9a7b95bcfd855d57f6a39e349d1", "name": "c1a8d9a7b95bcfd855d57f6a39e349d1", "is_reserved": 0, "fusion_lat": 0.0}, {"type": "electric_scooter", "rental_uris": {"ios": "https://dc.lft.to/lastmile_qr_scan", "android": "https://dc.lft.to/lastmile_qr_scan"}, "lon": -77.04452766666667, "fusion_lon": 0.0, "is_disabled": 0, "lat": 38.93028066666667, "bike_id": "343398d43fca03f81939bff43229f05f", "name": "343398d43fca03f81939bff43229f05f", "is_reserved": 0, "fusion_lat": 0.0}, {"type": "electric_scooter", "rental_uris": {"ios": "https://dc.lft.to/lastmile_qr_scan", "android": "https://dc.lft.to/lastmile_qr_scan"}, "lon": -77.031645, "fusion_lon": 0.0, "is_disabled": 0, "lat": 38.892201666666665, "bike_id": "1e009b4e99af1ff381b80837dea6d7c5", "name": "1e009b4e99af1ff381b80837dea6d7c5", "is_reserved": 0, "fusion_lat": 0.0}, {"type": "electric_scooter", "rental_uris": {"ios": "https://dc.lft.to/lastmile_qr_scan", "android": "https://dc.lft.to/lastmile_qr_scan"}, "lon": -76.9898775, "fusion_lon": 0.0, "is_disabled": 0, "lat": 38.86501033333333, "bike_id": "5bc525e733475c28b870c373bb087471", "name": "5bc525e733475c28b870c373bb087471", "is_reserved": 0, "fusion_lat": 0.0}, {"type": "electric_scooter", "rental_uris": {"ios": "https://dc.lft.to/lastmile_qr_scan", "android": "https://dc.lft.to/lastmile_qr_scan"}, "lon": -77.0321045, "fusion_lon": 0.0, "is_disabled": 0, "lat": 38.91718, "bike_id": "0c5d4a5a9740cdc4e5e0bb5f4faf2221", "name": "0c5d4a5a9740cdc4e5e0bb5f4faf2221", "is_reserved": 0, "fusion_lat": 0.0}, {"type": "electric_scooter", "rental_uris": {"ios": "https://dc.lft.to/lastmile_qr_scan", "android": "https://dc.lft.to/lastmile_qr_scan"}, "lon": -77.031624, "fusion_lon": 0.0, "is_disabled": 0, "lat": 38.8922075, "bike_id": "3fc37d6155531a30eebb4673e92ecca5", "name": "3fc37d6155531a30eebb4673e92ecca5", "is_reserved": 0, "fusion_lat": 0.0}, {"type": "electric_scooter", "rental_uris": {"ios": "https://dc.lft.to/lastmile_qr_scan", "android": "https://dc.lft.to/lastmile_qr_scan"}, "lon": -77.01181, "fusion_lon": 0.0, "is_disabled": 0, "lat": 38.90267383333333, "bike_id": "1e42cc7404e810b98bc506ffc52e4ed1", "name": "1e42cc7404e810b98bc506ffc52e4ed1", "is_reserved": 0, "fusion_lat": 0.0}, {"type": "electric_scooter", "rental_uris": {"ios": "https://dc.lft.to/lastmile_qr_scan", "android": "https://dc.lft.to/lastmile_qr_scan"}, "lon": -76.93992583333333, "fusion_lon": 0.0, "is_disabled": 0, "lat": 38.899794, "bike_id": "897d8645212c762c24887254eaec63b7", "name": "897d8645212c762c24887254eaec63b7", "is_reserved": 0, "fusion_lat": 0.0}, {"type": "electric_scooter", "rental_uris": {"ios": "https://dc.lft.to/lastmile_qr_scan", "android": "https://dc.lft.to/lastmile_qr_scan"}, "lon": -77.00441583333334, "fusion_lon": 0.0, "is_disabled": 0, "lat": 38.911778, "bike_id": "0f8c5adb8c74b4b87133e3f8183d1b63", "name": "0f8c5adb8c74b4b87133e3f8183d1b63", "is_reserved": 0, "fusion_lat": 0.0}, {"type": "electric_bike", "rental_uris": {"ios": "https://dc.lft.to/lastmile_qr_scan", "android": "https://dc.lft.to/lastmile_qr_scan"}, "lon": -77.1122395, "fusion_lon": 0.0, "is_disabled": 0, "lat": 38.82874, "bike_id": "a0ea7bc341ab113130f7a2bfa5257600", "name": "a0ea7bc341ab113130f7a2bfa5257600", "is_reserved": 0, "fusion_lat": 0.0}, {"type": "electric_scooter", "rental_uris": {"ios": "https://dc.lft.to/lastmile_qr_scan", "android": "https://dc.lft.to/lastmile_qr_scan"}, "lon": -77.0698915, "fusion_lon": 0.0, "is_disabled": 0, "lat": 38.9525095, "bike_id": "fdc39c5e4f24446edf13be200b7a5412", "name": "fdc39c5e4f24446edf13be200b7a5412", "is_reserved": 0, "fusion_lat": 0.0}, {"type": "electric_scooter", "rental_uris": {"ios": "https://dc.lft.to/lastmile_qr_scan", "android": "https://dc.lft.to/lastmile_qr_scan"}, "lon": -77.01740466666666, "fusion_lon": 0.0, "is_disabled": 0, "lat": 38.92033766666667, "bike_id": "a5adab1bce98a78f734ce5855f68cf55", "name": "a5adab1bce98a78f734ce5855f68cf55", "is_reserved": 0, "fusion_lat": 0.0}, {"type": "electric_scooter", "rental_uris": {"ios": "https://dc.lft.to/lastmile_qr_scan", "android": "https://dc.lft.to/lastmile_qr_scan"}, "lon": -77.01062466666667, "fusion_lon": 0.0, "is_disabled": 0, "lat": 38.895951, "bike_id": "e2022a5cd1ac1dd461889d81073764c4", "name": "e2022a5cd1ac1dd461889d81073764c4", "is_reserved": 0, "fusion_lat": 0.0}, {"type": "electric_scooter", "rental_uris": {"ios": "https://dc.lft.to/lastmile_qr_scan", "android": "https://dc.lft.to/lastmile_qr_scan"}, "lon": -77.0321215, "fusion_lon": 0.0, "is_disabled": 0, "lat": 38.895749, "bike_id": "9e66915edf7d89a88e2e653d4818ec3a", "name": "9e66915edf7d89a88e2e653d4818ec3a", "is_reserved": 0, "fusion_lat": 0.0}, {"type": "electric_scooter", "rental_uris": {"ios": "https://dc.lft.to/lastmile_qr_scan", "android": "https://dc.lft.to/lastmile_qr_scan"}, "lon": -76.93526916666667, "fusion_lon": 0.0, "is_disabled": 0, "lat": 38.879008166666665, "bike_id": "24938fede48fdc00d3f56b58ee4c2070", "name": "24938fede48fdc00d3f56b58ee4c2070", "is_reserved": 0, "fusion_lat": 0.0}, {"type": "electric_scooter", "rental_uris": {"ios": "https://dc.lft.to/lastmile_qr_scan", "android": "https://dc.lft.to/lastmile_qr_scan"}, "lon": -77.0362875, "fusion_lon": 0.0, "is_disabled": 0, "lat": 38.932875, "bike_id": "b5e08a85a1450fd383e0e4eb7bdc7baa", "name": "b5e08a85a1450fd383e0e4eb7bdc7baa", "is_reserved": 0, "fusion_lat": 0.0}, {"type": "electric_scooter", "rental_uris": {"ios": "https://dc.lft.to/lastmile_qr_scan", "android": "https://dc.lft.to/lastmile_qr_scan"}, "lon": -77.04196866666666, "fusion_lon": 0.0, "is_disabled": 0, "lat": 38.89222616666667, "bike_id": "c0a4d64d18fb22fdc658b0ca4e9ef258", "name": "c0a4d64d18fb22fdc658b0ca4e9ef258", "is_reserved": 0, "fusion_lat": 0.0}, {"type": "electric_scooter", "rental_uris": {"ios": "https://dc.lft.to/lastmile_qr_scan", "android": "https://dc.lft.to/lastmile_qr_scan"}, "lon": -77.0533245, "fusion_lon": 0.0, "is_disabled": 0, "lat": 38.92338266666667, "bike_id": "c705dbd992ecea61fd4404f4d17671a0", "name": "c705dbd992ecea61fd4404f4d17671a0", "is_reserved": 0, "fusion_lat": 0.0}, {"type": "electric_scooter", "rental_uris": {"ios": "https://dc.lft.to/lastmile_qr_scan", "android": "https://dc.lft.to/lastmile_qr_scan"}, "lon": -77.06889033333333, "fusion_lon": 0.0, "is_disabled": 0, "lat": 38.9041885, "bike_id": "c9c3ad9053741f20cdebb67625cc9ad8", "name": "c9c3ad9053741f20cdebb67625cc9ad8", "is_reserved": 0, "fusion_lat": 0.0}, {"type": "electric_scooter", "rental_uris": {"ios": "https://dc.lft.to/lastmile_qr_scan", "android": "https://dc.lft.to/lastmile_qr_scan"}, "lon": -77.03636233333333, "fusion_lon": 0.0, "is_disabled": 0, "lat": 38.920870666666666, "bike_id": "835abbaebcd7e8a660fb47868349c1b1", "name": "835abbaebcd7e8a660fb47868349c1b1", "is_reserved": 0, "fusion_lat": 0.0}, {"type": "electric_scooter", "rental_uris": {"ios": "https://dc.lft.to/lastmile_qr_scan", "android": "https://dc.lft.to/lastmile_qr_scan"}, "lon": -77.03676533333334, "fusion_lon": 0.0, "is_disabled": 0, "lat": 38.9190535, "bike_id": "008bee16ada4b6eabcbeae6dec5392b8", "name": "008bee16ada4b6eabcbeae6dec5392b8", "is_reserved": 0, "fusion_lat": 0.0}, {"type": "electric_scooter", "rental_uris": {"ios": "https://dc.lft.to/lastmile_qr_scan", "android": "https://dc.lft.to/lastmile_qr_scan"}, "lon": -76.99386766666667, "fusion_lon": 0.0, "is_disabled": 0, "lat": 38.910162166666666, "bike_id": "cf2c3047904114b6e0b678a221007dfb", "name": "cf2c3047904114b6e0b678a221007dfb", "is_reserved": 0, "fusion_lat": 0.0}, {"type": "electric_scooter", "rental_uris": {"ios": "https://dc.lft.to/lastmile_qr_scan", "android": "https://dc.lft.to/lastmile_qr_scan"}, "lon": -77.04863233333333, "fusion_lon": 0.0, "is_disabled": 0, "lat": 38.90961816666667, "bike_id": "8441fa382a86a7bd0fb3c006b6d71ff4", "name": "8441fa382a86a7bd0fb3c006b6d71ff4", "is_reserved": 0, "fusion_lat": 0.0}, {"type": "electric_scooter", "rental_uris": {"ios": "https://dc.lft.to/lastmile_qr_scan", "android": "https://dc.lft.to/lastmile_qr_scan"}, "lon": -77.03186483333333, "fusion_lon": 0.0, "is_disabled": 0, "lat": 38.913289166666665, "bike_id": "275a23d3dfd9664fdef2a1d0f6cc11f2", "name": "275a23d3dfd9664fdef2a1d0f6cc11f2", "is_reserved": 0, "fusion_lat": 0.0}, {"type": "electric_scooter", "rental_uris": {"ios": "https://dc.lft.to/lastmile_qr_scan", "android": "https://dc.lft.to/lastmile_qr_scan"}, "lon": -77.03252833333333, "fusion_lon": 0.0, "is_disabled": 0, "lat": 38.89887383333333, "bike_id": "8dbdd4d9e95c1792712efc817d41076d", "name": "8dbdd4d9e95c1792712efc817d41076d", "is_reserved": 0, "fusion_lat": 0.0}, {"type": "electric_scooter", "rental_uris": {"ios": "https://dc.lft.to/lastmile_qr_scan", "android": "https://dc.lft.to/lastmile_qr_scan"}, "lon": -76.97628716666667, "fusion_lon": 0.0, "is_disabled": 0, "lat": 38.89877083333333, "bike_id": "ca66ce75685f70add1c44858f7235465", "name": "ca66ce75685f70add1c44858f7235465", "is_reserved": 0, "fusion_lat": 0.0}, {"type": "electric_scooter", "rental_uris": {"ios": "https://dc.lft.to/lastmile_qr_scan", "android": "https://dc.lft.to/lastmile_qr_scan"}, "lon": -76.96529316666667, "fusion_lon": 0.0, "is_disabled": 0, "lat": 38.876304, "bike_id": "43f0578cc141764f2208bf4ebdd29e5a", "name": "43f0578cc141764f2208bf4ebdd29e5a", "is_reserved": 0, "fusion_lat": 0.0}, {"type": "electric_scooter", "rental_uris": {"ios": "https://dc.lft.to/lastmile_qr_scan", "android": "https://dc.lft.to/lastmile_qr_scan"}, "lon": -76.94155366666666, "fusion_lon": 0.0, "is_disabled": 0, "lat": 38.8836465, "bike_id": "33efd9de358d9b4007341b7e689c4709", "name": "33efd9de358d9b4007341b7e689c4709", "is_reserved": 0, "fusion_lat": 0.0}, {"type": "electric_scooter", "rental_uris": {"ios": "https://dc.lft.to/lastmile_qr_scan", "android": "https://dc.lft.to/lastmile_qr_scan"}, "lon": -77.03954116666667, "fusion_lon": 0.0, "is_disabled": 0, "lat": 38.899044833333335, "bike_id": "2e33ba809301f8237f590216c5a47cda", "name": "2e33ba809301f8237f590216c5a47cda", "is_reserved": 0, "fusion_lat": 0.0}, {"type": "electric_scooter", "rental_uris": {"ios": "https://dc.lft.to/lastmile_qr_scan", "android": "https://dc.lft.to/lastmile_qr_scan"},