{"data": {"bikes": [{"lat": 38.901672, "is_disabled": 0, "type": "electric_scooter", "lon": -76.99856366666667, "bike_id": "217b3eba473bdfffd70e9c87934a4c57", "fusion_lat": 0.0, "name": "217b3eba473bdfffd70e9c87934a4c57", "is_reserved": 0, "rental_uris": {"android": "https://dc.lft.to/lastmile_qr_scan", "ios": "https://dc.lft.to/lastmile_qr_scan"}, "fusion_lon": 0.0}, {"lat": 38.912811833333336, "is_disabled": 0, "type": "electric_scooter", "lon": -77.04509233333333, "bike_id": "854a73c40dd8403b0ed1b720dcfe6ffe", "fusion_lat": 0.0, "name": "854a73c40dd8403b0ed1b720dcfe6ffe", "is_reserved": 0, "rental_uris": {"android": "https://dc.lft.to/lastmile_qr_scan", "ios": "https://dc.lft.to/lastmile_qr_scan"}, "fusion_lon": 0.0}, {"lat": 38.85952316666667, "is_disabled": 0, "type": "electric_scooter", "lon": -76.99139933333333, "bike_id": "23bb45e7483c48ae6ec3fa702ee0a858", "fusion_lat": 0.0, "name": "23bb45e7483c48ae6ec3fa702ee0a858", "is_reserved": 0, "rental_uris": {"android": "https://dc.lft.to/lastmile_qr_scan", "ios": "https://dc.lft.to/lastmile_qr_scan"}, "fusion_lon": 0.0}, {"lat": 38.9023705, "is_disabled": 0, "type": "electric_scooter", "lon": -77.01966816666666, "bike_id": "ca846101b0ea40165496f24704a56337", "fusion_lat": 0.0, "name": "ca846101b0ea40165496f24704a56337", "is_reserved": 0, "rental_uris": {"android": "https://dc.lft.to/lastmile_qr_scan", "ios": "https://dc.lft.to/lastmile_qr_scan"}, "fusion_lon": 0.0}, {"lat": 38.92493433333333, "is_disabled": 0, "type": "electric_scooter", "lon": -77.02177983333333, "bike_id": "ff33a0457a172dff19458c119dd04b7c", "fusion_lat": 0.0, "name": "ff33a0457a172dff19458c119dd04b7c", "is_reserved": 0, "rental_uris": {"android": "https://dc.lft.to/lastmile_qr_scan", "ios": "https://dc.lft.to/lastmile_qr_scan"}, "fusion_lon": 0.0}, {"lat": 39.00379733333333, "is_disabled": 0, "type": "electric_bike", "lon": -77.012873, "bike_id": "b76ad1be41399c6f52c1e900b3021d85", "fusion_lat": 0.0, "name": "b76ad1be41399c6f52c1e900b3021d85", "is_reserved": 0, "rental_uris": {"android": "https://dc.lft.to/lastmile_qr_scan", "ios": "https://dc.lft.to/lastmile_qr_scan"}, "fusion_lon": 0.0}, {"lat": 38.900865833333334, "is_disabled": 0, "type": "electric_scooter", "lon": -77.05019016666667, "bike_id": "d35398f414bea417fc1377ca25d1131d", "fusion_lat": 0.0, "name": "d35398f414bea417fc1377ca25d1131d", "is_reserved": 0, "rental_uris": {"android": "https://dc.lft.to/lastmile_qr_scan", "ios": "https://dc.lft.to/lastmile_qr_scan"}, "fusion_lon": 0.0}, {"lat": 38.9186355, "is_disabled": 0, "type": "electric_scooter", "lon": -77.0319835, "bike_id": "3927624ce30b55608cf1d764f7273a71", "fusion_lat": 0.0, "name": "3927624ce30b55608cf1d764f7273a71", "is_reserved": 0, "rental_uris": {"android": "https://dc.lft.to/lastmile_qr_scan", "ios": "https://dc.lft.to/lastmile_qr_scan"}, "fusion_lon": 0.0}, {"lat": 38.892245, "is_disabled": 0, "type": "electric_scooter", "lon": -77.0232025, "bike_id": "f2cb7c523e67061331bd64afd8399da7", "fusion_lat": 0.0, "name": "f2cb7c523e67061331bd64afd8399da7", "is_reserved": 0, "rental_uris": {"android": "https://dc.lft.to/lastmile_qr_scan", "ios": "https://dc.lft.to/lastmile_qr_scan"}, "fusion_lon": 0.0}, {"lat": 38.93104683333333, "is_disabled": 0, "type": "electric_scooter", "lon": -77.037408, "bike_id": "f77466a8075ef5a50c7fe00cf5a907c2", "fusion_lat": 0.0, "name": "f77466a8075ef5a50c7fe00cf5a907c2", "is_reserved": 0, "rental_uris": {"android": "https://dc.lft.to/lastmile_qr_scan", "ios": "https://dc.lft.to/lastmile_qr_scan"}, "fusion_lon": 0.0}, {"lat": 38.907937833333335, "is_disabled": 0, "type": "electric_scooter", "lon": -77.04501716666667, "bike_id": "2dcfb47765e5dbd815f8d9313fceb149", "fusion_lat": 0.0, "name": "2dcfb47765e5dbd815f8d9313fceb149", "is_reserved": 0, "rental_uris": {"android": "https://dc.lft.to/lastmile_qr_scan", "ios": "https://dc.lft.to/lastmile_qr_scan"}, "fusion_lon": 0.0}, {"lat": 38.911066166666664, "is_disabled": 0, "type": "electric_scooter", "lon": -77.044779, "bike_id": "ed682eb78dcce215b4ad14316bb7d335", "fusion_lat": 0.0, "name": "ed682eb78dcce215b4ad14316bb7d335", "is_reserved": 0, "rental_uris": {"android": "https://dc.lft.to/lastmile_qr_scan", "ios": "https://dc.lft.to/lastmile_qr_scan"}, "fusion_lon": 0.0}, {"lat": 38.90574316666667, "is_disabled": 0, "type": "electric_scooter", "lon": -77.04860483333333, "bike_id": "06a19018ff9d49b9afdef236e42e2d54", "fusion_lat": 0.0, "name": "06a19018ff9d49b9afdef236e42e2d54", "is_reserved": 0, "rental_uris": {"android": "https://dc.lft.to/lastmile_qr_scan", "ios": "https://dc.lft.to/lastmile_qr_scan"}, "fusion_lon": 0.0}, {"lat": 38.92751333333333, "is_disabled": 0, "type": "electric_scooter", "lon": -77.03416066666666, "bike_id": "22c634573053a427092e6bb70da72535", "fusion_lat": 0.0, "name": "22c634573053a427092e6bb70da72535", "is_reserved": 0, "rental_uris": {"android": "https://dc.lft.to/lastmile_qr_scan", "ios": "https://dc.lft.to/lastmile_qr_scan"}, "fusion_lon": 0.0}, {"lat": 38.9515435, "is_disabled": 0, "type": "electric_scooter", "lon": -77.018686, "bike_id": "a733c210ac2bbe53245f9a4752834528", "fusion_lat": 0.0, "name": "a733c210ac2bbe53245f9a4752834528", "is_reserved": 0, "rental_uris": {"android": "https://dc.lft.to/lastmile_qr_scan", "ios": "https://dc.lft.to/lastmile_qr_scan"}, "fusion_lon": 0.0}, {"lat": 38.922871, "is_disabled": 0, "type": "electric_scooter", "lon": -77.02964966666667, "bike_id": "b2884cf6eb16ef209e06bf991c73947f", "fusion_lat": 0.0, "name": "b2884cf6eb16ef209e06bf991c73947f", "is_reserved": 0, "rental_uris": {"android": "https://dc.lft.to/lastmile_qr_scan", "ios": "https://dc.lft.to/lastmile_qr_scan"}, "fusion_lon": 0.0}, {"lat": 38.954938166666665, "is_disabled": 0, "type": "electric_scooter", "lon": -77.06557683333334, "bike_id": "1f3a716ed0569b5dd4483cb3be55806a", "fusion_lat": 0.0, "name": "1f3a716ed0569b5dd4483cb3be55806a", "is_reserved": 0, "rental_uris": {"android": "https://dc.lft.to/lastmile_qr_scan", "ios": "https://dc.lft.to/lastmile_qr_scan"}, "fusion_lon": 0.0}, {"lat": 38.8924965, "is_disabled": 0, "type": "electric_scooter", "lon": -77.03958933333334, "bike_id": "f618d8bbe872a6b69a5d129f93faaffd", "fusion_lat": 0.0, "name": "f618d8bbe872a6b69a5d129f93faaffd", "is_reserved": 0, "rental_uris": {"android": "https://dc.lft.to/lastmile_qr_scan", "ios": "https://dc.lft.to/lastmile_qr_scan"}, "fusion_lon": 0.0}, {"lat": 38.887371, "is_disabled": 0, "type": "electric_bike", "lon": -77.0257515, "bike_id": "ec483eaf2b59fa0ca4df90e5b2a7c98c", "fusion_lat": 0.0, "name": "ec483eaf2b59fa0ca4df90e5b2a7c98c", "is_reserved": 0, "rental_uris": {"android": "https://dc.lft.to/lastmile_qr_scan", "ios": "https://dc.lft.to/lastmile_qr_scan"}, "fusion_lon": 0.0}, {"lat": 38.9236095, "is_disabled": 0, "type": "electric_scooter", "lon": -77.0504835, "bike_id": "6739fb8d74e61f55c9f1d6f219e37fd0", "fusion_lat": 0.0, "name": "6739fb8d74e61f55c9f1d6f219e37fd0", "is_reserved": 0, "rental_uris": {"android": "https://dc.lft.to/lastmile_qr_scan", "ios": "https://dc.lft.to/lastmile_qr_scan"}, "fusion_lon": 0.0}, {"lat": 38.915547, "is_disabled": 0, "type": "electric_scooter", "lon": -77.053205, "bike_id": "7657d6ea489fa045e428ad6e33c72cb4", "fusion_lat": 0.0, "name": "7657d6ea489fa045e428ad6e33c72cb4", "is_reserved": 0, "rental_uris": {"android": "https://dc.lft.to/lastmile_qr_scan", "ios": "https://dc.lft.to/lastmile_qr_scan"}, "fusion_lon": 0.0}, {"lat": 38.908288166666665, "is_disabled": 0, "type": "electric_scooter", "lon": -77.0347465, "bike_id": "574d2a05ff0b95d18f86f0179a544ebf", "fusion_lat": 0.0, "name": "574d2a05ff0b95d18f86f0179a544ebf", "is_reserved": 0, "rental_uris": {"android": "https://dc.lft.to/lastmile_qr_scan", "ios": "https://dc.lft.to/lastmile_qr_scan"}, "fusion_lon": 0.0}, {"lat": 38.9354205, "is_disabled": 0, "type": "electric_scooter", "lon": -77.03263833333334, "bike_id": "a1526a9caceed18a44eb204126cc847c", "fusion_lat": 0.0, "name": "a1526a9caceed18a44eb204126cc847c", "is_reserved": 0, "rental_uris": {"android": "https://dc.lft.to/lastmile_qr_scan", "ios": "https://dc.lft.to/lastmile_qr_scan"}, "fusion_lon": 0.0}, {"lat": 38.905682166666665, "is_disabled": 0, "type": "electric_scooter", "lon": -77.03411283333334, "bike_id": "9e54f49065bdde233a482a92fd8453e8", "fusion_lat": 0.0, "name": "9e54f49065bdde233a482a92fd8453e8", "is_reserved": 0, "rental_uris": {"android": "https://dc.lft.to/lastmile_qr_scan", "ios": "https://dc.lft.to/lastmile_qr_scan"}, "fusion_lon": 0.0}, {"lat": 38.91714183333333, "is_disabled": 0, "type": "electric_scooter", "lon": -77.02664533333333, "bike_id": "c0ce044254a9b922e11fd85a7e617882", "fusion_lat": 0.0, "name": "c0ce044254a9b922e11fd85a7e617882", "is_reserved": 0, "rental_uris": {"android": "https://dc.lft.to/lastmile_qr_scan", "ios": "https://dc.lft.to/lastmile_qr_scan"}, "fusion_lon": 0.0}, {"lat": 38.8590935, "is_disabled": 0, "type": "electric_scooter", "lon": -76.991485, "bike_id": "27cd39615aa9478cefc129232999f6b0", "fusion_lat": 0.0, "name": "27cd39615aa9478cefc129232999f6b0", "is_reserved": 0, "rental_uris": {"android": "https://dc.lft.to/lastmile_qr_scan", "ios": "https://dc.lft.to/lastmile_qr_scan"}, "fusion_lon": 0.0}, {"lat": 38.90612733333333, "is_disabled": 0, "type": "electric_scooter", "lon": -77.01886216666666, "bike_id": "c296fc684d1aca0ea0392056554ec200", "fusion_lat": 0.0, "name": "c296fc684d1aca0ea0392056554ec200", "is_reserved": 0, "rental_uris": {"android": "https://dc.lft.to/lastmile_qr_scan", "ios": "https://dc.lft.to/lastmile_qr_scan"}, "fusion_lon": 0.0}, {"lat": 38.9173705, "is_disabled": 0, "type": "electric_scooter", "lon": -77.03643883333334, "bike_id": "c0b6b3780248acd38baebf2ccd1bbbc5", "fusion_lat": 0.0, "name": "c0b6b3780248acd38baebf2ccd1bbbc5", "is_reserved": 0, "rental_uris": {"android": "https://dc.lft.to/lastmile_qr_scan", "ios": "https://dc.lft.to/lastmile_qr_scan"}, "fusion_lon": 0.0}, {"lat": 39.05202966666667, "is_disabled": 0, "type": "electric_bike", "lon": -77.10919666666666, "bike_id": "ca28adcf729cc5864e70e3385fe9de1d", "fusion_lat": 0.0, "name": "ca28adcf729cc5864e70e3385fe9de1d", "is_reserved": 0, "rental_uris": {"android": "https://dc.lft.to/lastmile_qr_scan", "ios": "https://dc.lft.to/lastmile_qr_scan"}, "fusion_lon": 0.0}, {"lat": 38.90228166666667, "is_disabled": 0, "type": "electric_scooter", "lon": -77.02371983333333, "bike_id": "3632d5d1a7f1e775f7a57fd050c0c10e", "fusion_lat": 0.0, "name": "3632d5d1a7f1e775f7a57fd050c0c10e", "is_reserved": 0, "rental_uris": {"android": "https://dc.lft.to/lastmile_qr_scan", "ios": "https://dc.lft.to/lastmile_qr_scan"}, "fusion_lon": 0.0}, {"lat": 38.952907833333335, "is_disabled": 0, "type": "electric_scooter", "lon": -77.068852, "bike_id": "f84f6eabd90200927353eb0d45f427ac", "fusion_lat": 0.0, "name": "f84f6eabd90200927353eb0d45f427ac", "is_reserved": 0, "rental_uris": {"android": "https://dc.lft.to/lastmile_qr_scan", "ios": "https://dc.lft.to/lastmile_qr_scan"}, "fusion_lon": 0.0}, {"lat": 38.866605166666666, "is_disabled": 0, "type": "electric_scooter", "lon": -76.988847, "bike_id": "e2b10c9b66139d9a0c7327b097bbf0f3", "fusion_lat": 0.0, "name": "e2b10c9b66139d9a0c7327b097bbf0f3", "is_reserved": 0, "rental_uris": {"android": "https://dc.lft.to/lastmile_qr_scan", "ios": "https://dc.lft.to/lastmile_qr_scan"}, "fusion_lon": 0.0}, {"lat": 38.89910033333334, "is_disabled": 0, "type": "electric_scooter", "lon": -76.93359233333334, "bike_id": "20660c5161ef0f2ebcbfab06aee3208b", "fusion_lat": 0.0, "name": "20660c5161ef0f2ebcbfab06aee3208b", "is_reserved": 0, "rental_uris": {"android": "https://dc.lft.to/lastmile_qr_scan", "ios": "https://dc.lft.to/lastmile_qr_scan"}, "fusion_lon": 0.0}, {"lat": 38.93608283333333, "is_disabled": 0, "type": "electric_scooter", "lon": -77.05861383333334, "bike_id": "9ee08bcb1bb8a489af7cc2115b86151a", "fusion_lat": 0.0, "name": "9ee08bcb1bb8a489af7cc2115b86151a", "is_reserved": 0, "rental_uris": {"android": "https://dc.lft.to/lastmile_qr_scan", "ios": "https://dc.lft.to/lastmile_qr_scan"}, "fusion_lon": 0.0}, {"lat": 38.85946916666666, "is_disabled": 0, "type": "electric_bike", "lon": -77.086148, "bike_id": "c97087da4ba06ee53d1556bc6b560ed5", "fusion_lat": 0.0, "name": "c97087da4ba06ee53d1556bc6b560ed5", "is_reserved": 0, "rental_uris": {"android": "https://dc.lft.to/lastmile_qr_scan", "ios": "https://dc.lft.to/lastmile_qr_scan"}, "fusion_lon": 0.0}, {"lat": 38.93323733333333, "is_disabled": 0, "type": "electric_scooter", "lon": -77.04368766666667, "bike_id": "3c70077776e96a83576af08973cdb138", "fusion_lat": 0.0, "name": "3c70077776e96a83576af08973cdb138", "is_reserved": 0, "rental_uris": {"android": "https://dc.lft.to/lastmile_qr_scan", "ios": "https://dc.lft.to/lastmile_qr_scan"}, "fusion_lon": 0.0}, {"lat": 38.90229466666667, "is_disabled": 0, "type": "electric_scooter", "lon": -77.06047883333333, "bike_id": "978ed4de9f1607b5c4a3736beaf8193f", "fusion_lat": 0.0, "name": "978ed4de9f1607b5c4a3736beaf8193f", "is_reserved": 0, "rental_uris": {"android": "https://dc.lft.to/lastmile_qr_scan", "ios": "https://dc.lft.to/lastmile_qr_scan"}, "fusion_lon": 0.0}, {"lat": 38.9078155, "is_disabled": 0, "type": "electric_scooter", "lon": -77.0037925, "bike_id": "cb51803d8a1804460acdf2abf8a9fead", "fusion_lat": 0.0, "name": "cb51803d8a1804460acdf2abf8a9fead", "is_reserved": 0, "rental_uris": {"android": "https://dc.lft.to/lastmile_qr_scan", "ios": "https://dc.lft.to/lastmile_qr_scan"}, "fusion_lon": 0.0}, {"lat": 38.924873833333336, "is_disabled": 0, "type": "electric_scooter", "lon": -77.05757366666667, "bike_id": "778d961adbb28cad7f51c278af4b4e5c", "fusion_lat": 0.0, "name": "778d961adbb28cad7f51c278af4b4e5c", "is_reserved": 0, "rental_uris": {"android": "https://dc.lft.to/lastmile_qr_scan", "ios": "https://dc.lft.to/lastmile_qr_scan"}, "fusion_lon": 0.0}, {"lat": 38.91962433333333, "is_disabled": 0, "type": "electric_scooter", "lon": -76.98081583333334, "bike_id": "07aa1bf751a4a40552ba7dd62dc0ca49", "fusion_lat": 0.0, "name": "07aa1bf751a4a40552ba7dd62dc0ca49", "is_reserved": 0, "rental_uris": {"android": "https://dc.lft.to/lastmile_qr_scan", "ios": "https://dc.lft.to/lastmile_qr_scan"}, "fusion_lon": 0.0}, {"lat": 38.88528933333333, "is_disabled": 0, "type": "electric_scooter", "lon": -77.01135433333333, "bike_id": "d89b8b561a2a64fd35d260fa26cd0b31", "fusion_lat": 0.0, "name": "d89b8b561a2a64fd35d260fa26cd0b31", "is_reserved": 0, "rental_uris": {"android": "https://dc.lft.to/lastmile_qr_scan", "ios": "https://dc.lft.to/lastmile_qr_scan"}, "fusion_lon": 0.0}, {"lat": 38.8922575, "is_disabled": 0, "type": "electric_scooter", "lon": -77.04368683333334, "bike_id": "3de17cfaa7cd634a358de70c9e98838c", "fusion_lat": 0.0, "name": "3de17cfaa7cd634a358de70c9e98838c", "is_reserved": 0, "rental_uris": {"android": "https://dc.lft.to/lastmile_qr_scan", "ios": "https://dc.lft.to/lastmile_qr_scan"}, "fusion_lon": 0.0}, {"lat": 38.89975583333333, "is_disabled": 0, "type": "electric_scooter", "lon": -77.03186616666666, "bike_id": "65af1ab0540d4c286700e8822d81643f", "fusion_lat": 0.0, "name": "65af1ab0540d4c286700e8822d81643f", "is_reserved": 0, "rental_uris": {"android": "https://dc.lft.to/lastmile_qr_scan", "ios": "https://dc.lft.to/lastmile_qr_scan"}, "fusion_lon": 0.0}, {"lat": 38.90295733333333, "is_disabled": 0, "type": "electric_scooter", "lon": -77.0383715, "bike_id": "ca94cd844f14b078abab2745048aa945", "fusion_lat": 0.0, "name": "ca94cd844f14b078abab2745048aa945", "is_reserved": 0, "rental_uris": {"android": "https://dc.lft.to/lastmile_qr_scan", "ios": "https://dc.lft.to/lastmile_qr_scan"}, "fusion_lon": 0.0}, {"lat": 38.896110666666665, "is_disabled": 0, "type": "electric_scooter", "lon": -77.0454345, "bike_id": "5d33b4388f0d6989ea26fbcda6ff4c4e", "fusion_lat": 0.0, "name": "5d33b4388f0d6989ea26fbcda6ff4c4e", "is_reserved": 0, "rental_uris": {"android": "https://dc.lft.to/lastmile_qr_scan", "ios": "https://dc.lft.to/lastmile_qr_scan"}, "fusion_lon": 0.0}, {"lat": 38.93633666666667, "is_disabled": 0, "type": "electric_scooter", "lon": -77.03657583333333, "bike_id": "594beb6d610dc143e06e98f18253c56d", "fusion_lat": 0.0, "name": "594beb6d610dc143e06e98f18253c56d", "is_reserved": 0, "rental_uris": {"android": "https://dc.lft.to/lastmile_qr_scan", "ios": "https://dc.lft.to/lastmile_qr_scan"}, "fusion_lon": 0.0}, {"lat": 38.923409, "is_disabled": 0, "type": "electric_scooter", "lon": -77.03537183333333, "bike_id": "40e024b84d78b0cca165c1580c185696", "fusion_lat": 0.0, "name": "40e024b84d78b0cca165c1580c185696", "is_reserved": 0, "rental_uris": {"android": "https://dc.lft.to/lastmile_qr_scan", "ios": "https://dc.lft.to/lastmile_qr_scan"}, "fusion_lon": 0.0}, {"lat": 38.899704666666665, "is_disabled": 0, "type": "electric_scooter", "lon": -76.92729833333334, "bike_id": "91794f9934ec6b4d85b1733fdb574bcf", "fusion_lat": 0.0, "name": "91794f9934ec6b4d85b1733fdb574bcf", "is_reserved": 0, "rental_uris": {"android": "https://dc.lft.to/lastmile_qr_scan", "ios": "https://dc.lft.to/lastmile_qr_scan"}, "fusion_lon": 0.0}, {"lat": 38.896192, "is_disabled": 0, "type": "electric_scooter", "lon": -77.0441145, "bike_id": "904b13309c6f79287d72f30aa283ee6b", "fusion_lat": 0.0, "name": "904b13309c6f79287d72f30aa283ee6b", "is_reserved": 0, "rental_uris": {"android": "https://dc.lft.to/lastmile_qr_scan", "ios": "https://dc.lft.to/lastmile_qr_scan"}, "fusion_lon": 0.0}, {"lat": 38.91886933333333, "is_disabled": 0, "type": "electric_scooter", "lon": -77.04467933333333, "bike_id": "99e44571d3fc16216b007264205a3413", "fusion_lat": 0.0, "name": "99e44571d3fc16216b007264205a3413", "is_reserved": 0, "rental_uris": {"android": "https://dc.lft.to/lastmile_qr_scan", "ios": "https://dc.lft.to/lastmile_qr_scan"}, "fusion_lon": 0.0}, {"lat": 38.9168395, "is_disabled": 0, "type": "electric_scooter", "lon": -77.02715666666667, "bike_id": "f456adab1597faa20a37fbaf9778c7dc", "fusion_lat": 0.0, "name": "f456adab1597faa20a37fbaf9778c7dc", "is_reserved": 0, "rental_uris": {"android": "https://dc.lft.to/lastmile_qr_scan", "ios": "https://dc.lft.to/lastmile_qr_scan"}, "fusion_lon": 0.0}, {"lat": 38.90172783333333, "is_disabled": 0, "type": "electric_scooter", "lon": -77.02501633333334, "bike_id": "60f26cd1d3de32c44d76e4c4e91c935f", "fusion_lat": 0.0, "name": "60f26cd1d3de32c44d76e4c4e91c935f", "is_reserved": 0, "rental_uris": {"android": "https://dc.lft.to/lastmile_qr_scan", "ios": "https://dc.lft.to/lastmile_qr_scan"}, "fusion_lon": 0.0}, {"lat": 38.9030255, "is_disabled": 0, "type": "electric_scooter", "lon": -77.01186883333334, "bike_id": "255436fb544ca777914df964dc1e78d3", "fusion_lat": 0.0, "name": "255436fb544ca777914df964dc1e78d3", "is_reserved": 0, "rental_uris": {"android": "https://dc.lft.to/lastmile_qr_scan", "ios": "https://dc.lft.to/lastmile_qr_scan"}, "fusion_lon": 0.0}, {"lat": 38.90678233333333, "is_disabled": 0, "type": "electric_scooter", "lon": -77.03830066666667, "bike_id": "e995b1309515c657fb4dd32a0145e5b3", "fusion_lat": 0.0, "name": "e995b1309515c657fb4dd32a0145e5b3", "is_reserved": 0, "rental_uris": {"android": "https://dc.lft.to/lastmile_qr_scan", "ios": "https://dc.lft.to/lastmile_qr_scan"}, "fusion_lon": 0.0}, {"lat": 38.91571866666666, "is_disabled": 0, "type": "electric_scooter", "lon": -77.02006983333334, "bike_id": "725d316e79beeff2b7041819346261fa", "fusion_lat": 0.0, "name": "725d316e79beeff2b7041819346261fa", "is_reserved": 0, "rental_uris": {"android": "https://dc.lft.to/lastmile_qr_scan", "ios": "https://dc.lft.to/lastmile_qr_scan"}, "fusion_lon": 0.0}, {"lat": 38.88432483333333, "is_disabled": 0, "type": "electric_scooter", "lon": -76.9575905, "bike_id": "afaf7d50bb499736ef787aa76732ec85", "fusion_lat": 0.0, "name": "afaf7d50bb499736ef787aa76732ec85", "is_reserved": 0, "rental_uris": {"android": "https://dc.lft.to/lastmile_qr_scan", "ios": "https://dc.lft.to/lastmile_qr_scan"}, "fusion_lon": 0.0}, {"lat": 38.90737033333333, "is_disabled": 0, "type": "electric_scooter", "lon": -77.02713933333334, "bike_id": "602c49c672200a45dd977cc29dc68b71", "fusion_lat": 0.0, "name": "602c49c672200a45dd977cc29dc68b71", "is_reserved": 0, "rental_uris": {"android": "https://dc.lft.to/lastmile_qr_scan", "ios": "https://dc.lft.to/lastmile_qr_scan"}, "fusion_lon": 0.0}, {"lat": 38.924438333333335, "is_disabled": 0, "type": "electric_scooter", "lon": -77.04029266666667, "bike_id": "2e3cc931239f8e8585e9d0701e32baeb", "fusion_lat": 0.0, "name": "2e3cc931239f8e8585e9d0701e32baeb", "is_reserved": 0, "rental_uris": {"android": "https://dc.lft.to/lastmile_qr_scan", "ios": "https://dc.lft.to/lastmile_qr_scan"}, "fusion_lon": 0.0}, {"lat": 38.924482166666664, "is_disabled": 0, "type": "electric_scooter", "lon": -77.04021483333334, "bike_id": "f6d3ef83ac4c228e4329b56362c5cd5b", "fusion_lat": 0.0, "name": "f6d3ef83ac4c228e4329b56362c5cd5b", "is_reserved": 0, "rental_uris": {"android": "https://dc.lft.to/lastmile_qr_scan", "ios": "https://dc.lft.to/lastmile_qr_scan"}, "fusion_lon": 0.0}, {"lat": 38.877106166666664, "is_disabled": 0, "type": "electric_scooter", "lon": -77.01766883333333, "bike_id": "5d8e9be5550e8792ba647db51a4554a4", "fusion_lat": 0.0, "name": "5d8e9be5550e8792ba647db51a4554a4", "is_reserved": 0, "rental_uris": {"android": "https://dc.lft.to/lastmile_qr_scan", "ios": "https://dc.lft.to/lastmile_qr_scan"}, "fusion_lon": 0.0}, {"lat": 38.8853315, "is_disabled": 0, "type": "electric_scooter", "lon": -77.01508166666666, "bike_id": "491e423169fae6b3b7c9ccdcb78c0130", "fusion_lat": 0.0, "name": "491e423169fae6b3b7c9ccdcb78c0130", "is_reserved": 0, "rental_uris": {"android": "https://dc.lft.to/lastmile_qr_scan", "ios": "https://dc.lft.to/lastmile_qr_scan"}, "fusion_lon": 0.0}, {"lat": 38.86598333333333, "is_disabled": 0, "type": "electric_bike", "lon": -76.932326, "bike_id": "15203257c7d70c8ea8994612b74dd042", "fusion_lat": 0.0, "name": "15203257c7d70c8ea8994612b74dd042", "is_reserved": 0, "rental_uris": {"android": "https://dc.lft.to/lastmile_qr_scan", "ios": "https://dc.lft.to/lastmile_qr_scan"}, "fusion_lon": 0.0}, {"lat": 38.8651655, "is_disabled": 0, "type": "electric_scooter", "lon": -76.99030366666666, "bike_id": "036eeeba2d50bdb4d02b351919f278aa", "fusion_lat": 0.0, "name": "036eeeba2d50bdb4d02b351919f278aa", "is_reserved": 0, "rental_uris": {"android": "https://dc.lft.to/lastmile_qr_scan", "ios": "https://dc.lft.to/lastmile_qr_scan"}, "fusion_lon": 0.0}, {"lat": 38.910004666666666, "is_disabled": 0, "type": "electric_scooter", "lon": -77.04014966666666, "bike_id": "e16b7e7a7c40e689b28af543761b18a8", "fusion_lat": 0.0, "name": "e16b7e7a7c40e689b28af543761b18a8", "is_reserved": 0, "rental_uris": {"android": "https://dc.lft.to/lastmile_qr_scan", "ios": "https://dc.lft.to/lastmile_qr_scan"}, "fusion_lon": 0.0}, {"lat": 38.914029, "is_disabled": 0, "type": "electric_scooter", "lon": -77.03186733333334, "bike_id": "fb2bda9502e98fd68010de1441c2eb7a", "fusion_lat": 0.0, "name": "fb2bda9502e98fd68010de1441c2eb7a", "is_reserved": 0, "rental_uris": {"android": "https://dc.lft.to/lastmile_qr_scan", "ios": "https://dc.lft.to/lastmile_qr_scan"}, "fusion_lon": 0.0}, {"lat": 38.85228016666667, "is_disabled": 0, "type": "electric_bike", "lon": -77.12960066666666, "bike_id": "74e97dee1b83d3562aa417bb59c72f6c", "fusion_lat": 0.0, "name": "74e97dee1b83d3562aa417bb59c72f6c", "is_reserved": 0, "rental_uris": {"android": "https://dc.lft.to/lastmile_qr_scan", "ios": "https://dc.lft.to/lastmile_qr_scan"}, "fusion_lon": 0.0}, {"lat": 38.9180065, "is_disabled": 0, "type": "electric_scooter", "lon": -77.04014716666667, "bike_id": "be07e0a53a1181120fe2f3067112e597", "fusion_lat": 0.0, "name": "be07e0a53a1181120fe2f3067112e597", "is_reserved": 0, "rental_uris": {"android": "https://dc.lft.to/lastmile_qr_scan", "ios": "https://dc.lft.to/lastmile_qr_scan"}, "fusion_lon": 0.0}, {"lat": 38.907102, "is_disabled": 0, "type": "electric_scooter", "lon": -77.03185983333333, "bike_id": "5337805f469e65ceb10eb15e5b55036b", "fusion_lat": 0.0, "name": "5337805f469e65ceb10eb15e5b55036b", "is_reserved": 0, "rental_uris": {"android": "https://dc.lft.to/lastmile_qr_scan", "ios": "https://dc.lft.to/lastmile_qr_scan"}, "fusion_lon": 0.0}, {"lat": 38.8922565, "is_disabled": 0, "type": "electric_scooter", "lon": -77.04870933333333, "bike_id": "de5373fc89acec7419d458b86a41d006", "fusion_lat": 0.0, "name": "de5373fc89acec7419d458b86a41d006", "is_reserved": 0, "rental_uris": {"android": "https://dc.lft.to/lastmile_qr_scan", "ios": "https://dc.lft.to/lastmile_qr_scan"}, "fusion_lon": 0.0}, {"lat": 38.895174833333336, "is_disabled": 0, "type": "electric_scooter", "lon": -77.0220415, "bike_id": "76e13d528dc54f72f1e137c66086599b", "fusion_lat": 0.0, "name": "76e13d528dc54f72f1e137c66086599b", "is_reserved": 0, "rental_uris": {"android": "https://dc.lft.to/lastmile_qr_scan", "ios": "https://dc.lft.to/lastmile_qr_scan"}, "fusion_lon": 0.0}, {"lat": 38.91603, "is_disabled": 0, "type": "electric_scooter", "lon": -77.01585466666667, "bike_id": "5aa74733624b8ea67f46878db9ba65dd", "fusion_lat": 0.0, "name": "5aa74733624b8ea67f46878db9ba65dd", "is_reserved": 0, "rental_uris": {"android": "https://dc.lft.to/lastmile_qr_scan", "ios": "https://dc.lft.to/lastmile_qr_scan"}, "fusion_lon": 0.0}, {"lat": 38.91917983333333, "is_disabled": 0, "type": "electric_scooter", "lon": -77.03178133333333, "bike_id": "9b9b0d316918abffbb54ae4eed4abfec", "fusion_lat": 0.0, "name": "9b9b0d316918abffbb54ae4eed4abfec", "is_reserved": 0, "rental_uris": {"android": "https://dc.lft.to/lastmile_qr_scan", "ios": "https://dc.lft.to/lastmile_qr_scan"}, "fusion_lon": 0.0}, {"lat": 38.89219666666666, "is_disabled": 0, "type": "electric_scooter", "lon": -77.0262685, "bike_id": "546d8762e7eedac0b563313f368598e1", "fusion_lat": 0.0, "name": "546d8762e7eedac0b563313f368598e1", "is_reserved": 0, "rental_uris": {"android": "https://dc.lft.to/lastmile_qr_scan", "ios": "https://dc.lft.to/lastmile_qr_scan"}, "fusion_lon": 0.0}, {"lat": 38.892224, "is_disabled": 0, "type": "electric_scooter", "lon": -77.0262835, "bike_id": "36b21299bb94bac3a7aa34e76e9b6f71", "fusion_lat": 0.0, "name": "36b21299bb94bac3a7aa34e76e9b6f71", "is_reserved": 0, "rental_uris": {"android": "https://dc.lft.to/lastmile_qr_scan", "ios": "https://dc.lft.to/lastmile_qr_scan"}, "fusion_lon": 0.0}, {"lat": 38.932283166666664, "is_disabled": 0, "type": "electric_scooter", "lon": -77.04414, "bike_id": "23dd671f136a38b2395f56e7878a24f7", "fusion_lat": 0.0, "name": "23dd671f136a38b2395f56e7878a24f7", "is_reserved": 0, "rental_uris": {"android": "https://dc.lft.to/lastmile_qr_scan", "ios": "https://dc.lft.to/lastmile_qr_scan"}, "fusion_lon": 0.0}, {"lat": 38.9574305, "is_disabled": 0, "type": "electric_bike", "lon": -77.02169833333333, "bike_id": "835dc3afb1fab94affe8e44998a927b8", "fusion_lat": 0.0, "name": "835dc3afb1fab94affe8e44998a927b8", "is_reserved": 0, "rental_uris": {"android": "https://dc.lft.to/lastmile_qr_scan", "ios": "https://dc.lft.to/lastmile_qr_scan"}, "fusion_lon": 0.0}, {"lat": 38.9176455, "is_disabled": 0, "type": "electric_scooter", "lon": -77.00451983333333, "bike_id": "3e25f9a88e8b99e7ee3e02839317fc4c", "fusion_lat": 0.0, "name": "3e25f9a88e8b99e7ee3e02839317fc4c", "is_reserved": 0, "rental_uris": {"android": "https://dc.lft.to/lastmile_qr_scan", "ios": "https://dc.lft.to/lastmile_qr_scan"}, "fusion_lon": 0.0}, {"lat": 38.90054383333333, "is_disabled": 0, "type": "electric_scooter", "lon": -77.00736483333333, "bike_id": "61ac09c2ef90f68e7945335bc27b6446", "fusion_lat": 0.0, "name": "61ac09c2ef90f68e7945335bc27b6446", "is_reserved": 0, "rental_uris": {"android": "https://dc.lft.to/lastmile_qr_scan", "ios": "https://dc.lft.to/lastmile_qr_scan"}, "fusion_lon": 0.0}, {"lat": 38.902364166666665, "is_disabled": 0, "type": "electric_scooter", "lon": -77.00067016666667, "bike_id": "6a90c4f7432e0b8930e56c11445c8c68", "fusion_lat": 0.0, "name": "6a90c4f7432e0b8930e56c11445c8c68", "is_reserved": 0, "rental_uris": {"android": "https://dc.lft.to/lastmile_qr_scan", "ios": "https://dc.lft.to/lastmile_qr_scan"}, "fusion_lon": 0.0}, {"lat": 38.898975, "is_disabled": 0, "type": "electric_scooter", "lon": -76.9973025, "bike_id": "63be0854472337fce0b4d3ce996ccd3a", "fusion_lat": 0.0, "name": "63be0854472337fce0b4d3ce996ccd3a", "is_reserved": 0, "rental_uris": {"android": "https://dc.lft.to/lastmile_qr_scan", "ios": "https://dc.lft.to/lastmile_qr_scan"}, "fusion_lon": 0.0}, {"lat": 38.898853833333334, "is_disabled": 0, "type": "electric_scooter", "lon": -76.93178766666666, "bike_id": "bb98f5926901fbd6af877a699b95e637", "fusion_lat": 0.0, "name": "bb98f5926901fbd6af877a699b95e637", "is_reserved": 0, "rental_uris": {"android": "https://dc.lft.to/lastmile_qr_scan", "ios": "https://dc.lft.to/lastmile_qr_scan"}, "fusion_lon": 0.0}, {"lat": 38.88149516666667, "is_disabled": 0, "type": "electric_scooter", "lon": -76.99508133333333, "bike_id": "025d31e4147bcce4395cda8603b48ae9", "fusion_lat": 0.0, "name": "025d31e4147bcce4395cda8603b48ae9", "is_reserved": 0, "rental_uris": {"android": "https://dc.lft.to/lastmile_qr_scan", "ios": "https://dc.lft.to/lastmile_qr_scan"}, "fusion_lon": 0.0}, {"lat": 38.877079, "is_disabled": 0, "type": "electric_scooter", "lon": -77.017659, "bike_id": "ded544e0fc471c35b82ce6aad64edd08", "fusion_lat": 0.0, "name": "ded544e0fc471c35b82ce6aad64edd08", "is_reserved": 0, "rental_uris": {"android": "https://dc.lft.to/lastmile_qr_scan", "ios": "https://dc.lft.to/lastmile_qr_scan"}, "fusion_lon": 0.0}, {"lat": 38.86887733333333, "is_disabled": 0, "type": "electric_scooter", "lon": -76.98312916666667, "bike_id": "6327ddc267c9f0cfea10b205eb22fee3", "fusion_lat": 0.0, "name": "6327ddc267c9f0cfea10b205eb22fee3", "is_reserved": 0, "rental_uris": {"android": "https://dc.lft.to/lastmile_qr_scan", "ios": "https://dc.lft.to/lastmile_qr_scan"}, "fusion_lon": 0.0}, {"lat": 38.912717, "is_disabled": 0, "type": "electric_scooter", "lon": -77.044812, "bike_id": "ac498e0b5b9bc7fa258abca2192bc280", "fusion_lat": 0.0, "name": "ac498e0b5b9bc7fa258abca2192bc280", "is_reserved": 0, "rental_uris": {"android": "https://dc.lft.to/lastmile_qr_scan", "ios": "https://dc.lft.to/lastmile_qr_scan"}, "fusion_lon": 0.0}, {"lat": 38.90579566666667, "is_disabled": 0, "type": "electric_scooter", "lon": -77.00900366666667, "bike_id": "b4b7eecdc0321892711c8d063ca6a90e", "fusion_lat": 0.0, "name": "b4b7eecdc0321892711c8d063ca6a90e", "is_reserved": 0, "rental_uris": {"android": "https://dc.lft.to/lastmile_qr_scan", "ios": "https://dc.lft.to/lastmile_qr_scan"}, "fusion_lon": 0.0}, {"lat": 38.8994165, "is_disabled": 0, "type": "electric_scooter", "lon": -77.02813433333333, "bike_id": "697426c9c0fa195a828b9826b71ffb93", "fusion_lat": 0.0, "name": "697426c9c0fa195a828b9826b71ffb93", "is_reserved": 0, "rental_uris": {"android": "https://dc.lft.to/lastmile_qr_scan", "ios": "https://dc.lft.to/lastmile_qr_scan"}, "fusion_lon": 0.0}, {"lat": 38.90574016666667, "is_disabled": 0, "type": "electric_scooter", "lon": -77.00578266666666, "bike_id": "e012e5b73a7dbdb2fbc4909704299bcc", "fusion_lat": 0.0, "name": "e012e5b73a7dbdb2fbc4909704299bcc", "is_reserved": 0, "rental_uris": {"android": "https://dc.lft.to/lastmile_qr_scan", "ios": "https://dc.lft.to/lastmile_qr_scan"}, "fusion_lon": 0.0}, {"lat": 38.90034083333333, "is_disabled": 0, "type": "electric_scooter", "lon": -77.00001616666667, "bike_id": "b998a887b1b183e93dac5f8e718aa6f3", "fusion_lat": 0.0, "name": "b998a887b1b183e93dac5f8e718aa6f3", "is_reserved": 0, "rental_uris": {"android": "https://dc.lft.to/lastmile_qr_scan", "ios": "https://dc.lft.to/lastmile_qr_scan"}, "fusion_lon": 0.0}, {"lat": 38.92047016666667, "is_disabled": 0, "type": "electric_scooter", "lon": -77.029909, "bike_id": "1be6421aeb0612a72ca6e59ad36e5dd4", "fusion_lat": 0.0, "name": "1be6421aeb0612a72ca6e59ad36e5dd4", "is_reserved": 0, "rental_uris": {"android": "https://dc.lft.to/lastmile_qr_scan", "ios": "https://dc.lft.to/lastmile_qr_scan"}, "fusion_lon": 0.0}, {"lat": 38.9233645, "is_disabled": 0, "type": "electric_scooter", "lon": -77.03618216666666, "bike_id": "bb94a66fd40562e3e94719a3ba83e7a8", "fusion_lat": 0.0, "name": "bb94a66fd40562e3e94719a3ba83e7a8", "is_reserved": 0, "rental_uris": {"android": "https://dc.lft.to/lastmile_qr_scan", "ios": "https://dc.lft.to/lastmile_qr_scan"}, "fusion_lon": 0.0}, {"lat": 38.8867385, "is_disabled": 0, "type": "electric_scooter", "lon": -76.9903595, "bike_id": "2e679f0216e038962fa700c2de7c8204", "fusion_lat": 0.0, "name": "2e679f0216e038962fa700c2de7c8204", "is_reserved": 0, "rental_uris": {"android": "https://dc.lft.to/lastmile_qr_scan", "ios": "https://dc.lft.to/lastmile_qr_scan"}, "fusion_lon": 0.0}, {"lat": 38.912699333333336, "is_disabled": 0, "type": "electric_scooter", "lon": -77.02254766666667, "bike_id": "7aa0baa30c1fc8f4b55ef92ade05a0b1", "fusion_lat": 0.0, "name": "7aa0baa30c1fc8f4b55ef92ade05a0b1", "is_reserved": 0, "rental_uris": {"android": "https://dc.lft.to/lastmile_qr_scan", "ios": "https://dc.lft.to/lastmile_qr_scan"}, "fusion_lon": 0.0}, {"lat": 38.890110166666666, "is_disabled": 0, "type": "electric_scooter", "lon": -76.93741616666667, "bike_id": "eca67802e7c3114b2bed6ae6210d71d5", "fusion_lat": 0.0, "name": "eca67802e7c3114b2bed6ae6210d71d5", "is_reserved": 0, "rental_uris": {"android": "https://dc.lft.to/lastmile_qr_scan", "ios": "https://dc.lft.to/lastmile_qr_scan"}, "fusion_lon": 0.0}, {"lat": 38.9019435, "is_disabled": 0, "type": "electric_scooter", "lon": -77.02187616666667, "bike_id": "dc5c57db5896cd161228b4269102d845", "fusion_lat": 0.0, "name": "dc5c57db5896cd161228b4269102d845", "is_reserved": 0, "rental_uris": {"android": "https://dc.lft.to/lastmile_qr_scan", "ios": "https://dc.lft.to/lastmile_qr_scan"}, "fusion_lon": 0.0}, {"lat": 39.075049666666665, "is_disabled": 0, "type": "electric_bike", "lon": -77.11899366666667, "bike_id": "aab7971c850d8f4685b560b3cc8f1e3c", "fusion_lat": 0.0, "name": "aab7971c850d8f4685b560b3cc8f1e3c", "is_reserved": 0, "rental_uris": {"android": "https://dc.lft.to/lastmile_qr_scan", "ios": "https://dc.lft.to/lastmile_qr_scan"}, "fusion_lon": 0.0}, {"lat": 38.92103783333334, "is_disabled": 0, "type": "electric_scooter", "lon": -77.045821, "bike_id": "5fa5c4bad6d7262c2e904820d743955d", "fusion_lat": 0.0, "name": "5fa5c4bad6d7262c2e904820d743955d", "is_reserved": 0, "rental_uris": {"android": "https://dc.lft.to/lastmile_qr_scan", "ios": "https://dc.lft.to/lastmile_qr_scan"}, "fusion_lon": 0.0}, {"lat": 38.93057733333333, "is_disabled": 0, "type": "electric_scooter", "lon": -77.03635666666666, "bike_id": "3db214d934740582b61663468a900e15", "fusion_lat": 0.0, "name": "3db214d934740582b61663468a900e15", "is_reserved": 0, "rental_uris": {"android": "https://dc.lft.to/lastmile_qr_scan", "ios": "https://dc.lft.to/lastmile_qr_scan"}, "fusion_lon": 0.0}, {"lat": 38.86677483333333, "is_disabled": 0, "type": "electric_scooter", "lon": -76.98546066666667, "bike_id": "1f3388a93dd58b4e4393fea1c402dab6", "fusion_lat": 0.0, "name": "1f3388a93dd58b4e4393fea1c402dab6", "is_reserved": 0, "rental_uris": {"android": "https://dc.lft.to/lastmile_qr_scan", "ios": "https://dc.lft.to/lastmile_qr_scan"}, "fusion_lon": 0.0}, {"lat": 38.89884633333333, "is_disabled": 0, "type": "electric_scooter", "lon": -76.931818, "bike_id": "6bc5308dd2f51152c1dab3d59f931c5a", "fusion_lat": 0.0, "name": "6bc5308dd2f51152c1dab3d59f931c5a", "is_reserved": 0, "rental_uris": {"android": "https://dc.lft.to/lastmile_qr_scan", "ios": "https://dc.lft.to/lastmile_qr_scan"}, "fusion_lon": 0.0}, {"lat": 38.8706595, "is_disabled": 0, "type": "electric_scooter", "lon": -77.008406, "bike_id": "7442482a69bbe66c179a277754ef6d71", "fusion_lat": 0.0, "name": "7442482a69bbe66c179a277754ef6d71", "is_reserved": 0, "rental_uris": {"android": "https://dc.lft.to/lastmile_qr_scan", "ios": "https://dc.lft.to/lastmile_qr_scan"}, "fusion_lon": 0.0}, {"lat": 38.89223466666667, "is_disabled": 0, "type": "electric_scooter", "lon": -77.02317116666667, "bike_id": "dee0ffe95a31923ecd16d7e332936c0d", "fusion_lat": 0.0, "name": "dee0ffe95a31923ecd16d7e332936c0d", "is_reserved": 0, "rental_uris": {"android": "https://dc.lft.to/lastmile_qr_scan", "ios": "https://dc.lft.to/lastmile_qr_scan"}, "fusion_lon": 0.0}, {"lat": 38.90017366666667, "is_disabled": 0, "type": "electric_scooter", "lon": -77.04037016666666, "bike_id": "8912c16684640e0921c8274196cdbadd", "fusion_lat": 0.0, "name": "8912c16684640e0921c8274196cdbadd", "is_reserved": 0, "rental_uris": {"android": "https://dc.lft.to/lastmile_qr_scan", "ios": "https://dc.lft.to/lastmile_qr_scan"}, "fusion_lon": 0.0}, {"lat": 38.86213383333333, "is_disabled": 0, "type": "electric_bike", "lon": -76.99779, "bike_id": "53929730611959c3f5ab790a2c92a113", "fusion_lat": 0.0, "name": "53929730611959c3f5ab790a2c92a113", "is_reserved": 0, "rental_uris": {"android": "https://dc.lft.to/lastmile_qr_scan", "ios": "https://dc.lft.to/lastmile_qr_scan"}, "fusion_lon": 0.0}, {"lat": 38.9023575, "is_disabled": 0, "type": "electric_scooter", "lon": -77.00197416666667, "bike_id": "5eaf97aaaee846a61f473d884a3176e6", "fusion_lat": 0.0, "name": "5eaf97aaaee846a61f473d884a3176e6", "is_reserved": 0, "rental_uris": {"android": "https://dc.lft.to/lastmile_qr_scan", "ios": "https://dc.lft.to/lastmile_qr_scan"}, "fusion_lon": 0.0}, {"lat": 38.9446735, "is_disabled": 0, "type": "electric_scooter", "lon": -77.00660016666667, "bike_id": "17a34e214beceed1ec6e6417ebe287b6", "fusion_lat": 0.0, "name": "17a34e214beceed1ec6e6417ebe287b6", "is_reserved": 0, "rental_uris": {"android": "https://dc.lft.to/lastmile_qr_scan", "ios": "https://dc.lft.to/lastmile_qr_scan"}, "fusion_lon": 0.0}, {"lat": 38.928208166666664, "is_disabled": 0, "type": "electric_scooter", "lon": -77.02874333333334, "bike_id": "827e9d9b228079d935178ad7f8c42abe", "fusion_lat": 0.0, "name": "827e9d9b228079d935178ad7f8c42abe", "is_reserved": 0, "rental_uris": {"android": "https://dc.lft.to/lastmile_qr_scan", "ios": "https://dc.lft.to/lastmile_qr_scan"}, "fusion_lon": 0.0}, {"lat": 38.891754666666664, "is_disabled": 0, "type": "electric_scooter", "lon": -77.03208483333333, "bike_id": "457b737dc22bca9ed84cc6635706d3ce", "fusion_lat": 0.0, "name": "457b737dc22bca9ed84cc6635706d3ce", "is_reserved": 0, "rental_uris": {"android": "https://dc.lft.to/lastmile_qr_scan", "ios": "https://dc.lft.to/lastmile_qr_scan"}, "fusion_lon": 0.0}, {"lat": 38.9169165, "is_disabled": 0, "type": "electric_scooter", "lon": -77.0297135, "bike_id": "552b60419655bfc06faea646fe31b43c", "fusion_lat": 0.0, "name": "552b60419655bfc06faea646fe31b43c", "is_reserved": 0, "rental_uris": {"android": "https://dc.lft.to/lastmile_qr_scan", "ios": "https://dc.lft.to/lastmile_qr_scan"}, "fusion_lon": 0.0}, {"lat": 38.944306, "is_disabled": 0, "type": "electric_scooter", "lon": -77.063394, "bike_id": "a0da39ef997264855b5331670e807f3d", "fusion_lat": 0.0, "name": "a0da39ef997264855b5331670e807f3d", "is_reserved": 0, "rental_uris": {"android": "https://dc.lft.to/lastmile_qr_scan", "ios": "https://dc.lft.to/lastmile_qr_scan"}, "fusion_lon": 0.0}, {"lat": 38.91550516666667, "is_disabled": 0, "type": "electric_scooter", "lon": -77.0384215, "bike_id": "a10db5763024b7a9f2c727a3c5895a5f", "fusion_lat": 0.0, "name": "a10db5763024b7a9f2c727a3c5895a5f", "is_reserved": 0, "rental_uris": {"android": "https://dc.lft.to/lastmile_qr_scan", "ios": "https://dc.lft.to/lastmile_qr_scan"}, "fusion_lon": 0.0}, {"lat": 38.9102545, "is_disabled": 0, "type": "electric_scooter", "lon": -77.04264233333333, "bike_id": "1c87e37bbd6faecf5a036182a8666f53", "fusion_lat": 0.0, "name": "1c87e37bbd6faecf5a036182a8666f53", "is_reserved": 0, "rental_uris": {"android": "https://dc.lft.to/lastmile_qr_scan", "ios": "https://dc.lft.to/lastmile_qr_scan"}, "fusion_lon": 0.0}, {"lat": 38.91408883333333, "is_disabled": 0, "type": "electric_scooter", "lon": -77.03152583333333, "bike_id": "468fbcb273dca97d5068177fdb8ddf2c", "fusion_lat": 0.0, "name": "468fbcb273dca97d5068177fdb8ddf2c", "is_reserved": 0, "rental_uris": {"android": "https://dc.lft.to/lastmile_qr_scan", "ios": "https://dc.lft.to/lastmile_qr_scan"}, "fusion_lon": 0.0}, {"lat": 38.9193175, "is_disabled": 0, "type": "electric_scooter", "lon": -77.031771, "bike_id": "6920b5ed29a571f4dfa6829089452adc", "fusion_lat": 0.0, "name": "6920b5ed29a571f4dfa6829089452adc", "is_reserved": 0, "rental_uris": {"android": "https://dc.lft.to/lastmile_qr_scan", "ios": "https://dc.lft.to/lastmile_qr_scan"}, "fusion_lon": 0.0}, {"lat": 38.899051, "is_disabled": 0, "type": "electric_scooter", "lon": -76.9336215, "bike_id": "3b13a7faff132f2985e34bdb837c0e97", "fusion_lat": 0.0, "name": "3b13a7faff132f2985e34bdb837c0e97", "is_reserved": 0, "rental_uris": {"android": "https://dc.lft.to/lastmile_qr_scan", "ios": "https://dc.lft.to/lastmile_qr_scan"}, "fusion_lon": 0.0}, {"lat": 38.895535333333335, "is_disabled": 0, "type": "electric_scooter", "lon": -77.00927833333333, "bike_id": "f436ac207ae13f7b653d1519a21d701d", "fusion_lat": 0.0, "name": "f436ac207ae13f7b653d1519a21d701d", "is_reserved": 0, "rental_uris": {"android": "https://dc.lft.to/lastmile_qr_scan", "ios": "https://dc.lft.to/lastmile_qr_scan"}, "fusion_lon": 0.0}, {"lat": 38.897102833333335, "is_disabled": 0, "type": "electric_scooter", "lon": -77.04891866666667, "bike_id": "b898d1639d8ba0ebbb0b377263a771cb", "fusion_lat": 0.0, "name": "b898d1639d8ba0ebbb0b377263a771cb", "is_reserved": 0, "rental_uris": {"android": "https://dc.lft.to/lastmile_qr_scan", "ios": "https://dc.lft.to/lastmile_qr_scan"}, "fusion_lon": 0.0}, {"lat": 38.9326635, "is_disabled": 0, "type": "electric_scooter", "lon": -77.02962283333333, "bike_id": "16519d933741ca455033ce0e11d35da7", "fusion_lat": 0.0, "name": "16519d933741ca455033ce0e11d35da7", "is_reserved": 0, "rental_uris": {"android": "https://dc.lft.to/lastmile_qr_scan", "ios": "https://dc.lft.to/lastmile_qr_scan"}, "fusion_lon": 0.0}, {"lat": 38.943524333333336, "is_disabled": 0, "type": "electric_scooter", "lon": -77.002174, "bike_id": "db10f60d52d571b73c8dc7e4a1f0a51a", "fusion_lat": 0.0, "name": "db10f60d52d571b73c8dc7e4a1f0a51a", "is_reserved": 0, "rental_uris": {"android": "https://dc.lft.to/lastmile_qr_scan", "ios": "https://dc.lft.to/lastmile_qr_scan"}, "fusion_lon": 0.0}, {"lat": 38.911956333333336, "is_disabled": 0, "type": "electric_scooter", "lon": -77.01080033333334, "bike_id": "713698b7956e55ceb5a076c215ff3791", "fusion_lat": 0.0, "name": "713698b7956e55ceb5a076c215ff3791", "is_reserved": 0, "rental_uris": {"android": "https://dc.lft.to/lastmile_qr_scan", "ios": "https://dc.lft.to/lastmile_qr_scan"}, "fusion_lon": 0.0}, {"lat": 38.902437, "is_disabled": 0, "type": "electric_scooter", "lon": -77.001991, "bike_id": "b331d0f1121e45d92bc2f20115719f64", "fusion_lat": 0.0, "name": "b331d0f1121e45d92bc2f20115719f64", "is_reserved": 0, "rental_uris": {"android": "https://dc.lft.to/lastmile_qr_scan", "ios": "https://dc.lft.to/lastmile_qr_scan"}, "fusion_lon": 0.0}, {"lat": 38.92577816666667, "is_disabled": 0, "type": "electric_scooter", "lon": -77.02832933333333, "bike_id": "11e4ceac37d181ffa2153e16b10bf266", "fusion_lat": 0.0, "name": "11e4ceac37d181ffa2153e16b10bf266", "is_reserved": 0, "rental_uris": {"android": "https://dc.lft.to/lastmile_qr_scan", "ios": "https://dc.lft.to/lastmile_qr_scan"}, "fusion_lon": 0.0}, {"lat": 38.930160666666666, "is_disabled": 0, "type": "electric_scooter", "lon": -77.04453033333333, "bike_id": "e11057f25396c8744b40044802eb9352", "fusion_lat": 0.0, "name": "e11057f25396c8744b40044802eb9352", "is_reserved": 0, "rental_uris": {"android": "https://dc.lft.to/lastmile_qr_scan", "ios": "https://dc.lft.to/lastmile_qr_scan"}, "fusion_lon": 0.0}, {"lat": 38.91427683333333, "is_disabled": 0, "type": "electric_scooter", "lon": -77.03183283333334, "bike_id": "f6b4be6b330226d6e86a870b0bc1ea53", "fusion_lat": 0.0, "name": "f6b4be6b330226d6e86a870b0bc1ea53", "is_reserved": 0, "rental_uris": {"android": "https://dc.lft.to/lastmile_qr_scan", "ios": "https://dc.lft.to/lastmile_qr_scan"}, "fusion_lon": 0.0}, {"lat": 38.892201166666666, "is_disabled": 0, "type": "electric_scooter", "lon": -77.045156, "bike_id": "49c87f3f8604238f30914372930d49a2", "fusion_lat": 0.0, "name": "49c87f3f8604238f30914372930d49a2", "is_reserved": 0, "rental_uris": {"android": "https://dc.lft.to/lastmile_qr_scan", "ios": "https://dc.lft.to/lastmile_qr_scan"}, "fusion_lon": 0.0}, {"lat": 38.894923666666664, "is_disabled": 0, "type": "electric_scooter", "lon": -76.9950545, "bike_id": "30ac352a3d7c575c316f015f717208ad", "fusion_lat": 0.0, "name": "30ac352a3d7c575c316f015f717208ad", "is_reserved": 0, "rental_uris": {"android": "https://dc.lft.to/lastmile_qr_scan", "ios": "https://dc.lft.to/lastmile_qr_scan"}, "fusion_lon": 0.0}, {"lat": 38.917391333333335, "is_disabled": 0, "type": "electric_scooter", "lon": -77.0321095, "bike_id": "01c2c786fecab5708620c3d48530370e", "fusion_lat": 0.0, "name": "01c2c786fecab5708620c3d48530370e", "is_reserved": 0, "rental_uris": {"android": "https://dc.lft.to/lastmile_qr_scan", "ios": "https://dc.lft.to/lastmile_qr_scan"}, "fusion_lon": 0.0}, {"lat": 38.90650566666667, "is_disabled": 0, "type": "electric_scooter", "lon": -77.00602283333333, "bike_id": "9ead2767c55d528648afc8ccfbdad167", "fusion_lat": 0.0, "name": "9ead2767c55d528648afc8ccfbdad167", "is_reserved": 0, "rental_uris": {"android": "https://dc.lft.to/lastmile_qr_scan", "ios": "https://dc.lft.to/lastmile_qr_scan"}, "fusion_lon": 0.0}, {"lat": 38.909554, "is_disabled": 0, "type": "electric_scooter", "lon": -77.04661583333333, "bike_id": "05cfd0fd69ce5654c2a402fa5d793dab", "fusion_lat": 0.0, "name": "05cfd0fd69ce5654c2a402fa5d793dab", "is_reserved": 0, "rental_uris": {"android": "https://dc.lft.to/lastmile_qr_scan", "ios": "https://dc.lft.to/lastmile_qr_scan"}, "fusion_lon": 0.0}, {"lat": 38.896310166666666, "is_disabled": 0, "type": "electric_scooter", "lon": -77.0284825, "bike_id": "1dda43be41fa03eb116da0c57ef1e355", "fusion_lat": 0.0, "name": "1dda43be41fa03eb116da0c57ef1e355", "is_reserved": 0, "rental_uris": {"android": "https://dc.lft.to/lastmile_qr_scan", "ios": "https://dc.lft.to/lastmile_qr_scan"}, "fusion_lon": 0.0}, {"lat": 38.87153416666666, "is_disabled": 0, "type": "electric_bike", "lon": -76.93650816666667, "bike_id": "2e7aa7e3a350814a7f61b80f6c2bcad7", "fusion_lat": 0.0, "name": "2e7aa7e3a350814a7f61b80f6c2bcad7", "is_reserved": 0, "rental_uris": {"android": "https://dc.lft.to/lastmile_qr_scan", "ios": "https://dc.lft.to/lastmile_qr_scan"}, "fusion_lon": 0.0}, {"lat": 38.88118766666667, "is_disabled": 0, "type": "electric_scooter", "lon": -77.01639866666666, "bike_id": "168d3c127ada78d2a6242ad2b7aa0230", "fusion_lat": 0.0, "name": "168d3c127ada78d2a6242ad2b7aa0230", "is_reserved": 0, "rental_uris": {"android": "https://dc.lft.to/lastmile_qr_scan", "ios": "https://dc.lft.to/lastmile_qr_scan"}, "fusion_lon": 0.0}, {"lat": 38.92162783333333, "is_disabled": 0, "type": "electric_scooter", "lon": -77.04027916666666, "bike_id": "d406be3e1c478a0ef0d64070e3f2c9ba", "fusion_lat": 0.0, "name": "d406be3e1c478a0ef0d64070e3f2c9ba", "is_reserved": 0, "rental_uris": {"android": "https://dc.lft.to/lastmile_qr_scan", "ios": "https://dc.lft.to/lastmile_qr_scan"}, "fusion_lon": 0.0}, {"lat": 38.924528333333335, "is_disabled": 0, "type": "electric_scooter", "lon": -77.04022266666666, "bike_id": "9654aed06ab617cbe0c3cc4b850b6f8d", "fusion_lat": 0.0, "name": "9654aed06ab617cbe0c3cc4b850b6f8d", "is_reserved": 0, "rental_uris": {"android": "https://dc.lft.to/lastmile_qr_scan", "ios": "https://dc.lft.to/lastmile_qr_scan"}, "fusion_lon": 0.0}, {"lat": 38.8900575, "is_disabled": 0, "type": "electric_scooter", "lon": -76.9374625, "bike_id": "61b87d702703eee8bab4637b132fc0a2", "fusion_lat": 0.0, "name": "61b87d702703eee8bab4637b132fc0a2", "is_reserved": 0, "rental_uris": {"android": "https://dc.lft.to/lastmile_qr_scan", "ios": "https://dc.lft.to/lastmile_qr_scan"}, "fusion_lon": 0.0}, {"lat": 38.911404, "is_disabled": 0, "type": "electric_scooter", "lon": -77.038371, "bike_id": "40db0952ebbb547254ebb207c5f8f23e", "fusion_lat": 0.0, "name": "40db0952ebbb547254ebb207c5f8f23e", "is_reserved": 0, "rental_uris": {"android": "https://dc.lft.to/lastmile_qr_scan", "ios": "https://dc.lft.to/lastmile_qr_scan"}, "fusion_lon": 0.0}, {"lat": 38.903253666666664, "is_disabled": 0, "type": "electric_scooter", "lon": -77.05169783333334, "bike_id": "d3704d0add91c1e9abe5c72dd492368e", "fusion_lat": 0.0, "name": "d3704d0add91c1e9abe5c72dd492368e", "is_reserved": 0, "rental_uris": {"android": "https://dc.lft.to/lastmile_qr_scan", "ios": "https://dc.lft.to/lastmile_qr_scan"}, "fusion_lon": 0.0}, {"lat": 38.935836, "is_disabled": 0, "type": "electric_bike", "lon": -77.1068095, "bike_id": "b98c801c6d52f35cd41c19c5b97a707d", "fusion_lat": 0.0, "name": "b98c801c6d52f35cd41c19c5b97a707d", "is_reserved": 0, "rental_uris": {"android": "https://dc.lft.to/lastmile_qr_scan", "ios": "https://dc.lft.to/lastmile_qr_scan"}, "fusion_lon": 0.0}, {"lat": 38.892236, "is_disabled": 0, "type": "electric_scooter", "lon": -77.04200466666667, "bike_id": "2e172cf7be019a11cac4ca3214b018d5", "fusion_lat": 0.0, "name": "2e172cf7be019a11cac4ca3214b018d5", "is_reserved": 0, "rental_uris": {"android": "https://dc.lft.to/lastmile_qr_scan", "ios": "https://dc.lft.to/lastmile_qr_scan"}, "fusion_lon": 0.0}, {"lat": 38.92980566666667, "is_disabled": 0, "type": "electric_scooter", "lon": -77.02931066666666, "bike_id": "a89d3bcf46fd98a5909428fff4fee7cf", "fusion_lat": 0.0, "name": "a89d3bcf46fd98a5909428fff4fee7cf", "is_reserved": 0, "rental_uris": {"android": "https://dc.lft.to/lastmile_qr_scan", "ios": "https://dc.lft.to/lastmile_qr_scan"}, "fusion_lon": 0.0}, {"lat": 38.923126333333336, "is_disabled": 0, "type": "electric_scooter", "lon": -77.04220816666667, "bike_id": "c5b998299f569d718f9e679a86c7f6b0", "fusion_lat": 0.0, "name": "c5b998299f569d718f9e679a86c7f6b0", "is_reserved": 0, "rental_uris": {"android": "https://dc.lft.to/lastmile_qr_scan", "ios": "https://dc.lft.to/lastmile_qr_scan"}, "fusion_lon": 0.0}, {"lat": 38.86368866666667, "is_disabled": 0, "type": "electric_scooter", "lon": -76.99035966666666, "bike_id": "afa460153c2c9dd97119cbcf7d4bd826", "fusion_lat": 0.0, "name": "afa460153c2c9dd97119cbcf7d4bd826", "is_reserved": 0, "rental_uris": {"android": "https://dc.lft.to/lastmile_qr_scan", "ios": "https://dc.lft.to/lastmile_qr_scan"}, "fusion_lon": 0.0}, {"lat": 38.89226, "is_disabled": 0, "type": "electric_scooter", "lon": -77.03217116666667, "bike_id": "188e4052f494155c6bb0312234fea8a0", "fusion_lat": 0.0, "name": "188e4052f494155c6bb0312234fea8a0", "is_reserved": 0, "rental_uris": {"android": "https://dc.lft.to/lastmile_qr_scan", "ios": "https://dc.lft.to/lastmile_qr_scan"}, "fusion_lon": 0.0}, {"lat": 38.8997225, "is_disabled": 0, "type": "electric_scooter", "lon": -77.02294233333333, "bike_id": "c76cc134fe9e8ca09a91e7790d9a17b6", "fusion_lat": 0.0, "name": "c76cc134fe9e8ca09a91e7790d9a17b6", "is_reserved": 0, "rental_uris": {"android": "https://dc.lft.to/lastmile_qr_scan", "ios": "https://dc.lft.to/lastmile_qr_scan"}, "fusion_lon": 0.0}, {"lat": 38.90865766666667, "is_disabled": 0, "type": "electric_bike", "lon": -76.94011233333333, "bike_id": "67ad26c73c18aaae6692d722e3bd0074", "fusion_lat": 0.0, "name": "67ad26c73c18aaae6692d722e3bd0074", "is_reserved": 0, "rental_uris": {"android": "https://dc.lft.to/lastmile_qr_scan", "ios": "https://dc.lft.to/lastmile_qr_scan"}, "fusion_lon": 0.0}, {"lat": 38.90681983333333, "is_disabled": 0, "type": "electric_scooter", "lon": -77.036604, "bike_id": "a6163508c7ae9f8c696c31a4a26238c4", "fusion_lat": 0.0, "name": "a6163508c7ae9f8c696c31a4a26238c4", "is_reserved": 0, "rental_uris": {"android": "https://dc.lft.to/lastmile_qr_scan", "ios": "https://dc.lft.to/lastmile_qr_scan"}, "fusion_lon": 0.0}, {"lat": 38.912819166666665, "is_disabled": 0, "type": "electric_scooter", "lon": -77.04509483333334, "bike_id": "53d5bece7b3356d76518f25db0bc0f03", "fusion_lat": 0.0, "name": "53d5bece7b3356d76518f25db0bc0f03", "is_reserved": 0, "rental_uris": {"android": "https://dc.lft.to/lastmile_qr_scan", "ios": "https://dc.lft.to/lastmile_qr_scan"}, "fusion_lon": 0.0}, {"lat": 38.90134833333333, "is_disabled": 0, "type": "electric_scooter", "lon": -77.04178483333334, "bike_id": "86636d27910add360221e4871562f6f1", "fusion_lat": 0.0, "name": "86636d27910add360221e4871562f6f1", "is_reserved": 0, "rental_uris": {"android": "https://dc.lft.to/lastmile_qr_scan", "ios": "https://dc.lft.to/lastmile_qr_scan"}, "fusion_lon": 0.0}, {"lat": 38.896566, "is_disabled": 0, "type": "electric_scooter", "lon": -77.00520683333333, "bike_id": "518fdb2fa9c7ffeddf6665640c0881c6", "fusion_lat": 0.0, "name": "518fdb2fa9c7ffeddf6665640c0881c6", "is_reserved": 0, "rental_uris": {"android": "https://dc.lft.to/lastmile_qr_scan", "ios": "https://dc.lft.to/lastmile_qr_scan"}, "fusion_lon": 0.0}, {"lat": 38.90587283333333, "is_disabled": 0, "type": "electric_scooter", "lon": -76.9862085, "bike_id": "d805b54e59c4423b53e85f75d387e4fe", "fusion_lat": 0.0, "name": "d805b54e59c4423b53e85f75d387e4fe", "is_reserved": 0, "rental_uris": {"android": "https://dc.lft.to/lastmile_qr_scan", "ios": "https://dc.lft.to/lastmile_qr_scan"}, "fusion_lon": 0.0}, {"lat": 38.92831616666667, "is_disabled": 0, "type": "electric_scooter", "lon": -77.05442466666666, "bike_id": "694d7c79a31a6e74bad1a79401d05f73", "fusion_lat": 0.0, "name": "694d7c79a31a6e74bad1a79401d05f73", "is_reserved": 0, "rental_uris": {"android": "https://dc.lft.to/lastmile_qr_scan", "ios": "https://dc.lft.to/lastmile_qr_scan"}, "fusion_lon": 0.0}, {"lat": 38.84506983333333, "is_disabled": 0, "type": "electric_bike", "lon": -76.99356833333333, "bike_id": "bbfa30f3cfbc55de09cf7a644bcf5d0c", "fusion_lat": 0.0, "name": "bbfa30f3cfbc55de09cf7a644bcf5d0c", "is_reserved": 0, "rental_uris": {"android": "https://dc.lft.to/lastmile_qr_scan", "ios": "https://dc.lft.to/lastmile_qr_scan"}, "fusion_lon": 0.0}, {"lat": 38.912678, "is_disabled": 0, "type": "electric_scooter", "lon": -77.0225715, "bike_id": "998d68515d52e31a1c4eeabf2a32d4c9", "fusion_lat": 0.0, "name": "998d68515d52e31a1c4eeabf2a32d4c9", "is_reserved": 0, "rental_uris": {"android": "https://dc.lft.to/lastmile_qr_scan", "ios": "https://dc.lft.to/lastmile_qr_scan"}, "fusion_lon": 0.0}, {"lat": 38.867151666666665, "is_disabled": 0, "type": "electric_scooter", "lon": -76.98728216666666, "bike_id": "c8947f55fd3bea56c84e9733a7482dfb", "fusion_lat": 0.0, "name": "c8947f55fd3bea56c84e9733a7482dfb", "is_reserved": 0, "rental_uris": {"android": "https://dc.lft.to/lastmile_qr_scan", "ios": "https://dc.lft.to/lastmile_qr_scan"}, "fusion_lon": 0.0}, {"lat": 38.9012585, "is_disabled": 0, "type": "electric_scooter", "lon": -77.04181716666666, "bike_id": "dc29fd354e0ed6e765173986120239d3", "fusion_lat": 0.0, "name": "dc29fd354e0ed6e765173986120239d3", "is_reserved": 0, "rental_uris": {"android": "https://dc.lft.to/lastmile_qr_scan", "ios": "https://dc.lft.to/lastmile_qr_scan"}, "fusion_lon": 0.0}, {"lat": 38.89608966666667, "is_disabled": 0, "type": "electric_scooter", "lon": -77.05469416666666, "bike_id": "fa6b452596bfb97a5489901683711f75", "fusion_lat": 0.0, "name": "fa6b452596bfb97a5489901683711f75", "is_reserved": 0, "rental_uris": {"android": "https://dc.lft.to/lastmile_qr_scan", "ios": "https://dc.lft.to/lastmile_qr_scan"}, "fusion_lon": 0.0}, {"lat": 38.91110833333333, "is_disabled": 0, "type": "electric_scooter", "lon": -77.0483805, "bike_id": "ae639cebff8ad22f5cfce0244e4546be", "fusion_lat": 0.0, "name": "ae639cebff8ad22f5cfce0244e4546be", "is_reserved": 0, "rental_uris": {"android": "https://dc.lft.to/lastmile_qr_scan", "ios": "https://dc.lft.to/lastmile_qr_scan"}, "fusion_lon": 0.0}, {"lat": 38.91713383333333, "is_disabled": 0, "type": "electric_scooter", "lon": -77.04045816666667, "bike_id": "11720300b537701bec7ec7cfbb46b501", "fusion_lat": 0.0, "name": "11720300b537701bec7ec7cfbb46b501", "is_reserved": 0, "rental_uris": {"android": "https://dc.lft.to/lastmile_qr_scan", "ios": "https://dc.lft.to/lastmile_qr_scan"}, "fusion_lon": 0.0}, {"lat": 38.902668, "is_disabled": 0, "type": "electric_scooter", "lon": -77.06239966666666, "bike_id": "660a76821ff3a58380fdc1498db5fb89", "fusion_lat": 0.0, "name": "660a76821ff3a58380fdc1498db5fb89", "is_reserved": 0, "rental_uris": {"android": "https://dc.lft.to/lastmile_qr_scan", "ios": "https://dc.lft.to/lastmile_qr_scan"}, "fusion_lon": 0.0}, {"lat": 38.914365, "is_disabled": 0, "type": "electric_scooter", "lon": -77.023478, "bike_id": "469d55e7096c21a1c3747501b408098c", "fusion_lat": 0.0, "name": "469d55e7096c21a1c3747501b408098c", "is_reserved": 0, "rental_uris": {"android": "https://dc.lft.to/lastmile_qr_scan", "ios": "https://dc.lft.to/lastmile_qr_scan"}, "fusion_lon": 0.0}, {"lat": 38.91782333333333, "is_disabled": 0, "type": "electric_scooter", "lon": -77.02302483333334, "bike_id": "b1afb6eb9c176f13bad1c75469c053b2", "fusion_lat": 0.0, "name": "b1afb6eb9c176f13bad1c75469c053b2", "is_reserved": 0, "rental_uris": {"android": "https://dc.lft.to/lastmile_qr_scan", "ios": "https://dc.lft.to/lastmile_qr_scan"}, "fusion_lon": 0.0}, {"lat": 38.88752016666667, "is_disabled": 0, "type": "electric_scooter", "lon": -77.0322505, "bike_id": "f6244404835c25582fa5a0eb84605bac", "fusion_lat": 0.0, "name": "f6244404835c25582fa5a0eb84605bac", "is_reserved": 0, "rental_uris": {"android": "https://dc.lft.to/lastmile_qr_scan", "ios": "https://dc.lft.to/lastmile_qr_scan"}, "fusion_lon": 0.0}, {"lat": 38.91033866666667, "is_disabled": 0, "type": "electric_scooter", "lon": -77.03869883333333, "bike_id": "837ab09410c314e453d26a666a466cf9", "fusion_lat": 0.0, "name": "837ab09410c314e453d26a666a466cf9", "is_reserved": 0, "rental_uris": {"android": "https://dc.lft.to/lastmile_qr_scan", "ios": "https://dc.lft.to/lastmile_qr_scan"}, "fusion_lon": 0.0}, {"lat": 38.89952316666667, "is_disabled": 0, "type": "electric_scooter", "lon": -77.0257575, "bike_id": "b053d1b6b344eabda5dc815dcc35765c", "fusion_lat": 0.0, "name": "b053d1b6b344eabda5dc815dcc35765c", "is_reserved": 0, "rental_uris": {"android": "https://dc.lft.to/lastmile_qr_scan", "ios": "https://dc.lft.to/lastmile_qr_scan"}, "fusion_lon": 0.0}, {"lat": 38.907425, "is_disabled": 0, "type": "electric_scooter", "lon": -77.03440516666667, "bike_id": "ffb6d31c211604018cb928f4d5802bb9", "fusion_lat": 0.0, "name": "ffb6d31c211604018cb928f4d5802bb9", "is_reserved": 0, "rental_uris": {"android": "https://dc.lft.to/lastmile_qr_scan", "ios": "https://dc.lft.to/lastmile_qr_scan"}, "fusion_lon": 0.0}, {"lat": 38.94433216666667, "is_disabled": 0, "type": "electric_scooter", "lon": -77.063411, "bike_id": "17843e79f6de0c0120a3b49b6249d455", "fusion_lat": 0.0, "name": "17843e79f6de0c0120a3b49b6249d455", "is_reserved": 0, "rental_uris": {"android": "https://dc.lft.to/lastmile_qr_scan", "ios": "https://dc.lft.to/lastmile_qr_scan"}, "fusion_lon": 0.0}, {"lat": 38.89762866666667, "is_disabled": 0, "type": "electric_scooter", "lon": -77.03189416666666, "bike_id": "733b76c38d970fa73c3f45e4f3e7a59c", "fusion_lat": 0.0, "name": "733b76c38d970fa73c3f45e4f3e7a59c", "is_reserved": 0, "rental_uris": {"android": "https://dc.lft.to/lastmile_qr_scan", "ios": "https://dc.lft.to/lastmile_qr_scan"}, "fusion_lon": 0.0}, {"lat": 38.884309333333334, "is_disabled": 0, "type": "electric_scooter", "lon": -76.95759516666666, "bike_id": "1521cb4f8b704a95afa97c02dd424899", "fusion_lat": 0.0, "name": "1521cb4f8b704a95afa97c02dd424899", "is_reserved": 0, "rental_uris": {"android": "https://dc.lft.to/lastmile_qr_scan", "ios": "https://dc.lft.to/lastmile_qr_scan"}, "fusion_lon": 0.0}, {"lat": 38.871478833333335, "is_disabled": 0, "type": "electric_bike", "lon": -76.93704616666666, "bike_id": "c48125c2850deb4a99c208502dcc57d7", "fusion_lat": 0.0, "name": "c48125c2850deb4a99c208502dcc57d7", "is_reserved": 0, "rental_uris": {"android": "https://dc.lft.to/lastmile_qr_scan", "ios": "https://dc.lft.to/lastmile_qr_scan"}, "fusion_lon": 0.0}, {"lat": 38.92256033333334, "is_disabled": 0, "type": "electric_scooter", "lon": -77.01952783333333, "bike_id": "77f373eeace754654ea9200c145a887e", "fusion_lat": 0.0, "name": "77f373eeace754654ea9200c145a887e", "is_reserved": 0, "rental_uris": {"android": "https://dc.lft.to/lastmile_qr_scan", "ios": "https://dc.lft.to/lastmile_qr_scan"}, "fusion_lon": 0.0}, {"lat": 38.906463333333335, "is_disabled": 0, "type": "electric_scooter", "lon": -77.01139066666667, "bike_id": "5eaf8ae8776e3fcda03b330e8a792073", "fusion_lat": 0.0, "name": "5eaf8ae8776e3fcda03b330e8a792073", "is_reserved": 0, "rental_uris": {"android": "https://dc.lft.to/lastmile_qr_scan", "ios": "https://dc.lft.to/lastmile_qr_scan"}, "fusion_lon": 0.0}, {"lat": 38.85724866666666, "is_disabled": 0, "type": "electric_bike", "lon": -76.97092566666667, "bike_id": "238aa3065054e52b0e0b80553d4802c6", "fusion_lat": 0.0, "name": "238aa3065054e52b0e0b80553d4802c6", "is_reserved": 0, "rental_uris": {"android": "https://dc.lft.to/lastmile_qr_scan", "ios": "https://dc.lft.to/lastmile_qr_scan"}, "fusion_lon": 0.0}, {"lat": 38.961382666666665, "is_disabled": 0, "type": "electric_scooter", "lon": -77.02233883333334, "bike_id": "6da29775129f778039d4a6cacfac2314", "fusion_lat": 0.0, "name": "6da29775129f778039d4a6cacfac2314", "is_reserved": 0, "rental_uris": {"android": "https://dc.lft.to/lastmile_qr_scan", "ios": "https://dc.lft.to/lastmile_qr_scan"}, "fusion_lon": 0.0}, {"lat": 38.92289616666667, "is_disabled": 0, "type": "electric_scooter", "lon": -77.04260833333333, "bike_id": "cc2c96aedb95073569c66bcb0e8c699d", "fusion_lat": 0.0, "name": "cc2c96aedb95073569c66bcb0e8c699d", "is_reserved": 0, "rental_uris": {"android": "https://dc.lft.to/lastmile_qr_scan", "ios": "https://dc.lft.to/lastmile_qr_scan"}, "fusion_lon": 0.0}, {"lat": 38.8988125, "is_disabled": 0, "type": "electric_scooter", "lon": -76.93180383333333, "bike_id": "935f1c72f5e46dbb059ee019d70d9820", "fusion_lat": 0.0, "name": "935f1c72f5e46dbb059ee019d70d9820", "is_reserved": 0, "rental_uris": {"android": "https://dc.lft.to/lastmile_qr_scan", "ios": "https://dc.lft.to/lastmile_qr_scan"}, "fusion_lon": 0.0}, {"lat": 38.91101783333333, "is_disabled": 0, "type": "electric_scooter", "lon": -77.04208783333333, "bike_id": "e235a9669bdeebf6e25e873dec39a18e", "fusion_lat": 0.0, "name": "e235a9669bdeebf6e25e873dec39a18e", "is_reserved": 0, "rental_uris": {"android": "https://dc.lft.to/lastmile_qr_scan", "ios": "https://dc.lft.to/lastmile_qr_scan"}, "fusion_lon": 0.0}, {"lat": 38.93416366666666, "is_disabled": 0, "type": "electric_bike", "lon": -77.02509783333333, "bike_id": "e1a564a3a122279bcc117b2db660fa05", "fusion_lat": 0.0, "name": "e1a564a3a122279bcc117b2db660fa05", "is_reserved": 0, "rental_uris": {"android": "https://dc.lft.to/lastmile_qr_scan", "ios": "https://dc.lft.to/lastmile_qr_scan"}, "fusion_lon": 0.0}, {"lat": 38.90468383333334, "is_disabled": 0, "type": "electric_scooter", "lon": -77.03901966666666, "bike_id": "ec746cc45e75657087ef88a8842bca0d", "fusion_lat": 0.0, "name": "ec746cc45e75657087ef88a8842bca0d", "is_reserved": 0, "rental_uris": {"android": "https://dc.lft.to/lastmile_qr_scan", "ios": "https://dc.lft.to/lastmile_qr_scan"}, "fusion_lon": 0.0}, {"lat": 38.9205325, "is_disabled": 0, "type": "electric_scooter", "lon": -77.0339505, "bike_id": "1d883a1ae88aca79ede9fcb728866150", "fusion_lat": 0.0, "name": "1d883a1ae88aca79ede9fcb728866150", "is_reserved": 0, "rental_uris": {"android": "https://dc.lft.to/lastmile_qr_scan", "ios": "https://dc.lft.to/lastmile_qr_scan"}, "fusion_lon": 0.0}, {"lat": 38.90726633333333, "is_disabled": 0, "type": "electric_scooter", "lon": -77.04181533333333, "bike_id": "bbef41000752f326cdf9afdf3cdd84c9", "fusion_lat": 0.0, "name": "bbef41000752f326cdf9afdf3cdd84c9", "is_reserved": 0, "rental_uris": {"android": "https://dc.lft.to/lastmile_qr_scan", "ios": "https://dc.lft.to/lastmile_qr_scan"}, "fusion_lon": 0.0}, {"lat": 38.92251816666667, "is_disabled": 0, "type": "electric_scooter", "lon": -77.03010766666667, "bike_id": "2cfec2c6ca7a00e1c1e59a7041b372d6", "fusion_lat": 0.0, "name": "2cfec2c6ca7a00e1c1e59a7041b372d6", "is_reserved": 0, "rental_uris": {"android": "https://dc.lft.to/lastmile_qr_scan", "ios": "https://dc.lft.to/lastmile_qr_scan"}, "fusion_lon": 0.0}, {"lat": 38.92041566666666, "is_disabled": 0, "type": "electric_scooter", "lon": -77.0418795, "bike_id": "82097c7a5f65a53884336fdf598d9f57", "fusion_lat": 0.0, "name": "82097c7a5f65a53884336fdf598d9f57", "is_reserved": 0, "rental_uris": {"android": "https://dc.lft.to/lastmile_qr_scan", "ios": "https://dc.lft.to/lastmile_qr_scan"}, "fusion_lon": 0.0}, {"lat": 38.90636033333333, "is_disabled": 0, "type": "electric_scooter", "lon": -77.0338675, "bike_id": "03834a69098cc64ade8f644e42950245", "fusion_lat": 0.0, "name": "03834a69098cc64ade8f644e42950245", "is_reserved": 0, "rental_uris": {"android": "https://dc.lft.to/lastmile_qr_scan", "ios": "https://dc.lft.to/lastmile_qr_scan"}, "fusion_lon": 0.0}, {"lat": 38.90694416666667, "is_disabled": 0, "type": "electric_scooter", "lon": -77.037637, "bike_id": "becba86d6c7fd6f26c51d08e1cfb5d89", "fusion_lat": 0.0, "name": "becba86d6c7fd6f26c51d08e1cfb5d89", "is_reserved": 0, "rental_uris": {"android": "https://dc.lft.to/lastmile_qr_scan", "ios": "https://dc.lft.to/lastmile_qr_scan"}, "fusion_lon": 0.0}, {"lat": 38.8973315, "is_disabled": 0, "type": "electric_scooter", "lon": -77.0216635, "bike_id": "b11b0105cad8556bff8392a97135508f", "fusion_lat": 0.0, "name": "b11b0105cad8556bff8392a97135508f", "is_reserved": 0, "rental_uris": {"android": "https://dc.lft.to/lastmile_qr_scan", "ios": "https://dc.lft.to/lastmile_qr_scan"}, "fusion_lon": 0.0}, {"lat": 38.93508466666667, "is_disabled": 0, "type": "electric_scooter", "lon": -77.042896, "bike_id": "71efc0bd2d3a7455b3c7b1f1ed2f4fd2", "fusion_lat": 0.0, "name": "71efc0bd2d3a7455b3c7b1f1ed2f4fd2", "is_reserved": 0, "rental_uris": {"android": "https://dc.lft.to/lastmile_qr_scan", "ios": "https://dc.lft.to/lastmile_qr_scan"}, "fusion_lon": 0.0}, {"lat": 38.892297666666664, "is_disabled": 0, "type": "electric_bike", "lon": -77.03445666666667, "bike_id": "de8f76135c77d9f5d21877aee7569b30", "fusion_lat": 0.0, "name": "de8f76135c77d9f5d21877aee7569b30", "is_reserved": 0, "rental_uris": {"android": "https://dc.lft.to/lastmile_qr_scan", "ios": "https://dc.lft.to/lastmile_qr_scan"}, "fusion_lon": 0.0}, {"lat": 38.914485, "is_disabled": 0, "type": "electric_bike", "lon": -76.97224916666667, "bike_id": "21b9cfb0c9535a92305c8b398823199b", "fusion_lat": 0.0, "name": "21b9cfb0c9535a92305c8b398823199b", "is_reserved": 0, "rental_uris": {"android": "https://dc.lft.to/lastmile_qr_scan", "ios": "https://dc.lft.to/lastmile_qr_scan"}, "fusion_lon": 0.0}, {"lat": 38.8903805, "is_disabled": 0, "type": "electric_scooter", "lon": -76.93760333333333, "bike_id": "94a50d333a31c2ed42160633f37aaa45", "fusion_lat": 0.0, "name": "94a50d333a31c2ed42160633f37aaa45", "is_reserved": 0, "rental_uris": {"android": "https://dc.lft.to/lastmile_qr_scan", "ios": "https://dc.lft.to/lastmile_qr_scan"}, "fusion_lon": 0.0}, {"lat": 38.9329775, "is_disabled": 0, "type": "electric_scooter", "lon": -77.04535683333333, "bike_id": "3c09be1c4448fc119cd95fcd03d0f69e", "fusion_lat": 0.0, "name": "3c09be1c4448fc119cd95fcd03d0f69e", "is_reserved": 0, "rental_uris": {"android": "https://dc.lft.to/lastmile_qr_scan", "ios": "https://dc.lft.to/lastmile_qr_scan"}, "fusion_lon": 0.0}, {"lat": 38.92867966666667, "is_disabled": 0, "type": "electric_scooter", "lon": -77.0370985, "bike_id": "62bb9efa7dbde6f6104f4a4e64d1e1d6", "fusion_lat": 0.0, "name": "62bb9efa7dbde6f6104f4a4e64d1e1d6", "is_reserved": 0, "rental_uris": {"android": "https://dc.lft.to/lastmile_qr_scan", "ios": "https://dc.lft.to/lastmile_qr_scan"}, "fusion_lon": 0.0}, {"lat": 38.914689833333334, "is_disabled": 0, "type": "electric_scooter", "lon": -77.01432816666667, "bike_id": "71bb4a0b28bb7c82e954008697a24c4b", "fusion_lat": 0.0, "name": "71bb4a0b28bb7c82e954008697a24c4b", "is_reserved": 0, "rental_uris": {"android": "https://dc.lft.to/lastmile_qr_scan", "ios": "https://dc.lft.to/lastmile_qr_scan"}, "fusion_lon": 0.0}, {"lat": 38.90050266666667, "is_disabled": 0, "type": "electric_scooter", "lon": -77.03315166666667, "bike_id": "6cfc8c092c8309868aa9cf064dff7255", "fusion_lat": 0.0, "name": "6cfc8c092c8309868aa9cf064dff7255", "is_reserved": 0, "rental_uris": {"android": "https://dc.lft.to/lastmile_qr_scan", "ios": "https://dc.lft.to/lastmile_qr_scan"}, "fusion_lon": 0.0}, {"lat": 38.90688466666667, "is_disabled": 0, "type": "electric_scooter", "lon": -77.03808333333333, "bike_id": "2f9f335007e7556bdd00bc746c8688f8", "fusion_lat": 0.0, "name": "2f9f335007e7556bdd00bc746c8688f8", "is_reserved": 0, "rental_uris": {"android": "https://dc.lft.to/lastmile_qr_scan", "ios": "https://dc.lft.to/lastmile_qr_scan"}, "fusion_lon": 0.0}, {"lat": 38.909819166666665, "is_disabled": 0, "type": "electric_scooter", "lon": -77.038704, "bike_id": "6d84fdfcb3f2da9555cbe308d8ccfb5a", "fusion_lat": 0.0, "name": "6d84fdfcb3f2da9555cbe308d8ccfb5a", "is_reserved": 0, "rental_uris": {"android": "https://dc.lft.to/lastmile_qr_scan", "ios": "https://dc.lft.to/lastmile_qr_scan"}, "fusion_lon": 0.0}, {"lat": 38.8922645, "is_disabled": 0, "type": "electric_scooter", "lon": -77.02213433333333, "bike_id": "bc7340db2ac864049c4c8fd20a5b094a", "fusion_lat": 0.0, "name": "bc7340db2ac864049c4c8fd20a5b094a", "is_reserved": 0, "rental_uris": {"android": "https://dc.lft.to/lastmile_qr_scan", "ios": "https://dc.lft.to/lastmile_qr_scan"}, "fusion_lon": 0.0}, {"lat": 38.870734166666665, "is_disabled": 0, "type": "electric_bike", "lon": -76.97839283333333, "bike_id": "9de940d9f79022754891d7cb5eebb697", "fusion_lat": 0.0, "name": "9de940d9f79022754891d7cb5eebb697", "is_reserved": 0, "rental_uris": {"android": "https://dc.lft.to/lastmile_qr_scan", "ios": "https://dc.lft.to/lastmile_qr_scan"}, "fusion_lon": 0.0}, {"lat": 38.883914, "is_disabled": 0, "type": "electric_scooter", "lon": -76.98540066666666, "bike_id": "ba5a9b54c0357316e8085f2eae7cbf45", "fusion_lat": 0.0, "name": "ba5a9b54c0357316e8085f2eae7cbf45", "is_reserved": 0, "rental_uris": {"android": "https://dc.lft.to/lastmile_qr_scan", "ios": "https://dc.lft.to/lastmile_qr_scan"}, "fusion_lon": 0.0}, {"lat": 38.90782216666667, "is_disabled": 0, "type": "electric_bike", "lon": -77.07163816666667, "bike_id": "6951e18f83e529221cf2aed0a62290b9", "fusion_lat": 0.0, "name": "6951e18f83e529221cf2aed0a62290b9", "is_reserved": 0, "rental_uris": {"android": "https://dc.lft.to/lastmile_qr_scan", "ios": "https://dc.lft.to/lastmile_qr_scan"}, "fusion_lon": 0.0}, {"lat": 38.926119, "is_disabled": 0, "type": "electric_scooter", "lon": -77.021581, "bike_id": "82a435971cd8219fd86976fe5fea52d3", "fusion_lat": 0.0, "name": "82a435971cd8219fd86976fe5fea52d3", "is_reserved": 0, "rental_uris": {"android": "https://dc.lft.to/lastmile_qr_scan", "ios": "https://dc.lft.to/lastmile_qr_scan"}, "fusion_lon": 0.0}, {"lat": 38.907373666666665, "is_disabled": 0, "type": "electric_scooter", "lon": -77.02807333333334, "bike_id": "e0ca883c0884843cae6a3b458da6897d", "fusion_lat": 0.0, "name": "e0ca883c0884843cae6a3b458da6897d", "is_reserved": 0, "rental_uris": {"android": "https://dc.lft.to/lastmile_qr_scan", "ios": "https://dc.lft.to/lastmile_qr_scan"}, "fusion_lon": 0.0}, {"lat": 38.903450666666664, "is_disabled": 0, "type": "electric_scooter", "lon": -77.0330405, "bike_id": "2cb6b430c9efb071660c2f7b72feaf1a", "fusion_lat": 0.0, "name": "2cb6b430c9efb071660c2f7b72feaf1a", "is_reserved": 0, "rental_uris": {"android": "https://dc.lft.to/lastmile_qr_scan", "ios": "https://dc.lft.to/lastmile_qr_scan"}, "fusion_lon": 0.0}, {"lat": 38.9026075, "is_disabled": 0, "type": "electric_scooter", "lon": -77.02927016666666, "bike_id": "8da7e9aa8935e84b6c77e4f021dae109", "fusion_lat": 0.0, "name": "8da7e9aa8935e84b6c77e4f021dae109", "is_reserved": 0, "rental_uris": {"android": "https://dc.lft.to/lastmile_qr_scan", "ios": "https://dc.lft.to/lastmile_qr_scan"}, "fusion_lon": 0.0}, {"lat": 38.918142833333334, "is_disabled": 0, "type": "electric_scooter", "lon": -77.03914883333333, "bike_id": "b03594f17d9794d75fa7aad79f849237", "fusion_lat": 0.0, "name": "b03594f17d9794d75fa7aad79f849237", "is_reserved": 0, "rental_uris": {"android": "https://dc.lft.to/lastmile_qr_scan", "ios": "https://dc.lft.to/lastmile_qr_scan"}, "fusion_lon": 0.0}, {"lat": 38.917344666666665, "is_disabled": 0, "type": "electric_scooter", "lon": -77.03662883333334, "bike_id": "0dd793579b2af7a51fa5659ebca1a094", "fusion_lat": 0.0, "name": "0dd793579b2af7a51fa5659ebca1a094", "is_reserved": 0, "rental_uris": {"android": "https://dc.lft.to/lastmile_qr_scan", "ios": "https://dc.lft.to/lastmile_qr_scan"}, "fusion_lon": 0.0}, {"lat": 38.914226666666664, "is_disabled": 0, "type": "electric_scooter", "lon": -77.02204633333334, "bike_id": "03b64305a032138c61c4481b09b73ceb", "fusion_lat": 0.0, "name": "03b64305a032138c61c4481b09b73ceb", "is_reserved": 0, "rental_uris": {"android": "https://dc.lft.to/lastmile_qr_scan", "ios": "https://dc.lft.to/lastmile_qr_scan"}, "fusion_lon": 0.0}, {"lat": 38.93714266666667, "is_disabled": 0, "type": "electric_scooter", "lon": -77.03635116666666, "bike_id": "553b4117f15a52d910d9afb964f03d35", "fusion_lat": 0.0, "name": "553b4117f15a52d910d9afb964f03d35", "is_reserved": 0, "rental_uris": {"android": "https://dc.lft.to/lastmile_qr_scan", "ios": "https://dc.lft.to/lastmile_qr_scan"}, "fusion_lon": 0.0}, {"lat": 38.99634266666666, "is_disabled": 0, "type": "electric_bike", "lon": -77.0297215, "bike_id": "a194d6a8c559b2124bfa326470105c5a", "fusion_lat": 0.0, "name": "a194d6a8c559b2124bfa326470105c5a", "is_reserved": 0, "rental_uris": {"android": "https://dc.lft.to/lastmile_qr_scan", "ios": "https://dc.lft.to/lastmile_qr_scan"}, "fusion_lon": 0.0}, {"lat": 38.908216333333336, "is_disabled": 0, "type": "electric_scooter", "lon": -77.04354283333333, "bike_id": "27c58d67b8aa8b81221a179362012e2d", "fusion_lat": 0.0, "name": "27c58d67b8aa8b81221a179362012e2d", "is_reserved": 0, "rental_uris": {"android": "https://dc.lft.to/lastmile_qr_scan", "ios": "https://dc.lft.to/lastmile_qr_scan"}, "fusion_lon": 0.0}, {"lat": 38.9073665, "is_disabled": 0, "type": "electric_scooter", "lon": -77.02716066666666, "bike_id": "e0dd02a15050dd82125df64c9a19f598", "fusion_lat": 0.0, "name": "e0dd02a15050dd82125df64c9a19f598", "is_reserved": 0, "rental_uris": {"android": "https://dc.lft.to/lastmile_qr_scan", "ios": "https://dc.lft.to/lastmile_qr_scan"}, "fusion_lon": 0.0}, {"lat": 38.9156845, "is_disabled": 0, "type": "electric_scooter", "lon": -77.02979266666667, "bike_id": "6476023a90f6914afa2a4d7cb8c7a392", "fusion_lat": 0.0, "name": "6476023a90f6914afa2a4d7cb8c7a392", "is_reserved": 0, "rental_uris": {"android": "https://dc.lft.to/lastmile_qr_scan", "ios": "https://dc.lft.to/lastmile_qr_scan"}, "fusion_lon": 0.0}, {"lat": 38.884290166666666, "is_disabled": 0, "type": "electric_scooter", "lon": -76.95758766666667, "bike_id": "e5b3afc7d4631da43c63bd105b4b6084", "fusion_lat": 0.0, "name": "e5b3afc7d4631da43c63bd105b4b6084", "is_reserved": 0, "rental_uris": {"android": "https://dc.lft.to/lastmile_qr_scan", "ios": "https://dc.lft.to/lastmile_qr_scan"}, "fusion_lon": 0.0}, {"lat": 38.997812, "is_disabled": 0, "type": "electric_bike", "lon": -77.007639, "bike_id": "b29cf50f0dfdfaab6a8c2d00fe6f12e5", "fusion_lat": 0.0, "name": "b29cf50f0dfdfaab6a8c2d00fe6f12e5", "is_reserved": 0, "rental_uris": {"android": "https://dc.lft.to/lastmile_qr_scan", "ios": "https://dc.lft.to/lastmile_qr_scan"}, "fusion_lon": 0.0}, {"lat": 38.92756083333333, "is_disabled": 0, "type": "electric_scooter", "lon": -77.024301, "bike_id": "344a66dc2bc3bc1234d7e4618a42d302", "fusion_lat": 0.0, "name": "344a66dc2bc3bc1234d7e4618a42d302", "is_reserved": 0, "rental_uris": {"android": "https://dc.lft.to/lastmile_qr_scan", "ios": "https://dc.lft.to/lastmile_qr_scan"}, "fusion_lon": 0.0}, {"lat": 38.907357, "is_disabled": 0, "type": "electric_scooter", "lon": -77.0344985, "bike_id": "c1819c4a1c1a6333a2586c441d1b9209", "fusion_lat": 0.0, "name": "c1819c4a1c1a6333a2586c441d1b9209", "is_reserved": 0, "rental_uris": {"android": "https://dc.lft.to/lastmile_qr_scan", "ios": "https://dc.lft.to/lastmile_qr_scan"}, "fusion_lon": 0.0}, {"lat": 38.92289516666666, "is_disabled": 0, "type": "electric_scooter", "lon": -77.03658016666667, "bike_id": "b7d8a43f1e112de4785c4c0ad4e2a320", "fusion_lat": 0.0, "name": "b7d8a43f1e112de4785c4c0ad4e2a320", "is_reserved": 0, "rental_uris": {"android": "https://dc.lft.to/lastmile_qr_scan", "ios": "https://dc.lft.to/lastmile_qr_scan"}, "fusion_lon": 0.0}, {"lat": 38.91981883333333, "is_disabled": 0, "type": "electric_scooter", "lon": -77.023589, "bike_id": "e48d09a0a7a89fa062e8c9aaff0f1040", "fusion_lat": 0.0, "name": "e48d09a0a7a89fa062e8c9aaff0f1040", "is_reserved": 0, "rental_uris": {"android": "https://dc.lft.to/lastmile_qr_scan", "ios": "https://dc.lft.to/lastmile_qr_scan"}, "fusion_lon": 0.0}, {"lat": 38.900857, "is_disabled": 0, "type": "electric_scooter", "lon": -77.0490865, "bike_id": "bb334b62ac16c01f878bf487c6417c0d", "fusion_lat": 0.0, "name": "bb334b62ac16c01f878bf487c6417c0d", "is_reserved": 0, "rental_uris": {"android": "https://dc.lft.to/lastmile_qr_scan", "ios": "https://dc.lft.to/lastmile_qr_scan"}, "fusion_lon": 0.0}, {"lat": 38.92476583333333, "is_disabled": 0, "type": "electric_scooter", "lon": -77.0523585, "bike_id": "7912e21810ca3e4804dfaa894e64088f", "fusion_lat": 0.0, "name": "7912e21810ca3e4804dfaa894e64088f", "is_reserved": 0, "rental_uris": {"android": "https://dc.lft.to/lastmile_qr_scan", "ios": "https://dc.lft.to/lastmile_qr_scan"}, "fusion_lon": 0.0}, {"lat": 38.957835833333334, "is_disabled": 0, "type": "electric_scooter", "lon": -77.02752383333333, "bike_id": "8f820e384cabefc4ca17a380e117c607", "fusion_lat": 0.0, "name": "8f820e384cabefc4ca17a380e117c607", "is_reserved": 0, "rental_uris": {"android": "https://dc.lft.to/lastmile_qr_scan", "ios": "https://dc.lft.to/lastmile_qr_scan"}, "fusion_lon": 0.0}, {"lat": 38.892263666666665, "is_disabled": 0, "type": "electric_scooter", "lon": -77.03220233333333, "bike_id": "7e80d55b4550a882ad37da77235f0e6b", "fusion_lat": 0.0, "name": "7e80d55b4550a882ad37da77235f0e6b", "is_reserved": 0, "rental_uris": {"android": "https://dc.lft.to/lastmile_qr_scan", "ios": "https://dc.lft.to/lastmile_qr_scan"}, "fusion_lon": 0.0}, {"lat": 38.92363816666666, "is_disabled": 0, "type": "electric_scooter", "lon": -77.0513115, "bike_id": "46ec200f131bb94a5fdb4b6b7f929007", "fusion_lat": 0.0, "name": "46ec200f131bb94a5fdb4b6b7f929007", "is_reserved": 0, "rental_uris": {"android": "https://dc.lft.to/lastmile_qr_scan", "ios": "https://dc.lft.to/lastmile_qr_scan"}, "fusion_lon": 0.0}, {"lat": 38.88720216666667, "is_disabled": 0, "type": "electric_scooter", "lon": -76.99613433333333, "bike_id": "5ce32c7872ea72116b2859dee344f16a", "fusion_lat": 0.0, "name": "5ce32c7872ea72116b2859dee344f16a", "is_reserved": 0, "rental_uris": {"android": "https://dc.lft.to/lastmile_qr_scan", "ios": "https://dc.lft.to/lastmile_qr_scan"}, "fusion_lon": 0.0}, {"lat": 38.898458, "is_disabled": 0, "type": "electric_scooter", "lon": -76.94635833333334, "bike_id": "da5dcfac5bb5a04a507927bd9e4b48ce", "fusion_lat": 0.0, "name": "da5dcfac5bb5a04a507927bd9e4b48ce", "is_reserved": 0, "rental_uris": {"android": "https://dc.lft.to/lastmile_qr_scan", "ios": "https://dc.lft.to/lastmile_qr_scan"}, "fusion_lon": 0.0}, {"lat": 38.91552166666666, "is_disabled": 0, "type": "electric_scooter", "lon": -77.07417166666667, "bike_id": "4bcc201e37dbe3cf20758dfdbcb4d111", "fusion_lat": 0.0, "name": "4bcc201e37dbe3cf20758dfdbcb4d111", "is_reserved": 0, "rental_uris": {"android": "https://dc.lft.to/lastmile_qr_scan", "ios": "https://dc.lft.to/lastmile_qr_scan"}, "fusion_lon": 0.0}, {"lat": 38.909668333333336, "is_disabled": 0, "type": "electric_scooter", "lon": -76.99603166666667, "bike_id": "386896f471066da74880c799dbf2122f", "fusion_lat": 0.0, "name": "386896f471066da74880c799dbf2122f", "is_reserved": 0, "rental_uris": {"android": "https://dc.lft.to/lastmile_qr_scan", "ios": "https://dc.lft.to/lastmile_qr_scan"}, "fusion_lon": 0.0}, {"lat": 38.89997966666667, "is_disabled": 0, "type": "electric_scooter", "lon": -76.99955583333333, "bike_id": "c4303a059045209534c6882a413cf947", "fusion_lat": 0.0, "name": "c4303a059045209534c6882a413cf947", "is_reserved": 0, "rental_uris": {"android": "https://dc.lft.to/lastmile_qr_scan", "ios": "https://dc.lft.to/lastmile_qr_scan"}, "fusion_lon": 0.0}, {"lat": 38.90688083333333, "is_disabled": 0, "type": "electric_scooter", "lon": -77.0271175, "bike_id": "3fc050a6bb0cb3ace3160bca8cd5e793", "fusion_lat": 0.0, "name": "3fc050a6bb0cb3ace3160bca8cd5e793", "is_reserved": 0, "rental_uris": {"android": "https://dc.lft.to/lastmile_qr_scan", "ios": "https://dc.lft.to/lastmile_qr_scan"}, "fusion_lon": 0.0}, {"lat": 38.89282733333334, "is_disabled": 0, "type": "electric_scooter", "lon": -76.958502, "bike_id": "842884c3aabdfe38538f2f9898f96630", "fusion_lat": 0.0, "name": "842884c3aabdfe38538f2f9898f96630", "is_reserved": 0, "rental_uris": {"android": "https://dc.lft.to/lastmile_qr_scan", "ios": "https://dc.lft.to/lastmile_qr_scan"}, "fusion_lon": 0.0}, {"lat": 38.911023666666665, "is_disabled": 0, "type": "electric_scooter", "lon": -77.032044, "bike_id": "61d5c94c9aa1ace16c2132691860b66a", "fusion_lat": 0.0, "name": "61d5c94c9aa1ace16c2132691860b66a", "is_reserved": 0, "rental_uris": {"android": "https://dc.lft.to/lastmile_qr_scan", "ios": "https://dc.lft.to/lastmile_qr_scan"}, "fusion_lon": 0.0}, {"lat": 38.9295675, "is_disabled": 0, "type": "electric_scooter", "lon": -76.99087383333334, "bike_id": "3753f26fee2a680a92d59454371b6cce", "fusion_lat": 0.0, "name": "3753f26fee2a680a92d59454371b6cce", "is_reserved": 0, "rental_uris": {"android": "https://dc.lft.to/lastmile_qr_scan", "ios": "https://dc.lft.to/lastmile_qr_scan"}, "fusion_lon": 0.0}, {"lat": 38.90961633333333, "is_disabled": 0, "type": "electric_scooter", "lon": -77.03835983333333, "bike_id": "6d29df61b4013a3d13928c8be9fe7fb4", "fusion_lat": 0.0, "name": "6d29df61b4013a3d13928c8be9fe7fb4", "is_reserved": 0, "rental_uris": {"android": "https://dc.lft.to/lastmile_qr_scan", "ios": "https://dc.lft.to/lastmile_qr_scan"}, "fusion_lon": 0.0}, {"lat": 38.9463205, "is_disabled": 0, "type": "electric_scooter", "lon": -77.01847016666666, "bike_id": "016d5129862e13c6c1d95e16559afadd", "fusion_lat": 0.0, "name": "016d5129862e13c6c1d95e16559afadd", "is_reserved": 0, "rental_uris": {"android": "https://dc.lft.to/lastmile_qr_scan", "ios": "https://dc.lft.to/lastmile_qr_scan"}, "fusion_lon": 0.0}, {"lat": 38.8773615, "is_disabled": 0, "type": "electric_bike", "lon": -77.118495, "bike_id": "243a82a71e4894781b40aa81af2c758b", "fusion_lat": 0.0, "name": "243a82a71e4894781b40aa81af2c758b", "is_reserved": 0, "rental_uris": {"android": "https://dc.lft.to/lastmile_qr_scan", "ios": "https://dc.lft.to/lastmile_qr_scan"}, "fusion_lon": 0.0}, {"lat": 38.867448333333336, "is_disabled": 0, "type": "electric_scooter", "lon": -76.97666716666667, "bike_id": "dc7fe3dc75d114233e6ac84804829718", "fusion_lat": 0.0, "name": "dc7fe3dc75d114233e6ac84804829718", "is_reserved": 0, "rental_uris": {"android": "https://dc.lft.to/lastmile_qr_scan", "ios": "https://dc.lft.to/lastmile_qr_scan"}, "fusion_lon": 0.0}, {"lat": 38.95185983333333, "is_disabled": 0, "type": "electric_bike", "lon": -76.935466, "bike_id": "a458aba85dcf5973efa8eca4352a0a59", "fusion_lat": 0.0, "name": "a458aba85dcf5973efa8eca4352a0a59", "is_reserved": 0, "rental_uris": {"android": "https://dc.lft.to/lastmile_qr_scan", "ios": "https://dc.lft.to/lastmile_qr_scan"}, "fusion_lon": 0.0}, {"lat": 38.92001066666667, "is_disabled": 0, "type": "electric_scooter", "lon": -77.03958816666666, "bike_id": "b0c46e5ad4ccf965db2a0fd949f45e9c", "fusion_lat": 0.0, "name": "b0c46e5ad4ccf965db2a0fd949f45e9c", "is_reserved": 0, "rental_uris": {"android": "https://dc.lft.to/lastmile_qr_scan", "ios": "https://dc.lft.to/lastmile_qr_scan"}, "fusion_lon": 0.0}, {"lat": 38.92645666666667, "is_disabled": 0, "type": "electric_bike", "lon": -77.02844266666666, "bike_id": "ca78ef4cec2ec97995c656c55f4eb4f3", "fusion_lat": 0.0, "name": "ca78ef4cec2ec97995c656c55f4eb4f3", "is_reserved": 0, "rental_uris": {"android": "https://dc.lft.to/lastmile_qr_scan", "ios": "https://dc.lft.to/lastmile_qr_scan"}, "fusion_lon": 0.0}, {"lat": 38.90931466666667, "is_disabled": 0, "type": "electric_scooter", "lon": -77.08019183333333, "bike_id": "6b60b2a19cb1c3eb0576cd6beffd4c7b", "fusion_lat": 0.0, "name": "6b60b2a19cb1c3eb0576cd6beffd4c7b", "is_reserved": 0, "rental_uris": {"android": "https://dc.lft.to/lastmile_qr_scan", "ios": "https://dc.lft.to/lastmile_qr_scan"}, "fusion_lon": 0.0}, {"lat": 38.90706133333333, "is_disabled": 0, "type": "electric_scooter", "lon": -76.986982, "bike_id": "e28f39aeeb16c2623d37951ffe062ef7", "fusion_lat": 0.0, "name": "e28f39aeeb16c2623d37951ffe062ef7", "is_reserved": 0, "rental_uris": {"android": "https://dc.lft.to/lastmile_qr_scan", "ios": "https://dc.lft.to/lastmile_qr_scan"}, "fusion_lon": 0.0}, {"lat": 38.87732866666666, "is_disabled": 0, "type": "electric_bike", "lon": -76.9811085, "bike_id": "8173397129ebe3ef249d672a6e44368d", "fusion_lat": 0.0, "name": "8173397129ebe3ef249d672a6e44368d", "is_reserved": 0, "rental_uris": {"android": "https://dc.lft.to/lastmile_qr_scan", "ios": "https://dc.lft.to/lastmile_qr_scan"}, "fusion_lon": 0.0}, {"lat": 38.8974675, "is_disabled": 0, "type": "electric_scooter", "lon": -77.00075683333333, "bike_id": "6af9a13dbf76e1eb34fcab4d5c29a22b", "fusion_lat": 0.0, "name": "6af9a13dbf76e1eb34fcab4d5c29a22b", "is_reserved": 0, "rental_uris": {"android": "https://dc.lft.to/lastmile_qr_scan", "ios": "https://dc.lft.to/lastmile_qr_scan"}, "fusion_lon": 0.0}, {"lat": 38.90296466666667, "is_disabled": 0, "type": "electric_scooter", "lon": -77.03836483333333, "bike_id": "59d3181304f9d8f0953aa110abba7984", "fusion_lat": 0.0, "name": "59d3181304f9d8f0953aa110abba7984", "is_reserved": 0, "rental_uris": {"android": "https://dc.lft.to/lastmile_qr_scan", "ios": "https://dc.lft.to/lastmile_qr_scan"}, "fusion_lon": 0.0}, {"lat": 38.93318266666667, "is_disabled": 0, "type": "electric_scooter", "lon": -77.04519316666666, "bike_id": "9d21e31271e5af8f969435de6c7efa0e", "fusion_lat": 0.0, "name": "9d21e31271e5af8f969435de6c7efa0e", "is_reserved": 0, "rental_uris": {"android": "https://dc.lft.to/lastmile_qr_scan", "ios": "https://dc.lft.to/lastmile_qr_scan"}, "fusion_lon": 0.0}, {"lat": 38.91782416666667, "is_disabled": 0, "type": "electric_scooter", "lon": -77.02309066666666, "bike_id": "c377a4594ac21af49ab83ffca720fd31", "fusion_lat": 0.0, "name": "c377a4594ac21af49ab83ffca720fd31", "is_reserved": 0, "rental_uris": {"android": "https://dc.lft.to/lastmile_qr_scan", "ios": "https://dc.lft.to/lastmile_qr_scan"}, "fusion_lon": 0.0}, {"lat": 38.89757516666667, "is_disabled": 0, "type": "electric_scooter", "lon": -77.02696716666667, "bike_id": "e9c60cb68f58942cd9627033e91eed72", "fusion_lat": 0.0, "name": "e9c60cb68f58942cd9627033e91eed72", "is_reserved": 0, "rental_uris": {"android": "https://dc.lft.to/lastmile_qr_scan", "ios": "https://dc.lft.to/lastmile_qr_scan"}, "fusion_lon": 0.0}, {"lat": 38.8667625, "is_disabled": 0, "type": "electric_scooter", "lon": -76.98547, "bike_id": "80cd044777b85953e03f87562107429f", "fusion_lat": 0.0, "name": "80cd044777b85953e03f87562107429f", "is_reserved": 0, "rental_uris": {"android": "https://dc.lft.to/lastmile_qr_scan", "ios": "https://dc.lft.to/lastmile_qr_scan"}, "fusion_lon": 0.0}, {"lat": 38.9068815, "is_disabled": 0, "type": "electric_scooter", "lon": -77.03773416666667, "bike_id": "d302497efe177c9c5bf5131d106cee2f", "fusion_lat": 0.0, "name": "d302497efe177c9c5bf5131d106cee2f", "is_reserved": 0, "rental_uris": {"android": "https://dc.lft.to/lastmile_qr_scan", "ios": "https://dc.lft.to/lastmile_qr_scan"}, "fusion_lon": 0.0}, {"lat": 38.905985333333334, "is_disabled": 0, "type": "electric_scooter", "lon": -77.0487295, "bike_id": "d2a445cbd094a9979716dbcf9e984d47", "fusion_lat": 0.0, "name": "d2a445cbd094a9979716dbcf9e984d47", "is_reserved": 0, "rental_uris": {"android": "https://dc.lft.to/lastmile_qr_scan", "ios": "https://dc.lft.to/lastmile_qr_scan"}, "fusion_lon": 0.0}, {"lat": 38.922120666666665, "is_disabled": 0, "type": "electric_scooter", "lon": -77.04022183333333, "bike_id": "e58176a886c78a1262ecca52ba33ce7d", "fusion_lat": 0.0, "name": "e58176a886c78a1262ecca52ba33ce7d", "is_reserved": 0, "rental_uris": {"android": "https://dc.lft.to/lastmile_qr_scan", "ios": "https://dc.lft.to/lastmile_qr_scan"}, "fusion_lon": 0.0}, {"lat": 38.8986175, "is_disabled": 0, "type": "electric_scooter", "lon": -77.0202715, "bike_id": "36a5fe533befa0b655927b21fef79681", "fusion_lat": 0.0, "name": "36a5fe533befa0b655927b21fef79681", "is_reserved": 0, "rental_uris": {"android": "https://dc.lft.to/lastmile_qr_scan", "ios": "https://dc.lft.to/lastmile_qr_scan"}, "fusion_lon": 0.0}, {"lat": 38.8984655, "is_disabled": 0, "type": "electric_scooter", "lon": -77.04367916666666, "bike_id": "6d3a925e3d73656c11d05139c508bbd8", "fusion_lat": 0.0, "name": "6d3a925e3d73656c11d05139c508bbd8", "is_reserved": 0, "rental_uris": {"android": "https://dc.lft.to/lastmile_qr_scan", "ios": "https://dc.lft.to/lastmile_qr_scan"}, "fusion_lon": 0.0}, {"lat": 38.912194, "is_disabled": 0, "type": "electric_scooter", "lon": -77.02804483333334, "bike_id": "756415890b55457895115df020bc1847", "fusion_lat": 0.0, "name": "756415890b55457895115df020bc1847", "is_reserved": 0, "rental_uris": {"android": "https://dc.lft.to/lastmile_qr_scan", "ios": "https://dc.lft.to/lastmile_qr_scan"}, "fusion_lon": 0.0}, {"lat": 38.902584166666664, "is_disabled": 0, "type": "electric_scooter", "lon": -77.04361833333333, "bike_id": "3d16c51a4a379502881dd06fa45e7a47", "fusion_lat": 0.0, "name": "3d16c51a4a379502881dd06fa45e7a47", "is_reserved": 0, "rental_uris": {"android": "https://dc.lft.to/lastmile_qr_scan", "ios": "https://dc.lft.to/lastmile_qr_scan"}, "fusion_lon": 0.0}, {"lat": 38.87677033333333, "is_disabled": 0, "type": "electric_scooter", "lon": -77.01985266666667, "bike_id": "5314058158a739c87437a23e6d1af6f4", "fusion_lat": 0.0, "name": "5314058158a739c87437a23e6d1af6f4", "is_reserved": 0, "rental_uris": {"android": "https://dc.lft.to/lastmile_qr_scan", "ios": "https://dc.lft.to/lastmile_qr_scan"}, "fusion_lon": 0.0}, {"lat": 38.900022666666665, "is_disabled": 0, "type": "electric_scooter", "lon": -76.99864416666667, "bike_id": "ac052f5db2d8b75bc18862735727113d", "fusion_lat": 0.0, "name": "ac052f5db2d8b75bc18862735727113d", "is_reserved": 0, "rental_uris": {"android": "https://dc.lft.to/lastmile_qr_scan", "ios": "https://dc.lft.to/lastmile_qr_scan"}, "fusion_lon": 0.0}, {"lat": 38.85438166666667, "is_disabled": 0, "type": "electric_bike", "lon": -76.90979766666666, "bike_id": "4c20b9cdf971630e9aef0a45bf940e92", "fusion_lat": 0.0, "name": "4c20b9cdf971630e9aef0a45bf940e92", "is_reserved": 0, "rental_uris": {"android": "https://dc.lft.to/lastmile_qr_scan", "ios": "https://dc.lft.to/lastmile_qr_scan"}, "fusion_lon": 0.0}, {"lat": 38.876291333333334, "is_disabled": 0, "type": "electric_scooter", "lon": -76.965331, "bike_id": "31a45b34f8f95d90b02d14725747a921", "fusion_lat": 0.0, "name": "31a45b34f8f95d90b02d14725747a921", "is_reserved": 0, "rental_uris": {"android": "https://dc.lft.to/lastmile_qr_scan", "ios": "https://dc.lft.to/lastmile_qr_scan"}, "fusion_lon": 0.0}, {"lat": 38.9267455, "is_disabled": 0, "type": "electric_scooter", "lon": -77.03668233333333, "bike_id": "51b9a7c1f87e36513862744ba59928d4", "fusion_lat": 0.0, "name": "51b9a7c1f87e36513862744ba59928d4", "is_reserved": 0, "rental_uris": {"android": "https://dc.lft.to/lastmile_qr_scan", "ios": "https://dc.lft.to/lastmile_qr_scan"}, "fusion_lon": 0.0}, {"lat": 38.923687666666666, "is_disabled": 0, "type": "electric_scooter", "lon": -77.0512815, "bike_id": "c1b6a3d7ff57fc7aadec61463005c016", "fusion_lat": 0.0, "name": "c1b6a3d7ff57fc7aadec61463005c016", "is_reserved": 0, "rental_uris": {"android": "https://dc.lft.to/lastmile_qr_scan", "ios": "https://dc.lft.to/lastmile_qr_scan"}, "fusion_lon": 0.0}, {"lat": 38.924725, "is_disabled": 0, "type": "electric_scooter", "lon": -77.05236, "bike_id": "d38a735e4f0339d6ecc598cf1b1c3f31", "fusion_lat": 0.0, "name": "d38a735e4f0339d6ecc598cf1b1c3f31", "is_reserved": 0, "rental_uris": {"android": "https://dc.lft.to/lastmile_qr_scan", "ios": "https://dc.lft.to/lastmile_qr_scan"}, "fusion_lon": 0.0}, {"lat": 38.900342333333334, "is_disabled": 0, "type": "electric_scooter", "lon": -77.00217183333334, "bike_id": "b6f887177d59d02a6c83a545eb066cd6", "fusion_lat": 0.0, "name": "b6f887177d59d02a6c83a545eb066cd6", "is_reserved": 0, "rental_uris": {"android": "https://dc.lft.to/lastmile_qr_scan", "ios": "https://dc.lft.to/lastmile_qr_scan"}, "fusion_lon": 0.0}, {"lat": 38.933906, "is_disabled": 0, "type": "electric_bike", "lon": -77.03235766666667, "bike_id": "e353d524a0a72be13d6b9b8361368dab", "fusion_lat": 0.0, "name": "e353d524a0a72be13d6b9b8361368dab", "is_reserved": 0, "rental_uris": {"android": "https://dc.lft.to/lastmile_qr_scan", "ios": "https://dc.lft.to/lastmile_qr_scan"}, "fusion_lon": 0.0}, {"lat": 38.844349333333334, "is_disabled": 0, "type": "electric_scooter", "lon": -76.99814666666667, "bike_id": "8e6a8c8a3cc6013fbf4332224a602678", "fusion_lat": 0.0, "name": "8e6a8c8a3cc6013fbf4332224a602678", "is_reserved": 0, "rental_uris": {"android": "https://dc.lft.to/lastmile_qr_scan", "ios": "https://dc.lft.to/lastmile_qr_scan"}, "fusion_lon": 0.0}, {"lat": 38.93232783333333, "is_disabled": 0, "type": "electric_scooter", "lon": -77.03888033333334, "bike_id": "8f1fc89c415badabfb53f5af84b2e6ad", "fusion_lat": 0.0, "name": "8f1fc89c415badabfb53f5af84b2e6ad", "is_reserved": 0, "rental_uris": {"android": "https://dc.lft.to/lastmile_qr_scan", "ios": "https://dc.lft.to/lastmile_qr_scan"}, "fusion_lon": 0.0}, {"lat": 38.918169, "is_disabled": 0, "type": "electric_scooter", "lon": -77.02955166666666, "bike_id": "c7552f5dd30859176bff793d694d9524", "fusion_lat": 0.0, "name": "c7552f5dd30859176bff793d694d9524", "is_reserved": 0, "rental_uris": {"android": "https://dc.lft.to/lastmile_qr_scan", "ios": "https://dc.lft.to/lastmile_qr_scan"}, "fusion_lon": 0.0}, {"lat": 38.905654166666665, "is_disabled": 0, "type": "electric_scooter", "lon": -76.98138583333333, "bike_id": "d85bdbdfcc1ec62303123d99c1c94dac", "fusion_lat": 0.0, "name": "d85bdbdfcc1ec62303123d99c1c94dac", "is_reserved": 0, "rental_uris": {"android": "https://dc.lft.to/lastmile_qr_scan", "ios": "https://dc.lft.to/lastmile_qr_scan"}, "fusion_lon": 0.0}, {"lat": 38.931921, "is_disabled": 0, "type": "electric_scooter", "lon": -77.02837383333333, "bike_id": "ad5dee0228653f105b3efac9edf6b9c0", "fusion_lat": 0.0, "name": "ad5dee0228653f105b3efac9edf6b9c0", "is_reserved": 0, "rental_uris": {"android": "https://dc.lft.to/lastmile_qr_scan", "ios": "https://dc.lft.to/lastmile_qr_scan"}, "fusion_lon": 0.0}, {"lat": 38.8901395, "is_disabled": 0, "type": "electric_scooter", "lon": -76.93742966666667, "bike_id": "e849e114a79b299da7c8eeeec78b0564", "fusion_lat": 0.0, "name": "e849e114a79b299da7c8eeeec78b0564", "is_reserved": 0, "rental_uris": {"android": "https://dc.lft.to/lastmile_qr_scan", "ios": "https://dc.lft.to/lastmile_qr_scan"}, "fusion_lon": 0.0}, {"lat": 38.9179295, "is_disabled": 0, "type": "electric_scooter", "lon": -77.0404455, "bike_id": "cce86d5012aa65d2743b3df5ef657a62", "fusion_lat": 0.0, "name": "cce86d5012aa65d2743b3df5ef657a62", "is_reserved": 0, "rental_uris": {"android": "https://dc.lft.to/lastmile_qr_scan", "ios": "https://dc.lft.to/lastmile_qr_scan"}, "fusion_lon": 0.0}, {"lat": 38.922892, "is_disabled": 0, "type": "electric_scooter", "lon": -77.03660966666666, "bike_id": "c72f50290a40696133d11527423a7046", "fusion_lat": 0.0, "name": "c72f50290a40696133d11527423a7046", "is_reserved": 0, "rental_uris": {"android": "https://dc.lft.to/lastmile_qr_scan", "ios": "https://dc.lft.to/lastmile_qr_scan"}, "fusion_lon": 0.0}, {"lat": 38.89826333333333, "is_disabled": 0, "type": "electric_scooter", "lon": -77.029412, "bike_id": "e2a83f04cc247181e281fe3344fe3182", "fusion_lat": 0.0, "name": "e2a83f04cc247181e281fe3344fe3182", "is_reserved": 0, "rental_uris": {"android": "https://dc.lft.to/lastmile_qr_scan", "ios": "https://dc.lft.to/lastmile_qr_scan"}, "fusion_lon": 0.0}, {"lat": 38.903945666666665, "is_disabled": 0, "type": "electric_scooter", "lon": -77.00574616666667, "bike_id": "e9a4a19c0f485f5f5aaba25204d1962f", "fusion_lat": 0.0, "name": "e9a4a19c0f485f5f5aaba25204d1962f", "is_reserved": 0, "rental_uris": {"android": "https://dc.lft.to/lastmile_qr_scan", "ios": "https://dc.lft.to/lastmile_qr_scan"}, "fusion_lon": 0.0}, {"lat": 38.8766575, "is_disabled": 0, "type": "electric_scooter", "lon": -77.00404016666667, "bike_id": "11854dfa3059ac8e483de47791b38f57", "fusion_lat": 0.0, "name": "11854dfa3059ac8e483de47791b38f57", "is_reserved": 0, "rental_uris": {"android": "https://dc.lft.to/lastmile_qr_scan", "ios": "https://dc.lft.to/lastmile_qr_scan"}, "fusion_lon": 0.0}, {"lat": 38.918033666666666, "is_disabled": 0, "type": "electric_bike", "lon": -77.223408, "bike_id": "2b79eacc228d9f11d9d68d5def351e3e", "fusion_lat": 0.0, "name": "2b79eacc228d9f11d9d68d5def351e3e", "is_reserved": 0, "rental_uris": {"android": "https://dc.lft.to/lastmile_qr_scan", "ios": "https://dc.lft.to/lastmile_qr_scan"}, "fusion_lon": 0.0}, {"lat": 38.920197, "is_disabled": 0, "type": "electric_scooter", "lon": -77.014352, "bike_id": "365e3eda8dbecba4c9dc9c4631f8bf0f", "fusion_lat": 0.0, "name": "365e3eda8dbecba4c9dc9c4631f8bf0f", "is_reserved": 0, "rental_uris": {"android": "https://dc.lft.to/lastmile_qr_scan", "ios": "https://dc.lft.to/lastmile_qr_scan"}, "fusion_lon": 0.0}, {"lat": 38.923202833333335, "is_disabled": 0, "type": "electric_scooter", "lon": -77.03661133333334, "bike_id": "7e09cd0e74f68d23f0aeac624ab765ce", "fusion_lat": 0.0, "name": "7e09cd0e74f68d23f0aeac624ab765ce", "is_reserved": 0, "rental_uris": {"android": "https://dc.lft.to/lastmile_qr_scan", "ios": "https://dc.lft.to/lastmile_qr_scan"}, "fusion_lon": 0.0}, {"lat": 38.89678933333333, "is_disabled": 0, "type": "electric_scooter", "lon": -77.05130733333333, "bike_id": "cf1b2446d5da728588b6ab388f3c6646", "fusion_lat": 0.0, "name": "cf1b2446d5da728588b6ab388f3c6646", "is_reserved": 0, "rental_uris": {"android": "https://dc.lft.to/lastmile_qr_scan", "ios": "https://dc.lft.to/lastmile_qr_scan"}, "fusion_lon": 0.0}, {"lat": 38.912728666666666, "is_disabled": 0, "type": "electric_scooter", "lon": -77.02253283333333, "bike_id": "68895e2bab9bea436cc6fe7671c24c54", "fusion_lat": 0.0, "name": "68895e2bab9bea436cc6fe7671c24c54", "is_reserved": 0, "rental_uris": {"android": "https://dc.lft.to/lastmile_qr_scan", "ios": "https://dc.lft.to/lastmile_qr_scan"}, "fusion_lon": 0.0}, {"lat": 38.898874, "is_disabled": 0, "type": "electric_scooter", "lon": -76.931802, "bike_id": "a784748f9d02262a710148958c46dc53", "fusion_lat": 0.0, "name": "a784748f9d02262a710148958c46dc53", "is_reserved": 0, "rental_uris": {"android": "https://dc.lft.to/lastmile_qr_scan", "ios": "https://dc.lft.to/lastmile_qr_scan"}, "fusion_lon": 0.0}, {"lat": 38.90375783333333, "is_disabled": 0, "type": "electric_scooter", "lon": -77.03580816666667, "bike_id": "ac165862934bebe992972a1050589e65", "fusion_lat": 0.0, "name": "ac165862934bebe992972a1050589e65", "is_reserved": 0, "rental_uris": {"android": "https://dc.lft.to/lastmile_qr_scan", "ios": "https://dc.lft.to/lastmile_qr_scan"}, "fusion_lon": 0.0}, {"lat": 38.9248325, "is_disabled": 0, "type": "electric_bike", "lon": -76.99025883333333, "bike_id": "48618528d298a55af898bd5c17158922", "fusion_lat": 0.0, "name": "48618528d298a55af898bd5c17158922", "is_reserved": 0, "rental_uris": {"android": "https://dc.lft.to/lastmile_qr_scan", "ios": "https://dc.lft.to/lastmile_qr_scan"}, "fusion_lon": 0.0},