{"data": {"bikes": [{"rental_uris": {"ios": "https://dc.lft.to/lastmile_qr_scan", "android": "https://dc.lft.to/lastmile_qr_scan"}, "lon": -77.00034233333334, "type": "electric_bike", "fusion_lat": 0.0, "lat": 38.8743255, "name": "3e1c7455e5be4af1847b75192fca10cf", "fusion_lon": 0.0, "bike_id": "3e1c7455e5be4af1847b75192fca10cf", "is_disabled": 0, "is_reserved": 0}, {"rental_uris": {"ios": "https://dc.lft.to/lastmile_qr_scan", "android": "https://dc.lft.to/lastmile_qr_scan"}, "lon": -77.02712333333334, "type": "electric_scooter", "fusion_lat": 0.0, "lat": 38.903604666666666, "name": "f6156438d1480010422a60bcf017f860", "fusion_lon": 0.0, "bike_id": "f6156438d1480010422a60bcf017f860", "is_disabled": 0, "is_reserved": 0}, {"rental_uris": {"ios": "https://dc.lft.to/lastmile_qr_scan", "android": "https://dc.lft.to/lastmile_qr_scan"}, "lon": -77.02126116666666, "type": "electric_scooter", "fusion_lat": 0.0, "lat": 38.899762333333335, "name": "cd90fca17c20e101c1676f43fc1a50a9", "fusion_lon": 0.0, "bike_id": "cd90fca17c20e101c1676f43fc1a50a9", "is_disabled": 0, "is_reserved": 0}, {"rental_uris": {"ios": "https://dc.lft.to/lastmile_qr_scan", "android": "https://dc.lft.to/lastmile_qr_scan"}, "lon": -77.06531733333334, "type": "electric_scooter", "fusion_lat": 0.0, "lat": 38.9347355, "name": "91f712fc03fe852b55a1e08095a70fdc", "fusion_lon": 0.0, "bike_id": "91f712fc03fe852b55a1e08095a70fdc", "is_disabled": 0, "is_reserved": 0}, {"rental_uris": {"ios": "https://dc.lft.to/lastmile_qr_scan", "android": "https://dc.lft.to/lastmile_qr_scan"}, "lon": -77.02828283333334, "type": "electric_scooter", "fusion_lat": 0.0, "lat": 38.92479933333333, "name": "4bfc2310ae21a425f09cb8a19f83379b", "fusion_lon": 0.0, "bike_id": "4bfc2310ae21a425f09cb8a19f83379b", "is_disabled": 0, "is_reserved": 0}, {"rental_uris": {"ios": "https://dc.lft.to/lastmile_qr_scan", "android": "https://dc.lft.to/lastmile_qr_scan"}, "lon": -77.04821966666667, "type": "electric_scooter", "fusion_lat": 0.0, "lat": 38.913306, "name": "8bdf6fd98113cc3b31182cc274abb443", "fusion_lon": 0.0, "bike_id": "8bdf6fd98113cc3b31182cc274abb443", "is_disabled": 0, "is_reserved": 0}, {"rental_uris": {"ios": "https://dc.lft.to/lastmile_qr_scan", "android": "https://dc.lft.to/lastmile_qr_scan"}, "lon": -77.09559516666667, "type": "electric_bike", "fusion_lat": 0.0, "lat": 38.917018166666665, "name": "964d0771a131c55c7b7f5c008be367d3", "fusion_lon": 0.0, "bike_id": "964d0771a131c55c7b7f5c008be367d3", "is_disabled": 0, "is_reserved": 0}, {"rental_uris": {"ios": "https://dc.lft.to/lastmile_qr_scan", "android": "https://dc.lft.to/lastmile_qr_scan"}, "lon": -77.01320866666667, "type": "electric_scooter", "fusion_lat": 0.0, "lat": 38.892341333333334, "name": "9481815e61d3e8ff4fd5e7751ef7d336", "fusion_lon": 0.0, "bike_id": "9481815e61d3e8ff4fd5e7751ef7d336", "is_disabled": 0, "is_reserved": 0}, {"rental_uris": {"ios": "https://dc.lft.to/lastmile_qr_scan", "android": "https://dc.lft.to/lastmile_qr_scan"}, "lon": -76.908189, "type": "electric_bike", "fusion_lat": 0.0, "lat": 38.994556833333334, "name": "352ec950c58af347d9b3bf900f90efc7", "fusion_lon": 0.0, "bike_id": "352ec950c58af347d9b3bf900f90efc7", "is_disabled": 0, "is_reserved": 0}, {"rental_uris": {"ios": "https://dc.lft.to/lastmile_qr_scan", "android": "https://dc.lft.to/lastmile_qr_scan"}, "lon": -77.025282, "type": "electric_scooter", "fusion_lat": 0.0, "lat": 38.918156, "name": "1898c5ab86efd4d1432f80f7563f64b0", "fusion_lon": 0.0, "bike_id": "1898c5ab86efd4d1432f80f7563f64b0", "is_disabled": 0, "is_reserved": 0}, {"rental_uris": {"ios": "https://dc.lft.to/lastmile_qr_scan", "android": "https://dc.lft.to/lastmile_qr_scan"}, "lon": -76.98438333333333, "type": "electric_scooter", "fusion_lat": 0.0, "lat": 38.914276666666666, "name": "3cddb4048f625b9b64d9c62d6d50b6e7", "fusion_lon": 0.0, "bike_id": "3cddb4048f625b9b64d9c62d6d50b6e7", "is_disabled": 0, "is_reserved": 0}, {"rental_uris": {"ios": "https://dc.lft.to/lastmile_qr_scan", "android": "https://dc.lft.to/lastmile_qr_scan"}, "lon": -77.04819866666666, "type": "electric_scooter", "fusion_lat": 0.0, "lat": 38.9204035, "name": "5d8385d10e974702e0522481178ea71b", "fusion_lon": 0.0, "bike_id": "5d8385d10e974702e0522481178ea71b", "is_disabled": 0, "is_reserved": 0}, {"rental_uris": {"ios": "https://dc.lft.to/lastmile_qr_scan", "android": "https://dc.lft.to/lastmile_qr_scan"}, "lon": -77.01189866666667, "type": "electric_scooter", "fusion_lat": 0.0, "lat": 38.915478, "name": "128a57d17ae92c563c1392953c16fa24", "fusion_lon": 0.0, "bike_id": "128a57d17ae92c563c1392953c16fa24", "is_disabled": 0, "is_reserved": 0}, {"rental_uris": {"ios": "https://dc.lft.to/lastmile_qr_scan", "android": "https://dc.lft.to/lastmile_qr_scan"}, "lon": -76.99832916666666, "type": "electric_bike", "fusion_lat": 0.0, "lat": 38.844585333333335, "name": "962e7be2d2ec6226b3970ac02a53a839", "fusion_lon": 0.0, "bike_id": "962e7be2d2ec6226b3970ac02a53a839", "is_disabled": 0, "is_reserved": 0}, {"rental_uris": {"ios": "https://dc.lft.to/lastmile_qr_scan", "android": "https://dc.lft.to/lastmile_qr_scan"}, "lon": -76.946647, "type": "electric_scooter", "fusion_lat": 0.0, "lat": 38.89869483333333, "name": "5ca0a32e2e76592f5f1e5b2fa7c97904", "fusion_lon": 0.0, "bike_id": "5ca0a32e2e76592f5f1e5b2fa7c97904", "is_disabled": 0, "is_reserved": 0}, {"rental_uris": {"ios": "https://dc.lft.to/lastmile_qr_scan", "android": "https://dc.lft.to/lastmile_qr_scan"}, "lon": -77.0006815, "type": "electric_scooter", "fusion_lat": 0.0, "lat": 38.92549483333333, "name": "935c064e54736159e4f1cb6c24dc0e63", "fusion_lon": 0.0, "bike_id": "935c064e54736159e4f1cb6c24dc0e63", "is_disabled": 0, "is_reserved": 0}, {"rental_uris": {"ios": "https://dc.lft.to/lastmile_qr_scan", "android": "https://dc.lft.to/lastmile_qr_scan"}, "lon": -77.03861633333334, "type": "electric_scooter", "fusion_lat": 0.0, "lat": 38.915602166666666, "name": "8717e9a62a482192c54e7e475f278a4f", "fusion_lon": 0.0, "bike_id": "8717e9a62a482192c54e7e475f278a4f", "is_disabled": 0, "is_reserved": 0}, {"rental_uris": {"ios": "https://dc.lft.to/lastmile_qr_scan", "android": "https://dc.lft.to/lastmile_qr_scan"}, "lon": -76.98515366666666, "type": "electric_scooter", "fusion_lat": 0.0, "lat": 38.909996166666666, "name": "c3a65b2a756c7389fb6800a7be967e1d", "fusion_lon": 0.0, "bike_id": "c3a65b2a756c7389fb6800a7be967e1d", "is_disabled": 0, "is_reserved": 0}, {"rental_uris": {"ios": "https://dc.lft.to/lastmile_qr_scan", "android": "https://dc.lft.to/lastmile_qr_scan"}, "lon": -77.03838833333333, "type": "electric_scooter", "fusion_lat": 0.0, "lat": 38.90753683333333, "name": "53062f78961a0c8f8a8eb74d8ca35f5a", "fusion_lon": 0.0, "bike_id": "53062f78961a0c8f8a8eb74d8ca35f5a", "is_disabled": 0, "is_reserved": 0}, {"rental_uris": {"ios": "https://dc.lft.to/lastmile_qr_scan", "android": "https://dc.lft.to/lastmile_qr_scan"}, "lon": -77.00333483333333, "type": "electric_bike", "fusion_lat": 0.0, "lat": 38.87661816666667, "name": "b76fa08dbfba38681b4e1686353db498", "fusion_lon": 0.0, "bike_id": "b76fa08dbfba38681b4e1686353db498", "is_disabled": 0, "is_reserved": 0}, {"rental_uris": {"ios": "https://dc.lft.to/lastmile_qr_scan", "android": "https://dc.lft.to/lastmile_qr_scan"}, "lon": -76.986056, "type": "electric_scooter", "fusion_lat": 0.0, "lat": 38.87838966666666, "name": "1ccbfd70a243d943b69cf881ac60cbc7", "fusion_lon": 0.0, "bike_id": "1ccbfd70a243d943b69cf881ac60cbc7", "is_disabled": 0, "is_reserved": 0}, {"rental_uris": {"ios": "https://dc.lft.to/lastmile_qr_scan", "android": "https://dc.lft.to/lastmile_qr_scan"}, "lon": -76.97411933333333, "type": "electric_scooter", "fusion_lat": 0.0, "lat": 38.90241566666667, "name": "1eb7ff1fcc9e8a3f2e50034d0cf41e42", "fusion_lon": 0.0, "bike_id": "1eb7ff1fcc9e8a3f2e50034d0cf41e42", "is_disabled": 0, "is_reserved": 0}, {"rental_uris": {"ios": "https://dc.lft.to/lastmile_qr_scan", "android": "https://dc.lft.to/lastmile_qr_scan"}, "lon": -77.0111365, "type": "electric_scooter", "fusion_lat": 0.0, "lat": 38.870891, "name": "dfa0661c2bc8d6de3ce6498b9e40f574", "fusion_lon": 0.0, "bike_id": "dfa0661c2bc8d6de3ce6498b9e40f574", "is_disabled": 0, "is_reserved": 0}, {"rental_uris": {"ios": "https://dc.lft.to/lastmile_qr_scan", "android": "https://dc.lft.to/lastmile_qr_scan"}, "lon": -77.034123, "type": "electric_scooter", "fusion_lat": 0.0, "lat": 38.924273166666666, "name": "85e4c114e09f219c79b26adc42442b2a", "fusion_lon": 0.0, "bike_id": "85e4c114e09f219c79b26adc42442b2a", "is_disabled": 0, "is_reserved": 0}, {"rental_uris": {"ios": "https://dc.lft.to/lastmile_qr_scan", "android": "https://dc.lft.to/lastmile_qr_scan"}, "lon": -76.92844083333334, "type": "electric_scooter", "fusion_lat": 0.0, "lat": 38.88363016666667, "name": "55142afce7542b35be1f1a4a03bb6cdf", "fusion_lon": 0.0, "bike_id": "55142afce7542b35be1f1a4a03bb6cdf", "is_disabled": 0, "is_reserved": 0}, {"rental_uris": {"ios": "https://dc.lft.to/lastmile_qr_scan", "android": "https://dc.lft.to/lastmile_qr_scan"}, "lon": -77.0315395, "type": "electric_scooter", "fusion_lat": 0.0, "lat": 38.893648666666664, "name": "7d68cc8ef2039abcaed2e89f8a52249e", "fusion_lon": 0.0, "bike_id": "7d68cc8ef2039abcaed2e89f8a52249e", "is_disabled": 0, "is_reserved": 0}, {"rental_uris": {"ios": "https://dc.lft.to/lastmile_qr_scan", "android": "https://dc.lft.to/lastmile_qr_scan"}, "lon": -76.99458416666667, "type": "electric_scooter", "fusion_lat": 0.0, "lat": 38.85163166666667, "name": "4f521f058c398e0e5e7e7b620ccbb116", "fusion_lon": 0.0, "bike_id": "4f521f058c398e0e5e7e7b620ccbb116", "is_disabled": 0, "is_reserved": 0}, {"rental_uris": {"ios": "https://dc.lft.to/lastmile_qr_scan", "android": "https://dc.lft.to/lastmile_qr_scan"}, "lon": -77.03948433333333, "type": "electric_scooter", "fusion_lat": 0.0, "lat": 38.90270366666667, "name": "07faa1fe7b64c5a832a05ef30e640f36", "fusion_lon": 0.0, "bike_id": "07faa1fe7b64c5a832a05ef30e640f36", "is_disabled": 0, "is_reserved": 0}, {"rental_uris": {"ios": "https://dc.lft.to/lastmile_qr_scan", "android": "https://dc.lft.to/lastmile_qr_scan"}, "lon": -76.95680783333333, "type": "electric_bike", "fusion_lat": 0.0, "lat": 38.94732, "name": "80edbf035c6bea29f00942d7dc46017f", "fusion_lon": 0.0, "bike_id": "80edbf035c6bea29f00942d7dc46017f", "is_disabled": 0, "is_reserved": 0}, {"rental_uris": {"ios": "https://dc.lft.to/lastmile_qr_scan", "android": "https://dc.lft.to/lastmile_qr_scan"}, "lon": -77.035743, "type": "electric_scooter", "fusion_lat": 0.0, "lat": 38.93980916666667, "name": "233a26ec4f06eb88565bd4b27b99fa5a", "fusion_lon": 0.0, "bike_id": "233a26ec4f06eb88565bd4b27b99fa5a", "is_disabled": 0, "is_reserved": 0}, {"rental_uris": {"ios": "https://dc.lft.to/lastmile_qr_scan", "android": "https://dc.lft.to/lastmile_qr_scan"}, "lon": -77.0387925, "type": "electric_scooter", "fusion_lat": 0.0, "lat": 38.922468333333335, "name": "7967cd20ab0b0801add6a28ed10b82ab", "fusion_lon": 0.0, "bike_id": "7967cd20ab0b0801add6a28ed10b82ab", "is_disabled": 0, "is_reserved": 0}, {"rental_uris": {"ios": "https://dc.lft.to/lastmile_qr_scan", "android": "https://dc.lft.to/lastmile_qr_scan"}, "lon": -76.93159566666667, "type": "electric_scooter", "fusion_lat": 0.0, "lat": 38.898776833333336, "name": "3106859897114779dfbf116c021096e9", "fusion_lon": 0.0, "bike_id": "3106859897114779dfbf116c021096e9", "is_disabled": 0, "is_reserved": 0}, {"rental_uris": {"ios": "https://dc.lft.to/lastmile_qr_scan", "android": "https://dc.lft.to/lastmile_qr_scan"}, "lon": -77.04569483333333, "type": "electric_scooter", "fusion_lat": 0.0, "lat": 38.9106155, "name": "718407bbf4724ea89ef9b9dde1b0ba71", "fusion_lon": 0.0, "bike_id": "718407bbf4724ea89ef9b9dde1b0ba71", "is_disabled": 0, "is_reserved": 0}, {"rental_uris": {"ios": "https://dc.lft.to/lastmile_qr_scan", "android": "https://dc.lft.to/lastmile_qr_scan"}, "lon": -76.94844, "type": "electric_scooter", "fusion_lat": 0.0, "lat": 38.8841265, "name": "41870db65c56d9b518c3428c9c43b109", "fusion_lon": 0.0, "bike_id": "41870db65c56d9b518c3428c9c43b109", "is_disabled": 0, "is_reserved": 0}, {"rental_uris": {"ios": "https://dc.lft.to/lastmile_qr_scan", "android": "https://dc.lft.to/lastmile_qr_scan"}, "lon": -76.92877533333333, "type": "electric_scooter", "fusion_lat": 0.0, "lat": 38.884432833333335, "name": "ae356c0da8ea480d375ce0235850f5d1", "fusion_lon": 0.0, "bike_id": "ae356c0da8ea480d375ce0235850f5d1", "is_disabled": 0, "is_reserved": 0}, {"rental_uris": {"ios": "https://dc.lft.to/lastmile_qr_scan", "android": "https://dc.lft.to/lastmile_qr_scan"}, "lon": -77.04831616666667, "type": "electric_scooter", "fusion_lat": 0.0, "lat": 38.9097205, "name": "fafb8857575f3ce8c2893aaa1830b176", "fusion_lon": 0.0, "bike_id": "fafb8857575f3ce8c2893aaa1830b176", "is_disabled": 0, "is_reserved": 0}, {"rental_uris": {"ios": "https://dc.lft.to/lastmile_qr_scan", "android": "https://dc.lft.to/lastmile_qr_scan"}, "lon": -77.02015833333333, "type": "electric_bike", "fusion_lat": 0.0, "lat": 38.93725416666667, "name": "14df5dfea4772ff073311072d356433e", "fusion_lon": 0.0, "bike_id": "14df5dfea4772ff073311072d356433e", "is_disabled": 0, "is_reserved": 0}, {"rental_uris": {"ios": "https://dc.lft.to/lastmile_qr_scan", "android": "https://dc.lft.to/lastmile_qr_scan"}, "lon": -77.03638666666667, "type": "electric_scooter", "fusion_lat": 0.0, "lat": 38.902816333333334, "name": "0cd0f30c6ae4e94a720819f8cf9d448c", "fusion_lon": 0.0, "bike_id": "0cd0f30c6ae4e94a720819f8cf9d448c", "is_disabled": 0, "is_reserved": 0}, {"rental_uris": {"ios": "https://dc.lft.to/lastmile_qr_scan", "android": "https://dc.lft.to/lastmile_qr_scan"}, "lon": -77.08048366666667, "type": "electric_bike", "fusion_lat": 0.0, "lat": 38.8483985, "name": "987bd07fa5479d6d11349ba888319ad3", "fusion_lon": 0.0, "bike_id": "987bd07fa5479d6d11349ba888319ad3", "is_disabled": 0, "is_reserved": 0}, {"rental_uris": {"ios": "https://dc.lft.to/lastmile_qr_scan", "android": "https://dc.lft.to/lastmile_qr_scan"}, "lon": -77.03358716666666, "type": "electric_scooter", "fusion_lat": 0.0, "lat": 38.8851115, "name": "5eb9af8f5cb27329b70f0f5c11182d46", "fusion_lon": 0.0, "bike_id": "5eb9af8f5cb27329b70f0f5c11182d46", "is_disabled": 0, "is_reserved": 0}, {"rental_uris": {"ios": "https://dc.lft.to/lastmile_qr_scan", "android": "https://dc.lft.to/lastmile_qr_scan"}, "lon": -77.17841333333334, "type": "electric_bike", "fusion_lat": 0.0, "lat": 39.088991, "name": "ae6e9b2faee7dd35c05e6d87a4c300ca", "fusion_lon": 0.0, "bike_id": "ae6e9b2faee7dd35c05e6d87a4c300ca", "is_disabled": 0, "is_reserved": 0}, {"rental_uris": {"ios": "https://dc.lft.to/lastmile_qr_scan", "android": "https://dc.lft.to/lastmile_qr_scan"}, "lon": -77.02103133333334, "type": "electric_scooter", "fusion_lat": 0.0, "lat": 38.93110683333333, "name": "91a689c8cd98fedc01c70b10f4f67eec", "fusion_lon": 0.0, "bike_id": "91a689c8cd98fedc01c70b10f4f67eec", "is_disabled": 0, "is_reserved": 0}, {"rental_uris": {"ios": "https://dc.lft.to/lastmile_qr_scan", "android": "https://dc.lft.to/lastmile_qr_scan"}, "lon": -77.00676133333333, "type": "electric_scooter", "fusion_lat": 0.0, "lat": 38.87487133333333, "name": "052ac6d6f9fc3b93b6dd92224c441ee3", "fusion_lon": 0.0, "bike_id": "052ac6d6f9fc3b93b6dd92224c441ee3", "is_disabled": 0, "is_reserved": 0}, {"rental_uris": {"ios": "https://dc.lft.to/lastmile_qr_scan", "android": "https://dc.lft.to/lastmile_qr_scan"}, "lon": -77.08541666666666, "type": "electric_bike", "fusion_lat": 0.0, "lat": 38.85623316666667, "name": "55463ad332b45ae9e0b8d53b53c426aa", "fusion_lon": 0.0, "bike_id": "55463ad332b45ae9e0b8d53b53c426aa", "is_disabled": 0, "is_reserved": 0}, {"rental_uris": {"ios": "https://dc.lft.to/lastmile_qr_scan", "android": "https://dc.lft.to/lastmile_qr_scan"}, "lon": -77.02978116666667, "type": "electric_scooter", "fusion_lat": 0.0, "lat": 38.962301833333335, "name": "d715beb326260b201aacc4edf04b40df", "fusion_lon": 0.0, "bike_id": "d715beb326260b201aacc4edf04b40df", "is_disabled": 0, "is_reserved": 0}, {"rental_uris": {"ios": "https://dc.lft.to/lastmile_qr_scan", "android": "https://dc.lft.to/lastmile_qr_scan"}, "lon": -77.02629416666667, "type": "electric_bike", "fusion_lat": 0.0, "lat": 38.962291666666665, "name": "9248ac62b54ab073718448dc198842cc", "fusion_lon": 0.0, "bike_id": "9248ac62b54ab073718448dc198842cc", "is_disabled": 0, "is_reserved": 0}, {"rental_uris": {"ios": "https://dc.lft.to/lastmile_qr_scan", "android": "https://dc.lft.to/lastmile_qr_scan"}, "lon": -77.04103516666666, "type": "electric_scooter", "fusion_lat": 0.0, "lat": 38.918592833333335, "name": "77383a3cfffa4ce06fae6cb625a2a99b", "fusion_lon": 0.0, "bike_id": "77383a3cfffa4ce06fae6cb625a2a99b", "is_disabled": 0, "is_reserved": 0}, {"rental_uris": {"ios": "https://dc.lft.to/lastmile_qr_scan", "android": "https://dc.lft.to/lastmile_qr_scan"}, "lon": -77.038284, "type": "electric_scooter", "fusion_lat": 0.0, "lat": 38.9111385, "name": "487a2c18fd6661cc4b4efecb4c5daa52", "fusion_lon": 0.0, "bike_id": "487a2c18fd6661cc4b4efecb4c5daa52", "is_disabled": 0, "is_reserved": 0}, {"rental_uris": {"ios": "https://dc.lft.to/lastmile_qr_scan", "android": "https://dc.lft.to/lastmile_qr_scan"}, "lon": -77.04419316666667, "type": "electric_scooter", "fusion_lat": 0.0, "lat": 38.8922265, "name": "ce0c8d95cffd92278ea01a11d5995b7e", "fusion_lon": 0.0, "bike_id": "ce0c8d95cffd92278ea01a11d5995b7e", "is_disabled": 0, "is_reserved": 0}, {"rental_uris": {"ios": "https://dc.lft.to/lastmile_qr_scan", "android": "https://dc.lft.to/lastmile_qr_scan"}, "lon": -77.03462716666667, "type": "electric_scooter", "fusion_lat": 0.0, "lat": 38.93449483333333, "name": "9e781b9d51ab67b9e42ffdb4fbb0676f", "fusion_lon": 0.0, "bike_id": "9e781b9d51ab67b9e42ffdb4fbb0676f", "is_disabled": 0, "is_reserved": 0}, {"rental_uris": {"ios": "https://dc.lft.to/lastmile_qr_scan", "android": "https://dc.lft.to/lastmile_qr_scan"}, "lon": -77.00721433333334, "type": "electric_scooter", "fusion_lat": 0.0, "lat": 38.884918166666665, "name": "24a33ced4d4850056948a20c50a95964", "fusion_lon": 0.0, "bike_id": "24a33ced4d4850056948a20c50a95964", "is_disabled": 0, "is_reserved": 0}, {"rental_uris": {"ios": "https://dc.lft.to/lastmile_qr_scan", "android": "https://dc.lft.to/lastmile_qr_scan"}, "lon": -77.04786616666667, "type": "electric_scooter", "fusion_lat": 0.0, "lat": 38.892258166666664, "name": "521477b0b051f9e4029295e66fd3ac84", "fusion_lon": 0.0, "bike_id": "521477b0b051f9e4029295e66fd3ac84", "is_disabled": 0, "is_reserved": 0}, {"rental_uris": {"ios": "https://dc.lft.to/lastmile_qr_scan", "android": "https://dc.lft.to/lastmile_qr_scan"}, "lon": -77.00209716666667, "type": "electric_scooter", "fusion_lat": 0.0, "lat": 38.900243, "name": "a292c96d76188c67ac112d0110ae28f1", "fusion_lon": 0.0, "bike_id": "a292c96d76188c67ac112d0110ae28f1", "is_disabled": 0, "is_reserved": 0}, {"rental_uris": {"ios": "https://dc.lft.to/lastmile_qr_scan", "android": "https://dc.lft.to/lastmile_qr_scan"}, "lon": -77.04209416666667, "type": "electric_scooter", "fusion_lat": 0.0, "lat": 38.907484333333336, "name": "7a8d12120e8c50cc98817b2367482ab5", "fusion_lon": 0.0, "bike_id": "7a8d12120e8c50cc98817b2367482ab5", "is_disabled": 0, "is_reserved": 0}, {"rental_uris": {"ios": "https://dc.lft.to/lastmile_qr_scan", "android": "https://dc.lft.to/lastmile_qr_scan"}, "lon": -77.02847766666666, "type": "electric_scooter", "fusion_lat": 0.0, "lat": 38.930729666666664, "name": "48e78e99adc6e29039cede7e7b91f3e1", "fusion_lon": 0.0, "bike_id": "48e78e99adc6e29039cede7e7b91f3e1", "is_disabled": 0, "is_reserved": 0}, {"rental_uris": {"ios": "https://dc.lft.to/lastmile_qr_scan", "android": "https://dc.lft.to/lastmile_qr_scan"}, "lon": -77.04391783333334, "type": "electric_scooter", "fusion_lat": 0.0, "lat": 38.92938183333333, "name": "34696fcc501808240392aebfcd1425b2", "fusion_lon": 0.0, "bike_id": "34696fcc501808240392aebfcd1425b2", "is_disabled": 0, "is_reserved": 0}, {"rental_uris": {"ios": "https://dc.lft.to/lastmile_qr_scan", "android": "https://dc.lft.to/lastmile_qr_scan"}, "lon": -77.01388933333334, "type": "electric_scooter", "fusion_lat": 0.0, "lat": 38.92874283333333, "name": "61246be7d22fea3b2facf00415f935a2", "fusion_lon": 0.0, "bike_id": "61246be7d22fea3b2facf00415f935a2", "is_disabled": 0, "is_reserved": 0}, {"rental_uris": {"ios": "https://dc.lft.to/lastmile_qr_scan", "android": "https://dc.lft.to/lastmile_qr_scan"}, "lon": -77.03082166666667, "type": "electric_scooter", "fusion_lat": 0.0, "lat": 38.92232683333334, "name": "dede8875a215bebf9fe1f69f2a54b6de", "fusion_lon": 0.0, "bike_id": "dede8875a215bebf9fe1f69f2a54b6de", "is_disabled": 0, "is_reserved": 0}, {"rental_uris": {"ios": "https://dc.lft.to/lastmile_qr_scan", "android": "https://dc.lft.to/lastmile_qr_scan"}, "lon": -77.030095, "type": "electric_scooter", "fusion_lat": 0.0, "lat": 38.919306666666664, "name": "a2517b90715b51c31b41d3dd6a0ef8ed", "fusion_lon": 0.0, "bike_id": "a2517b90715b51c31b41d3dd6a0ef8ed", "is_disabled": 0, "is_reserved": 0}, {"rental_uris": {"ios": "https://dc.lft.to/lastmile_qr_scan", "android": "https://dc.lft.to/lastmile_qr_scan"}, "lon": -77.1250645, "type": "electric_bike", "fusion_lat": 0.0, "lat": 39.02419416666667, "name": "7c92f0d068267c93ee9f9b9e7839fc5b", "fusion_lon": 0.0, "bike_id": "7c92f0d068267c93ee9f9b9e7839fc5b", "is_disabled": 0, "is_reserved": 0}, {"rental_uris": {"ios": "https://dc.lft.to/lastmile_qr_scan", "android": "https://dc.lft.to/lastmile_qr_scan"}, "lon": -77.005911, "type": "electric_scooter", "fusion_lat": 0.0, "lat": 38.915628833333336, "name": "59e70b6ca8b7c096c3872d134de8ab48", "fusion_lon": 0.0, "bike_id": "59e70b6ca8b7c096c3872d134de8ab48", "is_disabled": 0, "is_reserved": 0}, {"rental_uris": {"ios": "https://dc.lft.to/lastmile_qr_scan", "android": "https://dc.lft.to/lastmile_qr_scan"}, "lon": -77.02290316666667, "type": "electric_scooter", "fusion_lat": 0.0, "lat": 38.9157305, "name": "ab1fb7d40dd0b4e9d9c3e1a22fb83517", "fusion_lon": 0.0, "bike_id": "ab1fb7d40dd0b4e9d9c3e1a22fb83517", "is_disabled": 0, "is_reserved": 0}, {"rental_uris": {"ios": "https://dc.lft.to/lastmile_qr_scan", "android": "https://dc.lft.to/lastmile_qr_scan"}, "lon": -77.22216366666666, "type": "electric_bike", "fusion_lat": 0.0, "lat": 38.92085483333334, "name": "0f041907ca28b5841de09d6b49f53141", "fusion_lon": 0.0, "bike_id": "0f041907ca28b5841de09d6b49f53141", "is_disabled": 0, "is_reserved": 0}, {"rental_uris": {"ios": "https://dc.lft.to/lastmile_qr_scan", "android": "https://dc.lft.to/lastmile_qr_scan"}, "lon": -77.03901516666667, "type": "electric_scooter", "fusion_lat": 0.0, "lat": 38.9232885, "name": "0d533d13142c170c62f9f3559e2bf007", "fusion_lon": 0.0, "bike_id": "0d533d13142c170c62f9f3559e2bf007", "is_disabled": 0, "is_reserved": 0}, {"rental_uris": {"ios": "https://dc.lft.to/lastmile_qr_scan", "android": "https://dc.lft.to/lastmile_qr_scan"}, "lon": -77.02348333333333, "type": "electric_scooter", "fusion_lat": 0.0, "lat": 38.96209616666667, "name": "1355f92e30a9963595d74a1577f15b97", "fusion_lon": 0.0, "bike_id": "1355f92e30a9963595d74a1577f15b97", "is_disabled": 0, "is_reserved": 0}, {"rental_uris": {"ios": "https://dc.lft.to/lastmile_qr_scan", "android": "https://dc.lft.to/lastmile_qr_scan"}, "lon": -77.02939433333333, "type": "electric_scooter", "fusion_lat": 0.0, "lat": 38.907842333333335, "name": "f1256011012ce1eebbf590f3a33df3b1", "fusion_lon": 0.0, "bike_id": "f1256011012ce1eebbf590f3a33df3b1", "is_disabled": 0, "is_reserved": 0}, {"rental_uris": {"ios": "https://dc.lft.to/lastmile_qr_scan", "android": "https://dc.lft.to/lastmile_qr_scan"}, "lon": -77.02357283333333, "type": "electric_scooter", "fusion_lat": 0.0, "lat": 38.934204, "name": "47087b1462cf03e20f198497d8ab6019", "fusion_lon": 0.0, "bike_id": "47087b1462cf03e20f198497d8ab6019", "is_disabled": 0, "is_reserved": 0}, {"rental_uris": {"ios": "https://dc.lft.to/lastmile_qr_scan", "android": "https://dc.lft.to/lastmile_qr_scan"}, "lon": -77.11434333333334, "type": "electric_bike", "fusion_lat": 0.0, "lat": 38.843033166666665, "name": "2700e78e026e8781458e2f6af8c1b4a2", "fusion_lon": 0.0, "bike_id": "2700e78e026e8781458e2f6af8c1b4a2", "is_disabled": 0, "is_reserved": 0}, {"rental_uris": {"ios": "https://dc.lft.to/lastmile_qr_scan", "android": "https://dc.lft.to/lastmile_qr_scan"}, "lon": -77.0234755, "type": "electric_scooter", "fusion_lat": 0.0, "lat": 38.93136633333334, "name": "2bc5053ad996910d210940a036ecd727", "fusion_lon": 0.0, "bike_id": "2bc5053ad996910d210940a036ecd727", "is_disabled": 0, "is_reserved": 0}, {"rental_uris": {"ios": "https://dc.lft.to/lastmile_qr_scan", "android": "https://dc.lft.to/lastmile_qr_scan"}, "lon": -77.012278, "type": "electric_scooter", "fusion_lat": 0.0, "lat": 38.913256833333335, "name": "15b5422b3a9fb99297de8dd00c711631", "fusion_lon": 0.0, "bike_id": "15b5422b3a9fb99297de8dd00c711631", "is_disabled": 0, "is_reserved": 0}, {"rental_uris": {"ios": "https://dc.lft.to/lastmile_qr_scan", "android": "https://dc.lft.to/lastmile_qr_scan"}, "lon": -76.972583, "type": "electric_bike", "fusion_lat": 0.0, "lat": 38.91920983333333, "name": "095ff4096946d487a7a84577cd5faf3e", "fusion_lon": 0.0, "bike_id": "095ff4096946d487a7a84577cd5faf3e", "is_disabled": 0, "is_reserved": 0}, {"rental_uris": {"ios": "https://dc.lft.to/lastmile_qr_scan", "android": "https://dc.lft.to/lastmile_qr_scan"}, "lon": -77.05091133333333, "type": "electric_bike", "fusion_lat": 0.0, "lat": 38.81334733333333, "name": "eda6e40953b6cde079ebe355057337e1", "fusion_lon": 0.0, "bike_id": "eda6e40953b6cde079ebe355057337e1", "is_disabled": 0, "is_reserved": 0}, {"rental_uris": {"ios": "https://dc.lft.to/lastmile_qr_scan", "android": "https://dc.lft.to/lastmile_qr_scan"}, "lon": -76.93623116666667, "type": "electric_bike", "fusion_lat": 0.0, "lat": 38.970742333333334, "name": "f9b9076d6773272a33b4aa7d119f98de", "fusion_lon": 0.0, "bike_id": "f9b9076d6773272a33b4aa7d119f98de", "is_disabled": 0, "is_reserved": 0}, {"rental_uris": {"ios": "https://dc.lft.to/lastmile_qr_scan", "android": "https://dc.lft.to/lastmile_qr_scan"}, "lon": -77.029879, "type": "electric_scooter", "fusion_lat": 0.0, "lat": 38.895559666666664, "name": "16018b07ba4b7769d98469460f489520", "fusion_lon": 0.0, "bike_id": "16018b07ba4b7769d98469460f489520", "is_disabled": 0, "is_reserved": 0}, {"rental_uris": {"ios": "https://dc.lft.to/lastmile_qr_scan", "android": "https://dc.lft.to/lastmile_qr_scan"}, "lon": -77.01535883333334, "type": "electric_scooter", "fusion_lat": 0.0, "lat": 38.8873955, "name": "49fb80f20254031b60d9df01ef8774e6", "fusion_lon": 0.0, "bike_id": "49fb80f20254031b60d9df01ef8774e6", "is_disabled": 0, "is_reserved": 0}, {"rental_uris": {"ios": "https://dc.lft.to/lastmile_qr_scan", "android": "https://dc.lft.to/lastmile_qr_scan"}, "lon": -77.02702233333333, "type": "electric_scooter", "fusion_lat": 0.0, "lat": 38.8814445, "name": "2c34fb76065703e0e681e536195b7349", "fusion_lon": 0.0, "bike_id": "2c34fb76065703e0e681e536195b7349", "is_disabled": 0, "is_reserved": 0}, {"rental_uris": {"ios": "https://dc.lft.to/lastmile_qr_scan", "android": "https://dc.lft.to/lastmile_qr_scan"}, "lon": -77.079086, "type": "electric_bike", "fusion_lat": 0.0, "lat": 38.839395, "name": "f9754855ce9e0f109305bb3ff656fe56", "fusion_lon": 0.0, "bike_id": "f9754855ce9e0f109305bb3ff656fe56", "is_disabled": 0, "is_reserved": 0}, {"rental_uris": {"ios": "https://dc.lft.to/lastmile_qr_scan", "android": "https://dc.lft.to/lastmile_qr_scan"}, "lon": -77.00780133333333, "type": "electric_scooter", "fusion_lat": 0.0, "lat": 38.87094316666666, "name": "5b90ecf0a1300309ed5c50f981dbd2f3", "fusion_lon": 0.0, "bike_id": "5b90ecf0a1300309ed5c50f981dbd2f3", "is_disabled": 0, "is_reserved": 0}, {"rental_uris": {"ios": "https://dc.lft.to/lastmile_qr_scan", "android": "https://dc.lft.to/lastmile_qr_scan"}, "lon": -76.98625383333334, "type": "electric_scooter", "fusion_lat": 0.0, "lat": 38.86819333333333, "name": "f20dc55eeea8bf3ac3133ef3b0261f89", "fusion_lon": 0.0, "bike_id": "f20dc55eeea8bf3ac3133ef3b0261f89", "is_disabled": 0, "is_reserved": 0}, {"rental_uris": {"ios": "https://dc.lft.to/lastmile_qr_scan", "android": "https://dc.lft.to/lastmile_qr_scan"}, "lon": -77.01263483333334, "type": "electric_scooter", "fusion_lat": 0.0, "lat": 38.89968733333333, "name": "0cc7b2ecab78e3431e00ada49cb63401", "fusion_lon": 0.0, "bike_id": "0cc7b2ecab78e3431e00ada49cb63401", "is_disabled": 0, "is_reserved": 0}, {"rental_uris": {"ios": "https://dc.lft.to/lastmile_qr_scan", "android": "https://dc.lft.to/lastmile_qr_scan"}, "lon": -77.014409, "type": "electric_scooter", "fusion_lat": 0.0, "lat": 38.87767933333333, "name": "1d4beb4e80a560a56652f0804cb6dbf4", "fusion_lon": 0.0, "bike_id": "1d4beb4e80a560a56652f0804cb6dbf4", "is_disabled": 0, "is_reserved": 0}, {"rental_uris": {"ios": "https://dc.lft.to/lastmile_qr_scan", "android": "https://dc.lft.to/lastmile_qr_scan"}, "lon": -76.9488805, "type": "electric_scooter", "fusion_lat": 0.0, "lat": 38.8946605, "name": "c8551945610195bde8ac01864c06c409", "fusion_lon": 0.0, "bike_id": "c8551945610195bde8ac01864c06c409", "is_disabled": 0, "is_reserved": 0}, {"rental_uris": {"ios": "https://dc.lft.to/lastmile_qr_scan", "android": "https://dc.lft.to/lastmile_qr_scan"}, "lon": -77.043142, "type": "electric_scooter", "fusion_lat": 0.0, "lat": 38.92256033333334, "name": "3650d10b1eaa94914f938a2cd363f396", "fusion_lon": 0.0, "bike_id": "3650d10b1eaa94914f938a2cd363f396", "is_disabled": 0, "is_reserved": 0}, {"rental_uris": {"ios": "https://dc.lft.to/lastmile_qr_scan", "android": "https://dc.lft.to/lastmile_qr_scan"}, "lon": -77.13595966666666, "type": "electric_bike", "fusion_lat": 0.0, "lat": 39.05350083333333, "name": "ad1ef083310e3cad59ca6c29394f40c2", "fusion_lon": 0.0, "bike_id": "ad1ef083310e3cad59ca6c29394f40c2", "is_disabled": 0, "is_reserved": 0}, {"rental_uris": {"ios": "https://dc.lft.to/lastmile_qr_scan", "android": "https://dc.lft.to/lastmile_qr_scan"}, "lon": -77.011533, "type": "electric_scooter", "fusion_lat": 0.0, "lat": 38.897134666666666, "name": "3f5acd51116d53c77365df8fc7b11b6b", "fusion_lon": 0.0, "bike_id": "3f5acd51116d53c77365df8fc7b11b6b", "is_disabled": 0, "is_reserved": 0}, {"rental_uris": {"ios": "https://dc.lft.to/lastmile_qr_scan", "android": "https://dc.lft.to/lastmile_qr_scan"}, "lon": -77.03640516666667, "type": "electric_scooter", "fusion_lat": 0.0, "lat": 38.913, "name": "9590e3a8a1681e116da4a2d36f3d2cf7", "fusion_lon": 0.0, "bike_id": "9590e3a8a1681e116da4a2d36f3d2cf7", "is_disabled": 0, "is_reserved": 0}, {"rental_uris": {"ios": "https://dc.lft.to/lastmile_qr_scan", "android": "https://dc.lft.to/lastmile_qr_scan"}, "lon": -77.03610116666667, "type": "electric_scooter", "fusion_lat": 0.0, "lat": 38.9291855, "name": "174d52c2a0c5024a229887c4b91e5b9e", "fusion_lon": 0.0, "bike_id": "174d52c2a0c5024a229887c4b91e5b9e", "is_disabled": 0, "is_reserved": 0}, {"rental_uris": {"ios": "https://dc.lft.to/lastmile_qr_scan", "android": "https://dc.lft.to/lastmile_qr_scan"}, "lon": -77.0447325, "type": "electric_scooter", "fusion_lat": 0.0, "lat": 38.906553, "name": "9dd513702a73d8b137e03ca397de9280", "fusion_lon": 0.0, "bike_id": "9dd513702a73d8b137e03ca397de9280", "is_disabled": 0, "is_reserved": 0}, {"rental_uris": {"ios": "https://dc.lft.to/lastmile_qr_scan", "android": "https://dc.lft.to/lastmile_qr_scan"}, "lon": -77.05255583333333, "type": "electric_scooter", "fusion_lat": 0.0, "lat": 38.923775, "name": "cd86335f14502b09450d4c38b9f71d8b", "fusion_lon": 0.0, "bike_id": "cd86335f14502b09450d4c38b9f71d8b", "is_disabled": 0, "is_reserved": 0}, {"rental_uris": {"ios": "https://dc.lft.to/lastmile_qr_scan", "android": "https://dc.lft.to/lastmile_qr_scan"}, "lon": -77.019605, "type": "electric_scooter", "fusion_lat": 0.0, "lat": 38.929771333333335, "name": "5a9ba23c61ef89aa9d031df5aa73fdf1", "fusion_lon": 0.0, "bike_id": "5a9ba23c61ef89aa9d031df5aa73fdf1", "is_disabled": 0, "is_reserved": 0}, {"rental_uris": {"ios": "https://dc.lft.to/lastmile_qr_scan", "android": "https://dc.lft.to/lastmile_qr_scan"}, "lon": -77.01999466666666, "type": "electric_scooter", "fusion_lat": 0.0, "lat": 38.904660666666665, "name": "6eb09b12ce5d939fb5ca72d310c814b9", "fusion_lon": 0.0, "bike_id": "6eb09b12ce5d939fb5ca72d310c814b9", "is_disabled": 0, "is_reserved": 0}, {"rental_uris": {"ios": "https://dc.lft.to/lastmile_qr_scan", "android": "https://dc.lft.to/lastmile_qr_scan"}, "lon": -77.01745916666667, "type": "electric_scooter", "fusion_lat": 0.0, "lat": 38.917187, "name": "dcc3206e774452cb2d9053d4fb49d268", "fusion_lon": 0.0, "bike_id": "dcc3206e774452cb2d9053d4fb49d268", "is_disabled": 0, "is_reserved": 0}, {"rental_uris": {"ios": "https://dc.lft.to/lastmile_qr_scan", "android": "https://dc.lft.to/lastmile_qr_scan"}, "lon": -77.02321033333334, "type": "electric_scooter", "fusion_lat": 0.0, "lat": 38.929511166666664, "name": "c32813adcc6e84940d49afa31bf75a2d", "fusion_lon": 0.0, "bike_id": "c32813adcc6e84940d49afa31bf75a2d", "is_disabled": 0, "is_reserved": 0}, {"rental_uris": {"ios": "https://dc.lft.to/lastmile_qr_scan", "android": "https://dc.lft.to/lastmile_qr_scan"}, "lon": -77.0307715, "type": "electric_scooter", "fusion_lat": 0.0, "lat": 38.909870166666664, "name": "0b4d454de15473d1e1bcd6f22266ff9c", "fusion_lon": 0.0, "bike_id": "0b4d454de15473d1e1bcd6f22266ff9c", "is_disabled": 0, "is_reserved": 0}, {"rental_uris": {"ios": "https://dc.lft.to/lastmile_qr_scan", "android": "https://dc.lft.to/lastmile_qr_scan"}, "lon": -77.0151085, "type": "electric_scooter", "fusion_lat": 0.0, "lat": 38.887306333333335, "name": "aa58d10982a31b80435882798d7c8f9e", "fusion_lon": 0.0, "bike_id": "aa58d10982a31b80435882798d7c8f9e", "is_disabled": 0, "is_reserved": 0}, {"rental_uris": {"ios": "https://dc.lft.to/lastmile_qr_scan", "android": "https://dc.lft.to/lastmile_qr_scan"}, "lon": -77.012102, "type": "electric_scooter", "fusion_lat": 0.0, "lat": 38.915229, "name": "ec05b5b16ee8b869947069e181521e30", "fusion_lon": 0.0, "bike_id": "ec05b5b16ee8b869947069e181521e30", "is_disabled": 0, "is_reserved": 0}, {"rental_uris": {"ios": "https://dc.lft.to/lastmile_qr_scan", "android": "https://dc.lft.to/lastmile_qr_scan"}, "lon": -77.03585566666666, "type": "electric_scooter", "fusion_lat": 0.0, "lat": 38.902669333333336, "name": "4e8bd05543b1a0f7bea5a9027d0baf5e", "fusion_lon": 0.0, "bike_id": "4e8bd05543b1a0f7bea5a9027d0baf5e", "is_disabled": 0, "is_reserved": 0}, {"rental_uris": {"ios": "https://dc.lft.to/lastmile_qr_scan", "android": "https://dc.lft.to/lastmile_qr_scan"}, "lon": -76.904304, "type": "electric_bike", "fusion_lat": 0.0, "lat": 38.89774083333333, "name": "1cfec20bffa2ff5c4a2f15549dabf1c2", "fusion_lon": 0.0, "bike_id": "1cfec20bffa2ff5c4a2f15549dabf1c2", "is_disabled": 0, "is_reserved": 0}, {"rental_uris": {"ios": "https://dc.lft.to/lastmile_qr_scan", "android": "https://dc.lft.to/lastmile_qr_scan"}, "lon": -77.04873566666667, "type": "electric_scooter", "fusion_lat": 0.0, "lat": 38.9123645, "name": "98f9d260c055305c43e4c55fc1a700c8", "fusion_lon": 0.0, "bike_id": "98f9d260c055305c43e4c55fc1a700c8", "is_disabled": 0, "is_reserved": 0}, {"rental_uris": {"ios": "https://dc.lft.to/lastmile_qr_scan", "android": "https://dc.lft.to/lastmile_qr_scan"}, "lon": -77.03421333333333, "type": "electric_scooter", "fusion_lat": 0.0, "lat": 38.903419166666666, "name": "5eeab5c766afea6b706f41998ad39e1d", "fusion_lon": 0.0, "bike_id": "5eeab5c766afea6b706f41998ad39e1d", "is_disabled": 0, "is_reserved": 0}, {"rental_uris": {"ios": "https://dc.lft.to/lastmile_qr_scan", "android": "https://dc.lft.to/lastmile_qr_scan"}, "lon": -77.00724616666666, "type": "electric_scooter", "fusion_lat": 0.0, "lat": 38.8849025, "name": "2a4deeaecc375699515bddc17af22962", "fusion_lon": 0.0, "bike_id": "2a4deeaecc375699515bddc17af22962", "is_disabled": 0, "is_reserved": 0}, {"rental_uris": {"ios": "https://dc.lft.to/lastmile_qr_scan", "android": "https://dc.lft.to/lastmile_qr_scan"}, "lon": -77.03521166666667, "type": "electric_scooter", "fusion_lat": 0.0, "lat": 38.918375166666664, "name": "56e1ba11ee8238641d2f384e91b50e77", "fusion_lon": 0.0, "bike_id": "56e1ba11ee8238641d2f384e91b50e77", "is_disabled": 0, "is_reserved": 0}, {"rental_uris": {"ios": "https://dc.lft.to/lastmile_qr_scan", "android": "https://dc.lft.to/lastmile_qr_scan"}, "lon": -77.027134, "type": "electric_scooter", "fusion_lat": 0.0, "lat": 38.918196333333334, "name": "0144ff1936d991d2c0f938f557af85a3", "fusion_lon": 0.0, "bike_id": "0144ff1936d991d2c0f938f557af85a3", "is_disabled": 0, "is_reserved": 0}, {"rental_uris": {"ios": "https://dc.lft.to/lastmile_qr_scan", "android": "https://dc.lft.to/lastmile_qr_scan"}, "lon": -77.03201883333334, "type": "electric_scooter", "fusion_lat": 0.0, "lat": 38.90007116666666, "name": "7a884ab9a4bd9aa1cf3b0588dd391028", "fusion_lon": 0.0, "bike_id": "7a884ab9a4bd9aa1cf3b0588dd391028", "is_disabled": 0, "is_reserved": 0}, {"rental_uris": {"ios": "https://dc.lft.to/lastmile_qr_scan", "android": "https://dc.lft.to/lastmile_qr_scan"}, "lon": -77.02846633333333, "type": "electric_scooter", "fusion_lat": 0.0, "lat": 38.93453016666667, "name": "7f44f72e09dfb094b18a6050201320ca", "fusion_lon": 0.0, "bike_id": "7f44f72e09dfb094b18a6050201320ca", "is_disabled": 0, "is_reserved": 0}, {"rental_uris": {"ios": "https://dc.lft.to/lastmile_qr_scan", "android": "https://dc.lft.to/lastmile_qr_scan"}, "lon": -77.0264785, "type": "electric_scooter", "fusion_lat": 0.0, "lat": 38.8811485, "name": "4ef8253097306c33e80142311482215b", "fusion_lon": 0.0, "bike_id": "4ef8253097306c33e80142311482215b", "is_disabled": 0, "is_reserved": 0}, {"rental_uris": {"ios": "https://dc.lft.to/lastmile_qr_scan", "android": "https://dc.lft.to/lastmile_qr_scan"}, "lon": -77.07306416666667, "type": "electric_scooter", "fusion_lat": 0.0, "lat": 38.936126333333334, "name": "c156e651ac115a40c30d7c7dc58d0e5c", "fusion_lon": 0.0, "bike_id": "c156e651ac115a40c30d7c7dc58d0e5c", "is_disabled": 0, "is_reserved": 0}, {"rental_uris": {"ios": "https://dc.lft.to/lastmile_qr_scan", "android": "https://dc.lft.to/lastmile_qr_scan"}, "lon": -77.00657633333333, "type": "electric_scooter", "fusion_lat": 0.0, "lat": 38.87643383333333, "name": "328628397ec3f9b74c2e6f08dbfb8575", "fusion_lon": 0.0, "bike_id": "328628397ec3f9b74c2e6f08dbfb8575", "is_disabled": 0, "is_reserved": 0}, {"rental_uris": {"ios": "https://dc.lft.to/lastmile_qr_scan", "android": "https://dc.lft.to/lastmile_qr_scan"}, "lon": -77.03299766666666, "type": "electric_scooter", "fusion_lat": 0.0, "lat": 38.90908533333333, "name": "8137070f397003ec3590489ec2d9f8f8", "fusion_lon": 0.0, "bike_id": "8137070f397003ec3590489ec2d9f8f8", "is_disabled": 0, "is_reserved": 0}, {"rental_uris": {"ios": "https://dc.lft.to/lastmile_qr_scan", "android": "https://dc.lft.to/lastmile_qr_scan"}, "lon": -76.99063083333333, "type": "electric_scooter", "fusion_lat": 0.0, "lat": 38.86356816666667, "name": "387f4027333a924ba26a09e9d3e3a832", "fusion_lon": 0.0, "bike_id": "387f4027333a924ba26a09e9d3e3a832", "is_disabled": 0, "is_reserved": 0}, {"rental_uris": {"ios": "https://dc.lft.to/lastmile_qr_scan", "android": "https://dc.lft.to/lastmile_qr_scan"}, "lon": -77.036311, "type": "electric_scooter", "fusion_lat": 0.0, "lat": 38.91296366666667, "name": "9b41f47a75c64e90742e515ac8b9fe1e", "fusion_lon": 0.0, "bike_id": "9b41f47a75c64e90742e515ac8b9fe1e", "is_disabled": 0, "is_reserved": 0}, {"rental_uris": {"ios": "https://dc.lft.to/lastmile_qr_scan", "android": "https://dc.lft.to/lastmile_qr_scan"}, "lon": -77.03851583333334, "type": "electric_scooter", "fusion_lat": 0.0, "lat": 38.926498333333335, "name": "485e5ca1cc50924376da66fc28f2b8a5", "fusion_lon": 0.0, "bike_id": "485e5ca1cc50924376da66fc28f2b8a5", "is_disabled": 0, "is_reserved": 0}, {"rental_uris": {"ios": "https://dc.lft.to/lastmile_qr_scan", "android": "https://dc.lft.to/lastmile_qr_scan"}, "lon": -77.05515116666666, "type": "electric_scooter", "fusion_lat": 0.0, "lat": 38.89964333333333, "name": "e38ebdfcce785014f4ac75b440d243ea", "fusion_lon": 0.0, "bike_id": "e38ebdfcce785014f4ac75b440d243ea", "is_disabled": 0, "is_reserved": 0}, {"rental_uris": {"ios": "https://dc.lft.to/lastmile_qr_scan", "android": "https://dc.lft.to/lastmile_qr_scan"}, "lon": -77.045405, "type": "electric_scooter", "fusion_lat": 0.0, "lat": 38.89479933333333, "name": "25e87fb7f377742c7eef17da921d40d1", "fusion_lon": 0.0, "bike_id": "25e87fb7f377742c7eef17da921d40d1", "is_disabled": 0, "is_reserved": 0}, {"rental_uris": {"ios": "https://dc.lft.to/lastmile_qr_scan", "android": "https://dc.lft.to/lastmile_qr_scan"}, "lon": -77.03178816666667, "type": "electric_scooter", "fusion_lat": 0.0, "lat": 38.8984315, "name": "c6413877da4715d371cf9a3b73e22a38", "fusion_lon": 0.0, "bike_id": "c6413877da4715d371cf9a3b73e22a38", "is_disabled": 0, "is_reserved": 0}, {"rental_uris": {"ios": "https://dc.lft.to/lastmile_qr_scan", "android": "https://dc.lft.to/lastmile_qr_scan"}, "lon": -77.02710083333334, "type": "electric_scooter", "fusion_lat": 0.0, "lat": 38.909442166666665, "name": "1b02c447fc34a2fe54299d9a74ac3b08", "fusion_lon": 0.0, "bike_id": "1b02c447fc34a2fe54299d9a74ac3b08", "is_disabled": 0, "is_reserved": 0}, {"rental_uris": {"ios": "https://dc.lft.to/lastmile_qr_scan", "android": "https://dc.lft.to/lastmile_qr_scan"}, "lon": -76.98344683333333, "type": "electric_scooter", "fusion_lat": 0.0, "lat": 38.915453666666664, "name": "4092c39bbcf107c5c2cb12103678a6fc", "fusion_lon": 0.0, "bike_id": "4092c39bbcf107c5c2cb12103678a6fc", "is_disabled": 0, "is_reserved": 0}, {"rental_uris": {"ios": "https://dc.lft.to/lastmile_qr_scan", "android": "https://dc.lft.to/lastmile_qr_scan"}, "lon": -77.02707866666667, "type": "electric_scooter", "fusion_lat": 0.0, "lat": 38.9067195, "name": "503198e01ba518de2217a7c02ce0cb10", "fusion_lon": 0.0, "bike_id": "503198e01ba518de2217a7c02ce0cb10", "is_disabled": 0, "is_reserved": 0}, {"rental_uris": {"ios": "https://dc.lft.to/lastmile_qr_scan", "android": "https://dc.lft.to/lastmile_qr_scan"}, "lon": -77.0447785, "type": "electric_scooter", "fusion_lat": 0.0, "lat": 38.91315433333333, "name": "d9e804fdf2c12e0490bc17b518636342", "fusion_lon": 0.0, "bike_id": "d9e804fdf2c12e0490bc17b518636342", "is_disabled": 0, "is_reserved": 0}, {"rental_uris": {"ios": "https://dc.lft.to/lastmile_qr_scan", "android": "https://dc.lft.to/lastmile_qr_scan"}, "lon": -77.0107775, "type": "electric_bike", "fusion_lat": 0.0, "lat": 38.956508, "name": "be695d19e19db7fbc9cf792ad1a3ba35", "fusion_lon": 0.0, "bike_id": "be695d19e19db7fbc9cf792ad1a3ba35", "is_disabled": 0, "is_reserved": 0}, {"rental_uris": {"ios": "https://dc.lft.to/lastmile_qr_scan", "android": "https://dc.lft.to/lastmile_qr_scan"}, "lon": -77.00569133333333, "type": "electric_scooter", "fusion_lat": 0.0, "lat": 38.90589083333333, "name": "442fc6ced3884a7d603bd787e9e74c5e", "fusion_lon": 0.0, "bike_id": "442fc6ced3884a7d603bd787e9e74c5e", "is_disabled": 0, "is_reserved": 0}, {"rental_uris": {"ios": "https://dc.lft.to/lastmile_qr_scan", "android": "https://dc.lft.to/lastmile_qr_scan"}, "lon": -77.0283205, "type": "electric_scooter", "fusion_lat": 0.0, "lat": 38.924783833333336, "name": "6c8b6c3c97b3a3f8f86aad6727e10f12", "fusion_lon": 0.0, "bike_id": "6c8b6c3c97b3a3f8f86aad6727e10f12", "is_disabled": 0, "is_reserved": 0}, {"rental_uris": {"ios": "https://dc.lft.to/lastmile_qr_scan", "android": "https://dc.lft.to/lastmile_qr_scan"}, "lon": -77.03259716666666, "type": "electric_scooter", "fusion_lat": 0.0, "lat": 38.91990283333333, "name": "8fc17e522207e3fc5e7209d182550b2f", "fusion_lon": 0.0, "bike_id": "8fc17e522207e3fc5e7209d182550b2f", "is_disabled": 0, "is_reserved": 0}, {"rental_uris": {"ios": "https://dc.lft.to/lastmile_qr_scan", "android": "https://dc.lft.to/lastmile_qr_scan"}, "lon": -76.99264983333333, "type": "electric_scooter", "fusion_lat": 0.0, "lat": 38.897632, "name": "e5f1889e6470bff1eb33880ac9510c40", "fusion_lon": 0.0, "bike_id": "e5f1889e6470bff1eb33880ac9510c40", "is_disabled": 0, "is_reserved": 0}, {"rental_uris": {"ios": "https://dc.lft.to/lastmile_qr_scan", "android": "https://dc.lft.to/lastmile_qr_scan"}, "lon": -77.03556766666667, "type": "electric_scooter", "fusion_lat": 0.0, "lat": 38.931329166666664, "name": "40d052dea76faf94bd6580ca62a93fe3", "fusion_lon": 0.0, "bike_id": "40d052dea76faf94bd6580ca62a93fe3", "is_disabled": 0, "is_reserved": 0}, {"rental_uris": {"ios": "https://dc.lft.to/lastmile_qr_scan", "android": "https://dc.lft.to/lastmile_qr_scan"}, "lon": -77.02411216666667, "type": "electric_scooter", "fusion_lat": 0.0, "lat": 38.91704683333333, "name": "242bee3aee42f05bfaee2fbaad30f00f", "fusion_lon": 0.0, "bike_id": "242bee3aee42f05bfaee2fbaad30f00f", "is_disabled": 0, "is_reserved": 0}, {"rental_uris": {"ios": "https://dc.lft.to/lastmile_qr_scan", "android": "https://dc.lft.to/lastmile_qr_scan"}, "lon": -76.98994716666667, "type": "electric_bike", "fusion_lat": 0.0, "lat": 38.863882833333335, "name": "5f5d583f1c66a9b2aba0ebfd2c2bdbee", "fusion_lon": 0.0, "bike_id": "5f5d583f1c66a9b2aba0ebfd2c2bdbee", "is_disabled": 0, "is_reserved": 0}, {"rental_uris": {"ios": "https://dc.lft.to/lastmile_qr_scan", "android": "https://dc.lft.to/lastmile_qr_scan"}, "lon": -77.03706483333333, "type": "electric_scooter", "fusion_lat": 0.0, "lat": 38.92636433333333, "name": "d401e2cd90aba5fd14e540853943452a", "fusion_lon": 0.0, "bike_id": "d401e2cd90aba5fd14e540853943452a", "is_disabled": 0, "is_reserved": 0}, {"rental_uris": {"ios": "https://dc.lft.to/lastmile_qr_scan", "android": "https://dc.lft.to/lastmile_qr_scan"}, "lon": -77.02071216666667, "type": "electric_scooter", "fusion_lat": 0.0, "lat": 38.93531683333333, "name": "ca156cd1d49075028b4fd0eb5ad76f1e", "fusion_lon": 0.0, "bike_id": "ca156cd1d49075028b4fd0eb5ad76f1e", "is_disabled": 0, "is_reserved": 0}, {"rental_uris": {"ios": "https://dc.lft.to/lastmile_qr_scan", "android": "https://dc.lft.to/lastmile_qr_scan"}, "lon": -77.0276485, "type": "electric_scooter", "fusion_lat": 0.0, "lat": 38.8920105, "name": "333af7eba879d90a9dda9f82967e5de1", "fusion_lon": 0.0, "bike_id": "333af7eba879d90a9dda9f82967e5de1", "is_disabled": 0, "is_reserved": 0}, {"rental_uris": {"ios": "https://dc.lft.to/lastmile_qr_scan", "android": "https://dc.lft.to/lastmile_qr_scan"}, "lon": -77.04471933333333, "type": "electric_scooter", "fusion_lat": 0.0, "lat": 38.903267, "name": "9e913947a00817529abd16df81cf444e", "fusion_lon": 0.0, "bike_id": "9e913947a00817529abd16df81cf444e", "is_disabled": 0, "is_reserved": 0}, {"rental_uris": {"ios": "https://dc.lft.to/lastmile_qr_scan", "android": "https://dc.lft.to/lastmile_qr_scan"}, "lon": -77.04248166666666, "type": "electric_scooter", "fusion_lat": 0.0, "lat": 38.920673666666666, "name": "df8642c1581e196596126a83dd085db3", "fusion_lon": 0.0, "bike_id": "df8642c1581e196596126a83dd085db3", "is_disabled": 0, "is_reserved": 0}, {"rental_uris": {"ios": "https://dc.lft.to/lastmile_qr_scan", "android": "https://dc.lft.to/lastmile_qr_scan"}, "lon": -77.04392833333333, "type": "electric_scooter", "fusion_lat": 0.0, "lat": 38.91087383333333, "name": "9a145f98bcf4df21b8334596f6c9801f", "fusion_lon": 0.0, "bike_id": "9a145f98bcf4df21b8334596f6c9801f", "is_disabled": 0, "is_reserved": 0}, {"rental_uris": {"ios": "https://dc.lft.to/lastmile_qr_scan", "android": "https://dc.lft.to/lastmile_qr_scan"}, "lon": -77.05268866666667, "type": "electric_scooter", "fusion_lat": 0.0, "lat": 38.898383833333334, "name": "70a514a0bb05b9d59bf83dc2324fb5b2", "fusion_lon": 0.0, "bike_id": "70a514a0bb05b9d59bf83dc2324fb5b2", "is_disabled": 0, "is_reserved": 0}, {"rental_uris": {"ios": "https://dc.lft.to/lastmile_qr_scan", "android": "https://dc.lft.to/lastmile_qr_scan"}, "lon": -77.0021815, "type": "electric_scooter", "fusion_lat": 0.0, "lat": 38.90011033333333, "name": "d2abca2435d1cfd7d11074825ab17018", "fusion_lon": 0.0, "bike_id": "d2abca2435d1cfd7d11074825ab17018", "is_disabled": 0, "is_reserved": 0}, {"rental_uris": {"ios": "https://dc.lft.to/lastmile_qr_scan", "android": "https://dc.lft.to/lastmile_qr_scan"}, "lon": -77.003324, "type": "electric_bike", "fusion_lat": 0.0, "lat": 38.91983716666667, "name": "121cb4630f522bf2500be235391ab3db", "fusion_lon": 0.0, "bike_id": "121cb4630f522bf2500be235391ab3db", "is_disabled": 0, "is_reserved": 0}, {"rental_uris": {"ios": "https://dc.lft.to/lastmile_qr_scan", "android": "https://dc.lft.to/lastmile_qr_scan"}, "lon": -77.0387215, "type": "electric_scooter", "fusion_lat": 0.0, "lat": 38.912571166666666, "name": "09923a4e9e95b9e23cdadb39f8f4a9d9", "fusion_lon": 0.0, "bike_id": "09923a4e9e95b9e23cdadb39f8f4a9d9", "is_disabled": 0, "is_reserved": 0}, {"rental_uris": {"ios": "https://dc.lft.to/lastmile_qr_scan", "android": "https://dc.lft.to/lastmile_qr_scan"}, "lon": -77.01452816666666, "type": "electric_scooter", "fusion_lat": 0.0, "lat": 38.872523, "name": "a392413530b610218b225fe7cef277f1", "fusion_lon": 0.0, "bike_id": "a392413530b610218b225fe7cef277f1", "is_disabled": 0, "is_reserved": 0}, {"rental_uris": {"ios": "https://dc.lft.to/lastmile_qr_scan", "android": "https://dc.lft.to/lastmile_qr_scan"}, "lon": -77.06670716666666, "type": "electric_scooter", "fusion_lat": 0.0, "lat": 38.91405966666667, "name": "f4bc991db4bd91f548bebe26bf62b8bf", "fusion_lon": 0.0, "bike_id": "f4bc991db4bd91f548bebe26bf62b8bf", "is_disabled": 0, "is_reserved": 0}, {"rental_uris": {"ios": "https://dc.lft.to/lastmile_qr_scan", "android": "https://dc.lft.to/lastmile_qr_scan"}, "lon": -77.06600166666666, "type": "electric_scooter", "fusion_lat": 0.0, "lat": 38.90528883333333, "name": "d16ac97b308eeaff67679419cb778718", "fusion_lon": 0.0, "bike_id": "d16ac97b308eeaff67679419cb778718", "is_disabled": 0, "is_reserved": 0}, {"rental_uris": {"ios": "https://dc.lft.to/lastmile_qr_scan", "android": "https://dc.lft.to/lastmile_qr_scan"}, "lon": -77.034158, "type": "electric_scooter", "fusion_lat": 0.0, "lat": 38.9353885, "name": "a06ca97f4a90622c43f905fd509d52b1", "fusion_lon": 0.0, "bike_id": "a06ca97f4a90622c43f905fd509d52b1", "is_disabled": 0, "is_reserved": 0}, {"rental_uris": {"ios": "https://dc.lft.to/lastmile_qr_scan", "android": "https://dc.lft.to/lastmile_qr_scan"}, "lon": -77.071664, "type": "electric_scooter", "fusion_lat": 0.0, "lat": 38.90774433333333, "name": "78c7871d31ee95a94e21981661333f56", "fusion_lon": 0.0, "bike_id": "78c7871d31ee95a94e21981661333f56", "is_disabled": 0, "is_reserved": 0}, {"rental_uris": {"ios": "https://dc.lft.to/lastmile_qr_scan", "android": "https://dc.lft.to/lastmile_qr_scan"}, "lon": -77.031347, "type": "electric_scooter", "fusion_lat": 0.0, "lat": 38.910352333333336, "name": "99a5c3043a8584993980d1b6025f0f62", "fusion_lon": 0.0, "bike_id": "99a5c3043a8584993980d1b6025f0f62", "is_disabled": 0, "is_reserved": 0}, {"rental_uris": {"ios": "https://dc.lft.to/lastmile_qr_scan", "android": "https://dc.lft.to/lastmile_qr_scan"}, "lon": -77.04314766666667, "type": "electric_scooter", "fusion_lat": 0.0, "lat": 38.903440833333335, "name": "491acd5c7783b7ea1cd32c8887104c45", "fusion_lon": 0.0, "bike_id": "491acd5c7783b7ea1cd32c8887104c45", "is_disabled": 0, "is_reserved": 0}, {"rental_uris": {"ios": "https://dc.lft.to/lastmile_qr_scan", "android": "https://dc.lft.to/lastmile_qr_scan"}, "lon": -77.02016683333333, "type": "electric_scooter", "fusion_lat": 0.0, "lat": 38.8974335, "name": "6891252f4004044694814ed75d23afdb", "fusion_lon": 0.0, "bike_id": "6891252f4004044694814ed75d23afdb", "is_disabled": 0, "is_reserved": 0}, {"rental_uris": {"ios": "https://dc.lft.to/lastmile_qr_scan", "android": "https://dc.lft.to/lastmile_qr_scan"}, "lon": -77.03259616666666, "type": "electric_scooter", "fusion_lat": 0.0, "lat": 38.928714166666666, "name": "0a99f9d1bc6ddc296ce46a10b71022b7", "fusion_lon": 0.0, "bike_id": "0a99f9d1bc6ddc296ce46a10b71022b7", "is_disabled": 0, "is_reserved": 0}, {"rental_uris": {"ios": "https://dc.lft.to/lastmile_qr_scan", "android": "https://dc.lft.to/lastmile_qr_scan"}, "lon": -76.978355, "type": "electric_bike", "fusion_lat": 0.0, "lat": 38.8460835, "name": "d97de7a40cc5703871d5294ad0ada94a", "fusion_lon": 0.0, "bike_id": "d97de7a40cc5703871d5294ad0ada94a", "is_disabled": 0, "is_reserved": 0}, {"rental_uris": {"ios": "https://dc.lft.to/lastmile_qr_scan", "android": "https://dc.lft.to/lastmile_qr_scan"}, "lon": -77.048964, "type": "electric_scooter", "fusion_lat": 0.0, "lat": 38.90584366666667, "name": "2c393a46d3cba1eeaa019989b051c277", "fusion_lon": 0.0, "bike_id": "2c393a46d3cba1eeaa019989b051c277", "is_disabled": 0, "is_reserved": 0}, {"rental_uris": {"ios": "https://dc.lft.to/lastmile_qr_scan", "android": "https://dc.lft.to/lastmile_qr_scan"}, "lon": -77.12624883333334, "type": "electric_bike", "fusion_lat": 0.0, "lat": 39.05812516666666, "name": "135c58bb8f3332d370973fd958535e26", "fusion_lon": 0.0, "bike_id": "135c58bb8f3332d370973fd958535e26", "is_disabled": 0, "is_reserved": 0}, {"rental_uris": {"ios": "https://dc.lft.to/lastmile_qr_scan", "android": "https://dc.lft.to/lastmile_qr_scan"}, "lon": -77.03218516666666, "type": "electric_scooter", "fusion_lat": 0.0, "lat": 38.892230833333336, "name": "6b73cc3555e330d87cbf5fef699ad80b", "fusion_lon": 0.0, "bike_id": "6b73cc3555e330d87cbf5fef699ad80b", "is_disabled": 0, "is_reserved": 0}, {"rental_uris": {"ios": "https://dc.lft.to/lastmile_qr_scan", "android": "https://dc.lft.to/lastmile_qr_scan"}, "lon": -77.03312583333333, "type": "electric_scooter", "fusion_lat": 0.0, "lat": 38.89870066666667, "name": "fa56f0b39b7055c3b864497a9553f6ca", "fusion_lon": 0.0, "bike_id": "fa56f0b39b7055c3b864497a9553f6ca", "is_disabled": 0, "is_reserved": 0}, {"rental_uris": {"ios": "https://dc.lft.to/lastmile_qr_scan", "android": "https://dc.lft.to/lastmile_qr_scan"}, "lon": -76.98393033333333, "type": "electric_bike", "fusion_lat": 0.0, "lat": 38.92200916666667, "name": "76e94531b389c7296ebdea7e254ceab0", "fusion_lon": 0.0, "bike_id": "76e94531b389c7296ebdea7e254ceab0", "is_disabled": 0, "is_reserved": 0}, {"rental_uris": {"ios": "https://dc.lft.to/lastmile_qr_scan", "android": "https://dc.lft.to/lastmile_qr_scan"}, "lon": -77.02963366666667, "type": "electric_scooter", "fusion_lat": 0.0, "lat": 38.8922145, "name": "e474a8301210ecca41df809fd72da665", "fusion_lon": 0.0, "bike_id": "e474a8301210ecca41df809fd72da665", "is_disabled": 0, "is_reserved": 0}, {"rental_uris": {"ios": "https://dc.lft.to/lastmile_qr_scan", "android": "https://dc.lft.to/lastmile_qr_scan"}, "lon": -77.03326366666667, "type": "electric_scooter", "fusion_lat": 0.0, "lat": 38.89847366666667, "name": "e149b5321aa550ce6d338dc473440ab3", "fusion_lon": 0.0, "bike_id": "e149b5321aa550ce6d338dc473440ab3", "is_disabled": 0, "is_reserved": 0}, {"rental_uris": {"ios": "https://dc.lft.to/lastmile_qr_scan", "android": "https://dc.lft.to/lastmile_qr_scan"}, "lon": -77.01935266666666, "type": "electric_scooter", "fusion_lat": 0.0, "lat": 38.94927833333333, "name": "8575bc8fc4664c63ea95dd1b9564ccc5", "fusion_lon": 0.0, "bike_id": "8575bc8fc4664c63ea95dd1b9564ccc5", "is_disabled": 0, "is_reserved": 0}, {"rental_uris": {"ios": "https://dc.lft.to/lastmile_qr_scan", "android": "https://dc.lft.to/lastmile_qr_scan"}, "lon": -77.063929, "type": "electric_scooter", "fusion_lat": 0.0, "lat": 38.90837283333333, "name": "f702489f6820204d319e128de6fa84a2", "fusion_lon": 0.0, "bike_id": "f702489f6820204d319e128de6fa84a2", "is_disabled": 0, "is_reserved": 0}, {"rental_uris": {"ios": "https://dc.lft.to/lastmile_qr_scan", "android": "https://dc.lft.to/lastmile_qr_scan"}, "lon": -77.027294, "type": "electric_scooter", "fusion_lat": 0.0, "lat": 38.93793333333333, "name": "ec57f941455180c0d3ac2d995e51c2cd", "fusion_lon": 0.0, "bike_id": "ec57f941455180c0d3ac2d995e51c2cd", "is_disabled": 0, "is_reserved": 0}, {"rental_uris": {"ios": "https://dc.lft.to/lastmile_qr_scan", "android": "https://dc.lft.to/lastmile_qr_scan"}, "lon": -77.03099633333333, "type": "electric_scooter", "fusion_lat": 0.0, "lat": 38.900022, "name": "a05cfdbc0eaafa42e73b941b575065a0", "fusion_lon": 0.0, "bike_id": "a05cfdbc0eaafa42e73b941b575065a0", "is_disabled": 0, "is_reserved": 0}, {"rental_uris": {"ios": "https://dc.lft.to/lastmile_qr_scan", "android": "https://dc.lft.to/lastmile_qr_scan"}, "lon": -77.03796266666667, "type": "electric_scooter", "fusion_lat": 0.0, "lat": 38.912215833333335, "name": "6622134c6b1f7509c2dd14b83969cfcb", "fusion_lon": 0.0, "bike_id": "6622134c6b1f7509c2dd14b83969cfcb", "is_disabled": 0, "is_reserved": 0}, {"rental_uris": {"ios": "https://dc.lft.to/lastmile_qr_scan", "android": "https://dc.lft.to/lastmile_qr_scan"}, "lon": -77.03840766666667, "type": "electric_scooter", "fusion_lat": 0.0, "lat": 38.9132745, "name": "ec441b5c7615645231904abcfb9fff7a", "fusion_lon": 0.0, "bike_id": "ec441b5c7615645231904abcfb9fff7a", "is_disabled": 0, "is_reserved": 0}, {"rental_uris": {"ios": "https://dc.lft.to/lastmile_qr_scan", "android": "https://dc.lft.to/lastmile_qr_scan"}, "lon": -77.05154883333333, "type": "electric_scooter", "fusion_lat": 0.0, "lat": 38.905408, "name": "748287c42f82dd0ecd8a722bbcabf344", "fusion_lon": 0.0, "bike_id": "748287c42f82dd0ecd8a722bbcabf344", "is_disabled": 0, "is_reserved": 0}, {"rental_uris": {"ios": "https://dc.lft.to/lastmile_qr_scan", "android": "https://dc.lft.to/lastmile_qr_scan"}, "lon": -77.03835383333333, "type": "electric_scooter", "fusion_lat": 0.0, "lat": 38.906549, "name": "788073f9fcd348ce4aa7497d9b10dc47", "fusion_lon": 0.0, "bike_id": "788073f9fcd348ce4aa7497d9b10dc47", "is_disabled": 0, "is_reserved": 0}, {"rental_uris": {"ios": "https://dc.lft.to/lastmile_qr_scan", "android": "https://dc.lft.to/lastmile_qr_scan"}, "lon": -77.0385535, "type": "electric_scooter", "fusion_lat": 0.0, "lat": 38.912462166666664, "name": "02a31898be3e1c38f070840522a5085b", "fusion_lon": 0.0, "bike_id": "02a31898be3e1c38f070840522a5085b", "is_disabled": 0, "is_reserved": 0}, {"rental_uris": {"ios": "https://dc.lft.to/lastmile_qr_scan", "android": "https://dc.lft.to/lastmile_qr_scan"}, "lon": -77.04040833333333, "type": "electric_scooter", "fusion_lat": 0.0, "lat": 38.92434683333333, "name": "28894f61a7a386bd3128db7bae18445e", "fusion_lon": 0.0, "bike_id": "28894f61a7a386bd3128db7bae18445e", "is_disabled": 0, "is_reserved": 0}, {"rental_uris": {"ios": "https://dc.lft.to/lastmile_qr_scan", "android": "https://dc.lft.to/lastmile_qr_scan"}, "lon": -77.04335166666667, "type": "electric_scooter", "fusion_lat": 0.0, "lat": 38.89664783333333, "name": "70940db014f058bcdd2804625c14f254", "fusion_lon": 0.0, "bike_id": "70940db014f058bcdd2804625c14f254", "is_disabled": 0, "is_reserved": 0}, {"rental_uris": {"ios": "https://dc.lft.to/lastmile_qr_scan", "android": "https://dc.lft.to/lastmile_qr_scan"}, "lon": -77.04404166666667, "type": "electric_scooter", "fusion_lat": 0.0, "lat": 38.90913116666667, "name": "31c53eaaf99d33afa2dff0d4a5ab7a01", "fusion_lon": 0.0, "bike_id": "31c53eaaf99d33afa2dff0d4a5ab7a01", "is_disabled": 0, "is_reserved": 0}, {"rental_uris": {"ios": "https://dc.lft.to/lastmile_qr_scan", "android": "https://dc.lft.to/lastmile_qr_scan"}, "lon": -77.05683216666667, "type": "electric_scooter", "fusion_lat": 0.0, "lat": 38.923331, "name": "aab8e23e78b8bfc658772155f1eeaeb0", "fusion_lon": 0.0, "bike_id": "aab8e23e78b8bfc658772155f1eeaeb0", "is_disabled": 0, "is_reserved": 0}, {"rental_uris": {"ios": "https://dc.lft.to/lastmile_qr_scan", "android": "https://dc.lft.to/lastmile_qr_scan"}, "lon": -76.979588, "type": "electric_scooter", "fusion_lat": 0.0, "lat": 38.90380483333333, "name": "32c4609769120297973c4b4b5cf443e4", "fusion_lon": 0.0, "bike_id": "32c4609769120297973c4b4b5cf443e4", "is_disabled": 0, "is_reserved": 0}, {"rental_uris": {"ios": "https://dc.lft.to/lastmile_qr_scan", "android": "https://dc.lft.to/lastmile_qr_scan"}, "lon": -77.08189716666666, "type": "electric_bike", "fusion_lat": 0.0, "lat": 38.922005666666664, "name": "e5a941e089d6ea38f5576e0c235d9568", "fusion_lon": 0.0, "bike_id": "e5a941e089d6ea38f5576e0c235d9568", "is_disabled": 0, "is_reserved": 0}, {"rental_uris": {"ios": "https://dc.lft.to/lastmile_qr_scan", "android": "https://dc.lft.to/lastmile_qr_scan"}, "lon": -77.03864166666666, "type": "electric_scooter", "fusion_lat": 0.0, "lat": 38.91557366666667, "name": "8dbaf7d4fbeebc2225f6ef6a68243f8a", "fusion_lon": 0.0, "bike_id": "8dbaf7d4fbeebc2225f6ef6a68243f8a", "is_disabled": 0, "is_reserved": 0}, {"rental_uris": {"ios": "https://dc.lft.to/lastmile_qr_scan", "android": "https://dc.lft.to/lastmile_qr_scan"}, "lon": -77.028764, "type": "electric_scooter", "fusion_lat": 0.0, "lat": 38.907242833333335, "name": "9295f82fe53a7f285c0adcdf2b733a64", "fusion_lon": 0.0, "bike_id": "9295f82fe53a7f285c0adcdf2b733a64", "is_disabled": 0, "is_reserved": 0}, {"rental_uris": {"ios": "https://dc.lft.to/lastmile_qr_scan", "android": "https://dc.lft.to/lastmile_qr_scan"}, "lon": -77.03188166666666, "type": "electric_scooter", "fusion_lat": 0.0, "lat": 38.9159455, "name": "90356cfd5d72a1b15aa3bf4c9e51a9c0", "fusion_lon": 0.0, "bike_id": "90356cfd5d72a1b15aa3bf4c9e51a9c0", "is_disabled": 0, "is_reserved": 0}, {"rental_uris": {"ios": "https://dc.lft.to/lastmile_qr_scan", "android": "https://dc.lft.to/lastmile_qr_scan"}, "lon": -77.03268216666666, "type": "electric_scooter", "fusion_lat": 0.0, "lat": 38.94786666666667, "name": "e5d9300debb951170e604b8e0b065879", "fusion_lon": 0.0, "bike_id": "e5d9300debb951170e604b8e0b065879", "is_disabled": 0, "is_reserved": 0}, {"rental_uris": {"ios": "https://dc.lft.to/lastmile_qr_scan", "android": "https://dc.lft.to/lastmile_qr_scan"}, "lon": -76.98687583333333, "type": "electric_scooter", "fusion_lat": 0.0, "lat": 38.882148666666666, "name": "3943fafc6efe2c342dfc2ea19663459e", "fusion_lon": 0.0, "bike_id": "3943fafc6efe2c342dfc2ea19663459e", "is_disabled": 0, "is_reserved": 0}, {"rental_uris": {"ios": "https://dc.lft.to/lastmile_qr_scan", "android": "https://dc.lft.to/lastmile_qr_scan"}, "lon": -77.03281933333334, "type": "electric_scooter", "fusion_lat": 0.0, "lat": 38.939875, "name": "860bd7a4b89fae518ce85a22a1dc67f6", "fusion_lon": 0.0, "bike_id": "860bd7a4b89fae518ce85a22a1dc67f6", "is_disabled": 0, "is_reserved": 0}, {"rental_uris": {"ios": "https://dc.lft.to/lastmile_qr_scan", "android": "https://dc.lft.to/lastmile_qr_scan"}, "lon": -76.99670233333333, "type": "electric_scooter", "fusion_lat": 0.0, "lat": 38.93258733333333, "name": "624188492e1ce950af81b188bc607776", "fusion_lon": 0.0, "bike_id": "624188492e1ce950af81b188bc607776", "is_disabled": 0, "is_reserved": 0}, {"rental_uris": {"ios": "https://dc.lft.to/lastmile_qr_scan", "android": "https://dc.lft.to/lastmile_qr_scan"}, "lon": -77.02212483333334, "type": "electric_scooter", "fusion_lat": 0.0, "lat": 38.91271416666667, "name": "4d3ffd0db706a8707d9039cee8079106", "fusion_lon": 0.0, "bike_id": "4d3ffd0db706a8707d9039cee8079106", "is_disabled": 0, "is_reserved": 0}, {"rental_uris": {"ios": "https://dc.lft.to/lastmile_qr_scan", "android": "https://dc.lft.to/lastmile_qr_scan"}, "lon": -77.02143633333333, "type": "electric_bike", "fusion_lat": 0.0, "lat": 38.883615166666665, "name": "9f81e110a1763fd629f15ad1b419699f", "fusion_lon": 0.0, "bike_id": "9f81e110a1763fd629f15ad1b419699f", "is_disabled": 0, "is_reserved": 0}, {"rental_uris": {"ios": "https://dc.lft.to/lastmile_qr_scan", "android": "https://dc.lft.to/lastmile_qr_scan"}, "lon": -77.02978316666666, "type": "electric_scooter", "fusion_lat": 0.0, "lat": 38.90898766666667, "name": "1952dda84d80b10d58006187c3d5caa1", "fusion_lon": 0.0, "bike_id": "1952dda84d80b10d58006187c3d5caa1", "is_disabled": 0, "is_reserved": 0}, {"rental_uris": {"ios": "https://dc.lft.to/lastmile_qr_scan", "android": "https://dc.lft.to/lastmile_qr_scan"}, "lon": -77.049858, "type": "electric_scooter", "fusion_lat": 0.0, "lat": 38.9011405, "name": "af641db55282ddcaa90a4fbc77742775", "fusion_lon": 0.0, "bike_id": "af641db55282ddcaa90a4fbc77742775", "is_disabled": 0, "is_reserved": 0}, {"rental_uris": {"ios": "https://dc.lft.to/lastmile_qr_scan", "android": "https://dc.lft.to/lastmile_qr_scan"}, "lon": -77.03999883333333, "type": "electric_scooter", "fusion_lat": 0.0, "lat": 38.88891533333333, "name": "98854e6540344201c0d2844588ca22f4", "fusion_lon": 0.0, "bike_id": "98854e6540344201c0d2844588ca22f4", "is_disabled": 0, "is_reserved": 0}, {"rental_uris": {"ios": "https://dc.lft.to/lastmile_qr_scan", "android": "https://dc.lft.to/lastmile_qr_scan"}, "lon": -77.03826016666666, "type": "electric_scooter", "fusion_lat": 0.0, "lat": 38.9205745, "name": "035fbee016bdc1619a68126d5e83977e", "fusion_lon": 0.0, "bike_id": "035fbee016bdc1619a68126d5e83977e", "is_disabled": 0, "is_reserved": 0}, {"rental_uris": {"ios": "https://dc.lft.to/lastmile_qr_scan", "android": "https://dc.lft.to/lastmile_qr_scan"}, "lon": -77.022215, "type": "electric_scooter", "fusion_lat": 0.0, "lat": 38.89197333333333, "name": "986ccecc0f17e3a4d2943972f00357bf", "fusion_lon": 0.0, "bike_id": "986ccecc0f17e3a4d2943972f00357bf", "is_disabled": 0, "is_reserved": 0}, {"rental_uris": {"ios": "https://dc.lft.to/lastmile_qr_scan", "android": "https://dc.lft.to/lastmile_qr_scan"}, "lon": -77.02858233333333, "type": "electric_scooter", "fusion_lat": 0.0, "lat": 38.894007, "name": "f96a2daea221500728a0177c73e4d276", "fusion_lon": 0.0, "bike_id": "f96a2daea221500728a0177c73e4d276", "is_disabled": 0, "is_reserved": 0}, {"rental_uris": {"ios": "https://dc.lft.to/lastmile_qr_scan", "android": "https://dc.lft.to/lastmile_qr_scan"}, "lon": -77.03204116666667, "type": "electric_scooter", "fusion_lat": 0.0, "lat": 38.91742383333333, "name": "fb14e067a595003b1252bed5f2b79016", "fusion_lon": 0.0, "bike_id": "fb14e067a595003b1252bed5f2b79016", "is_disabled": 0, "is_reserved": 0}, {"rental_uris": {"ios": "https://dc.lft.to/lastmile_qr_scan", "android": "https://dc.lft.to/lastmile_qr_scan"}, "lon": -76.95819666666667, "type": "electric_scooter", "fusion_lat": 0.0, "lat": 38.89055883333333, "name": "ef9ecadbf02350728773baaacc2a6e2e", "fusion_lon": 0.0, "bike_id": "ef9ecadbf02350728773baaacc2a6e2e", "is_disabled": 0, "is_reserved": 0}, {"rental_uris": {"ios": "https://dc.lft.to/lastmile_qr_scan", "android": "https://dc.lft.to/lastmile_qr_scan"}, "lon": -77.035648, "type": "electric_scooter", "fusion_lat": 0.0, "lat": 38.918166166666666, "name": "ddbcb69a7ddfcb6ed9f4442ceb28b965", "fusion_lon": 0.0, "bike_id": "ddbcb69a7ddfcb6ed9f4442ceb28b965", "is_disabled": 0, "is_reserved": 0}, {"rental_uris": {"ios": "https://dc.lft.to/lastmile_qr_scan", "android": "https://dc.lft.to/lastmile_qr_scan"}, "lon": -77.031894, "type": "electric_scooter", "fusion_lat": 0.0, "lat": 38.909991, "name": "ba5fde90a611dcf702b5e954427b5ebf", "fusion_lon": 0.0, "bike_id": "ba5fde90a611dcf702b5e954427b5ebf", "is_disabled": 0, "is_reserved": 0}, {"rental_uris": {"ios": "https://dc.lft.to/lastmile_qr_scan", "android": "https://dc.lft.to/lastmile_qr_scan"}, "lon": -77.03253733333334, "type": "electric_scooter", "fusion_lat": 0.0, "lat": 38.91811333333333, "name": "d5813ae984bf97b0330b94a603334308", "fusion_lon": 0.0, "bike_id": "d5813ae984bf97b0330b94a603334308", "is_disabled": 0, "is_reserved": 0}, {"rental_uris": {"ios": "https://dc.lft.to/lastmile_qr_scan", "android": "https://dc.lft.to/lastmile_qr_scan"}, "lon": -77.05594716666667, "type": "electric_scooter", "fusion_lat": 0.0, "lat": 38.92783516666667, "name": "43a0f95d820e0cf322f294a91de0d2f3", "fusion_lon": 0.0, "bike_id": "43a0f95d820e0cf322f294a91de0d2f3", "is_disabled": 0, "is_reserved": 0}, {"rental_uris": {"ios": "https://dc.lft.to/lastmile_qr_scan", "android": "https://dc.lft.to/lastmile_qr_scan"}, "lon": -77.0444075, "type": "electric_scooter", "fusion_lat": 0.0, "lat": 38.9187955, "name": "32b2bc73b844a6274197df1ec197f307", "fusion_lon": 0.0, "bike_id": "32b2bc73b844a6274197df1ec197f307", "is_disabled": 0, "is_reserved": 0}, {"rental_uris": {"ios": "https://dc.lft.to/lastmile_qr_scan", "android": "https://dc.lft.to/lastmile_qr_scan"}, "lon": -77.0451715, "type": "electric_scooter", "fusion_lat": 0.0, "lat": 38.909696333333336, "name": "c2c6fff99ec9c6af11ebb7d7ee97baee", "fusion_lon": 0.0, "bike_id": "c2c6fff99ec9c6af11ebb7d7ee97baee", "is_disabled": 0, "is_reserved": 0}, {"rental_uris": {"ios": "https://dc.lft.to/lastmile_qr_scan", "android": "https://dc.lft.to/lastmile_qr_scan"}, "lon": -77.0334495, "type": "electric_scooter", "fusion_lat": 0.0, "lat": 38.88511166666667, "name": "d5d1176c2629729a329d9ac8a5455805", "fusion_lon": 0.0, "bike_id": "d5d1176c2629729a329d9ac8a5455805", "is_disabled": 0, "is_reserved": 0}, {"rental_uris": {"ios": "https://dc.lft.to/lastmile_qr_scan", "android": "https://dc.lft.to/lastmile_qr_scan"}, "lon": -77.031862, "type": "electric_scooter", "fusion_lat": 0.0, "lat": 38.913193666666665, "name": "62fe5d49740db9959eea35c060627eb6", "fusion_lon": 0.0, "bike_id": "62fe5d49740db9959eea35c060627eb6", "is_disabled": 0, "is_reserved": 0}, {"rental_uris": {"ios": "https://dc.lft.to/lastmile_qr_scan", "android": "https://dc.lft.to/lastmile_qr_scan"}, "lon": -76.99485133333333, "type": "electric_scooter", "fusion_lat": 0.0, "lat": 38.862384, "name": "bb29a87b7fb8b5370d5f55b105161b4d", "fusion_lon": 0.0, "bike_id": "bb29a87b7fb8b5370d5f55b105161b4d", "is_disabled": 0, "is_reserved": 0}, {"rental_uris": {"ios": "https://dc.lft.to/lastmile_qr_scan", "android": "https://dc.lft.to/lastmile_qr_scan"}, "lon": -77.09525983333333, "type": "electric_bike", "fusion_lat": 0.0, "lat": 38.838134333333336, "name": "1a43300499956b3b16644c2c4538ef6b", "fusion_lon": 0.0, "bike_id": "1a43300499956b3b16644c2c4538ef6b", "is_disabled": 0, "is_reserved": 0}, {"rental_uris": {"ios": "https://dc.lft.to/lastmile_qr_scan", "android": "https://dc.lft.to/lastmile_qr_scan"}, "lon": -77.04394266666667, "type": "electric_scooter", "fusion_lat": 0.0, "lat": 38.90276016666667, "name": "c5d194d7d9ec033654d0bd7b2546aedf", "fusion_lon": 0.0, "bike_id": "c5d194d7d9ec033654d0bd7b2546aedf", "is_disabled": 0, "is_reserved": 0}, {"rental_uris": {"ios": "https://dc.lft.to/lastmile_qr_scan", "android": "https://dc.lft.to/lastmile_qr_scan"}, "lon": -77.027176, "type": "electric_scooter", "fusion_lat": 0.0, "lat": 38.906737166666666, "name": "9efcc1df246b76aab6f3087eef73c12e", "fusion_lon": 0.0, "bike_id": "9efcc1df246b76aab6f3087eef73c12e", "is_disabled": 0, "is_reserved": 0}, {"rental_uris": {"ios": "https://dc.lft.to/lastmile_qr_scan", "android": "https://dc.lft.to/lastmile_qr_scan"}, "lon": -77.04661066666667, "type": "electric_scooter", "fusion_lat": 0.0, "lat": 38.89341483333333, "name": "e17145150e9e05ce374242fb3043dec5", "fusion_lon": 0.0, "bike_id": "e17145150e9e05ce374242fb3043dec5", "is_disabled": 0, "is_reserved": 0}, {"rental_uris": {"ios": "https://dc.lft.to/lastmile_qr_scan", "android": "https://dc.lft.to/lastmile_qr_scan"}, "lon": -77.04909183333334, "type": "electric_scooter", "fusion_lat": 0.0, "lat": 38.905492333333335, "name": "b06b8d1298da6b76f758d9869b35fab7", "fusion_lon": 0.0, "bike_id": "b06b8d1298da6b76f758d9869b35fab7", "is_disabled": 0, "is_reserved": 0}, {"rental_uris": {"ios": "https://dc.lft.to/lastmile_qr_scan", "android": "https://dc.lft.to/lastmile_qr_scan"}, "lon": -77.0022315, "type": "electric_scooter", "fusion_lat": 0.0, "lat": 38.90020833333333, "name": "31d7559e90a4f0c05c31c32b5f53f07f", "fusion_lon": 0.0, "bike_id": "31d7559e90a4f0c05c31c32b5f53f07f", "is_disabled": 0, "is_reserved": 0}, {"rental_uris": {"ios": "https://dc.lft.to/lastmile_qr_scan", "android": "https://dc.lft.to/lastmile_qr_scan"}, "lon": -77.10682533333333, "type": "electric_bike", "fusion_lat": 0.0, "lat": 38.93584033333333, "name": "25c1390e3d171a8321e420e4b847b318", "fusion_lon": 0.0, "bike_id": "25c1390e3d171a8321e420e4b847b318", "is_disabled": 0, "is_reserved": 0}, {"rental_uris": {"ios": "https://dc.lft.to/lastmile_qr_scan", "android": "https://dc.lft.to/lastmile_qr_scan"}, "lon": -77.0221405, "type": "electric_scooter", "fusion_lat": 0.0, "lat": 38.905738, "name": "22f0131079e8a9abcfb4bb09870c7270", "fusion_lon": 0.0, "bike_id": "22f0131079e8a9abcfb4bb09870c7270", "is_disabled": 0, "is_reserved": 0}, {"rental_uris": {"ios": "https://dc.lft.to/lastmile_qr_scan", "android": "https://dc.lft.to/lastmile_qr_scan"}, "lon": -77.01072216666667, "type": "electric_scooter", "fusion_lat": 0.0, "lat": 38.89476883333333, "name": "d8a47c180f6a3f9ad6a3284376c53e1a", "fusion_lon": 0.0, "bike_id": "d8a47c180f6a3f9ad6a3284376c53e1a", "is_disabled": 0, "is_reserved": 0}, {"rental_uris": {"ios": "https://dc.lft.to/lastmile_qr_scan", "android": "https://dc.lft.to/lastmile_qr_scan"}, "lon": -77.04272966666667, "type": "electric_scooter", "fusion_lat": 0.0, "lat": 38.90273533333333, "name": "c969641e673277cd53da60c72c5787c7", "fusion_lon": 0.0, "bike_id": "c969641e673277cd53da60c72c5787c7", "is_disabled": 0, "is_reserved": 0}, {"rental_uris": {"ios": "https://dc.lft.to/lastmile_qr_scan", "android": "https://dc.lft.to/lastmile_qr_scan"}, "lon": -77.05124083333334, "type": "electric_scooter", "fusion_lat": 0.0, "lat": 38.923611666666666, "name": "9f18ad53bf72a8feebdca222427a6cf7", "fusion_lon": 0.0, "bike_id": "9f18ad53bf72a8feebdca222427a6cf7", "is_disabled": 0, "is_reserved": 0}, {"rental_uris": {"ios": "https://dc.lft.to/lastmile_qr_scan", "android": "https://dc.lft.to/lastmile_qr_scan"}, "lon": -77.0183845, "type": "electric_bike", "fusion_lat": 0.0, "lat": 38.90865616666667, "name": "3f02f5672a1acea97a957853c5310d56", "fusion_lon": 0.0, "bike_id": "3f02f5672a1acea97a957853c5310d56", "is_disabled": 0, "is_reserved": 0}, {"rental_uris": {"ios": "https://dc.lft.to/lastmile_qr_scan", "android": "https://dc.lft.to/lastmile_qr_scan"}, "lon": -76.996824, "type": "electric_scooter", "fusion_lat": 0.0, "lat": 38.905026, "name": "1f5c495d4345cafd111ffb7445510320", "fusion_lon": 0.0, "bike_id": "1f5c495d4345cafd111ffb7445510320", "is_disabled": 0, "is_reserved": 0}, {"rental_uris": {"ios": "https://dc.lft.to/lastmile_qr_scan", "android": "https://dc.lft.to/lastmile_qr_scan"}, "lon": -77.02052166666667, "type": "electric_scooter", "fusion_lat": 0.0, "lat": 38.915595333333336, "name": "1c54cbae3218fd7850bea3f7d4a49443", "fusion_lon": 0.0, "bike_id": "1c54cbae3218fd7850bea3f7d4a49443", "is_disabled": 0, "is_reserved": 0}, {"rental_uris": {"ios": "https://dc.lft.to/lastmile_qr_scan", "android": "https://dc.lft.to/lastmile_qr_scan"}, "lon": -77.05222966666666, "type": "electric_scooter", "fusion_lat": 0.0, "lat": 38.92500283333333, "name": "aa8be410159884eba7ff639310e1e13b", "fusion_lon": 0.0, "bike_id": "aa8be410159884eba7ff639310e1e13b", "is_disabled": 0, "is_reserved": 0}, {"rental_uris": {"ios": "https://dc.lft.to/lastmile_qr_scan", "android": "https://dc.lft.to/lastmile_qr_scan"}, "lon": -77.00493933333334, "type": "electric_scooter", "fusion_lat": 0.0, "lat": 38.87890083333333, "name": "07f6e5440100d5d2f0238fd293cfa018", "fusion_lon": 0.0, "bike_id": "07f6e5440100d5d2f0238fd293cfa018", "is_disabled": 0, "is_reserved": 0}, {"rental_uris": {"ios": "https://dc.lft.to/lastmile_qr_scan", "android": "https://dc.lft.to/lastmile_qr_scan"}, "lon": -76.986424, "type": "electric_scooter", "fusion_lat": 0.0, "lat": 38.900196, "name": "636d64a43d5d52504d0dc4a6c5d04c9e", "fusion_lon": 0.0, "bike_id": "636d64a43d5d52504d0dc4a6c5d04c9e", "is_disabled": 0, "is_reserved": 0}, {"rental_uris": {"ios": "https://dc.lft.to/lastmile_qr_scan", "android": "https://dc.lft.to/lastmile_qr_scan"}, "lon": -77.003449, "type": "electric_scooter", "fusion_lat": 0.0, "lat": 38.89261, "name": "e6ebe0317551a6c9c986056c224d289a", "fusion_lon": 0.0, "bike_id": "e6ebe0317551a6c9c986056c224d289a", "is_disabled": 0, "is_reserved": 0}, {"rental_uris": {"ios": "https://dc.lft.to/lastmile_qr_scan", "android": "https://dc.lft.to/lastmile_qr_scan"}, "lon": -77.04122566666666, "type": "electric_scooter", "fusion_lat": 0.0, "lat": 38.934005, "name": "98b3f78cced78350a66892a978f6dfe3", "fusion_lon": 0.0, "bike_id": "98b3f78cced78350a66892a978f6dfe3", "is_disabled": 0, "is_reserved": 0}, {"rental_uris": {"ios": "https://dc.lft.to/lastmile_qr_scan", "android": "https://dc.lft.to/lastmile_qr_scan"}, "lon": -76.9900485, "type": "electric_scooter", "fusion_lat": 0.0, "lat": 38.865036333333336, "name": "9f521fcf412f33c39d440b5491ce310b", "fusion_lon": 0.0, "bike_id": "9f521fcf412f33c39d440b5491ce310b", "is_disabled": 0, "is_reserved": 0}, {"rental_uris": {"ios": "https://dc.lft.to/lastmile_qr_scan", "android": "https://dc.lft.to/lastmile_qr_scan"}, "lon": -77.04306266666667, "type": "electric_scooter", "fusion_lat": 0.0, "lat": 38.908782333333335, "name": "a205f5d7430326e36ac003f1386fd2c6", "fusion_lon": 0.0, "bike_id": "a205f5d7430326e36ac003f1386fd2c6", "is_disabled": 0, "is_reserved": 0}, {"rental_uris": {"ios": "https://dc.lft.to/lastmile_qr_scan", "android": "https://dc.lft.to/lastmile_qr_scan"}, "lon": -76.9958555, "type": "electric_scooter", "fusion_lat": 0.0, "lat": 38.9550485, "name": "8c8c2517c07c3300b8698689db0d2d58", "fusion_lon": 0.0, "bike_id": "8c8c2517c07c3300b8698689db0d2d58", "is_disabled": 0, "is_reserved": 0}, {"rental_uris": {"ios": "https://dc.lft.to/lastmile_qr_scan", "android": "https://dc.lft.to/lastmile_qr_scan"}, "lon": -77.04494083333333, "type": "electric_scooter", "fusion_lat": 0.0, "lat": 38.911099666666665, "name": "9e071a908aad6378308ed4ed919c7ce6", "fusion_lon": 0.0, "bike_id": "9e071a908aad6378308ed4ed919c7ce6", "is_disabled": 0, "is_reserved": 0}, {"rental_uris": {"ios": "https://dc.lft.to/lastmile_qr_scan", "android": "https://dc.lft.to/lastmile_qr_scan"}, "lon": -77.03270083333334, "type": "electric_bike", "fusion_lat": 0.0, "lat": 38.933042666666665, "name": "8020a4e3a789963e64eee27bec2bc58e", "fusion_lon": 0.0, "bike_id": "8020a4e3a789963e64eee27bec2bc58e", "is_disabled": 0, "is_reserved": 0}, {"rental_uris": {"ios": "https://dc.lft.to/lastmile_qr_scan", "android": "https://dc.lft.to/lastmile_qr_scan"}, "lon": -77.050228, "type": "electric_scooter", "fusion_lat": 0.0, "lat": 38.923544666666665, "name": "c6e3c7fbe9745385eea4924101ad6112", "fusion_lon": 0.0, "bike_id": "c6e3c7fbe9745385eea4924101ad6112", "is_disabled": 0, "is_reserved": 0}, {"rental_uris": {"ios": "https://dc.lft.to/lastmile_qr_scan", "android": "https://dc.lft.to/lastmile_qr_scan"}, "lon": -77.0418025, "type": "electric_scooter", "fusion_lat": 0.0, "lat": 38.911906, "name": "13598f15137a72a7c74f61cc616f7e13", "fusion_lon": 0.0, "bike_id": "13598f15137a72a7c74f61cc616f7e13", "is_disabled": 0, "is_reserved": 0}, {"rental_uris": {"ios": "https://dc.lft.to/lastmile_qr_scan", "android": "https://dc.lft.to/lastmile_qr_scan"}, "lon": -77.02763533333334, "type": "electric_scooter", "fusion_lat": 0.0, "lat": 38.91346033333333, "name": "85286dbe4f5c7e86dd52163c4e545ac6", "fusion_lon": 0.0, "bike_id": "85286dbe4f5c7e86dd52163c4e545ac6", "is_disabled": 0, "is_reserved": 0}, {"rental_uris": {"ios": "https://dc.lft.to/lastmile_qr_scan", "android": "https://dc.lft.to/lastmile_qr_scan"}, "lon": -77.02441066666667, "type": "electric_scooter", "fusion_lat": 0.0, "lat": 38.920528166666664, "name": "0ea42e6b5fd7ea8456f2743db7cfc6de", "fusion_lon": 0.0, "bike_id": "0ea42e6b5fd7ea8456f2743db7cfc6de", "is_disabled": 0, "is_reserved": 0}, {"rental_uris": {"ios": "https://dc.lft.to/lastmile_qr_scan", "android": "https://dc.lft.to/lastmile_qr_scan"}, "lon": -77.07386333333334, "type": "electric_bike", "fusion_lat": 0.0, "lat": 38.961793166666666, "name": "41050bb1b1fb0487992ef831c22cdf05", "fusion_lon": 0.0, "bike_id": "41050bb1b1fb0487992ef831c22cdf05", "is_disabled": 0, "is_reserved": 0}, {"rental_uris": {"ios": "https://dc.lft.to/lastmile_qr_scan", "android": "https://dc.lft.to/lastmile_qr_scan"}, "lon": -76.931754, "type": "electric_scooter", "fusion_lat": 0.0, "lat": 38.898864333333336, "name": "1b323d1cb2a4bf5a9abc443008519a71", "fusion_lon": 0.0, "bike_id": "1b323d1cb2a4bf5a9abc443008519a71", "is_disabled": 0, "is_reserved": 0}, {"rental_uris": {"ios": "https://dc.lft.to/lastmile_qr_scan", "android": "https://dc.lft.to/lastmile_qr_scan"}, "lon": -77.03816133333333, "type": "electric_scooter", "fusion_lat": 0.0, "lat": 38.920655333333336, "name": "99400b89b304324a714b1f825546e4d5", "fusion_lon": 0.0, "bike_id": "99400b89b304324a714b1f825546e4d5", "is_disabled": 0, "is_reserved": 0}, {"rental_uris": {"ios": "https://dc.lft.to/lastmile_qr_scan", "android": "https://dc.lft.to/lastmile_qr_scan"}, "lon": -77.00238766666666, "type": "electric_scooter", "fusion_lat": 0.0, "lat": 38.91201916666667, "name": "73984151e9a5cc64b7c24b525929be6f", "fusion_lon": 0.0, "bike_id": "73984151e9a5cc64b7c24b525929be6f", "is_disabled": 0, "is_reserved": 0}, {"rental_uris": {"ios": "https://dc.lft.to/lastmile_qr_scan", "android": "https://dc.lft.to/lastmile_qr_scan"}, "lon": -77.0305345, "type": "electric_scooter", "fusion_lat": 0.0, "lat": 38.884117833333335, "name": "8d8b6b2d4815b807931ee354b25c3eee", "fusion_lon": 0.0, "bike_id": "8d8b6b2d4815b807931ee354b25c3eee", "is_disabled": 0, "is_reserved": 0}, {"rental_uris": {"ios": "https://dc.lft.to/lastmile_qr_scan", "android": "https://dc.lft.to/lastmile_qr_scan"}, "lon": -77.04196666666667, "type": "electric_scooter", "fusion_lat": 0.0, "lat": 38.918732166666665, "name": "41938b91d9342f241f2a8d35edd6852f", "fusion_lon": 0.0, "bike_id": "41938b91d9342f241f2a8d35edd6852f", "is_disabled": 0, "is_reserved": 0}, {"rental_uris": {"ios": "https://dc.lft.to/lastmile_qr_scan", "android": "https://dc.lft.to/lastmile_qr_scan"}, "lon": -77.0479035, "type": "electric_scooter", "fusion_lat": 0.0, "lat": 38.8938305, "name": "630f4f6c613146733fe5c192f15cf856", "fusion_lon": 0.0, "bike_id": "630f4f6c613146733fe5c192f15cf856", "is_disabled": 0, "is_reserved": 0}, {"rental_uris": {"ios": "https://dc.lft.to/lastmile_qr_scan", "android": "https://dc.lft.to/lastmile_qr_scan"}, "lon": -77.04461366666666, "type": "electric_scooter", "fusion_lat": 0.0, "lat": 38.90317816666666, "name": "a14c872acc68bfd96bed3928a80613e8", "fusion_lon": 0.0, "bike_id": "a14c872acc68bfd96bed3928a80613e8", "is_disabled": 0, "is_reserved": 0}, {"rental_uris": {"ios": "https://dc.lft.to/lastmile_qr_scan", "android": "https://dc.lft.to/lastmile_qr_scan"}, "lon": -77.02348683333334, "type": "electric_scooter", "fusion_lat": 0.0, "lat": 38.92065233333334, "name": "fe7fb5172cee8e394da548c57cf203ef", "fusion_lon": 0.0, "bike_id": "fe7fb5172cee8e394da548c57cf203ef", "is_disabled": 0, "is_reserved": 0}, {"rental_uris": {"ios": "https://dc.lft.to/lastmile_qr_scan", "android": "https://dc.lft.to/lastmile_qr_scan"}, "lon": -76.99577116666667, "type": "electric_scooter", "fusion_lat": 0.0, "lat": 38.900286, "name": "51458dbf1f0ed7ff0737e22329896830", "fusion_lon": 0.0, "bike_id": "51458dbf1f0ed7ff0737e22329896830", "is_disabled": 0, "is_reserved": 0}, {"rental_uris": {"ios": "https://dc.lft.to/lastmile_qr_scan", "android": "https://dc.lft.to/lastmile_qr_scan"}, "lon": -76.9237175, "type": "electric_bike", "fusion_lat": 0.0, "lat": 38.88377333333333, "name": "3dcf22535e04f4e3cc00b5b7a11da619", "fusion_lon": 0.0, "bike_id": "3dcf22535e04f4e3cc00b5b7a11da619", "is_disabled": 0, "is_reserved": 0}, {"rental_uris": {"ios": "https://dc.lft.to/lastmile_qr_scan", "android": "https://dc.lft.to/lastmile_qr_scan"}, "lon": -77.09878033333334, "type": "electric_bike", "fusion_lat": 0.0, "lat": 38.947912, "name": "41b3b7aa55283e0c0cd81faeb27af8c7", "fusion_lon": 0.0, "bike_id": "41b3b7aa55283e0c0cd81faeb27af8c7", "is_disabled": 0, "is_reserved": 0}, {"rental_uris": {"ios": "https://dc.lft.to/lastmile_qr_scan", "android": "https://dc.lft.to/lastmile_qr_scan"}, "lon": -77.00810216666666, "type": "electric_scooter", "fusion_lat": 0.0, "lat": 38.9056135, "name": "7bda5aad2c454fb2647b36ad0ebe6cb9", "fusion_lon": 0.0, "bike_id": "7bda5aad2c454fb2647b36ad0ebe6cb9", "is_disabled": 0, "is_reserved": 0}, {"rental_uris": {"ios": "https://dc.lft.to/lastmile_qr_scan", "android": "https://dc.lft.to/lastmile_qr_scan"}, "lon": -77.0422075, "type": "electric_scooter", "fusion_lat": 0.0, "lat": 38.911185333333336, "name": "6c73507947c7ed6004cc0df250534c85", "fusion_lon": 0.0, "bike_id": "6c73507947c7ed6004cc0df250534c85", "is_disabled": 0, "is_reserved": 0}, {"rental_uris": {"ios": "https://dc.lft.to/lastmile_qr_scan", "android": "https://dc.lft.to/lastmile_qr_scan"}, "lon": -77.04787183333333, "type": "electric_scooter", "fusion_lat": 0.0, "lat": 38.89958416666666, "name": "8bb2c588d0fc794d2e91b61c17e3e637", "fusion_lon": 0.0, "bike_id": "8bb2c588d0fc794d2e91b61c17e3e637", "is_disabled": 0, "is_reserved": 0}, {"rental_uris": {"ios": "https://dc.lft.to/lastmile_qr_scan", "android": "https://dc.lft.to/lastmile_qr_scan"}, "lon": -77.02176566666667, "type": "electric_scooter", "fusion_lat": 0.0, "lat": 38.8803465, "name": "7f7d6c237ff8a59a1cee0f1cb2cda1fa", "fusion_lon": 0.0, "bike_id": "7f7d6c237ff8a59a1cee0f1cb2cda1fa", "is_disabled": 0, "is_reserved": 0}, {"rental_uris": {"ios": "https://dc.lft.to/lastmile_qr_scan", "android": "https://dc.lft.to/lastmile_qr_scan"}, "lon": -77.07099366666667, "type": "electric_bike", "fusion_lat": 0.0, "lat": 38.9145195, "name": "06d22bbad5b62d754ac3181159308ee2", "fusion_lon": 0.0, "bike_id": "06d22bbad5b62d754ac3181159308ee2", "is_disabled": 0, "is_reserved": 0}, {"rental_uris": {"ios": "https://dc.lft.to/lastmile_qr_scan", "android": "https://dc.lft.to/lastmile_qr_scan"}, "lon": -77.0372605, "type": "electric_scooter", "fusion_lat": 0.0, "lat": 38.906912166666665, "name": "c9a2dec79604cb0905526f014355cf76", "fusion_lon": 0.0, "bike_id": "c9a2dec79604cb0905526f014355cf76", "is_disabled": 0, "is_reserved": 0}, {"rental_uris": {"ios": "https://dc.lft.to/lastmile_qr_scan", "android": "https://dc.lft.to/lastmile_qr_scan"}, "lon": -76.98092083333333, "type": "electric_bike", "fusion_lat": 0.0, "lat": 38.88132233333333, "name": "c1635b62aa0318ffc93a848dd886aecc", "fusion_lon": 0.0, "bike_id": "c1635b62aa0318ffc93a848dd886aecc", "is_disabled": 0, "is_reserved": 0}, {"rental_uris": {"ios": "https://dc.lft.to/lastmile_qr_scan", "android": "https://dc.lft.to/lastmile_qr_scan"}, "lon": -77.01207933333333, "type": "electric_bike", "fusion_lat": 0.0, "lat": 38.871009, "name": "bae8d366fbc4a13cee579569a3cf253d", "fusion_lon": 0.0, "bike_id": "bae8d366fbc4a13cee579569a3cf253d", "is_disabled": 0, "is_reserved": 0}, {"rental_uris": {"ios": "https://dc.lft.to/lastmile_qr_scan", "android": "https://dc.lft.to/lastmile_qr_scan"}, "lon": -77.03838033333334, "type": "electric_scooter", "fusion_lat": 0.0, "lat": 38.907493, "name": "5667d3283100dda80f0809cbc8668164", "fusion_lon": 0.0, "bike_id": "5667d3283100dda80f0809cbc8668164", "is_disabled": 0, "is_reserved": 0}, {"rental_uris": {"ios": "https://dc.lft.to/lastmile_qr_scan", "android": "https://dc.lft.to/lastmile_qr_scan"}, "lon": -77.0530475, "type": "electric_scooter", "fusion_lat": 0.0, "lat": 38.90265816666667, "name": "bd619983e6ae672afebe6497cd31687c", "fusion_lon": 0.0, "bike_id": "bd619983e6ae672afebe6497cd31687c", "is_disabled": 0, "is_reserved": 0}, {"rental_uris": {"ios": "https://dc.lft.to/lastmile_qr_scan", "android": "https://dc.lft.to/lastmile_qr_scan"}, "lon": -77.077262, "type": "electric_scooter", "fusion_lat": 0.0, "lat": 38.94713383333333, "name": "6fd64b7096d9ff7af62f1b9daa423c80", "fusion_lon": 0.0, "bike_id": "6fd64b7096d9ff7af62f1b9daa423c80", "is_disabled": 0, "is_reserved": 0}, {"rental_uris": {"ios": "https://dc.lft.to/lastmile_qr_scan", "android": "https://dc.lft.to/lastmile_qr_scan"}, "lon": -77.02782416666666, "type": "electric_scooter", "fusion_lat": 0.0, "lat": 38.953868166666666, "name": "8fc561d73d694ccc702f4359e59c732a", "fusion_lon": 0.0, "bike_id": "8fc561d73d694ccc702f4359e59c732a", "is_disabled": 0, "is_reserved": 0}, {"rental_uris": {"ios": "https://dc.lft.to/lastmile_qr_scan", "android": "https://dc.lft.to/lastmile_qr_scan"}, "lon": -77.03209283333334, "type": "electric_scooter", "fusion_lat": 0.0, "lat": 38.92013, "name": "21ad65b0ad91c661be4537fb4bf72eaa", "fusion_lon": 0.0, "bike_id": "21ad65b0ad91c661be4537fb4bf72eaa", "is_disabled": 0, "is_reserved": 0}, {"rental_uris": {"ios": "https://dc.lft.to/lastmile_qr_scan", "android": "https://dc.lft.to/lastmile_qr_scan"}, "lon": -77.0253945, "type": "electric_scooter", "fusion_lat": 0.0, "lat": 38.924025, "name": "e759a6c51cf65d3637f090a29d9ae771", "fusion_lon": 0.0, "bike_id": "e759a6c51cf65d3637f090a29d9ae771", "is_disabled": 0, "is_reserved": 0}, {"rental_uris": {"ios": "https://dc.lft.to/lastmile_qr_scan", "android": "https://dc.lft.to/lastmile_qr_scan"}, "lon": -76.973047, "type": "electric_scooter", "fusion_lat": 0.0, "lat": 38.9199295, "name": "20aa32290aee9e2e4b9acadaffa4e52c", "fusion_lon": 0.0, "bike_id": "20aa32290aee9e2e4b9acadaffa4e52c", "is_disabled": 0, "is_reserved": 0}, {"rental_uris": {"ios": "https://dc.lft.to/lastmile_qr_scan", "android": "https://dc.lft.to/lastmile_qr_scan"}, "lon": -77.03667016666667, "type": "electric_scooter", "fusion_lat": 0.0, "lat": 38.918168666666666, "name": "6f171f940261729ec98cb6b208ef616c", "fusion_lon": 0.0, "bike_id": "6f171f940261729ec98cb6b208ef616c", "is_disabled": 0, "is_reserved": 0}, {"rental_uris": {"ios": "https://dc.lft.to/lastmile_qr_scan", "android": "https://dc.lft.to/lastmile_qr_scan"}, "lon": -77.03465183333333, "type": "electric_scooter", "fusion_lat": 0.0, "lat": 38.92348966666667, "name": "2f20de7a12f37a122d8bef087a27bba2", "fusion_lon": 0.0, "bike_id": "2f20de7a12f37a122d8bef087a27bba2", "is_disabled": 0, "is_reserved": 0}, {"rental_uris": {"ios": "https://dc.lft.to/lastmile_qr_scan", "android": "https://dc.lft.to/lastmile_qr_scan"}, "lon": -77.03362216666666, "type": "electric_scooter", "fusion_lat": 0.0, "lat": 38.9322065, "name": "a75967f78b5a70824740c6b432fdccf9", "fusion_lon": 0.0, "bike_id": "a75967f78b5a70824740c6b432fdccf9", "is_disabled": 0, "is_reserved": 0}, {"rental_uris": {"ios": "https://dc.lft.to/lastmile_qr_scan", "android": "https://dc.lft.to/lastmile_qr_scan"}, "lon": -77.00597383333333, "type": "electric_scooter", "fusion_lat": 0.0, "lat": 38.88496033333333, "name": "92686add91574243c03e04cca01904ec", "fusion_lon": 0.0, "bike_id": "92686add91574243c03e04cca01904ec", "is_disabled": 0, "is_reserved": 0}, {"rental_uris": {"ios": "https://dc.lft.to/lastmile_qr_scan", "android": "https://dc.lft.to/lastmile_qr_scan"}, "lon": -77.01605183333334, "type": "electric_scooter", "fusion_lat": 0.0, "lat": 38.90318333333333, "name": "3611097c52a91105deab3a161d1eac80", "fusion_lon": 0.0, "bike_id": "3611097c52a91105deab3a161d1eac80", "is_disabled": 0, "is_reserved": 0}, {"rental_uris": {"ios": "https://dc.lft.to/lastmile_qr_scan", "android": "https://dc.lft.to/lastmile_qr_scan"}, "lon": -77.05121566666666, "type": "electric_bike", "fusion_lat": 0.0, "lat": 38.99968633333334, "name": "ce910b7accdcc553b483c7f1e6797e08", "fusion_lon": 0.0, "bike_id": "ce910b7accdcc553b483c7f1e6797e08", "is_disabled": 0, "is_reserved": 0}, {"rental_uris": {"ios": "https://dc.lft.to/lastmile_qr_scan", "android": "https://dc.lft.to/lastmile_qr_scan"}, "lon": -77.024204, "type": "electric_scooter", "fusion_lat": 0.0, "lat": 38.91826983333333, "name": "4c9ebb2359ec560c0ade443d057c14e8", "fusion_lon": 0.0, "bike_id": "4c9ebb2359ec560c0ade443d057c14e8", "is_disabled": 0, "is_reserved": 0}, {"rental_uris": {"ios": "https://dc.lft.to/lastmile_qr_scan", "android": "https://dc.lft.to/lastmile_qr_scan"}, "lon": -76.986155, "type": "electric_bike", "fusion_lat": 0.0, "lat": 38.9062375, "name": "1c225ecd1f262c828a03b6b429c28174", "fusion_lon": 0.0, "bike_id": "1c225ecd1f262c828a03b6b429c28174", "is_disabled": 0, "is_reserved": 0}, {"rental_uris": {"ios": "https://dc.lft.to/lastmile_qr_scan", "android": "https://dc.lft.to/lastmile_qr_scan"}, "lon": -77.024358, "type": "electric_scooter", "fusion_lat": 0.0, "lat": 38.91849783333333, "name": "e1817d11139446df6f00c656343f042e", "fusion_lon": 0.0, "bike_id": "e1817d11139446df6f00c656343f042e", "is_disabled": 0, "is_reserved": 0}, {"rental_uris": {"ios": "https://dc.lft.to/lastmile_qr_scan", "android": "https://dc.lft.to/lastmile_qr_scan"}, "lon": -76.98883866666667, "type": "electric_scooter", "fusion_lat": 0.0, "lat": 38.86658466666667, "name": "a29117e36c7bed4e23d02481d0bb0cd8", "fusion_lon": 0.0, "bike_id": "a29117e36c7bed4e23d02481d0bb0cd8", "is_disabled": 0, "is_reserved": 0}, {"rental_uris": {"ios": "https://dc.lft.to/lastmile_qr_scan", "android": "https://dc.lft.to/lastmile_qr_scan"}, "lon": -77.088267, "type": "electric_bike", "fusion_lat": 0.0, "lat": 38.909792, "name": "37c3937b22935187b482d443ffd8a8f5", "fusion_lon": 0.0, "bike_id": "37c3937b22935187b482d443ffd8a8f5", "is_disabled": 0, "is_reserved": 0}, {"rental_uris": {"ios": "https://dc.lft.to/lastmile_qr_scan", "android": "https://dc.lft.to/lastmile_qr_scan"}, "lon": -77.01384933333334, "type": "electric_scooter", "fusion_lat": 0.0, "lat": 38.928877166666666, "name": "d15a82d856a77abe241c0c84af6e004d", "fusion_lon": 0.0, "bike_id": "d15a82d856a77abe241c0c84af6e004d", "is_disabled": 0, "is_reserved": 0}, {"rental_uris": {"ios": "https://dc.lft.to/lastmile_qr_scan", "android": "https://dc.lft.to/lastmile_qr_scan"}, "lon": -77.0283655, "type": "electric_scooter", "fusion_lat": 0.0, "lat": 38.93418533333333, "name": "1cd21df5ed4647faf5a2a9f102b087fc", "fusion_lon": 0.0, "bike_id": "1cd21df5ed4647faf5a2a9f102b087fc", "is_disabled": 0, "is_reserved": 0}, {"rental_uris": {"ios": "https://dc.lft.to/lastmile_qr_scan", "android": "https://dc.lft.to/lastmile_qr_scan"}, "lon": -77.03604516666667, "type": "electric_scooter", "fusion_lat": 0.0, "lat": 38.9348635, "name": "ef4e4b167868d084955547f20a1a0bca", "fusion_lon": 0.0, "bike_id": "ef4e4b167868d084955547f20a1a0bca", "is_disabled": 0, "is_reserved": 0}, {"rental_uris": {"ios": "https://dc.lft.to/lastmile_qr_scan", "android": "https://dc.lft.to/lastmile_qr_scan"}, "lon": -77.02005716666666, "type": "electric_scooter", "fusion_lat": 0.0, "lat": 38.913090833333335, "name": "0f4fc1ab1f0db97c6fa7e4e1aa839515", "fusion_lon": 0.0, "bike_id": "0f4fc1ab1f0db97c6fa7e4e1aa839515", "is_disabled": 0, "is_reserved": 0}, {"rental_uris": {"ios": "https://dc.lft.to/lastmile_qr_scan", "android": "https://dc.lft.to/lastmile_qr_scan"}, "lon": -77.04540433333334, "type": "electric_scooter", "fusion_lat": 0.0, "lat": 38.933998833333334, "name": "6d8f0da2d1e06c9d0ccf44ca023680b6", "fusion_lon": 0.0, "bike_id": "6d8f0da2d1e06c9d0ccf44ca023680b6", "is_disabled": 0, "is_reserved": 0}, {"rental_uris": {"ios": "https://dc.lft.to/lastmile_qr_scan", "android": "https://dc.lft.to/lastmile_qr_scan"}, "lon": -77.0061425, "type": "electric_scooter", "fusion_lat": 0.0, "lat": 38.902537833333334, "name": "b47f99966b35e074ec7ba4589cbbf494", "fusion_lon": 0.0, "bike_id": "b47f99966b35e074ec7ba4589cbbf494", "is_disabled": 0, "is_reserved": 0}, {"rental_uris": {"ios": "https://dc.lft.to/lastmile_qr_scan", "android": "https://dc.lft.to/lastmile_qr_scan"}, "lon": -77.02705833333333, "type": "electric_scooter", "fusion_lat": 0.0, "lat": 38.950052, "name": "d0d087761517c16f3358be0f71b5afee", "fusion_lon": 0.0, "bike_id": "d0d087761517c16f3358be0f71b5afee", "is_disabled": 0, "is_reserved": 0}, {"rental_uris": {"ios": "https://dc.lft.to/lastmile_qr_scan", "android": "https://dc.lft.to/lastmile_qr_scan"}, "lon": -76.98964833333334, "type": "electric_scooter", "fusion_lat": 0.0, "lat": 38.9024705, "name": "53779b39115fffa4cf32a5ee044406b2", "fusion_lon": 0.0, "bike_id": "53779b39115fffa4cf32a5ee044406b2", "is_disabled": 0, "is_reserved": 0}, {"rental_uris": {"ios": "https://dc.lft.to/lastmile_qr_scan", "android": "https://dc.lft.to/lastmile_qr_scan"}, "lon": -77.03174633333333, "type": "electric_scooter", "fusion_lat": 0.0, "lat": 38.914678333333335, "name": "eb3b7d2b53339090b7ca7d8302ebc469", "fusion_lon": 0.0, "bike_id": "eb3b7d2b53339090b7ca7d8302ebc469", "is_disabled": 0, "is_reserved": 0}, {"rental_uris": {"ios": "https://dc.lft.to/lastmile_qr_scan", "android": "https://dc.lft.to/lastmile_qr_scan"}, "lon": -76.94633483333334, "type": "electric_scooter", "fusion_lat": 0.0, "lat": 38.898337, "name": "52ce302f9eee8abe6bada730da59c0f2", "fusion_lon": 0.0, "bike_id": "52ce302f9eee8abe6bada730da59c0f2", "is_disabled": 0, "is_reserved": 0}, {"rental_uris": {"ios": "https://dc.lft.to/lastmile_qr_scan", "android": "https://dc.lft.to/lastmile_qr_scan"}, "lon": -77.017016, "type": "electric_scooter", "fusion_lat": 0.0, "lat": 38.9202225, "name": "0b958450140babc83094d758d7397492", "fusion_lon": 0.0, "bike_id": "0b958450140babc83094d758d7397492", "is_disabled": 0, "is_reserved": 0}, {"rental_uris": {"ios": "https://dc.lft.to/lastmile_qr_scan", "android": "https://dc.lft.to/lastmile_qr_scan"}, "lon": -77.03864833333333, "type": "electric_scooter", "fusion_lat": 0.0, "lat": 38.915613666666665, "name": "38d6f929d409d81376d4f630f7d8f8ee", "fusion_lon": 0.0, "bike_id": "38d6f929d409d81376d4f630f7d8f8ee", "is_disabled": 0, "is_reserved": 0}, {"rental_uris": {"ios": "https://dc.lft.to/lastmile_qr_scan", "android": "https://dc.lft.to/lastmile_qr_scan"}, "lon": -77.04557766666667, "type": "electric_scooter", "fusion_lat": 0.0, "lat": 38.91790966666667, "name": "aff77aa2f7d45660d3360908a497f10b", "fusion_lon": 0.0, "bike_id": "aff77aa2f7d45660d3360908a497f10b", "is_disabled": 0, "is_reserved": 0}, {"rental_uris": {"ios": "https://dc.lft.to/lastmile_qr_scan", "android": "https://dc.lft.to/lastmile_qr_scan"}, "lon": -76.99936016666666, "type": "electric_scooter", "fusion_lat": 0.0, "lat": 38.89622166666667, "name": "e70aed08af875ab1229999e2e548d538", "fusion_lon": 0.0, "bike_id": "e70aed08af875ab1229999e2e548d538", "is_disabled": 0, "is_reserved": 0}, {"rental_uris": {"ios": "https://dc.lft.to/lastmile_qr_scan", "android": "https://dc.lft.to/lastmile_qr_scan"}, "lon": -77.01279883333333, "type": "electric_scooter", "fusion_lat": 0.0, "lat": 38.900581333333335, "name": "d854b6b788a5684d78809dfbed79d737", "fusion_lon": 0.0, "bike_id": "d854b6b788a5684d78809dfbed79d737", "is_disabled": 0, "is_reserved": 0}, {"rental_uris": {"ios": "https://dc.lft.to/lastmile_qr_scan", "android": "https://dc.lft.to/lastmile_qr_scan"}, "lon": -77.02404133333333, "type": "electric_scooter", "fusion_lat": 0.0, "lat": 38.9110635, "name": "3e8b2264bebfa4e86891a4999f7f15b4", "fusion_lon": 0.0, "bike_id": "3e8b2264bebfa4e86891a4999f7f15b4", "is_disabled": 0, "is_reserved": 0}, {"rental_uris": {"ios": "https://dc.lft.to/lastmile_qr_scan", "android": "https://dc.lft.to/lastmile_qr_scan"}, "lon": -77.02834866666667, "type": "electric_scooter", "fusion_lat": 0.0, "lat": 38.887709, "name": "051727af71b93a5a4aba281ff56ceae9", "fusion_lon": 0.0, "bike_id": "051727af71b93a5a4aba281ff56ceae9", "is_disabled": 0, "is_reserved": 0}, {"rental_uris": {"ios": "https://dc.lft.to/lastmile_qr_scan", "android": "https://dc.lft.to/lastmile_qr_scan"}, "lon": -77.03682016666667, "type": "electric_scooter", "fusion_lat": 0.0, "lat": 38.922641, "name": "452725a7e070c9840808bfd22ed43354", "fusion_lon": 0.0, "bike_id": "452725a7e070c9840808bfd22ed43354", "is_disabled": 0, "is_reserved": 0}, {"rental_uris": {"ios": "https://dc.lft.to/lastmile_qr_scan", "android": "https://dc.lft.to/lastmile_qr_scan"}, "lon": -77.03824233333333, "type": "electric_scooter", "fusion_lat": 0.0, "lat": 38.90777216666667, "name": "b46e6071da94b3e98f9b87815197531d", "fusion_lon": 0.0, "bike_id": "b46e6071da94b3e98f9b87815197531d", "is_disabled": 0, "is_reserved": 0}, {"rental_uris": {"ios": "https://dc.lft.to/lastmile_qr_scan", "android": "https://dc.lft.to/lastmile_qr_scan"}, "lon": -77.04574216666667, "type": "electric_scooter", "fusion_lat": 0.0, "lat": 38.910494166666666, "name": "2289b1110e56466752a0f66d625fcd0c", "fusion_lon": 0.0, "bike_id": "2289b1110e56466752a0f66d625fcd0c", "is_disabled": 0, "is_reserved": 0}, {"rental_uris": {"ios": "https://dc.lft.to/lastmile_qr_scan", "android": "https://dc.lft.to/lastmile_qr_scan"}, "lon": -77.02222166666667, "type": "electric_scooter", "fusion_lat": 0.0, "lat": 38.8935545, "name": "3d18de3a6c253b888d69b0b674df2139", "fusion_lon": 0.0, "bike_id": "3d18de3a6c253b888d69b0b674df2139", "is_disabled": 0, "is_reserved": 0},