{"data": {"bikes": [{"is_disabled": 0, "is_reserved": 0, "fusion_lat": 0.0, "lat": 38.9025175, "fusion_lon": 0.0, "rental_uris": {"ios": "https://dc.lft.to/lastmile_qr_scan", "android": "https://dc.lft.to/lastmile_qr_scan"}, "lon": -77.0520145, "bike_id": "a542db8576c62c2284195925c51f17a3", "type": "electric_scooter", "name": "a542db8576c62c2284195925c51f17a3"}, {"is_disabled": 0, "is_reserved": 0, "fusion_lat": 0.0, "lat": 38.907297166666666, "fusion_lon": 0.0, "rental_uris": {"ios": "https://dc.lft.to/lastmile_qr_scan", "android": "https://dc.lft.to/lastmile_qr_scan"}, "lon": -77.02443283333334, "bike_id": "3d5d129981656e4a7fda239ca9d97910", "type": "electric_scooter", "name": "3d5d129981656e4a7fda239ca9d97910"}, {"is_disabled": 0, "is_reserved": 0, "fusion_lat": 0.0, "lat": 38.89511733333333, "fusion_lon": 0.0, "rental_uris": {"ios": "https://dc.lft.to/lastmile_qr_scan", "android": "https://dc.lft.to/lastmile_qr_scan"}, "lon": -77.02302733333333, "bike_id": "158285d375f5bfe7d25aa3708e02e759", "type": "electric_scooter", "name": "158285d375f5bfe7d25aa3708e02e759"}, {"is_disabled": 0, "is_reserved": 0, "fusion_lat": 0.0, "lat": 38.905322, "fusion_lon": 0.0, "rental_uris": {"ios": "https://dc.lft.to/lastmile_qr_scan", "android": "https://dc.lft.to/lastmile_qr_scan"}, "lon": -77.065317, "bike_id": "526eea8bafa2f077cdb132ee7074e36a", "type": "electric_scooter", "name": "526eea8bafa2f077cdb132ee7074e36a"}, {"is_disabled": 0, "is_reserved": 0, "fusion_lat": 0.0, "lat": 38.89650316666667, "fusion_lon": 0.0, "rental_uris": {"ios": "https://dc.lft.to/lastmile_qr_scan", "android": "https://dc.lft.to/lastmile_qr_scan"}, "lon": -77.02581616666667, "bike_id": "20611b0e6c680833432ba2c0ecae35e0", "type": "electric_scooter", "name": "20611b0e6c680833432ba2c0ecae35e0"}, {"is_disabled": 0, "is_reserved": 0, "fusion_lat": 0.0, "lat": 38.9110455, "fusion_lon": 0.0, "rental_uris": {"ios": "https://dc.lft.to/lastmile_qr_scan", "android": "https://dc.lft.to/lastmile_qr_scan"}, "lon": -77.0319805, "bike_id": "d7f35a2153c00a21a076c17193375231", "type": "electric_scooter", "name": "d7f35a2153c00a21a076c17193375231"}, {"is_disabled": 0, "is_reserved": 0, "fusion_lat": 0.0, "lat": 38.8967155, "fusion_lon": 0.0, "rental_uris": {"ios": "https://dc.lft.to/lastmile_qr_scan", "android": "https://dc.lft.to/lastmile_qr_scan"}, "lon": -77.03218583333333, "bike_id": "164063b350ac5f80babddea3e4adf7cd", "type": "electric_scooter", "name": "164063b350ac5f80babddea3e4adf7cd"}, {"is_disabled": 0, "is_reserved": 0, "fusion_lat": 0.0, "lat": 38.915097833333334, "fusion_lon": 0.0, "rental_uris": {"ios": "https://dc.lft.to/lastmile_qr_scan", "android": "https://dc.lft.to/lastmile_qr_scan"}, "lon": -77.01905016666667, "bike_id": "2e5bf9fddb92ede1d316c3856c1f454f", "type": "electric_scooter", "name": "2e5bf9fddb92ede1d316c3856c1f454f"}, {"is_disabled": 0, "is_reserved": 0, "fusion_lat": 0.0, "lat": 38.932736166666665, "fusion_lon": 0.0, "rental_uris": {"ios": "https://dc.lft.to/lastmile_qr_scan", "android": "https://dc.lft.to/lastmile_qr_scan"}, "lon": -77.0209545, "bike_id": "4408b669aca0cc1da18e0f7793ee292a", "type": "electric_scooter", "name": "4408b669aca0cc1da18e0f7793ee292a"}, {"is_disabled": 0, "is_reserved": 0, "fusion_lat": 0.0, "lat": 38.8896575, "fusion_lon": 0.0, "rental_uris": {"ios": "https://dc.lft.to/lastmile_qr_scan", "android": "https://dc.lft.to/lastmile_qr_scan"}, "lon": -76.9803325, "bike_id": "8ae04b8e326823a17f91589b35a29dc9", "type": "electric_scooter", "name": "8ae04b8e326823a17f91589b35a29dc9"}, {"is_disabled": 0, "is_reserved": 0, "fusion_lat": 0.0, "lat": 38.88491366666667, "fusion_lon": 0.0, "rental_uris": {"ios": "https://dc.lft.to/lastmile_qr_scan", "android": "https://dc.lft.to/lastmile_qr_scan"}, "lon": -77.03475583333334, "bike_id": "9697e33e3701515ec851ce2df4661fd4", "type": "electric_scooter", "name": "9697e33e3701515ec851ce2df4661fd4"}, {"is_disabled": 0, "is_reserved": 0, "fusion_lat": 0.0, "lat": 38.846745, "fusion_lon": 0.0, "rental_uris": {"ios": "https://dc.lft.to/lastmile_qr_scan", "android": "https://dc.lft.to/lastmile_qr_scan"}, "lon": -77.13938766666666, "bike_id": "29fcc4b45fe15ddddd66f507951488d5", "type": "electric_bike", "name": "29fcc4b45fe15ddddd66f507951488d5"}, {"is_disabled": 0, "is_reserved": 0, "fusion_lat": 0.0, "lat": 38.915619666666665, "fusion_lon": 0.0, "rental_uris": {"ios": "https://dc.lft.to/lastmile_qr_scan", "android": "https://dc.lft.to/lastmile_qr_scan"}, "lon": -77.051106, "bike_id": "018f954a1accc79aca192fb7567f2352", "type": "electric_scooter", "name": "018f954a1accc79aca192fb7567f2352"}, {"is_disabled": 0, "is_reserved": 0, "fusion_lat": 0.0, "lat": 38.91124516666667, "fusion_lon": 0.0, "rental_uris": {"ios": "https://dc.lft.to/lastmile_qr_scan", "android": "https://dc.lft.to/lastmile_qr_scan"}, "lon": -77.02196783333333, "bike_id": "0550529d99339fb54f4955d0427a26b3", "type": "electric_scooter", "name": "0550529d99339fb54f4955d0427a26b3"}, {"is_disabled": 0, "is_reserved": 0, "fusion_lat": 0.0, "lat": 38.9002045, "fusion_lon": 0.0, "rental_uris": {"ios": "https://dc.lft.to/lastmile_qr_scan", "android": "https://dc.lft.to/lastmile_qr_scan"}, "lon": -77.0038445, "bike_id": "c90a0bac4ace340a6ca19ddda4e8ec0f", "type": "electric_scooter", "name": "c90a0bac4ace340a6ca19ddda4e8ec0f"}, {"is_disabled": 0, "is_reserved": 0, "fusion_lat": 0.0, "lat": 38.919102, "fusion_lon": 0.0, "rental_uris": {"ios": "https://dc.lft.to/lastmile_qr_scan", "android": "https://dc.lft.to/lastmile_qr_scan"}, "lon": -77.02305916666667, "bike_id": "a6d92fd8e11276fb32b81eb769ace39b", "type": "electric_scooter", "name": "a6d92fd8e11276fb32b81eb769ace39b"}, {"is_disabled": 0, "is_reserved": 0, "fusion_lat": 0.0, "lat": 38.935237666666666, "fusion_lon": 0.0, "rental_uris": {"ios": "https://dc.lft.to/lastmile_qr_scan", "android": "https://dc.lft.to/lastmile_qr_scan"}, "lon": -77.02843033333333, "bike_id": "eb4595b7625510924d0f16d51f222657", "type": "electric_scooter", "name": "eb4595b7625510924d0f16d51f222657"}, {"is_disabled": 0, "is_reserved": 0, "fusion_lat": 0.0, "lat": 38.902176833333336, "fusion_lon": 0.0, "rental_uris": {"ios": "https://dc.lft.to/lastmile_qr_scan", "android": "https://dc.lft.to/lastmile_qr_scan"}, "lon": -77.02371666666667, "bike_id": "e2635d3b018a7d98ad70aa288713e28b", "type": "electric_scooter", "name": "e2635d3b018a7d98ad70aa288713e28b"}, {"is_disabled": 0, "is_reserved": 0, "fusion_lat": 0.0, "lat": 38.862828666666665, "fusion_lon": 0.0, "rental_uris": {"ios": "https://dc.lft.to/lastmile_qr_scan", "android": "https://dc.lft.to/lastmile_qr_scan"}, "lon": -76.945209, "bike_id": "7c8b2f1e04896ae31c0a743a41e6e638", "type": "electric_bike", "name": "7c8b2f1e04896ae31c0a743a41e6e638"}, {"is_disabled": 0, "is_reserved": 0, "fusion_lat": 0.0, "lat": 38.919110833333335, "fusion_lon": 0.0, "rental_uris": {"ios": "https://dc.lft.to/lastmile_qr_scan", "android": "https://dc.lft.to/lastmile_qr_scan"}, "lon": -77.04465733333333, "bike_id": "a82d696edaeb1bf594facbaa94364ad2", "type": "electric_scooter", "name": "a82d696edaeb1bf594facbaa94364ad2"}, {"is_disabled": 0, "is_reserved": 0, "fusion_lat": 0.0, "lat": 38.872915166666665, "fusion_lon": 0.0, "rental_uris": {"ios": "https://dc.lft.to/lastmile_qr_scan", "android": "https://dc.lft.to/lastmile_qr_scan"}, "lon": -77.00983466666666, "bike_id": "7c479d1858b4568d942157c88cd7c8a8", "type": "electric_scooter", "name": "7c479d1858b4568d942157c88cd7c8a8"}, {"is_disabled": 0, "is_reserved": 0, "fusion_lat": 0.0, "lat": 38.910311, "fusion_lon": 0.0, "rental_uris": {"ios": "https://dc.lft.to/lastmile_qr_scan", "android": "https://dc.lft.to/lastmile_qr_scan"}, "lon": -76.92335433333334, "bike_id": "441f6e4ccc1a5f8fe391ee3aa9613e39", "type": "electric_bike", "name": "441f6e4ccc1a5f8fe391ee3aa9613e39"}, {"is_disabled": 0, "is_reserved": 0, "fusion_lat": 0.0, "lat": 38.9176265, "fusion_lon": 0.0, "rental_uris": {"ios": "https://dc.lft.to/lastmile_qr_scan", "android": "https://dc.lft.to/lastmile_qr_scan"}, "lon": -77.03886716666666, "bike_id": "189c132a6cb1c8b254d9e9324817c7f5", "type": "electric_scooter", "name": "189c132a6cb1c8b254d9e9324817c7f5"}, {"is_disabled": 0, "is_reserved": 0, "fusion_lat": 0.0, "lat": 38.906442, "fusion_lon": 0.0, "rental_uris": {"ios": "https://dc.lft.to/lastmile_qr_scan", "android": "https://dc.lft.to/lastmile_qr_scan"}, "lon": -77.0532335, "bike_id": "c8b0727cac020fe4f6a44aee37a769e0", "type": "electric_scooter", "name": "c8b0727cac020fe4f6a44aee37a769e0"}, {"is_disabled": 0, "is_reserved": 0, "fusion_lat": 0.0, "lat": 38.93352, "fusion_lon": 0.0, "rental_uris": {"ios": "https://dc.lft.to/lastmile_qr_scan", "android": "https://dc.lft.to/lastmile_qr_scan"}, "lon": -77.05937416666667, "bike_id": "9dcd68afaa31b5ef01f4b9ece5b6c559", "type": "electric_scooter", "name": "9dcd68afaa31b5ef01f4b9ece5b6c559"}, {"is_disabled": 0, "is_reserved": 0, "fusion_lat": 0.0, "lat": 38.9299745, "fusion_lon": 0.0, "rental_uris": {"ios": "https://dc.lft.to/lastmile_qr_scan", "android": "https://dc.lft.to/lastmile_qr_scan"}, "lon": -77.03798716666667, "bike_id": "e27ae45cfff661c85f11d15b601a1653", "type": "electric_scooter", "name": "e27ae45cfff661c85f11d15b601a1653"}, {"is_disabled": 0, "is_reserved": 0, "fusion_lat": 0.0, "lat": 38.925073833333336, "fusion_lon": 0.0, "rental_uris": {"ios": "https://dc.lft.to/lastmile_qr_scan", "android": "https://dc.lft.to/lastmile_qr_scan"}, "lon": -77.023614, "bike_id": "a2b2f7c67ba3a55c4ca308c4d5712b32", "type": "electric_scooter", "name": "a2b2f7c67ba3a55c4ca308c4d5712b32"}, {"is_disabled": 0, "is_reserved": 0, "fusion_lat": 0.0, "lat": 38.890802, "fusion_lon": 0.0, "rental_uris": {"ios": "https://dc.lft.to/lastmile_qr_scan", "android": "https://dc.lft.to/lastmile_qr_scan"}, "lon": -77.01506716666667, "bike_id": "bd644be3e4958ef433645a00afab23c6", "type": "electric_scooter", "name": "bd644be3e4958ef433645a00afab23c6"}, {"is_disabled": 0, "is_reserved": 0, "fusion_lat": 0.0, "lat": 38.91613566666667, "fusion_lon": 0.0, "rental_uris": {"ios": "https://dc.lft.to/lastmile_qr_scan", "android": "https://dc.lft.to/lastmile_qr_scan"}, "lon": -77.02168, "bike_id": "10c0952125e1d3935b30113d99651908", "type": "electric_scooter", "name": "10c0952125e1d3935b30113d99651908"}, {"is_disabled": 0, "is_reserved": 0, "fusion_lat": 0.0, "lat": 38.940869166666666, "fusion_lon": 0.0, "rental_uris": {"ios": "https://dc.lft.to/lastmile_qr_scan", "android": "https://dc.lft.to/lastmile_qr_scan"}, "lon": -77.0231845, "bike_id": "2473f91ab65e0f41e5d0026721a831b0", "type": "electric_scooter", "name": "2473f91ab65e0f41e5d0026721a831b0"}, {"is_disabled": 0, "is_reserved": 0, "fusion_lat": 0.0, "lat": 38.96018766666667, "fusion_lon": 0.0, "rental_uris": {"ios": "https://dc.lft.to/lastmile_qr_scan", "android": "https://dc.lft.to/lastmile_qr_scan"}, "lon": -77.028241, "bike_id": "709975002d76900f4da118392757005c", "type": "electric_scooter", "name": "709975002d76900f4da118392757005c"}, {"is_disabled": 0, "is_reserved": 0, "fusion_lat": 0.0, "lat": 38.90040416666667, "fusion_lon": 0.0, "rental_uris": {"ios": "https://dc.lft.to/lastmile_qr_scan", "android": "https://dc.lft.to/lastmile_qr_scan"}, "lon": -76.99164033333334, "bike_id": "dcac7bcdb2e625e6d984bb1c04481679", "type": "electric_scooter", "name": "dcac7bcdb2e625e6d984bb1c04481679"}, {"is_disabled": 0, "is_reserved": 0, "fusion_lat": 0.0, "lat": 38.90974883333333, "fusion_lon": 0.0, "rental_uris": {"ios": "https://dc.lft.to/lastmile_qr_scan", "android": "https://dc.lft.to/lastmile_qr_scan"}, "lon": -77.048173, "bike_id": "0e3a1be0ea96bf0960d064a17d9bd6f0", "type": "electric_scooter", "name": "0e3a1be0ea96bf0960d064a17d9bd6f0"}, {"is_disabled": 0, "is_reserved": 0, "fusion_lat": 0.0, "lat": 38.956508666666664, "fusion_lon": 0.0, "rental_uris": {"ios": "https://dc.lft.to/lastmile_qr_scan", "android": "https://dc.lft.to/lastmile_qr_scan"}, "lon": -77.01965333333334, "bike_id": "52b731d04f681dfa50a2dab2abac1684", "type": "electric_scooter", "name": "52b731d04f681dfa50a2dab2abac1684"}, {"is_disabled": 0, "is_reserved": 0, "fusion_lat": 0.0, "lat": 38.891995333333334, "fusion_lon": 0.0, "rental_uris": {"ios": "https://dc.lft.to/lastmile_qr_scan", "android": "https://dc.lft.to/lastmile_qr_scan"}, "lon": -77.04395833333334, "bike_id": "b1cf7c6122d9d708b845461a337d1ca1", "type": "electric_scooter", "name": "b1cf7c6122d9d708b845461a337d1ca1"}, {"is_disabled": 0, "is_reserved": 0, "fusion_lat": 0.0, "lat": 38.902514, "fusion_lon": 0.0, "rental_uris": {"ios": "https://dc.lft.to/lastmile_qr_scan", "android": "https://dc.lft.to/lastmile_qr_scan"}, "lon": -77.05203633333333, "bike_id": "3c747cc570510e26afac7323bdc5afa3", "type": "electric_scooter", "name": "3c747cc570510e26afac7323bdc5afa3"}, {"is_disabled": 0, "is_reserved": 0, "fusion_lat": 0.0, "lat": 38.892221166666666, "fusion_lon": 0.0, "rental_uris": {"ios": "https://dc.lft.to/lastmile_qr_scan", "android": "https://dc.lft.to/lastmile_qr_scan"}, "lon": -77.039876, "bike_id": "0490da4ff49356a7725dd039041df200", "type": "electric_scooter", "name": "0490da4ff49356a7725dd039041df200"}, {"is_disabled": 0, "is_reserved": 0, "fusion_lat": 0.0, "lat": 38.910329, "fusion_lon": 0.0, "rental_uris": {"ios": "https://dc.lft.to/lastmile_qr_scan", "android": "https://dc.lft.to/lastmile_qr_scan"}, "lon": -77.00961216666667, "bike_id": "c8cb2bd1ddbcedb42ba557f90ab54141", "type": "electric_scooter", "name": "c8cb2bd1ddbcedb42ba557f90ab54141"}, {"is_disabled": 0, "is_reserved": 0, "fusion_lat": 0.0, "lat": 38.9285795, "fusion_lon": 0.0, "rental_uris": {"ios": "https://dc.lft.to/lastmile_qr_scan", "android": "https://dc.lft.to/lastmile_qr_scan"}, "lon": -77.0141675, "bike_id": "4d9195db9646348b3f33d226c8d64ede", "type": "electric_scooter", "name": "4d9195db9646348b3f33d226c8d64ede"}, {"is_disabled": 0, "is_reserved": 0, "fusion_lat": 0.0, "lat": 38.9050955, "fusion_lon": 0.0, "rental_uris": {"ios": "https://dc.lft.to/lastmile_qr_scan", "android": "https://dc.lft.to/lastmile_qr_scan"}, "lon": -77.06020133333334, "bike_id": "83cdb24f448fb5c8cc2d2a630cb605fa", "type": "electric_scooter", "name": "83cdb24f448fb5c8cc2d2a630cb605fa"}, {"is_disabled": 0, "is_reserved": 0, "fusion_lat": 0.0, "lat": 38.9143065, "fusion_lon": 0.0, "rental_uris": {"ios": "https://dc.lft.to/lastmile_qr_scan", "android": "https://dc.lft.to/lastmile_qr_scan"}, "lon": -77.03185583333334, "bike_id": "e91be143eb92a7264895779f36adbfd8", "type": "electric_scooter", "name": "e91be143eb92a7264895779f36adbfd8"}, {"is_disabled": 0, "is_reserved": 0, "fusion_lat": 0.0, "lat": 38.9155195, "fusion_lon": 0.0, "rental_uris": {"ios": "https://dc.lft.to/lastmile_qr_scan", "android": "https://dc.lft.to/lastmile_qr_scan"}, "lon": -77.03172916666666, "bike_id": "65296d6133a7ee9416b8629a06377b11", "type": "electric_scooter", "name": "65296d6133a7ee9416b8629a06377b11"}, {"is_disabled": 0, "is_reserved": 0, "fusion_lat": 0.0, "lat": 38.899173, "fusion_lon": 0.0, "rental_uris": {"ios": "https://dc.lft.to/lastmile_qr_scan", "android": "https://dc.lft.to/lastmile_qr_scan"}, "lon": -77.032205, "bike_id": "4669c93fd1d821f7c7002ab35c91c59c", "type": "electric_scooter", "name": "4669c93fd1d821f7c7002ab35c91c59c"}, {"is_disabled": 0, "is_reserved": 0, "fusion_lat": 0.0, "lat": 38.861856, "fusion_lon": 0.0, "rental_uris": {"ios": "https://dc.lft.to/lastmile_qr_scan", "android": "https://dc.lft.to/lastmile_qr_scan"}, "lon": -77.08828933333334, "bike_id": "dc9fb62803bfcf4137fdfd5ecf683bdc", "type": "electric_bike", "name": "dc9fb62803bfcf4137fdfd5ecf683bdc"}, {"is_disabled": 0, "is_reserved": 0, "fusion_lat": 0.0, "lat": 38.912220166666664, "fusion_lon": 0.0, "rental_uris": {"ios": "https://dc.lft.to/lastmile_qr_scan", "android": "https://dc.lft.to/lastmile_qr_scan"}, "lon": -77.006593, "bike_id": "727538b579fa1d5e1163efee4d5677f8", "type": "electric_scooter", "name": "727538b579fa1d5e1163efee4d5677f8"}, {"is_disabled": 0, "is_reserved": 0, "fusion_lat": 0.0, "lat": 38.90531816666667, "fusion_lon": 0.0, "rental_uris": {"ios": "https://dc.lft.to/lastmile_qr_scan", "android": "https://dc.lft.to/lastmile_qr_scan"}, "lon": -77.0419205, "bike_id": "381fea726cd2961c90432dea57bcdc33", "type": "electric_scooter", "name": "381fea726cd2961c90432dea57bcdc33"}, {"is_disabled": 0, "is_reserved": 0, "fusion_lat": 0.0, "lat": 38.900584333333335, "fusion_lon": 0.0, "rental_uris": {"ios": "https://dc.lft.to/lastmile_qr_scan", "android": "https://dc.lft.to/lastmile_qr_scan"}, "lon": -76.987043, "bike_id": "1829df71d9048824c8bc78168d439221", "type": "electric_scooter", "name": "1829df71d9048824c8bc78168d439221"}, {"is_disabled": 0, "is_reserved": 0, "fusion_lat": 0.0, "lat": 38.89391766666667, "fusion_lon": 0.0, "rental_uris": {"ios": "https://dc.lft.to/lastmile_qr_scan", "android": "https://dc.lft.to/lastmile_qr_scan"}, "lon": -77.04650233333334, "bike_id": "a300d1ad752e8afc4fd17552b25a2f17", "type": "electric_scooter", "name": "a300d1ad752e8afc4fd17552b25a2f17"}, {"is_disabled": 0, "is_reserved": 0, "fusion_lat": 0.0, "lat": 38.92101016666667, "fusion_lon": 0.0, "rental_uris": {"ios": "https://dc.lft.to/lastmile_qr_scan", "android": "https://dc.lft.to/lastmile_qr_scan"}, "lon": -77.04166083333334, "bike_id": "800b1f6abd724d1ac34377f60e8cf831", "type": "electric_scooter", "name": "800b1f6abd724d1ac34377f60e8cf831"}, {"is_disabled": 0, "is_reserved": 0, "fusion_lat": 0.0, "lat": 38.931897, "fusion_lon": 0.0, "rental_uris": {"ios": "https://dc.lft.to/lastmile_qr_scan", "android": "https://dc.lft.to/lastmile_qr_scan"}, "lon": -77.03450016666666, "bike_id": "2a1521405935aa8597ae8504b9eb037a", "type": "electric_scooter", "name": "2a1521405935aa8597ae8504b9eb037a"}, {"is_disabled": 0, "is_reserved": 0, "fusion_lat": 0.0, "lat": 38.87631533333333, "fusion_lon": 0.0, "rental_uris": {"ios": "https://dc.lft.to/lastmile_qr_scan", "android": "https://dc.lft.to/lastmile_qr_scan"}, "lon": -77.00956983333333, "bike_id": "b321ae9a917ff6e672899a7b7dd3eda9", "type": "electric_scooter", "name": "b321ae9a917ff6e672899a7b7dd3eda9"}, {"is_disabled": 0, "is_reserved": 0, "fusion_lat": 0.0, "lat": 38.91053566666667, "fusion_lon": 0.0, "rental_uris": {"ios": "https://dc.lft.to/lastmile_qr_scan", "android": "https://dc.lft.to/lastmile_qr_scan"}, "lon": -77.02302666666667, "bike_id": "a5a4de698fc627cfd6635df04c49ae87", "type": "electric_scooter", "name": "a5a4de698fc627cfd6635df04c49ae87"}, {"is_disabled": 0, "is_reserved": 0, "fusion_lat": 0.0, "lat": 38.92974266666667, "fusion_lon": 0.0, "rental_uris": {"ios": "https://dc.lft.to/lastmile_qr_scan", "android": "https://dc.lft.to/lastmile_qr_scan"}, "lon": -77.02822316666666, "bike_id": "276003a177aad63a10bc906c11d788af", "type": "electric_scooter", "name": "276003a177aad63a10bc906c11d788af"}, {"is_disabled": 0, "is_reserved": 0, "fusion_lat": 0.0, "lat": 38.8962305, "fusion_lon": 0.0, "rental_uris": {"ios": "https://dc.lft.to/lastmile_qr_scan", "android": "https://dc.lft.to/lastmile_qr_scan"}, "lon": -77.03169016666666, "bike_id": "0f93293e0567a5b05a12b41a49de3c65", "type": "electric_scooter", "name": "0f93293e0567a5b05a12b41a49de3c65"}, {"is_disabled": 0, "is_reserved": 0, "fusion_lat": 0.0, "lat": 38.906406, "fusion_lon": 0.0, "rental_uris": {"ios": "https://dc.lft.to/lastmile_qr_scan", "android": "https://dc.lft.to/lastmile_qr_scan"}, "lon": -77.06899566666667, "bike_id": "01500144446af861e464079433b79c74", "type": "electric_scooter", "name": "01500144446af861e464079433b79c74"}, {"is_disabled": 0, "is_reserved": 0, "fusion_lat": 0.0, "lat": 38.952403833333335, "fusion_lon": 0.0, "rental_uris": {"ios": "https://dc.lft.to/lastmile_qr_scan", "android": "https://dc.lft.to/lastmile_qr_scan"}, "lon": -76.97952533333333, "bike_id": "a81bc06edf69e9ea3ee0245a95d09f4f", "type": "electric_bike", "name": "a81bc06edf69e9ea3ee0245a95d09f4f"}, {"is_disabled": 0, "is_reserved": 0, "fusion_lat": 0.0, "lat": 38.95778716666667, "fusion_lon": 0.0, "rental_uris": {"ios": "https://dc.lft.to/lastmile_qr_scan", "android": "https://dc.lft.to/lastmile_qr_scan"}, "lon": -77.02413316666667, "bike_id": "7e885c13699942ec72147fc29d0f98a8", "type": "electric_scooter", "name": "7e885c13699942ec72147fc29d0f98a8"}, {"is_disabled": 0, "is_reserved": 0, "fusion_lat": 0.0, "lat": 38.90531983333333, "fusion_lon": 0.0, "rental_uris": {"ios": "https://dc.lft.to/lastmile_qr_scan", "android": "https://dc.lft.to/lastmile_qr_scan"}, "lon": -77.06534033333334, "bike_id": "9096903530bef5d03316706a66dc3013", "type": "electric_scooter", "name": "9096903530bef5d03316706a66dc3013"}, {"is_disabled": 0, "is_reserved": 0, "fusion_lat": 0.0, "lat": 38.878893166666664, "fusion_lon": 0.0, "rental_uris": {"ios": "https://dc.lft.to/lastmile_qr_scan", "android": "https://dc.lft.to/lastmile_qr_scan"}, "lon": -77.02279333333334, "bike_id": "3c37ce6f72ab7b0f48aab2a2aa3d3098", "type": "electric_scooter", "name": "3c37ce6f72ab7b0f48aab2a2aa3d3098"}, {"is_disabled": 0, "is_reserved": 0, "fusion_lat": 0.0, "lat": 38.916726833333335, "fusion_lon": 0.0, "rental_uris": {"ios": "https://dc.lft.to/lastmile_qr_scan", "android": "https://dc.lft.to/lastmile_qr_scan"}, "lon": -77.04591933333333, "bike_id": "7a3d2b23effe8100cca7a71446ffe25d", "type": "electric_scooter", "name": "7a3d2b23effe8100cca7a71446ffe25d"}, {"is_disabled": 0, "is_reserved": 0, "fusion_lat": 0.0, "lat": 38.91272766666667, "fusion_lon": 0.0, "rental_uris": {"ios": "https://dc.lft.to/lastmile_qr_scan", "android": "https://dc.lft.to/lastmile_qr_scan"}, "lon": -77.03145683333334, "bike_id": "a8bd4d4a26efb9dad3a649008257a762", "type": "electric_scooter", "name": "a8bd4d4a26efb9dad3a649008257a762"}, {"is_disabled": 0, "is_reserved": 0, "fusion_lat": 0.0, "lat": 38.91529216666667, "fusion_lon": 0.0, "rental_uris": {"ios": "https://dc.lft.to/lastmile_qr_scan", "android": "https://dc.lft.to/lastmile_qr_scan"}, "lon": -77.01854566666667, "bike_id": "14392ad6632cdeb6dd10fa4521353044", "type": "electric_scooter", "name": "14392ad6632cdeb6dd10fa4521353044"}, {"is_disabled": 0, "is_reserved": 0, "fusion_lat": 0.0, "lat": 38.89250583333333, "fusion_lon": 0.0, "rental_uris": {"ios": "https://dc.lft.to/lastmile_qr_scan", "android": "https://dc.lft.to/lastmile_qr_scan"}, "lon": -77.04664916666667, "bike_id": "457df73edb2dd81b72917b24ff26be17", "type": "electric_scooter", "name": "457df73edb2dd81b72917b24ff26be17"}, {"is_disabled": 0, "is_reserved": 0, "fusion_lat": 0.0, "lat": 38.9336145, "fusion_lon": 0.0, "rental_uris": {"ios": "https://dc.lft.to/lastmile_qr_scan", "android": "https://dc.lft.to/lastmile_qr_scan"}, "lon": -77.02406033333334, "bike_id": "659da5b6cb219a775db0f305aa95cca9", "type": "electric_scooter", "name": "659da5b6cb219a775db0f305aa95cca9"}, {"is_disabled": 0, "is_reserved": 0, "fusion_lat": 0.0, "lat": 38.91268816666667, "fusion_lon": 0.0, "rental_uris": {"ios": "https://dc.lft.to/lastmile_qr_scan", "android": "https://dc.lft.to/lastmile_qr_scan"}, "lon": -77.04469916666666, "bike_id": "111c8498023a6aed8596833e4d30c6bd", "type": "electric_scooter", "name": "111c8498023a6aed8596833e4d30c6bd"}, {"is_disabled": 0, "is_reserved": 0, "fusion_lat": 0.0, "lat": 38.929875, "fusion_lon": 0.0, "rental_uris": {"ios": "https://dc.lft.to/lastmile_qr_scan", "android": "https://dc.lft.to/lastmile_qr_scan"}, "lon": -77.03474166666666, "bike_id": "292e579b589010a8ec59aa226ec04f62", "type": "electric_scooter", "name": "292e579b589010a8ec59aa226ec04f62"}, {"is_disabled": 0, "is_reserved": 0, "fusion_lat": 0.0, "lat": 38.913079833333335, "fusion_lon": 0.0, "rental_uris": {"ios": "https://dc.lft.to/lastmile_qr_scan", "android": "https://dc.lft.to/lastmile_qr_scan"}, "lon": -77.0144995, "bike_id": "c5059b1242f7bd0b1b0d8be9dad34d73", "type": "electric_scooter", "name": "c5059b1242f7bd0b1b0d8be9dad34d73"}, {"is_disabled": 0, "is_reserved": 0, "fusion_lat": 0.0, "lat": 38.91793333333333, "fusion_lon": 0.0, "rental_uris": {"ios": "https://dc.lft.to/lastmile_qr_scan", "android": "https://dc.lft.to/lastmile_qr_scan"}, "lon": -77.02706266666667, "bike_id": "b761fd67aae48cdf073287442f046bd5", "type": "electric_scooter", "name": "b761fd67aae48cdf073287442f046bd5"}, {"is_disabled": 0, "is_reserved": 0, "fusion_lat": 0.0, "lat": 38.91383883333334, "fusion_lon": 0.0, "rental_uris": {"ios": "https://dc.lft.to/lastmile_qr_scan", "android": "https://dc.lft.to/lastmile_qr_scan"}, "lon": -77.04602283333334, "bike_id": "3b6cd5bb6e90503f77790354ce899411", "type": "electric_scooter", "name": "3b6cd5bb6e90503f77790354ce899411"}, {"is_disabled": 0, "is_reserved": 0, "fusion_lat": 0.0, "lat": 38.91758566666667, "fusion_lon": 0.0, "rental_uris": {"ios": "https://dc.lft.to/lastmile_qr_scan", "android": "https://dc.lft.to/lastmile_qr_scan"}, "lon": -77.024057, "bike_id": "cef92ac164b0f01bd9a8b2e3915f4faa", "type": "electric_scooter", "name": "cef92ac164b0f01bd9a8b2e3915f4faa"}, {"is_disabled": 0, "is_reserved": 0, "fusion_lat": 0.0, "lat": 38.8977145, "fusion_lon": 0.0, "rental_uris": {"ios": "https://dc.lft.to/lastmile_qr_scan", "android": "https://dc.lft.to/lastmile_qr_scan"}, "lon": -76.97670066666667, "bike_id": "8615e7eeefee164e6db8639ee24ff342", "type": "electric_scooter", "name": "8615e7eeefee164e6db8639ee24ff342"}, {"is_disabled": 0, "is_reserved": 0, "fusion_lat": 0.0, "lat": 38.90769016666667, "fusion_lon": 0.0, "rental_uris": {"ios": "https://dc.lft.to/lastmile_qr_scan", "android": "https://dc.lft.to/lastmile_qr_scan"}, "lon": -76.9992475, "bike_id": "61336fe360ee2df77af228f9c41d3d34", "type": "electric_scooter", "name": "61336fe360ee2df77af228f9c41d3d34"}, {"is_disabled": 0, "is_reserved": 0, "fusion_lat": 0.0, "lat": 38.86960083333334, "fusion_lon": 0.0, "rental_uris": {"ios": "https://dc.lft.to/lastmile_qr_scan", "android": "https://dc.lft.to/lastmile_qr_scan"}, "lon": -77.0127285, "bike_id": "a3dc599eb08d8465c5dff2a11bebfbf5", "type": "electric_bike", "name": "a3dc599eb08d8465c5dff2a11bebfbf5"}, {"is_disabled": 0, "is_reserved": 0, "fusion_lat": 0.0, "lat": 38.91874266666667, "fusion_lon": 0.0, "rental_uris": {"ios": "https://dc.lft.to/lastmile_qr_scan", "android": "https://dc.lft.to/lastmile_qr_scan"}, "lon": -77.03210116666666, "bike_id": "ea432a0a748b625ffacad05fa552d03e", "type": "electric_scooter", "name": "ea432a0a748b625ffacad05fa552d03e"}, {"is_disabled": 0, "is_reserved": 0, "fusion_lat": 0.0, "lat": 38.918524, "fusion_lon": 0.0, "rental_uris": {"ios": "https://dc.lft.to/lastmile_qr_scan", "android": "https://dc.lft.to/lastmile_qr_scan"}, "lon": -77.02453616666666, "bike_id": "78b8adc5fabaf7576e253c36ece728b6", "type": "electric_scooter", "name": "78b8adc5fabaf7576e253c36ece728b6"}, {"is_disabled": 0, "is_reserved": 0, "fusion_lat": 0.0, "lat": 38.92048483333333, "fusion_lon": 0.0, "rental_uris": {"ios": "https://dc.lft.to/lastmile_qr_scan", "android": "https://dc.lft.to/lastmile_qr_scan"}, "lon": -77.03332066666667, "bike_id": "8f42cb6c74ccd5e1b8cf999be4936196", "type": "electric_scooter", "name": "8f42cb6c74ccd5e1b8cf999be4936196"}, {"is_disabled": 0, "is_reserved": 0, "fusion_lat": 0.0, "lat": 38.891710833333335, "fusion_lon": 0.0, "rental_uris": {"ios": "https://dc.lft.to/lastmile_qr_scan", "android": "https://dc.lft.to/lastmile_qr_scan"}, "lon": -77.0156345, "bike_id": "648747a82da81fcfe76b732e51bdf4ac", "type": "electric_scooter", "name": "648747a82da81fcfe76b732e51bdf4ac"}, {"is_disabled": 0, "is_reserved": 0, "fusion_lat": 0.0, "lat": 38.89551, "fusion_lon": 0.0, "rental_uris": {"ios": "https://dc.lft.to/lastmile_qr_scan", "android": "https://dc.lft.to/lastmile_qr_scan"}, "lon": -77.01618066666667, "bike_id": "d4811a872267c18f2e7a6396a21faf2b", "type": "electric_scooter", "name": "d4811a872267c18f2e7a6396a21faf2b"}, {"is_disabled": 0, "is_reserved": 0, "fusion_lat": 0.0, "lat": 38.92087683333333, "fusion_lon": 0.0, "rental_uris": {"ios": "https://dc.lft.to/lastmile_qr_scan", "android": "https://dc.lft.to/lastmile_qr_scan"}, "lon": -77.02325616666667, "bike_id": "f7d8a210c8d6199e5c6d2e4435f92b43", "type": "electric_scooter", "name": "f7d8a210c8d6199e5c6d2e4435f92b43"}, {"is_disabled": 0, "is_reserved": 0, "fusion_lat": 0.0, "lat": 38.891721, "fusion_lon": 0.0, "rental_uris": {"ios": "https://dc.lft.to/lastmile_qr_scan", "android": "https://dc.lft.to/lastmile_qr_scan"}, "lon": -77.0155415, "bike_id": "2c3743e4d06f9d6ce5aafcc9557c2a0b", "type": "electric_scooter", "name": "2c3743e4d06f9d6ce5aafcc9557c2a0b"}, {"is_disabled": 0, "is_reserved": 0, "fusion_lat": 0.0, "lat": 38.918842833333336, "fusion_lon": 0.0, "rental_uris": {"ios": "https://dc.lft.to/lastmile_qr_scan", "android": "https://dc.lft.to/lastmile_qr_scan"}, "lon": -77.03201666666666, "bike_id": "e434353c8ee4aabb5786325e1d6163a8", "type": "electric_scooter", "name": "e434353c8ee4aabb5786325e1d6163a8"}, {"is_disabled": 0, "is_reserved": 0, "fusion_lat": 0.0, "lat": 38.8968595, "fusion_lon": 0.0, "rental_uris": {"ios": "https://dc.lft.to/lastmile_qr_scan", "android": "https://dc.lft.to/lastmile_qr_scan"}, "lon": -77.00548816666667, "bike_id": "2b60b9ba66e7d239c352c48827499f55", "type": "electric_scooter", "name": "2b60b9ba66e7d239c352c48827499f55"}, {"is_disabled": 0, "is_reserved": 0, "fusion_lat": 0.0, "lat": 38.9985035, "fusion_lon": 0.0, "rental_uris": {"ios": "https://dc.lft.to/lastmile_qr_scan", "android": "https://dc.lft.to/lastmile_qr_scan"}, "lon": -77.00248766666667, "bike_id": "a409c3bb789244bc2a9cbf4903c74377", "type": "electric_bike", "name": "a409c3bb789244bc2a9cbf4903c74377"}, {"is_disabled": 0, "is_reserved": 0, "fusion_lat": 0.0, "lat": 39.0423265, "fusion_lon": 0.0, "rental_uris": {"ios": "https://dc.lft.to/lastmile_qr_scan", "android": "https://dc.lft.to/lastmile_qr_scan"}, "lon": -76.99734183333334, "bike_id": "89c12fa70a34a846697aee87e19034f7", "type": "electric_bike", "name": "89c12fa70a34a846697aee87e19034f7"}, {"is_disabled": 0, "is_reserved": 0, "fusion_lat": 0.0, "lat": 38.88379316666666, "fusion_lon": 0.0, "rental_uris": {"ios": "https://dc.lft.to/lastmile_qr_scan", "android": "https://dc.lft.to/lastmile_qr_scan"}, "lon": -76.99522333333333, "bike_id": "8e5b1e808ace61825a732e779e2e9162", "type": "electric_scooter", "name": "8e5b1e808ace61825a732e779e2e9162"}, {"is_disabled": 0, "is_reserved": 0, "fusion_lat": 0.0, "lat": 38.950719166666666, "fusion_lon": 0.0, "rental_uris": {"ios": "https://dc.lft.to/lastmile_qr_scan", "android": "https://dc.lft.to/lastmile_qr_scan"}, "lon": -76.99601633333333, "bike_id": "0c83bc756df6af39bee4667b1561b73f", "type": "electric_bike", "name": "0c83bc756df6af39bee4667b1561b73f"}, {"is_disabled": 0, "is_reserved": 0, "fusion_lat": 0.0, "lat": 38.911855833333334, "fusion_lon": 0.0, "rental_uris": {"ios": "https://dc.lft.to/lastmile_qr_scan", "android": "https://dc.lft.to/lastmile_qr_scan"}, "lon": -77.00441033333334, "bike_id": "94d713ba30ec7cab7a04f0d3e85973e0", "type": "electric_scooter", "name": "94d713ba30ec7cab7a04f0d3e85973e0"}, {"is_disabled": 0, "is_reserved": 0, "fusion_lat": 0.0, "lat": 38.919638, "fusion_lon": 0.0, "rental_uris": {"ios": "https://dc.lft.to/lastmile_qr_scan", "android": "https://dc.lft.to/lastmile_qr_scan"}, "lon": -77.02490466666667, "bike_id": "2a33b2379e68021c2ac2abb176813418", "type": "electric_scooter", "name": "2a33b2379e68021c2ac2abb176813418"}, {"is_disabled": 0, "is_reserved": 0, "fusion_lat": 0.0, "lat": 38.91275016666667, "fusion_lon": 0.0, "rental_uris": {"ios": "https://dc.lft.to/lastmile_qr_scan", "android": "https://dc.lft.to/lastmile_qr_scan"}, "lon": -77.046641, "bike_id": "8124f5b59de0839022a17238242b9173", "type": "electric_scooter", "name": "8124f5b59de0839022a17238242b9173"}, {"is_disabled": 0, "is_reserved": 0, "fusion_lat": 0.0, "lat": 38.86236816666667, "fusion_lon": 0.0, "rental_uris": {"ios": "https://dc.lft.to/lastmile_qr_scan", "android": "https://dc.lft.to/lastmile_qr_scan"}, "lon": -76.99515916666667, "bike_id": "c637ba79cec747e5dab73eba32b3fc3d", "type": "electric_scooter", "name": "c637ba79cec747e5dab73eba32b3fc3d"}, {"is_disabled": 0, "is_reserved": 0, "fusion_lat": 0.0, "lat": 38.9051325, "fusion_lon": 0.0, "rental_uris": {"ios": "https://dc.lft.to/lastmile_qr_scan", "android": "https://dc.lft.to/lastmile_qr_scan"}, "lon": -77.06736783333334, "bike_id": "95520b4b0c894aa6640f73798c36c27a", "type": "electric_scooter", "name": "95520b4b0c894aa6640f73798c36c27a"}, {"is_disabled": 0, "is_reserved": 0, "fusion_lat": 0.0, "lat": 38.918099833333336, "fusion_lon": 0.0, "rental_uris": {"ios": "https://dc.lft.to/lastmile_qr_scan", "android": "https://dc.lft.to/lastmile_qr_scan"}, "lon": -77.04006266666667, "bike_id": "763bde1aa352830ef843ed38a15a2598", "type": "electric_scooter", "name": "763bde1aa352830ef843ed38a15a2598"}, {"is_disabled": 0, "is_reserved": 0, "fusion_lat": 0.0, "lat": 38.9206445, "fusion_lon": 0.0, "rental_uris": {"ios": "https://dc.lft.to/lastmile_qr_scan", "android": "https://dc.lft.to/lastmile_qr_scan"}, "lon": -77.04364333333334, "bike_id": "d01973714bfc9f672621b366d5ba133f", "type": "electric_scooter", "name": "d01973714bfc9f672621b366d5ba133f"}, {"is_disabled": 0, "is_reserved": 0, "fusion_lat": 0.0, "lat": 38.89823916666667, "fusion_lon": 0.0, "rental_uris": {"ios": "https://dc.lft.to/lastmile_qr_scan", "android": "https://dc.lft.to/lastmile_qr_scan"}, "lon": -77.02961983333333, "bike_id": "b8b3e7b032984125309dfd386cccd717", "type": "electric_scooter", "name": "b8b3e7b032984125309dfd386cccd717"}, {"is_disabled": 0, "is_reserved": 0, "fusion_lat": 0.0, "lat": 39.00269616666667, "fusion_lon": 0.0, "rental_uris": {"ios": "https://dc.lft.to/lastmile_qr_scan", "android": "https://dc.lft.to/lastmile_qr_scan"}, "lon": -76.92461516666667, "bike_id": "5615444fce6571550f654bdf2615d381", "type": "electric_bike", "name": "5615444fce6571550f654bdf2615d381"}, {"is_disabled": 0, "is_reserved": 0, "fusion_lat": 0.0, "lat": 38.9279365, "fusion_lon": 0.0, "rental_uris": {"ios": "https://dc.lft.to/lastmile_qr_scan", "android": "https://dc.lft.to/lastmile_qr_scan"}, "lon": -77.05593016666667, "bike_id": "361e4ad189cf18457779fe336c644fa2", "type": "electric_scooter", "name": "361e4ad189cf18457779fe336c644fa2"}, {"is_disabled": 0, "is_reserved": 0, "fusion_lat": 0.0, "lat": 38.916858500000004, "fusion_lon": 0.0, "rental_uris": {"ios": "https://dc.lft.to/lastmile_qr_scan", "android": "https://dc.lft.to/lastmile_qr_scan"}, "lon": -77.02960416666667, "bike_id": "28cb7d99fb74f45d04e45218fba2e3fa", "type": "electric_scooter", "name": "28cb7d99fb74f45d04e45218fba2e3fa"}, {"is_disabled": 0, "is_reserved": 0, "fusion_lat": 0.0, "lat": 38.877987833333336, "fusion_lon": 0.0, "rental_uris": {"ios": "https://dc.lft.to/lastmile_qr_scan", "android": "https://dc.lft.to/lastmile_qr_scan"}, "lon": -77.00119816666667, "bike_id": "98e1b5c71c113d1f781b924a49a61963", "type": "electric_scooter", "name": "98e1b5c71c113d1f781b924a49a61963"}, {"is_disabled": 0, "is_reserved": 0, "fusion_lat": 0.0, "lat": 38.934645, "fusion_lon": 0.0, "rental_uris": {"ios": "https://dc.lft.to/lastmile_qr_scan", "android": "https://dc.lft.to/lastmile_qr_scan"}, "lon": -77.02777933333333, "bike_id": "a303fcbde97839c285a0e1cb66751cac", "type": "electric_scooter", "name": "a303fcbde97839c285a0e1cb66751cac"}, {"is_disabled": 0, "is_reserved": 0, "fusion_lat": 0.0, "lat": 38.91932283333333, "fusion_lon": 0.0, "rental_uris": {"ios": "https://dc.lft.to/lastmile_qr_scan", "android": "https://dc.lft.to/lastmile_qr_scan"}, "lon": -77.04148983333333, "bike_id": "6e9f4eea779ad029f9b15d8ea2ab431a", "type": "electric_scooter", "name": "6e9f4eea779ad029f9b15d8ea2ab431a"}, {"is_disabled": 0, "is_reserved": 0, "fusion_lat": 0.0, "lat": 38.95703816666666, "fusion_lon": 0.0, "rental_uris": {"ios": "https://dc.lft.to/lastmile_qr_scan", "android": "https://dc.lft.to/lastmile_qr_scan"}, "lon": -77.35973766666666, "bike_id": "b557fce8aef2fb92dfb17f58d43090bb", "type": "electric_bike", "name": "b557fce8aef2fb92dfb17f58d43090bb"}, {"is_disabled": 0, "is_reserved": 0, "fusion_lat": 0.0, "lat": 38.921751666666665, "fusion_lon": 0.0, "rental_uris": {"ios": "https://dc.lft.to/lastmile_qr_scan", "android": "https://dc.lft.to/lastmile_qr_scan"}, "lon": -77.02103383333333, "bike_id": "db566d46485b5ca9c09c522e37cf822e", "type": "electric_scooter", "name": "db566d46485b5ca9c09c522e37cf822e"}, {"is_disabled": 0, "is_reserved": 0, "fusion_lat": 0.0, "lat": 39.08430516666667, "fusion_lon": 0.0, "rental_uris": {"ios": "https://dc.lft.to/lastmile_qr_scan", "android": "https://dc.lft.to/lastmile_qr_scan"}, "lon": -76.95143566666667, "bike_id": "99fa0ddc3f6e8d4bca47b6b0c2337623", "type": "electric_bike", "name": "99fa0ddc3f6e8d4bca47b6b0c2337623"}, {"is_disabled": 0, "is_reserved": 0, "fusion_lat": 0.0, "lat": 38.9081125, "fusion_lon": 0.0, "rental_uris": {"ios": "https://dc.lft.to/lastmile_qr_scan", "android": "https://dc.lft.to/lastmile_qr_scan"}, "lon": -77.00077166666667, "bike_id": "42bbe238e765b1edc205968eaa031ba3", "type": "electric_scooter", "name": "42bbe238e765b1edc205968eaa031ba3"}, {"is_disabled": 0, "is_reserved": 0, "fusion_lat": 0.0, "lat": 38.859044, "fusion_lon": 0.0, "rental_uris": {"ios": "https://dc.lft.to/lastmile_qr_scan", "android": "https://dc.lft.to/lastmile_qr_scan"}, "lon": -77.09557116666667, "bike_id": "040194d427ab765c6a56581bbed079b6", "type": "electric_bike", "name": "040194d427ab765c6a56581bbed079b6"}, {"is_disabled": 0, "is_reserved": 0, "fusion_lat": 0.0, "lat": 38.883851666666665, "fusion_lon": 0.0, "rental_uris": {"ios": "https://dc.lft.to/lastmile_qr_scan", "android": "https://dc.lft.to/lastmile_qr_scan"}, "lon": -76.93049983333333, "bike_id": "b110aac19db8095e11957122600cb6e8", "type": "electric_scooter", "name": "b110aac19db8095e11957122600cb6e8"}, {"is_disabled": 0, "is_reserved": 0, "fusion_lat": 0.0, "lat": 38.928821166666665, "fusion_lon": 0.0, "rental_uris": {"ios": "https://dc.lft.to/lastmile_qr_scan", "android": "https://dc.lft.to/lastmile_qr_scan"}, "lon": -77.038248, "bike_id": "8ef273fa4cc066bb6bca59512168e3b9", "type": "electric_scooter", "name": "8ef273fa4cc066bb6bca59512168e3b9"}, {"is_disabled": 0, "is_reserved": 0, "fusion_lat": 0.0, "lat": 38.91024866666667, "fusion_lon": 0.0, "rental_uris": {"ios": "https://dc.lft.to/lastmile_qr_scan", "android": "https://dc.lft.to/lastmile_qr_scan"}, "lon": -77.0319925, "bike_id": "7c6ba0a82088ca7a18a7033af2ff71e0", "type": "electric_scooter", "name": "7c6ba0a82088ca7a18a7033af2ff71e0"}, {"is_disabled": 0, "is_reserved": 0, "fusion_lat": 0.0, "lat": 38.88376, "fusion_lon": 0.0, "rental_uris": {"ios": "https://dc.lft.to/lastmile_qr_scan", "android": "https://dc.lft.to/lastmile_qr_scan"}, "lon": -76.923699, "bike_id": "3793aeaf264ecc5742fa3927ff1f1c6c", "type": "electric_bike", "name": "3793aeaf264ecc5742fa3927ff1f1c6c"}, {"is_disabled": 0, "is_reserved": 0, "fusion_lat": 0.0, "lat": 38.89259333333333, "fusion_lon": 0.0, "rental_uris": {"ios": "https://dc.lft.to/lastmile_qr_scan", "android": "https://dc.lft.to/lastmile_qr_scan"}, "lon": -77.0502605, "bike_id": "9edfb96fa1e0938a3b5d9692f188370a", "type": "electric_scooter", "name": "9edfb96fa1e0938a3b5d9692f188370a"}, {"is_disabled": 0, "is_reserved": 0, "fusion_lat": 0.0, "lat": 38.911090333333334, "fusion_lon": 0.0, "rental_uris": {"ios": "https://dc.lft.to/lastmile_qr_scan", "android": "https://dc.lft.to/lastmile_qr_scan"}, "lon": -77.02229, "bike_id": "373a84758f61a47a1200388fa6be0e7c", "type": "electric_scooter", "name": "373a84758f61a47a1200388fa6be0e7c"}, {"is_disabled": 0, "is_reserved": 0, "fusion_lat": 0.0, "lat": 38.89939366666667, "fusion_lon": 0.0, "rental_uris": {"ios": "https://dc.lft.to/lastmile_qr_scan", "android": "https://dc.lft.to/lastmile_qr_scan"}, "lon": -76.937561, "bike_id": "406fbb1484e9b783c9d02e3f982bf809", "type": "electric_scooter", "name": "406fbb1484e9b783c9d02e3f982bf809"}, {"is_disabled": 0, "is_reserved": 0, "fusion_lat": 0.0, "lat": 38.90184716666667, "fusion_lon": 0.0, "rental_uris": {"ios": "https://dc.lft.to/lastmile_qr_scan", "android": "https://dc.lft.to/lastmile_qr_scan"}, "lon": -76.97667116666666, "bike_id": "541f4cc219aab21748f4c5ef6e4d6491", "type": "electric_scooter", "name": "541f4cc219aab21748f4c5ef6e4d6491"}, {"is_disabled": 0, "is_reserved": 0, "fusion_lat": 0.0, "lat": 38.89840383333333, "fusion_lon": 0.0, "rental_uris": {"ios": "https://dc.lft.to/lastmile_qr_scan", "android": "https://dc.lft.to/lastmile_qr_scan"}, "lon": -76.9810935, "bike_id": "a1a694cb6562aee673f32edcb279813e", "type": "electric_scooter", "name": "a1a694cb6562aee673f32edcb279813e"}, {"is_disabled": 0, "is_reserved": 0, "fusion_lat": 0.0, "lat": 38.903262, "fusion_lon": 0.0, "rental_uris": {"ios": "https://dc.lft.to/lastmile_qr_scan", "android": "https://dc.lft.to/lastmile_qr_scan"}, "lon": -77.02153433333334, "bike_id": "bee03eb57b31de62bd0834692413a344", "type": "electric_scooter", "name": "bee03eb57b31de62bd0834692413a344"}, {"is_disabled": 0, "is_reserved": 0, "fusion_lat": 0.0, "lat": 38.91601166666667, "fusion_lon": 0.0, "rental_uris": {"ios": "https://dc.lft.to/lastmile_qr_scan", "android": "https://dc.lft.to/lastmile_qr_scan"}, "lon": -77.015857, "bike_id": "c84c2fe009264f5eefaf94ff8eee8326", "type": "electric_scooter", "name": "c84c2fe009264f5eefaf94ff8eee8326"}, {"is_disabled": 0, "is_reserved": 0, "fusion_lat": 0.0, "lat": 38.88007266666666, "fusion_lon": 0.0, "rental_uris": {"ios": "https://dc.lft.to/lastmile_qr_scan", "android": "https://dc.lft.to/lastmile_qr_scan"}, "lon": -76.99834116666666, "bike_id": "57be18a6cfcf76510ed6266c73a40ee7", "type": "electric_scooter", "name": "57be18a6cfcf76510ed6266c73a40ee7"}, {"is_disabled": 0, "is_reserved": 0, "fusion_lat": 0.0, "lat": 38.892508666666664, "fusion_lon": 0.0, "rental_uris": {"ios": "https://dc.lft.to/lastmile_qr_scan", "android": "https://dc.lft.to/lastmile_qr_scan"}, "lon": -77.0281475, "bike_id": "780026b7502625e7b9bdff980e7976e9", "type": "electric_scooter", "name": "780026b7502625e7b9bdff980e7976e9"}, {"is_disabled": 0, "is_reserved": 0, "fusion_lat": 0.0, "lat": 38.9081695, "fusion_lon": 0.0, "rental_uris": {"ios": "https://dc.lft.to/lastmile_qr_scan", "android": "https://dc.lft.to/lastmile_qr_scan"}, "lon": -77.033988, "bike_id": "0b3353a64f4e67c71ce3a221e0e85338", "type": "electric_scooter", "name": "0b3353a64f4e67c71ce3a221e0e85338"}, {"is_disabled": 0, "is_reserved": 0, "fusion_lat": 0.0, "lat": 38.896307166666666, "fusion_lon": 0.0, "rental_uris": {"ios": "https://dc.lft.to/lastmile_qr_scan", "android": "https://dc.lft.to/lastmile_qr_scan"}, "lon": -77.04333533333333, "bike_id": "80bae7dd55e9062915e1a95cda739558", "type": "electric_scooter", "name": "80bae7dd55e9062915e1a95cda739558"}, {"is_disabled": 0, "is_reserved": 0, "fusion_lat": 0.0, "lat": 38.95608, "fusion_lon": 0.0, "rental_uris": {"ios": "https://dc.lft.to/lastmile_qr_scan", "android": "https://dc.lft.to/lastmile_qr_scan"}, "lon": -77.0101625, "bike_id": "72b50976564eb165c38364bece2c6317", "type": "electric_bike", "name": "72b50976564eb165c38364bece2c6317"}, {"is_disabled": 0, "is_reserved": 0, "fusion_lat": 0.0, "lat": 38.91040116666667, "fusion_lon": 0.0, "rental_uris": {"ios": "https://dc.lft.to/lastmile_qr_scan", "android": "https://dc.lft.to/lastmile_qr_scan"}, "lon": -76.93837016666667, "bike_id": "b379f9f9fffdc9ae211a10f4e6452457", "type": "electric_scooter", "name": "b379f9f9fffdc9ae211a10f4e6452457"}, {"is_disabled": 0, "is_reserved": 0, "fusion_lat": 0.0, "lat": 38.89253, "fusion_lon": 0.0, "rental_uris": {"ios": "https://dc.lft.to/lastmile_qr_scan", "android": "https://dc.lft.to/lastmile_qr_scan"}, "lon": -77.04656566666667, "bike_id": "d827b55dd322d61e64049811453f3d7e", "type": "electric_scooter", "name": "d827b55dd322d61e64049811453f3d7e"}, {"is_disabled": 0, "is_reserved": 0, "fusion_lat": 0.0, "lat": 38.92415833333333, "fusion_lon": 0.0, "rental_uris": {"ios": "https://dc.lft.to/lastmile_qr_scan", "android": "https://dc.lft.to/lastmile_qr_scan"}, "lon": -77.02721533333333, "bike_id": "71c66e121ea3c661c3b5e069da0b0cbf", "type": "electric_scooter", "name": "71c66e121ea3c661c3b5e069da0b0cbf"}, {"is_disabled": 0, "is_reserved": 0, "fusion_lat": 0.0, "lat": 38.858366333333336, "fusion_lon": 0.0, "rental_uris": {"ios": "https://dc.lft.to/lastmile_qr_scan", "android": "https://dc.lft.to/lastmile_qr_scan"}, "lon": -76.9881945, "bike_id": "2fff261b350c91c4b1c2d113d3062008", "type": "electric_scooter", "name": "2fff261b350c91c4b1c2d113d3062008"}, {"is_disabled": 0, "is_reserved": 0, "fusion_lat": 0.0, "lat": 38.93864333333333, "fusion_lon": 0.0, "rental_uris": {"ios": "https://dc.lft.to/lastmile_qr_scan", "android": "https://dc.lft.to/lastmile_qr_scan"}, "lon": -77.02630233333333, "bike_id": "c90cafb2187b0fa0ebdcbdac3e7291f5", "type": "electric_bike", "name": "c90cafb2187b0fa0ebdcbdac3e7291f5"}, {"is_disabled": 0, "is_reserved": 0, "fusion_lat": 0.0, "lat": 38.9232005, "fusion_lon": 0.0, "rental_uris": {"ios": "https://dc.lft.to/lastmile_qr_scan", "android": "https://dc.lft.to/lastmile_qr_scan"}, "lon": -77.02806316666667, "bike_id": "84b579955df7a0b41fcc364c68025f8a", "type": "electric_scooter", "name": "84b579955df7a0b41fcc364c68025f8a"}, {"is_disabled": 0, "is_reserved": 0, "fusion_lat": 0.0, "lat": 38.919179666666665, "fusion_lon": 0.0, "rental_uris": {"ios": "https://dc.lft.to/lastmile_qr_scan", "android": "https://dc.lft.to/lastmile_qr_scan"}, "lon": -77.03340716666666, "bike_id": "143dfabe29a9017fe659dfe05bed5364", "type": "electric_scooter", "name": "143dfabe29a9017fe659dfe05bed5364"}, {"is_disabled": 0, "is_reserved": 0, "fusion_lat": 0.0, "lat": 38.911202333333335, "fusion_lon": 0.0, "rental_uris": {"ios": "https://dc.lft.to/lastmile_qr_scan", "android": "https://dc.lft.to/lastmile_qr_scan"}, "lon": -77.03833133333333, "bike_id": "1ae4f32155509f73bab674fab2acbf7d", "type": "electric_scooter", "name": "1ae4f32155509f73bab674fab2acbf7d"}, {"is_disabled": 0, "is_reserved": 0, "fusion_lat": 0.0, "lat": 38.897288833333334, "fusion_lon": 0.0, "rental_uris": {"ios": "https://dc.lft.to/lastmile_qr_scan", "android": "https://dc.lft.to/lastmile_qr_scan"}, "lon": -77.02722016666667, "bike_id": "6236cd32105db8a3126d086895a6631e", "type": "electric_scooter", "name": "6236cd32105db8a3126d086895a6631e"}, {"is_disabled": 0, "is_reserved": 0, "fusion_lat": 0.0, "lat": 38.887347, "fusion_lon": 0.0, "rental_uris": {"ios": "https://dc.lft.to/lastmile_qr_scan", "android": "https://dc.lft.to/lastmile_qr_scan"}, "lon": -77.0220775, "bike_id": "3c58c8093e8e7e9beb3da87dd2da6063", "type": "electric_scooter", "name": "3c58c8093e8e7e9beb3da87dd2da6063"}, {"is_disabled": 0, "is_reserved": 0, "fusion_lat": 0.0, "lat": 38.857923, "fusion_lon": 0.0, "rental_uris": {"ios": "https://dc.lft.to/lastmile_qr_scan", "android": "https://dc.lft.to/lastmile_qr_scan"}, "lon": -76.98758633333334, "bike_id": "a04acad5cd13f348a5035d2cfac9e3af", "type": "electric_bike", "name": "a04acad5cd13f348a5035d2cfac9e3af"}, {"is_disabled": 0, "is_reserved": 0, "fusion_lat": 0.0, "lat": 38.918104666666665, "fusion_lon": 0.0, "rental_uris": {"ios": "https://dc.lft.to/lastmile_qr_scan", "android": "https://dc.lft.to/lastmile_qr_scan"}, "lon": -77.04003566666667, "bike_id": "edcc2c5bae8ad87c3e63ed6689669902", "type": "electric_scooter", "name": "edcc2c5bae8ad87c3e63ed6689669902"}, {"is_disabled": 0, "is_reserved": 0, "fusion_lat": 0.0, "lat": 38.881712, "fusion_lon": 0.0, "rental_uris": {"ios": "https://dc.lft.to/lastmile_qr_scan", "android": "https://dc.lft.to/lastmile_qr_scan"}, "lon": -76.92504266666667, "bike_id": "67e542bb4e4861e52b0bda4f1a23b7ec", "type": "electric_scooter", "name": "67e542bb4e4861e52b0bda4f1a23b7ec"}, {"is_disabled": 0, "is_reserved": 0, "fusion_lat": 0.0, "lat": 38.9528125, "fusion_lon": 0.0, "rental_uris": {"ios": "https://dc.lft.to/lastmile_qr_scan", "android": "https://dc.lft.to/lastmile_qr_scan"}, "lon": -77.000448, "bike_id": "3bd0407f09fa323e66e9119d1228c822", "type": "electric_scooter", "name": "3bd0407f09fa323e66e9119d1228c822"}, {"is_disabled": 0, "is_reserved": 0, "fusion_lat": 0.0, "lat": 38.88275616666667, "fusion_lon": 0.0, "rental_uris": {"ios": "https://dc.lft.to/lastmile_qr_scan", "android": "https://dc.lft.to/lastmile_qr_scan"}, "lon": -76.93240083333333, "bike_id": "bb96b31a53822054cd55ed23a4103d1d", "type": "electric_bike", "name": "bb96b31a53822054cd55ed23a4103d1d"}, {"is_disabled": 0, "is_reserved": 0, "fusion_lat": 0.0, "lat": 38.922448333333335, "fusion_lon": 0.0, "rental_uris": {"ios": "https://dc.lft.to/lastmile_qr_scan", "android": "https://dc.lft.to/lastmile_qr_scan"}, "lon": -77.044856, "bike_id": "8bc562c9d134bab736f74a60ebdd85ca", "type": "electric_scooter", "name": "8bc562c9d134bab736f74a60ebdd85ca"}, {"is_disabled": 0, "is_reserved": 0, "fusion_lat": 0.0, "lat": 38.90685466666667, "fusion_lon": 0.0, "rental_uris": {"ios": "https://dc.lft.to/lastmile_qr_scan", "android": "https://dc.lft.to/lastmile_qr_scan"}, "lon": -77.053273, "bike_id": "25aa05df524ad4eec96ce4ea06f6f521", "type": "electric_scooter", "name": "25aa05df524ad4eec96ce4ea06f6f521"}, {"is_disabled": 0, "is_reserved": 0, "fusion_lat": 0.0, "lat": 38.87659383333333, "fusion_lon": 0.0, "rental_uris": {"ios": "https://dc.lft.to/lastmile_qr_scan", "android": "https://dc.lft.to/lastmile_qr_scan"}, "lon": -76.99639766666667, "bike_id": "c17daf05c0423c7e1c41505b1e1f37f2", "type": "electric_scooter", "name": "c17daf05c0423c7e1c41505b1e1f37f2"}, {"is_disabled": 0, "is_reserved": 0, "fusion_lat": 0.0, "lat": 38.84700566666667, "fusion_lon": 0.0, "rental_uris": {"ios": "https://dc.lft.to/lastmile_qr_scan", "android": "https://dc.lft.to/lastmile_qr_scan"}, "lon": -76.99618783333334, "bike_id": "bf8ceeac65822a0062353082732a70d4", "type": "electric_bike", "name": "bf8ceeac65822a0062353082732a70d4"}, {"is_disabled": 0, "is_reserved": 0, "fusion_lat": 0.0, "lat": 38.91268216666667, "fusion_lon": 0.0, "rental_uris": {"ios": "https://dc.lft.to/lastmile_qr_scan", "android": "https://dc.lft.to/lastmile_qr_scan"}, "lon": -77.01538566666666, "bike_id": "35910c201c18636daf64d589cd56f303", "type": "electric_scooter", "name": "35910c201c18636daf64d589cd56f303"}, {"is_disabled": 0, "is_reserved": 0, "fusion_lat": 0.0, "lat": 38.902800666666664, "fusion_lon": 0.0, "rental_uris": {"ios": "https://dc.lft.to/lastmile_qr_scan", "android": "https://dc.lft.to/lastmile_qr_scan"}, "lon": -77.05907283333333, "bike_id": "471773efaa6b19e1b207875b73ff70a9", "type": "electric_scooter", "name": "471773efaa6b19e1b207875b73ff70a9"}, {"is_disabled": 0, "is_reserved": 0, "fusion_lat": 0.0, "lat": 38.924722, "fusion_lon": 0.0, "rental_uris": {"ios": "https://dc.lft.to/lastmile_qr_scan", "android": "https://dc.lft.to/lastmile_qr_scan"}, "lon": -77.035289, "bike_id": "0384cc5b45ea14f7e9db15456db76748", "type": "electric_scooter", "name": "0384cc5b45ea14f7e9db15456db76748"}, {"is_disabled": 0, "is_reserved": 0, "fusion_lat": 0.0, "lat": 38.938685166666666, "fusion_lon": 0.0, "rental_uris": {"ios": "https://dc.lft.to/lastmile_qr_scan", "android": "https://dc.lft.to/lastmile_qr_scan"}, "lon": -77.03045133333333, "bike_id": "cd4de5af3ed89d9e3de029e5ca256a14", "type": "electric_scooter", "name": "cd4de5af3ed89d9e3de029e5ca256a14"}, {"is_disabled": 0, "is_reserved": 0, "fusion_lat": 0.0, "lat": 38.90859716666667, "fusion_lon": 0.0, "rental_uris": {"ios": "https://dc.lft.to/lastmile_qr_scan", "android": "https://dc.lft.to/lastmile_qr_scan"}, "lon": -77.00188166666666, "bike_id": "8c37070e586a3f4cf2ae3d0129c1f436", "type": "electric_scooter", "name": "8c37070e586a3f4cf2ae3d0129c1f436"}, {"is_disabled": 0, "is_reserved": 0, "fusion_lat": 0.0, "lat": 38.89835633333333, "fusion_lon": 0.0, "rental_uris": {"ios": "https://dc.lft.to/lastmile_qr_scan", "android": "https://dc.lft.to/lastmile_qr_scan"}, "lon": -76.94633666666667, "bike_id": "6d88e0bfc3b9bbbea96215070192f31e", "type": "electric_scooter", "name": "6d88e0bfc3b9bbbea96215070192f31e"}, {"is_disabled": 0, "is_reserved": 0, "fusion_lat": 0.0, "lat": 38.923199333333336, "fusion_lon": 0.0, "rental_uris": {"ios": "https://dc.lft.to/lastmile_qr_scan", "android": "https://dc.lft.to/lastmile_qr_scan"}, "lon": -77.041824, "bike_id": "36245eecca4a090de5927a31adb29e13", "type": "electric_scooter", "name": "36245eecca4a090de5927a31adb29e13"}, {"is_disabled": 0, "is_reserved": 0, "fusion_lat": 0.0, "lat": 38.89299783333333, "fusion_lon": 0.0, "rental_uris": {"ios": "https://dc.lft.to/lastmile_qr_scan", "android": "https://dc.lft.to/lastmile_qr_scan"}, "lon": -76.99962283333333, "bike_id": "55a7ed6698ccc9389a13c0956f66f380", "type": "electric_scooter", "name": "55a7ed6698ccc9389a13c0956f66f380"}, {"is_disabled": 0, "is_reserved": 0, "fusion_lat": 0.0, "lat": 38.88901466666667, "fusion_lon": 0.0, "rental_uris": {"ios": "https://dc.lft.to/lastmile_qr_scan", "android": "https://dc.lft.to/lastmile_qr_scan"}, "lon": -76.98374583333333, "bike_id": "9feedecb2b9621fa1f2b2f2804a711be", "type": "electric_scooter", "name": "9feedecb2b9621fa1f2b2f2804a711be"}, {"is_disabled": 0, "is_reserved": 0, "fusion_lat": 0.0, "lat": 38.932945333333336, "fusion_lon": 0.0, "rental_uris": {"ios": "https://dc.lft.to/lastmile_qr_scan", "android": "https://dc.lft.to/lastmile_qr_scan"}, "lon": -77.03546416666667, "bike_id": "80ead173f78de928ac41a8559165260f", "type": "electric_scooter", "name": "80ead173f78de928ac41a8559165260f"}, {"is_disabled": 0, "is_reserved": 0, "fusion_lat": 0.0, "lat": 38.897366833333336, "fusion_lon": 0.0, "rental_uris": {"ios": "https://dc.lft.to/lastmile_qr_scan", "android": "https://dc.lft.to/lastmile_qr_scan"}, "lon": -77.02709883333333, "bike_id": "8129a1d6188ec4440a61f8168040dc0a", "type": "electric_scooter", "name": "8129a1d6188ec4440a61f8168040dc0a"}, {"is_disabled": 0, "is_reserved": 0, "fusion_lat": 0.0, "lat": 38.898582833333336, "fusion_lon": 0.0, "rental_uris": {"ios": "https://dc.lft.to/lastmile_qr_scan", "android": "https://dc.lft.to/lastmile_qr_scan"}, "lon": -76.9464375, "bike_id": "95c91aa44f375f699b343d00d489a3ad", "type": "electric_scooter", "name": "95c91aa44f375f699b343d00d489a3ad"}, {"is_disabled": 0, "is_reserved": 0, "fusion_lat": 0.0, "lat": 38.91188833333333, "fusion_lon": 0.0, "rental_uris": {"ios": "https://dc.lft.to/lastmile_qr_scan", "android": "https://dc.lft.to/lastmile_qr_scan"}, "lon": -77.002124, "bike_id": "8d17b8ffb543ea834d85dab0a6b79419", "type": "electric_scooter", "name": "8d17b8ffb543ea834d85dab0a6b79419"}, {"is_disabled": 0, "is_reserved": 0, "fusion_lat": 0.0, "lat": 38.93874233333333, "fusion_lon": 0.0, "rental_uris": {"ios": "https://dc.lft.to/lastmile_qr_scan", "android": "https://dc.lft.to/lastmile_qr_scan"}, "lon": -77.03041166666667, "bike_id": "846fc70d0e0e8f1464749e725551278b", "type": "electric_scooter", "name": "846fc70d0e0e8f1464749e725551278b"}, {"is_disabled": 0, "is_reserved": 0, "fusion_lat": 0.0, "lat": 38.8966885, "fusion_lon": 0.0, "rental_uris": {"ios": "https://dc.lft.to/lastmile_qr_scan", "android": "https://dc.lft.to/lastmile_qr_scan"}, "lon": -77.05083633333334, "bike_id": "64b74e434ad01bc123fdfee6055cd3e9", "type": "electric_scooter", "name": "64b74e434ad01bc123fdfee6055cd3e9"}, {"is_disabled": 0, "is_reserved": 0, "fusion_lat": 0.0, "lat": 38.870689666666664, "fusion_lon": 0.0, "rental_uris": {"ios": "https://dc.lft.to/lastmile_qr_scan", "android": "https://dc.lft.to/lastmile_qr_scan"}, "lon": -76.97939416666667, "bike_id": "948a9145c3e0999e394f7adc0b7f2856", "type": "electric_scooter", "name": "948a9145c3e0999e394f7adc0b7f2856"}, {"is_disabled": 0, "is_reserved": 0, "fusion_lat": 0.0, "lat": 38.919935333333335, "fusion_lon": 0.0, "rental_uris": {"ios": "https://dc.lft.to/lastmile_qr_scan", "android": "https://dc.lft.to/lastmile_qr_scan"}, "lon": -77.03248, "bike_id": "ceffa131891fdbe04fc8da5f66b21bb6", "type": "electric_scooter", "name": "ceffa131891fdbe04fc8da5f66b21bb6"}, {"is_disabled": 0, "is_reserved": 0, "fusion_lat": 0.0, "lat": 38.9051075, "fusion_lon": 0.0, "rental_uris": {"ios": "https://dc.lft.to/lastmile_qr_scan", "android": "https://dc.lft.to/lastmile_qr_scan"}, "lon": -77.01702333333333, "bike_id": "02e0364390c4694bc7bd5fe565cdba56", "type": "electric_scooter", "name": "02e0364390c4694bc7bd5fe565cdba56"}, {"is_disabled": 0, "is_reserved": 0, "fusion_lat": 0.0, "lat": 38.90899, "fusion_lon": 0.0, "rental_uris": {"ios": "https://dc.lft.to/lastmile_qr_scan", "android": "https://dc.lft.to/lastmile_qr_scan"}, "lon": -76.99790466666667, "bike_id": "217f1a5a77ddf4ee621b31e8bd2490f5", "type": "electric_scooter", "name": "217f1a5a77ddf4ee621b31e8bd2490f5"}, {"is_disabled": 0, "is_reserved": 0, "fusion_lat": 0.0, "lat": 38.934141, "fusion_lon": 0.0, "rental_uris": {"ios": "https://dc.lft.to/lastmile_qr_scan", "android": "https://dc.lft.to/lastmile_qr_scan"}, "lon": -77.04282783333333, "bike_id": "7064dbbee7356780b5d3ba02fa85f1eb", "type": "electric_scooter", "name": "7064dbbee7356780b5d3ba02fa85f1eb"}, {"is_disabled": 0, "is_reserved": 0, "fusion_lat": 0.0, "lat": 38.9190825, "fusion_lon": 0.0, "rental_uris": {"ios": "https://dc.lft.to/lastmile_qr_scan", "android": "https://dc.lft.to/lastmile_qr_scan"}, "lon": -77.10183016666667, "bike_id": "6f27b97573dc533ab36377808696b629", "type": "electric_bike", "name": "6f27b97573dc533ab36377808696b629"}, {"is_disabled": 0, "is_reserved": 0, "fusion_lat": 0.0, "lat": 38.900258666666666, "fusion_lon": 0.0, "rental_uris": {"ios": "https://dc.lft.to/lastmile_qr_scan", "android": "https://dc.lft.to/lastmile_qr_scan"}, "lon": -76.99840266666666, "bike_id": "1ed121b1b08c96917b873347ddcaec62", "type": "electric_scooter", "name": "1ed121b1b08c96917b873347ddcaec62"}, {"is_disabled": 0, "is_reserved": 0, "fusion_lat": 0.0, "lat": 38.89249016666667, "fusion_lon": 0.0, "rental_uris": {"ios": "https://dc.lft.to/lastmile_qr_scan", "android": "https://dc.lft.to/lastmile_qr_scan"}, "lon": -77.039566, "bike_id": "fc79108696512f8d2f2c32b58063ba9a", "type": "electric_scooter", "name": "fc79108696512f8d2f2c32b58063ba9a"}, {"is_disabled": 0, "is_reserved": 0, "fusion_lat": 0.0, "lat": 38.84281683333333, "fusion_lon": 0.0, "rental_uris": {"ios": "https://dc.lft.to/lastmile_qr_scan", "android": "https://dc.lft.to/lastmile_qr_scan"}, "lon": -76.98843316666667, "bike_id": "393813916ca00c1f780269c52efb7027", "type": "electric_bike", "name": "393813916ca00c1f780269c52efb7027"}, {"is_disabled": 0, "is_reserved": 0, "fusion_lat": 0.0, "lat": 38.928832, "fusion_lon": 0.0, "rental_uris": {"ios": "https://dc.lft.to/lastmile_qr_scan", "android": "https://dc.lft.to/lastmile_qr_scan"}, "lon": -77.02604433333333, "bike_id": "8afdaa25b5f7c21d4c72c4da951ee3eb", "type": "electric_scooter", "name": "8afdaa25b5f7c21d4c72c4da951ee3eb"}, {"is_disabled": 0, "is_reserved": 0, "fusion_lat": 0.0, "lat": 38.92126183333333, "fusion_lon": 0.0, "rental_uris": {"ios": "https://dc.lft.to/lastmile_qr_scan", "android": "https://dc.lft.to/lastmile_qr_scan"}, "lon": -77.03666383333334, "bike_id": "757fa6a6f79833fbc119784c75b61e9b", "type": "electric_scooter", "name": "757fa6a6f79833fbc119784c75b61e9b"}, {"is_disabled": 0, "is_reserved": 0, "fusion_lat": 0.0, "lat": 38.88409983333333, "fusion_lon": 0.0, "rental_uris": {"ios": "https://dc.lft.to/lastmile_qr_scan", "android": "https://dc.lft.to/lastmile_qr_scan"}, "lon": -77.03021333333334, "bike_id": "35deb524801c586eadd30289d5b43f4a", "type": "electric_scooter", "name": "35deb524801c586eadd30289d5b43f4a"}, {"is_disabled": 0, "is_reserved": 0, "fusion_lat": 0.0, "lat": 38.902241, "fusion_lon": 0.0, "rental_uris": {"ios": "https://dc.lft.to/lastmile_qr_scan", "android": "https://dc.lft.to/lastmile_qr_scan"}, "lon": -77.0533125, "bike_id": "a6c528797b72d97d0a04c0bcc12a21ec", "type": "electric_scooter", "name": "a6c528797b72d97d0a04c0bcc12a21ec"}, {"is_disabled": 0, "is_reserved": 0, "fusion_lat": 0.0, "lat": 38.90781666666667, "fusion_lon": 0.0, "rental_uris": {"ios": "https://dc.lft.to/lastmile_qr_scan", "android": "https://dc.lft.to/lastmile_qr_scan"}, "lon": -77.04662116666667, "bike_id": "fbc03821c33d60d4da7b2d76e940ca67", "type": "electric_scooter", "name": "fbc03821c33d60d4da7b2d76e940ca67"}, {"is_disabled": 0, "is_reserved": 0, "fusion_lat": 0.0, "lat": 38.8809415, "fusion_lon": 0.0, "rental_uris": {"ios": "https://dc.lft.to/lastmile_qr_scan", "android": "https://dc.lft.to/lastmile_qr_scan"}, "lon": -77.02593866666666, "bike_id": "4373c4f26efbd509da45ba70cead3a28", "type": "electric_scooter", "name": "4373c4f26efbd509da45ba70cead3a28"}, {"is_disabled": 0, "is_reserved": 0, "fusion_lat": 0.0, "lat": 38.936107666666665, "fusion_lon": 0.0, "rental_uris": {"ios": "https://dc.lft.to/lastmile_qr_scan", "android": "https://dc.lft.to/lastmile_qr_scan"}, "lon": -77.03878033333334, "bike_id": "48597501f534aebacd465f1b110368e6", "type": "electric_scooter", "name": "48597501f534aebacd465f1b110368e6"}, {"is_disabled": 0, "is_reserved": 0, "fusion_lat": 0.0, "lat": 38.87650166666667, "fusion_lon": 0.0, "rental_uris": {"ios": "https://dc.lft.to/lastmile_qr_scan", "android": "https://dc.lft.to/lastmile_qr_scan"}, "lon": -77.00887233333333, "bike_id": "c7cda1afe3524be37c50ad3f0f1c8b92", "type": "electric_scooter", "name": "c7cda1afe3524be37c50ad3f0f1c8b92"}, {"is_disabled": 0, "is_reserved": 0, "fusion_lat": 0.0, "lat": 38.88363833333333, "fusion_lon": 0.0, "rental_uris": {"ios": "https://dc.lft.to/lastmile_qr_scan", "android": "https://dc.lft.to/lastmile_qr_scan"}, "lon": -76.9279045, "bike_id": "c9fe08cbe58216b96f077ac2d870023c", "type": "electric_scooter", "name": "c9fe08cbe58216b96f077ac2d870023c"}, {"is_disabled": 0, "is_reserved": 0, "fusion_lat": 0.0, "lat": 38.913182166666665, "fusion_lon": 0.0, "rental_uris": {"ios": "https://dc.lft.to/lastmile_qr_scan", "android": "https://dc.lft.to/lastmile_qr_scan"}, "lon": -77.0326225, "bike_id": "ec9bc36955799df44b20fd9c26542972", "type": "electric_scooter", "name": "ec9bc36955799df44b20fd9c26542972"}, {"is_disabled": 0, "is_reserved": 0, "fusion_lat": 0.0, "lat": 38.90455816666667, "fusion_lon": 0.0, "rental_uris": {"ios": "https://dc.lft.to/lastmile_qr_scan", "android": "https://dc.lft.to/lastmile_qr_scan"}, "lon": -77.04891116666667, "bike_id": "48740f8e900700ac66b342e1df199862", "type": "electric_scooter", "name": "48740f8e900700ac66b342e1df199862"}, {"is_disabled": 0, "is_reserved": 0, "fusion_lat": 0.0, "lat": 38.9184175, "fusion_lon": 0.0, "rental_uris": {"ios": "https://dc.lft.to/lastmile_qr_scan", "android": "https://dc.lft.to/lastmile_qr_scan"}, "lon": -77.0418035, "bike_id": "6a4d573a90e5e484a03b7f8a60200c3f", "type": "electric_scooter", "name": "6a4d573a90e5e484a03b7f8a60200c3f"}, {"is_disabled": 0, "is_reserved": 0, "fusion_lat": 0.0, "lat": 38.92865533333333, "fusion_lon": 0.0, "rental_uris": {"ios": "https://dc.lft.to/lastmile_qr_scan", "android": "https://dc.lft.to/lastmile_qr_scan"}, "lon": -77.07888433333333, "bike_id": "703acfd14fbfce9689d7273e9067b136", "type": "electric_scooter", "name": "703acfd14fbfce9689d7273e9067b136"}, {"is_disabled": 0, "is_reserved": 0, "fusion_lat": 0.0, "lat": 38.91825633333333, "fusion_lon": 0.0, "rental_uris": {"ios": "https://dc.lft.to/lastmile_qr_scan", "android": "https://dc.lft.to/lastmile_qr_scan"}, "lon": -77.02420066666667, "bike_id": "16ad355729479973bbc020e2ca57d16e", "type": "electric_scooter", "name": "16ad355729479973bbc020e2ca57d16e"}, {"is_disabled": 0, "is_reserved": 0, "fusion_lat": 0.0, "lat": 38.923367, "fusion_lon": 0.0, "rental_uris": {"ios": "https://dc.lft.to/lastmile_qr_scan", "android": "https://dc.lft.to/lastmile_qr_scan"}, "lon": -77.0568165, "bike_id": "68064e3b5e2b748b535b981adb105b25", "type": "electric_scooter", "name": "68064e3b5e2b748b535b981adb105b25"}, {"is_disabled": 0, "is_reserved": 0, "fusion_lat": 0.0, "lat": 38.90258516666667, "fusion_lon": 0.0, "rental_uris": {"ios": "https://dc.lft.to/lastmile_qr_scan", "android": "https://dc.lft.to/lastmile_qr_scan"}, "lon": -76.9770965, "bike_id": "5ee66757ca98edf583f23eeb143ab71b", "type": "electric_scooter", "name": "5ee66757ca98edf583f23eeb143ab71b"}, {"is_disabled": 0, "is_reserved": 0, "fusion_lat": 0.0, "lat": 38.944956, "fusion_lon": 0.0, "rental_uris": {"ios": "https://dc.lft.to/lastmile_qr_scan", "android": "https://dc.lft.to/lastmile_qr_scan"}, "lon": -77.03261716666667, "bike_id": "213d8c1ddf6cc47c149b4169d1ea1be2", "type": "electric_scooter", "name": "213d8c1ddf6cc47c149b4169d1ea1be2"}, {"is_disabled": 0, "is_reserved": 0, "fusion_lat": 0.0, "lat": 38.9201665, "fusion_lon": 0.0, "rental_uris": {"ios": "https://dc.lft.to/lastmile_qr_scan", "android": "https://dc.lft.to/lastmile_qr_scan"}, "lon": -77.02189066666666, "bike_id": "4333b327d0db0985791dfcb9416769e8", "type": "electric_scooter", "name": "4333b327d0db0985791dfcb9416769e8"}, {"is_disabled": 0, "is_reserved": 0, "fusion_lat": 0.0, "lat": 38.89016016666667, "fusion_lon": 0.0, "rental_uris": {"ios": "https://dc.lft.to/lastmile_qr_scan", "android": "https://dc.lft.to/lastmile_qr_scan"}, "lon": -76.93744816666667, "bike_id": "44948967bad9d8b7896f25a78ff0f06a", "type": "electric_scooter", "name": "44948967bad9d8b7896f25a78ff0f06a"}, {"is_disabled": 0, "is_reserved": 0, "fusion_lat": 0.0, "lat": 38.9185685, "fusion_lon": 0.0, "rental_uris": {"ios": "https://dc.lft.to/lastmile_qr_scan", "android": "https://dc.lft.to/lastmile_qr_scan"}, "lon": -76.960888, "bike_id": "b032e7fa2426a82a099faa9a7eddae58", "type": "electric_scooter", "name": "b032e7fa2426a82a099faa9a7eddae58"}, {"is_disabled": 0, "is_reserved": 0, "fusion_lat": 0.0, "lat": 38.909737, "fusion_lon": 0.0, "rental_uris": {"ios": "https://dc.lft.to/lastmile_qr_scan", "android": "https://dc.lft.to/lastmile_qr_scan"}, "lon": -77.04831966666667, "bike_id": "2176fd641b4fda6bd9c2661f98f59b19", "type": "electric_scooter", "name": "2176fd641b4fda6bd9c2661f98f59b19"}, {"is_disabled": 0, "is_reserved": 0, "fusion_lat": 0.0, "lat": 38.89413066666667, "fusion_lon": 0.0, "rental_uris": {"ios": "https://dc.lft.to/lastmile_qr_scan", "android": "https://dc.lft.to/lastmile_qr_scan"}, "lon": -77.033774, "bike_id": "4007b385aa9bead90e634f72fe738b5a", "type": "electric_scooter", "name": "4007b385aa9bead90e634f72fe738b5a"}, {"is_disabled": 0, "is_reserved": 0, "fusion_lat": 0.0, "lat": 38.89993316666666, "fusion_lon": 0.0, "rental_uris": {"ios": "https://dc.lft.to/lastmile_qr_scan", "android": "https://dc.lft.to/lastmile_qr_scan"}, "lon": -77.02717466666667, "bike_id": "c5ce5658bd453cb8351ebdd49201cabc", "type": "electric_scooter", "name": "c5ce5658bd453cb8351ebdd49201cabc"}, {"is_disabled": 0, "is_reserved": 0, "fusion_lat": 0.0, "lat": 38.90071616666667, "fusion_lon": 0.0, "rental_uris": {"ios": "https://dc.lft.to/lastmile_qr_scan", "android": "https://dc.lft.to/lastmile_qr_scan"}, "lon": -76.94979666666667, "bike_id": "afb79cad2d7faaf401a1db9e5aba1ac3", "type": "electric_scooter", "name": "afb79cad2d7faaf401a1db9e5aba1ac3"}, {"is_disabled": 0, "is_reserved": 0, "fusion_lat": 0.0, "lat": 38.925059, "fusion_lon": 0.0, "rental_uris": {"ios": "https://dc.lft.to/lastmile_qr_scan", "android": "https://dc.lft.to/lastmile_qr_scan"}, "lon": -77.02441983333334, "bike_id": "4c19319f71fe1db1afaa779bf44a372a", "type": "electric_scooter", "name": "4c19319f71fe1db1afaa779bf44a372a"}, {"is_disabled": 0, "is_reserved": 0, "fusion_lat": 0.0, "lat": 38.930572166666664, "fusion_lon": 0.0, "rental_uris": {"ios": "https://dc.lft.to/lastmile_qr_scan", "android": "https://dc.lft.to/lastmile_qr_scan"}, "lon": -77.039375, "bike_id": "87bc79ac997b154c726b197904ea2321", "type": "electric_scooter", "name": "87bc79ac997b154c726b197904ea2321"}, {"is_disabled": 0, "is_reserved": 0, "fusion_lat": 0.0, "lat": 38.915850166666665, "fusion_lon": 0.0, "rental_uris": {"ios": "https://dc.lft.to/lastmile_qr_scan", "android": "https://dc.lft.to/lastmile_qr_scan"}, "lon": -77.01883383333333, "bike_id": "d773d08e69709a5d1f9ea0f0062863df", "type": "electric_scooter", "name": "d773d08e69709a5d1f9ea0f0062863df"}, {"is_disabled": 0, "is_reserved": 0, "fusion_lat": 0.0, "lat": 38.879376666666666, "fusion_lon": 0.0, "rental_uris": {"ios": "https://dc.lft.to/lastmile_qr_scan", "android": "https://dc.lft.to/lastmile_qr_scan"}, "lon": -77.00860916666667, "bike_id": "54572b1b0832570153b3b7bb653ebb03", "type": "electric_bike", "name": "54572b1b0832570153b3b7bb653ebb03"}, {"is_disabled": 0, "is_reserved": 0, "fusion_lat": 0.0, "lat": 38.900629, "fusion_lon": 0.0, "rental_uris": {"ios": "https://dc.lft.to/lastmile_qr_scan", "android": "https://dc.lft.to/lastmile_qr_scan"}, "lon": -77.0456845, "bike_id": "4ce66f40f0aef63507b1b4c8b7363fda", "type": "electric_scooter", "name": "4ce66f40f0aef63507b1b4c8b7363fda"}, {"is_disabled": 0, "is_reserved": 0, "fusion_lat": 0.0, "lat": 38.926952166666666, "fusion_lon": 0.0, "rental_uris": {"ios": "https://dc.lft.to/lastmile_qr_scan", "android": "https://dc.lft.to/lastmile_qr_scan"}, "lon": -76.99791483333334, "bike_id": "886ed53c76b178c14ebf6ad3ba3e26ec", "type": "electric_scooter", "name": "886ed53c76b178c14ebf6ad3ba3e26ec"}, {"is_disabled": 0, "is_reserved": 0, "fusion_lat": 0.0, "lat": 38.95241516666667, "fusion_lon": 0.0, "rental_uris": {"ios": "https://dc.lft.to/lastmile_qr_scan", "android": "https://dc.lft.to/lastmile_qr_scan"}, "lon": -76.98246166666667, "bike_id": "287e576c4137ffa920930a5589ae3a3c", "type": "electric_bike", "name": "287e576c4137ffa920930a5589ae3a3c"}, {"is_disabled": 0, "is_reserved": 0, "fusion_lat": 0.0, "lat": 38.907450833333336, "fusion_lon": 0.0, "rental_uris": {"ios": "https://dc.lft.to/lastmile_qr_scan", "android": "https://dc.lft.to/lastmile_qr_scan"}, "lon": -77.02382266666666, "bike_id": "a1110e881d60fe95e4ad0b0570a181cf", "type": "electric_scooter", "name": "a1110e881d60fe95e4ad0b0570a181cf"}, {"is_disabled": 0, "is_reserved": 0, "fusion_lat": 0.0, "lat": 38.90358333333333, "fusion_lon": 0.0, "rental_uris": {"ios": "https://dc.lft.to/lastmile_qr_scan", "android": "https://dc.lft.to/lastmile_qr_scan"}, "lon": -77.060198, "bike_id": "aa1a1aee13ddc02b3ce6c2f250101d22", "type": "electric_scooter", "name": "aa1a1aee13ddc02b3ce6c2f250101d22"}, {"is_disabled": 0, "is_reserved": 0, "fusion_lat": 0.0, "lat": 38.879178333333336, "fusion_lon": 0.0, "rental_uris": {"ios": "https://dc.lft.to/lastmile_qr_scan", "android": "https://dc.lft.to/lastmile_qr_scan"}, "lon": -76.995081, "bike_id": "34a37608041b462b3e3015277d4ae6ec", "type": "electric_scooter", "name": "34a37608041b462b3e3015277d4ae6ec"}, {"is_disabled": 0, "is_reserved": 0, "fusion_lat": 0.0, "lat": 38.842640333333335, "fusion_lon": 0.0, "rental_uris": {"ios": "https://dc.lft.to/lastmile_qr_scan", "android": "https://dc.lft.to/lastmile_qr_scan"}, "lon": -76.98850416666667, "bike_id": "b41e6048ed6f1d5ab9af3d900a29828c", "type": "electric_scooter", "name": "b41e6048ed6f1d5ab9af3d900a29828c"}, {"is_disabled": 0, "is_reserved": 0, "fusion_lat": 0.0, "lat": 38.902236333333335, "fusion_lon": 0.0, "rental_uris": {"ios": "https://dc.lft.to/lastmile_qr_scan", "android": "https://dc.lft.to/lastmile_qr_scan"}, "lon": -77.0237075, "bike_id": "3075ddd75850a7c13a4ed93ddeae2229", "type": "electric_scooter", "name": "3075ddd75850a7c13a4ed93ddeae2229"}, {"is_disabled": 0, "is_reserved": 0, "fusion_lat": 0.0, "lat": 38.90442733333333, "fusion_lon": 0.0, "rental_uris": {"ios": "https://dc.lft.to/lastmile_qr_scan", "android": "https://dc.lft.to/lastmile_qr_scan"}, "lon": -76.97308416666667, "bike_id": "42ea0550a5e2e1dabe957c5e787b34d1", "type": "electric_scooter", "name": "42ea0550a5e2e1dabe957c5e787b34d1"}, {"is_disabled": 0, "is_reserved": 0, "fusion_lat": 0.0, "lat": 38.905304, "fusion_lon": 0.0, "rental_uris": {"ios": "https://dc.lft.to/lastmile_qr_scan", "android": "https://dc.lft.to/lastmile_qr_scan"}, "lon": -77.05936466666667, "bike_id": "3c05f6d76d5e94c3fdd0fdfec9c63aae", "type": "electric_scooter", "name": "3c05f6d76d5e94c3fdd0fdfec9c63aae"}, {"is_disabled": 0, "is_reserved": 0, "fusion_lat": 0.0, "lat": 38.96359233333333, "fusion_lon": 0.0, "rental_uris": {"ios": "https://dc.lft.to/lastmile_qr_scan", "android": "https://dc.lft.to/lastmile_qr_scan"}, "lon": -77.03446483333333, "bike_id": "11aee25f8499d5854ab9b774c10ca2db", "type": "electric_scooter", "name": "11aee25f8499d5854ab9b774c10ca2db"}, {"is_disabled": 0, "is_reserved": 0, "fusion_lat": 0.0, "lat": 38.87175083333333, "fusion_lon": 0.0, "rental_uris": {"ios": "https://dc.lft.to/lastmile_qr_scan", "android": "https://dc.lft.to/lastmile_qr_scan"}, "lon": -77.006274, "bike_id": "252ee93db791714446cf82db4827cc2a", "type": "electric_scooter", "name": "252ee93db791714446cf82db4827cc2a"}, {"is_disabled": 0, "is_reserved": 0, "fusion_lat": 0.0, "lat": 38.901538333333335, "fusion_lon": 0.0, "rental_uris": {"ios": "https://dc.lft.to/lastmile_qr_scan", "android": "https://dc.lft.to/lastmile_qr_scan"}, "lon": -77.03218466666667, "bike_id": "d9b7d18aa58b7c649a97e810a8a5a047", "type": "electric_scooter", "name": "d9b7d18aa58b7c649a97e810a8a5a047"}, {"is_disabled": 0, "is_reserved": 0, "fusion_lat": 0.0, "lat": 38.897048833333336, "fusion_lon": 0.0, "rental_uris": {"ios": "https://dc.lft.to/lastmile_qr_scan", "android": "https://dc.lft.to/lastmile_qr_scan"}, "lon": -76.93918116666667, "bike_id": "55c8392f1063e7aa3c2616697f42d857", "type": "electric_scooter", "name": "55c8392f1063e7aa3c2616697f42d857"}, {"is_disabled": 0, "is_reserved": 0, "fusion_lat": 0.0, "lat": 38.97158366666667, "fusion_lon": 0.0, "rental_uris": {"ios": "https://dc.lft.to/lastmile_qr_scan", "android": "https://dc.lft.to/lastmile_qr_scan"}, "lon": -76.9836055, "bike_id": "78fdc56bb5b5f88a962fe5804842cd50", "type": "electric_bike", "name": "78fdc56bb5b5f88a962fe5804842cd50"}, {"is_disabled": 0, "is_reserved": 0, "fusion_lat": 0.0, "lat": 38.91151633333333, "fusion_lon": 0.0, "rental_uris": {"ios": "https://dc.lft.to/lastmile_qr_scan", "android": "https://dc.lft.to/lastmile_qr_scan"}, "lon": -77.01101066666666, "bike_id": "7bdb316bf5b162cb0cc478940eab1f19", "type": "electric_scooter", "name": "7bdb316bf5b162cb0cc478940eab1f19"}, {"is_disabled": 0, "is_reserved": 0, "fusion_lat": 0.0, "lat": 38.926381, "fusion_lon": 0.0, "rental_uris": {"ios": "https://dc.lft.to/lastmile_qr_scan", "android": "https://dc.lft.to/lastmile_qr_scan"}, "lon": -77.03313933333334, "bike_id": "d6fbda43097161e71d362df57c3a790e", "type": "electric_scooter", "name": "d6fbda43097161e71d362df57c3a790e"}, {"is_disabled": 0, "is_reserved": 0, "fusion_lat": 0.0, "lat": 38.89018433333333, "fusion_lon": 0.0, "rental_uris": {"ios": "https://dc.lft.to/lastmile_qr_scan", "android": "https://dc.lft.to/lastmile_qr_scan"}, "lon": -76.93732583333333, "bike_id": "5703fb4232d1286e6f7dabe70abdd435", "type": "electric_scooter", "name": "5703fb4232d1286e6f7dabe70abdd435"}, {"is_disabled": 0, "is_reserved": 0, "fusion_lat": 0.0, "lat": 38.92654266666667, "fusion_lon": 0.0, "rental_uris": {"ios": "https://dc.lft.to/lastmile_qr_scan", "android": "https://dc.lft.to/lastmile_qr_scan"}, "lon": -77.090172, "bike_id": "62e86d18763029df434644b62482e9ec", "type": "electric_bike", "name": "62e86d18763029df434644b62482e9ec"}, {"is_disabled": 0, "is_reserved": 0, "fusion_lat": 0.0, "lat": 38.9393215, "fusion_lon": 0.0, "rental_uris": {"ios": "https://dc.lft.to/lastmile_qr_scan", "android": "https://dc.lft.to/lastmile_qr_scan"}, "lon": -77.02586283333333, "bike_id": "691da34165d5821279a73b00f07d3116", "type": "electric_scooter", "name": "691da34165d5821279a73b00f07d3116"}, {"is_disabled": 0, "is_reserved": 0, "fusion_lat": 0.0, "lat": 38.903161833333336, "fusion_lon": 0.0, "rental_uris": {"ios": "https://dc.lft.to/lastmile_qr_scan", "android": "https://dc.lft.to/lastmile_qr_scan"}, "lon": -76.9754295, "bike_id": "bd58854c88ffd5e9654df821754dc4c7", "type": "electric_scooter", "name": "bd58854c88ffd5e9654df821754dc4c7"}, {"is_disabled": 0, "is_reserved": 0, "fusion_lat": 0.0, "lat": 38.90902483333333, "fusion_lon": 0.0, "rental_uris": {"ios": "https://dc.lft.to/lastmile_qr_scan", "android": "https://dc.lft.to/lastmile_qr_scan"}, "lon": -77.02282383333333, "bike_id": "adb96669df66fce663af55c7a2acc25d", "type": "electric_scooter", "name": "adb96669df66fce663af55c7a2acc25d"}, {"is_disabled": 0, "is_reserved": 0, "fusion_lat": 0.0, "lat": 38.89564166666667, "fusion_lon": 0.0, "rental_uris": {"ios": "https://dc.lft.to/lastmile_qr_scan", "android": "https://dc.lft.to/lastmile_qr_scan"}, "lon": -77.12735266666667, "bike_id": "b0cc9c2401c0df0a505b54b8e00314a9", "type": "electric_bike", "name": "b0cc9c2401c0df0a505b54b8e00314a9"}, {"is_disabled": 0, "is_reserved": 0, "fusion_lat": 0.0, "lat": 38.9056925, "fusion_lon": 0.0, "rental_uris": {"ios": "https://dc.lft.to/lastmile_qr_scan", "android": "https://dc.lft.to/lastmile_qr_scan"}, "lon": -77.00555666666666, "bike_id": "122231336687b81e5ce87fc314dd92e9", "type": "electric_scooter", "name": "122231336687b81e5ce87fc314dd92e9"}, {"is_disabled": 0, "is_reserved": 0, "fusion_lat": 0.0, "lat": 38.887552166666666, "fusion_lon": 0.0, "rental_uris": {"ios": "https://dc.lft.to/lastmile_qr_scan", "android": "https://dc.lft.to/lastmile_qr_scan"}, "lon": -77.03221483333333, "bike_id": "807a837d5ce16c4812fc6d46848fcb51", "type": "electric_scooter", "name": "807a837d5ce16c4812fc6d46848fcb51"}, {"is_disabled": 0, "is_reserved": 0, "fusion_lat": 0.0, "lat": 38.923877833333336, "fusion_lon": 0.0, "rental_uris": {"ios": "https://dc.lft.to/lastmile_qr_scan", "android": "https://dc.lft.to/lastmile_qr_scan"}, "lon": -77.040304, "bike_id": "cb5b3816357dbe565285282e25b0dd2d", "type": "electric_scooter", "name": "cb5b3816357dbe565285282e25b0dd2d"}, {"is_disabled": 0, "is_reserved": 0, "fusion_lat": 0.0, "lat": 38.91044866666667, "fusion_lon": 0.0, "rental_uris": {"ios": "https://dc.lft.to/lastmile_qr_scan", "android": "https://dc.lft.to/lastmile_qr_scan"}, "lon": -77.04345166666667, "bike_id": "d581953d36a98fa4eeb9eb8ec1b06f1b", "type": "electric_scooter", "name": "d581953d36a98fa4eeb9eb8ec1b06f1b"}, {"is_disabled": 0, "is_reserved": 0, "fusion_lat": 0.0, "lat": 38.919839, "fusion_lon": 0.0, "rental_uris": {"ios": "https://dc.lft.to/lastmile_qr_scan", "android": "https://dc.lft.to/lastmile_qr_scan"}, "lon": -77.04772766666666, "bike_id": "37da2df673105ebb70c45f850cb8e3ef", "type": "electric_scooter", "name": "37da2df673105ebb70c45f850cb8e3ef"}, {"is_disabled": 0, "is_reserved": 0, "fusion_lat": 0.0, "lat": 38.904554833333336, "fusion_lon": 0.0, "rental_uris": {"ios": "https://dc.lft.to/lastmile_qr_scan", "android": "https://dc.lft.to/lastmile_qr_scan"}, "lon": -76.93276616666667, "bike_id": "32272d9539ad142442b118c39b4fef70", "type": "electric_scooter", "name": "32272d9539ad142442b118c39b4fef70"}, {"is_disabled": 0, "is_reserved": 0, "fusion_lat": 0.0, "lat": 38.965842333333335, "fusion_lon": 0.0, "rental_uris": {"ios": "https://dc.lft.to/lastmile_qr_scan", "android": "https://dc.lft.to/lastmile_qr_scan"}, "lon": -77.02748883333334, "bike_id": "c631c6e50fe8fb7a157d8e8131437eb7", "type": "electric_scooter", "name": "c631c6e50fe8fb7a157d8e8131437eb7"}, {"is_disabled": 0, "is_reserved": 0, "fusion_lat": 0.0, "lat": 38.90067116666667, "fusion_lon": 0.0, "rental_uris": {"ios": "https://dc.lft.to/lastmile_qr_scan", "android": "https://dc.lft.to/lastmile_qr_scan"}, "lon": -77.04890166666667, "bike_id": "0520b1137bfa5d16d19c70b993151cc5", "type": "electric_scooter", "name": "0520b1137bfa5d16d19c70b993151cc5"}, {"is_disabled": 0, "is_reserved": 0, "fusion_lat": 0.0, "lat": 38.932950166666664, "fusion_lon": 0.0, "rental_uris": {"ios": "https://dc.lft.to/lastmile_qr_scan", "android": "https://dc.lft.to/lastmile_qr_scan"}, "lon": -77.02317416666666, "bike_id": "3c7e7bdc361291e36aaa0fc115d91ba3", "type": "electric_scooter", "name": "3c7e7bdc361291e36aaa0fc115d91ba3"}, {"is_disabled": 0, "is_reserved": 0, "fusion_lat": 0.0, "lat": 38.88382716666667, "fusion_lon": 0.0, "rental_uris": {"ios": "https://dc.lft.to/lastmile_qr_scan", "android": "https://dc.lft.to/lastmile_qr_scan"}, "lon": -77.03003116666666, "bike_id": "f0c7e9bb572d41b1e057b5d75fdf87bf", "type": "electric_scooter", "name": "f0c7e9bb572d41b1e057b5d75fdf87bf"}, {"is_disabled": 0, "is_reserved": 0, "fusion_lat": 0.0, "lat": 38.9191835, "fusion_lon": 0.0, "rental_uris": {"ios": "https://dc.lft.to/lastmile_qr_scan", "android": "https://dc.lft.to/lastmile_qr_scan"}, "lon": -77.02532866666667, "bike_id": "18b1192f1a200c59d2ea31e9ef9a20b2", "type": "electric_scooter", "name": "18b1192f1a200c59d2ea31e9ef9a20b2"}, {"is_disabled": 0, "is_reserved": 0, "fusion_lat": 0.0, "lat": 38.93455433333333, "fusion_lon": 0.0, "rental_uris": {"ios": "https://dc.lft.to/lastmile_qr_scan", "android": "https://dc.lft.to/lastmile_qr_scan"}, "lon": -77.02786733333333, "bike_id": "a3235b9a01e12524f61130a9ff2b455a", "type": "electric_scooter", "name": "a3235b9a01e12524f61130a9ff2b455a"}, {"is_disabled": 0, "is_reserved": 0, "fusion_lat": 0.0, "lat": 38.92299233333333, "fusion_lon": 0.0, "rental_uris": {"ios": "https://dc.lft.to/lastmile_qr_scan", "android": "https://dc.lft.to/lastmile_qr_scan"}, "lon": -77.04143916666666, "bike_id": "8e388e05df0b61ce2ec92ca4725063a8", "type": "electric_scooter", "name": "8e388e05df0b61ce2ec92ca4725063a8"}, {"is_disabled": 0, "is_reserved": 0, "fusion_lat": 0.0, "lat": 38.91566183333333, "fusion_lon": 0.0, "rental_uris": {"ios": "https://dc.lft.to/lastmile_qr_scan", "android": "https://dc.lft.to/lastmile_qr_scan"}, "lon": -77.02161316666667, "bike_id": "659e5809cb7304cc40176f8cfca8a539", "type": "electric_scooter", "name": "659e5809cb7304cc40176f8cfca8a539"}, {"is_disabled": 0, "is_reserved": 0, "fusion_lat": 0.0, "lat": 38.929125666666664, "fusion_lon": 0.0, "rental_uris": {"ios": "https://dc.lft.to/lastmile_qr_scan", "android": "https://dc.lft.to/lastmile_qr_scan"}, "lon": -77.05987816666666, "bike_id": "a0cb5e0f3e0bc5f1f2381d59c907dfe9", "type": "electric_scooter", "name": "a0cb5e0f3e0bc5f1f2381d59c907dfe9"}, {"is_disabled": 0, "is_reserved": 0, "fusion_lat": 0.0, "lat": 38.9092795, "fusion_lon": 0.0, "rental_uris": {"ios": "https://dc.lft.to/lastmile_qr_scan", "android": "https://dc.lft.to/lastmile_qr_scan"}, "lon": -77.02302433333334, "bike_id": "32ae1c7ff10988ed9eb7809e6c3d9b1e", "type": "electric_scooter", "name": "32ae1c7ff10988ed9eb7809e6c3d9b1e"}, {"is_disabled": 0, "is_reserved": 0, "fusion_lat": 0.0, "lat": 38.919779166666665, "fusion_lon": 0.0, "rental_uris": {"ios": "https://dc.lft.to/lastmile_qr_scan", "android": "https://dc.lft.to/lastmile_qr_scan"}, "lon": -77.03322216666666, "bike_id": "8a25582687513c6154f6ef302e75f8db", "type": "electric_scooter", "name": "8a25582687513c6154f6ef302e75f8db"}, {"is_disabled": 0, "is_reserved": 0, "fusion_lat": 0.0, "lat": 38.926695333333335, "fusion_lon": 0.0, "rental_uris": {"ios": "https://dc.lft.to/lastmile_qr_scan", "android": "https://dc.lft.to/lastmile_qr_scan"}, "lon": -77.02273066666666, "bike_id": "d297f32522548053898c518085e91adb", "type": "electric_scooter", "name": "d297f32522548053898c518085e91adb"}, {"is_disabled": 0, "is_reserved": 0, "fusion_lat": 0.0, "lat": 38.891976, "fusion_lon": 0.0, "rental_uris": {"ios": "https://dc.lft.to/lastmile_qr_scan", "android": "https://dc.lft.to/lastmile_qr_scan"}, "lon": -77.02227516666666, "bike_id": "627be283430f361a3ee724fc731384ca", "type": "electric_scooter", "name": "627be283430f361a3ee724fc731384ca"}, {"is_disabled": 0, "is_reserved": 0, "fusion_lat": 0.0, "lat": 38.949275666666665, "fusion_lon": 0.0, "rental_uris": {"ios": "https://dc.lft.to/lastmile_qr_scan", "android": "https://dc.lft.to/lastmile_qr_scan"}, "lon": -77.01941633333334, "bike_id": "22226028d677ad209b972b8649510fac", "type": "electric_scooter", "name": "22226028d677ad209b972b8649510fac"}, {"is_disabled": 0, "is_reserved": 0, "fusion_lat": 0.0, "lat": 38.948338, "fusion_lon": 0.0, "rental_uris": {"ios": "https://dc.lft.to/lastmile_qr_scan", "android": "https://dc.lft.to/lastmile_qr_scan"}, "lon": -76.98244366666667, "bike_id": "0f5d622a8fcf9bafe38ed44449042029", "type": "electric_scooter", "name": "0f5d622a8fcf9bafe38ed44449042029"}, {"is_disabled": 0, "is_reserved": 0, "fusion_lat": 0.0, "lat": 38.919186, "fusion_lon": 0.0, "rental_uris": {"ios": "https://dc.lft.to/lastmile_qr_scan", "android": "https://dc.lft.to/lastmile_qr_scan"}, "lon": -77.03431116666667, "bike_id": "4054020046a94977f8f82197b66626d7", "type": "electric_scooter", "name": "4054020046a94977f8f82197b66626d7"}, {"is_disabled": 0, "is_reserved": 0, "fusion_lat": 0.0, "lat": 38.90073566666667, "fusion_lon": 0.0, "rental_uris": {"ios": "https://dc.lft.to/lastmile_qr_scan", "android": "https://dc.lft.to/lastmile_qr_scan"}, "lon": -77.01817833333334, "bike_id": "2714e96eca711b8d0bb08b32e60b333b", "type": "electric_scooter", "name": "2714e96eca711b8d0bb08b32e60b333b"}, {"is_disabled": 0, "is_reserved": 0, "fusion_lat": 0.0, "lat": 38.91056116666667, "fusion_lon": 0.0, "rental_uris": {"ios": "https://dc.lft.to/lastmile_qr_scan", "android": "https://dc.lft.to/lastmile_qr_scan"}, "lon": -77.04493383333333, "bike_id": "630df14e87aae599c540c34af5e3d9e4", "type": "electric_scooter", "name": "630df14e87aae599c540c34af5e3d9e4"}, {"is_disabled": 0, "is_reserved": 0, "fusion_lat": 0.0, "lat": 38.90495383333333, "fusion_lon": 0.0, "rental_uris": {"ios": "https://dc.lft.to/lastmile_qr_scan", "android": "https://dc.lft.to/lastmile_qr_scan"}, "lon": -77.0259265, "bike_id": "b54238071fb204a13afe0ee2c8c4c252", "type": "electric_scooter", "name": "b54238071fb204a13afe0ee2c8c4c252"}, {"is_disabled": 0, "is_reserved": 0, "fusion_lat": 0.0, "lat": 38.90033733333333, "fusion_lon": 0.0, "rental_uris": {"ios": "https://dc.lft.to/lastmile_qr_scan", "android": "https://dc.lft.to/lastmile_qr_scan"}, "lon": -76.98831, "bike_id": "714cb9caa42c37a1ce4b64491e0ad8de", "type": "electric_scooter", "name": "714cb9caa42c37a1ce4b64491e0ad8de"}, {"is_disabled": 0, "is_reserved": 0, "fusion_lat": 0.0, "lat": 38.90366433333333, "fusion_lon": 0.0, "rental_uris": {"ios": "https://dc.lft.to/lastmile_qr_scan", "android": "https://dc.lft.to/lastmile_qr_scan"}, "lon": -77.02780383333334, "bike_id": "b90be7a1660346b88dd0f31ae345f05d", "type": "electric_scooter", "name": "b90be7a1660346b88dd0f31ae345f05d"}, {"is_disabled": 0, "is_reserved": 0, "fusion_lat": 0.0, "lat": 38.906023166666664, "fusion_lon": 0.0, "rental_uris": {"ios": "https://dc.lft.to/lastmile_qr_scan", "android": "https://dc.lft.to/lastmile_qr_scan"}, "lon": -77.12883733333334, "bike_id": "717d292fc9f7ff70cb531b2ec63772a4", "type": "electric_bike", "name": "717d292fc9f7ff70cb531b2ec63772a4"}, {"is_disabled": 0, "is_reserved": 0, "fusion_lat": 0.0, "lat": 38.892186833333334, "fusion_lon": 0.0, "rental_uris": {"ios": "https://dc.lft.to/lastmile_qr_scan", "android": "https://dc.lft.to/lastmile_qr_scan"}, "lon": -77.02420733333334, "bike_id": "8eed901690abf5ab2076d13b94628a14", "type": "electric_scooter", "name": "8eed901690abf5ab2076d13b94628a14"}, {"is_disabled": 0, "is_reserved": 0, "fusion_lat": 0.0, "lat": 38.908765, "fusion_lon": 0.0, "rental_uris": {"ios": "https://dc.lft.to/lastmile_qr_scan", "android": "https://dc.lft.to/lastmile_qr_scan"}, "lon": -76.99821383333334, "bike_id": "3e0b0a70837dbb09ba7d6a3047b8a016", "type": "electric_scooter", "name": "3e0b0a70837dbb09ba7d6a3047b8a016"}, {"is_disabled": 0, "is_reserved": 0, "fusion_lat": 0.0, "lat": 38.93447333333334, "fusion_lon": 0.0, "rental_uris": {"ios": "https://dc.lft.to/lastmile_qr_scan", "android": "https://dc.lft.to/lastmile_qr_scan"}, "lon": -77.02978783333333, "bike_id": "fdd0a0fa7f16ff58b64441c9a477c7ea", "type": "electric_scooter", "name": "fdd0a0fa7f16ff58b64441c9a477c7ea"}, {"is_disabled": 0, "is_reserved": 0, "fusion_lat": 0.0, "lat": 38.86499633333333, "fusion_lon": 0.0, "rental_uris": {"ios": "https://dc.lft.to/lastmile_qr_scan", "android": "https://dc.lft.to/lastmile_qr_scan"}, "lon": -76.96990133333334, "bike_id": "a2ef7a657df2692c9ca50d7471f7f31c", "type": "electric_bike", "name": "a2ef7a657df2692c9ca50d7471f7f31c"}, {"is_disabled": 0, "is_reserved": 0, "fusion_lat": 0.0, "lat": 38.9196155, "fusion_lon": 0.0, "rental_uris": {"ios": "https://dc.lft.to/lastmile_qr_scan", "android": "https://dc.lft.to/lastmile_qr_scan"}, "lon": -77.01900583333334, "bike_id": "13f0220c4821079528d503e85efcb63d", "type": "electric_scooter", "name": "13f0220c4821079528d503e85efcb63d"}, {"is_disabled": 0, "is_reserved": 0, "fusion_lat": 0.0, "lat": 38.921313833333336, "fusion_lon": 0.0, "rental_uris": {"ios": "https://dc.lft.to/lastmile_qr_scan", "android": "https://dc.lft.to/lastmile_qr_scan"}, "lon": -77.017941, "bike_id": "06c567692cfdbe788f653aa5450db9f3", "type": "electric_scooter", "name": "06c567692cfdbe788f653aa5450db9f3"}, {"is_disabled": 0, "is_reserved": 0, "fusion_lat": 0.0, "lat": 38.9222465, "fusion_lon": 0.0, "rental_uris": {"ios": "https://dc.lft.to/lastmile_qr_scan", "android": "https://dc.lft.to/lastmile_qr_scan"}, "lon": -77.03896783333333, "bike_id": "4088689c3df60b2e83e39daf87b8b3e9", "type": "electric_scooter", "name": "4088689c3df60b2e83e39daf87b8b3e9"}, {"is_disabled": 0, "is_reserved": 0, "fusion_lat": 0.0, "lat": 38.91438216666667, "fusion_lon": 0.0, "rental_uris": {"ios": "https://dc.lft.to/lastmile_qr_scan", "android": "https://dc.lft.to/lastmile_qr_scan"}, "lon": -76.98430366666666, "bike_id": "e0843596ec39fd78b3875be243cf8bac", "type": "electric_scooter", "name": "e0843596ec39fd78b3875be243cf8bac"}, {"is_disabled": 0, "is_reserved": 0, "fusion_lat": 0.0, "lat": 38.87896533333333, "fusion_lon": 0.0, "rental_uris": {"ios": "https://dc.lft.to/lastmile_qr_scan", "android": "https://dc.lft.to/lastmile_qr_scan"}, "lon": -76.93531466666667, "bike_id": "b88c730479249e9762263a14b5cc6fad", "type": "electric_scooter", "name": "b88c730479249e9762263a14b5cc6fad"}, {"is_disabled": 0, "is_reserved": 0, "fusion_lat": 0.0, "lat": 38.8960675, "fusion_lon": 0.0, "rental_uris": {"ios": "https://dc.lft.to/lastmile_qr_scan", "android": "https://dc.lft.to/lastmile_qr_scan"}, "lon": -77.02659433333334, "bike_id": "733fbb4f462a6a91539c6b6b5751c01a", "type": "electric_scooter", "name": "733fbb4f462a6a91539c6b6b5751c01a"}, {"is_disabled": 0, "is_reserved": 0, "fusion_lat": 0.0, "lat": 38.91137966666667, "fusion_lon": 0.0, "rental_uris": {"ios": "https://dc.lft.to/lastmile_qr_scan", "android": "https://dc.lft.to/lastmile_qr_scan"}, "lon": -77.03207116666667, "bike_id": "638f21bd21f0a3b753de8d997cfca234", "type": "electric_scooter", "name": "638f21bd21f0a3b753de8d997cfca234"}, {"is_disabled": 0, "is_reserved": 0, "fusion_lat": 0.0, "lat": 38.9146865, "fusion_lon": 0.0, "rental_uris": {"ios": "https://dc.lft.to/lastmile_qr_scan", "android": "https://dc.lft.to/lastmile_qr_scan"}, "lon": -77.03186516666666, "bike_id": "d7950d34a2a9c78d632246f6059ef218", "type": "electric_scooter", "name": "d7950d34a2a9c78d632246f6059ef218"}, {"is_disabled": 0, "is_reserved": 0, "fusion_lat": 0.0, "lat": 38.89507433333333, "fusion_lon": 0.0, "rental_uris": {"ios": "https://dc.lft.to/lastmile_qr_scan", "android": "https://dc.lft.to/lastmile_qr_scan"}, "lon": -77.02291633333333, "bike_id": "10b520732eec2a92808dabc9730d424d", "type": "electric_scooter", "name": "10b520732eec2a92808dabc9730d424d"}, {"is_disabled": 0, "is_reserved": 0, "fusion_lat": 0.0, "lat": 38.92318483333333, "fusion_lon": 0.0, "rental_uris": {"ios": "https://dc.lft.to/lastmile_qr_scan", "android": "https://dc.lft.to/lastmile_qr_scan"}, "lon": -77.04178983333334, "bike_id": "4ac99cc780abeae09eb635d771010147", "type": "electric_scooter", "name": "4ac99cc780abeae09eb635d771010147"}, {"is_disabled": 0, "is_reserved": 0, "fusion_lat": 0.0, "lat": 38.930706, "fusion_lon": 0.0, "rental_uris": {"ios": "https://dc.lft.to/lastmile_qr_scan", "android": "https://dc.lft.to/lastmile_qr_scan"}, "lon": -77.04031166666667, "bike_id": "4388127dda567394a4930c5a7ad4dc24", "type": "electric_scooter", "name": "4388127dda567394a4930c5a7ad4dc24"}, {"is_disabled": 0, "is_reserved": 0, "fusion_lat": 0.0, "lat": 38.925519666666666, "fusion_lon": 0.0, "rental_uris": {"ios": "https://dc.lft.to/lastmile_qr_scan", "android": "https://dc.lft.to/lastmile_qr_scan"}, "lon": -77.00325483333333, "bike_id": "e2525e2db1d6bade42ae726c8df27568", "type": "electric_scooter", "name": "e2525e2db1d6bade42ae726c8df27568"}, {"is_disabled": 0, "is_reserved": 0, "fusion_lat": 0.0, "lat": 38.916304, "fusion_lon": 0.0, "rental_uris": {"ios": "https://dc.lft.to/lastmile_qr_scan", "android": "https://dc.lft.to/lastmile_qr_scan"}, "lon": -77.00853766666667, "bike_id": "37fab56ee108653c22eba7a09829ce3c", "type": "electric_scooter", "name": "37fab56ee108653c22eba7a09829ce3c"}, {"is_disabled": 0, "is_reserved": 0, "fusion_lat": 0.0, "lat": 38.874721666666666, "fusion_lon": 0.0, "rental_uris": {"ios": "https://dc.lft.to/lastmile_qr_scan", "android": "https://dc.lft.to/lastmile_qr_scan"}, "lon": -77.01073066666666, "bike_id": "0459734a9f23b872c46f1264fb7a44c4", "type": "electric_scooter", "name": "0459734a9f23b872c46f1264fb7a44c4"}, {"is_disabled": 0, "is_reserved": 0, "fusion_lat": 0.0, "lat": 38.909574666666664, "fusion_lon": 0.0, "rental_uris": {"ios": "https://dc.lft.to/lastmile_qr_scan", "android": "https://dc.lft.to/lastmile_qr_scan"}, "lon": -77.02311966666667, "bike_id": "61adc0ffba368247232bafd84e1b199f", "type": "electric_scooter", "name": "61adc0ffba368247232bafd84e1b199f"}, {"is_disabled": 0, "is_reserved": 0, "fusion_lat": 0.0, "lat": 38.88736383333333, "fusion_lon": 0.0, "rental_uris": {"ios": "https://dc.lft.to/lastmile_qr_scan", "android": "https://dc.lft.to/lastmile_qr_scan"}, "lon": -77.02208116666667, "bike_id": "7645e76fe2f627eb8ec3e85914ba0467", "type": "electric_scooter", "name": "7645e76fe2f627eb8ec3e85914ba0467"}, {"is_disabled": 0, "is_reserved": 0, "fusion_lat": 0.0, "lat": 38.93659, "fusion_lon": 0.0, "rental_uris": {"ios": "https://dc.lft.to/lastmile_qr_scan", "android": "https://dc.lft.to/lastmile_qr_scan"}, "lon": -77.06608833333334, "bike_id": "34066f036bac054840f6da0f05134f10", "type": "electric_scooter", "name": "34066f036bac054840f6da0f05134f10"}, {"is_disabled": 0, "is_reserved": 0, "fusion_lat": 0.0, "lat": 38.931207, "fusion_lon": 0.0, "rental_uris": {"ios": "https://dc.lft.to/lastmile_qr_scan", "android": "https://dc.lft.to/lastmile_qr_scan"}, "lon": -77.02072066666666, "bike_id": "de8700a4e3ee46ddfaac26d31329f204", "type": "electric_scooter", "name": "de8700a4e3ee46ddfaac26d31329f204"}, {"is_disabled": 0, "is_reserved": 0, "fusion_lat": 0.0, "lat": 38.882641166666666, "fusion_lon": 0.0, "rental_uris": {"ios": "https://dc.lft.to/lastmile_qr_scan", "android": "https://dc.lft.to/lastmile_qr_scan"}, "lon": -77.0007145, "bike_id": "884c98e51f01fd34d50aecca8f29b9b3", "type": "electric_scooter", "name": "884c98e51f01fd34d50aecca8f29b9b3"}, {"is_disabled": 0, "is_reserved": 0, "fusion_lat": 0.0, "lat": 38.92056383333333, "fusion_lon": 0.0, "rental_uris": {"ios": "https://dc.lft.to/lastmile_qr_scan", "android": "https://dc.lft.to/lastmile_qr_scan"}, "lon": -77.04389966666666, "bike_id": "5dfc2db713e644ce35eec7374adb1360", "type": "electric_scooter", "name": "5dfc2db713e644ce35eec7374adb1360"}, {"is_disabled": 0, "is_reserved": 0, "fusion_lat": 0.0, "lat": 38.928737, "fusion_lon": 0.0, "rental_uris": {"ios": "https://dc.lft.to/lastmile_qr_scan", "android": "https://dc.lft.to/lastmile_qr_scan"}, "lon": -77.05656833333333, "bike_id": "c5e271892456343f595b7a628e7f64a7", "type": "electric_scooter", "name": "c5e271892456343f595b7a628e7f64a7"}, {"is_disabled": 0, "is_reserved": 0, "fusion_lat": 0.0, "lat": 38.88038366666667, "fusion_lon": 0.0, "rental_uris": {"ios": "https://dc.lft.to/lastmile_qr_scan", "android": "https://dc.lft.to/lastmile_qr_scan"}, "lon": -76.9271865, "bike_id": "a1bc1d5d8120beb1f2fdbb561367d2ca", "type": "electric_scooter", "name": "a1bc1d5d8120beb1f2fdbb561367d2ca"}, {"is_disabled": 0, "is_reserved": 0, "fusion_lat": 0.0, "lat": 38.899119, "fusion_lon": 0.0, "rental_uris": {"ios": "https://dc.lft.to/lastmile_qr_scan", "android": "https://dc.lft.to/lastmile_qr_scan"}, "lon": -76.93379766666666, "bike_id": "5b49edef63a72ea9406f445b4b4d5238", "type": "electric_scooter", "name": "5b49edef63a72ea9406f445b4b4d5238"}, {"is_disabled": 0, "is_reserved": 0, "fusion_lat": 0.0, "lat": 38.895001666666666, "fusion_lon": 0.0, "rental_uris": {"ios": "https://dc.lft.to/lastmile_qr_scan", "android": "https://dc.lft.to/lastmile_qr_scan"}, "lon": -77.02199916666666, "bike_id": "7d084d8fd27db2b4ec6a5637fc5261b2", "type": "electric_scooter", "name": "7d084d8fd27db2b4ec6a5637fc5261b2"}, {"is_disabled": 0, "is_reserved": 0, "fusion_lat": 0.0, "lat": 38.90025633333333, "fusion_lon": 0.0, "rental_uris": {"ios": "https://dc.lft.to/lastmile_qr_scan", "android": "https://dc.lft.to/lastmile_qr_scan"}, "lon": -77.0332095, "bike_id": "48dd8a520b02ad53e6a56af9aa539dc0", "type": "electric_scooter", "name": "48dd8a520b02ad53e6a56af9aa539dc0"}, {"is_disabled": 0, "is_reserved": 0, "fusion_lat": 0.0, "lat": 38.922586333333335, "fusion_lon": 0.0, "rental_uris": {"ios": "https://dc.lft.to/lastmile_qr_scan", "android": "https://dc.lft.to/lastmile_qr_scan"}, "lon": -77.072781, "bike_id": "6f17a0b947701f443274e706fe4aa35d", "type": "electric_scooter", "name": "6f17a0b947701f443274e706fe4aa35d"}, {"is_disabled": 0, "is_reserved": 0, "fusion_lat": 0.0, "lat": 38.8292025, "fusion_lon": 0.0, "rental_uris": {"ios": "https://dc.lft.to/lastmile_qr_scan", "android": "https://dc.lft.to/lastmile_qr_scan"}, "lon": -77.06872733333333, "bike_id": "29100aeadc29d44f49f269131b9e3e26", "type": "electric_bike", "name": "29100aeadc29d44f49f269131b9e3e26"}, {"is_disabled": 0, "is_reserved": 0, "fusion_lat": 0.0, "lat": 38.91515183333333, "fusion_lon": 0.0, "rental_uris": {"ios": "https://dc.lft.to/lastmile_qr_scan", "android": "https://dc.lft.to/lastmile_qr_scan"}, "lon": -77.025949, "bike_id": "75dfe2d3444114d38b8706d0b9cae8e0", "type": "electric_scooter", "name": "75dfe2d3444114d38b8706d0b9cae8e0"}, {"is_disabled": 0, "is_reserved": 0, "fusion_lat": 0.0, "lat": 38.89233316666667, "fusion_lon": 0.0, "rental_uris": {"ios": "https://dc.lft.to/lastmile_qr_scan", "android": "https://dc.lft.to/lastmile_qr_scan"}, "lon": -77.03166133333333, "bike_id": "34c3983d5b6e727cf72d5fa133007fd5", "type": "electric_scooter", "name": "34c3983d5b6e727cf72d5fa133007fd5"}, {"is_disabled": 0, "is_reserved": 0, "fusion_lat": 0.0, "lat": 38.927595, "fusion_lon": 0.0, "rental_uris": {"ios": "https://dc.lft.to/lastmile_qr_scan", "android": "https://dc.lft.to/lastmile_qr_scan"}, "lon": -77.02953016666666, "bike_id": "07a0ec36b352a5dd4b8189699e668fca", "type": "electric_scooter", "name": "07a0ec36b352a5dd4b8189699e668fca"}, {"is_disabled": 0, "is_reserved": 0, "fusion_lat": 0.0, "lat": 38.91059933333333, "fusion_lon": 0.0, "rental_uris": {"ios": "https://dc.lft.to/lastmile_qr_scan", "android": "https://dc.lft.to/lastmile_qr_scan"}, "lon": -77.04091766666667, "bike_id": "cad2855a2e1b2f330ab9463722f14ae6", "type": "electric_scooter", "name": "cad2855a2e1b2f330ab9463722f14ae6"}, {"is_disabled": 0, "is_reserved": 0, "fusion_lat": 0.0, "lat": 38.923656666666666, "fusion_lon": 0.0, "rental_uris": {"ios": "https://dc.lft.to/lastmile_qr_scan", "android": "https://dc.lft.to/lastmile_qr_scan"}, "lon": -77.0431705, "bike_id": "59664b992e1c597df5967f796e218648", "type": "electric_scooter", "name": "59664b992e1c597df5967f796e218648"}, {"is_disabled": 0, "is_reserved": 0, "fusion_lat": 0.0, "lat": 38.914075833333335, "fusion_lon": 0.0, "rental_uris": {"ios": "https://dc.lft.to/lastmile_qr_scan", "android": "https://dc.lft.to/lastmile_qr_scan"}, "lon": -77.03226583333333, "bike_id": "2dfa41ae7b374ca844cadec2b17ab44a", "type": "electric_scooter", "name": "2dfa41ae7b374ca844cadec2b17ab44a"}, {"is_disabled": 0, "is_reserved": 0, "fusion_lat": 0.0, "lat": 38.93174416666667, "fusion_lon": 0.0, "rental_uris": {"ios": "https://dc.lft.to/lastmile_qr_scan", "android": "https://dc.lft.to/lastmile_qr_scan"}, "lon": -77.0281585, "bike_id": "528c673f14ab230c78bb27af583dbcbf", "type": "electric_scooter", "name": "528c673f14ab230c78bb27af583dbcbf"}, {"is_disabled": 0, "is_reserved": 0, "fusion_lat": 0.0, "lat": 38.92091766666667, "fusion_lon": 0.0, "rental_uris": {"ios": "https://dc.lft.to/lastmile_qr_scan", "android": "https://dc.lft.to/lastmile_qr_scan"}, "lon": -77.0231915, "bike_id": "721d656aaa23e881f716a02d4fa523e4", "type": "electric_scooter", "name": "721d656aaa23e881f716a02d4fa523e4"},