{"data": {"bikes": [{"bike_id": "29f29acea3068ffc008b608eb9721764", "lat": 38.874163833333334, "is_disabled": 0, "lon": -77.08573233333334, "fusion_lon": 0.0, "is_reserved": 0, "fusion_lat": 0.0, "rental_uris": {"android": "https://dc.lft.to/lastmile_qr_scan", "ios": "https://dc.lft.to/lastmile_qr_scan"}, "type": "electric_bike", "name": "29f29acea3068ffc008b608eb9721764"}, {"bike_id": "f70ad67dd9032dfd6584b96d110c614f", "lat": 38.876392, "is_disabled": 0, "lon": -77.000581, "fusion_lon": 0.0, "is_reserved": 0, "fusion_lat": 0.0, "rental_uris": {"android": "https://dc.lft.to/lastmile_qr_scan", "ios": "https://dc.lft.to/lastmile_qr_scan"}, "type": "electric_scooter", "name": "f70ad67dd9032dfd6584b96d110c614f"}, {"bike_id": "06807f06313b73b041b79d994133f087", "lat": 38.95109216666667, "is_disabled": 0, "lon": -77.03357683333333, "fusion_lon": 0.0, "is_reserved": 0, "fusion_lat": 0.0, "rental_uris": {"android": "https://dc.lft.to/lastmile_qr_scan", "ios": "https://dc.lft.to/lastmile_qr_scan"}, "type": "electric_scooter", "name": "06807f06313b73b041b79d994133f087"}, {"bike_id": "90672bc624c3cd83e43125ec6aef6730", "lat": 38.957039, "is_disabled": 0, "lon": -77.0240835, "fusion_lon": 0.0, "is_reserved": 0, "fusion_lat": 0.0, "rental_uris": {"android": "https://dc.lft.to/lastmile_qr_scan", "ios": "https://dc.lft.to/lastmile_qr_scan"}, "type": "electric_scooter", "name": "90672bc624c3cd83e43125ec6aef6730"}, {"bike_id": "9f2f5427dc91fecc7947cc3b08560ef1", "lat": 38.9359005, "is_disabled": 0, "lon": -77.03802383333333, "fusion_lon": 0.0, "is_reserved": 0, "fusion_lat": 0.0, "rental_uris": {"android": "https://dc.lft.to/lastmile_qr_scan", "ios": "https://dc.lft.to/lastmile_qr_scan"}, "type": "electric_scooter", "name": "9f2f5427dc91fecc7947cc3b08560ef1"}, {"bike_id": "d608f4231e0bfbc2e74c2bebfbfd743f", "lat": 38.927932, "is_disabled": 0, "lon": -77.0369995, "fusion_lon": 0.0, "is_reserved": 0, "fusion_lat": 0.0, "rental_uris": {"android": "https://dc.lft.to/lastmile_qr_scan", "ios": "https://dc.lft.to/lastmile_qr_scan"}, "type": "electric_scooter", "name": "d608f4231e0bfbc2e74c2bebfbfd743f"}, {"bike_id": "3b06e738cabb0c0adfbde4fe4344448c", "lat": 38.892231333333335, "is_disabled": 0, "lon": -77.0316055, "fusion_lon": 0.0, "is_reserved": 0, "fusion_lat": 0.0, "rental_uris": {"android": "https://dc.lft.to/lastmile_qr_scan", "ios": "https://dc.lft.to/lastmile_qr_scan"}, "type": "electric_scooter", "name": "3b06e738cabb0c0adfbde4fe4344448c"}, {"bike_id": "58cb6bef3b1555f54daa603ca4f26a46", "lat": 38.89814333333333, "is_disabled": 0, "lon": -77.02935033333333, "fusion_lon": 0.0, "is_reserved": 0, "fusion_lat": 0.0, "rental_uris": {"android": "https://dc.lft.to/lastmile_qr_scan", "ios": "https://dc.lft.to/lastmile_qr_scan"}, "type": "electric_scooter", "name": "58cb6bef3b1555f54daa603ca4f26a46"}, {"bike_id": "45f02f052d42ec2eddc2a4b16d23018a", "lat": 38.94611116666667, "is_disabled": 0, "lon": -77.07881683333333, "fusion_lon": 0.0, "is_reserved": 0, "fusion_lat": 0.0, "rental_uris": {"android": "https://dc.lft.to/lastmile_qr_scan", "ios": "https://dc.lft.to/lastmile_qr_scan"}, "type": "electric_scooter", "name": "45f02f052d42ec2eddc2a4b16d23018a"}, {"bike_id": "76c54070f4510ebc0de3a800dee5007a", "lat": 38.80752183333333, "is_disabled": 0, "lon": -77.09454183333334, "fusion_lon": 0.0, "is_reserved": 0, "fusion_lat": 0.0, "rental_uris": {"android": "https://dc.lft.to/lastmile_qr_scan", "ios": "https://dc.lft.to/lastmile_qr_scan"}, "type": "electric_bike", "name": "76c54070f4510ebc0de3a800dee5007a"}, {"bike_id": "05d9960a36b380cc38462c7bc8d2fd2d", "lat": 38.911021833333336, "is_disabled": 0, "lon": -77.020945, "fusion_lon": 0.0, "is_reserved": 0, "fusion_lat": 0.0, "rental_uris": {"android": "https://dc.lft.to/lastmile_qr_scan", "ios": "https://dc.lft.to/lastmile_qr_scan"}, "type": "electric_scooter", "name": "05d9960a36b380cc38462c7bc8d2fd2d"}, {"bike_id": "895d97df8d1870d86c215fab24d625a6", "lat": 38.923169333333334, "is_disabled": 0, "lon": -77.0199495, "fusion_lon": 0.0, "is_reserved": 0, "fusion_lat": 0.0, "rental_uris": {"android": "https://dc.lft.to/lastmile_qr_scan", "ios": "https://dc.lft.to/lastmile_qr_scan"}, "type": "electric_scooter", "name": "895d97df8d1870d86c215fab24d625a6"}, {"bike_id": "86ad5aaab56e6c1604791fd4db9e19ef", "lat": 38.9243125, "is_disabled": 0, "lon": -77.04477166666666, "fusion_lon": 0.0, "is_reserved": 0, "fusion_lat": 0.0, "rental_uris": {"android": "https://dc.lft.to/lastmile_qr_scan", "ios": "https://dc.lft.to/lastmile_qr_scan"}, "type": "electric_scooter", "name": "86ad5aaab56e6c1604791fd4db9e19ef"}, {"bike_id": "5b36af729ef86b04787f2350d5c42c2b", "lat": 38.903534666666665, "is_disabled": 0, "lon": -77.00737516666666, "fusion_lon": 0.0, "is_reserved": 0, "fusion_lat": 0.0, "rental_uris": {"android": "https://dc.lft.to/lastmile_qr_scan", "ios": "https://dc.lft.to/lastmile_qr_scan"}, "type": "electric_scooter", "name": "5b36af729ef86b04787f2350d5c42c2b"}, {"bike_id": "fad8d6ddf3622624044931d74d90b861", "lat": 38.9052515, "is_disabled": 0, "lon": -77.06361, "fusion_lon": 0.0, "is_reserved": 0, "fusion_lat": 0.0, "rental_uris": {"android": "https://dc.lft.to/lastmile_qr_scan", "ios": "https://dc.lft.to/lastmile_qr_scan"}, "type": "electric_scooter", "name": "fad8d6ddf3622624044931d74d90b861"}, {"bike_id": "61d2bd3b310ac0392f32c1ac8e935809", "lat": 38.9242055, "is_disabled": 0, "lon": -77.0204165, "fusion_lon": 0.0, "is_reserved": 0, "fusion_lat": 0.0, "rental_uris": {"android": "https://dc.lft.to/lastmile_qr_scan", "ios": "https://dc.lft.to/lastmile_qr_scan"}, "type": "electric_scooter", "name": "61d2bd3b310ac0392f32c1ac8e935809"}, {"bike_id": "2d18b4c22386aedc5118e235fcec7e11", "lat": 38.89221383333334, "is_disabled": 0, "lon": -77.04688066666667, "fusion_lon": 0.0, "is_reserved": 0, "fusion_lat": 0.0, "rental_uris": {"android": "https://dc.lft.to/lastmile_qr_scan", "ios": "https://dc.lft.to/lastmile_qr_scan"}, "type": "electric_scooter", "name": "2d18b4c22386aedc5118e235fcec7e11"}, {"bike_id": "443863244cbc7fa7ff368cc2c7dd87bc", "lat": 38.89505533333333, "is_disabled": 0, "lon": -77.00331766666666, "fusion_lon": 0.0, "is_reserved": 0, "fusion_lat": 0.0, "rental_uris": {"android": "https://dc.lft.to/lastmile_qr_scan", "ios": "https://dc.lft.to/lastmile_qr_scan"}, "type": "electric_scooter", "name": "443863244cbc7fa7ff368cc2c7dd87bc"}, {"bike_id": "2cbadea3c9adae974132738f1012c91e", "lat": 38.90461666666667, "is_disabled": 0, "lon": -77.00608116666666, "fusion_lon": 0.0, "is_reserved": 0, "fusion_lat": 0.0, "rental_uris": {"android": "https://dc.lft.to/lastmile_qr_scan", "ios": "https://dc.lft.to/lastmile_qr_scan"}, "type": "electric_scooter", "name": "2cbadea3c9adae974132738f1012c91e"}, {"bike_id": "ea51daa036156c5ff8bd042c445e8b5d", "lat": 38.93836916666667, "is_disabled": 0, "lon": -77.033793, "fusion_lon": 0.0, "is_reserved": 0, "fusion_lat": 0.0, "rental_uris": {"android": "https://dc.lft.to/lastmile_qr_scan", "ios": "https://dc.lft.to/lastmile_qr_scan"}, "type": "electric_scooter", "name": "ea51daa036156c5ff8bd042c445e8b5d"}, {"bike_id": "f74f6974c97f1f545cbe4cc5801d69e1", "lat": 38.957793, "is_disabled": 0, "lon": -77.0246525, "fusion_lon": 0.0, "is_reserved": 0, "fusion_lat": 0.0, "rental_uris": {"android": "https://dc.lft.to/lastmile_qr_scan", "ios": "https://dc.lft.to/lastmile_qr_scan"}, "type": "electric_scooter", "name": "f74f6974c97f1f545cbe4cc5801d69e1"}, {"bike_id": "61e785acfac400b9f63cbaed8b6c640f", "lat": 38.88999116666667, "is_disabled": 0, "lon": -77.003462, "fusion_lon": 0.0, "is_reserved": 0, "fusion_lat": 0.0, "rental_uris": {"android": "https://dc.lft.to/lastmile_qr_scan", "ios": "https://dc.lft.to/lastmile_qr_scan"}, "type": "electric_scooter", "name": "61e785acfac400b9f63cbaed8b6c640f"}, {"bike_id": "570b6d092c7d2a76e0f8cef79687a723", "lat": 38.91955633333333, "is_disabled": 0, "lon": -77.0269945, "fusion_lon": 0.0, "is_reserved": 0, "fusion_lat": 0.0, "rental_uris": {"android": "https://dc.lft.to/lastmile_qr_scan", "ios": "https://dc.lft.to/lastmile_qr_scan"}, "type": "electric_scooter", "name": "570b6d092c7d2a76e0f8cef79687a723"}, {"bike_id": "1fee449157d364345793b66fee1753eb", "lat": 38.92705083333333, "is_disabled": 0, "lon": -77.023457, "fusion_lon": 0.0, "is_reserved": 0, "fusion_lat": 0.0, "rental_uris": {"android": "https://dc.lft.to/lastmile_qr_scan", "ios": "https://dc.lft.to/lastmile_qr_scan"}, "type": "electric_scooter", "name": "1fee449157d364345793b66fee1753eb"}, {"bike_id": "e64ff32f6c43b4e4654d8fa496960902", "lat": 38.8938415, "is_disabled": 0, "lon": -76.9230915, "fusion_lon": 0.0, "is_reserved": 0, "fusion_lat": 0.0, "rental_uris": {"android": "https://dc.lft.to/lastmile_qr_scan", "ios": "https://dc.lft.to/lastmile_qr_scan"}, "type": "electric_scooter", "name": "e64ff32f6c43b4e4654d8fa496960902"}, {"bike_id": "0f7b1a1c398666f47ffb7fb69b852187", "lat": 38.917684333333334, "is_disabled": 0, "lon": -77.02343816666666, "fusion_lon": 0.0, "is_reserved": 0, "fusion_lat": 0.0, "rental_uris": {"android": "https://dc.lft.to/lastmile_qr_scan", "ios": "https://dc.lft.to/lastmile_qr_scan"}, "type": "electric_scooter", "name": "0f7b1a1c398666f47ffb7fb69b852187"}, {"bike_id": "fd0efeb1e487955de4cc3ef29b19b569", "lat": 38.91863016666667, "is_disabled": 0, "lon": -77.0448815, "fusion_lon": 0.0, "is_reserved": 0, "fusion_lat": 0.0, "rental_uris": {"android": "https://dc.lft.to/lastmile_qr_scan", "ios": "https://dc.lft.to/lastmile_qr_scan"}, "type": "electric_scooter", "name": "fd0efeb1e487955de4cc3ef29b19b569"}, {"bike_id": "0a0b1a76cd58f018ca140913c418bd1c", "lat": 38.922856, "is_disabled": 0, "lon": -77.02710283333333, "fusion_lon": 0.0, "is_reserved": 0, "fusion_lat": 0.0, "rental_uris": {"android": "https://dc.lft.to/lastmile_qr_scan", "ios": "https://dc.lft.to/lastmile_qr_scan"}, "type": "electric_scooter", "name": "0a0b1a76cd58f018ca140913c418bd1c"}, {"bike_id": "c7667b4556a16b49577dc339d8bd5946", "lat": 38.8961815, "is_disabled": 0, "lon": -77.02406916666666, "fusion_lon": 0.0, "is_reserved": 0, "fusion_lat": 0.0, "rental_uris": {"android": "https://dc.lft.to/lastmile_qr_scan", "ios": "https://dc.lft.to/lastmile_qr_scan"}, "type": "electric_scooter", "name": "c7667b4556a16b49577dc339d8bd5946"}, {"bike_id": "cab4c69a2a39f2a6f43793abf50a4759", "lat": 38.9077515, "is_disabled": 0, "lon": -77.0724685, "fusion_lon": 0.0, "is_reserved": 0, "fusion_lat": 0.0, "rental_uris": {"android": "https://dc.lft.to/lastmile_qr_scan", "ios": "https://dc.lft.to/lastmile_qr_scan"}, "type": "electric_scooter", "name": "cab4c69a2a39f2a6f43793abf50a4759"}, {"bike_id": "0813ac7b8c7566c706efc7f8b3f14ec4", "lat": 38.895429166666666, "is_disabled": 0, "lon": -77.0218195, "fusion_lon": 0.0, "is_reserved": 0, "fusion_lat": 0.0, "rental_uris": {"android": "https://dc.lft.to/lastmile_qr_scan", "ios": "https://dc.lft.to/lastmile_qr_scan"}, "type": "electric_scooter", "name": "0813ac7b8c7566c706efc7f8b3f14ec4"}, {"bike_id": "d79013623a1bdf2307d0ee5c6f98a775", "lat": 38.89761133333333, "is_disabled": 0, "lon": -76.98650033333334, "fusion_lon": 0.0, "is_reserved": 0, "fusion_lat": 0.0, "rental_uris": {"android": "https://dc.lft.to/lastmile_qr_scan", "ios": "https://dc.lft.to/lastmile_qr_scan"}, "type": "electric_scooter", "name": "d79013623a1bdf2307d0ee5c6f98a775"}, {"bike_id": "ac1db7e580fa5b09a417b6377870b6a6", "lat": 38.9026675, "is_disabled": 0, "lon": -77.04561633333333, "fusion_lon": 0.0, "is_reserved": 0, "fusion_lat": 0.0, "rental_uris": {"android": "https://dc.lft.to/lastmile_qr_scan", "ios": "https://dc.lft.to/lastmile_qr_scan"}, "type": "electric_scooter", "name": "ac1db7e580fa5b09a417b6377870b6a6"}, {"bike_id": "ea9e8196f336ea38169f5dac2b64a936", "lat": 38.91318416666667, "is_disabled": 0, "lon": -77.0200195, "fusion_lon": 0.0, "is_reserved": 0, "fusion_lat": 0.0, "rental_uris": {"android": "https://dc.lft.to/lastmile_qr_scan", "ios": "https://dc.lft.to/lastmile_qr_scan"}, "type": "electric_scooter", "name": "ea9e8196f336ea38169f5dac2b64a936"}, {"bike_id": "103c1312799c98801af48e1d1c6c604a", "lat": 38.881163, "is_disabled": 0, "lon": -77.02719516666667, "fusion_lon": 0.0, "is_reserved": 0, "fusion_lat": 0.0, "rental_uris": {"android": "https://dc.lft.to/lastmile_qr_scan", "ios": "https://dc.lft.to/lastmile_qr_scan"}, "type": "electric_scooter", "name": "103c1312799c98801af48e1d1c6c604a"}, {"bike_id": "245f5ac058c65b401286cf4e296727b3", "lat": 38.898529833333335, "is_disabled": 0, "lon": -77.02845433333333, "fusion_lon": 0.0, "is_reserved": 0, "fusion_lat": 0.0, "rental_uris": {"android": "https://dc.lft.to/lastmile_qr_scan", "ios": "https://dc.lft.to/lastmile_qr_scan"}, "type": "electric_scooter", "name": "245f5ac058c65b401286cf4e296727b3"}, {"bike_id": "3786716d596d3aeceb144dba20288ba0", "lat": 38.89648233333333, "is_disabled": 0, "lon": -77.04008766666666, "fusion_lon": 0.0, "is_reserved": 0, "fusion_lat": 0.0, "rental_uris": {"android": "https://dc.lft.to/lastmile_qr_scan", "ios": "https://dc.lft.to/lastmile_qr_scan"}, "type": "electric_scooter", "name": "3786716d596d3aeceb144dba20288ba0"}, {"bike_id": "2d1645beab093ffe051bf7126393dc81", "lat": 38.8924925, "is_disabled": 0, "lon": -77.02205766666667, "fusion_lon": 0.0, "is_reserved": 0, "fusion_lat": 0.0, "rental_uris": {"android": "https://dc.lft.to/lastmile_qr_scan", "ios": "https://dc.lft.to/lastmile_qr_scan"}, "type": "electric_scooter", "name": "2d1645beab093ffe051bf7126393dc81"}, {"bike_id": "1d438d8f1ab9c688df54843fa4d9f7ef", "lat": 38.9261, "is_disabled": 0, "lon": -77.02160216666667, "fusion_lon": 0.0, "is_reserved": 0, "fusion_lat": 0.0, "rental_uris": {"android": "https://dc.lft.to/lastmile_qr_scan", "ios": "https://dc.lft.to/lastmile_qr_scan"}, "type": "electric_scooter", "name": "1d438d8f1ab9c688df54843fa4d9f7ef"}, {"bike_id": "b176a7a8094812207c2e57acf4b59162", "lat": 38.8874705, "is_disabled": 0, "lon": -76.9923155, "fusion_lon": 0.0, "is_reserved": 0, "fusion_lat": 0.0, "rental_uris": {"android": "https://dc.lft.to/lastmile_qr_scan", "ios": "https://dc.lft.to/lastmile_qr_scan"}, "type": "electric_scooter", "name": "b176a7a8094812207c2e57acf4b59162"}, {"bike_id": "b4d518ac354282d851a4f618e59a271a", "lat": 38.884908333333335, "is_disabled": 0, "lon": -77.00712033333333, "fusion_lon": 0.0, "is_reserved": 0, "fusion_lat": 0.0, "rental_uris": {"android": "https://dc.lft.to/lastmile_qr_scan", "ios": "https://dc.lft.to/lastmile_qr_scan"}, "type": "electric_scooter", "name": "b4d518ac354282d851a4f618e59a271a"}, {"bike_id": "7828a3046a944d766b993967d7a016ea", "lat": 38.90534816666667, "is_disabled": 0, "lon": -77.0074385, "fusion_lon": 0.0, "is_reserved": 0, "fusion_lat": 0.0, "rental_uris": {"android": "https://dc.lft.to/lastmile_qr_scan", "ios": "https://dc.lft.to/lastmile_qr_scan"}, "type": "electric_scooter", "name": "7828a3046a944d766b993967d7a016ea"}, {"bike_id": "cb966c4c917ceeabd2ffc8e424dfd1a9", "lat": 38.92625566666667, "is_disabled": 0, "lon": -76.9961835, "fusion_lon": 0.0, "is_reserved": 0, "fusion_lat": 0.0, "rental_uris": {"android": "https://dc.lft.to/lastmile_qr_scan", "ios": "https://dc.lft.to/lastmile_qr_scan"}, "type": "electric_scooter", "name": "cb966c4c917ceeabd2ffc8e424dfd1a9"}, {"bike_id": "821aa69a2f7ddb3f01422016c65991bf", "lat": 38.91566133333333, "is_disabled": 0, "lon": -77.0200415, "fusion_lon": 0.0, "is_reserved": 0, "fusion_lat": 0.0, "rental_uris": {"android": "https://dc.lft.to/lastmile_qr_scan", "ios": "https://dc.lft.to/lastmile_qr_scan"}, "type": "electric_scooter", "name": "821aa69a2f7ddb3f01422016c65991bf"}, {"bike_id": "ae06c15bfda2f3c480a14c2cd1b04188", "lat": 39.015648166666665, "is_disabled": 0, "lon": -77.04425216666667, "fusion_lon": 0.0, "is_reserved": 0, "fusion_lat": 0.0, "rental_uris": {"android": "https://dc.lft.to/lastmile_qr_scan", "ios": "https://dc.lft.to/lastmile_qr_scan"}, "type": "electric_bike", "name": "ae06c15bfda2f3c480a14c2cd1b04188"}, {"bike_id": "236636819f7db82b68c438ba7ea5264b", "lat": 38.89265833333333, "is_disabled": 0, "lon": -77.04205533333334, "fusion_lon": 0.0, "is_reserved": 0, "fusion_lat": 0.0, "rental_uris": {"android": "https://dc.lft.to/lastmile_qr_scan", "ios": "https://dc.lft.to/lastmile_qr_scan"}, "type": "electric_scooter", "name": "236636819f7db82b68c438ba7ea5264b"}, {"bike_id": "84057a5b44bb7e4a60f9a80c64b4de59", "lat": 38.89193233333334, "is_disabled": 0, "lon": -77.00291816666666, "fusion_lon": 0.0, "is_reserved": 0, "fusion_lat": 0.0, "rental_uris": {"android": "https://dc.lft.to/lastmile_qr_scan", "ios": "https://dc.lft.to/lastmile_qr_scan"}, "type": "electric_scooter", "name": "84057a5b44bb7e4a60f9a80c64b4de59"}, {"bike_id": "53576164718278f205f1b7d513743905", "lat": 38.897337, "is_disabled": 0, "lon": -77.00779233333333, "fusion_lon": 0.0, "is_reserved": 0, "fusion_lat": 0.0, "rental_uris": {"android": "https://dc.lft.to/lastmile_qr_scan", "ios": "https://dc.lft.to/lastmile_qr_scan"}, "type": "electric_scooter", "name": "53576164718278f205f1b7d513743905"}, {"bike_id": "aaa1f5511aa41f20659fcf4fd79187b9", "lat": 38.871714833333336, "is_disabled": 0, "lon": -77.00580583333333, "fusion_lon": 0.0, "is_reserved": 0, "fusion_lat": 0.0, "rental_uris": {"android": "https://dc.lft.to/lastmile_qr_scan", "ios": "https://dc.lft.to/lastmile_qr_scan"}, "type": "electric_scooter", "name": "aaa1f5511aa41f20659fcf4fd79187b9"}, {"bike_id": "995179a68977c3dd61f49b47a15aaee5", "lat": 38.89174216666667, "is_disabled": 0, "lon": -76.9266175, "fusion_lon": 0.0, "is_reserved": 0, "fusion_lat": 0.0, "rental_uris": {"android": "https://dc.lft.to/lastmile_qr_scan", "ios": "https://dc.lft.to/lastmile_qr_scan"}, "type": "electric_scooter", "name": "995179a68977c3dd61f49b47a15aaee5"}, {"bike_id": "b914fc3c686c065ced322fc2d6fbda79", "lat": 38.89222866666667, "is_disabled": 0, "lon": -77.04512133333333, "fusion_lon": 0.0, "is_reserved": 0, "fusion_lat": 0.0, "rental_uris": {"android": "https://dc.lft.to/lastmile_qr_scan", "ios": "https://dc.lft.to/lastmile_qr_scan"}, "type": "electric_scooter", "name": "b914fc3c686c065ced322fc2d6fbda79"}, {"bike_id": "caa66de827d20fc9c75317bc4f53cee5", "lat": 38.88626133333333, "is_disabled": 0, "lon": -77.02218433333333, "fusion_lon": 0.0, "is_reserved": 0, "fusion_lat": 0.0, "rental_uris": {"android": "https://dc.lft.to/lastmile_qr_scan", "ios": "https://dc.lft.to/lastmile_qr_scan"}, "type": "electric_scooter", "name": "caa66de827d20fc9c75317bc4f53cee5"}, {"bike_id": "39ecf3d3fba6e91edf8a2258bc212d2f", "lat": 38.918424333333334, "is_disabled": 0, "lon": -77.089971, "fusion_lon": 0.0, "is_reserved": 0, "fusion_lat": 0.0, "rental_uris": {"android": "https://dc.lft.to/lastmile_qr_scan", "ios": "https://dc.lft.to/lastmile_qr_scan"}, "type": "electric_scooter", "name": "39ecf3d3fba6e91edf8a2258bc212d2f"}, {"bike_id": "236754b8e8c12ae0d969ed0141026de8", "lat": 38.88714933333333, "is_disabled": 0, "lon": -77.02206266666667, "fusion_lon": 0.0, "is_reserved": 0, "fusion_lat": 0.0, "rental_uris": {"android": "https://dc.lft.to/lastmile_qr_scan", "ios": "https://dc.lft.to/lastmile_qr_scan"}, "type": "electric_scooter", "name": "236754b8e8c12ae0d969ed0141026de8"}, {"bike_id": "26f189feb088e48184423e5b04c2eb6f", "lat": 38.91788, "is_disabled": 0, "lon": -77.02314266666667, "fusion_lon": 0.0, "is_reserved": 0, "fusion_lat": 0.0, "rental_uris": {"android": "https://dc.lft.to/lastmile_qr_scan", "ios": "https://dc.lft.to/lastmile_qr_scan"}, "type": "electric_scooter", "name": "26f189feb088e48184423e5b04c2eb6f"}, {"bike_id": "c456b99f455ce4a8900a72646ded4208", "lat": 38.919814833333334, "is_disabled": 0, "lon": -77.04086033333333, "fusion_lon": 0.0, "is_reserved": 0, "fusion_lat": 0.0, "rental_uris": {"android": "https://dc.lft.to/lastmile_qr_scan", "ios": "https://dc.lft.to/lastmile_qr_scan"}, "type": "electric_scooter", "name": "c456b99f455ce4a8900a72646ded4208"}, {"bike_id": "5cf555b237752e4637602a76cfea55cb", "lat": 38.90027333333333, "is_disabled": 0, "lon": -76.991939, "fusion_lon": 0.0, "is_reserved": 0, "fusion_lat": 0.0, "rental_uris": {"android": "https://dc.lft.to/lastmile_qr_scan", "ios": "https://dc.lft.to/lastmile_qr_scan"}, "type": "electric_scooter", "name": "5cf555b237752e4637602a76cfea55cb"}, {"bike_id": "b37b31fa4e7dad6ba907e179dca9a98f", "lat": 38.81989683333333, "is_disabled": 0, "lon": -76.99814983333333, "fusion_lon": 0.0, "is_reserved": 0, "fusion_lat": 0.0, "rental_uris": {"android": "https://dc.lft.to/lastmile_qr_scan", "ios": "https://dc.lft.to/lastmile_qr_scan"}, "type": "electric_bike", "name": "b37b31fa4e7dad6ba907e179dca9a98f"}, {"bike_id": "f6d3875036521c432ffb42f677584d3a", "lat": 38.895836833333334, "is_disabled": 0, "lon": -77.04756983333333, "fusion_lon": 0.0, "is_reserved": 0, "fusion_lat": 0.0, "rental_uris": {"android": "https://dc.lft.to/lastmile_qr_scan", "ios": "https://dc.lft.to/lastmile_qr_scan"}, "type": "electric_scooter", "name": "f6d3875036521c432ffb42f677584d3a"}, {"bike_id": "6fae84adf4204baa6874f8f45de7c9da", "lat": 38.912023166666664, "is_disabled": 0, "lon": -76.9877145, "fusion_lon": 0.0, "is_reserved": 0, "fusion_lat": 0.0, "rental_uris": {"android": "https://dc.lft.to/lastmile_qr_scan", "ios": "https://dc.lft.to/lastmile_qr_scan"}, "type": "electric_scooter", "name": "6fae84adf4204baa6874f8f45de7c9da"}, {"bike_id": "f787f9bd75b8995ce66ef33c6078ed52", "lat": 38.905108, "is_disabled": 0, "lon": -77.06324166666667, "fusion_lon": 0.0, "is_reserved": 0, "fusion_lat": 0.0, "rental_uris": {"android": "https://dc.lft.to/lastmile_qr_scan", "ios": "https://dc.lft.to/lastmile_qr_scan"}, "type": "electric_scooter", "name": "f787f9bd75b8995ce66ef33c6078ed52"}, {"bike_id": "1716a81eed563f29c52f7ed0c4607f9f", "lat": 38.899049166666664, "is_disabled": 0, "lon": -77.00343383333333, "fusion_lon": 0.0, "is_reserved": 0, "fusion_lat": 0.0, "rental_uris": {"android": "https://dc.lft.to/lastmile_qr_scan", "ios": "https://dc.lft.to/lastmile_qr_scan"}, "type": "electric_scooter", "name": "1716a81eed563f29c52f7ed0c4607f9f"}, {"bike_id": "edff5a44c8b2ba9023c9bbc498897e1a", "lat": 38.88022466666666, "is_disabled": 0, "lon": -76.91719216666667, "fusion_lon": 0.0, "is_reserved": 0, "fusion_lat": 0.0, "rental_uris": {"android": "https://dc.lft.to/lastmile_qr_scan", "ios": "https://dc.lft.to/lastmile_qr_scan"}, "type": "electric_bike", "name": "edff5a44c8b2ba9023c9bbc498897e1a"}, {"bike_id": "e0c1bfaf884cb757e46ed7271f2bf66d", "lat": 38.9239825, "is_disabled": 0, "lon": -77.024332, "fusion_lon": 0.0, "is_reserved": 0, "fusion_lat": 0.0, "rental_uris": {"android": "https://dc.lft.to/lastmile_qr_scan", "ios": "https://dc.lft.to/lastmile_qr_scan"}, "type": "electric_scooter", "name": "e0c1bfaf884cb757e46ed7271f2bf66d"}, {"bike_id": "24d403329d5bd46879efd77ebd765cd6", "lat": 38.92253133333333, "is_disabled": 0, "lon": -77.021121, "fusion_lon": 0.0, "is_reserved": 0, "fusion_lat": 0.0, "rental_uris": {"android": "https://dc.lft.to/lastmile_qr_scan", "ios": "https://dc.lft.to/lastmile_qr_scan"}, "type": "electric_scooter", "name": "24d403329d5bd46879efd77ebd765cd6"}, {"bike_id": "fc9bd31fe33f116a89ad95dd703dbb35", "lat": 38.917939, "is_disabled": 0, "lon": -77.0343225, "fusion_lon": 0.0, "is_reserved": 0, "fusion_lat": 0.0, "rental_uris": {"android": "https://dc.lft.to/lastmile_qr_scan", "ios": "https://dc.lft.to/lastmile_qr_scan"}, "type": "electric_scooter", "name": "fc9bd31fe33f116a89ad95dd703dbb35"}, {"bike_id": "37d4f7c364255a316f374f418273458d", "lat": 38.9056665, "is_disabled": 0, "lon": -77.00784883333333, "fusion_lon": 0.0, "is_reserved": 0, "fusion_lat": 0.0, "rental_uris": {"android": "https://dc.lft.to/lastmile_qr_scan", "ios": "https://dc.lft.to/lastmile_qr_scan"}, "type": "electric_scooter", "name": "37d4f7c364255a316f374f418273458d"}, {"bike_id": "36d97ad20586cb32886824cc2c3975c8", "lat": 38.896997999999996, "is_disabled": 0, "lon": -77.0302715, "fusion_lon": 0.0, "is_reserved": 0, "fusion_lat": 0.0, "rental_uris": {"android": "https://dc.lft.to/lastmile_qr_scan", "ios": "https://dc.lft.to/lastmile_qr_scan"}, "type": "electric_scooter", "name": "36d97ad20586cb32886824cc2c3975c8"}, {"bike_id": "fb22c64bdabc8f0111b9664406bf8c64", "lat": 38.902854, "is_disabled": 0, "lon": -77.04617, "fusion_lon": 0.0, "is_reserved": 0, "fusion_lat": 0.0, "rental_uris": {"android": "https://dc.lft.to/lastmile_qr_scan", "ios": "https://dc.lft.to/lastmile_qr_scan"}, "type": "electric_scooter", "name": "fb22c64bdabc8f0111b9664406bf8c64"}, {"bike_id": "ecf06a1cb97298eba4153ac06b17a56e", "lat": 38.89502866666667, "is_disabled": 0, "lon": -76.9347715, "fusion_lon": 0.0, "is_reserved": 0, "fusion_lat": 0.0, "rental_uris": {"android": "https://dc.lft.to/lastmile_qr_scan", "ios": "https://dc.lft.to/lastmile_qr_scan"}, "type": "electric_scooter", "name": "ecf06a1cb97298eba4153ac06b17a56e"}, {"bike_id": "4c73e68b63fd8a3d9f531538c75883c5", "lat": 38.93158416666667, "is_disabled": 0, "lon": -77.028849, "fusion_lon": 0.0, "is_reserved": 0, "fusion_lat": 0.0, "rental_uris": {"android": "https://dc.lft.to/lastmile_qr_scan", "ios": "https://dc.lft.to/lastmile_qr_scan"}, "type": "electric_scooter", "name": "4c73e68b63fd8a3d9f531538c75883c5"}, {"bike_id": "0b78c9877562318e06dd493367c8795c", "lat": 38.900073666666664, "is_disabled": 0, "lon": -76.98896583333334, "fusion_lon": 0.0, "is_reserved": 0, "fusion_lat": 0.0, "rental_uris": {"android": "https://dc.lft.to/lastmile_qr_scan", "ios": "https://dc.lft.to/lastmile_qr_scan"}, "type": "electric_scooter", "name": "0b78c9877562318e06dd493367c8795c"}, {"bike_id": "2e83981efd9483e25b49bbb9fb727c24", "lat": 38.9034175, "is_disabled": 0, "lon": -77.034571, "fusion_lon": 0.0, "is_reserved": 0, "fusion_lat": 0.0, "rental_uris": {"android": "https://dc.lft.to/lastmile_qr_scan", "ios": "https://dc.lft.to/lastmile_qr_scan"}, "type": "electric_scooter", "name": "2e83981efd9483e25b49bbb9fb727c24"}, {"bike_id": "3fc694dc4e15a6d89116e535228e427e", "lat": 38.89779633333333, "is_disabled": 0, "lon": -77.01358283333333, "fusion_lon": 0.0, "is_reserved": 0, "fusion_lat": 0.0, "rental_uris": {"android": "https://dc.lft.to/lastmile_qr_scan", "ios": "https://dc.lft.to/lastmile_qr_scan"}, "type": "electric_bike", "name": "3fc694dc4e15a6d89116e535228e427e"}, {"bike_id": "c6a1dbabf22988d598afe3cc21fa1b81", "lat": 38.913538833333334, "is_disabled": 0, "lon": -77.04556183333334, "fusion_lon": 0.0, "is_reserved": 0, "fusion_lat": 0.0, "rental_uris": {"android": "https://dc.lft.to/lastmile_qr_scan", "ios": "https://dc.lft.to/lastmile_qr_scan"}, "type": "electric_scooter", "name": "c6a1dbabf22988d598afe3cc21fa1b81"}, {"bike_id": "ae72e35b5b3b45e6cb4b7713ea7cde54", "lat": 38.906433, "is_disabled": 0, "lon": -76.9802655, "fusion_lon": 0.0, "is_reserved": 0, "fusion_lat": 0.0, "rental_uris": {"android": "https://dc.lft.to/lastmile_qr_scan", "ios": "https://dc.lft.to/lastmile_qr_scan"}, "type": "electric_scooter", "name": "ae72e35b5b3b45e6cb4b7713ea7cde54"}, {"bike_id": "c73f4717ff925d332c9af4e0f9e128ac", "lat": 38.90994233333333, "is_disabled": 0, "lon": -76.994527, "fusion_lon": 0.0, "is_reserved": 0, "fusion_lat": 0.0, "rental_uris": {"android": "https://dc.lft.to/lastmile_qr_scan", "ios": "https://dc.lft.to/lastmile_qr_scan"}, "type": "electric_scooter", "name": "c73f4717ff925d332c9af4e0f9e128ac"}, {"bike_id": "b59b6f361f064a021e52315fe9bfc0ce", "lat": 38.91187016666667, "is_disabled": 0, "lon": -77.01082283333334, "fusion_lon": 0.0, "is_reserved": 0, "fusion_lat": 0.0, "rental_uris": {"android": "https://dc.lft.to/lastmile_qr_scan", "ios": "https://dc.lft.to/lastmile_qr_scan"}, "type": "electric_scooter", "name": "b59b6f361f064a021e52315fe9bfc0ce"}, {"bike_id": "9640c97fefcb7447ffcc4cb2bcb99681", "lat": 38.918584333333335, "is_disabled": 0, "lon": -77.02413883333334, "fusion_lon": 0.0, "is_reserved": 0, "fusion_lat": 0.0, "rental_uris": {"android": "https://dc.lft.to/lastmile_qr_scan", "ios": "https://dc.lft.to/lastmile_qr_scan"}, "type": "electric_scooter", "name": "9640c97fefcb7447ffcc4cb2bcb99681"}, {"bike_id": "851357f4accfd03e593e0a7785473a28", "lat": 38.90321316666667, "is_disabled": 0, "lon": -77.03221466666666, "fusion_lon": 0.0, "is_reserved": 0, "fusion_lat": 0.0, "rental_uris": {"android": "https://dc.lft.to/lastmile_qr_scan", "ios": "https://dc.lft.to/lastmile_qr_scan"}, "type": "electric_scooter", "name": "851357f4accfd03e593e0a7785473a28"}, {"bike_id": "4116c0f431c0df08563daa9f059e29e9", "lat": 38.94191083333333, "is_disabled": 0, "lon": -77.02444783333333, "fusion_lon": 0.0, "is_reserved": 0, "fusion_lat": 0.0, "rental_uris": {"android": "https://dc.lft.to/lastmile_qr_scan", "ios": "https://dc.lft.to/lastmile_qr_scan"}, "type": "electric_scooter", "name": "4116c0f431c0df08563daa9f059e29e9"}, {"bike_id": "8f32ff5e5dd1014e5be26d2693c6cdbe", "lat": 38.933069833333334, "is_disabled": 0, "lon": -77.0327285, "fusion_lon": 0.0, "is_reserved": 0, "fusion_lat": 0.0, "rental_uris": {"android": "https://dc.lft.to/lastmile_qr_scan", "ios": "https://dc.lft.to/lastmile_qr_scan"}, "type": "electric_scooter", "name": "8f32ff5e5dd1014e5be26d2693c6cdbe"}, {"bike_id": "3d84d4a414b2ea25af6304af457cf896", "lat": 38.907522166666666, "is_disabled": 0, "lon": -77.02302333333333, "fusion_lon": 0.0, "is_reserved": 0, "fusion_lat": 0.0, "rental_uris": {"android": "https://dc.lft.to/lastmile_qr_scan", "ios": "https://dc.lft.to/lastmile_qr_scan"}, "type": "electric_scooter", "name": "3d84d4a414b2ea25af6304af457cf896"}, {"bike_id": "aeb3d44592652ef0236d3d5838ae3918", "lat": 38.9126955, "is_disabled": 0, "lon": -77.017687, "fusion_lon": 0.0, "is_reserved": 0, "fusion_lat": 0.0, "rental_uris": {"android": "https://dc.lft.to/lastmile_qr_scan", "ios": "https://dc.lft.to/lastmile_qr_scan"}, "type": "electric_scooter", "name": "aeb3d44592652ef0236d3d5838ae3918"}, {"bike_id": "cc78f39e77b665753e0328b0395b9271", "lat": 38.89632666666667, "is_disabled": 0, "lon": -77.04673133333333, "fusion_lon": 0.0, "is_reserved": 0, "fusion_lat": 0.0, "rental_uris": {"android": "https://dc.lft.to/lastmile_qr_scan", "ios": "https://dc.lft.to/lastmile_qr_scan"}, "type": "electric_scooter", "name": "cc78f39e77b665753e0328b0395b9271"}, {"bike_id": "1226371544c423b8216bd6037a3a46e8", "lat": 38.910473, "is_disabled": 0, "lon": -77.01989533333334, "fusion_lon": 0.0, "is_reserved": 0, "fusion_lat": 0.0, "rental_uris": {"android": "https://dc.lft.to/lastmile_qr_scan", "ios": "https://dc.lft.to/lastmile_qr_scan"}, "type": "electric_scooter", "name": "1226371544c423b8216bd6037a3a46e8"}, {"bike_id": "c3c9fac8927e4fb57e29f722a9470685", "lat": 38.917069166666664, "is_disabled": 0, "lon": -77.0335065, "fusion_lon": 0.0, "is_reserved": 0, "fusion_lat": 0.0, "rental_uris": {"android": "https://dc.lft.to/lastmile_qr_scan", "ios": "https://dc.lft.to/lastmile_qr_scan"}, "type": "electric_scooter", "name": "c3c9fac8927e4fb57e29f722a9470685"}, {"bike_id": "eda3d953fabc39508318576bff5bd975", "lat": 38.8623655, "is_disabled": 0, "lon": -76.99592416666667, "fusion_lon": 0.0, "is_reserved": 0, "fusion_lat": 0.0, "rental_uris": {"android": "https://dc.lft.to/lastmile_qr_scan", "ios": "https://dc.lft.to/lastmile_qr_scan"}, "type": "electric_bike", "name": "eda3d953fabc39508318576bff5bd975"}, {"bike_id": "dcd5c7eca5d152223a639266b2cb1445", "lat": 38.89163033333333, "is_disabled": 0, "lon": -77.015392, "fusion_lon": 0.0, "is_reserved": 0, "fusion_lat": 0.0, "rental_uris": {"android": "https://dc.lft.to/lastmile_qr_scan", "ios": "https://dc.lft.to/lastmile_qr_scan"}, "type": "electric_scooter", "name": "dcd5c7eca5d152223a639266b2cb1445"}, {"bike_id": "0f1478fd5aa71a35e33dfc64d9cc9ba4", "lat": 38.91769083333333, "is_disabled": 0, "lon": -77.02340483333333, "fusion_lon": 0.0, "is_reserved": 0, "fusion_lat": 0.0, "rental_uris": {"android": "https://dc.lft.to/lastmile_qr_scan", "ios": "https://dc.lft.to/lastmile_qr_scan"}, "type": "electric_scooter", "name": "0f1478fd5aa71a35e33dfc64d9cc9ba4"}, {"bike_id": "5bca8928165753475a6a14c9a5bc375e", "lat": 38.885638666666665, "is_disabled": 0, "lon": -76.99789033333333, "fusion_lon": 0.0, "is_reserved": 0, "fusion_lat": 0.0, "rental_uris": {"android": "https://dc.lft.to/lastmile_qr_scan", "ios": "https://dc.lft.to/lastmile_qr_scan"}, "type": "electric_scooter", "name": "5bca8928165753475a6a14c9a5bc375e"}, {"bike_id": "7b35af03b3a9ad44692dc22862bd483b", "lat": 38.876703, "is_disabled": 0, "lon": -77.00935316666667, "fusion_lon": 0.0, "is_reserved": 0, "fusion_lat": 0.0, "rental_uris": {"android": "https://dc.lft.to/lastmile_qr_scan", "ios": "https://dc.lft.to/lastmile_qr_scan"}, "type": "electric_scooter", "name": "7b35af03b3a9ad44692dc22862bd483b"}, {"bike_id": "4f4e74225decfe613430376c4d98b2ab", "lat": 38.9224455, "is_disabled": 0, "lon": -77.07302533333333, "fusion_lon": 0.0, "is_reserved": 0, "fusion_lat": 0.0, "rental_uris": {"android": "https://dc.lft.to/lastmile_qr_scan", "ios": "https://dc.lft.to/lastmile_qr_scan"}, "type": "electric_scooter", "name": "4f4e74225decfe613430376c4d98b2ab"}, {"bike_id": "5f20b163864ca481e66baa2c90c38508", "lat": 38.900229833333334, "is_disabled": 0, "lon": -77.02410333333333, "fusion_lon": 0.0, "is_reserved": 0, "fusion_lat": 0.0, "rental_uris": {"android": "https://dc.lft.to/lastmile_qr_scan", "ios": "https://dc.lft.to/lastmile_qr_scan"}, "type": "electric_scooter", "name": "5f20b163864ca481e66baa2c90c38508"}, {"bike_id": "46cea159375212be6e19df2bcb0c840a", "lat": 38.9224765, "is_disabled": 0, "lon": -77.02057566666667, "fusion_lon": 0.0, "is_reserved": 0, "fusion_lat": 0.0, "rental_uris": {"android": "https://dc.lft.to/lastmile_qr_scan", "ios": "https://dc.lft.to/lastmile_qr_scan"}, "type": "electric_scooter", "name": "46cea159375212be6e19df2bcb0c840a"}, {"bike_id": "1c63d9f37c17a088ceeb4c14d0fa1dff", "lat": 38.92760766666667, "is_disabled": 0, "lon": -77.02933966666667, "fusion_lon": 0.0, "is_reserved": 0, "fusion_lat": 0.0, "rental_uris": {"android": "https://dc.lft.to/lastmile_qr_scan", "ios": "https://dc.lft.to/lastmile_qr_scan"}, "type": "electric_scooter", "name": "1c63d9f37c17a088ceeb4c14d0fa1dff"}, {"bike_id": "072a8d6362f1696599d4a0ecfb103c2e", "lat": 38.90581233333333, "is_disabled": 0, "lon": -77.04614916666667, "fusion_lon": 0.0, "is_reserved": 0, "fusion_lat": 0.0, "rental_uris": {"android": "https://dc.lft.to/lastmile_qr_scan", "ios": "https://dc.lft.to/lastmile_qr_scan"}, "type": "electric_scooter", "name": "072a8d6362f1696599d4a0ecfb103c2e"}, {"bike_id": "f8c8ce4d90771192c56c99822a8acd6d", "lat": 38.897326, "is_disabled": 0, "lon": -77.03973566666667, "fusion_lon": 0.0, "is_reserved": 0, "fusion_lat": 0.0, "rental_uris": {"android": "https://dc.lft.to/lastmile_qr_scan", "ios": "https://dc.lft.to/lastmile_qr_scan"}, "type": "electric_scooter", "name": "f8c8ce4d90771192c56c99822a8acd6d"}, {"bike_id": "512f2ab40c0bec5f2945e0016ae4a9ba", "lat": 38.877850333333335, "is_disabled": 0, "lon": -76.99416583333333, "fusion_lon": 0.0, "is_reserved": 0, "fusion_lat": 0.0, "rental_uris": {"android": "https://dc.lft.to/lastmile_qr_scan", "ios": "https://dc.lft.to/lastmile_qr_scan"}, "type": "electric_scooter", "name": "512f2ab40c0bec5f2945e0016ae4a9ba"}, {"bike_id": "b5dea1560633268e3edfaa02a8ddec3b", "lat": 38.900846666666666, "is_disabled": 0, "lon": -77.05002166666667, "fusion_lon": 0.0, "is_reserved": 0, "fusion_lat": 0.0, "rental_uris": {"android": "https://dc.lft.to/lastmile_qr_scan", "ios": "https://dc.lft.to/lastmile_qr_scan"}, "type": "electric_scooter", "name": "b5dea1560633268e3edfaa02a8ddec3b"}, {"bike_id": "b10b579139a7f31b289c345c502cfc88", "lat": 38.898797, "is_disabled": 0, "lon": -77.0217305, "fusion_lon": 0.0, "is_reserved": 0, "fusion_lat": 0.0, "rental_uris": {"android": "https://dc.lft.to/lastmile_qr_scan", "ios": "https://dc.lft.to/lastmile_qr_scan"}, "type": "electric_scooter", "name": "b10b579139a7f31b289c345c502cfc88"}, {"bike_id": "1d42e31310a9a6d0943db706850e85bc", "lat": 38.93468566666667, "is_disabled": 0, "lon": -77.04136066666666, "fusion_lon": 0.0, "is_reserved": 0, "fusion_lat": 0.0, "rental_uris": {"android": "https://dc.lft.to/lastmile_qr_scan", "ios": "https://dc.lft.to/lastmile_qr_scan"}, "type": "electric_scooter", "name": "1d42e31310a9a6d0943db706850e85bc"}, {"bike_id": "17db2aabb25036c1d52015ef8680310c", "lat": 38.9054825, "is_disabled": 0, "lon": -77.03974866666667, "fusion_lon": 0.0, "is_reserved": 0, "fusion_lat": 0.0, "rental_uris": {"android": "https://dc.lft.to/lastmile_qr_scan", "ios": "https://dc.lft.to/lastmile_qr_scan"}, "type": "electric_scooter", "name": "17db2aabb25036c1d52015ef8680310c"}, {"bike_id": "dcda5adeec15fe2becf038cf98d5eeea", "lat": 38.90946733333333, "is_disabled": 0, "lon": -77.01636166666667, "fusion_lon": 0.0, "is_reserved": 0, "fusion_lat": 0.0, "rental_uris": {"android": "https://dc.lft.to/lastmile_qr_scan", "ios": "https://dc.lft.to/lastmile_qr_scan"}, "type": "electric_bike", "name": "dcda5adeec15fe2becf038cf98d5eeea"}, {"bike_id": "48499dc19218c394af1a274883eb68a1", "lat": 38.9095235, "is_disabled": 0, "lon": -77.04465316666666, "fusion_lon": 0.0, "is_reserved": 0, "fusion_lat": 0.0, "rental_uris": {"android": "https://dc.lft.to/lastmile_qr_scan", "ios": "https://dc.lft.to/lastmile_qr_scan"}, "type": "electric_scooter", "name": "48499dc19218c394af1a274883eb68a1"}, {"bike_id": "edc34a7f0fafef2a3d6632d85b7039f5", "lat": 38.910221166666666, "is_disabled": 0, "lon": -77.04881466666667, "fusion_lon": 0.0, "is_reserved": 0, "fusion_lat": 0.0, "rental_uris": {"android": "https://dc.lft.to/lastmile_qr_scan", "ios": "https://dc.lft.to/lastmile_qr_scan"}, "type": "electric_scooter", "name": "edc34a7f0fafef2a3d6632d85b7039f5"}, {"bike_id": "e450e5190e622350431a03395f3bfff0", "lat": 38.895519166666666, "is_disabled": 0, "lon": -77.00903216666667, "fusion_lon": 0.0, "is_reserved": 0, "fusion_lat": 0.0, "rental_uris": {"android": "https://dc.lft.to/lastmile_qr_scan", "ios": "https://dc.lft.to/lastmile_qr_scan"}, "type": "electric_scooter", "name": "e450e5190e622350431a03395f3bfff0"}, {"bike_id": "865d0848830f974f80f849933f6aa6ef", "lat": 38.930473, "is_disabled": 0, "lon": -77.025004, "fusion_lon": 0.0, "is_reserved": 0, "fusion_lat": 0.0, "rental_uris": {"android": "https://dc.lft.to/lastmile_qr_scan", "ios": "https://dc.lft.to/lastmile_qr_scan"}, "type": "electric_scooter", "name": "865d0848830f974f80f849933f6aa6ef"}, {"bike_id": "a408ab46151f8daf4e6bcb5600816670", "lat": 38.892651666666666, "is_disabled": 0, "lon": -77.04202616666667, "fusion_lon": 0.0, "is_reserved": 0, "fusion_lat": 0.0, "rental_uris": {"android": "https://dc.lft.to/lastmile_qr_scan", "ios": "https://dc.lft.to/lastmile_qr_scan"}, "type": "electric_scooter", "name": "a408ab46151f8daf4e6bcb5600816670"}, {"bike_id": "4279b79d2bb9b6556a44f6f1411d38fc", "lat": 38.88079966666667, "is_disabled": 0, "lon": -76.985172, "fusion_lon": 0.0, "is_reserved": 0, "fusion_lat": 0.0, "rental_uris": {"android": "https://dc.lft.to/lastmile_qr_scan", "ios": "https://dc.lft.to/lastmile_qr_scan"}, "type": "electric_scooter", "name": "4279b79d2bb9b6556a44f6f1411d38fc"}, {"bike_id": "166a65ef2f156ac44cd5691b241157f4", "lat": 38.9141495, "is_disabled": 0, "lon": -77.0450355, "fusion_lon": 0.0, "is_reserved": 0, "fusion_lat": 0.0, "rental_uris": {"android": "https://dc.lft.to/lastmile_qr_scan", "ios": "https://dc.lft.to/lastmile_qr_scan"}, "type": "electric_scooter", "name": "166a65ef2f156ac44cd5691b241157f4"}, {"bike_id": "7026aa9a0a48d493b5fcdf1aea8ea773", "lat": 38.902707166666666, "is_disabled": 0, "lon": -77.04825783333334, "fusion_lon": 0.0, "is_reserved": 0, "fusion_lat": 0.0, "rental_uris": {"android": "https://dc.lft.to/lastmile_qr_scan", "ios": "https://dc.lft.to/lastmile_qr_scan"}, "type": "electric_scooter", "name": "7026aa9a0a48d493b5fcdf1aea8ea773"}, {"bike_id": "76a267ec1514a7e696bd55587504c845", "lat": 38.897169833333336, "is_disabled": 0, "lon": -77.02466566666666, "fusion_lon": 0.0, "is_reserved": 0, "fusion_lat": 0.0, "rental_uris": {"android": "https://dc.lft.to/lastmile_qr_scan", "ios": "https://dc.lft.to/lastmile_qr_scan"}, "type": "electric_scooter", "name": "76a267ec1514a7e696bd55587504c845"}, {"bike_id": "6e22f64897c90751626fdad088a63edc", "lat": 38.909669, "is_disabled": 0, "lon": -77.04598783333333, "fusion_lon": 0.0, "is_reserved": 0, "fusion_lat": 0.0, "rental_uris": {"android": "https://dc.lft.to/lastmile_qr_scan", "ios": "https://dc.lft.to/lastmile_qr_scan"}, "type": "electric_scooter", "name": "6e22f64897c90751626fdad088a63edc"}, {"bike_id": "f7184efaa768115b0c7d4746faf7e604", "lat": 38.914328833333336, "is_disabled": 0, "lon": -77.04178983333334, "fusion_lon": 0.0, "is_reserved": 0, "fusion_lat": 0.0, "rental_uris": {"android": "https://dc.lft.to/lastmile_qr_scan", "ios": "https://dc.lft.to/lastmile_qr_scan"}, "type": "electric_scooter", "name": "f7184efaa768115b0c7d4746faf7e604"}, {"bike_id": "8f993644a28c79073e97e3b20e3fd1a3", "lat": 38.922417, "is_disabled": 0, "lon": -77.02100683333333, "fusion_lon": 0.0, "is_reserved": 0, "fusion_lat": 0.0, "rental_uris": {"android": "https://dc.lft.to/lastmile_qr_scan", "ios": "https://dc.lft.to/lastmile_qr_scan"}, "type": "electric_scooter", "name": "8f993644a28c79073e97e3b20e3fd1a3"}, {"bike_id": "0efb5e736126c41179d214330c02caa8", "lat": 38.90570616666667, "is_disabled": 0, "lon": -77.00874266666666, "fusion_lon": 0.0, "is_reserved": 0, "fusion_lat": 0.0, "rental_uris": {"android": "https://dc.lft.to/lastmile_qr_scan", "ios": "https://dc.lft.to/lastmile_qr_scan"}, "type": "electric_bike", "name": "0efb5e736126c41179d214330c02caa8"}, {"bike_id": "b3e0dfafdbe838c99dc49e649bf331a8", "lat": 38.892236833333335, "is_disabled": 0, "lon": -77.04860433333333, "fusion_lon": 0.0, "is_reserved": 0, "fusion_lat": 0.0, "rental_uris": {"android": "https://dc.lft.to/lastmile_qr_scan", "ios": "https://dc.lft.to/lastmile_qr_scan"}, "type": "electric_scooter", "name": "b3e0dfafdbe838c99dc49e649bf331a8"}, {"bike_id": "fa007530ee421ef67f85b48ed96dc4b9", "lat": 38.927346, "is_disabled": 0, "lon": -76.9554305, "fusion_lon": 0.0, "is_reserved": 0, "fusion_lat": 0.0, "rental_uris": {"android": "https://dc.lft.to/lastmile_qr_scan", "ios": "https://dc.lft.to/lastmile_qr_scan"}, "type": "electric_scooter", "name": "fa007530ee421ef67f85b48ed96dc4b9"}, {"bike_id": "978612ec8c0cc4034315915fd3d16b9e", "lat": 38.86285, "is_disabled": 0, "lon": -76.99232316666667, "fusion_lon": 0.0, "is_reserved": 0, "fusion_lat": 0.0, "rental_uris": {"android": "https://dc.lft.to/lastmile_qr_scan", "ios": "https://dc.lft.to/lastmile_qr_scan"}, "type": "electric_scooter", "name": "978612ec8c0cc4034315915fd3d16b9e"}, {"bike_id": "c2c1b342d284414487e6de10603b3431", "lat": 38.90025116666666, "is_disabled": 0, "lon": -77.04348866666666, "fusion_lon": 0.0, "is_reserved": 0, "fusion_lat": 0.0, "rental_uris": {"android": "https://dc.lft.to/lastmile_qr_scan", "ios": "https://dc.lft.to/lastmile_qr_scan"}, "type": "electric_scooter", "name": "c2c1b342d284414487e6de10603b3431"}, {"bike_id": "eaa9e084c70ec429cac08d43d58f9bf4", "lat": 38.94888516666666, "is_disabled": 0, "lon": -77.01856116666667, "fusion_lon": 0.0, "is_reserved": 0, "fusion_lat": 0.0, "rental_uris": {"android": "https://dc.lft.to/lastmile_qr_scan", "ios": "https://dc.lft.to/lastmile_qr_scan"}, "type": "electric_scooter", "name": "eaa9e084c70ec429cac08d43d58f9bf4"}, {"bike_id": "90e68503c7c840ccf767fd1cac73ce90", "lat": 38.8764295, "is_disabled": 0, "lon": -77.00358333333334, "fusion_lon": 0.0, "is_reserved": 0, "fusion_lat": 0.0, "rental_uris": {"android": "https://dc.lft.to/lastmile_qr_scan", "ios": "https://dc.lft.to/lastmile_qr_scan"}, "type": "electric_scooter", "name": "90e68503c7c840ccf767fd1cac73ce90"}, {"bike_id": "be8c98c03ee0b4507140d8192f13541b", "lat": 38.89848533333333, "is_disabled": 0, "lon": -77.02883683333333, "fusion_lon": 0.0, "is_reserved": 0, "fusion_lat": 0.0, "rental_uris": {"android": "https://dc.lft.to/lastmile_qr_scan", "ios": "https://dc.lft.to/lastmile_qr_scan"}, "type": "electric_scooter", "name": "be8c98c03ee0b4507140d8192f13541b"}, {"bike_id": "1fed3a45dd8a8fc8932f8d68ea8e8b1f", "lat": 38.9178885, "is_disabled": 0, "lon": -77.0235075, "fusion_lon": 0.0, "is_reserved": 0, "fusion_lat": 0.0, "rental_uris": {"android": "https://dc.lft.to/lastmile_qr_scan", "ios": "https://dc.lft.to/lastmile_qr_scan"}, "type": "electric_scooter", "name": "1fed3a45dd8a8fc8932f8d68ea8e8b1f"}, {"bike_id": "7f23bf9599d27e7d84b4e54bc0304cf7", "lat": 38.92122783333333, "is_disabled": 0, "lon": -77.04221516666667, "fusion_lon": 0.0, "is_reserved": 0, "fusion_lat": 0.0, "rental_uris": {"android": "https://dc.lft.to/lastmile_qr_scan", "ios": "https://dc.lft.to/lastmile_qr_scan"}, "type": "electric_scooter", "name": "7f23bf9599d27e7d84b4e54bc0304cf7"}, {"bike_id": "0577e1870c87f455d838d42113bc6c5f", "lat": 38.90235883333333, "is_disabled": 0, "lon": -77.00197883333334, "fusion_lon": 0.0, "is_reserved": 0, "fusion_lat": 0.0, "rental_uris": {"android": "https://dc.lft.to/lastmile_qr_scan", "ios": "https://dc.lft.to/lastmile_qr_scan"}, "type": "electric_scooter", "name": "0577e1870c87f455d838d42113bc6c5f"}, {"bike_id": "5145b26dc44f266d9ddb3f6471b4832f", "lat": 38.90307516666667, "is_disabled": 0, "lon": -77.02889016666667, "fusion_lon": 0.0, "is_reserved": 0, "fusion_lat": 0.0, "rental_uris": {"android": "https://dc.lft.to/lastmile_qr_scan", "ios": "https://dc.lft.to/lastmile_qr_scan"}, "type": "electric_scooter", "name": "5145b26dc44f266d9ddb3f6471b4832f"}, {"bike_id": "26640734a6b3890cb91613f0e8cb6aff", "lat": 38.89363616666667, "is_disabled": 0, "lon": -77.02200583333334, "fusion_lon": 0.0, "is_reserved": 0, "fusion_lat": 0.0, "rental_uris": {"android": "https://dc.lft.to/lastmile_qr_scan", "ios": "https://dc.lft.to/lastmile_qr_scan"}, "type": "electric_scooter", "name": "26640734a6b3890cb91613f0e8cb6aff"}, {"bike_id": "420463b8057b3935aec6512414625277", "lat": 38.928864833333336, "is_disabled": 0, "lon": -77.0325445, "fusion_lon": 0.0, "is_reserved": 0, "fusion_lat": 0.0, "rental_uris": {"android": "https://dc.lft.to/lastmile_qr_scan", "ios": "https://dc.lft.to/lastmile_qr_scan"}, "type": "electric_scooter", "name": "420463b8057b3935aec6512414625277"}, {"bike_id": "14107ad4a2b4712503c408951924a70a", "lat": 38.90518316666667, "is_disabled": 0, "lon": -77.04566233333334, "fusion_lon": 0.0, "is_reserved": 0, "fusion_lat": 0.0, "rental_uris": {"android": "https://dc.lft.to/lastmile_qr_scan", "ios": "https://dc.lft.to/lastmile_qr_scan"}, "type": "electric_scooter", "name": "14107ad4a2b4712503c408951924a70a"}, {"bike_id": "752e0918b9f9ca3c42ac6e61171842c5", "lat": 38.927092333333334, "is_disabled": 0, "lon": -77.020975, "fusion_lon": 0.0, "is_reserved": 0, "fusion_lat": 0.0, "rental_uris": {"android": "https://dc.lft.to/lastmile_qr_scan", "ios": "https://dc.lft.to/lastmile_qr_scan"}, "type": "electric_scooter", "name": "752e0918b9f9ca3c42ac6e61171842c5"}, {"bike_id": "c2f7a17bd023da773f48cf2a9559de7c", "lat": 38.8315665, "is_disabled": 0, "lon": -76.99573733333334, "fusion_lon": 0.0, "is_reserved": 0, "fusion_lat": 0.0, "rental_uris": {"android": "https://dc.lft.to/lastmile_qr_scan", "ios": "https://dc.lft.to/lastmile_qr_scan"}, "type": "electric_bike", "name": "c2f7a17bd023da773f48cf2a9559de7c"}, {"bike_id": "395f295af44fc2ec33059625edbf058c", "lat": 38.9062405, "is_disabled": 0, "lon": -77.0466255, "fusion_lon": 0.0, "is_reserved": 0, "fusion_lat": 0.0, "rental_uris": {"android": "https://dc.lft.to/lastmile_qr_scan", "ios": "https://dc.lft.to/lastmile_qr_scan"}, "type": "electric_scooter", "name": "395f295af44fc2ec33059625edbf058c"}, {"bike_id": "85b841c02283678f954195be1210e122", "lat": 38.920047833333335, "is_disabled": 0, "lon": -77.03206816666666, "fusion_lon": 0.0, "is_reserved": 0, "fusion_lat": 0.0, "rental_uris": {"android": "https://dc.lft.to/lastmile_qr_scan", "ios": "https://dc.lft.to/lastmile_qr_scan"}, "type": "electric_scooter", "name": "85b841c02283678f954195be1210e122"}, {"bike_id": "ef6ebd1cca121c4ce64ea871f9d5691c", "lat": 38.89234066666667, "is_disabled": 0, "lon": -77.04163633333333, "fusion_lon": 0.0, "is_reserved": 0, "fusion_lat": 0.0, "rental_uris": {"android": "https://dc.lft.to/lastmile_qr_scan", "ios": "https://dc.lft.to/lastmile_qr_scan"}, "type": "electric_scooter", "name": "ef6ebd1cca121c4ce64ea871f9d5691c"}, {"bike_id": "f00e1008ff1d75eb381cf18d4931d661", "lat": 38.92257016666667, "is_disabled": 0, "lon": -77.01952433333334, "fusion_lon": 0.0, "is_reserved": 0, "fusion_lat": 0.0, "rental_uris": {"android": "https://dc.lft.to/lastmile_qr_scan", "ios": "https://dc.lft.to/lastmile_qr_scan"}, "type": "electric_scooter", "name": "f00e1008ff1d75eb381cf18d4931d661"}, {"bike_id": "a036e159fb612cb01a035b6a0d1d91b4", "lat": 38.900831833333335, "is_disabled": 0, "lon": -77.0477145, "fusion_lon": 0.0, "is_reserved": 0, "fusion_lat": 0.0, "rental_uris": {"android": "https://dc.lft.to/lastmile_qr_scan", "ios": "https://dc.lft.to/lastmile_qr_scan"}, "type": "electric_scooter", "name": "a036e159fb612cb01a035b6a0d1d91b4"}, {"bike_id": "6d944656bd47eff43ee837def3d771f5", "lat": 38.87659766666667, "is_disabled": 0, "lon": -77.00431033333334, "fusion_lon": 0.0, "is_reserved": 0, "fusion_lat": 0.0, "rental_uris": {"android": "https://dc.lft.to/lastmile_qr_scan", "ios": "https://dc.lft.to/lastmile_qr_scan"}, "type": "electric_scooter", "name": "6d944656bd47eff43ee837def3d771f5"}, {"bike_id": "48b1ab215ee866a17636abae8a70a0d4", "lat": 38.9049885, "is_disabled": 0, "lon": -76.97955966666666, "fusion_lon": 0.0, "is_reserved": 0, "fusion_lat": 0.0, "rental_uris": {"android": "https://dc.lft.to/lastmile_qr_scan", "ios": "https://dc.lft.to/lastmile_qr_scan"}, "type": "electric_scooter", "name": "48b1ab215ee866a17636abae8a70a0d4"}, {"bike_id": "a668e4bf7a1c7422456f99cadb7bf289", "lat": 38.925986333333334, "is_disabled": 0, "lon": -77.0354395, "fusion_lon": 0.0, "is_reserved": 0, "fusion_lat": 0.0, "rental_uris": {"android": "https://dc.lft.to/lastmile_qr_scan", "ios": "https://dc.lft.to/lastmile_qr_scan"}, "type": "electric_scooter", "name": "a668e4bf7a1c7422456f99cadb7bf289"}, {"bike_id": "30b334c0554d48fbabb9bdb61e24d83f", "lat": 38.884923, "is_disabled": 0, "lon": -77.00709233333333, "fusion_lon": 0.0, "is_reserved": 0, "fusion_lat": 0.0, "rental_uris": {"android": "https://dc.lft.to/lastmile_qr_scan", "ios": "https://dc.lft.to/lastmile_qr_scan"}, "type": "electric_scooter", "name": "30b334c0554d48fbabb9bdb61e24d83f"}, {"bike_id": "a325532018673e97748ad88ca95d9b35", "lat": 38.91375566666667, "is_disabled": 0, "lon": -77.02048816666667, "fusion_lon": 0.0, "is_reserved": 0, "fusion_lat": 0.0, "rental_uris": {"android": "https://dc.lft.to/lastmile_qr_scan", "ios": "https://dc.lft.to/lastmile_qr_scan"}, "type": "electric_scooter", "name": "a325532018673e97748ad88ca95d9b35"}, {"bike_id": "0c0d177c255e444ce7b002150467276b", "lat": 38.908085666666665, "is_disabled": 0, "lon": -77.03851466666667, "fusion_lon": 0.0, "is_reserved": 0, "fusion_lat": 0.0, "rental_uris": {"android": "https://dc.lft.to/lastmile_qr_scan", "ios": "https://dc.lft.to/lastmile_qr_scan"}, "type": "electric_scooter", "name": "0c0d177c255e444ce7b002150467276b"}, {"bike_id": "a3101a13838c2ffeed27cb5f2cfb3978", "lat": 38.89954066666667, "is_disabled": 0, "lon": -77.04774333333333, "fusion_lon": 0.0, "is_reserved": 0, "fusion_lat": 0.0, "rental_uris": {"android": "https://dc.lft.to/lastmile_qr_scan", "ios": "https://dc.lft.to/lastmile_qr_scan"}, "type": "electric_scooter", "name": "a3101a13838c2ffeed27cb5f2cfb3978"}, {"bike_id": "371943d77f861424ac3cd263a45f5cf3", "lat": 38.90309333333333, "is_disabled": 0, "lon": -76.9780595, "fusion_lon": 0.0, "is_reserved": 0, "fusion_lat": 0.0, "rental_uris": {"android": "https://dc.lft.to/lastmile_qr_scan", "ios": "https://dc.lft.to/lastmile_qr_scan"}, "type": "electric_scooter", "name": "371943d77f861424ac3cd263a45f5cf3"}, {"bike_id": "05e9dabf199a097f9822e4fe4389e02b", "lat": 38.933598333333336, "is_disabled": 0, "lon": -77.07232, "fusion_lon": 0.0, "is_reserved": 0, "fusion_lat": 0.0, "rental_uris": {"android": "https://dc.lft.to/lastmile_qr_scan", "ios": "https://dc.lft.to/lastmile_qr_scan"}, "type": "electric_scooter", "name": "05e9dabf199a097f9822e4fe4389e02b"}, {"bike_id": "0f0b4eece17451c371c1bdad1560f82b", "lat": 38.89223366666667, "is_disabled": 0, "lon": -77.0447125, "fusion_lon": 0.0, "is_reserved": 0, "fusion_lat": 0.0, "rental_uris": {"android": "https://dc.lft.to/lastmile_qr_scan", "ios": "https://dc.lft.to/lastmile_qr_scan"}, "type": "electric_scooter", "name": "0f0b4eece17451c371c1bdad1560f82b"}, {"bike_id": "0eb2fb0ffcb092df8274c7b08670b344", "lat": 38.92470933333333, "is_disabled": 0, "lon": -77.03914966666666, "fusion_lon": 0.0, "is_reserved": 0, "fusion_lat": 0.0, "rental_uris": {"android": "https://dc.lft.to/lastmile_qr_scan", "ios": "https://dc.lft.to/lastmile_qr_scan"}, "type": "electric_scooter", "name": "0eb2fb0ffcb092df8274c7b08670b344"}, {"bike_id": "19e8368366617ce9fa2598c5ef2fdb32", "lat": 38.920258, "is_disabled": 0, "lon": -77.0407595, "fusion_lon": 0.0, "is_reserved": 0, "fusion_lat": 0.0, "rental_uris": {"android": "https://dc.lft.to/lastmile_qr_scan", "ios": "https://dc.lft.to/lastmile_qr_scan"}, "type": "electric_scooter", "name": "19e8368366617ce9fa2598c5ef2fdb32"}, {"bike_id": "51238e348c1d0e98bbae4a65b571aaa1", "lat": 38.91401, "is_disabled": 0, "lon": -77.03210183333333, "fusion_lon": 0.0, "is_reserved": 0, "fusion_lat": 0.0, "rental_uris": {"android": "https://dc.lft.to/lastmile_qr_scan", "ios": "https://dc.lft.to/lastmile_qr_scan"}, "type": "electric_scooter", "name": "51238e348c1d0e98bbae4a65b571aaa1"}, {"bike_id": "124debad8d0a1f3ffbe6deee8eb510a1", "lat": 38.92328666666667, "is_disabled": 0, "lon": -77.02048833333333, "fusion_lon": 0.0, "is_reserved": 0, "fusion_lat": 0.0, "rental_uris": {"android": "https://dc.lft.to/lastmile_qr_scan", "ios": "https://dc.lft.to/lastmile_qr_scan"}, "type": "electric_scooter", "name": "124debad8d0a1f3ffbe6deee8eb510a1"}, {"bike_id": "c9e9fdcee9a748b7dc4f29b9f1d57e2e", "lat": 38.91805633333333, "is_disabled": 0, "lon": -77.034375, "fusion_lon": 0.0, "is_reserved": 0, "fusion_lat": 0.0, "rental_uris": {"android": "https://dc.lft.to/lastmile_qr_scan", "ios": "https://dc.lft.to/lastmile_qr_scan"}, "type": "electric_scooter", "name": "c9e9fdcee9a748b7dc4f29b9f1d57e2e"}, {"bike_id": "d76c61b4c4c77abaf88bafe60b5305b3", "lat": 38.93828533333333, "is_disabled": 0, "lon": -77.02972933333334, "fusion_lon": 0.0, "is_reserved": 0, "fusion_lat": 0.0, "rental_uris": {"android": "https://dc.lft.to/lastmile_qr_scan", "ios": "https://dc.lft.to/lastmile_qr_scan"}, "type": "electric_scooter", "name": "d76c61b4c4c77abaf88bafe60b5305b3"}, {"bike_id": "c6a29ba1f48b790aff3f9eaa4573952a", "lat": 38.880768333333336, "is_disabled": 0, "lon": -76.98531583333333, "fusion_lon": 0.0, "is_reserved": 0, "fusion_lat": 0.0, "rental_uris": {"android": "https://dc.lft.to/lastmile_qr_scan", "ios": "https://dc.lft.to/lastmile_qr_scan"}, "type": "electric_scooter", "name": "c6a29ba1f48b790aff3f9eaa4573952a"}, {"bike_id": "3484a3d8686ffe212486574344a65f37", "lat": 38.8922495, "is_disabled": 0, "lon": -77.02621116666667, "fusion_lon": 0.0, "is_reserved": 0, "fusion_lat": 0.0, "rental_uris": {"android": "https://dc.lft.to/lastmile_qr_scan", "ios": "https://dc.lft.to/lastmile_qr_scan"}, "type": "electric_scooter", "name": "3484a3d8686ffe212486574344a65f37"}, {"bike_id": "5378402692cdade22581a1d046a4722d", "lat": 38.956536166666666, "is_disabled": 0, "lon": -77.019696, "fusion_lon": 0.0, "is_reserved": 0, "fusion_lat": 0.0, "rental_uris": {"android": "https://dc.lft.to/lastmile_qr_scan", "ios": "https://dc.lft.to/lastmile_qr_scan"}, "type": "electric_scooter", "name": "5378402692cdade22581a1d046a4722d"}, {"bike_id": "8e47688531cc80effd11efe4704800a1", "lat": 38.9232355, "is_disabled": 0, "lon": -77.035204, "fusion_lon": 0.0, "is_reserved": 0, "fusion_lat": 0.0, "rental_uris": {"android": "https://dc.lft.to/lastmile_qr_scan", "ios": "https://dc.lft.to/lastmile_qr_scan"}, "type": "electric_scooter", "name": "8e47688531cc80effd11efe4704800a1"}, {"bike_id": "9c01654fdfcf04e8d167c12ab140ec05", "lat": 38.97191883333333, "is_disabled": 0, "lon": -77.02720016666666, "fusion_lon": 0.0, "is_reserved": 0, "fusion_lat": 0.0, "rental_uris": {"android": "https://dc.lft.to/lastmile_qr_scan", "ios": "https://dc.lft.to/lastmile_qr_scan"}, "type": "electric_bike", "name": "9c01654fdfcf04e8d167c12ab140ec05"}, {"bike_id": "8974065a5d2f736cd9d08bf5c985e50a", "lat": 38.87920966666667, "is_disabled": 0, "lon": -76.995458, "fusion_lon": 0.0, "is_reserved": 0, "fusion_lat": 0.0, "rental_uris": {"android": "https://dc.lft.to/lastmile_qr_scan", "ios": "https://dc.lft.to/lastmile_qr_scan"}, "type": "electric_scooter", "name": "8974065a5d2f736cd9d08bf5c985e50a"}, {"bike_id": "aa86e3b87e5de018956c8d81ac2822a4", "lat": 38.89224016666667, "is_disabled": 0, "lon": -77.02217316666666, "fusion_lon": 0.0, "is_reserved": 0, "fusion_lat": 0.0, "rental_uris": {"android": "https://dc.lft.to/lastmile_qr_scan", "ios": "https://dc.lft.to/lastmile_qr_scan"}, "type": "electric_scooter", "name": "aa86e3b87e5de018956c8d81ac2822a4"}, {"bike_id": "616482dc40b476de332bd805eb8bdb89", "lat": 38.9011485, "is_disabled": 0, "lon": -77.03200083333333, "fusion_lon": 0.0, "is_reserved": 0, "fusion_lat": 0.0, "rental_uris": {"android": "https://dc.lft.to/lastmile_qr_scan", "ios": "https://dc.lft.to/lastmile_qr_scan"}, "type": "electric_scooter", "name": "616482dc40b476de332bd805eb8bdb89"}, {"bike_id": "594bace45051a72d41f3fb9c4438bc4c", "lat": 38.910813, "is_disabled": 0, "lon": -76.9994115, "fusion_lon": 0.0, "is_reserved": 0, "fusion_lat": 0.0, "rental_uris": {"android": "https://dc.lft.to/lastmile_qr_scan", "ios": "https://dc.lft.to/lastmile_qr_scan"}, "type": "electric_scooter", "name": "594bace45051a72d41f3fb9c4438bc4c"}, {"bike_id": "61668670ff130ba41553c9a5be0df7e8", "lat": 38.89197, "is_disabled": 0, "lon": -77.023793, "fusion_lon": 0.0, "is_reserved": 0, "fusion_lat": 0.0, "rental_uris": {"android": "https://dc.lft.to/lastmile_qr_scan", "ios": "https://dc.lft.to/lastmile_qr_scan"}, "type": "electric_scooter", "name": "61668670ff130ba41553c9a5be0df7e8"}, {"bike_id": "ed4742e812e7a78ca7d6ec541e2b9eb2", "lat": 38.916974, "is_disabled": 0, "lon": -77.03166116666667, "fusion_lon": 0.0, "is_reserved": 0, "fusion_lat": 0.0, "rental_uris": {"android": "https://dc.lft.to/lastmile_qr_scan", "ios": "https://dc.lft.to/lastmile_qr_scan"}, "type": "electric_scooter", "name": "ed4742e812e7a78ca7d6ec541e2b9eb2"}, {"bike_id": "0663afde702488e23bc235303ff31b78", "lat": 38.90241, "is_disabled": 0, "lon": -77.00201833333334, "fusion_lon": 0.0, "is_reserved": 0, "fusion_lat": 0.0, "rental_uris": {"android": "https://dc.lft.to/lastmile_qr_scan", "ios": "https://dc.lft.to/lastmile_qr_scan"}, "type": "electric_scooter", "name": "0663afde702488e23bc235303ff31b78"}, {"bike_id": "d8a4341dd1033da892273c382a19a743", "lat": 38.9206745, "is_disabled": 0, "lon": -77.03209733333334, "fusion_lon": 0.0, "is_reserved": 0, "fusion_lat": 0.0, "rental_uris": {"android": "https://dc.lft.to/lastmile_qr_scan", "ios": "https://dc.lft.to/lastmile_qr_scan"}, "type": "electric_scooter", "name": "d8a4341dd1033da892273c382a19a743"}, {"bike_id": "83d85e45e9c9591f5a40eafabfafb515", "lat": 38.87156216666666, "is_disabled": 0, "lon": -77.00681383333334, "fusion_lon": 0.0, "is_reserved": 0, "fusion_lat": 0.0, "rental_uris": {"android": "https://dc.lft.to/lastmile_qr_scan", "ios": "https://dc.lft.to/lastmile_qr_scan"}, "type": "electric_scooter", "name": "83d85e45e9c9591f5a40eafabfafb515"}, {"bike_id": "97a289706b87eb7da69a7951476c0ab3", "lat": 38.87176183333333, "is_disabled": 0, "lon": -77.00627783333333, "fusion_lon": 0.0, "is_reserved": 0, "fusion_lat": 0.0, "rental_uris": {"android": "https://dc.lft.to/lastmile_qr_scan", "ios": "https://dc.lft.to/lastmile_qr_scan"}, "type": "electric_scooter", "name": "97a289706b87eb7da69a7951476c0ab3"}, {"bike_id": "927b43fe12f17f719ebe5b95b731b2b7", "lat": 38.94775033333333, "is_disabled": 0, "lon": -77.04079483333334, "fusion_lon": 0.0, "is_reserved": 0, "fusion_lat": 0.0, "rental_uris": {"android": "https://dc.lft.to/lastmile_qr_scan", "ios": "https://dc.lft.to/lastmile_qr_scan"}, "type": "electric_scooter", "name": "927b43fe12f17f719ebe5b95b731b2b7"}, {"bike_id": "1199fae0a3456cd02f5b6ec7ba6c9d44", "lat": 38.908736833333336, "is_disabled": 0, "lon": -77.04337416666667, "fusion_lon": 0.0, "is_reserved": 0, "fusion_lat": 0.0, "rental_uris": {"android": "https://dc.lft.to/lastmile_qr_scan", "ios": "https://dc.lft.to/lastmile_qr_scan"}, "type": "electric_scooter", "name": "1199fae0a3456cd02f5b6ec7ba6c9d44"}, {"bike_id": "d5069b4d15c7710c9fe7c9b296cbf49c", "lat": 38.916898, "is_disabled": 0, "lon": -77.0351115, "fusion_lon": 0.0, "is_reserved": 0, "fusion_lat": 0.0, "rental_uris": {"android": "https://dc.lft.to/lastmile_qr_scan", "ios": "https://dc.lft.to/lastmile_qr_scan"}, "type": "electric_scooter", "name": "d5069b4d15c7710c9fe7c9b296cbf49c"}, {"bike_id": "4949cca782fcbbae227438e577c398b2", "lat": 38.88518233333333, "is_disabled": 0, "lon": -76.98325666666666, "fusion_lon": 0.0, "is_reserved": 0, "fusion_lat": 0.0, "rental_uris": {"android": "https://dc.lft.to/lastmile_qr_scan", "ios": "https://dc.lft.to/lastmile_qr_scan"}, "type": "electric_scooter", "name": "4949cca782fcbbae227438e577c398b2"}, {"bike_id": "3becea63fcd7f719b38a9fcdf5174adb", "lat": 38.913992666666665, "is_disabled": 0, "lon": -77.06417766666667, "fusion_lon": 0.0, "is_reserved": 0, "fusion_lat": 0.0, "rental_uris": {"android": "https://dc.lft.to/lastmile_qr_scan", "ios": "https://dc.lft.to/lastmile_qr_scan"}, "type": "electric_scooter", "name": "3becea63fcd7f719b38a9fcdf5174adb"}, {"bike_id": "22a2720831dc2650880021f6a76159ec", "lat": 38.915412, "is_disabled": 0, "lon": -77.046243, "fusion_lon": 0.0, "is_reserved": 0, "fusion_lat": 0.0, "rental_uris": {"android": "https://dc.lft.to/lastmile_qr_scan", "ios": "https://dc.lft.to/lastmile_qr_scan"}, "type": "electric_scooter", "name": "22a2720831dc2650880021f6a76159ec"}, {"bike_id": "6dd7a91f6b2046913018a8005762c4cb", "lat": 38.9082585, "is_disabled": 0, "lon": -77.03672166666666, "fusion_lon": 0.0, "is_reserved": 0, "fusion_lat": 0.0, "rental_uris": {"android": "https://dc.lft.to/lastmile_qr_scan", "ios": "https://dc.lft.to/lastmile_qr_scan"}, "type": "electric_scooter", "name": "6dd7a91f6b2046913018a8005762c4cb"}, {"bike_id": "70bd43860f705989ceeb9e5955c7fa96", "lat": 38.90850566666667, "is_disabled": 0, "lon": -77.045365, "fusion_lon": 0.0, "is_reserved": 0, "fusion_lat": 0.0, "rental_uris": {"android": "https://dc.lft.to/lastmile_qr_scan", "ios": "https://dc.lft.to/lastmile_qr_scan"}, "type": "electric_scooter", "name": "70bd43860f705989ceeb9e5955c7fa96"}, {"bike_id": "edf616dff4f7b99d7e8673e47ae8d074", "lat": 38.90281316666667, "is_disabled": 0, "lon": -77.0449965, "fusion_lon": 0.0, "is_reserved": 0, "fusion_lat": 0.0, "rental_uris": {"android": "https://dc.lft.to/lastmile_qr_scan", "ios": "https://dc.lft.to/lastmile_qr_scan"}, "type": "electric_scooter", "name": "edf616dff4f7b99d7e8673e47ae8d074"}, {"bike_id": "92838009ddb8d025233971c90568f5c2", "lat": 38.93006183333333, "is_disabled": 0, "lon": -77.03256916666666, "fusion_lon": 0.0, "is_reserved": 0, "fusion_lat": 0.0, "rental_uris": {"android": "https://dc.lft.to/lastmile_qr_scan", "ios": "https://dc.lft.to/lastmile_qr_scan"}, "type": "electric_scooter", "name": "92838009ddb8d025233971c90568f5c2"}, {"bike_id": "d4c5a64fc21e68dbbf9a43c88fc31d68", "lat": 38.907648, "is_disabled": 0, "lon": -77.03584133333334, "fusion_lon": 0.0, "is_reserved": 0, "fusion_lat": 0.0, "rental_uris": {"android": "https://dc.lft.to/lastmile_qr_scan", "ios": "https://dc.lft.to/lastmile_qr_scan"}, "type": "electric_scooter", "name": "d4c5a64fc21e68dbbf9a43c88fc31d68"}, {"bike_id": "88e6ecaa7722be96fd94d10e6f3b294c", "lat": 38.91547516666667, "is_disabled": 0, "lon": -77.02055033333333, "fusion_lon": 0.0, "is_reserved": 0, "fusion_lat": 0.0, "rental_uris": {"android": "https://dc.lft.to/lastmile_qr_scan", "ios": "https://dc.lft.to/lastmile_qr_scan"}, "type": "electric_scooter", "name": "88e6ecaa7722be96fd94d10e6f3b294c"}, {"bike_id": "4c2f93dc7b2a6aa3646ca87056350c49", "lat": 38.90404083333333, "is_disabled": 0, "lon": -77.0345125, "fusion_lon": 0.0, "is_reserved": 0, "fusion_lat": 0.0, "rental_uris": {"android": "https://dc.lft.to/lastmile_qr_scan", "ios": "https://dc.lft.to/lastmile_qr_scan"}, "type": "electric_scooter", "name": "4c2f93dc7b2a6aa3646ca87056350c49"}, {"bike_id": "38b6eb4e2b17cbee0de922cf6f439522", "lat": 38.91894533333333, "is_disabled": 0, "lon": -77.03820316666666, "fusion_lon": 0.0, "is_reserved": 0, "fusion_lat": 0.0, "rental_uris": {"android": "https://dc.lft.to/lastmile_qr_scan", "ios": "https://dc.lft.to/lastmile_qr_scan"}, "type": "electric_scooter", "name": "38b6eb4e2b17cbee0de922cf6f439522"}, {"bike_id": "5a471ce99811277e0d236c831b76d050", "lat": 38.9210495, "is_disabled": 0, "lon": -77.02207233333333, "fusion_lon": 0.0, "is_reserved": 0, "fusion_lat": 0.0, "rental_uris": {"android": "https://dc.lft.to/lastmile_qr_scan", "ios": "https://dc.lft.to/lastmile_qr_scan"}, "type": "electric_scooter", "name": "5a471ce99811277e0d236c831b76d050"}, {"bike_id": "87e827e9b2f63b1f2a86be87f316361a", "lat": 38.92751166666667, "is_disabled": 0, "lon": -77.02534883333334, "fusion_lon": 0.0, "is_reserved": 0, "fusion_lat": 0.0, "rental_uris": {"android": "https://dc.lft.to/lastmile_qr_scan", "ios": "https://dc.lft.to/lastmile_qr_scan"}, "type": "electric_scooter", "name": "87e827e9b2f63b1f2a86be87f316361a"}, {"bike_id": "4653d6d8552a93f47f140470827e635e", "lat": 38.909058, "is_disabled": 0, "lon": -77.07259083333334, "fusion_lon": 0.0, "is_reserved": 0, "fusion_lat": 0.0, "rental_uris": {"android": "https://dc.lft.to/lastmile_qr_scan", "ios": "https://dc.lft.to/lastmile_qr_scan"}, "type": "electric_scooter", "name": "4653d6d8552a93f47f140470827e635e"}, {"bike_id": "8f93e51577e5dfaa583e220365600745", "lat": 38.89852483333333, "is_disabled": 0, "lon": -77.0332125, "fusion_lon": 0.0, "is_reserved": 0, "fusion_lat": 0.0, "rental_uris": {"android": "https://dc.lft.to/lastmile_qr_scan", "ios": "https://dc.lft.to/lastmile_qr_scan"}, "type": "electric_scooter", "name": "8f93e51577e5dfaa583e220365600745"}, {"bike_id": "44e57781d6408547e017e94ebd754eac", "lat": 38.904109166666665, "is_disabled": 0, "lon": -76.97329316666666, "fusion_lon": 0.0, "is_reserved": 0, "fusion_lat": 0.0, "rental_uris": {"android": "https://dc.lft.to/lastmile_qr_scan", "ios": "https://dc.lft.to/lastmile_qr_scan"}, "type": "electric_scooter", "name": "44e57781d6408547e017e94ebd754eac"}, {"bike_id": "42a5bfe2f7105aeec48dbf53463d9ca4", "lat": 38.90110516666667, "is_disabled": 0, "lon": -77.0441005, "fusion_lon": 0.0, "is_reserved": 0, "fusion_lat": 0.0, "rental_uris": {"android": "https://dc.lft.to/lastmile_qr_scan", "ios": "https://dc.lft.to/lastmile_qr_scan"}, "type": "electric_scooter", "name": "42a5bfe2f7105aeec48dbf53463d9ca4"}, {"bike_id": "9ac43d76106597b786204f69aad4f138", "lat": 38.883494166666665, "is_disabled": 0, "lon": -76.93498, "fusion_lon": 0.0, "is_reserved": 0, "fusion_lat": 0.0, "rental_uris": {"android": "https://dc.lft.to/lastmile_qr_scan", "ios": "https://dc.lft.to/lastmile_qr_scan"}, "type": "electric_scooter", "name": "9ac43d76106597b786204f69aad4f138"}, {"bike_id": "0bb8790a18b3ce569e47697f92e4111b", "lat": 38.93744783333333, "is_disabled": 0, "lon": -77.06869633333334, "fusion_lon": 0.0, "is_reserved": 0, "fusion_lat": 0.0, "rental_uris": {"android": "https://dc.lft.to/lastmile_qr_scan", "ios": "https://dc.lft.to/lastmile_qr_scan"}, "type": "electric_scooter", "name": "0bb8790a18b3ce569e47697f92e4111b"}, {"bike_id": "297e791e173bf485427b7612c9df1be1", "lat": 38.866693166666664, "is_disabled": 0, "lon": -76.98371933333334, "fusion_lon": 0.0, "is_reserved": 0, "fusion_lat": 0.0, "rental_uris": {"android": "https://dc.lft.to/lastmile_qr_scan", "ios": "https://dc.lft.to/lastmile_qr_scan"}, "type": "electric_scooter", "name": "297e791e173bf485427b7612c9df1be1"}, {"bike_id": "d4ee6ddb4d716d25b43a860770f08008", "lat": 38.906182666666666, "is_disabled": 0, "lon": -77.0514075, "fusion_lon": 0.0, "is_reserved": 0, "fusion_lat": 0.0, "rental_uris": {"android": "https://dc.lft.to/lastmile_qr_scan", "ios": "https://dc.lft.to/lastmile_qr_scan"}, "type": "electric_scooter", "name": "d4ee6ddb4d716d25b43a860770f08008"}, {"bike_id": "5a0ac11a37fb3b007921e8ddb9a95492", "lat": 38.92070433333333, "is_disabled": 0, "lon": -77.025159, "fusion_lon": 0.0, "is_reserved": 0, "fusion_lat": 0.0, "rental_uris": {"android": "https://dc.lft.to/lastmile_qr_scan", "ios": "https://dc.lft.to/lastmile_qr_scan"}, "type": "electric_scooter", "name": "5a0ac11a37fb3b007921e8ddb9a95492"}, {"bike_id": "21f73456f20875385ce637dd11ed8869", "lat": 38.935256, "is_disabled": 0, "lon": -77.03072916666666, "fusion_lon": 0.0, "is_reserved": 0, "fusion_lat": 0.0, "rental_uris": {"android": "https://dc.lft.to/lastmile_qr_scan", "ios": "https://dc.lft.to/lastmile_qr_scan"}, "type": "electric_scooter", "name": "21f73456f20875385ce637dd11ed8869"}, {"bike_id": "1695ed81202aea494f1f41e4301ba083", "lat": 38.914166, "is_disabled": 0, "lon": -77.03230083333334, "fusion_lon": 0.0, "is_reserved": 0, "fusion_lat": 0.0, "rental_uris": {"android": "https://dc.lft.to/lastmile_qr_scan", "ios": "https://dc.lft.to/lastmile_qr_scan"}, "type": "electric_scooter", "name": "1695ed81202aea494f1f41e4301ba083"}, {"bike_id": "249cf4649d880f23a6f95f420b5dac6f", "lat": 38.90026916666667, "is_disabled": 0, "lon": -77.03711366666667, "fusion_lon": 0.0, "is_reserved": 0, "fusion_lat": 0.0, "rental_uris": {"android": "https://dc.lft.to/lastmile_qr_scan", "ios": "https://dc.lft.to/lastmile_qr_scan"}, "type": "electric_scooter", "name": "249cf4649d880f23a6f95f420b5dac6f"}, {"bike_id": "019a92c76a56db25e91c67db3088d48c", "lat": 38.91563816666667, "is_disabled": 0, "lon": -77.03184616666667, "fusion_lon": 0.0, "is_reserved": 0, "fusion_lat": 0.0, "rental_uris": {"android": "https://dc.lft.to/lastmile_qr_scan", "ios": "https://dc.lft.to/lastmile_qr_scan"}, "type": "electric_scooter", "name": "019a92c76a56db25e91c67db3088d48c"}, {"bike_id": "09d998470f28dc884c6b7801d09adf14", "lat": 38.92470133333333, "is_disabled": 0, "lon": -77.039607, "fusion_lon": 0.0, "is_reserved": 0, "fusion_lat": 0.0, "rental_uris": {"android": "https://dc.lft.to/lastmile_qr_scan", "ios": "https://dc.lft.to/lastmile_qr_scan"}, "type": "electric_scooter", "name": "09d998470f28dc884c6b7801d09adf14"}, {"bike_id": "6207fd9758fbea2e1d0db36de554f467", "lat": 38.98426716666667, "is_disabled": 0, "lon": -77.02670683333334, "fusion_lon": 0.0, "is_reserved": 0, "fusion_lat": 0.0, "rental_uris": {"android": "https://dc.lft.to/lastmile_qr_scan", "ios": "https://dc.lft.to/lastmile_qr_scan"}, "type": "electric_scooter", "name": "6207fd9758fbea2e1d0db36de554f467"}, {"bike_id": "4d8b8a7d7ceda267e1d022f556c975bd", "lat": 38.893394666666666, "is_disabled": 0, "lon": -76.99161233333334, "fusion_lon": 0.0, "is_reserved": 0, "fusion_lat": 0.0, "rental_uris": {"android": "https://dc.lft.to/lastmile_qr_scan", "ios": "https://dc.lft.to/lastmile_qr_scan"}, "type": "electric_scooter", "name": "4d8b8a7d7ceda267e1d022f556c975bd"}, {"bike_id": "31b699a1d4a5c902b309d0b047c29fe9", "lat": 38.89214966666667, "is_disabled": 0, "lon": -77.0486815, "fusion_lon": 0.0, "is_reserved": 0, "fusion_lat": 0.0, "rental_uris": {"android": "https://dc.lft.to/lastmile_qr_scan", "ios": "https://dc.lft.to/lastmile_qr_scan"}, "type": "electric_scooter", "name": "31b699a1d4a5c902b309d0b047c29fe9"}, {"bike_id": "affce657b04599b8fefeeb19caef60df", "lat": 38.87906666666667, "is_disabled": 0, "lon": -77.00793166666666, "fusion_lon": 0.0, "is_reserved": 0, "fusion_lat": 0.0, "rental_uris": {"android": "https://dc.lft.to/lastmile_qr_scan", "ios": "https://dc.lft.to/lastmile_qr_scan"}, "type": "electric_scooter", "name": "affce657b04599b8fefeeb19caef60df"}, {"bike_id": "1995809d75d1f420038c87440e0facef", "lat": 38.907375, "is_disabled": 0, "lon": -77.0038575, "fusion_lon": 0.0, "is_reserved": 0, "fusion_lat": 0.0, "rental_uris": {"android": "https://dc.lft.to/lastmile_qr_scan", "ios": "https://dc.lft.to/lastmile_qr_scan"}, "type": "electric_scooter", "name": "1995809d75d1f420038c87440e0facef"}, {"bike_id": "cd1ceadf38a72a84acf977b2fb646d50", "lat": 38.91810316666667, "is_disabled": 0, "lon": -77.02475816666667, "fusion_lon": 0.0, "is_reserved": 0, "fusion_lat": 0.0, "rental_uris": {"android": "https://dc.lft.to/lastmile_qr_scan", "ios": "https://dc.lft.to/lastmile_qr_scan"}, "type": "electric_scooter", "name": "cd1ceadf38a72a84acf977b2fb646d50"}, {"bike_id": "840b44be319208fdc4667e9a08636687", "lat": 38.920679666666665, "is_disabled": 0, "lon": -77.02313733333334, "fusion_lon": 0.0, "is_reserved": 0, "fusion_lat": 0.0, "rental_uris": {"android": "https://dc.lft.to/lastmile_qr_scan", "ios": "https://dc.lft.to/lastmile_qr_scan"}, "type": "electric_scooter", "name": "840b44be319208fdc4667e9a08636687"}, {"bike_id": "42bd5515209594f2b7d9a045823db0a5", "lat": 38.9010015, "is_disabled": 0, "lon": -77.03805016666666, "fusion_lon": 0.0, "is_reserved": 0, "fusion_lat": 0.0, "rental_uris": {"android": "https://dc.lft.to/lastmile_qr_scan", "ios": "https://dc.lft.to/lastmile_qr_scan"}, "type": "electric_scooter", "name": "42bd5515209594f2b7d9a045823db0a5"}, {"bike_id": "a922d4c731c352164816867d36984752", "lat": 38.896004, "is_disabled": 0, "lon": -77.05436916666666, "fusion_lon": 0.0, "is_reserved": 0, "fusion_lat": 0.0, "rental_uris": {"android": "https://dc.lft.to/lastmile_qr_scan", "ios": "https://dc.lft.to/lastmile_qr_scan"}, "type": "electric_scooter", "name": "a922d4c731c352164816867d36984752"}, {"bike_id": "78cd81f465570fecc62a4324f170b6f6", "lat": 38.9170305, "is_disabled": 0, "lon": -77.03325283333334, "fusion_lon": 0.0, "is_reserved": 0, "fusion_lat": 0.0, "rental_uris": {"android": "https://dc.lft.to/lastmile_qr_scan", "ios": "https://dc.lft.to/lastmile_qr_scan"}, "type": "electric_scooter", "name": "78cd81f465570fecc62a4324f170b6f6"}, {"bike_id": "72740777769b9709d2c862fc1c847c69", "lat": 38.9087315, "is_disabled": 0, "lon": -77.0434555, "fusion_lon": 0.0, "is_reserved": 0, "fusion_lat": 0.0, "rental_uris": {"android": "https://dc.lft.to/lastmile_qr_scan", "ios": "https://dc.lft.to/lastmile_qr_scan"}, "type": "electric_scooter", "name": "72740777769b9709d2c862fc1c847c69"}, {"bike_id": "a05ccea6eb4bf10644f2f9d63e75df0a", "lat": 38.929779, "is_disabled": 0, "lon": -77.036566, "fusion_lon": 0.0, "is_reserved": 0, "fusion_lat": 0.0, "rental_uris": {"android": "https://dc.lft.to/lastmile_qr_scan", "ios": "https://dc.lft.to/lastmile_qr_scan"}, "type": "electric_scooter", "name": "a05ccea6eb4bf10644f2f9d63e75df0a"}, {"bike_id": "6ec2dba0a3703ec8a90fb367cca649aa", "lat": 38.91119466666667, "is_disabled": 0, "lon": -77.0060465, "fusion_lon": 0.0, "is_reserved": 0, "fusion_lat": 0.0, "rental_uris": {"android": "https://dc.lft.to/lastmile_qr_scan", "ios": "https://dc.lft.to/lastmile_qr_scan"}, "type": "electric_scooter", "name": "6ec2dba0a3703ec8a90fb367cca649aa"}, {"bike_id": "cee297f28d4ebc29fe40a91218d3a7d5", "lat": 38.93519216666667, "is_disabled": 0, "lon": -77.03263916666667, "fusion_lon": 0.0, "is_reserved": 0, "fusion_lat": 0.0, "rental_uris": {"android": "https://dc.lft.to/lastmile_qr_scan", "ios": "https://dc.lft.to/lastmile_qr_scan"}, "type": "electric_scooter", "name": "cee297f28d4ebc29fe40a91218d3a7d5"}, {"bike_id": "d23cb65c69a1d6e1327b65890f6a9a96", "lat": 38.9138315, "is_disabled": 0, "lon": -77.03210283333334, "fusion_lon": 0.0, "is_reserved": 0, "fusion_lat": 0.0, "rental_uris": {"android": "https://dc.lft.to/lastmile_qr_scan", "ios": "https://dc.lft.to/lastmile_qr_scan"}, "type": "electric_scooter", "name": "d23cb65c69a1d6e1327b65890f6a9a96"}, {"bike_id": "69cc21bb66441d21f15e7c150a41d34e", "lat": 38.89886166666667, "is_disabled": 0, "lon": -77.0330345, "fusion_lon": 0.0, "is_reserved": 0, "fusion_lat": 0.0, "rental_uris": {"android": "https://dc.lft.to/lastmile_qr_scan", "ios": "https://dc.lft.to/lastmile_qr_scan"}, "type": "electric_scooter", "name": "69cc21bb66441d21f15e7c150a41d34e"}, {"bike_id": "bc96c87582bb9f4aa1284fad4d163b1a", "lat": 38.923305166666665, "is_disabled": 0, "lon": -77.0366135, "fusion_lon": 0.0, "is_reserved": 0, "fusion_lat": 0.0, "rental_uris": {"android": "https://dc.lft.to/lastmile_qr_scan", "ios": "https://dc.lft.to/lastmile_qr_scan"}, "type": "electric_scooter", "name": "bc96c87582bb9f4aa1284fad4d163b1a"}, {"bike_id": "6b98a25df30177ca84ce0de6c5d54d4a", "lat": 38.921570833333334, "is_disabled": 0, "lon": -77.038358, "fusion_lon": 0.0, "is_reserved": 0, "fusion_lat": 0.0, "rental_uris": {"android": "https://dc.lft.to/lastmile_qr_scan", "ios": "https://dc.lft.to/lastmile_qr_scan"}, "type": "electric_scooter", "name": "6b98a25df30177ca84ce0de6c5d54d4a"}, {"bike_id": "cc8ee324d6fd672019257e457b1508ee", "lat": 38.954316666666664, "is_disabled": 0, "lon": -77.0185155, "fusion_lon": 0.0, "is_reserved": 0, "fusion_lat": 0.0, "rental_uris": {"android": "https://dc.lft.to/lastmile_qr_scan", "ios": "https://dc.lft.to/lastmile_qr_scan"}, "type": "electric_scooter", "name": "cc8ee324d6fd672019257e457b1508ee"}, {"bike_id": "8b28c5d56099371375a285d89b1e7b5a", "lat": 38.917695333333334, "is_disabled": 0, "lon": -77.02344883333333, "fusion_lon": 0.0, "is_reserved": 0, "fusion_lat": 0.0, "rental_uris": {"android": "https://dc.lft.to/lastmile_qr_scan", "ios": "https://dc.lft.to/lastmile_qr_scan"}, "type": "electric_scooter", "name": "8b28c5d56099371375a285d89b1e7b5a"}, {"bike_id": "9ec933775b0e082157dddebc3da544b6", "lat": 38.907225333333336, "is_disabled": 0, "lon": -77.05325566666667, "fusion_lon": 0.0, "is_reserved": 0, "fusion_lat": 0.0, "rental_uris": {"android": "https://dc.lft.to/lastmile_qr_scan", "ios": "https://dc.lft.to/lastmile_qr_scan"}, "type": "electric_scooter", "name": "9ec933775b0e082157dddebc3da544b6"}, {"bike_id": "155fd296e8bbd6a23e549a41402f4aaa", "lat": 38.922650833333336, "is_disabled": 0, "lon": -77.018848, "fusion_lon": 0.0, "is_reserved": 0, "fusion_lat": 0.0, "rental_uris": {"android": "https://dc.lft.to/lastmile_qr_scan", "ios": "https://dc.lft.to/lastmile_qr_scan"}, "type": "electric_scooter", "name": "155fd296e8bbd6a23e549a41402f4aaa"}, {"bike_id": "c204ca3c1eb984cd6e1fcc76c96d794c", "lat": 38.90590483333333, "is_disabled": 0, "lon": -77.07008283333333, "fusion_lon": 0.0, "is_reserved": 0, "fusion_lat": 0.0, "rental_uris": {"android": "https://dc.lft.to/lastmile_qr_scan", "ios": "https://dc.lft.to/lastmile_qr_scan"}, "type": "electric_scooter", "name": "c204ca3c1eb984cd6e1fcc76c96d794c"}, {"bike_id": "6e5aeef6caf0ae0f28d313953810367d", "lat": 38.9240445, "is_disabled": 0, "lon": -77.04217566666667, "fusion_lon": 0.0, "is_reserved": 0, "fusion_lat": 0.0, "rental_uris": {"android": "https://dc.lft.to/lastmile_qr_scan", "ios": "https://dc.lft.to/lastmile_qr_scan"}, "type": "electric_scooter", "name": "6e5aeef6caf0ae0f28d313953810367d"}, {"bike_id": "a4aab54c24d876b132bae3713a837bfc", "lat": 38.936658666666666, "is_disabled": 0, "lon": -77.03284433333333, "fusion_lon": 0.0, "is_reserved": 0, "fusion_lat": 0.0, "rental_uris": {"android": "https://dc.lft.to/lastmile_qr_scan", "ios": "https://dc.lft.to/lastmile_qr_scan"}, "type": "electric_scooter", "name": "a4aab54c24d876b132bae3713a837bfc"}, {"bike_id": "bf1781cbf66a8b4bbf7cd389ff1b5914", "lat": 38.92244216666667, "is_disabled": 0, "lon": -77.01977316666667, "fusion_lon": 0.0, "is_reserved": 0, "fusion_lat": 0.0, "rental_uris": {"android": "https://dc.lft.to/lastmile_qr_scan", "ios": "https://dc.lft.to/lastmile_qr_scan"}, "type": "electric_scooter", "name": "bf1781cbf66a8b4bbf7cd389ff1b5914"}, {"bike_id": "f6951dfb149b5c84e4ad5046469db234", "lat": 38.90820466666667, "is_disabled": 0, "lon": -77.0390455, "fusion_lon": 0.0, "is_reserved": 0, "fusion_lat": 0.0, "rental_uris": {"android": "https://dc.lft.to/lastmile_qr_scan", "ios": "https://dc.lft.to/lastmile_qr_scan"}, "type": "electric_scooter", "name": "f6951dfb149b5c84e4ad5046469db234"}, {"bike_id": "393788603106929cb5b2a53d04d06eb0", "lat": 38.921736833333334, "is_disabled": 0, "lon": -77.02106683333334, "fusion_lon": 0.0, "is_reserved": 0, "fusion_lat": 0.0, "rental_uris": {"android": "https://dc.lft.to/lastmile_qr_scan", "ios": "https://dc.lft.to/lastmile_qr_scan"}, "type": "electric_scooter", "name": "393788603106929cb5b2a53d04d06eb0"}, {"bike_id": "bb2d8b466162520e30feee3090a83c5d", "lat": 38.90587983333333, "is_disabled": 0, "lon": -77.04051566666666, "fusion_lon": 0.0, "is_reserved": 0, "fusion_lat": 0.0, "rental_uris": {"android": "https://dc.lft.to/lastmile_qr_scan", "ios": "https://dc.lft.to/lastmile_qr_scan"}, "type": "electric_scooter", "name": "bb2d8b466162520e30feee3090a83c5d"}, {"bike_id": "63580208e5d39f678ee80127f96ffa72", "lat": 38.89498183333333, "is_disabled": 0, "lon": -77.02190783333333, "fusion_lon": 0.0, "is_reserved": 0, "fusion_lat": 0.0, "rental_uris": {"android": "https://dc.lft.to/lastmile_qr_scan", "ios": "https://dc.lft.to/lastmile_qr_scan"}, "type": "electric_scooter", "name": "63580208e5d39f678ee80127f96ffa72"}, {"bike_id": "d00f0aef220ab1828600d75ee2fa9eca", "lat": 38.914349666666666, "is_disabled": 0, "lon": -77.04177966666667, "fusion_lon": 0.0, "is_reserved": 0, "fusion_lat": 0.0, "rental_uris": {"android": "https://dc.lft.to/lastmile_qr_scan", "ios": "https://dc.lft.to/lastmile_qr_scan"}, "type": "electric_scooter", "name": "d00f0aef220ab1828600d75ee2fa9eca"}, {"bike_id": "02463d1d5e65fa257708f539ebbe7fb5", "lat": 38.927018, "is_disabled": 0, "lon": -77.0233915, "fusion_lon": 0.0, "is_reserved": 0, "fusion_lat": 0.0, "rental_uris": {"android": "https://dc.lft.to/lastmile_qr_scan", "ios": "https://dc.lft.to/lastmile_qr_scan"}, "type": "electric_scooter", "name": "02463d1d5e65fa257708f539ebbe7fb5"}, {"bike_id": "4430594bbcdcd6971adc288a8a09aaed", "lat": 38.901469166666665, "is_disabled": 0, "lon": -77.039642, "fusion_lon": 0.0, "is_reserved": 0, "fusion_lat": 0.0, "rental_uris": {"android": "https://dc.lft.to/lastmile_qr_scan", "ios": "https://dc.lft.to/lastmile_qr_scan"}, "type": "electric_scooter", "name": "4430594bbcdcd6971adc288a8a09aaed"}, {"bike_id": "ae9bb44be7cb70ae9d5535ed72834180", "lat": 38.81905483333333, "is_disabled": 0, "lon": -77.12652933333334, "fusion_lon": 0.0, "is_reserved": 0, "fusion_lat": 0.0, "rental_uris": {"android": "https://dc.lft.to/lastmile_qr_scan", "ios": "https://dc.lft.to/lastmile_qr_scan"}, "type": "electric_bike", "name": "ae9bb44be7cb70ae9d5535ed72834180"}, {"bike_id": "64394fbdef6ab301e87cfa63d67d3d19", "lat": 38.902268, "is_disabled": 0, "lon": -77.002145, "fusion_lon": 0.0, "is_reserved": 0, "fusion_lat": 0.0, "rental_uris": {"android": "https://dc.lft.to/lastmile_qr_scan", "ios": "https://dc.lft.to/lastmile_qr_scan"}, "type": "electric_scooter", "name": "64394fbdef6ab301e87cfa63d67d3d19"}, {"bike_id": "ceec65394a7e9e0ffc8e5eec6188a60d", "lat": 38.90031883333333, "is_disabled": 0, "lon": -77.00212783333333, "fusion_lon": 0.0, "is_reserved": 0, "fusion_lat": 0.0, "rental_uris": {"android": "https://dc.lft.to/lastmile_qr_scan", "ios": "https://dc.lft.to/lastmile_qr_scan"}, "type": "electric_scooter", "name": "ceec65394a7e9e0ffc8e5eec6188a60d"}, {"bike_id": "6eb5470e12d49ffa8ab93d0e5fa94228", "lat": 38.906778833333334, "is_disabled": 0, "lon": -77.04200333333333, "fusion_lon": 0.0, "is_reserved": 0, "fusion_lat": 0.0, "rental_uris": {"android": "https://dc.lft.to/lastmile_qr_scan", "ios": "https://dc.lft.to/lastmile_qr_scan"}, "type": "electric_scooter", "name": "6eb5470e12d49ffa8ab93d0e5fa94228"}, {"bike_id": "6279350c40b80aa15dc75a936541e541", "lat": 38.91409916666667, "is_disabled": 0, "lon": -77.0415075, "fusion_lon": 0.0, "is_reserved": 0, "fusion_lat": 0.0, "rental_uris": {"android": "https://dc.lft.to/lastmile_qr_scan", "ios": "https://dc.lft.to/lastmile_qr_scan"}, "type": "electric_scooter", "name": "6279350c40b80aa15dc75a936541e541"}, {"bike_id": "6c6c9aa481d959e4b52a2a685a5bfd80", "lat": 38.92007666666667, "is_disabled": 0, "lon": -77.03214333333334, "fusion_lon": 0.0, "is_reserved": 0, "fusion_lat": 0.0, "rental_uris": {"android": "https://dc.lft.to/lastmile_qr_scan", "ios": "https://dc.lft.to/lastmile_qr_scan"}, "type": "electric_scooter", "name": "6c6c9aa481d959e4b52a2a685a5bfd80"}, {"bike_id": "1ba34dfb3a735c9291d55e0c4fc84aef", "lat": 38.90692966666667, "is_disabled": 0, "lon": -76.9525335, "fusion_lon": 0.0, "is_reserved": 0, "fusion_lat": 0.0, "rental_uris": {"android": "https://dc.lft.to/lastmile_qr_scan", "ios": "https://dc.lft.to/lastmile_qr_scan"}, "type": "electric_bike", "name": "1ba34dfb3a735c9291d55e0c4fc84aef"}, {"bike_id": "d2e6beb39a1753f6e778586670b7360d", "lat": 38.901764, "is_disabled": 0, "lon": -76.92825500000001, "fusion_lon": 0.0, "is_reserved": 0, "fusion_lat": 0.0, "rental_uris": {"android": "https://dc.lft.to/lastmile_qr_scan", "ios": "https://dc.lft.to/lastmile_qr_scan"}, "type": "electric_scooter", "name": "d2e6beb39a1753f6e778586670b7360d"}, {"bike_id": "efd557989ac00c698f94ca2e74ec4b16", "lat": 38.935555, "is_disabled": 0, "lon": -77.0637365, "fusion_lon": 0.0, "is_reserved": 0, "fusion_lat": 0.0, "rental_uris": {"android": "https://dc.lft.to/lastmile_qr_scan", "ios": "https://dc.lft.to/lastmile_qr_scan"}, "type": "electric_scooter", "name": "efd557989ac00c698f94ca2e74ec4b16"}, {"bike_id": "9b6360e71be36a1d62ce2bc9ffc48a35", "lat": 38.907902666666665, "is_disabled": 0, "lon": -77.03828166666666, "fusion_lon": 0.0, "is_reserved": 0, "fusion_lat": 0.0, "rental_uris": {"android": "https://dc.lft.to/lastmile_qr_scan", "ios": "https://dc.lft.to/lastmile_qr_scan"}, "type": "electric_scooter", "name": "9b6360e71be36a1d62ce2bc9ffc48a35"}, {"bike_id": "bd6baa4ff2e3a0c8a4e9c3de337bf7c8", "lat": 38.9501845, "is_disabled": 0, "lon": -77.06691916666666, "fusion_lon": 0.0, "is_reserved": 0, "fusion_lat": 0.0, "rental_uris": {"android": "https://dc.lft.to/lastmile_qr_scan", "ios": "https://dc.lft.to/lastmile_qr_scan"}, "type": "electric_scooter", "name": "bd6baa4ff2e3a0c8a4e9c3de337bf7c8"}, {"bike_id": "f246df696132d35d8612402ce088660e", "lat": 38.89359566666667, "is_disabled": 0, "lon": -76.947507, "fusion_lon": 0.0, "is_reserved": 0, "fusion_lat": 0.0, "rental_uris": {"android": "https://dc.lft.to/lastmile_qr_scan", "ios": "https://dc.lft.to/lastmile_qr_scan"}, "type": "electric_scooter", "name": "f246df696132d35d8612402ce088660e"}, {"bike_id": "c37e13e6d78f82e9e4ce1a2787e61ca5", "lat": 38.89845416666667, "is_disabled": 0, "lon": -76.94254966666666, "fusion_lon": 0.0, "is_reserved": 0, "fusion_lat": 0.0, "rental_uris": {"android": "https://dc.lft.to/lastmile_qr_scan", "ios": "https://dc.lft.to/lastmile_qr_scan"}, "type": "electric_scooter", "name": "c37e13e6d78f82e9e4ce1a2787e61ca5"}, {"bike_id": "4effddaa28655f556025821009aba62c", "lat": 38.92130516666667, "is_disabled": 0, "lon": -77.01797216666667, "fusion_lon": 0.0, "is_reserved": 0, "fusion_lat": 0.0, "rental_uris": {"android": "https://dc.lft.to/lastmile_qr_scan", "ios": "https://dc.lft.to/lastmile_qr_scan"}, "type": "electric_scooter", "name": "4effddaa28655f556025821009aba62c"}, {"bike_id": "cdddcc5442c317d46c47146c19ade2e2", "lat": 38.9072405, "is_disabled": 0, "lon": -77.041528, "fusion_lon": 0.0, "is_reserved": 0, "fusion_lat": 0.0, "rental_uris": {"android": "https://dc.lft.to/lastmile_qr_scan", "ios": "https://dc.lft.to/lastmile_qr_scan"}, "type": "electric_scooter", "name": "cdddcc5442c317d46c47146c19ade2e2"}, {"bike_id": "356847d43fd1d1efc815882d03adb6c4", "lat": 38.8922035, "is_disabled": 0, "lon": -77.042002, "fusion_lon": 0.0, "is_reserved": 0, "fusion_lat": 0.0, "rental_uris": {"android": "https://dc.lft.to/lastmile_qr_scan", "ios": "https://dc.lft.to/lastmile_qr_scan"}, "type": "electric_scooter", "name": "356847d43fd1d1efc815882d03adb6c4"}, {"bike_id": "4acded115f17cafc8c40386deaeb3617", "lat": 38.88172316666667, "is_disabled": 0, "lon": -76.99266016666667, "fusion_lon": 0.0, "is_reserved": 0, "fusion_lat": 0.0, "rental_uris": {"android": "https://dc.lft.to/lastmile_qr_scan", "ios": "https://dc.lft.to/lastmile_qr_scan"}, "type": "electric_scooter", "name": "4acded115f17cafc8c40386deaeb3617"}, {"bike_id": "27d4b00cec7534fc9a39fdd67bcbb121", "lat": 38.92772633333333, "is_disabled": 0, "lon": -77.04057166666666, "fusion_lon": 0.0, "is_reserved": 0, "fusion_lat": 0.0, "rental_uris": {"android": "https://dc.lft.to/lastmile_qr_scan", "ios": "https://dc.lft.to/lastmile_qr_scan"}, "type": "electric_scooter", "name": "27d4b00cec7534fc9a39fdd67bcbb121"}, {"bike_id": "9eec9e8a34ea5129be51894a9c7e326a", "lat": 38.8867605, "is_disabled": 0, "lon": -77.096788, "fusion_lon": 0.0, "is_reserved": 0, "fusion_lat": 0.0, "rental_uris": {"android": "https://dc.lft.to/lastmile_qr_scan", "ios": "https://dc.lft.to/lastmile_qr_scan"}, "type": "electric_bike", "name": "9eec9e8a34ea5129be51894a9c7e326a"}, {"bike_id": "ec6649e7aae2f2bd0f7883fabdf8763a", "lat": 38.93571633333333, "is_disabled": 0, "lon": -76.99306, "fusion_lon": 0.0, "is_reserved": 0, "fusion_lat": 0.0, "rental_uris": {"android": "https://dc.lft.to/lastmile_qr_scan", "ios": "https://dc.lft.to/lastmile_qr_scan"}, "type": "electric_scooter", "name": "ec6649e7aae2f2bd0f7883fabdf8763a"}, {"bike_id": "f354282d45c444df8f0a980bc77edd8a", "lat": 38.89486183333333, "is_disabled": 0, "lon": -77.00291216666666, "fusion_lon": 0.0, "is_reserved": 0, "fusion_lat": 0.0, "rental_uris": {"android": "https://dc.lft.to/lastmile_qr_scan", "ios": "https://dc.lft.to/lastmile_qr_scan"}, "type": "electric_scooter", "name": "f354282d45c444df8f0a980bc77edd8a"}, {"bike_id": "826c4da47cf65f0989bdb20a92b0ca86", "lat": 38.908185333333336, "is_disabled": 0, "lon": -77.0394485, "fusion_lon": 0.0, "is_reserved": 0, "fusion_lat": 0.0, "rental_uris": {"android": "https://dc.lft.to/lastmile_qr_scan", "ios": "https://dc.lft.to/lastmile_qr_scan"}, "type": "electric_scooter", "name": "826c4da47cf65f0989bdb20a92b0ca86"}, {"bike_id": "01249d8e58b9cd9851bc779b73f2e440", "lat": 38.904585, "is_disabled": 0, "lon": -77.03469883333334, "fusion_lon": 0.0, "is_reserved": 0, "fusion_lat": 0.0, "rental_uris": {"android": "https://dc.lft.to/lastmile_qr_scan", "ios": "https://dc.lft.to/lastmile_qr_scan"}, "type": "electric_scooter", "name": "01249d8e58b9cd9851bc779b73f2e440"}, {"bike_id": "5df4725b03681e28182ff333d5120082", "lat": 38.89528816666667, "is_disabled": 0, "lon": -77.0464855, "fusion_lon": 0.0, "is_reserved": 0, "fusion_lat": 0.0, "rental_uris": {"android": "https://dc.lft.to/lastmile_qr_scan", "ios": "https://dc.lft.to/lastmile_qr_scan"}, "type": "electric_scooter", "name": "5df4725b03681e28182ff333d5120082"}, {"bike_id": "ad96b9da0bcd859995558ead16d73311", "lat": 38.92478666666667, "is_disabled": 0, "lon": -77.02219083333334, "fusion_lon": 0.0, "is_reserved": 0, "fusion_lat": 0.0, "rental_uris": {"android": "https://dc.lft.to/lastmile_qr_scan", "ios": "https://dc.lft.to/lastmile_qr_scan"}, "type": "electric_scooter", "name": "ad96b9da0bcd859995558ead16d73311"}, {"bike_id": "b3f83f383cd97a12882071b2b77c78a7", "lat": 38.921557166666666, "is_disabled": 0, "lon": -77.032882, "fusion_lon": 0.0, "is_reserved": 0, "fusion_lat": 0.0, "rental_uris": {"android": "https://dc.lft.to/lastmile_qr_scan", "ios": "https://dc.lft.to/lastmile_qr_scan"}, "type": "electric_scooter", "name": "b3f83f383cd97a12882071b2b77c78a7"}, {"bike_id": "def9ceb71283eb80f2f0b43aaa5f38e3", "lat": 38.91412366666667, "is_disabled": 0, "lon": -77.04500666666667, "fusion_lon": 0.0, "is_reserved": 0, "fusion_lat": 0.0, "rental_uris": {"android": "https://dc.lft.to/lastmile_qr_scan", "ios": "https://dc.lft.to/lastmile_qr_scan"}, "type": "electric_scooter", "name": "def9ceb71283eb80f2f0b43aaa5f38e3"}, {"bike_id": "a0954043341399fa81aa6cf99a12586c", "lat": 38.912661166666666, "is_disabled": 0, "lon": -77.0225325, "fusion_lon": 0.0, "is_reserved": 0, "fusion_lat": 0.0, "rental_uris": {"android": "https://dc.lft.to/lastmile_qr_scan", "ios": "https://dc.lft.to/lastmile_qr_scan"}, "type": "electric_scooter", "name": "a0954043341399fa81aa6cf99a12586c"}, {"bike_id": "2826ce2201c5be0d536431e46786b0c7", "lat": 38.89832533333333, "is_disabled": 0, "lon": -77.00745616666667, "fusion_lon": 0.0, "is_reserved": 0, "fusion_lat": 0.0, "rental_uris": {"android": "https://dc.lft.to/lastmile_qr_scan", "ios": "https://dc.lft.to/lastmile_qr_scan"}, "type": "electric_scooter", "name": "2826ce2201c5be0d536431e46786b0c7"}, {"bike_id": "1e6945e81c08edad9b035757307f86c0", "lat": 38.90553533333333, "is_disabled": 0, "lon": -77.01792816666666, "fusion_lon": 0.0, "is_reserved": 0, "fusion_lat": 0.0, "rental_uris": {"android": "https://dc.lft.to/lastmile_qr_scan", "ios": "https://dc.lft.to/lastmile_qr_scan"}, "type": "electric_scooter", "name": "1e6945e81c08edad9b035757307f86c0"}, {"bike_id": "7c233ba55a9a0a007995e55372b51476", "lat": 38.91109066666667, "is_disabled": 0, "lon": -77.04546483333333, "fusion_lon": 0.0, "is_reserved": 0, "fusion_lat": 0.0, "rental_uris": {"android": "https://dc.lft.to/lastmile_qr_scan", "ios": "https://dc.lft.to/lastmile_qr_scan"}, "type": "electric_scooter", "name": "7c233ba55a9a0a007995e55372b51476"}, {"bike_id": "875cc1a763e57040751f0440b4a3b520", "lat": 38.873929, "is_disabled": 0, "lon": -76.96977316666667, "fusion_lon": 0.0, "is_reserved": 0, "fusion_lat": 0.0, "rental_uris": {"android": "https://dc.lft.to/lastmile_qr_scan", "ios": "https://dc.lft.to/lastmile_qr_scan"}, "type": "electric_scooter", "name": "875cc1a763e57040751f0440b4a3b520"}, {"bike_id": "dd4425d8010673126cf722844d87493f", "lat": 38.92336816666667, "is_disabled": 0, "lon": -77.054015, "fusion_lon": 0.0, "is_reserved": 0, "fusion_lat": 0.0, "rental_uris": {"android": "https://dc.lft.to/lastmile_qr_scan", "ios": "https://dc.lft.to/lastmile_qr_scan"}, "type": "electric_scooter", "name": "dd4425d8010673126cf722844d87493f"}, {"bike_id": "042d0d13e930ddb7e3a4191e83bd0aab", "lat": 38.89220316666667, "is_disabled": 0, "lon": -77.0138785, "fusion_lon": 0.0, "is_reserved": 0, "fusion_lat": 0.0, "rental_uris": {"android": "https://dc.lft.to/lastmile_qr_scan", "ios": "https://dc.lft.to/lastmile_qr_scan"}, "type": "electric_scooter", "name": "042d0d13e930ddb7e3a4191e83bd0aab"}, {"bike_id": "f1573fd7d9bb58a8be4c57af289bd799", "lat": 38.88426833333333, "is_disabled": 0, "lon": -76.95755183333333, "fusion_lon": 0.0, "is_reserved": 0, "fusion_lat": 0.0, "rental_uris": {"android": "https://dc.lft.to/lastmile_qr_scan", "ios": "https://dc.lft.to/lastmile_qr_scan"}, "type": "electric_scooter", "name": "f1573fd7d9bb58a8be4c57af289bd799"}, {"bike_id": "a96066a1b9735f91a093b7f1805d4174", "lat": 38.9086355, "is_disabled": 0, "lon": -77.00370533333333, "fusion_lon": 0.0, "is_reserved": 0, "fusion_lat": 0.0, "rental_uris": {"android": "https://dc.lft.to/lastmile_qr_scan", "ios": "https://dc.lft.to/lastmile_qr_scan"}, "type": "electric_scooter", "name": "a96066a1b9735f91a093b7f1805d4174"}, {"bike_id": "d19c985bb2d3d5d4bb581ca8754f76e0", "lat": 38.89223766666667, "is_disabled": 0, "lon": -77.03214183333333, "fusion_lon": 0.0, "is_reserved": 0, "fusion_lat": 0.0, "rental_uris": {"android": "https://dc.lft.to/lastmile_qr_scan", "ios": "https://dc.lft.to/lastmile_qr_scan"}, "type": "electric_scooter", "name": "d19c985bb2d3d5d4bb581ca8754f76e0"}, {"bike_id": "d767bb472b7ccf6b544a8b0d4db61915", "lat": 38.91630816666667, "is_disabled": 0, "lon": -77.04563683333333, "fusion_lon": 0.0, "is_reserved": 0, "fusion_lat": 0.0, "rental_uris": {"android": "https://dc.lft.to/lastmile_qr_scan", "ios": "https://dc.lft.to/lastmile_qr_scan"}, "type": "electric_scooter", "name": "d767bb472b7ccf6b544a8b0d4db61915"}, {"bike_id": "7843fb9d6b69d772947bb76a220763bb", "lat": 38.90718433333333, "is_disabled": 0, "lon": -77.0399715, "fusion_lon": 0.0, "is_reserved": 0, "fusion_lat": 0.0, "rental_uris": {"android": "https://dc.lft.to/lastmile_qr_scan", "ios": "https://dc.lft.to/lastmile_qr_scan"}, "type": "electric_scooter", "name": "7843fb9d6b69d772947bb76a220763bb"}, {"bike_id": "7b4e2b546db609dfcf697ce94468e561", "lat": 38.93347333333333, "is_disabled": 0, "lon": -77.0297545, "fusion_lon": 0.0, "is_reserved": 0, "fusion_lat": 0.0, "rental_uris": {"android": "https://dc.lft.to/lastmile_qr_scan", "ios": "https://dc.lft.to/lastmile_qr_scan"}, "type": "electric_scooter", "name": "7b4e2b546db609dfcf697ce94468e561"}, {"bike_id": "6a913e28622e5eb0135571fed67d7b39", "lat": 38.8902715, "is_disabled": 0, "lon": -77.022887, "fusion_lon": 0.0, "is_reserved": 0, "fusion_lat": 0.0, "rental_uris": {"android": "https://dc.lft.to/lastmile_qr_scan", "ios": "https://dc.lft.to/lastmile_qr_scan"}, "type": "electric_scooter", "name": "6a913e28622e5eb0135571fed67d7b39"}, {"bike_id": "be339d26f3b54ebb308978cdec689561", "lat": 38.903325, "is_disabled": 0, "lon": -76.92950133333333, "fusion_lon": 0.0, "is_reserved": 0, "fusion_lat": 0.0, "rental_uris": {"android": "https://dc.lft.to/lastmile_qr_scan", "ios": "https://dc.lft.to/lastmile_qr_scan"}, "type": "electric_scooter", "name": "be339d26f3b54ebb308978cdec689561"}, {"bike_id": "bba9061913a5b79a16a4a0ec5633c60e", "lat": 38.89828983333334, "is_disabled": 0, "lon": -76.94629966666666, "fusion_lon": 0.0, "is_reserved": 0, "fusion_lat": 0.0, "rental_uris": {"android": "https://dc.lft.to/lastmile_qr_scan", "ios": "https://dc.lft.to/lastmile_qr_scan"}, "type": "electric_scooter", "name": "bba9061913a5b79a16a4a0ec5633c60e"}, {"bike_id": "22a4a1f8a31e1fccb4e6f6f12f42dccc", "lat": 38.89868166666667, "is_disabled": 0, "lon": -77.01625933333334, "fusion_lon": 0.0, "is_reserved": 0, "fusion_lat": 0.0, "rental_uris": {"android": "https://dc.lft.to/lastmile_qr_scan", "ios": "https://dc.lft.to/lastmile_qr_scan"}, "type": "electric_scooter", "name": "22a4a1f8a31e1fccb4e6f6f12f42dccc"}, {"bike_id": "ea8ae26df7a27d67119d41190db78ee6", "lat": 38.917569666666665, "is_disabled": 0, "lon": -77.01220083333334, "fusion_lon": 0.0, "is_reserved": 0, "fusion_lat": 0.0, "rental_uris": {"android": "https://dc.lft.to/lastmile_qr_scan", "ios": "https://dc.lft.to/lastmile_qr_scan"}, "type": "electric_scooter", "name": "ea8ae26df7a27d67119d41190db78ee6"}, {"bike_id": "a4d2c124fe995e442baef5075b76f2c4", "lat": 38.924306666666666, "is_disabled": 0, "lon": -77.02030016666667, "fusion_lon": 0.0, "is_reserved": 0, "fusion_lat": 0.0, "rental_uris": {"android": "https://dc.lft.to/lastmile_qr_scan", "ios": "https://dc.lft.to/lastmile_qr_scan"}, "type": "electric_scooter", "name": "a4d2c124fe995e442baef5075b76f2c4"}, {"bike_id": "6a5bc26d1bb18d83aa643db9e835d1d3", "lat": 38.9050665, "is_disabled": 0, "lon": -77.06003, "fusion_lon": 0.0, "is_reserved": 0, "fusion_lat": 0.0, "rental_uris": {"android": "https://dc.lft.to/lastmile_qr_scan", "ios": "https://dc.lft.to/lastmile_qr_scan"}, "type": "electric_scooter", "name": "6a5bc26d1bb18d83aa643db9e835d1d3"}, {"bike_id": "6b293675bdbd833466956eab3173d448", "lat": 38.9059065, "is_disabled": 0, "lon": -77.04614366666667, "fusion_lon": 0.0, "is_reserved": 0, "fusion_lat": 0.0, "rental_uris": {"android": "https://dc.lft.to/lastmile_qr_scan", "ios": "https://dc.lft.to/lastmile_qr_scan"}, "type": "electric_scooter", "name": "6b293675bdbd833466956eab3173d448"}, {"bike_id": "32ebb65fc1057d4d7ca59013d9a07dae", "lat": 38.9310635, "is_disabled": 0, "lon": -77.05598283333333, "fusion_lon": 0.0, "is_reserved": 0, "fusion_lat": 0.0, "rental_uris": {"android": "https://dc.lft.to/lastmile_qr_scan", "ios": "https://dc.lft.to/lastmile_qr_scan"}, "type": "electric_scooter", "name": "32ebb65fc1057d4d7ca59013d9a07dae"}, {"bike_id": "60b371cc6e466d4da97ff0a3da908969", "lat": 38.905111166666664, "is_disabled": 0, "lon": -77.04192433333333, "fusion_lon": 0.0, "is_reserved": 0, "fusion_lat": 0.0, "rental_uris": {"android": "https://dc.lft.to/lastmile_qr_scan", "ios": "https://dc.lft.to/lastmile_qr_scan"}, "type": "electric_scooter", "name": "60b371cc6e466d4da97ff0a3da908969"},