{"data": {"bikes": [{"lon": -77.05000683333333, "lat": 38.90423533333333, "name": "30b721fc7005c1512b34a5ffcccb8d4e", "fusion_lat": 0.0, "fusion_lon": 0.0, "rental_uris": {"android": "https://dc.lft.to/lastmile_qr_scan", "ios": "https://dc.lft.to/lastmile_qr_scan"}, "is_reserved": 0, "is_disabled": 0, "type": "electric_scooter", "bike_id": "30b721fc7005c1512b34a5ffcccb8d4e"}, {"lon": -77.01412983333333, "lat": 38.928109166666665, "name": "e270400b853562a35824e7d406c06805", "fusion_lat": 0.0, "fusion_lon": 0.0, "rental_uris": {"android": "https://dc.lft.to/lastmile_qr_scan", "ios": "https://dc.lft.to/lastmile_qr_scan"}, "is_reserved": 0, "is_disabled": 0, "type": "electric_scooter", "bike_id": "e270400b853562a35824e7d406c06805"}, {"lon": -77.02183916666667, "lat": 38.9054235, "name": "e25ed2c5f05a6a020be6fbed70c91cb1", "fusion_lat": 0.0, "fusion_lon": 0.0, "rental_uris": {"android": "https://dc.lft.to/lastmile_qr_scan", "ios": "https://dc.lft.to/lastmile_qr_scan"}, "is_reserved": 0, "is_disabled": 0, "type": "electric_scooter", "bike_id": "e25ed2c5f05a6a020be6fbed70c91cb1"}, {"lon": -77.04610766666667, "lat": 38.9222945, "name": "60acce622392d2c9e121278ea2343640", "fusion_lat": 0.0, "fusion_lon": 0.0, "rental_uris": {"android": "https://dc.lft.to/lastmile_qr_scan", "ios": "https://dc.lft.to/lastmile_qr_scan"}, "is_reserved": 0, "is_disabled": 0, "type": "electric_scooter", "bike_id": "60acce622392d2c9e121278ea2343640"}, {"lon": -77.03448966666667, "lat": 38.905713, "name": "9a9ce412f307643bdc33040e26668678", "fusion_lat": 0.0, "fusion_lon": 0.0, "rental_uris": {"android": "https://dc.lft.to/lastmile_qr_scan", "ios": "https://dc.lft.to/lastmile_qr_scan"}, "is_reserved": 0, "is_disabled": 0, "type": "electric_scooter", "bike_id": "9a9ce412f307643bdc33040e26668678"}, {"lon": -77.02022833333334, "lat": 38.9245285, "name": "47f61e9f6f1777c2b4890267fcc69b74", "fusion_lat": 0.0, "fusion_lon": 0.0, "rental_uris": {"android": "https://dc.lft.to/lastmile_qr_scan", "ios": "https://dc.lft.to/lastmile_qr_scan"}, "is_reserved": 0, "is_disabled": 0, "type": "electric_scooter", "bike_id": "47f61e9f6f1777c2b4890267fcc69b74"}, {"lon": -77.03404966666666, "lat": 38.92276233333333, "name": "4f06b986e360293dcb04eb3a4c9e3400", "fusion_lat": 0.0, "fusion_lon": 0.0, "rental_uris": {"android": "https://dc.lft.to/lastmile_qr_scan", "ios": "https://dc.lft.to/lastmile_qr_scan"}, "is_reserved": 0, "is_disabled": 0, "type": "electric_scooter", "bike_id": "4f06b986e360293dcb04eb3a4c9e3400"}, {"lon": -76.99155766666667, "lat": 38.895505666666665, "name": "ae56a9736e0674bab258052767c5acbb", "fusion_lat": 0.0, "fusion_lon": 0.0, "rental_uris": {"android": "https://dc.lft.to/lastmile_qr_scan", "ios": "https://dc.lft.to/lastmile_qr_scan"}, "is_reserved": 0, "is_disabled": 0, "type": "electric_scooter", "bike_id": "ae56a9736e0674bab258052767c5acbb"}, {"lon": -77.04163733333333, "lat": 38.91614166666667, "name": "49044e6a0038a8c6e823abc2f6d23554", "fusion_lat": 0.0, "fusion_lon": 0.0, "rental_uris": {"android": "https://dc.lft.to/lastmile_qr_scan", "ios": "https://dc.lft.to/lastmile_qr_scan"}, "is_reserved": 0, "is_disabled": 0, "type": "electric_scooter", "bike_id": "49044e6a0038a8c6e823abc2f6d23554"}, {"lon": -76.99027516666666, "lat": 38.86405883333333, "name": "53c76eddc351b83611e0e9dc9e60b9d7", "fusion_lat": 0.0, "fusion_lon": 0.0, "rental_uris": {"android": "https://dc.lft.to/lastmile_qr_scan", "ios": "https://dc.lft.to/lastmile_qr_scan"}, "is_reserved": 0, "is_disabled": 0, "type": "electric_scooter", "bike_id": "53c76eddc351b83611e0e9dc9e60b9d7"}, {"lon": -77.067735, "lat": 38.903596666666665, "name": "eea27699b70d47f243d56d6bd8ff0740", "fusion_lat": 0.0, "fusion_lon": 0.0, "rental_uris": {"android": "https://dc.lft.to/lastmile_qr_scan", "ios": "https://dc.lft.to/lastmile_qr_scan"}, "is_reserved": 0, "is_disabled": 0, "type": "electric_scooter", "bike_id": "eea27699b70d47f243d56d6bd8ff0740"}, {"lon": -77.03053516666667, "lat": 38.8841215, "name": "bd7b63bce4d3209b7eccc3196ede41fc", "fusion_lat": 0.0, "fusion_lon": 0.0, "rental_uris": {"android": "https://dc.lft.to/lastmile_qr_scan", "ios": "https://dc.lft.to/lastmile_qr_scan"}, "is_reserved": 0, "is_disabled": 0, "type": "electric_scooter", "bike_id": "bd7b63bce4d3209b7eccc3196ede41fc"}, {"lon": -77.05848883333333, "lat": 38.934237833333334, "name": "4da55bc32f361451573e415482af6399", "fusion_lat": 0.0, "fusion_lon": 0.0, "rental_uris": {"android": "https://dc.lft.to/lastmile_qr_scan", "ios": "https://dc.lft.to/lastmile_qr_scan"}, "is_reserved": 0, "is_disabled": 0, "type": "electric_scooter", "bike_id": "4da55bc32f361451573e415482af6399"}, {"lon": -76.94719783333333, "lat": 38.89738416666667, "name": "b459d71917603da6f4c1798b615431d2", "fusion_lat": 0.0, "fusion_lon": 0.0, "rental_uris": {"android": "https://dc.lft.to/lastmile_qr_scan", "ios": "https://dc.lft.to/lastmile_qr_scan"}, "is_reserved": 0, "is_disabled": 0, "type": "electric_scooter", "bike_id": "b459d71917603da6f4c1798b615431d2"}, {"lon": -77.04058383333333, "lat": 38.917661333333335, "name": "21b3e4eb73583b384a8747327915cdda", "fusion_lat": 0.0, "fusion_lon": 0.0, "rental_uris": {"android": "https://dc.lft.to/lastmile_qr_scan", "ios": "https://dc.lft.to/lastmile_qr_scan"}, "is_reserved": 0, "is_disabled": 0, "type": "electric_scooter", "bike_id": "21b3e4eb73583b384a8747327915cdda"}, {"lon": -77.02401366666666, "lat": 38.88738716666667, "name": "c803676da71f51e569be68d9c99bcfbb", "fusion_lat": 0.0, "fusion_lon": 0.0, "rental_uris": {"android": "https://dc.lft.to/lastmile_qr_scan", "ios": "https://dc.lft.to/lastmile_qr_scan"}, "is_reserved": 0, "is_disabled": 0, "type": "electric_scooter", "bike_id": "c803676da71f51e569be68d9c99bcfbb"}, {"lon": -77.04389066666667, "lat": 38.92275733333334, "name": "4ddf492c02ed666ee8233c97494e0c36", "fusion_lat": 0.0, "fusion_lon": 0.0, "rental_uris": {"android": "https://dc.lft.to/lastmile_qr_scan", "ios": "https://dc.lft.to/lastmile_qr_scan"}, "is_reserved": 0, "is_disabled": 0, "type": "electric_scooter", "bike_id": "4ddf492c02ed666ee8233c97494e0c36"}, {"lon": -77.01819616666667, "lat": 38.90813383333333, "name": "b813f6951fd708ffd3a30175e0c7b8f8", "fusion_lat": 0.0, "fusion_lon": 0.0, "rental_uris": {"android": "https://dc.lft.to/lastmile_qr_scan", "ios": "https://dc.lft.to/lastmile_qr_scan"}, "is_reserved": 0, "is_disabled": 0, "type": "electric_scooter", "bike_id": "b813f6951fd708ffd3a30175e0c7b8f8"}, {"lon": -77.03214883333334, "lat": 38.91481566666667, "name": "c5fb19dce2d00a440d93649c365be1a0", "fusion_lat": 0.0, "fusion_lon": 0.0, "rental_uris": {"android": "https://dc.lft.to/lastmile_qr_scan", "ios": "https://dc.lft.to/lastmile_qr_scan"}, "is_reserved": 0, "is_disabled": 0, "type": "electric_scooter", "bike_id": "c5fb19dce2d00a440d93649c365be1a0"}, {"lon": -76.96508383333334, "lat": 38.876449666666666, "name": "d556d5ca12c1d0e86f1121631d192ea2", "fusion_lat": 0.0, "fusion_lon": 0.0, "rental_uris": {"android": "https://dc.lft.to/lastmile_qr_scan", "ios": "https://dc.lft.to/lastmile_qr_scan"}, "is_reserved": 0, "is_disabled": 0, "type": "electric_scooter", "bike_id": "d556d5ca12c1d0e86f1121631d192ea2"}, {"lon": -77.01071316666666, "lat": 38.87109183333333, "name": "283a1b0efb4e7ab90099c89d39ac8226", "fusion_lat": 0.0, "fusion_lon": 0.0, "rental_uris": {"android": "https://dc.lft.to/lastmile_qr_scan", "ios": "https://dc.lft.to/lastmile_qr_scan"}, "is_reserved": 0, "is_disabled": 0, "type": "electric_scooter", "bike_id": "283a1b0efb4e7ab90099c89d39ac8226"}, {"lon": -77.10909016666666, "lat": 39.0520635, "name": "987a7ef71c754c48b6fef6eeb432750b", "fusion_lat": 0.0, "fusion_lon": 0.0, "rental_uris": {"android": "https://dc.lft.to/lastmile_qr_scan", "ios": "https://dc.lft.to/lastmile_qr_scan"}, "is_reserved": 0, "is_disabled": 0, "type": "electric_bike", "bike_id": "987a7ef71c754c48b6fef6eeb432750b"}, {"lon": -76.96551383333333, "lat": 38.91846, "name": "b678db37f9fd982c2593863d709fb6b5", "fusion_lat": 0.0, "fusion_lon": 0.0, "rental_uris": {"android": "https://dc.lft.to/lastmile_qr_scan", "ios": "https://dc.lft.to/lastmile_qr_scan"}, "is_reserved": 0, "is_disabled": 0, "type": "electric_scooter", "bike_id": "b678db37f9fd982c2593863d709fb6b5"}, {"lon": -77.0236115, "lat": 38.908654, "name": "31bb946a343160b01a5c7d82cd35db1d", "fusion_lat": 0.0, "fusion_lon": 0.0, "rental_uris": {"android": "https://dc.lft.to/lastmile_qr_scan", "ios": "https://dc.lft.to/lastmile_qr_scan"}, "is_reserved": 0, "is_disabled": 0, "type": "electric_scooter", "bike_id": "31bb946a343160b01a5c7d82cd35db1d"}, {"lon": -77.03215733333333, "lat": 38.90039733333333, "name": "a427bb7a33aa0b2ae4206a58fe57a60e", "fusion_lat": 0.0, "fusion_lon": 0.0, "rental_uris": {"android": "https://dc.lft.to/lastmile_qr_scan", "ios": "https://dc.lft.to/lastmile_qr_scan"}, "is_reserved": 0, "is_disabled": 0, "type": "electric_scooter", "bike_id": "a427bb7a33aa0b2ae4206a58fe57a60e"}, {"lon": -77.00564483333333, "lat": 38.90571883333333, "name": "d67a3169c11418248e35ca6a3a205998", "fusion_lat": 0.0, "fusion_lon": 0.0, "rental_uris": {"android": "https://dc.lft.to/lastmile_qr_scan", "ios": "https://dc.lft.to/lastmile_qr_scan"}, "is_reserved": 0, "is_disabled": 0, "type": "electric_scooter", "bike_id": "d67a3169c11418248e35ca6a3a205998"}, {"lon": -76.99034483333334, "lat": 38.858696, "name": "1c653d5e26c1ad20616f36ee7daaaa17", "fusion_lat": 0.0, "fusion_lon": 0.0, "rental_uris": {"android": "https://dc.lft.to/lastmile_qr_scan", "ios": "https://dc.lft.to/lastmile_qr_scan"}, "is_reserved": 0, "is_disabled": 0, "type": "electric_scooter", "bike_id": "1c653d5e26c1ad20616f36ee7daaaa17"}, {"lon": -77.03083183333334, "lat": 38.90989233333333, "name": "57a59ef610766c121366e0c705f7e3e1", "fusion_lat": 0.0, "fusion_lon": 0.0, "rental_uris": {"android": "https://dc.lft.to/lastmile_qr_scan", "ios": "https://dc.lft.to/lastmile_qr_scan"}, "is_reserved": 0, "is_disabled": 0, "type": "electric_scooter", "bike_id": "57a59ef610766c121366e0c705f7e3e1"}, {"lon": -77.01987783333334, "lat": 38.90476016666667, "name": "0b4535f0a8141ff29829b171d0c097d9", "fusion_lat": 0.0, "fusion_lon": 0.0, "rental_uris": {"android": "https://dc.lft.to/lastmile_qr_scan", "ios": "https://dc.lft.to/lastmile_qr_scan"}, "is_reserved": 0, "is_disabled": 0, "type": "electric_scooter", "bike_id": "0b4535f0a8141ff29829b171d0c097d9"}, {"lon": -77.03699933333333, "lat": 38.91687433333333, "name": "354031999bed33f2d9feea8a7f1a2252", "fusion_lat": 0.0, "fusion_lon": 0.0, "rental_uris": {"android": "https://dc.lft.to/lastmile_qr_scan", "ios": "https://dc.lft.to/lastmile_qr_scan"}, "is_reserved": 0, "is_disabled": 0, "type": "electric_scooter", "bike_id": "354031999bed33f2d9feea8a7f1a2252"}, {"lon": -77.03524116666667, "lat": 38.9272905, "name": "3706765824802b34010b523f92ce2428", "fusion_lat": 0.0, "fusion_lon": 0.0, "rental_uris": {"android": "https://dc.lft.to/lastmile_qr_scan", "ios": "https://dc.lft.to/lastmile_qr_scan"}, "is_reserved": 0, "is_disabled": 0, "type": "electric_scooter", "bike_id": "3706765824802b34010b523f92ce2428"}, {"lon": -77.02115983333333, "lat": 38.93700883333333, "name": "465f364dba9242149d8fcf77a2f5122e", "fusion_lat": 0.0, "fusion_lon": 0.0, "rental_uris": {"android": "https://dc.lft.to/lastmile_qr_scan", "ios": "https://dc.lft.to/lastmile_qr_scan"}, "is_reserved": 0, "is_disabled": 0, "type": "electric_scooter", "bike_id": "465f364dba9242149d8fcf77a2f5122e"}, {"lon": -77.02624383333334, "lat": 38.8929605, "name": "ba3baabaab584ea9d14a5f9ce59aed3d", "fusion_lat": 0.0, "fusion_lon": 0.0, "rental_uris": {"android": "https://dc.lft.to/lastmile_qr_scan", "ios": "https://dc.lft.to/lastmile_qr_scan"}, "is_reserved": 0, "is_disabled": 0, "type": "electric_scooter", "bike_id": "ba3baabaab584ea9d14a5f9ce59aed3d"}, {"lon": -77.0369835, "lat": 38.9264175, "name": "f4f7651e793c833e96b75d91eaf75ebc", "fusion_lat": 0.0, "fusion_lon": 0.0, "rental_uris": {"android": "https://dc.lft.to/lastmile_qr_scan", "ios": "https://dc.lft.to/lastmile_qr_scan"}, "is_reserved": 0, "is_disabled": 0, "type": "electric_scooter", "bike_id": "f4f7651e793c833e96b75d91eaf75ebc"}, {"lon": -77.022942, "lat": 38.91629533333333, "name": "a82b3676dc89ffb29861db87ddaeb23d", "fusion_lat": 0.0, "fusion_lon": 0.0, "rental_uris": {"android": "https://dc.lft.to/lastmile_qr_scan", "ios": "https://dc.lft.to/lastmile_qr_scan"}, "is_reserved": 0, "is_disabled": 0, "type": "electric_scooter", "bike_id": "a82b3676dc89ffb29861db87ddaeb23d"}, {"lon": -77.04036883333333, "lat": 38.9230845, "name": "7265f86e867ac88069939af337693514", "fusion_lat": 0.0, "fusion_lon": 0.0, "rental_uris": {"android": "https://dc.lft.to/lastmile_qr_scan", "ios": "https://dc.lft.to/lastmile_qr_scan"}, "is_reserved": 0, "is_disabled": 0, "type": "electric_scooter", "bike_id": "7265f86e867ac88069939af337693514"}, {"lon": -77.00835416666666, "lat": 38.91556033333333, "name": "a5bbc7579f663fd3209c214b66028b44", "fusion_lat": 0.0, "fusion_lon": 0.0, "rental_uris": {"android": "https://dc.lft.to/lastmile_qr_scan", "ios": "https://dc.lft.to/lastmile_qr_scan"}, "is_reserved": 0, "is_disabled": 0, "type": "electric_scooter", "bike_id": "a5bbc7579f663fd3209c214b66028b44"}, {"lon": -76.90531583333333, "lat": 38.89736033333333, "name": "f940d04b8201e97cc85c5bb1764f3984", "fusion_lat": 0.0, "fusion_lon": 0.0, "rental_uris": {"android": "https://dc.lft.to/lastmile_qr_scan", "ios": "https://dc.lft.to/lastmile_qr_scan"}, "is_reserved": 0, "is_disabled": 0, "type": "electric_bike", "bike_id": "f940d04b8201e97cc85c5bb1764f3984"}, {"lon": -76.96105583333333, "lat": 38.949628, "name": "518511d8e710b81d8e147e1231949e5a", "fusion_lat": 0.0, "fusion_lon": 0.0, "rental_uris": {"android": "https://dc.lft.to/lastmile_qr_scan", "ios": "https://dc.lft.to/lastmile_qr_scan"}, "is_reserved": 0, "is_disabled": 0, "type": "electric_bike", "bike_id": "518511d8e710b81d8e147e1231949e5a"}, {"lon": -77.047016, "lat": 38.9210835, "name": "1d099034b6b85113ded4c57609c20f93", "fusion_lat": 0.0, "fusion_lon": 0.0, "rental_uris": {"android": "https://dc.lft.to/lastmile_qr_scan", "ios": "https://dc.lft.to/lastmile_qr_scan"}, "is_reserved": 0, "is_disabled": 0, "type": "electric_scooter", "bike_id": "1d099034b6b85113ded4c57609c20f93"}, {"lon": -77.03870016666667, "lat": 38.909693833333336, "name": "f82da297f740970be536b5372a447906", "fusion_lat": 0.0, "fusion_lon": 0.0, "rental_uris": {"android": "https://dc.lft.to/lastmile_qr_scan", "ios": "https://dc.lft.to/lastmile_qr_scan"}, "is_reserved": 0, "is_disabled": 0, "type": "electric_scooter", "bike_id": "f82da297f740970be536b5372a447906"}, {"lon": -76.94665333333333, "lat": 38.89868116666667, "name": "4c60056d9748963b2f94548af7f7bdac", "fusion_lat": 0.0, "fusion_lon": 0.0, "rental_uris": {"android": "https://dc.lft.to/lastmile_qr_scan", "ios": "https://dc.lft.to/lastmile_qr_scan"}, "is_reserved": 0, "is_disabled": 0, "type": "electric_scooter", "bike_id": "4c60056d9748963b2f94548af7f7bdac"}, {"lon": -77.0221325, "lat": 38.905750833333336, "name": "9faa2096923843718e7a8312576cac1f", "fusion_lat": 0.0, "fusion_lon": 0.0, "rental_uris": {"android": "https://dc.lft.to/lastmile_qr_scan", "ios": "https://dc.lft.to/lastmile_qr_scan"}, "is_reserved": 0, "is_disabled": 0, "type": "electric_scooter", "bike_id": "9faa2096923843718e7a8312576cac1f"}, {"lon": -77.0279295, "lat": 38.930791166666666, "name": "db16780404e7e3fefbcac2d6d09f7272", "fusion_lat": 0.0, "fusion_lon": 0.0, "rental_uris": {"android": "https://dc.lft.to/lastmile_qr_scan", "ios": "https://dc.lft.to/lastmile_qr_scan"}, "is_reserved": 0, "is_disabled": 0, "type": "electric_scooter", "bike_id": "db16780404e7e3fefbcac2d6d09f7272"}, {"lon": -77.00207183333333, "lat": 38.914321666666666, "name": "408b8da92fc113c3ac7c40489839ea90", "fusion_lat": 0.0, "fusion_lon": 0.0, "rental_uris": {"android": "https://dc.lft.to/lastmile_qr_scan", "ios": "https://dc.lft.to/lastmile_qr_scan"}, "is_reserved": 0, "is_disabled": 0, "type": "electric_scooter", "bike_id": "408b8da92fc113c3ac7c40489839ea90"}, {"lon": -77.04694366666666, "lat": 38.92133833333333, "name": "4e69a9e83acf2af4368ef1e468d7ecf8", "fusion_lat": 0.0, "fusion_lon": 0.0, "rental_uris": {"android": "https://dc.lft.to/lastmile_qr_scan", "ios": "https://dc.lft.to/lastmile_qr_scan"}, "is_reserved": 0, "is_disabled": 0, "type": "electric_scooter", "bike_id": "4e69a9e83acf2af4368ef1e468d7ecf8"}, {"lon": -77.047387, "lat": 38.9125765, "name": "2eefb37213db66452f4270f1581eda42", "fusion_lat": 0.0, "fusion_lon": 0.0, "rental_uris": {"android": "https://dc.lft.to/lastmile_qr_scan", "ios": "https://dc.lft.to/lastmile_qr_scan"}, "is_reserved": 0, "is_disabled": 0, "type": "electric_scooter", "bike_id": "2eefb37213db66452f4270f1581eda42"}, {"lon": -77.023682, "lat": 38.90197666666667, "name": "4360fb18de6589aad7ba5e4b33dfda5e", "fusion_lat": 0.0, "fusion_lon": 0.0, "rental_uris": {"android": "https://dc.lft.to/lastmile_qr_scan", "ios": "https://dc.lft.to/lastmile_qr_scan"}, "is_reserved": 0, "is_disabled": 0, "type": "electric_scooter", "bike_id": "4360fb18de6589aad7ba5e4b33dfda5e"}, {"lon": -77.03943483333333, "lat": 38.908182333333336, "name": "130f685f3d866e9b113e3a13d420138d", "fusion_lat": 0.0, "fusion_lon": 0.0, "rental_uris": {"android": "https://dc.lft.to/lastmile_qr_scan", "ios": "https://dc.lft.to/lastmile_qr_scan"}, "is_reserved": 0, "is_disabled": 0, "type": "electric_scooter", "bike_id": "130f685f3d866e9b113e3a13d420138d"}, {"lon": -76.94761933333334, "lat": 38.8962695, "name": "4f9f57019cefb61ea2fa3fab4f5c6d5f", "fusion_lat": 0.0, "fusion_lon": 0.0, "rental_uris": {"android": "https://dc.lft.to/lastmile_qr_scan", "ios": "https://dc.lft.to/lastmile_qr_scan"}, "is_reserved": 0, "is_disabled": 0, "type": "electric_bike", "bike_id": "4f9f57019cefb61ea2fa3fab4f5c6d5f"}, {"lon": -76.99962066666667, "lat": 38.90865566666667, "name": "80cbb7c070524ac4594db43744247f4e", "fusion_lat": 0.0, "fusion_lon": 0.0, "rental_uris": {"android": "https://dc.lft.to/lastmile_qr_scan", "ios": "https://dc.lft.to/lastmile_qr_scan"}, "is_reserved": 0, "is_disabled": 0, "type": "electric_scooter", "bike_id": "80cbb7c070524ac4594db43744247f4e"}, {"lon": -76.99080583333334, "lat": 38.842939, "name": "696d30ed6ec672221a2d2b5498adbf29", "fusion_lat": 0.0, "fusion_lon": 0.0, "rental_uris": {"android": "https://dc.lft.to/lastmile_qr_scan", "ios": "https://dc.lft.to/lastmile_qr_scan"}, "is_reserved": 0, "is_disabled": 0, "type": "electric_scooter", "bike_id": "696d30ed6ec672221a2d2b5498adbf29"}, {"lon": -77.01901933333333, "lat": 38.939153166666664, "name": "2c020bc6261a311f1818de06faad0ea2", "fusion_lat": 0.0, "fusion_lon": 0.0, "rental_uris": {"android": "https://dc.lft.to/lastmile_qr_scan", "ios": "https://dc.lft.to/lastmile_qr_scan"}, "is_reserved": 0, "is_disabled": 0, "type": "electric_scooter", "bike_id": "2c020bc6261a311f1818de06faad0ea2"}, {"lon": -77.02971383333333, "lat": 38.91677766666667, "name": "828e1a94e7404575c6f34cb7ffedb203", "fusion_lat": 0.0, "fusion_lon": 0.0, "rental_uris": {"android": "https://dc.lft.to/lastmile_qr_scan", "ios": "https://dc.lft.to/lastmile_qr_scan"}, "is_reserved": 0, "is_disabled": 0, "type": "electric_scooter", "bike_id": "828e1a94e7404575c6f34cb7ffedb203"}, {"lon": -76.98611166666667, "lat": 38.92573516666667, "name": "c69b5a5a145d63ad622e8fc14ea35e29", "fusion_lat": 0.0, "fusion_lon": 0.0, "rental_uris": {"android": "https://dc.lft.to/lastmile_qr_scan", "ios": "https://dc.lft.to/lastmile_qr_scan"}, "is_reserved": 0, "is_disabled": 0, "type": "electric_bike", "bike_id": "c69b5a5a145d63ad622e8fc14ea35e29"}, {"lon": -76.97019616666667, "lat": 38.92033416666666, "name": "04b24375ccdbca7afac013bb3d4888a3", "fusion_lat": 0.0, "fusion_lon": 0.0, "rental_uris": {"android": "https://dc.lft.to/lastmile_qr_scan", "ios": "https://dc.lft.to/lastmile_qr_scan"}, "is_reserved": 0, "is_disabled": 0, "type": "electric_scooter", "bike_id": "04b24375ccdbca7afac013bb3d4888a3"}, {"lon": -76.98695366666666, "lat": 38.90701333333333, "name": "095495a7e407961986f87c71e5cff04b", "fusion_lat": 0.0, "fusion_lon": 0.0, "rental_uris": {"android": "https://dc.lft.to/lastmile_qr_scan", "ios": "https://dc.lft.to/lastmile_qr_scan"}, "is_reserved": 0, "is_disabled": 0, "type": "electric_scooter", "bike_id": "095495a7e407961986f87c71e5cff04b"}, {"lon": -77.03767666666667, "lat": 38.9224225, "name": "582a152c7593113b1b7d56056afb3f49", "fusion_lat": 0.0, "fusion_lon": 0.0, "rental_uris": {"android": "https://dc.lft.to/lastmile_qr_scan", "ios": "https://dc.lft.to/lastmile_qr_scan"}, "is_reserved": 0, "is_disabled": 0, "type": "electric_scooter", "bike_id": "582a152c7593113b1b7d56056afb3f49"}, {"lon": -77.05933266666666, "lat": 38.936684, "name": "f51ed8904a7a630cfe5e69f8b97bc750", "fusion_lat": 0.0, "fusion_lon": 0.0, "rental_uris": {"android": "https://dc.lft.to/lastmile_qr_scan", "ios": "https://dc.lft.to/lastmile_qr_scan"}, "is_reserved": 0, "is_disabled": 0, "type": "electric_scooter", "bike_id": "f51ed8904a7a630cfe5e69f8b97bc750"}, {"lon": -77.04494266666667, "lat": 38.900084666666665, "name": "f7f93968a73615f721fdbca892af4779", "fusion_lat": 0.0, "fusion_lon": 0.0, "rental_uris": {"android": "https://dc.lft.to/lastmile_qr_scan", "ios": "https://dc.lft.to/lastmile_qr_scan"}, "is_reserved": 0, "is_disabled": 0, "type": "electric_scooter", "bike_id": "f7f93968a73615f721fdbca892af4779"}, {"lon": -77.02827783333333, "lat": 38.887410333333335, "name": "488df3d3854d1db73a33c9867e5180e2", "fusion_lat": 0.0, "fusion_lon": 0.0, "rental_uris": {"android": "https://dc.lft.to/lastmile_qr_scan", "ios": "https://dc.lft.to/lastmile_qr_scan"}, "is_reserved": 0, "is_disabled": 0, "type": "electric_scooter", "bike_id": "488df3d3854d1db73a33c9867e5180e2"}, {"lon": -77.03490866666667, "lat": 38.93739633333333, "name": "2ea4fd446b3d565790b10fead766ea1c", "fusion_lat": 0.0, "fusion_lon": 0.0, "rental_uris": {"android": "https://dc.lft.to/lastmile_qr_scan", "ios": "https://dc.lft.to/lastmile_qr_scan"}, "is_reserved": 0, "is_disabled": 0, "type": "electric_scooter", "bike_id": "2ea4fd446b3d565790b10fead766ea1c"}, {"lon": -77.0319065, "lat": 38.892553166666666, "name": "7cc551e72c437d57cf897d1c5af9d439", "fusion_lat": 0.0, "fusion_lon": 0.0, "rental_uris": {"android": "https://dc.lft.to/lastmile_qr_scan", "ios": "https://dc.lft.to/lastmile_qr_scan"}, "is_reserved": 0, "is_disabled": 0, "type": "electric_scooter", "bike_id": "7cc551e72c437d57cf897d1c5af9d439"}, {"lon": -77.04541483333334, "lat": 38.894815333333334, "name": "aa4e393c202f419487db283684b425fe", "fusion_lat": 0.0, "fusion_lon": 0.0, "rental_uris": {"android": "https://dc.lft.to/lastmile_qr_scan", "ios": "https://dc.lft.to/lastmile_qr_scan"}, "is_reserved": 0, "is_disabled": 0, "type": "electric_scooter", "bike_id": "aa4e393c202f419487db283684b425fe"}, {"lon": -77.033353, "lat": 38.89850033333333, "name": "0fdd7ad741fd1afeff98895af4c637b0", "fusion_lat": 0.0, "fusion_lon": 0.0, "rental_uris": {"android": "https://dc.lft.to/lastmile_qr_scan", "ios": "https://dc.lft.to/lastmile_qr_scan"}, "is_reserved": 0, "is_disabled": 0, "type": "electric_scooter", "bike_id": "0fdd7ad741fd1afeff98895af4c637b0"}, {"lon": -76.95755566666666, "lat": 38.8842895, "name": "d2384310d601ed23e9d59e8f1cf99323", "fusion_lat": 0.0, "fusion_lon": 0.0, "rental_uris": {"android": "https://dc.lft.to/lastmile_qr_scan", "ios": "https://dc.lft.to/lastmile_qr_scan"}, "is_reserved": 0, "is_disabled": 0, "type": "electric_scooter", "bike_id": "d2384310d601ed23e9d59e8f1cf99323"}, {"lon": -77.03304166666666, "lat": 38.901543333333336, "name": "af77651819dfa48b70636617db00d2d0", "fusion_lat": 0.0, "fusion_lon": 0.0, "rental_uris": {"android": "https://dc.lft.to/lastmile_qr_scan", "ios": "https://dc.lft.to/lastmile_qr_scan"}, "is_reserved": 0, "is_disabled": 0, "type": "electric_scooter", "bike_id": "af77651819dfa48b70636617db00d2d0"}, {"lon": -77.0432965, "lat": 38.926176833333336, "name": "bce3fc2cfcf17d68871d0a1325d44658", "fusion_lat": 0.0, "fusion_lon": 0.0, "rental_uris": {"android": "https://dc.lft.to/lastmile_qr_scan", "ios": "https://dc.lft.to/lastmile_qr_scan"}, "is_reserved": 0, "is_disabled": 0, "type": "electric_scooter", "bike_id": "bce3fc2cfcf17d68871d0a1325d44658"}, {"lon": -77.038426, "lat": 38.91821766666666, "name": "3168cc48a9928f2309b06907533aabaf", "fusion_lat": 0.0, "fusion_lon": 0.0, "rental_uris": {"android": "https://dc.lft.to/lastmile_qr_scan", "ios": "https://dc.lft.to/lastmile_qr_scan"}, "is_reserved": 0, "is_disabled": 0, "type": "electric_scooter", "bike_id": "3168cc48a9928f2309b06907533aabaf"}, {"lon": -77.039589, "lat": 38.90238133333333, "name": "82612332a0ffb91ca19c662d32f7d2a7", "fusion_lat": 0.0, "fusion_lon": 0.0, "rental_uris": {"android": "https://dc.lft.to/lastmile_qr_scan", "ios": "https://dc.lft.to/lastmile_qr_scan"}, "is_reserved": 0, "is_disabled": 0, "type": "electric_scooter", "bike_id": "82612332a0ffb91ca19c662d32f7d2a7"}, {"lon": -76.93017666666667, "lat": 38.900841, "name": "a6bd2376e07d7c8f27ac131afde97dd5", "fusion_lat": 0.0, "fusion_lon": 0.0, "rental_uris": {"android": "https://dc.lft.to/lastmile_qr_scan", "ios": "https://dc.lft.to/lastmile_qr_scan"}, "is_reserved": 0, "is_disabled": 0, "type": "electric_scooter", "bike_id": "a6bd2376e07d7c8f27ac131afde97dd5"}, {"lon": -77.05530816666666, "lat": 38.89942416666667, "name": "be25f1fed98c84e7b3b76e5e9f56c1fc", "fusion_lat": 0.0, "fusion_lon": 0.0, "rental_uris": {"android": "https://dc.lft.to/lastmile_qr_scan", "ios": "https://dc.lft.to/lastmile_qr_scan"}, "is_reserved": 0, "is_disabled": 0, "type": "electric_scooter", "bike_id": "be25f1fed98c84e7b3b76e5e9f56c1fc"}, {"lon": -76.87824933333333, "lat": 38.992311666666666, "name": "ede4778674a9ae82737264f20961592a", "fusion_lat": 0.0, "fusion_lon": 0.0, "rental_uris": {"android": "https://dc.lft.to/lastmile_qr_scan", "ios": "https://dc.lft.to/lastmile_qr_scan"}, "is_reserved": 0, "is_disabled": 0, "type": "electric_bike", "bike_id": "ede4778674a9ae82737264f20961592a"}, {"lon": -76.98172766666667, "lat": 38.9003635, "name": "876c104e58c463d050c834d15e5b827a", "fusion_lat": 0.0, "fusion_lon": 0.0, "rental_uris": {"android": "https://dc.lft.to/lastmile_qr_scan", "ios": "https://dc.lft.to/lastmile_qr_scan"}, "is_reserved": 0, "is_disabled": 0, "type": "electric_scooter", "bike_id": "876c104e58c463d050c834d15e5b827a"}, {"lon": -76.982343, "lat": 38.9250475, "name": "bf3622de10fa3180f0c607de33db141e", "fusion_lat": 0.0, "fusion_lon": 0.0, "rental_uris": {"android": "https://dc.lft.to/lastmile_qr_scan", "ios": "https://dc.lft.to/lastmile_qr_scan"}, "is_reserved": 0, "is_disabled": 0, "type": "electric_bike", "bike_id": "bf3622de10fa3180f0c607de33db141e"}, {"lon": -76.98776266666667, "lat": 38.900264, "name": "34b6a0c20337aad19ad99fdde33b1aa4", "fusion_lat": 0.0, "fusion_lon": 0.0, "rental_uris": {"android": "https://dc.lft.to/lastmile_qr_scan", "ios": "https://dc.lft.to/lastmile_qr_scan"}, "is_reserved": 0, "is_disabled": 0, "type": "electric_scooter", "bike_id": "34b6a0c20337aad19ad99fdde33b1aa4"}, {"lon": -76.97747216666667, "lat": 38.90006783333333, "name": "f8ae323ad2e60110c194a464b6e53da7", "fusion_lat": 0.0, "fusion_lon": 0.0, "rental_uris": {"android": "https://dc.lft.to/lastmile_qr_scan", "ios": "https://dc.lft.to/lastmile_qr_scan"}, "is_reserved": 0, "is_disabled": 0, "type": "electric_scooter", "bike_id": "f8ae323ad2e60110c194a464b6e53da7"}, {"lon": -76.94874116666666, "lat": 38.8895965, "name": "7f5401b68263a316ed0965e4912105b2", "fusion_lat": 0.0, "fusion_lon": 0.0, "rental_uris": {"android": "https://dc.lft.to/lastmile_qr_scan", "ios": "https://dc.lft.to/lastmile_qr_scan"}, "is_reserved": 0, "is_disabled": 0, "type": "electric_bike", "bike_id": "7f5401b68263a316ed0965e4912105b2"}, {"lon": -77.02024066666667, "lat": 38.899489, "name": "1e44642d2feee50dbdb8cc01dda83fa7", "fusion_lat": 0.0, "fusion_lon": 0.0, "rental_uris": {"android": "https://dc.lft.to/lastmile_qr_scan", "ios": "https://dc.lft.to/lastmile_qr_scan"}, "is_reserved": 0, "is_disabled": 0, "type": "electric_scooter", "bike_id": "1e44642d2feee50dbdb8cc01dda83fa7"}, {"lon": -77.0378705, "lat": 38.926314, "name": "ff5535de9d647fd7f435d8e7b4f1904d", "fusion_lat": 0.0, "fusion_lon": 0.0, "rental_uris": {"android": "https://dc.lft.to/lastmile_qr_scan", "ios": "https://dc.lft.to/lastmile_qr_scan"}, "is_reserved": 0, "is_disabled": 0, "type": "electric_scooter", "bike_id": "ff5535de9d647fd7f435d8e7b4f1904d"}, {"lon": -76.96522683333333, "lat": 38.876284166666665, "name": "41f2cb03e17c4f05c192d81c8009ab99", "fusion_lat": 0.0, "fusion_lon": 0.0, "rental_uris": {"android": "https://dc.lft.to/lastmile_qr_scan", "ios": "https://dc.lft.to/lastmile_qr_scan"}, "is_reserved": 0, "is_disabled": 0, "type": "electric_scooter", "bike_id": "41f2cb03e17c4f05c192d81c8009ab99"}, {"lon": -76.952542, "lat": 38.90693566666667, "name": "f6b3a49373ea2d75468031032fcd0401", "fusion_lat": 0.0, "fusion_lon": 0.0, "rental_uris": {"android": "https://dc.lft.to/lastmile_qr_scan", "ios": "https://dc.lft.to/lastmile_qr_scan"}, "is_reserved": 0, "is_disabled": 0, "type": "electric_bike", "bike_id": "f6b3a49373ea2d75468031032fcd0401"}, {"lon": -77.00145816666667, "lat": 38.900178833333335, "name": "f02ef6f88325edecea59c211f98c3a53", "fusion_lat": 0.0, "fusion_lon": 0.0, "rental_uris": {"android": "https://dc.lft.to/lastmile_qr_scan", "ios": "https://dc.lft.to/lastmile_qr_scan"}, "is_reserved": 0, "is_disabled": 0, "type": "electric_scooter", "bike_id": "f02ef6f88325edecea59c211f98c3a53"}, {"lon": -77.112344, "lat": 38.81226216666666, "name": "2ce5ff10d186d47957263e933d8940d6", "fusion_lat": 0.0, "fusion_lon": 0.0, "rental_uris": {"android": "https://dc.lft.to/lastmile_qr_scan", "ios": "https://dc.lft.to/lastmile_qr_scan"}, "is_reserved": 0, "is_disabled": 0, "type": "electric_bike", "bike_id": "2ce5ff10d186d47957263e933d8940d6"}, {"lon": -77.033357, "lat": 38.898237, "name": "eadf3fb72ada440e61cdc4c7c587ba07", "fusion_lat": 0.0, "fusion_lon": 0.0, "rental_uris": {"android": "https://dc.lft.to/lastmile_qr_scan", "ios": "https://dc.lft.to/lastmile_qr_scan"}, "is_reserved": 0, "is_disabled": 0, "type": "electric_scooter", "bike_id": "eadf3fb72ada440e61cdc4c7c587ba07"}, {"lon": -76.9811825, "lat": 38.89667683333333, "name": "b3ff11289fe521972e127bff681992d6", "fusion_lat": 0.0, "fusion_lon": 0.0, "rental_uris": {"android": "https://dc.lft.to/lastmile_qr_scan", "ios": "https://dc.lft.to/lastmile_qr_scan"}, "is_reserved": 0, "is_disabled": 0, "type": "electric_bike", "bike_id": "b3ff11289fe521972e127bff681992d6"}, {"lon": -77.01701316666667, "lat": 38.913855833333336, "name": "2bcfac54689e9b13c8d5700f6dd0418c", "fusion_lat": 0.0, "fusion_lon": 0.0, "rental_uris": {"android": "https://dc.lft.to/lastmile_qr_scan", "ios": "https://dc.lft.to/lastmile_qr_scan"}, "is_reserved": 0, "is_disabled": 0, "type": "electric_scooter", "bike_id": "2bcfac54689e9b13c8d5700f6dd0418c"}, {"lon": -77.02226916666666, "lat": 38.91268083333333, "name": "58af22153e6aa20d75435c3fb1f23247", "fusion_lat": 0.0, "fusion_lon": 0.0, "rental_uris": {"android": "https://dc.lft.to/lastmile_qr_scan", "ios": "https://dc.lft.to/lastmile_qr_scan"}, "is_reserved": 0, "is_disabled": 0, "type": "electric_scooter", "bike_id": "58af22153e6aa20d75435c3fb1f23247"}, {"lon": -77.02156533333333, "lat": 38.925992, "name": "6a7f18867b51e30dd14c673e77d6ba84", "fusion_lat": 0.0, "fusion_lon": 0.0, "rental_uris": {"android": "https://dc.lft.to/lastmile_qr_scan", "ios": "https://dc.lft.to/lastmile_qr_scan"}, "is_reserved": 0, "is_disabled": 0, "type": "electric_scooter", "bike_id": "6a7f18867b51e30dd14c673e77d6ba84"}, {"lon": -76.98328216666667, "lat": 38.96603433333333, "name": "279dbcebef09576ab1fcc294a5b6ca52", "fusion_lat": 0.0, "fusion_lon": 0.0, "rental_uris": {"android": "https://dc.lft.to/lastmile_qr_scan", "ios": "https://dc.lft.to/lastmile_qr_scan"}, "is_reserved": 0, "is_disabled": 0, "type": "electric_bike", "bike_id": "279dbcebef09576ab1fcc294a5b6ca52"}, {"lon": -76.99615516666667, "lat": 38.904763333333335, "name": "db31ced60a403f6e62a691bfc678f2e4", "fusion_lat": 0.0, "fusion_lon": 0.0, "rental_uris": {"android": "https://dc.lft.to/lastmile_qr_scan", "ios": "https://dc.lft.to/lastmile_qr_scan"}, "is_reserved": 0, "is_disabled": 0, "type": "electric_scooter", "bike_id": "db31ced60a403f6e62a691bfc678f2e4"}, {"lon": -77.03283416666666, "lat": 38.93688233333334, "name": "5780ee8078926cfb3847cf547236b602", "fusion_lat": 0.0, "fusion_lon": 0.0, "rental_uris": {"android": "https://dc.lft.to/lastmile_qr_scan", "ios": "https://dc.lft.to/lastmile_qr_scan"}, "is_reserved": 0, "is_disabled": 0, "type": "electric_scooter", "bike_id": "5780ee8078926cfb3847cf547236b602"}, {"lon": -77.0220965, "lat": 38.887146, "name": "121f0179ff407fcd24219fbaa60c645f", "fusion_lat": 0.0, "fusion_lon": 0.0, "rental_uris": {"android": "https://dc.lft.to/lastmile_qr_scan", "ios": "https://dc.lft.to/lastmile_qr_scan"}, "is_reserved": 0, "is_disabled": 0, "type": "electric_scooter", "bike_id": "121f0179ff407fcd24219fbaa60c645f"}, {"lon": -77.0057165, "lat": 38.87850266666667, "name": "099bbaf44a867adfb4a8e946a02df44e", "fusion_lat": 0.0, "fusion_lon": 0.0, "rental_uris": {"android": "https://dc.lft.to/lastmile_qr_scan", "ios": "https://dc.lft.to/lastmile_qr_scan"}, "is_reserved": 0, "is_disabled": 0, "type": "electric_scooter", "bike_id": "099bbaf44a867adfb4a8e946a02df44e"}, {"lon": -77.02539683333333, "lat": 38.94095216666667, "name": "e074624c0ea3385d99c6c8cba2c73675", "fusion_lat": 0.0, "fusion_lon": 0.0, "rental_uris": {"android": "https://dc.lft.to/lastmile_qr_scan", "ios": "https://dc.lft.to/lastmile_qr_scan"}, "is_reserved": 0, "is_disabled": 0, "type": "electric_scooter", "bike_id": "e074624c0ea3385d99c6c8cba2c73675"}, {"lon": -76.98898916666667, "lat": 38.866743666666665, "name": "132737ae156857d2abdb98b683c8298c", "fusion_lat": 0.0, "fusion_lon": 0.0, "rental_uris": {"android": "https://dc.lft.to/lastmile_qr_scan", "ios": "https://dc.lft.to/lastmile_qr_scan"}, "is_reserved": 0, "is_disabled": 0, "type": "electric_scooter", "bike_id": "132737ae156857d2abdb98b683c8298c"}, {"lon": -77.02328033333333, "lat": 38.91545716666667, "name": "986cf0839911cbb202a0099685e8002b", "fusion_lat": 0.0, "fusion_lon": 0.0, "rental_uris": {"android": "https://dc.lft.to/lastmile_qr_scan", "ios": "https://dc.lft.to/lastmile_qr_scan"}, "is_reserved": 0, "is_disabled": 0, "type": "electric_scooter", "bike_id": "986cf0839911cbb202a0099685e8002b"}, {"lon": -77.033483, "lat": 38.88509116666667, "name": "a7923439ac248b43d263bc54dbca1483", "fusion_lat": 0.0, "fusion_lon": 0.0, "rental_uris": {"android": "https://dc.lft.to/lastmile_qr_scan", "ios": "https://dc.lft.to/lastmile_qr_scan"}, "is_reserved": 0, "is_disabled": 0, "type": "electric_scooter", "bike_id": "a7923439ac248b43d263bc54dbca1483"}, {"lon": -77.0499985, "lat": 38.892250833333335, "name": "dca9c291ec9a1af4e6f051707b09b3e3", "fusion_lat": 0.0, "fusion_lon": 0.0, "rental_uris": {"android": "https://dc.lft.to/lastmile_qr_scan", "ios": "https://dc.lft.to/lastmile_qr_scan"}, "is_reserved": 0, "is_disabled": 0, "type": "electric_scooter", "bike_id": "dca9c291ec9a1af4e6f051707b09b3e3"}, {"lon": -76.99456983333333, "lat": 38.8859705, "name": "04c5ccdb92bd8a7981a38be11c8f9e0c", "fusion_lat": 0.0, "fusion_lon": 0.0, "rental_uris": {"android": "https://dc.lft.to/lastmile_qr_scan", "ios": "https://dc.lft.to/lastmile_qr_scan"}, "is_reserved": 0, "is_disabled": 0, "type": "electric_scooter", "bike_id": "04c5ccdb92bd8a7981a38be11c8f9e0c"}, {"lon": -77.08541333333334, "lat": 38.856219, "name": "0317a8e941a4a307463c1e9053025ca5", "fusion_lat": 0.0, "fusion_lon": 0.0, "rental_uris": {"android": "https://dc.lft.to/lastmile_qr_scan", "ios": "https://dc.lft.to/lastmile_qr_scan"}, "is_reserved": 0, "is_disabled": 0, "type": "electric_bike", "bike_id": "0317a8e941a4a307463c1e9053025ca5"}, {"lon": -77.026349, "lat": 38.9622265, "name": "263a867528882d7ac958cc76954bb910", "fusion_lat": 0.0, "fusion_lon": 0.0, "rental_uris": {"android": "https://dc.lft.to/lastmile_qr_scan", "ios": "https://dc.lft.to/lastmile_qr_scan"}, "is_reserved": 0, "is_disabled": 0, "type": "electric_bike", "bike_id": "263a867528882d7ac958cc76954bb910"}, {"lon": -77.034564, "lat": 38.9457245, "name": "cfad71b665d3ae953de996a28190331c", "fusion_lat": 0.0, "fusion_lon": 0.0, "rental_uris": {"android": "https://dc.lft.to/lastmile_qr_scan", "ios": "https://dc.lft.to/lastmile_qr_scan"}, "is_reserved": 0, "is_disabled": 0, "type": "electric_scooter", "bike_id": "cfad71b665d3ae953de996a28190331c"}, {"lon": -77.02969783333333, "lat": 38.91678133333333, "name": "5a549813c611fbb4d04731be128a0b51", "fusion_lat": 0.0, "fusion_lon": 0.0, "rental_uris": {"android": "https://dc.lft.to/lastmile_qr_scan", "ios": "https://dc.lft.to/lastmile_qr_scan"}, "is_reserved": 0, "is_disabled": 0, "type": "electric_scooter", "bike_id": "5a549813c611fbb4d04731be128a0b51"}, {"lon": -77.17844466666666, "lat": 39.08902483333333, "name": "90ce9bb3bbefae1e333bb3d6ac8d3c02", "fusion_lat": 0.0, "fusion_lon": 0.0, "rental_uris": {"android": "https://dc.lft.to/lastmile_qr_scan", "ios": "https://dc.lft.to/lastmile_qr_scan"}, "is_reserved": 0, "is_disabled": 0, "type": "electric_bike", "bike_id": "90ce9bb3bbefae1e333bb3d6ac8d3c02"}, {"lon": -77.02946516666667, "lat": 38.90502566666667, "name": "fcd9f449682077e4cd224ebd83900c30", "fusion_lat": 0.0, "fusion_lon": 0.0, "rental_uris": {"android": "https://dc.lft.to/lastmile_qr_scan", "ios": "https://dc.lft.to/lastmile_qr_scan"}, "is_reserved": 0, "is_disabled": 0, "type": "electric_scooter", "bike_id": "fcd9f449682077e4cd224ebd83900c30"}, {"lon": -76.992713, "lat": 38.899805, "name": "3d318dbafeca1dc064ff7a3ee713cc4d", "fusion_lat": 0.0, "fusion_lon": 0.0, "rental_uris": {"android": "https://dc.lft.to/lastmile_qr_scan", "ios": "https://dc.lft.to/lastmile_qr_scan"}, "is_reserved": 0, "is_disabled": 0, "type": "electric_scooter", "bike_id": "3d318dbafeca1dc064ff7a3ee713cc4d"}, {"lon": -77.03735833333333, "lat": 38.92898233333333, "name": "e07da142c356551c80bddd24045e7ace", "fusion_lat": 0.0, "fusion_lon": 0.0, "rental_uris": {"android": "https://dc.lft.to/lastmile_qr_scan", "ios": "https://dc.lft.to/lastmile_qr_scan"}, "is_reserved": 0, "is_disabled": 0, "type": "electric_scooter", "bike_id": "e07da142c356551c80bddd24045e7ace"}, {"lon": -76.9880135, "lat": 38.89232, "name": "9263e24110f05c4c3ae2cd1895ac2866", "fusion_lat": 0.0, "fusion_lon": 0.0, "rental_uris": {"android": "https://dc.lft.to/lastmile_qr_scan", "ios": "https://dc.lft.to/lastmile_qr_scan"}, "is_reserved": 0, "is_disabled": 0, "type": "electric_scooter", "bike_id": "9263e24110f05c4c3ae2cd1895ac2866"}, {"lon": -77.04568266666666, "lat": 38.900133333333336, "name": "42edb520f6c2deb2d49e54adafa847de", "fusion_lat": 0.0, "fusion_lon": 0.0, "rental_uris": {"android": "https://dc.lft.to/lastmile_qr_scan", "ios": "https://dc.lft.to/lastmile_qr_scan"}, "is_reserved": 0, "is_disabled": 0, "type": "electric_scooter", "bike_id": "42edb520f6c2deb2d49e54adafa847de"}, {"lon": -77.04038116666666, "lat": 38.91715683333334, "name": "5d4eb7d8b4ffa9d0ea0b1598fa2fa8bc", "fusion_lat": 0.0, "fusion_lon": 0.0, "rental_uris": {"android": "https://dc.lft.to/lastmile_qr_scan", "ios": "https://dc.lft.to/lastmile_qr_scan"}, "is_reserved": 0, "is_disabled": 0, "type": "electric_scooter", "bike_id": "5d4eb7d8b4ffa9d0ea0b1598fa2fa8bc"}, {"lon": -76.9655405, "lat": 38.95095383333334, "name": "09d3936a0506a09cc65c1a4e6c327818", "fusion_lat": 0.0, "fusion_lon": 0.0, "rental_uris": {"android": "https://dc.lft.to/lastmile_qr_scan", "ios": "https://dc.lft.to/lastmile_qr_scan"}, "is_reserved": 0, "is_disabled": 0, "type": "electric_bike", "bike_id": "09d3936a0506a09cc65c1a4e6c327818"}, {"lon": -77.07853933333334, "lat": 38.93152366666666, "name": "9b8facd75b82922e69c70dab44780f3d", "fusion_lat": 0.0, "fusion_lon": 0.0, "rental_uris": {"android": "https://dc.lft.to/lastmile_qr_scan", "ios": "https://dc.lft.to/lastmile_qr_scan"}, "is_reserved": 0, "is_disabled": 0, "type": "electric_scooter", "bike_id": "9b8facd75b82922e69c70dab44780f3d"}, {"lon": -77.07349733333334, "lat": 38.91103666666667, "name": "de69a290296cc8e24deac2520e5a962d", "fusion_lat": 0.0, "fusion_lon": 0.0, "rental_uris": {"android": "https://dc.lft.to/lastmile_qr_scan", "ios": "https://dc.lft.to/lastmile_qr_scan"}, "is_reserved": 0, "is_disabled": 0, "type": "electric_scooter", "bike_id": "de69a290296cc8e24deac2520e5a962d"}, {"lon": -77.0072395, "lat": 38.9047275, "name": "886943b95352ee2922d93d7e97d5c92a", "fusion_lat": 0.0, "fusion_lon": 0.0, "rental_uris": {"android": "https://dc.lft.to/lastmile_qr_scan", "ios": "https://dc.lft.to/lastmile_qr_scan"}, "is_reserved": 0, "is_disabled": 0, "type": "electric_scooter", "bike_id": "886943b95352ee2922d93d7e97d5c92a"}, {"lon": -77.05144433333334, "lat": 38.904489833333336, "name": "b743606fd09004020dcf5216f09ee873", "fusion_lat": 0.0, "fusion_lon": 0.0, "rental_uris": {"android": "https://dc.lft.to/lastmile_qr_scan", "ios": "https://dc.lft.to/lastmile_qr_scan"}, "is_reserved": 0, "is_disabled": 0, "type": "electric_scooter", "bike_id": "b743606fd09004020dcf5216f09ee873"}, {"lon": -77.03180116666667, "lat": 38.91919216666667, "name": "e5e4d12512e46735254fb416db57bb4a", "fusion_lat": 0.0, "fusion_lon": 0.0, "rental_uris": {"android": "https://dc.lft.to/lastmile_qr_scan", "ios": "https://dc.lft.to/lastmile_qr_scan"}, "is_reserved": 0, "is_disabled": 0, "type": "electric_scooter", "bike_id": "e5e4d12512e46735254fb416db57bb4a"}, {"lon": -76.985378, "lat": 38.8799545, "name": "d5c111f4bec056a4d9cae1efa9dfa6dc", "fusion_lat": 0.0, "fusion_lon": 0.0, "rental_uris": {"android": "https://dc.lft.to/lastmile_qr_scan", "ios": "https://dc.lft.to/lastmile_qr_scan"}, "is_reserved": 0, "is_disabled": 0, "type": "electric_scooter", "bike_id": "d5c111f4bec056a4d9cae1efa9dfa6dc"}, {"lon": -77.03448133333333, "lat": 38.905749, "name": "c30b90c2668d9b9c0ad887fe02323caa", "fusion_lat": 0.0, "fusion_lon": 0.0, "rental_uris": {"android": "https://dc.lft.to/lastmile_qr_scan", "ios": "https://dc.lft.to/lastmile_qr_scan"}, "is_reserved": 0, "is_disabled": 0, "type": "electric_scooter", "bike_id": "c30b90c2668d9b9c0ad887fe02323caa"}, {"lon": -77.02834783333333, "lat": 38.892257666666666, "name": "39a5e54cb9b1b6c474f4226054ff0f90", "fusion_lat": 0.0, "fusion_lon": 0.0, "rental_uris": {"android": "https://dc.lft.to/lastmile_qr_scan", "ios": "https://dc.lft.to/lastmile_qr_scan"}, "is_reserved": 0, "is_disabled": 0, "type": "electric_scooter", "bike_id": "39a5e54cb9b1b6c474f4226054ff0f90"}, {"lon": -77.02205483333333, "lat": 38.915538833333336, "name": "fcd9a0759035d36efdfcc879df2147f3", "fusion_lat": 0.0, "fusion_lon": 0.0, "rental_uris": {"android": "https://dc.lft.to/lastmile_qr_scan", "ios": "https://dc.lft.to/lastmile_qr_scan"}, "is_reserved": 0, "is_disabled": 0, "type": "electric_scooter", "bike_id": "fcd9a0759035d36efdfcc879df2147f3"}, {"lon": -77.0604035, "lat": 38.9392895, "name": "2b7facadb75ac870d82e1a7c602aab97", "fusion_lat": 0.0, "fusion_lon": 0.0, "rental_uris": {"android": "https://dc.lft.to/lastmile_qr_scan", "ios": "https://dc.lft.to/lastmile_qr_scan"}, "is_reserved": 0, "is_disabled": 0, "type": "electric_scooter", "bike_id": "2b7facadb75ac870d82e1a7c602aab97"}, {"lon": -77.02441933333333, "lat": 38.92043783333333, "name": "14bdc2ec5a5ed3584b4649d64dea21e9", "fusion_lat": 0.0, "fusion_lon": 0.0, "rental_uris": {"android": "https://dc.lft.to/lastmile_qr_scan", "ios": "https://dc.lft.to/lastmile_qr_scan"}, "is_reserved": 0, "is_disabled": 0, "type": "electric_scooter", "bike_id": "14bdc2ec5a5ed3584b4649d64dea21e9"}, {"lon": -76.93343816666666, "lat": 38.89903433333333, "name": "6a5439f8d54364c46c7f8d8f838a2f7e", "fusion_lat": 0.0, "fusion_lon": 0.0, "rental_uris": {"android": "https://dc.lft.to/lastmile_qr_scan", "ios": "https://dc.lft.to/lastmile_qr_scan"}, "is_reserved": 0, "is_disabled": 0, "type": "electric_scooter", "bike_id": "6a5439f8d54364c46c7f8d8f838a2f7e"}, {"lon": -77.03622433333334, "lat": 38.92916316666667, "name": "d7e3300bd9c666aec0fac57a3b770c5f", "fusion_lat": 0.0, "fusion_lon": 0.0, "rental_uris": {"android": "https://dc.lft.to/lastmile_qr_scan", "ios": "https://dc.lft.to/lastmile_qr_scan"}, "is_reserved": 0, "is_disabled": 0, "type": "electric_scooter", "bike_id": "d7e3300bd9c666aec0fac57a3b770c5f"}, {"lon": -77.03660983333333, "lat": 38.9117425, "name": "0a194468f630718e5d00836551b1ff83", "fusion_lat": 0.0, "fusion_lon": 0.0, "rental_uris": {"android": "https://dc.lft.to/lastmile_qr_scan", "ios": "https://dc.lft.to/lastmile_qr_scan"}, "is_reserved": 0, "is_disabled": 0, "type": "electric_scooter", "bike_id": "0a194468f630718e5d00836551b1ff83"}, {"lon": -77.026297, "lat": 38.89223166666667, "name": "f09f9327096367f75da953364a7c349d", "fusion_lat": 0.0, "fusion_lon": 0.0, "rental_uris": {"android": "https://dc.lft.to/lastmile_qr_scan", "ios": "https://dc.lft.to/lastmile_qr_scan"}, "is_reserved": 0, "is_disabled": 0, "type": "electric_scooter", "bike_id": "f09f9327096367f75da953364a7c349d"}, {"lon": -77.13595133333334, "lat": 39.053458666666664, "name": "0aad812cac4d19b9cd9f9fbbf1aad440", "fusion_lat": 0.0, "fusion_lon": 0.0, "rental_uris": {"android": "https://dc.lft.to/lastmile_qr_scan", "ios": "https://dc.lft.to/lastmile_qr_scan"}, "is_reserved": 0, "is_disabled": 0, "type": "electric_bike", "bike_id": "0aad812cac4d19b9cd9f9fbbf1aad440"}, {"lon": -77.03480133333333, "lat": 38.92875566666667, "name": "03038335754d38bc29e3c3016244ac3f", "fusion_lat": 0.0, "fusion_lon": 0.0, "rental_uris": {"android": "https://dc.lft.to/lastmile_qr_scan", "ios": "https://dc.lft.to/lastmile_qr_scan"}, "is_reserved": 0, "is_disabled": 0, "type": "electric_scooter", "bike_id": "03038335754d38bc29e3c3016244ac3f"}, {"lon": -77.06421916666666, "lat": 38.843341, "name": "416d7c64a464c901f7f7838750b90992", "fusion_lat": 0.0, "fusion_lon": 0.0, "rental_uris": {"android": "https://dc.lft.to/lastmile_qr_scan", "ios": "https://dc.lft.to/lastmile_qr_scan"}, "is_reserved": 0, "is_disabled": 0, "type": "electric_bike", "bike_id": "416d7c64a464c901f7f7838750b90992"}, {"lon": -77.02367266666667, "lat": 38.901964666666665, "name": "81ef382a0cb75513768f9501334a9680", "fusion_lat": 0.0, "fusion_lon": 0.0, "rental_uris": {"android": "https://dc.lft.to/lastmile_qr_scan", "ios": "https://dc.lft.to/lastmile_qr_scan"}, "is_reserved": 0, "is_disabled": 0, "type": "electric_scooter", "bike_id": "81ef382a0cb75513768f9501334a9680"}, {"lon": -77.0143775, "lat": 38.87782466666667, "name": "a2f978e1373a7eee9f0cf794d66735b9", "fusion_lat": 0.0, "fusion_lon": 0.0, "rental_uris": {"android": "https://dc.lft.to/lastmile_qr_scan", "ios": "https://dc.lft.to/lastmile_qr_scan"}, "is_reserved": 0, "is_disabled": 0, "type": "electric_scooter", "bike_id": "a2f978e1373a7eee9f0cf794d66735b9"}, {"lon": -76.94854133333334, "lat": 38.88299466666667, "name": "b2bbb66738cd49723836ac6d7a489b06", "fusion_lat": 0.0, "fusion_lon": 0.0, "rental_uris": {"android": "https://dc.lft.to/lastmile_qr_scan", "ios": "https://dc.lft.to/lastmile_qr_scan"}, "is_reserved": 0, "is_disabled": 0, "type": "electric_scooter", "bike_id": "b2bbb66738cd49723836ac6d7a489b06"}, {"lon": -76.98755833333334, "lat": 38.845004833333334, "name": "1ea051c97317a07c89130d356671513b", "fusion_lat": 0.0, "fusion_lon": 0.0, "rental_uris": {"android": "https://dc.lft.to/lastmile_qr_scan", "ios": "https://dc.lft.to/lastmile_qr_scan"}, "is_reserved": 0, "is_disabled": 0, "type": "electric_scooter", "bike_id": "1ea051c97317a07c89130d356671513b"}, {"lon": -77.001419, "lat": 38.900149, "name": "1f5190f1bb6250d158ea9201d29d6d3e", "fusion_lat": 0.0, "fusion_lon": 0.0, "rental_uris": {"android": "https://dc.lft.to/lastmile_qr_scan", "ios": "https://dc.lft.to/lastmile_qr_scan"}, "is_reserved": 0, "is_disabled": 0, "type": "electric_scooter", "bike_id": "1f5190f1bb6250d158ea9201d29d6d3e"}, {"lon": -76.93543266666667, "lat": 38.95558916666667, "name": "747eb09b89cecb8d2e30c0c5a0afcd33", "fusion_lat": 0.0, "fusion_lon": 0.0, "rental_uris": {"android": "https://dc.lft.to/lastmile_qr_scan", "ios": "https://dc.lft.to/lastmile_qr_scan"}, "is_reserved": 0, "is_disabled": 0, "type": "electric_bike", "bike_id": "747eb09b89cecb8d2e30c0c5a0afcd33"}, {"lon": -77.05286783333334, "lat": 38.9105735, "name": "114298f3dec14d6103591f697782bdbe", "fusion_lat": 0.0, "fusion_lon": 0.0, "rental_uris": {"android": "https://dc.lft.to/lastmile_qr_scan", "ios": "https://dc.lft.to/lastmile_qr_scan"}, "is_reserved": 0, "is_disabled": 0, "type": "electric_scooter", "bike_id": "114298f3dec14d6103591f697782bdbe"}, {"lon": -76.98738533333334, "lat": 38.9443205, "name": "d6b33f53734b8188ad4c66e5c688cd6e", "fusion_lat": 0.0, "fusion_lon": 0.0, "rental_uris": {"android": "https://dc.lft.to/lastmile_qr_scan", "ios": "https://dc.lft.to/lastmile_qr_scan"}, "is_reserved": 0, "is_disabled": 0, "type": "electric_bike", "bike_id": "d6b33f53734b8188ad4c66e5c688cd6e"}, {"lon": -77.015831, "lat": 38.876529, "name": "0bb0d0a8d80eea00160705e261f5c4e9", "fusion_lat": 0.0, "fusion_lon": 0.0, "rental_uris": {"android": "https://dc.lft.to/lastmile_qr_scan", "ios": "https://dc.lft.to/lastmile_qr_scan"}, "is_reserved": 0, "is_disabled": 0, "type": "electric_scooter", "bike_id": "0bb0d0a8d80eea00160705e261f5c4e9"}, {"lon": -77.0356935, "lat": 38.95722883333333, "name": "3c521241878dfaf70981d1157840ee92", "fusion_lat": 0.0, "fusion_lon": 0.0, "rental_uris": {"android": "https://dc.lft.to/lastmile_qr_scan", "ios": "https://dc.lft.to/lastmile_qr_scan"}, "is_reserved": 0, "is_disabled": 0, "type": "electric_scooter", "bike_id": "3c521241878dfaf70981d1157840ee92"}, {"lon": -77.0562805, "lat": 38.9242015, "name": "31a4f8656ba6b25a6da8326e7ed7db26", "fusion_lat": 0.0, "fusion_lon": 0.0, "rental_uris": {"android": "https://dc.lft.to/lastmile_qr_scan", "ios": "https://dc.lft.to/lastmile_qr_scan"}, "is_reserved": 0, "is_disabled": 0, "type": "electric_scooter", "bike_id": "31a4f8656ba6b25a6da8326e7ed7db26"}, {"lon": -77.07361966666667, "lat": 38.93369, "name": "88a009b855e97edab2ab80e639589f3c", "fusion_lat": 0.0, "fusion_lon": 0.0, "rental_uris": {"android": "https://dc.lft.to/lastmile_qr_scan", "ios": "https://dc.lft.to/lastmile_qr_scan"}, "is_reserved": 0, "is_disabled": 0, "type": "electric_scooter", "bike_id": "88a009b855e97edab2ab80e639589f3c"}, {"lon": -77.02813716666667, "lat": 38.956102, "name": "1cce6faf3530128e3e45c5e4b533c4dd", "fusion_lat": 0.0, "fusion_lon": 0.0, "rental_uris": {"android": "https://dc.lft.to/lastmile_qr_scan", "ios": "https://dc.lft.to/lastmile_qr_scan"}, "is_reserved": 0, "is_disabled": 0, "type": "electric_scooter", "bike_id": "1cce6faf3530128e3e45c5e4b533c4dd"}, {"lon": -77.0346075, "lat": 38.90307516666667, "name": "66ecff87c30647be3f2bd39eb3ac6dfa", "fusion_lat": 0.0, "fusion_lon": 0.0, "rental_uris": {"android": "https://dc.lft.to/lastmile_qr_scan", "ios": "https://dc.lft.to/lastmile_qr_scan"}, "is_reserved": 0, "is_disabled": 0, "type": "electric_scooter", "bike_id": "66ecff87c30647be3f2bd39eb3ac6dfa"}, {"lon": -77.01089166666667, "lat": 38.90555716666667, "name": "8a0614fee62a3ae904d49fb196bd195c", "fusion_lat": 0.0, "fusion_lon": 0.0, "rental_uris": {"android": "https://dc.lft.to/lastmile_qr_scan", "ios": "https://dc.lft.to/lastmile_qr_scan"}, "is_reserved": 0, "is_disabled": 0, "type": "electric_scooter", "bike_id": "8a0614fee62a3ae904d49fb196bd195c"}, {"lon": -77.02392333333333, "lat": 38.901842, "name": "2d9223a6df7a11ff9284bd5a1f52aaea", "fusion_lat": 0.0, "fusion_lon": 0.0, "rental_uris": {"android": "https://dc.lft.to/lastmile_qr_scan", "ios": "https://dc.lft.to/lastmile_qr_scan"}, "is_reserved": 0, "is_disabled": 0, "type": "electric_scooter", "bike_id": "2d9223a6df7a11ff9284bd5a1f52aaea"}, {"lon": -77.04786883333334, "lat": 38.902467666666666, "name": "111d3743dab8d02d1060fc2bd960620a", "fusion_lat": 0.0, "fusion_lon": 0.0, "rental_uris": {"android": "https://dc.lft.to/lastmile_qr_scan", "ios": "https://dc.lft.to/lastmile_qr_scan"}, "is_reserved": 0, "is_disabled": 0, "type": "electric_scooter", "bike_id": "111d3743dab8d02d1060fc2bd960620a"}, {"lon": -77.04880866666667, "lat": 38.901083666666665, "name": "8423f9fa1bb45ff46730a4c900f46293", "fusion_lat": 0.0, "fusion_lon": 0.0, "rental_uris": {"android": "https://dc.lft.to/lastmile_qr_scan", "ios": "https://dc.lft.to/lastmile_qr_scan"}, "is_reserved": 0, "is_disabled": 0, "type": "electric_scooter", "bike_id": "8423f9fa1bb45ff46730a4c900f46293"}, {"lon": -77.122598, "lat": 38.89191483333333, "name": "064e284b5db73699c67a941ffce794e3", "fusion_lat": 0.0, "fusion_lon": 0.0, "rental_uris": {"android": "https://dc.lft.to/lastmile_qr_scan", "ios": "https://dc.lft.to/lastmile_qr_scan"}, "is_reserved": 0, "is_disabled": 0, "type": "electric_bike", "bike_id": "064e284b5db73699c67a941ffce794e3"}, {"lon": -77.07682916666667, "lat": 38.831914833333336, "name": "f53d234b571e090019bb7240d12567be", "fusion_lat": 0.0, "fusion_lon": 0.0, "rental_uris": {"android": "https://dc.lft.to/lastmile_qr_scan", "ios": "https://dc.lft.to/lastmile_qr_scan"}, "is_reserved": 0, "is_disabled": 0, "type": "electric_bike", "bike_id": "f53d234b571e090019bb7240d12567be"}, {"lon": -77.112226, "lat": 38.82876666666667, "name": "b0c5b1fd251372b786cf0cac3702e003", "fusion_lat": 0.0, "fusion_lon": 0.0, "rental_uris": {"android": "https://dc.lft.to/lastmile_qr_scan", "ios": "https://dc.lft.to/lastmile_qr_scan"}, "is_reserved": 0, "is_disabled": 0, "type": "electric_bike", "bike_id": "b0c5b1fd251372b786cf0cac3702e003"}, {"lon": -77.0502375, "lat": 38.90087333333334, "name": "f36953fa52460c63e6773073089150a3", "fusion_lat": 0.0, "fusion_lon": 0.0, "rental_uris": {"android": "https://dc.lft.to/lastmile_qr_scan", "ios": "https://dc.lft.to/lastmile_qr_scan"}, "is_reserved": 0, "is_disabled": 0, "type": "electric_scooter", "bike_id": "f36953fa52460c63e6773073089150a3"}, {"lon": -77.0474475, "lat": 38.90228616666667, "name": "935e6f79e230c19e8fc2fe5ca69c4852", "fusion_lat": 0.0, "fusion_lon": 0.0, "rental_uris": {"android": "https://dc.lft.to/lastmile_qr_scan", "ios": "https://dc.lft.to/lastmile_qr_scan"}, "is_reserved": 0, "is_disabled": 0, "type": "electric_scooter", "bike_id": "935e6f79e230c19e8fc2fe5ca69c4852"}, {"lon": -77.01216416666666, "lat": 38.9197615, "name": "0af7e941695f5011447e6cb5abc96701", "fusion_lat": 0.0, "fusion_lon": 0.0, "rental_uris": {"android": "https://dc.lft.to/lastmile_qr_scan", "ios": "https://dc.lft.to/lastmile_qr_scan"}, "is_reserved": 0, "is_disabled": 0, "type": "electric_scooter", "bike_id": "0af7e941695f5011447e6cb5abc96701"}, {"lon": -76.9860315, "lat": 38.89921733333333, "name": "5ab6225dcded8918120a244ed0cdad9d", "fusion_lat": 0.0, "fusion_lon": 0.0, "rental_uris": {"android": "https://dc.lft.to/lastmile_qr_scan", "ios": "https://dc.lft.to/lastmile_qr_scan"}, "is_reserved": 0, "is_disabled": 0, "type": "electric_scooter", "bike_id": "5ab6225dcded8918120a244ed0cdad9d"}, {"lon": -77.063908, "lat": 38.92910916666666, "name": "188fa73f64a5bbf0f27ecd369cd632d9", "fusion_lat": 0.0, "fusion_lon": 0.0, "rental_uris": {"android": "https://dc.lft.to/lastmile_qr_scan", "ios": "https://dc.lft.to/lastmile_qr_scan"}, "is_reserved": 0, "is_disabled": 0, "type": "electric_scooter", "bike_id": "188fa73f64a5bbf0f27ecd369cd632d9"}, {"lon": -76.99866733333333, "lat": 38.90028683333333, "name": "d04494ed7c02f3563dd36788e3c0d226", "fusion_lat": 0.0, "fusion_lon": 0.0, "rental_uris": {"android": "https://dc.lft.to/lastmile_qr_scan", "ios": "https://dc.lft.to/lastmile_qr_scan"}, "is_reserved": 0, "is_disabled": 0, "type": "electric_scooter", "bike_id": "d04494ed7c02f3563dd36788e3c0d226"}, {"lon": -76.99412916666667, "lat": 38.877834, "name": "c165fedfd476df37d0d80f0144b2d51a", "fusion_lat": 0.0, "fusion_lon": 0.0, "rental_uris": {"android": "https://dc.lft.to/lastmile_qr_scan", "ios": "https://dc.lft.to/lastmile_qr_scan"}, "is_reserved": 0, "is_disabled": 0, "type": "electric_scooter", "bike_id": "c165fedfd476df37d0d80f0144b2d51a"}, {"lon": -77.05298616666667, "lat": 38.89885066666667, "name": "35a36ba9b64ff1e739148003c7c64d02", "fusion_lat": 0.0, "fusion_lon": 0.0, "rental_uris": {"android": "https://dc.lft.to/lastmile_qr_scan", "ios": "https://dc.lft.to/lastmile_qr_scan"}, "is_reserved": 0, "is_disabled": 0, "type": "electric_scooter", "bike_id": "35a36ba9b64ff1e739148003c7c64d02"}, {"lon": -77.04149383333333, "lat": 38.919780333333335, "name": "5a2d1e226f75c64609352cce25dc80a7", "fusion_lat": 0.0, "fusion_lon": 0.0, "rental_uris": {"android": "https://dc.lft.to/lastmile_qr_scan", "ios": "https://dc.lft.to/lastmile_qr_scan"}, "is_reserved": 0, "is_disabled": 0, "type": "electric_scooter", "bike_id": "5a2d1e226f75c64609352cce25dc80a7"}, {"lon": -77.03732633333334, "lat": 38.93377666666667, "name": "dcd85659eed3639f00fa0995c9a21d38", "fusion_lat": 0.0, "fusion_lon": 0.0, "rental_uris": {"android": "https://dc.lft.to/lastmile_qr_scan", "ios": "https://dc.lft.to/lastmile_qr_scan"}, "is_reserved": 0, "is_disabled": 0, "type": "electric_scooter", "bike_id": "dcd85659eed3639f00fa0995c9a21d38"}, {"lon": -77.027032, "lat": 38.918217, "name": "1748aa8dc97394cb483a79dd1e4120e4", "fusion_lat": 0.0, "fusion_lon": 0.0, "rental_uris": {"android": "https://dc.lft.to/lastmile_qr_scan", "ios": "https://dc.lft.to/lastmile_qr_scan"}, "is_reserved": 0, "is_disabled": 0, "type": "electric_scooter", "bike_id": "1748aa8dc97394cb483a79dd1e4120e4"}, {"lon": -76.97626433333333, "lat": 38.89282716666666, "name": "666181859eaee4f2cd3d64c29db09982", "fusion_lat": 0.0, "fusion_lon": 0.0, "rental_uris": {"android": "https://dc.lft.to/lastmile_qr_scan", "ios": "https://dc.lft.to/lastmile_qr_scan"}, "is_reserved": 0, "is_disabled": 0, "type": "electric_bike", "bike_id": "666181859eaee4f2cd3d64c29db09982"}, {"lon": -77.03209216666667, "lat": 38.907666, "name": "c9e9b11a57bc7b9bb316b1d19b1fe654", "fusion_lat": 0.0, "fusion_lon": 0.0, "rental_uris": {"android": "https://dc.lft.to/lastmile_qr_scan", "ios": "https://dc.lft.to/lastmile_qr_scan"}, "is_reserved": 0, "is_disabled": 0, "type": "electric_scooter", "bike_id": "c9e9b11a57bc7b9bb316b1d19b1fe654"}, {"lon": -77.01759383333334, "lat": 38.9006105, "name": "ad60b7295ad4c8e2c65240e09c0c72a4", "fusion_lat": 0.0, "fusion_lon": 0.0, "rental_uris": {"android": "https://dc.lft.to/lastmile_qr_scan", "ios": "https://dc.lft.to/lastmile_qr_scan"}, "is_reserved": 0, "is_disabled": 0, "type": "electric_scooter", "bike_id": "ad60b7295ad4c8e2c65240e09c0c72a4"}, {"lon": -77.0097875, "lat": 38.95346333333333, "name": "d8c43d2fcc44e31dfac0a547ba756d31", "fusion_lat": 0.0, "fusion_lon": 0.0, "rental_uris": {"android": "https://dc.lft.to/lastmile_qr_scan", "ios": "https://dc.lft.to/lastmile_qr_scan"}, "is_reserved": 0, "is_disabled": 0, "type": "electric_bike", "bike_id": "d8c43d2fcc44e31dfac0a547ba756d31"}, {"lon": -76.9808305, "lat": 38.901746, "name": "5f713d66bb717c2512b9c64960a3a8f3", "fusion_lat": 0.0, "fusion_lon": 0.0, "rental_uris": {"android": "https://dc.lft.to/lastmile_qr_scan", "ios": "https://dc.lft.to/lastmile_qr_scan"}, "is_reserved": 0, "is_disabled": 0, "type": "electric_scooter", "bike_id": "5f713d66bb717c2512b9c64960a3a8f3"}, {"lon": -77.02282616666666, "lat": 38.9174025, "name": "824f1752c907e31bc547bfedf093f8f9", "fusion_lat": 0.0, "fusion_lon": 0.0, "rental_uris": {"android": "https://dc.lft.to/lastmile_qr_scan", "ios": "https://dc.lft.to/lastmile_qr_scan"}, "is_reserved": 0, "is_disabled": 0, "type": "electric_scooter", "bike_id": "824f1752c907e31bc547bfedf093f8f9"}, {"lon": -77.04647216666666, "lat": 38.852114, "name": "5ca33f5732ec183e29e9867699c4c10b", "fusion_lat": 0.0, "fusion_lon": 0.0, "rental_uris": {"android": "https://dc.lft.to/lastmile_qr_scan", "ios": "https://dc.lft.to/lastmile_qr_scan"}, "is_reserved": 0, "is_disabled": 0, "type": "electric_bike", "bike_id": "5ca33f5732ec183e29e9867699c4c10b"}, {"lon": -77.062685, "lat": 38.9040825, "name": "2b21cd77c41ffc540c53c76bcce845c8", "fusion_lat": 0.0, "fusion_lon": 0.0, "rental_uris": {"android": "https://dc.lft.to/lastmile_qr_scan", "ios": "https://dc.lft.to/lastmile_qr_scan"}, "is_reserved": 0, "is_disabled": 0, "type": "electric_scooter", "bike_id": "2b21cd77c41ffc540c53c76bcce845c8"}, {"lon": -77.03696933333333, "lat": 38.916911666666664, "name": "5134280bcc1a3dc21c581f7479910466", "fusion_lat": 0.0, "fusion_lon": 0.0, "rental_uris": {"android": "https://dc.lft.to/lastmile_qr_scan", "ios": "https://dc.lft.to/lastmile_qr_scan"}, "is_reserved": 0, "is_disabled": 0, "type": "electric_scooter", "bike_id": "5134280bcc1a3dc21c581f7479910466"}, {"lon": -77.0506255, "lat": 38.90095216666667, "name": "452936d7d37a185e15e69ecf891cc06c", "fusion_lat": 0.0, "fusion_lon": 0.0, "rental_uris": {"android": "https://dc.lft.to/lastmile_qr_scan", "ios": "https://dc.lft.to/lastmile_qr_scan"}, "is_reserved": 0, "is_disabled": 0, "type": "electric_scooter", "bike_id": "452936d7d37a185e15e69ecf891cc06c"}, {"lon": -77.00565916666666, "lat": 38.885020833333336, "name": "8aaaac309356f32c8cfdba64666013d7", "fusion_lat": 0.0, "fusion_lon": 0.0, "rental_uris": {"android": "https://dc.lft.to/lastmile_qr_scan", "ios": "https://dc.lft.to/lastmile_qr_scan"}, "is_reserved": 0, "is_disabled": 0, "type": "electric_scooter", "bike_id": "8aaaac309356f32c8cfdba64666013d7"}, {"lon": -77.01086983333333, "lat": 38.8952425, "name": "64339e70c1c8aef84281721ca5ff3bf9", "fusion_lat": 0.0, "fusion_lon": 0.0, "rental_uris": {"android": "https://dc.lft.to/lastmile_qr_scan", "ios": "https://dc.lft.to/lastmile_qr_scan"}, "is_reserved": 0, "is_disabled": 0, "type": "electric_scooter", "bike_id": "64339e70c1c8aef84281721ca5ff3bf9"}, {"lon": -77.03143783333333, "lat": 38.9279185, "name": "f12a76fb4237c49f3222d6d4384e1890", "fusion_lat": 0.0, "fusion_lon": 0.0, "rental_uris": {"android": "https://dc.lft.to/lastmile_qr_scan", "ios": "https://dc.lft.to/lastmile_qr_scan"}, "is_reserved": 0, "is_disabled": 0, "type": "electric_scooter", "bike_id": "f12a76fb4237c49f3222d6d4384e1890"}, {"lon": -77.038577, "lat": 38.932491166666665, "name": "3ad3caabc6fa0ac0c466dad3d9ab66b4", "fusion_lat": 0.0, "fusion_lon": 0.0, "rental_uris": {"android": "https://dc.lft.to/lastmile_qr_scan", "ios": "https://dc.lft.to/lastmile_qr_scan"}, "is_reserved": 0, "is_disabled": 0, "type": "electric_scooter", "bike_id": "3ad3caabc6fa0ac0c466dad3d9ab66b4"}, {"lon": -77.02496816666667, "lat": 38.974073, "name": "feab460a0a61c7ac8bf8b38fad46baf6", "fusion_lat": 0.0, "fusion_lon": 0.0, "rental_uris": {"android": "https://dc.lft.to/lastmile_qr_scan", "ios": "https://dc.lft.to/lastmile_qr_scan"}, "is_reserved": 0, "is_disabled": 0, "type": "electric_bike", "bike_id": "feab460a0a61c7ac8bf8b38fad46baf6"}, {"lon": -76.947284, "lat": 38.896689, "name": "8627b786513a09241659fd756863266e", "fusion_lat": 0.0, "fusion_lon": 0.0, "rental_uris": {"android": "https://dc.lft.to/lastmile_qr_scan", "ios": "https://dc.lft.to/lastmile_qr_scan"}, "is_reserved": 0, "is_disabled": 0, "type": "electric_scooter", "bike_id": "8627b786513a09241659fd756863266e"}, {"lon": -77.033306, "lat": 38.900376, "name": "5cbc5c5c95ec9a9ef89d7aa8c8621e50", "fusion_lat": 0.0, "fusion_lon": 0.0, "rental_uris": {"android": "https://dc.lft.to/lastmile_qr_scan", "ios": "https://dc.lft.to/lastmile_qr_scan"}, "is_reserved": 0, "is_disabled": 0, "type": "electric_scooter", "bike_id": "5cbc5c5c95ec9a9ef89d7aa8c8621e50"}, {"lon": -76.999463, "lat": 38.84289866666667, "name": "34605ce2700bb7429904a265a608795b", "fusion_lat": 0.0, "fusion_lon": 0.0, "rental_uris": {"android": "https://dc.lft.to/lastmile_qr_scan", "ios": "https://dc.lft.to/lastmile_qr_scan"}, "is_reserved": 0, "is_disabled": 0, "type": "electric_scooter", "bike_id": "34605ce2700bb7429904a265a608795b"}, {"lon": -77.03441466666666, "lat": 38.91806533333333, "name": "b3de3acc7d3047012bedba6b2909f497", "fusion_lat": 0.0, "fusion_lon": 0.0, "rental_uris": {"android": "https://dc.lft.to/lastmile_qr_scan", "ios": "https://dc.lft.to/lastmile_qr_scan"}, "is_reserved": 0, "is_disabled": 0, "type": "electric_scooter", "bike_id": "b3de3acc7d3047012bedba6b2909f497"}, {"lon": -77.0821335, "lat": 38.93554833333334, "name": "1ec56d875c751b4f8ea3bd23de033d8e", "fusion_lat": 0.0, "fusion_lon": 0.0, "rental_uris": {"android": "https://dc.lft.to/lastmile_qr_scan", "ios": "https://dc.lft.to/lastmile_qr_scan"}, "is_reserved": 0, "is_disabled": 0, "type": "electric_scooter", "bike_id": "1ec56d875c751b4f8ea3bd23de033d8e"}, {"lon": -77.03923033333334, "lat": 38.91839, "name": "de5d07b7d0919d60b9c3841f2e1b6512", "fusion_lat": 0.0, "fusion_lon": 0.0, "rental_uris": {"android": "https://dc.lft.to/lastmile_qr_scan", "ios": "https://dc.lft.to/lastmile_qr_scan"}, "is_reserved": 0, "is_disabled": 0, "type": "electric_scooter", "bike_id": "de5d07b7d0919d60b9c3841f2e1b6512"}, {"lon": -77.03433183333334, "lat": 38.9180455, "name": "faadbc8adbd21bb893ce6e7bed1f1d86", "fusion_lat": 0.0, "fusion_lon": 0.0, "rental_uris": {"android": "https://dc.lft.to/lastmile_qr_scan", "ios": "https://dc.lft.to/lastmile_qr_scan"}, "is_reserved": 0, "is_disabled": 0, "type": "electric_scooter", "bike_id": "faadbc8adbd21bb893ce6e7bed1f1d86"}, {"lon": -77.02808683333333, "lat": 38.944577333333335, "name": "85c60c69c03a3e163ea94c2ab2ba375d", "fusion_lat": 0.0, "fusion_lon": 0.0, "rental_uris": {"android": "https://dc.lft.to/lastmile_qr_scan", "ios": "https://dc.lft.to/lastmile_qr_scan"}, "is_reserved": 0, "is_disabled": 0, "type": "electric_scooter", "bike_id": "85c60c69c03a3e163ea94c2ab2ba375d"}, {"lon": -77.00113166666667, "lat": 38.894360666666664, "name": "e7b79a433014804ba303bea41bdbfd01", "fusion_lat": 0.0, "fusion_lon": 0.0, "rental_uris": {"android": "https://dc.lft.to/lastmile_qr_scan", "ios": "https://dc.lft.to/lastmile_qr_scan"}, "is_reserved": 0, "is_disabled": 0, "type": "electric_scooter", "bike_id": "e7b79a433014804ba303bea41bdbfd01"}, {"lon": -77.049956, "lat": 38.89230166666667, "name": "8db9d7a060db12f167437a7ef369cb65", "fusion_lat": 0.0, "fusion_lon": 0.0, "rental_uris": {"android": "https://dc.lft.to/lastmile_qr_scan", "ios": "https://dc.lft.to/lastmile_qr_scan"}, "is_reserved": 0, "is_disabled": 0, "type": "electric_scooter", "bike_id": "8db9d7a060db12f167437a7ef369cb65"}, {"lon": -77.0259655, "lat": 38.9025665, "name": "4de1e60bc3b3ff90eb55e7c30cb6c85e", "fusion_lat": 0.0, "fusion_lon": 0.0, "rental_uris": {"android": "https://dc.lft.to/lastmile_qr_scan", "ios": "https://dc.lft.to/lastmile_qr_scan"}, "is_reserved": 0, "is_disabled": 0, "type": "electric_scooter", "bike_id": "4de1e60bc3b3ff90eb55e7c30cb6c85e"}, {"lon": -77.0271895, "lat": 38.89221233333333, "name": "e1ed3636fae704dbdedf5de52780db79", "fusion_lat": 0.0, "fusion_lon": 0.0, "rental_uris": {"android": "https://dc.lft.to/lastmile_qr_scan", "ios": "https://dc.lft.to/lastmile_qr_scan"}, "is_reserved": 0, "is_disabled": 0, "type": "electric_scooter", "bike_id": "e1ed3636fae704dbdedf5de52780db79"}, {"lon": -77.02834066666667, "lat": 38.924699333333336, "name": "6473ce0db2cc2cbf3a9dc96a8236e313", "fusion_lat": 0.0, "fusion_lon": 0.0, "rental_uris": {"android": "https://dc.lft.to/lastmile_qr_scan", "ios": "https://dc.lft.to/lastmile_qr_scan"}, "is_reserved": 0, "is_disabled": 0, "type": "electric_scooter", "bike_id": "6473ce0db2cc2cbf3a9dc96a8236e313"}, {"lon": -77.002013, "lat": 38.902382333333335, "name": "d6fb02a329136b99fa43fa540003926e", "fusion_lat": 0.0, "fusion_lon": 0.0, "rental_uris": {"android": "https://dc.lft.to/lastmile_qr_scan", "ios": "https://dc.lft.to/lastmile_qr_scan"}, "is_reserved": 0, "is_disabled": 0, "type": "electric_scooter", "bike_id": "d6fb02a329136b99fa43fa540003926e"}, {"lon": -76.96556716666667, "lat": 38.91843433333333, "name": "bd2cade97186a2662b7e3cbeeb03a6e9", "fusion_lat": 0.0, "fusion_lon": 0.0, "rental_uris": {"android": "https://dc.lft.to/lastmile_qr_scan", "ios": "https://dc.lft.to/lastmile_qr_scan"}, "is_reserved": 0, "is_disabled": 0, "type": "electric_scooter", "bike_id": "bd2cade97186a2662b7e3cbeeb03a6e9"}, {"lon": -77.0016935, "lat": 38.905147666666664, "name": "8abc522df689dc9d99dc08eb9649a505", "fusion_lat": 0.0, "fusion_lon": 0.0, "rental_uris": {"android": "https://dc.lft.to/lastmile_qr_scan", "ios": "https://dc.lft.to/lastmile_qr_scan"}, "is_reserved": 0, "is_disabled": 0, "type": "electric_scooter", "bike_id": "8abc522df689dc9d99dc08eb9649a505"}, {"lon": -77.12502566666667, "lat": 39.024239333333334, "name": "a6b7ebaf052c746ae80c69793c7286ef", "fusion_lat": 0.0, "fusion_lon": 0.0, "rental_uris": {"android": "https://dc.lft.to/lastmile_qr_scan", "ios": "https://dc.lft.to/lastmile_qr_scan"}, "is_reserved": 0, "is_disabled": 0, "type": "electric_bike", "bike_id": "a6b7ebaf052c746ae80c69793c7286ef"}, {"lon": -77.021616, "lat": 38.92610616666666, "name": "bffeb2455da66c1a3688f41edcc46006", "fusion_lat": 0.0, "fusion_lon": 0.0, "rental_uris": {"android": "https://dc.lft.to/lastmile_qr_scan", "ios": "https://dc.lft.to/lastmile_qr_scan"}, "is_reserved": 0, "is_disabled": 0, "type": "electric_scooter", "bike_id": "bffeb2455da66c1a3688f41edcc46006"}, {"lon": -77.013109, "lat": 38.897412, "name": "5e6e4a19dedfc18ec802e942f2154409", "fusion_lat": 0.0, "fusion_lon": 0.0, "rental_uris": {"android": "https://dc.lft.to/lastmile_qr_scan", "ios": "https://dc.lft.to/lastmile_qr_scan"}, "is_reserved": 0, "is_disabled": 0, "type": "electric_scooter", "bike_id": "5e6e4a19dedfc18ec802e942f2154409"}, {"lon": -76.99951366666667, "lat": 38.908598166666664, "name": "f6f0f3e43f15a96ceb1b317a1373f3bf", "fusion_lat": 0.0, "fusion_lon": 0.0, "rental_uris": {"android": "https://dc.lft.to/lastmile_qr_scan", "ios": "https://dc.lft.to/lastmile_qr_scan"}, "is_reserved": 0, "is_disabled": 0, "type": "electric_scooter", "bike_id": "f6f0f3e43f15a96ceb1b317a1373f3bf"}, {"lon": -77.071724, "lat": 38.95838416666667, "name": "88935ced108769607a3c053f66c26c66", "fusion_lat": 0.0, "fusion_lon": 0.0, "rental_uris": {"android": "https://dc.lft.to/lastmile_qr_scan", "ios": "https://dc.lft.to/lastmile_qr_scan"}, "is_reserved": 0, "is_disabled": 0, "type": "electric_scooter", "bike_id": "88935ced108769607a3c053f66c26c66"}, {"lon": -76.98229566666667, "lat": 38.86683383333333, "name": "f54054972379c4a0a1d34f90a5db449f", "fusion_lat": 0.0, "fusion_lon": 0.0, "rental_uris": {"android": "https://dc.lft.to/lastmile_qr_scan", "ios": "https://dc.lft.to/lastmile_qr_scan"}, "is_reserved": 0, "is_disabled": 0, "type": "electric_bike", "bike_id": "f54054972379c4a0a1d34f90a5db449f"}, {"lon": -77.02284866666666, "lat": 38.92693633333333, "name": "c21c72bd3f68af7910582e681a4f885c", "fusion_lat": 0.0, "fusion_lon": 0.0, "rental_uris": {"android": "https://dc.lft.to/lastmile_qr_scan", "ios": "https://dc.lft.to/lastmile_qr_scan"}, "is_reserved": 0, "is_disabled": 0, "type": "electric_scooter", "bike_id": "c21c72bd3f68af7910582e681a4f885c"}, {"lon": -77.02715533333334, "lat": 38.90680566666666, "name": "ffcb367c23d99a418ba55e8219259bdb", "fusion_lat": 0.0, "fusion_lon": 0.0, "rental_uris": {"android": "https://dc.lft.to/lastmile_qr_scan", "ios": "https://dc.lft.to/lastmile_qr_scan"}, "is_reserved": 0, "is_disabled": 0, "type": "electric_scooter", "bike_id": "ffcb367c23d99a418ba55e8219259bdb"}, {"lon": -77.02160866666667, "lat": 38.9283445, "name": "25da2762002d8bd94d62866834b5782b", "fusion_lat": 0.0, "fusion_lon": 0.0, "rental_uris": {"android": "https://dc.lft.to/lastmile_qr_scan", "ios": "https://dc.lft.to/lastmile_qr_scan"}, "is_reserved": 0, "is_disabled": 0, "type": "electric_scooter", "bike_id": "25da2762002d8bd94d62866834b5782b"}, {"lon": -77.02814, "lat": 38.909348, "name": "185db67b8c44409a35068f17be313941", "fusion_lat": 0.0, "fusion_lon": 0.0, "rental_uris": {"android": "https://dc.lft.to/lastmile_qr_scan", "ios": "https://dc.lft.to/lastmile_qr_scan"}, "is_reserved": 0, "is_disabled": 0, "type": "electric_scooter", "bike_id": "185db67b8c44409a35068f17be313941"}, {"lon": -76.99510516666666, "lat": 38.844732666666665, "name": "3bd60d528fc27f8bd47444033929af22", "fusion_lat": 0.0, "fusion_lon": 0.0, "rental_uris": {"android": "https://dc.lft.to/lastmile_qr_scan", "ios": "https://dc.lft.to/lastmile_qr_scan"}, "is_reserved": 0, "is_disabled": 0, "type": "electric_scooter", "bike_id": "3bd60d528fc27f8bd47444033929af22"}, {"lon": -77.03296383333333, "lat": 38.92940566666667, "name": "5784e1e60179efd4014d3c7b1e176a3d", "fusion_lat": 0.0, "fusion_lon": 0.0, "rental_uris": {"android": "https://dc.lft.to/lastmile_qr_scan", "ios": "https://dc.lft.to/lastmile_qr_scan"}, "is_reserved": 0, "is_disabled": 0, "type": "electric_scooter", "bike_id": "5784e1e60179efd4014d3c7b1e176a3d"}, {"lon": -77.01186983333334, "lat": 38.90029033333333, "name": "8cda66f76a444ab59af2efa37b9e7ab9", "fusion_lat": 0.0, "fusion_lon": 0.0, "rental_uris": {"android": "https://dc.lft.to/lastmile_qr_scan", "ios": "https://dc.lft.to/lastmile_qr_scan"}, "is_reserved": 0, "is_disabled": 0, "type": "electric_scooter", "bike_id": "8cda66f76a444ab59af2efa37b9e7ab9"}, {"lon": -77.03985916666667, "lat": 38.802966166666664, "name": "9c3e182897a6694e746d583e5d455c0a", "fusion_lat": 0.0, "fusion_lon": 0.0, "rental_uris": {"android": "https://dc.lft.to/lastmile_qr_scan", "ios": "https://dc.lft.to/lastmile_qr_scan"}, "is_reserved": 0, "is_disabled": 0, "type": "electric_bike", "bike_id": "9c3e182897a6694e746d583e5d455c0a"}, {"lon": -77.04068283333334, "lat": 38.90372266666667, "name": "a21e9f34af7f91a6da7ce13e42ec1b96", "fusion_lat": 0.0, "fusion_lon": 0.0, "rental_uris": {"android": "https://dc.lft.to/lastmile_qr_scan", "ios": "https://dc.lft.to/lastmile_qr_scan"}, "is_reserved": 0, "is_disabled": 0, "type": "electric_scooter", "bike_id": "a21e9f34af7f91a6da7ce13e42ec1b96"}, {"lon": -76.99912133333333, "lat": 38.90939266666667, "name": "487628d48a01fde2075db3a2a1b353a5", "fusion_lat": 0.0, "fusion_lon": 0.0, "rental_uris": {"android": "https://dc.lft.to/lastmile_qr_scan", "ios": "https://dc.lft.to/lastmile_qr_scan"}, "is_reserved": 0, "is_disabled": 0, "type": "electric_scooter", "bike_id": "487628d48a01fde2075db3a2a1b353a5"}, {"lon": -76.97033, "lat": 38.9031405, "name": "e415f2ed9e69b489d79994606ed176e8", "fusion_lat": 0.0, "fusion_lon": 0.0, "rental_uris": {"android": "https://dc.lft.to/lastmile_qr_scan", "ios": "https://dc.lft.to/lastmile_qr_scan"}, "is_reserved": 0, "is_disabled": 0, "type": "electric_scooter", "bike_id": "e415f2ed9e69b489d79994606ed176e8"}, {"lon": -77.025701, "lat": 38.887448, "name": "f1e090f9f1c8fc0efc2560c0146cb1f5", "fusion_lat": 0.0, "fusion_lon": 0.0, "rental_uris": {"android": "https://dc.lft.to/lastmile_qr_scan", "ios": "https://dc.lft.to/lastmile_qr_scan"}, "is_reserved": 0, "is_disabled": 0, "type": "electric_scooter", "bike_id": "f1e090f9f1c8fc0efc2560c0146cb1f5"}, {"lon": -77.02749816666666, "lat": 38.966205, "name": "802cda3e33871621cde81c4e5c8369a2", "fusion_lat": 0.0, "fusion_lon": 0.0, "rental_uris": {"android": "https://dc.lft.to/lastmile_qr_scan", "ios": "https://dc.lft.to/lastmile_qr_scan"}, "is_reserved": 0, "is_disabled": 0, "type": "electric_scooter", "bike_id": "802cda3e33871621cde81c4e5c8369a2"}, {"lon": -76.90956083333333, "lat": 38.85416216666667, "name": "fdfe6d5a3f4e0f0a0e1788d560b776ce", "fusion_lat": 0.0, "fusion_lon": 0.0, "rental_uris": {"android": "https://dc.lft.to/lastmile_qr_scan", "ios": "https://dc.lft.to/lastmile_qr_scan"}, "is_reserved": 0, "is_disabled": 0, "type": "electric_bike", "bike_id": "fdfe6d5a3f4e0f0a0e1788d560b776ce"}, {"lon": -77.018726, "lat": 38.88745683333333, "name": "20d35a21fc9e0fca80646c568abfe35a", "fusion_lat": 0.0, "fusion_lon": 0.0, "rental_uris": {"android": "https://dc.lft.to/lastmile_qr_scan", "ios": "https://dc.lft.to/lastmile_qr_scan"}, "is_reserved": 0, "is_disabled": 0, "type": "electric_scooter", "bike_id": "20d35a21fc9e0fca80646c568abfe35a"}, {"lon": -77.0334345, "lat": 38.895323166666664, "name": "19cb5b8506b44a13fc8812948bae10b5", "fusion_lat": 0.0, "fusion_lon": 0.0, "rental_uris": {"android": "https://dc.lft.to/lastmile_qr_scan", "ios": "https://dc.lft.to/lastmile_qr_scan"}, "is_reserved": 0, "is_disabled": 0, "type": "electric_scooter", "bike_id": "19cb5b8506b44a13fc8812948bae10b5"}, {"lon": -77.02378983333334, "lat": 38.90958066666666, "name": "c9ecb111b1c50102dec68c65a340fbc2", "fusion_lat": 0.0, "fusion_lon": 0.0, "rental_uris": {"android": "https://dc.lft.to/lastmile_qr_scan", "ios": "https://dc.lft.to/lastmile_qr_scan"}, "is_reserved": 0, "is_disabled": 0, "type": "electric_scooter", "bike_id": "c9ecb111b1c50102dec68c65a340fbc2"}, {"lon": -77.02693966666666, "lat": 38.90945633333333, "name": "612f72e273bb0809b8e614da32ce1964", "fusion_lat": 0.0, "fusion_lon": 0.0, "rental_uris": {"android": "https://dc.lft.to/lastmile_qr_scan", "ios": "https://dc.lft.to/lastmile_qr_scan"}, "is_reserved": 0, "is_disabled": 0, "type": "electric_scooter", "bike_id": "612f72e273bb0809b8e614da32ce1964"}, {"lon": -77.04174966666666, "lat": 38.93061516666667, "name": "2faca142a84ed95d69cc25086999b9d6", "fusion_lat": 0.0, "fusion_lon": 0.0, "rental_uris": {"android": "https://dc.lft.to/lastmile_qr_scan", "ios": "https://dc.lft.to/lastmile_qr_scan"}, "is_reserved": 0, "is_disabled": 0, "type": "electric_scooter", "bike_id": "2faca142a84ed95d69cc25086999b9d6"}, {"lon": -77.02662133333334, "lat": 38.93862816666667, "name": "6ed7315fccb9036a9a384d3a53fd6660", "fusion_lat": 0.0, "fusion_lon": 0.0, "rental_uris": {"android": "https://dc.lft.to/lastmile_qr_scan", "ios": "https://dc.lft.to/lastmile_qr_scan"}, "is_reserved": 0, "is_disabled": 0, "type": "electric_scooter", "bike_id": "6ed7315fccb9036a9a384d3a53fd6660"}, {"lon": -77.00917783333334, "lat": 38.902724, "name": "15b21f58e4f81e6a0262c30f7c77f0c8", "fusion_lat": 0.0, "fusion_lon": 0.0, "rental_uris": {"android": "https://dc.lft.to/lastmile_qr_scan", "ios": "https://dc.lft.to/lastmile_qr_scan"}, "is_reserved": 0, "is_disabled": 0, "type": "electric_scooter", "bike_id": "15b21f58e4f81e6a0262c30f7c77f0c8"}, {"lon": -77.02393016666667, "lat": 38.92707683333333, "name": "b78b8a1955240a0bcc13448c4ec07814", "fusion_lat": 0.0, "fusion_lon": 0.0, "rental_uris": {"android": "https://dc.lft.to/lastmile_qr_scan", "ios": "https://dc.lft.to/lastmile_qr_scan"}, "is_reserved": 0, "is_disabled": 0, "type": "electric_scooter", "bike_id": "b78b8a1955240a0bcc13448c4ec07814"}, {"lon": -77.0020455, "lat": 38.90036516666667, "name": "7629f4d41ab1420274755d042898ad0b", "fusion_lat": 0.0, "fusion_lon": 0.0, "rental_uris": {"android": "https://dc.lft.to/lastmile_qr_scan", "ios": "https://dc.lft.to/lastmile_qr_scan"}, "is_reserved": 0, "is_disabled": 0, "type": "electric_scooter", "bike_id": "7629f4d41ab1420274755d042898ad0b"}, {"lon": -77.0205, "lat": 38.915602666666665, "name": "db7cb64efecbed2122042c96988a42ba", "fusion_lat": 0.0, "fusion_lon": 0.0, "rental_uris": {"android": "https://dc.lft.to/lastmile_qr_scan", "ios": "https://dc.lft.to/lastmile_qr_scan"}, "is_reserved": 0, "is_disabled": 0, "type": "electric_scooter", "bike_id": "db7cb64efecbed2122042c96988a42ba"}, {"lon": -77.02373533333333, "lat": 38.907227, "name": "238f642f69614ae29976010f65f9b52f", "fusion_lat": 0.0, "fusion_lon": 0.0, "rental_uris": {"android": "https://dc.lft.to/lastmile_qr_scan", "ios": "https://dc.lft.to/lastmile_qr_scan"}, "is_reserved": 0, "is_disabled": 0, "type": "electric_scooter", "bike_id": "238f642f69614ae29976010f65f9b52f"}, {"lon": -77.01590883333333, "lat": 38.95763066666667, "name": "6554a8eaa236f0f21a3c854a226d4326", "fusion_lat": 0.0, "fusion_lon": 0.0, "rental_uris": {"android": "https://dc.lft.to/lastmile_qr_scan", "ios": "https://dc.lft.to/lastmile_qr_scan"}, "is_reserved": 0, "is_disabled": 0, "type": "electric_scooter", "bike_id": "6554a8eaa236f0f21a3c854a226d4326"}, {"lon": -77.01251883333333, "lat": 38.87627766666667, "name": "23074fc57ed40306db1cd1a852004ba2", "fusion_lat": 0.0, "fusion_lon": 0.0, "rental_uris": {"android": "https://dc.lft.to/lastmile_qr_scan", "ios": "https://dc.lft.to/lastmile_qr_scan"}, "is_reserved": 0, "is_disabled": 0, "type": "electric_scooter", "bike_id": "23074fc57ed40306db1cd1a852004ba2"}, {"lon": -77.03251333333333, "lat": 38.93001866666667, "name": "1f080b3524d4e7ff4919a345d943938f", "fusion_lat": 0.0, "fusion_lon": 0.0, "rental_uris": {"android": "https://dc.lft.to/lastmile_qr_scan", "ios": "https://dc.lft.to/lastmile_qr_scan"}, "is_reserved": 0, "is_disabled": 0, "type": "electric_scooter", "bike_id": "1f080b3524d4e7ff4919a345d943938f"}, {"lon": -76.93733866666666, "lat": 38.89015283333333, "name": "154831e9c74e85675a07bb4ee30ca45a", "fusion_lat": 0.0, "fusion_lon": 0.0, "rental_uris": {"android": "https://dc.lft.to/lastmile_qr_scan", "ios": "https://dc.lft.to/lastmile_qr_scan"}, "is_reserved": 0, "is_disabled": 0, "type": "electric_scooter", "bike_id": "154831e9c74e85675a07bb4ee30ca45a"}, {"lon": -76.95184883333333, "lat": 38.891360166666665, "name": "2cc6fd1143412c065dc5f93de09158f7", "fusion_lat": 0.0, "fusion_lon": 0.0, "rental_uris": {"android": "https://dc.lft.to/lastmile_qr_scan", "ios": "https://dc.lft.to/lastmile_qr_scan"}, "is_reserved": 0, "is_disabled": 0, "type": "electric_scooter", "bike_id": "2cc6fd1143412c065dc5f93de09158f7"}, {"lon": -77.00593083333334, "lat": 38.90554383333333, "name": "a61d128c7f56edabe3446850252bc787", "fusion_lat": 0.0, "fusion_lon": 0.0, "rental_uris": {"android": "https://dc.lft.to/lastmile_qr_scan", "ios": "https://dc.lft.to/lastmile_qr_scan"}, "is_reserved": 0, "is_disabled": 0, "type": "electric_scooter", "bike_id": "a61d128c7f56edabe3446850252bc787"}, {"lon": -77.02425, "lat": 38.926011, "name": "a6a909e322223c25fb47d97d58c028d3", "fusion_lat": 0.0, "fusion_lon": 0.0, "rental_uris": {"android": "https://dc.lft.to/lastmile_qr_scan", "ios": "https://dc.lft.to/lastmile_qr_scan"}, "is_reserved": 0, "is_disabled": 0, "type": "electric_scooter", "bike_id": "a6a909e322223c25fb47d97d58c028d3"}, {"lon": -77.00314483333334, "lat": 38.90116316666666, "name": "a4e9e72e379bdea48b27223da27e1858", "fusion_lat": 0.0, "fusion_lon": 0.0, "rental_uris": {"android": "https://dc.lft.to/lastmile_qr_scan", "ios": "https://dc.lft.to/lastmile_qr_scan"}, "is_reserved": 0, "is_disabled": 0, "type": "electric_scooter", "bike_id": "a4e9e72e379bdea48b27223da27e1858"}, {"lon": -77.03730083333333, "lat": 38.931914, "name": "c9c69d330f483e1370c585a743a788a0", "fusion_lat": 0.0, "fusion_lon": 0.0, "rental_uris": {"android": "https://dc.lft.to/lastmile_qr_scan", "ios": "https://dc.lft.to/lastmile_qr_scan"}, "is_reserved": 0, "is_disabled": 0, "type": "electric_bike", "bike_id": "c9c69d330f483e1370c585a743a788a0"}, {"lon": -77.03649333333334, "lat": 38.9028075, "name": "2f87379cc5185fb7af88d40f0af66c8f", "fusion_lat": 0.0, "fusion_lon": 0.0, "rental_uris": {"android": "https://dc.lft.to/lastmile_qr_scan", "ios": "https://dc.lft.to/lastmile_qr_scan"}, "is_reserved": 0, "is_disabled": 0, "type": "electric_scooter", "bike_id": "2f87379cc5185fb7af88d40f0af66c8f"}, {"lon": -77.0118415, "lat": 38.90034033333333, "name": "6d635e0bb7a5a9f917c5ea59399246ea", "fusion_lat": 0.0, "fusion_lon": 0.0, "rental_uris": {"android": "https://dc.lft.to/lastmile_qr_scan", "ios": "https://dc.lft.to/lastmile_qr_scan"}, "is_reserved": 0, "is_disabled": 0, "type": "electric_scooter", "bike_id": "6d635e0bb7a5a9f917c5ea59399246ea"}, {"lon": -77.0040455, "lat": 38.879421666666666, "name": "57b9863688fcec13ec576848dc102e7c", "fusion_lat": 0.0, "fusion_lon": 0.0, "rental_uris": {"android": "https://dc.lft.to/lastmile_qr_scan", "ios": "https://dc.lft.to/lastmile_qr_scan"}, "is_reserved": 0, "is_disabled": 0, "type": "electric_scooter", "bike_id": "57b9863688fcec13ec576848dc102e7c"}, {"lon": -76.99944733333334, "lat": 38.88049216666667, "name": "79532dffce76ec41b55c7ea77db1488c", "fusion_lat": 0.0, "fusion_lon": 0.0, "rental_uris": {"android": "https://dc.lft.to/lastmile_qr_scan", "ios": "https://dc.lft.to/lastmile_qr_scan"}, "is_reserved": 0, "is_disabled": 0, "type": "electric_scooter", "bike_id": "79532dffce76ec41b55c7ea77db1488c"}, {"lon": -77.032039, "lat": 38.93861483333333, "name": "87c2e005372668b1b5fe02ca2c009409", "fusion_lat": 0.0, "fusion_lon": 0.0, "rental_uris": {"android": "https://dc.lft.to/lastmile_qr_scan", "ios": "https://dc.lft.to/lastmile_qr_scan"}, "is_reserved": 0, "is_disabled": 0, "type": "electric_scooter", "bike_id": "87c2e005372668b1b5fe02ca2c009409"}, {"lon": -77.02376633333333, "lat": 38.92041783333333, "name": "e446e44ec19eca671e4f3668353da880", "fusion_lat": 0.0, "fusion_lon": 0.0, "rental_uris": {"android": "https://dc.lft.to/lastmile_qr_scan", "ios": "https://dc.lft.to/lastmile_qr_scan"}, "is_reserved": 0, "is_disabled": 0, "type": "electric_scooter", "bike_id": "e446e44ec19eca671e4f3668353da880"}, {"lon": -77.001579, "lat": 38.907676, "name": "c0886d1694efce0bfc8b5bd337b424fc", "fusion_lat": 0.0, "fusion_lon": 0.0, "rental_uris": {"android": "https://dc.lft.to/lastmile_qr_scan", "ios": "https://dc.lft.to/lastmile_qr_scan"}, "is_reserved": 0, "is_disabled": 0, "type": "electric_scooter", "bike_id": "c0886d1694efce0bfc8b5bd337b424fc"}, {"lon": -76.96110983333334, "lat": 38.928603333333335, "name": "0a33595b3c8d1a232f5ef21a083f040c", "fusion_lat": 0.0, "fusion_lon": 0.0, "rental_uris": {"android": "https://dc.lft.to/lastmile_qr_scan", "ios": "https://dc.lft.to/lastmile_qr_scan"}, "is_reserved": 0, "is_disabled": 0, "type": "electric_bike", "bike_id": "0a33595b3c8d1a232f5ef21a083f040c"}, {"lon": -77.03828916666667, "lat": 38.91122133333333, "name": "4d2064483195b6a81d6706da2fe08ebe", "fusion_lat": 0.0, "fusion_lon": 0.0, "rental_uris": {"android": "https://dc.lft.to/lastmile_qr_scan", "ios": "https://dc.lft.to/lastmile_qr_scan"}, "is_reserved": 0, "is_disabled": 0, "type": "electric_scooter", "bike_id": "4d2064483195b6a81d6706da2fe08ebe"}, {"lon": -77.03515516666667, "lat": 38.922413, "name": "f53d58a1d66770dd93539e8f27fc4d01", "fusion_lat": 0.0, "fusion_lon": 0.0, "rental_uris": {"android": "https://dc.lft.to/lastmile_qr_scan", "ios": "https://dc.lft.to/lastmile_qr_scan"}, "is_reserved": 0, "is_disabled": 0, "type": "electric_scooter", "bike_id": "f53d58a1d66770dd93539e8f27fc4d01"}, {"lon": -77.03209016666666, "lat": 38.921704, "name": "9d4d4d7c02ad7e896831d3a51dcca96a", "fusion_lat": 0.0, "fusion_lon": 0.0, "rental_uris": {"android": "https://dc.lft.to/lastmile_qr_scan", "ios": "https://dc.lft.to/lastmile_qr_scan"}, "is_reserved": 0, "is_disabled": 0, "type": "electric_scooter", "bike_id": "9d4d4d7c02ad7e896831d3a51dcca96a"}, {"lon": -77.03446683333334, "lat": 38.91825566666667, "name": "6c072bc67d9bb537fd6b32e4f5765b1a", "fusion_lat": 0.0, "fusion_lon": 0.0, "rental_uris": {"android": "https://dc.lft.to/lastmile_qr_scan", "ios": "https://dc.lft.to/lastmile_qr_scan"}, "is_reserved": 0, "is_disabled": 0, "type": "electric_scooter", "bike_id": "6c072bc67d9bb537fd6b32e4f5765b1a"}, {"lon": -77.02460183333334, "lat": 38.938548833333336, "name": "b61db73e360c1794f519f66946f9ee17", "fusion_lat": 0.0, "fusion_lon": 0.0, "rental_uris": {"android": "https://dc.lft.to/lastmile_qr_scan", "ios": "https://dc.lft.to/lastmile_qr_scan"}, "is_reserved": 0, "is_disabled": 0, "type": "electric_scooter", "bike_id": "b61db73e360c1794f519f66946f9ee17"}, {"lon": -76.99912666666667, "lat": 38.909411166666665, "name": "0a6c59edaf037f4af00e8109f9b79377", "fusion_lat": 0.0, "fusion_lon": 0.0, "rental_uris": {"android": "https://dc.lft.to/lastmile_qr_scan", "ios": "https://dc.lft.to/lastmile_qr_scan"}, "is_reserved": 0, "is_disabled": 0, "type": "electric_scooter", "bike_id": "0a6c59edaf037f4af00e8109f9b79377"}, {"lon": -77.03854333333334, "lat": 38.93241966666667, "name": "e1be682c10e449a79d072b3233013a2b", "fusion_lat": 0.0, "fusion_lon": 0.0, "rental_uris": {"android": "https://dc.lft.to/lastmile_qr_scan", "ios": "https://dc.lft.to/lastmile_qr_scan"}, "is_reserved": 0, "is_disabled": 0, "type": "electric_scooter", "bike_id": "e1be682c10e449a79d072b3233013a2b"}, {"lon": -77.06274466666666, "lat": 38.905871166666664, "name": "e69200db5ec1d45fcc599f778673dd7a", "fusion_lat": 0.0, "fusion_lon": 0.0, "rental_uris": {"android": "https://dc.lft.to/lastmile_qr_scan", "ios": "https://dc.lft.to/lastmile_qr_scan"}, "is_reserved": 0, "is_disabled": 0, "type": "electric_scooter", "bike_id": "e69200db5ec1d45fcc599f778673dd7a"}, {"lon": -77.13093633333334, "lat": 38.86160183333333, "name": "00dc31ca991b59ce4e717a93830dc763", "fusion_lat": 0.0, "fusion_lon": 0.0, "rental_uris": {"android": "https://dc.lft.to/lastmile_qr_scan", "ios": "https://dc.lft.to/lastmile_qr_scan"}, "is_reserved": 0, "is_disabled": 0, "type": "electric_bike", "bike_id": "00dc31ca991b59ce4e717a93830dc763"}, {"lon": -77.03153916666666, "lat": 38.8973555, "name": "3e8647bf16d38edbe186b840b4226061", "fusion_lat": 0.0, "fusion_lon": 0.0, "rental_uris": {"android": "https://dc.lft.to/lastmile_qr_scan", "ios": "https://dc.lft.to/lastmile_qr_scan"}, "is_reserved": 0, "is_disabled": 0, "type": "electric_scooter", "bike_id": "3e8647bf16d38edbe186b840b4226061"}, {"lon": -76.98309083333334, "lat": 38.868911, "name": "364ae56f168eca7eea10384452b1fe11", "fusion_lat": 0.0, "fusion_lon": 0.0, "rental_uris": {"android": "https://dc.lft.to/lastmile_qr_scan", "ios": "https://dc.lft.to/lastmile_qr_scan"}, "is_reserved": 0, "is_disabled": 0, "type": "electric_scooter", "bike_id": "364ae56f168eca7eea10384452b1fe11"}, {"lon": -77.00680216666667, "lat": 38.877080666666664, "name": "983935450a6e1c1d1a1f3b641ed4a4ed", "fusion_lat": 0.0, "fusion_lon": 0.0, "rental_uris": {"android": "https://dc.lft.to/lastmile_qr_scan", "ios": "https://dc.lft.to/lastmile_qr_scan"}, "is_reserved": 0, "is_disabled": 0, "type": "electric_scooter", "bike_id": "983935450a6e1c1d1a1f3b641ed4a4ed"}, {"lon": -77.0382785, "lat": 38.93131616666667, "name": "0cc7fdc394f0b3153e982a9882fe51ef", "fusion_lat": 0.0, "fusion_lon": 0.0, "rental_uris": {"android": "https://dc.lft.to/lastmile_qr_scan", "ios": "https://dc.lft.to/lastmile_qr_scan"}, "is_reserved": 0, "is_disabled": 0, "type": "electric_scooter", "bike_id": "0cc7fdc394f0b3153e982a9882fe51ef"}, {"lon": -77.03410716666667, "lat": 38.919240333333335, "name": "902b23ca0680f93a134239d3ecbcbc49", "fusion_lat": 0.0, "fusion_lon": 0.0, "rental_uris": {"android": "https://dc.lft.to/lastmile_qr_scan", "ios": "https://dc.lft.to/lastmile_qr_scan"}, "is_reserved": 0, "is_disabled": 0, "type": "electric_scooter", "bike_id": "902b23ca0680f93a134239d3ecbcbc49"}, {"lon": -77.00205583333333, "lat": 38.90239483333333, "name": "7ea79aa5ca99360fc62c2fbbcaf29cf1", "fusion_lat": 0.0, "fusion_lon": 0.0, "rental_uris": {"android": "https://dc.lft.to/lastmile_qr_scan", "ios": "https://dc.lft.to/lastmile_qr_scan"}, "is_reserved": 0, "is_disabled": 0, "type": "electric_scooter", "bike_id": "7ea79aa5ca99360fc62c2fbbcaf29cf1"}, {"lon": -77.01617333333333, "lat": 38.87695083333333, "name": "9055c7b00abcccde382c4642469ec9c2", "fusion_lat": 0.0, "fusion_lon": 0.0, "rental_uris": {"android": "https://dc.lft.to/lastmile_qr_scan", "ios": "https://dc.lft.to/lastmile_qr_scan"}, "is_reserved": 0, "is_disabled": 0, "type": "electric_scooter", "bike_id": "9055c7b00abcccde382c4642469ec9c2"}, {"lon": -76.931838, "lat": 38.898735, "name": "420983c6db60f252903495168b9dcc9d", "fusion_lat": 0.0, "fusion_lon": 0.0, "rental_uris": {"android": "https://dc.lft.to/lastmile_qr_scan", "ios": "https://dc.lft.to/lastmile_qr_scan"}, "is_reserved": 0, "is_disabled": 0, "type": "electric_scooter", "bike_id": "420983c6db60f252903495168b9dcc9d"}, {"lon": -76.98838616666667, "lat": 38.90035233333333, "name": "dc9be93a888914e069ffca5b5d51f854", "fusion_lat": 0.0, "fusion_lon": 0.0, "rental_uris": {"android": "https://dc.lft.to/lastmile_qr_scan", "ios": "https://dc.lft.to/lastmile_qr_scan"}, "is_reserved": 0, "is_disabled": 0, "type": "electric_scooter", "bike_id": "dc9be93a888914e069ffca5b5d51f854"}, {"lon": -77.00134483333333, "lat": 38.904104, "name": "04d5f2c712bc52d2d8aa0377bb374734", "fusion_lat": 0.0, "fusion_lon": 0.0, "rental_uris": {"android": "https://dc.lft.to/lastmile_qr_scan", "ios": "https://dc.lft.to/lastmile_qr_scan"}, "is_reserved": 0, "is_disabled": 0, "type": "electric_scooter", "bike_id": "04d5f2c712bc52d2d8aa0377bb374734"}, {"lon": -77.05438716666667, "lat": 38.90267333333333, "name": "17295c8f45733c9b6116458b2e1057bd", "fusion_lat": 0.0, "fusion_lon": 0.0, "rental_uris": {"android": "https://dc.lft.to/lastmile_qr_scan", "ios": "https://dc.lft.to/lastmile_qr_scan"}, "is_reserved": 0, "is_disabled": 0, "type": "electric_scooter", "bike_id": "17295c8f45733c9b6116458b2e1057bd"}, {"lon": -77.01376466666666, "lat": 38.92878433333333, "name": "80ab2655b5972265d945854d9620bce1", "fusion_lat": 0.0, "fusion_lon": 0.0, "rental_uris": {"android": "https://dc.lft.to/lastmile_qr_scan", "ios": "https://dc.lft.to/lastmile_qr_scan"}, "is_reserved": 0, "is_disabled": 0, "type": "electric_scooter", "bike_id": "80ab2655b5972265d945854d9620bce1"}, {"lon": -76.999328, "lat": 38.896141166666666, "name": "77e9b25c18914dba8c7243f11d383b61", "fusion_lat": 0.0, "fusion_lon": 0.0, "rental_uris": {"android": "https://dc.lft.to/lastmile_qr_scan", "ios": "https://dc.lft.to/lastmile_qr_scan"}, "is_reserved": 0, "is_disabled": 0, "type": "electric_scooter", "bike_id": "77e9b25c18914dba8c7243f11d383b61"}, {"lon": -76.95206533333334, "lat": 38.936728333333335, "name": "5ada300acd48e8adfc6541d986d02923", "fusion_lat": 0.0, "fusion_lon": 0.0, "rental_uris": {"android": "https://dc.lft.to/lastmile_qr_scan", "ios": "https://dc.lft.to/lastmile_qr_scan"}, "is_reserved": 0, "is_disabled": 0, "type": "electric_bike", "bike_id": "5ada300acd48e8adfc6541d986d02923"}, {"lon": -77.01716983333333, "lat": 38.916042166666664, "name": "8a56e8de9ff18dc49a45b52c5dd8c521", "fusion_lat": 0.0, "fusion_lon": 0.0, "rental_uris": {"android": "https://dc.lft.to/lastmile_qr_scan", "ios": "https://dc.lft.to/lastmile_qr_scan"}, "is_reserved": 0, "is_disabled": 0, "type": "electric_scooter", "bike_id": "8a56e8de9ff18dc49a45b52c5dd8c521"}, {"lon": -77.0234785, "lat": 38.9298815, "name": "825fa381b0a86edca1c98aa094303305", "fusion_lat": 0.0, "fusion_lon": 0.0, "rental_uris": {"android": "https://dc.lft.to/lastmile_qr_scan", "ios": "https://dc.lft.to/lastmile_qr_scan"}, "is_reserved": 0, "is_disabled": 0, "type": "electric_scooter", "bike_id": "825fa381b0a86edca1c98aa094303305"}, {"lon": -77.034111, "lat": 38.9190885, "name": "9908d00e05d62f55a8b403f322b2d790", "fusion_lat": 0.0, "fusion_lon": 0.0, "rental_uris": {"android": "https://dc.lft.to/lastmile_qr_scan", "ios": "https://dc.lft.to/lastmile_qr_scan"}, "is_reserved": 0, "is_disabled": 0, "type": "electric_scooter", "bike_id": "9908d00e05d62f55a8b403f322b2d790"}, {"lon": -77.03210083333333, "lat": 38.91731, "name": "543150c338aff5e3475bf13489c36ded", "fusion_lat": 0.0, "fusion_lon": 0.0, "rental_uris": {"android": "https://dc.lft.to/lastmile_qr_scan", "ios": "https://dc.lft.to/lastmile_qr_scan"}, "is_reserved": 0, "is_disabled": 0, "type": "electric_scooter", "bike_id": "543150c338aff5e3475bf13489c36ded"}, {"lon": -76.9649065, "lat": 38.87553233333333, "name": "ba9fe68d41b13da00d92287bb93aca74", "fusion_lat": 0.0, "fusion_lon": 0.0, "rental_uris": {"android": "https://dc.lft.to/lastmile_qr_scan", "ios": "https://dc.lft.to/lastmile_qr_scan"}, "is_reserved": 0, "is_disabled": 0, "type": "electric_bike", "bike_id": "ba9fe68d41b13da00d92287bb93aca74"}, {"lon": -77.0278805, "lat": 38.92761316666667, "name": "03c021aba2f406380fe056d836e3d5ae", "fusion_lat": 0.0, "fusion_lon": 0.0, "rental_uris": {"android": "https://dc.lft.to/lastmile_qr_scan", "ios": "https://dc.lft.to/lastmile_qr_scan"}, "is_reserved": 0, "is_disabled": 0, "type": "electric_scooter", "bike_id": "03c021aba2f406380fe056d836e3d5ae"}, {"lon": -77.03531616666666, "lat": 38.923741666666665, "name": "54604d695dcb1227540c3e2de393ac25", "fusion_lat": 0.0, "fusion_lon": 0.0, "rental_uris": {"android": "https://dc.lft.to/lastmile_qr_scan", "ios": "https://dc.lft.to/lastmile_qr_scan"}, "is_reserved": 0, "is_disabled": 0, "type": "electric_scooter", "bike_id": "54604d695dcb1227540c3e2de393ac25"}, {"lon": -77.03639983333333, "lat": 38.912702333333336, "name": "dd002294f0cde17de5fc3faa11b26ced", "fusion_lat": 0.0, "fusion_lon": 0.0, "rental_uris": {"android": "https://dc.lft.to/lastmile_qr_scan", "ios": "https://dc.lft.to/lastmile_qr_scan"}, "is_reserved": 0, "is_disabled": 0, "type": "electric_scooter", "bike_id": "dd002294f0cde17de5fc3faa11b26ced"}, {"lon": -77.034501, "lat": 38.907387166666666, "name": "b0ed763b6cb2957141b5a251fbbdb8a9", "fusion_lat": 0.0, "fusion_lon": 0.0, "rental_uris": {"android": "https://dc.lft.to/lastmile_qr_scan", "ios": "https://dc.lft.to/lastmile_qr_scan"}, "is_reserved": 0, "is_disabled": 0, "type": "electric_scooter", "bike_id": "b0ed763b6cb2957141b5a251fbbdb8a9"}, {"lon": -77.076631, "lat": 38.9062415, "name": "4a363e120a19ad1fc2d11f8776014e3c", "fusion_lat": 0.0, "fusion_lon": 0.0, "rental_uris": {"android": "https://dc.lft.to/lastmile_qr_scan", "ios": "https://dc.lft.to/lastmile_qr_scan"}, "is_reserved": 0, "is_disabled": 0, "type": "electric_scooter", "bike_id": "4a363e120a19ad1fc2d11f8776014e3c"}, {"lon": -76.98557433333333, "lat": 38.86886966666667, "name": "37b9b713b136f4d4b5b35fa73503a07b", "fusion_lat": 0.0, "fusion_lon": 0.0, "rental_uris": {"android": "https://dc.lft.to/lastmile_qr_scan", "ios": "https://dc.lft.to/lastmile_qr_scan"}, "is_reserved": 0, "is_disabled": 0, "type": "electric_bike", "bike_id": "37b9b713b136f4d4b5b35fa73503a07b"}, {"lon": -77.042264, "lat": 38.91108966666667, "name": "10db8d4114a28208784d958c3a3bda21", "fusion_lat": 0.0, "fusion_lon": 0.0, "rental_uris": {"android": "https://dc.lft.to/lastmile_qr_scan", "ios": "https://dc.lft.to/lastmile_qr_scan"}, "is_reserved": 0, "is_disabled": 0, "type": "electric_scooter", "bike_id": "10db8d4114a28208784d958c3a3bda21"}, {"lon": -77.02199133333333, "lat": 38.91132566666667, "name": "20155ca33db9d25cd02e5097a7c2fdac", "fusion_lat": 0.0, "fusion_lon": 0.0, "rental_uris": {"android": "https://dc.lft.to/lastmile_qr_scan", "ios": "https://dc.lft.to/lastmile_qr_scan"}, "is_reserved": 0, "is_disabled": 0, "type": "electric_scooter", "bike_id": "20155ca33db9d25cd02e5097a7c2fdac"}, {"lon": -77.03180366666666, "lat": 38.89395483333333, "name": "29fb3a352e2a3bf24bd7cb183ab76d40", "fusion_lat": 0.0, "fusion_lon": 0.0, "rental_uris": {"android": "https://dc.lft.to/lastmile_qr_scan", "ios": "https://dc.lft.to/lastmile_qr_scan"}, "is_reserved": 0, "is_disabled": 0, "type": "electric_scooter", "bike_id": "29fb3a352e2a3bf24bd7cb183ab76d40"}, {"lon": -76.990642, "lat": 38.90402683333333, "name": "b27d05f850379d0d2f60af29b4991aaf", "fusion_lat": 0.0, "fusion_lon": 0.0, "rental_uris": {"android": "https://dc.lft.to/lastmile_qr_scan", "ios": "https://dc.lft.to/lastmile_qr_scan"}, "is_reserved": 0, "is_disabled": 0, "type": "electric_scooter", "bike_id": "b27d05f850379d0d2f60af29b4991aaf"}, {"lon": -77.021969, "lat": 38.9169245, "name": "5166b3ca4d000f957874630db622aa6f", "fusion_lat": 0.0, "fusion_lon": 0.0, "rental_uris": {"android": "https://dc.lft.to/lastmile_qr_scan", "ios": "https://dc.lft.to/lastmile_qr_scan"}, "is_reserved": 0, "is_disabled": 0, "type": "electric_scooter", "bike_id": "5166b3ca4d000f957874630db622aa6f"}, {"lon": -77.03364766666667, "lat": 38.92149233333333, "name": "70e25d6d3ff16bc36ab026e1776810a2", "fusion_lat": 0.0, "fusion_lon": 0.0, "rental_uris": {"android": "https://dc.lft.to/lastmile_qr_scan", "ios": "https://dc.lft.to/lastmile_qr_scan"}, "is_reserved": 0, "is_disabled": 0, "type": "electric_scooter", "bike_id": "70e25d6d3ff16bc36ab026e1776810a2"}, {"lon": -76.98125616666667, "lat": 38.8919655, "name": "e4c96c9a1a4ada0d27850930ff4dc3f5", "fusion_lat": 0.0, "fusion_lon": 0.0, "rental_uris": {"android": "https://dc.lft.to/lastmile_qr_scan", "ios": "https://dc.lft.to/lastmile_qr_scan"}, "is_reserved": 0, "is_disabled": 0, "type": "electric_scooter", "bike_id": "e4c96c9a1a4ada0d27850930ff4dc3f5"},