{"data": {"bikes": [{"lon": -77.0445565, "bike_id": "e2600958a6894076879351de3fee17fa", "lat": 38.91853066666667, "fusion_lon": 0.0, "fusion_lat": 0.0, "type": "electric_scooter", "name": "e2600958a6894076879351de3fee17fa", "is_disabled": 0, "rental_uris": {"ios": "https://dc.lft.to/lastmile_qr_scan", "android": "https://dc.lft.to/lastmile_qr_scan"}, "is_reserved": 0}, {"lon": -77.0364035, "bike_id": "dd069832ccebc5dec9d6593a50e7dfc9", "lat": 38.909182333333334, "fusion_lon": 0.0, "fusion_lat": 0.0, "type": "electric_scooter", "name": "dd069832ccebc5dec9d6593a50e7dfc9", "is_disabled": 0, "rental_uris": {"ios": "https://dc.lft.to/lastmile_qr_scan", "android": "https://dc.lft.to/lastmile_qr_scan"}, "is_reserved": 0}, {"lon": -77.02297566666667, "bike_id": "67576d1f366f3c93c1efea5b723e1a6b", "lat": 38.9222705, "fusion_lon": 0.0, "fusion_lat": 0.0, "type": "electric_scooter", "name": "67576d1f366f3c93c1efea5b723e1a6b", "is_disabled": 0, "rental_uris": {"ios": "https://dc.lft.to/lastmile_qr_scan", "android": "https://dc.lft.to/lastmile_qr_scan"}, "is_reserved": 0}, {"lon": -77.00822183333334, "bike_id": "e8e792462615ab5feca34608a4c376b4", "lat": 38.876467166666664, "fusion_lon": 0.0, "fusion_lat": 0.0, "type": "electric_scooter", "name": "e8e792462615ab5feca34608a4c376b4", "is_disabled": 0, "rental_uris": {"ios": "https://dc.lft.to/lastmile_qr_scan", "android": "https://dc.lft.to/lastmile_qr_scan"}, "is_reserved": 0}, {"lon": -77.032674, "bike_id": "f4af806369c699b14f09e18e525a3098", "lat": 38.92004133333333, "fusion_lon": 0.0, "fusion_lat": 0.0, "type": "electric_scooter", "name": "f4af806369c699b14f09e18e525a3098", "is_disabled": 0, "rental_uris": {"ios": "https://dc.lft.to/lastmile_qr_scan", "android": "https://dc.lft.to/lastmile_qr_scan"}, "is_reserved": 0}, {"lon": -77.029617, "bike_id": "0bb8b2af8a9682721e1b3404ef8f1d0e", "lat": 38.92296483333333, "fusion_lon": 0.0, "fusion_lat": 0.0, "type": "electric_scooter", "name": "0bb8b2af8a9682721e1b3404ef8f1d0e", "is_disabled": 0, "rental_uris": {"ios": "https://dc.lft.to/lastmile_qr_scan", "android": "https://dc.lft.to/lastmile_qr_scan"}, "is_reserved": 0}, {"lon": -76.96600583333333, "bike_id": "f1bff988f983cfa145fe133b822295c0", "lat": 38.87115383333333, "fusion_lon": 0.0, "fusion_lat": 0.0, "type": "electric_scooter", "name": "f1bff988f983cfa145fe133b822295c0", "is_disabled": 0, "rental_uris": {"ios": "https://dc.lft.to/lastmile_qr_scan", "android": "https://dc.lft.to/lastmile_qr_scan"}, "is_reserved": 0}, {"lon": -77.027654, "bike_id": "6b9a60647fba26c7e0bb26baa0c60427", "lat": 38.95427166666666, "fusion_lon": 0.0, "fusion_lat": 0.0, "type": "electric_scooter", "name": "6b9a60647fba26c7e0bb26baa0c60427", "is_disabled": 0, "rental_uris": {"ios": "https://dc.lft.to/lastmile_qr_scan", "android": "https://dc.lft.to/lastmile_qr_scan"}, "is_reserved": 0}, {"lon": -77.04324516666667, "bike_id": "c38260291660266caf78e19fdef1ef57", "lat": 38.923627833333335, "fusion_lon": 0.0, "fusion_lat": 0.0, "type": "electric_scooter", "name": "c38260291660266caf78e19fdef1ef57", "is_disabled": 0, "rental_uris": {"ios": "https://dc.lft.to/lastmile_qr_scan", "android": "https://dc.lft.to/lastmile_qr_scan"}, "is_reserved": 0}, {"lon": -77.0345275, "bike_id": "3eca45bb0257b42634929ef46434aa2c", "lat": 38.9344, "fusion_lon": 0.0, "fusion_lat": 0.0, "type": "electric_scooter", "name": "3eca45bb0257b42634929ef46434aa2c", "is_disabled": 0, "rental_uris": {"ios": "https://dc.lft.to/lastmile_qr_scan", "android": "https://dc.lft.to/lastmile_qr_scan"}, "is_reserved": 0}, {"lon": -76.99594916666666, "bike_id": "14936c25e9eb626ab7c7219d01acfe54", "lat": 38.857009833333336, "fusion_lon": 0.0, "fusion_lat": 0.0, "type": "electric_scooter", "name": "14936c25e9eb626ab7c7219d01acfe54", "is_disabled": 0, "rental_uris": {"ios": "https://dc.lft.to/lastmile_qr_scan", "android": "https://dc.lft.to/lastmile_qr_scan"}, "is_reserved": 0}, {"lon": -77.05379266666667, "bike_id": "bcd3c64aa92be3a89e427076e2c7eecf", "lat": 38.927366, "fusion_lon": 0.0, "fusion_lat": 0.0, "type": "electric_scooter", "name": "bcd3c64aa92be3a89e427076e2c7eecf", "is_disabled": 0, "rental_uris": {"ios": "https://dc.lft.to/lastmile_qr_scan", "android": "https://dc.lft.to/lastmile_qr_scan"}, "is_reserved": 0}, {"lon": -77.0304405, "bike_id": "7756ac3d66216932e794e6fb22c08516", "lat": 38.898293, "fusion_lon": 0.0, "fusion_lat": 0.0, "type": "electric_scooter", "name": "7756ac3d66216932e794e6fb22c08516", "is_disabled": 0, "rental_uris": {"ios": "https://dc.lft.to/lastmile_qr_scan", "android": "https://dc.lft.to/lastmile_qr_scan"}, "is_reserved": 0}, {"lon": -77.01366866666666, "bike_id": "21c83b1aea29eeb08ae6d70d4aa8024f", "lat": 38.8871095, "fusion_lon": 0.0, "fusion_lat": 0.0, "type": "electric_scooter", "name": "21c83b1aea29eeb08ae6d70d4aa8024f", "is_disabled": 0, "rental_uris": {"ios": "https://dc.lft.to/lastmile_qr_scan", "android": "https://dc.lft.to/lastmile_qr_scan"}, "is_reserved": 0}, {"lon": -77.02579833333333, "bike_id": "77d3fa6d88bce57098e19b3e7b8ee431", "lat": 38.9273305, "fusion_lon": 0.0, "fusion_lat": 0.0, "type": "electric_scooter", "name": "77d3fa6d88bce57098e19b3e7b8ee431", "is_disabled": 0, "rental_uris": {"ios": "https://dc.lft.to/lastmile_qr_scan", "android": "https://dc.lft.to/lastmile_qr_scan"}, "is_reserved": 0}, {"lon": -77.04599566666667, "bike_id": "5861ef517196bb83b13bc529c6029bdb", "lat": 38.9161065, "fusion_lon": 0.0, "fusion_lat": 0.0, "type": "electric_scooter", "name": "5861ef517196bb83b13bc529c6029bdb", "is_disabled": 0, "rental_uris": {"ios": "https://dc.lft.to/lastmile_qr_scan", "android": "https://dc.lft.to/lastmile_qr_scan"}, "is_reserved": 0}, {"lon": -77.023879, "bike_id": "1cb81bf1489c264fe731f109a44c56f7", "lat": 38.9199855, "fusion_lon": 0.0, "fusion_lat": 0.0, "type": "electric_scooter", "name": "1cb81bf1489c264fe731f109a44c56f7", "is_disabled": 0, "rental_uris": {"ios": "https://dc.lft.to/lastmile_qr_scan", "android": "https://dc.lft.to/lastmile_qr_scan"}, "is_reserved": 0}, {"lon": -76.98826466666667, "bike_id": "62dcab625a59bbd5dbc272a078ddacd9", "lat": 38.89077866666667, "fusion_lon": 0.0, "fusion_lat": 0.0, "type": "electric_scooter", "name": "62dcab625a59bbd5dbc272a078ddacd9", "is_disabled": 0, "rental_uris": {"ios": "https://dc.lft.to/lastmile_qr_scan", "android": "https://dc.lft.to/lastmile_qr_scan"}, "is_reserved": 0}, {"lon": -77.029193, "bike_id": "d7223aeb0dcf814fedc97fdbef616089", "lat": 38.898248, "fusion_lon": 0.0, "fusion_lat": 0.0, "type": "electric_scooter", "name": "d7223aeb0dcf814fedc97fdbef616089", "is_disabled": 0, "rental_uris": {"ios": "https://dc.lft.to/lastmile_qr_scan", "android": "https://dc.lft.to/lastmile_qr_scan"}, "is_reserved": 0}, {"lon": -77.01957933333334, "bike_id": "fd4f8f707dc6eef95afce11d11bb3141", "lat": 38.952363166666665, "fusion_lon": 0.0, "fusion_lat": 0.0, "type": "electric_scooter", "name": "fd4f8f707dc6eef95afce11d11bb3141", "is_disabled": 0, "rental_uris": {"ios": "https://dc.lft.to/lastmile_qr_scan", "android": "https://dc.lft.to/lastmile_qr_scan"}, "is_reserved": 0}, {"lon": -77.00735816666666, "bike_id": "daadc5e8a51cadca2de3f559b4c7220c", "lat": 38.87666633333333, "fusion_lon": 0.0, "fusion_lat": 0.0, "type": "electric_scooter", "name": "daadc5e8a51cadca2de3f559b4c7220c", "is_disabled": 0, "rental_uris": {"ios": "https://dc.lft.to/lastmile_qr_scan", "android": "https://dc.lft.to/lastmile_qr_scan"}, "is_reserved": 0}, {"lon": -77.00556266666666, "bike_id": "429781bfe1a93dd5b105b51603137c8a", "lat": 38.87472616666667, "fusion_lon": 0.0, "fusion_lat": 0.0, "type": "electric_scooter", "name": "429781bfe1a93dd5b105b51603137c8a", "is_disabled": 0, "rental_uris": {"ios": "https://dc.lft.to/lastmile_qr_scan", "android": "https://dc.lft.to/lastmile_qr_scan"}, "is_reserved": 0}, {"lon": -77.12650216666667, "bike_id": "0b9a914755b4e2967c175b676ca6761b", "lat": 38.815183166666664, "fusion_lon": 0.0, "fusion_lat": 0.0, "type": "electric_bike", "name": "0b9a914755b4e2967c175b676ca6761b", "is_disabled": 0, "rental_uris": {"ios": "https://dc.lft.to/lastmile_qr_scan", "android": "https://dc.lft.to/lastmile_qr_scan"}, "is_reserved": 0}, {"lon": -77.04479133333334, "bike_id": "e6b806ecd21b83530d7998c7f1227d13", "lat": 38.9156465, "fusion_lon": 0.0, "fusion_lat": 0.0, "type": "electric_scooter", "name": "e6b806ecd21b83530d7998c7f1227d13", "is_disabled": 0, "rental_uris": {"ios": "https://dc.lft.to/lastmile_qr_scan", "android": "https://dc.lft.to/lastmile_qr_scan"}, "is_reserved": 0}, {"lon": -77.03990783333333, "bike_id": "98c5f70df82c429dc5081ba63ba808e6", "lat": 38.924596, "fusion_lon": 0.0, "fusion_lat": 0.0, "type": "electric_scooter", "name": "98c5f70df82c429dc5081ba63ba808e6", "is_disabled": 0, "rental_uris": {"ios": "https://dc.lft.to/lastmile_qr_scan", "android": "https://dc.lft.to/lastmile_qr_scan"}, "is_reserved": 0}, {"lon": -77.03660433333333, "bike_id": "7f99f48cf87c0efa50186293befab3d7", "lat": 38.921259666666664, "fusion_lon": 0.0, "fusion_lat": 0.0, "type": "electric_scooter", "name": "7f99f48cf87c0efa50186293befab3d7", "is_disabled": 0, "rental_uris": {"ios": "https://dc.lft.to/lastmile_qr_scan", "android": "https://dc.lft.to/lastmile_qr_scan"}, "is_reserved": 0}, {"lon": -77.0221295, "bike_id": "d8fa408da9a004250f0ca284b3f1d5e2", "lat": 38.910181666666666, "fusion_lon": 0.0, "fusion_lat": 0.0, "type": "electric_scooter", "name": "d8fa408da9a004250f0ca284b3f1d5e2", "is_disabled": 0, "rental_uris": {"ios": "https://dc.lft.to/lastmile_qr_scan", "android": "https://dc.lft.to/lastmile_qr_scan"}, "is_reserved": 0}, {"lon": -77.021525, "bike_id": "53319d9b511bfcbcea0be0a414ba45dc", "lat": 38.926019833333335, "fusion_lon": 0.0, "fusion_lat": 0.0, "type": "electric_bike", "name": "53319d9b511bfcbcea0be0a414ba45dc", "is_disabled": 0, "rental_uris": {"ios": "https://dc.lft.to/lastmile_qr_scan", "android": "https://dc.lft.to/lastmile_qr_scan"}, "is_reserved": 0}, {"lon": -76.92734333333334, "bike_id": "5df3ad5b207f6276ac9a350c264f745f", "lat": 38.88966666666666, "fusion_lon": 0.0, "fusion_lat": 0.0, "type": "electric_scooter", "name": "5df3ad5b207f6276ac9a350c264f745f", "is_disabled": 0, "rental_uris": {"ios": "https://dc.lft.to/lastmile_qr_scan", "android": "https://dc.lft.to/lastmile_qr_scan"}, "is_reserved": 0}, {"lon": -77.0190145, "bike_id": "6842a979e64aa448fbc0beefac8fa4c8", "lat": 38.90506833333333, "fusion_lon": 0.0, "fusion_lat": 0.0, "type": "electric_scooter", "name": "6842a979e64aa448fbc0beefac8fa4c8", "is_disabled": 0, "rental_uris": {"ios": "https://dc.lft.to/lastmile_qr_scan", "android": "https://dc.lft.to/lastmile_qr_scan"}, "is_reserved": 0}, {"lon": -77.01430383333333, "bike_id": "0a8c4970fd48644d6fd29b4c37e4480a", "lat": 38.876599, "fusion_lon": 0.0, "fusion_lat": 0.0, "type": "electric_scooter", "name": "0a8c4970fd48644d6fd29b4c37e4480a", "is_disabled": 0, "rental_uris": {"ios": "https://dc.lft.to/lastmile_qr_scan", "android": "https://dc.lft.to/lastmile_qr_scan"}, "is_reserved": 0}, {"lon": -76.98287233333333, "bike_id": "c097b479ae7600ec184f343aca69f4d0", "lat": 38.900464, "fusion_lon": 0.0, "fusion_lat": 0.0, "type": "electric_scooter", "name": "c097b479ae7600ec184f343aca69f4d0", "is_disabled": 0, "rental_uris": {"ios": "https://dc.lft.to/lastmile_qr_scan", "android": "https://dc.lft.to/lastmile_qr_scan"}, "is_reserved": 0}, {"lon": -76.98546466666667, "bike_id": "02ad8c5242702ec5c1b3c068cdc97dc7", "lat": 38.92006633333333, "fusion_lon": 0.0, "fusion_lat": 0.0, "type": "electric_scooter", "name": "02ad8c5242702ec5c1b3c068cdc97dc7", "is_disabled": 0, "rental_uris": {"ios": "https://dc.lft.to/lastmile_qr_scan", "android": "https://dc.lft.to/lastmile_qr_scan"}, "is_reserved": 0}, {"lon": -76.93342716666666, "bike_id": "a5dea593ef687ddd024015fb4944ec34", "lat": 38.899105166666665, "fusion_lon": 0.0, "fusion_lat": 0.0, "type": "electric_scooter", "name": "a5dea593ef687ddd024015fb4944ec34", "is_disabled": 0, "rental_uris": {"ios": "https://dc.lft.to/lastmile_qr_scan", "android": "https://dc.lft.to/lastmile_qr_scan"}, "is_reserved": 0}, {"lon": -77.05131916666667, "bike_id": "53931eb76c8fb91be04f352e2b7e2a8d", "lat": 38.92363733333333, "fusion_lon": 0.0, "fusion_lat": 0.0, "type": "electric_scooter", "name": "53931eb76c8fb91be04f352e2b7e2a8d", "is_disabled": 0, "rental_uris": {"ios": "https://dc.lft.to/lastmile_qr_scan", "android": "https://dc.lft.to/lastmile_qr_scan"}, "is_reserved": 0}, {"lon": -77.0344465, "bike_id": "40e89ff4ab42e39e421b590887d84f1c", "lat": 38.90907266666667, "fusion_lon": 0.0, "fusion_lat": 0.0, "type": "electric_scooter", "name": "40e89ff4ab42e39e421b590887d84f1c", "is_disabled": 0, "rental_uris": {"ios": "https://dc.lft.to/lastmile_qr_scan", "android": "https://dc.lft.to/lastmile_qr_scan"}, "is_reserved": 0}, {"lon": -77.051748, "bike_id": "1d0c36bbaf82d9ce2ecdbde206cd7dcc", "lat": 38.92344216666667, "fusion_lon": 0.0, "fusion_lat": 0.0, "type": "electric_scooter", "name": "1d0c36bbaf82d9ce2ecdbde206cd7dcc", "is_disabled": 0, "rental_uris": {"ios": "https://dc.lft.to/lastmile_qr_scan", "android": "https://dc.lft.to/lastmile_qr_scan"}, "is_reserved": 0}, {"lon": -77.083268, "bike_id": "219bfe1b0ed5f11495f2073206aab2e5", "lat": 38.9298805, "fusion_lon": 0.0, "fusion_lat": 0.0, "type": "electric_scooter", "name": "219bfe1b0ed5f11495f2073206aab2e5", "is_disabled": 0, "rental_uris": {"ios": "https://dc.lft.to/lastmile_qr_scan", "android": "https://dc.lft.to/lastmile_qr_scan"}, "is_reserved": 0}, {"lon": -77.04247066666667, "bike_id": "042f7ae90b53edf9a018e64c3721acd9", "lat": 38.9254445, "fusion_lon": 0.0, "fusion_lat": 0.0, "type": "electric_scooter", "name": "042f7ae90b53edf9a018e64c3721acd9", "is_disabled": 0, "rental_uris": {"ios": "https://dc.lft.to/lastmile_qr_scan", "android": "https://dc.lft.to/lastmile_qr_scan"}, "is_reserved": 0}, {"lon": -77.079285, "bike_id": "4c8cabf7a8d447963395602a80390a6f", "lat": 38.930875666666665, "fusion_lon": 0.0, "fusion_lat": 0.0, "type": "electric_scooter", "name": "4c8cabf7a8d447963395602a80390a6f", "is_disabled": 0, "rental_uris": {"ios": "https://dc.lft.to/lastmile_qr_scan", "android": "https://dc.lft.to/lastmile_qr_scan"}, "is_reserved": 0}, {"lon": -77.029348, "bike_id": "8e50b17d6c18b9d75198249a61a9c444", "lat": 38.904685666666666, "fusion_lon": 0.0, "fusion_lat": 0.0, "type": "electric_scooter", "name": "8e50b17d6c18b9d75198249a61a9c444", "is_disabled": 0, "rental_uris": {"ios": "https://dc.lft.to/lastmile_qr_scan", "android": "https://dc.lft.to/lastmile_qr_scan"}, "is_reserved": 0}, {"lon": -77.03595666666666, "bike_id": "ba64e7864d78e6bd083164d20a6ab3e2", "lat": 38.9394085, "fusion_lon": 0.0, "fusion_lat": 0.0, "type": "electric_scooter", "name": "ba64e7864d78e6bd083164d20a6ab3e2", "is_disabled": 0, "rental_uris": {"ios": "https://dc.lft.to/lastmile_qr_scan", "android": "https://dc.lft.to/lastmile_qr_scan"}, "is_reserved": 0}, {"lon": -76.994633, "bike_id": "ef37a9bd0fefa8ca7823c7f76fcd5a75", "lat": 38.94069366666667, "fusion_lon": 0.0, "fusion_lat": 0.0, "type": "electric_scooter", "name": "ef37a9bd0fefa8ca7823c7f76fcd5a75", "is_disabled": 0, "rental_uris": {"ios": "https://dc.lft.to/lastmile_qr_scan", "android": "https://dc.lft.to/lastmile_qr_scan"}, "is_reserved": 0}, {"lon": -76.9815535, "bike_id": "3b45d437b9f292414cf084d4a4fdf8f3", "lat": 38.9032565, "fusion_lon": 0.0, "fusion_lat": 0.0, "type": "electric_scooter", "name": "3b45d437b9f292414cf084d4a4fdf8f3", "is_disabled": 0, "rental_uris": {"ios": "https://dc.lft.to/lastmile_qr_scan", "android": "https://dc.lft.to/lastmile_qr_scan"}, "is_reserved": 0}, {"lon": -77.018422, "bike_id": "87998fad8e6395a304576d3f91a1e111", "lat": 38.9463535, "fusion_lon": 0.0, "fusion_lat": 0.0, "type": "electric_scooter", "name": "87998fad8e6395a304576d3f91a1e111", "is_disabled": 0, "rental_uris": {"ios": "https://dc.lft.to/lastmile_qr_scan", "android": "https://dc.lft.to/lastmile_qr_scan"}, "is_reserved": 0}, {"lon": -76.98802466666666, "bike_id": "0d3cd6f23a4ed78e888f63301079331d", "lat": 38.86726783333334, "fusion_lon": 0.0, "fusion_lat": 0.0, "type": "electric_scooter", "name": "0d3cd6f23a4ed78e888f63301079331d", "is_disabled": 0, "rental_uris": {"ios": "https://dc.lft.to/lastmile_qr_scan", "android": "https://dc.lft.to/lastmile_qr_scan"}, "is_reserved": 0}, {"lon": -76.998491, "bike_id": "4760b8373a9dd07fe56426076a953133", "lat": 38.89087033333333, "fusion_lon": 0.0, "fusion_lat": 0.0, "type": "electric_scooter", "name": "4760b8373a9dd07fe56426076a953133", "is_disabled": 0, "rental_uris": {"ios": "https://dc.lft.to/lastmile_qr_scan", "android": "https://dc.lft.to/lastmile_qr_scan"}, "is_reserved": 0}, {"lon": -77.048653, "bike_id": "5462413a89ca41bf79950b68f8179449", "lat": 38.89225283333333, "fusion_lon": 0.0, "fusion_lat": 0.0, "type": "electric_scooter", "name": "5462413a89ca41bf79950b68f8179449", "is_disabled": 0, "rental_uris": {"ios": "https://dc.lft.to/lastmile_qr_scan", "android": "https://dc.lft.to/lastmile_qr_scan"}, "is_reserved": 0}, {"lon": -77.0436125, "bike_id": "d5491658a1236cedb2dcf45922f104a3", "lat": 38.904081166666664, "fusion_lon": 0.0, "fusion_lat": 0.0, "type": "electric_scooter", "name": "d5491658a1236cedb2dcf45922f104a3", "is_disabled": 0, "rental_uris": {"ios": "https://dc.lft.to/lastmile_qr_scan", "android": "https://dc.lft.to/lastmile_qr_scan"}, "is_reserved": 0}, {"lon": -77.02279533333333, "bike_id": "be3d22deaf55fbc044957b75a0ba0197", "lat": 38.878960166666666, "fusion_lon": 0.0, "fusion_lat": 0.0, "type": "electric_scooter", "name": "be3d22deaf55fbc044957b75a0ba0197", "is_disabled": 0, "rental_uris": {"ios": "https://dc.lft.to/lastmile_qr_scan", "android": "https://dc.lft.to/lastmile_qr_scan"}, "is_reserved": 0}, {"lon": -77.030367, "bike_id": "8959e2c1b7217813deebf3d656a87a83", "lat": 38.884064, "fusion_lon": 0.0, "fusion_lat": 0.0, "type": "electric_scooter", "name": "8959e2c1b7217813deebf3d656a87a83", "is_disabled": 0, "rental_uris": {"ios": "https://dc.lft.to/lastmile_qr_scan", "android": "https://dc.lft.to/lastmile_qr_scan"}, "is_reserved": 0}, {"lon": -76.97668983333334, "bike_id": "5d0702d9077ef44743829c388b5843ea", "lat": 38.952463333333334, "fusion_lon": 0.0, "fusion_lat": 0.0, "type": "electric_bike", "name": "5d0702d9077ef44743829c388b5843ea", "is_disabled": 0, "rental_uris": {"ios": "https://dc.lft.to/lastmile_qr_scan", "android": "https://dc.lft.to/lastmile_qr_scan"}, "is_reserved": 0}, {"lon": -77.00200083333333, "bike_id": "82a33e182bd4532491adc7d1ab77fe8a", "lat": 38.90245133333333, "fusion_lon": 0.0, "fusion_lat": 0.0, "type": "electric_scooter", "name": "82a33e182bd4532491adc7d1ab77fe8a", "is_disabled": 0, "rental_uris": {"ios": "https://dc.lft.to/lastmile_qr_scan", "android": "https://dc.lft.to/lastmile_qr_scan"}, "is_reserved": 0}, {"lon": -77.00247516666667, "bike_id": "77caa1a501c0b48ae5cdb23c99f04c0e", "lat": 38.911932166666666, "fusion_lon": 0.0, "fusion_lat": 0.0, "type": "electric_bike", "name": "77caa1a501c0b48ae5cdb23c99f04c0e", "is_disabled": 0, "rental_uris": {"ios": "https://dc.lft.to/lastmile_qr_scan", "android": "https://dc.lft.to/lastmile_qr_scan"}, "is_reserved": 0}, {"lon": -77.03089333333334, "bike_id": "eab75d7444459545dbfefd5362e8662c", "lat": 38.9271545, "fusion_lon": 0.0, "fusion_lat": 0.0, "type": "electric_scooter", "name": "eab75d7444459545dbfefd5362e8662c", "is_disabled": 0, "rental_uris": {"ios": "https://dc.lft.to/lastmile_qr_scan", "android": "https://dc.lft.to/lastmile_qr_scan"}, "is_reserved": 0}, {"lon": -77.03258833333334, "bike_id": "987cbb9bf1ffd0489c3fd331d9c89b43", "lat": 38.9059825, "fusion_lon": 0.0, "fusion_lat": 0.0, "type": "electric_scooter", "name": "987cbb9bf1ffd0489c3fd331d9c89b43", "is_disabled": 0, "rental_uris": {"ios": "https://dc.lft.to/lastmile_qr_scan", "android": "https://dc.lft.to/lastmile_qr_scan"}, "is_reserved": 0}, {"lon": -77.014909, "bike_id": "85358f58b50743d26823d62ed935fa7e", "lat": 38.9176895, "fusion_lon": 0.0, "fusion_lat": 0.0, "type": "electric_scooter", "name": "85358f58b50743d26823d62ed935fa7e", "is_disabled": 0, "rental_uris": {"ios": "https://dc.lft.to/lastmile_qr_scan", "android": "https://dc.lft.to/lastmile_qr_scan"}, "is_reserved": 0}, {"lon": -77.02495433333333, "bike_id": "8589879c1a02af079941be3c1e9e4e88", "lat": 38.942045666666665, "fusion_lon": 0.0, "fusion_lat": 0.0, "type": "electric_scooter", "name": "8589879c1a02af079941be3c1e9e4e88", "is_disabled": 0, "rental_uris": {"ios": "https://dc.lft.to/lastmile_qr_scan", "android": "https://dc.lft.to/lastmile_qr_scan"}, "is_reserved": 0}, {"lon": -77.03963766666666, "bike_id": "f505f1d1dc71f72b41d25a2b48ff8b17", "lat": 38.923207, "fusion_lon": 0.0, "fusion_lat": 0.0, "type": "electric_scooter", "name": "f505f1d1dc71f72b41d25a2b48ff8b17", "is_disabled": 0, "rental_uris": {"ios": "https://dc.lft.to/lastmile_qr_scan", "android": "https://dc.lft.to/lastmile_qr_scan"}, "is_reserved": 0}, {"lon": -77.11916483333333, "bike_id": "b91cf593804f927819bb0dee5e6b91b3", "lat": 38.876369, "fusion_lon": 0.0, "fusion_lat": 0.0, "type": "electric_bike", "name": "b91cf593804f927819bb0dee5e6b91b3", "is_disabled": 0, "rental_uris": {"ios": "https://dc.lft.to/lastmile_qr_scan", "android": "https://dc.lft.to/lastmile_qr_scan"}, "is_reserved": 0}, {"lon": -77.07811566666666, "bike_id": "1237e960dbf989ffd9756c650c339e2d", "lat": 38.924609, "fusion_lon": 0.0, "fusion_lat": 0.0, "type": "electric_scooter", "name": "1237e960dbf989ffd9756c650c339e2d", "is_disabled": 0, "rental_uris": {"ios": "https://dc.lft.to/lastmile_qr_scan", "android": "https://dc.lft.to/lastmile_qr_scan"}, "is_reserved": 0}, {"lon": -77.00919066666667, "bike_id": "9fbd173f34970b689fd1c92c0566e49e", "lat": 38.91070916666666, "fusion_lon": 0.0, "fusion_lat": 0.0, "type": "electric_scooter", "name": "9fbd173f34970b689fd1c92c0566e49e", "is_disabled": 0, "rental_uris": {"ios": "https://dc.lft.to/lastmile_qr_scan", "android": "https://dc.lft.to/lastmile_qr_scan"}, "is_reserved": 0}, {"lon": -77.03436683333334, "bike_id": "f9d559307bd5b1419be37a433beecf1b", "lat": 38.91720216666667, "fusion_lon": 0.0, "fusion_lat": 0.0, "type": "electric_scooter", "name": "f9d559307bd5b1419be37a433beecf1b", "is_disabled": 0, "rental_uris": {"ios": "https://dc.lft.to/lastmile_qr_scan", "android": "https://dc.lft.to/lastmile_qr_scan"}, "is_reserved": 0}, {"lon": -77.00228666666666, "bike_id": "b5063cca1709d2aa96edcf63dcd9fcc6", "lat": 38.902517333333336, "fusion_lon": 0.0, "fusion_lat": 0.0, "type": "electric_scooter", "name": "b5063cca1709d2aa96edcf63dcd9fcc6", "is_disabled": 0, "rental_uris": {"ios": "https://dc.lft.to/lastmile_qr_scan", "android": "https://dc.lft.to/lastmile_qr_scan"}, "is_reserved": 0}, {"lon": -77.05333116666667, "bike_id": "b191ba4a8c887b55fcfb48f226ca0495", "lat": 38.89877366666666, "fusion_lon": 0.0, "fusion_lat": 0.0, "type": "electric_scooter", "name": "b191ba4a8c887b55fcfb48f226ca0495", "is_disabled": 0, "rental_uris": {"ios": "https://dc.lft.to/lastmile_qr_scan", "android": "https://dc.lft.to/lastmile_qr_scan"}, "is_reserved": 0}, {"lon": -77.01762816666667, "bike_id": "344ea431d130e355330ba57715406c47", "lat": 38.87218083333333, "fusion_lon": 0.0, "fusion_lat": 0.0, "type": "electric_scooter", "name": "344ea431d130e355330ba57715406c47", "is_disabled": 0, "rental_uris": {"ios": "https://dc.lft.to/lastmile_qr_scan", "android": "https://dc.lft.to/lastmile_qr_scan"}, "is_reserved": 0}, {"lon": -77.01047733333333, "bike_id": "955efd8eb37e326c4b8c1a0b67c037ed", "lat": 38.963505166666664, "fusion_lon": 0.0, "fusion_lat": 0.0, "type": "electric_scooter", "name": "955efd8eb37e326c4b8c1a0b67c037ed", "is_disabled": 0, "rental_uris": {"ios": "https://dc.lft.to/lastmile_qr_scan", "android": "https://dc.lft.to/lastmile_qr_scan"}, "is_reserved": 0}, {"lon": -77.02598133333333, "bike_id": "f2bc5cc9d714c68e3b7d6dc770b2d610", "lat": 38.927954666666665, "fusion_lon": 0.0, "fusion_lat": 0.0, "type": "electric_scooter", "name": "f2bc5cc9d714c68e3b7d6dc770b2d610", "is_disabled": 0, "rental_uris": {"ios": "https://dc.lft.to/lastmile_qr_scan", "android": "https://dc.lft.to/lastmile_qr_scan"}, "is_reserved": 0}, {"lon": -77.0056935, "bike_id": "fcd9c6a0f57a85cde39682491ccdf671", "lat": 38.876859333333336, "fusion_lon": 0.0, "fusion_lat": 0.0, "type": "electric_scooter", "name": "fcd9c6a0f57a85cde39682491ccdf671", "is_disabled": 0, "rental_uris": {"ios": "https://dc.lft.to/lastmile_qr_scan", "android": "https://dc.lft.to/lastmile_qr_scan"}, "is_reserved": 0}, {"lon": -77.0700825, "bike_id": "3743ef8b4dc49dcc79a00d799428aeea", "lat": 38.90597833333333, "fusion_lon": 0.0, "fusion_lat": 0.0, "type": "electric_bike", "name": "3743ef8b4dc49dcc79a00d799428aeea", "is_disabled": 0, "rental_uris": {"ios": "https://dc.lft.to/lastmile_qr_scan", "android": "https://dc.lft.to/lastmile_qr_scan"}, "is_reserved": 0}, {"lon": -77.028174, "bike_id": "0ad15450bcd60ca072acb15a8f3d7b8e", "lat": 38.9247705, "fusion_lon": 0.0, "fusion_lat": 0.0, "type": "electric_scooter", "name": "0ad15450bcd60ca072acb15a8f3d7b8e", "is_disabled": 0, "rental_uris": {"ios": "https://dc.lft.to/lastmile_qr_scan", "android": "https://dc.lft.to/lastmile_qr_scan"}, "is_reserved": 0}, {"lon": -77.01920183333333, "bike_id": "f55e1e9fc16272985cdbce7b05d2a6a1", "lat": 38.88611783333333, "fusion_lon": 0.0, "fusion_lat": 0.0, "type": "electric_scooter", "name": "f55e1e9fc16272985cdbce7b05d2a6a1", "is_disabled": 0, "rental_uris": {"ios": "https://dc.lft.to/lastmile_qr_scan", "android": "https://dc.lft.to/lastmile_qr_scan"}, "is_reserved": 0}, {"lon": -77.024659, "bike_id": "8b88511ec78ca0d80088c256ea573f40", "lat": 38.89724983333333, "fusion_lon": 0.0, "fusion_lat": 0.0, "type": "electric_scooter", "name": "8b88511ec78ca0d80088c256ea573f40", "is_disabled": 0, "rental_uris": {"ios": "https://dc.lft.to/lastmile_qr_scan", "android": "https://dc.lft.to/lastmile_qr_scan"}, "is_reserved": 0}, {"lon": -77.03974916666667, "bike_id": "3edba8113430beda05fa1f7ae29a2de2", "lat": 38.92324216666667, "fusion_lon": 0.0, "fusion_lat": 0.0, "type": "electric_scooter", "name": "3edba8113430beda05fa1f7ae29a2de2", "is_disabled": 0, "rental_uris": {"ios": "https://dc.lft.to/lastmile_qr_scan", "android": "https://dc.lft.to/lastmile_qr_scan"}, "is_reserved": 0}, {"lon": -77.05333116666667, "bike_id": "923ff956423af65a5fa8f6e558431082", "lat": 38.927154333333334, "fusion_lon": 0.0, "fusion_lat": 0.0, "type": "electric_scooter", "name": "923ff956423af65a5fa8f6e558431082", "is_disabled": 0, "rental_uris": {"ios": "https://dc.lft.to/lastmile_qr_scan", "android": "https://dc.lft.to/lastmile_qr_scan"}, "is_reserved": 0}, {"lon": -76.993677, "bike_id": "67f41dabc42e72a6b5ed2c64626a6e3f", "lat": 38.94028766666667, "fusion_lon": 0.0, "fusion_lat": 0.0, "type": "electric_scooter", "name": "67f41dabc42e72a6b5ed2c64626a6e3f", "is_disabled": 0, "rental_uris": {"ios": "https://dc.lft.to/lastmile_qr_scan", "android": "https://dc.lft.to/lastmile_qr_scan"}, "is_reserved": 0}, {"lon": -77.05148066666666, "bike_id": "173678311404005e50069e2d4c077dd6", "lat": 38.89872883333334, "fusion_lon": 0.0, "fusion_lat": 0.0, "type": "electric_scooter", "name": "173678311404005e50069e2d4c077dd6", "is_disabled": 0, "rental_uris": {"ios": "https://dc.lft.to/lastmile_qr_scan", "android": "https://dc.lft.to/lastmile_qr_scan"}, "is_reserved": 0}, {"lon": -77.03290116666666, "bike_id": "0aef0d1b19d74eb925e8cb831b360183", "lat": 38.95653766666667, "fusion_lon": 0.0, "fusion_lat": 0.0, "type": "electric_scooter", "name": "0aef0d1b19d74eb925e8cb831b360183", "is_disabled": 0, "rental_uris": {"ios": "https://dc.lft.to/lastmile_qr_scan", "android": "https://dc.lft.to/lastmile_qr_scan"}, "is_reserved": 0}, {"lon": -77.0012075, "bike_id": "f3d7d441a532a0c3700f6203e31e2c32", "lat": 38.9050435, "fusion_lon": 0.0, "fusion_lat": 0.0, "type": "electric_scooter", "name": "f3d7d441a532a0c3700f6203e31e2c32", "is_disabled": 0, "rental_uris": {"ios": "https://dc.lft.to/lastmile_qr_scan", "android": "https://dc.lft.to/lastmile_qr_scan"}, "is_reserved": 0}, {"lon": -77.04979966666667, "bike_id": "0f8093ebeb4acc235cefb8d9b0a75ab0", "lat": 39.06293566666667, "fusion_lon": 0.0, "fusion_lat": 0.0, "type": "electric_bike", "name": "0f8093ebeb4acc235cefb8d9b0a75ab0", "is_disabled": 0, "rental_uris": {"ios": "https://dc.lft.to/lastmile_qr_scan", "android": "https://dc.lft.to/lastmile_qr_scan"}, "is_reserved": 0}, {"lon": -77.038614, "bike_id": "41a69735beb98fff2d853190b574e5cf", "lat": 38.920137833333335, "fusion_lon": 0.0, "fusion_lat": 0.0, "type": "electric_scooter", "name": "41a69735beb98fff2d853190b574e5cf", "is_disabled": 0, "rental_uris": {"ios": "https://dc.lft.to/lastmile_qr_scan", "android": "https://dc.lft.to/lastmile_qr_scan"}, "is_reserved": 0}, {"lon": -77.04592166666667, "bike_id": "f6a9be13a360942cc30dd2403e8e62c6", "lat": 38.896141, "fusion_lon": 0.0, "fusion_lat": 0.0, "type": "electric_scooter", "name": "f6a9be13a360942cc30dd2403e8e62c6", "is_disabled": 0, "rental_uris": {"ios": "https://dc.lft.to/lastmile_qr_scan", "android": "https://dc.lft.to/lastmile_qr_scan"}, "is_reserved": 0}, {"lon": -76.937716, "bike_id": "507e31aad6121cf168375f55f3415d8c", "lat": 38.8997225, "fusion_lon": 0.0, "fusion_lat": 0.0, "type": "electric_scooter", "name": "507e31aad6121cf168375f55f3415d8c", "is_disabled": 0, "rental_uris": {"ios": "https://dc.lft.to/lastmile_qr_scan", "android": "https://dc.lft.to/lastmile_qr_scan"}, "is_reserved": 0}, {"lon": -76.93764666666667, "bike_id": "8588e5447075afc9f7b1802f8af11bca", "lat": 38.878613666666666, "fusion_lon": 0.0, "fusion_lat": 0.0, "type": "electric_scooter", "name": "8588e5447075afc9f7b1802f8af11bca", "is_disabled": 0, "rental_uris": {"ios": "https://dc.lft.to/lastmile_qr_scan", "android": "https://dc.lft.to/lastmile_qr_scan"}, "is_reserved": 0}, {"lon": -77.02312383333333, "bike_id": "fa8a551153e28e20190515c016d66dfd", "lat": 38.90876133333333, "fusion_lon": 0.0, "fusion_lat": 0.0, "type": "electric_scooter", "name": "fa8a551153e28e20190515c016d66dfd", "is_disabled": 0, "rental_uris": {"ios": "https://dc.lft.to/lastmile_qr_scan", "android": "https://dc.lft.to/lastmile_qr_scan"}, "is_reserved": 0}, {"lon": -76.99859283333333, "bike_id": "08aabc5f2aeef2a1b18123927dd07dac", "lat": 38.8941885, "fusion_lon": 0.0, "fusion_lat": 0.0, "type": "electric_scooter", "name": "08aabc5f2aeef2a1b18123927dd07dac", "is_disabled": 0, "rental_uris": {"ios": "https://dc.lft.to/lastmile_qr_scan", "android": "https://dc.lft.to/lastmile_qr_scan"}, "is_reserved": 0}, {"lon": -77.03542933333334, "bike_id": "3a7367a2a30aef292724f6555aaa077f", "lat": 38.91837916666667, "fusion_lon": 0.0, "fusion_lat": 0.0, "type": "electric_scooter", "name": "3a7367a2a30aef292724f6555aaa077f", "is_disabled": 0, "rental_uris": {"ios": "https://dc.lft.to/lastmile_qr_scan", "android": "https://dc.lft.to/lastmile_qr_scan"}, "is_reserved": 0}, {"lon": -76.945062, "bike_id": "2f3ffc61bd61ccd5edf6dcd50c0a7c16", "lat": 38.864863, "fusion_lon": 0.0, "fusion_lat": 0.0, "type": "electric_bike", "name": "2f3ffc61bd61ccd5edf6dcd50c0a7c16", "is_disabled": 0, "rental_uris": {"ios": "https://dc.lft.to/lastmile_qr_scan", "android": "https://dc.lft.to/lastmile_qr_scan"}, "is_reserved": 0}, {"lon": -76.9901015, "bike_id": "fb5c728cc550af11758795cf4d140931", "lat": 38.94603716666667, "fusion_lon": 0.0, "fusion_lat": 0.0, "type": "electric_scooter", "name": "fb5c728cc550af11758795cf4d140931", "is_disabled": 0, "rental_uris": {"ios": "https://dc.lft.to/lastmile_qr_scan", "android": "https://dc.lft.to/lastmile_qr_scan"}, "is_reserved": 0}, {"lon": -77.0008165, "bike_id": "b713c96ec18e575ac93c6bd1cc8736d8", "lat": 38.89477266666667, "fusion_lon": 0.0, "fusion_lat": 0.0, "type": "electric_scooter", "name": "b713c96ec18e575ac93c6bd1cc8736d8", "is_disabled": 0, "rental_uris": {"ios": "https://dc.lft.to/lastmile_qr_scan", "android": "https://dc.lft.to/lastmile_qr_scan"}, "is_reserved": 0}, {"lon": -76.990307, "bike_id": "e5378f53518878caac1cdeb4008b8862", "lat": 38.902925333333336, "fusion_lon": 0.0, "fusion_lat": 0.0, "type": "electric_scooter", "name": "e5378f53518878caac1cdeb4008b8862", "is_disabled": 0, "rental_uris": {"ios": "https://dc.lft.to/lastmile_qr_scan", "android": "https://dc.lft.to/lastmile_qr_scan"}, "is_reserved": 0}, {"lon": -77.06394933333333, "bike_id": "b6d1852e3f75962214af6b9b8a0f6aed", "lat": 38.94326316666667, "fusion_lon": 0.0, "fusion_lat": 0.0, "type": "electric_scooter", "name": "b6d1852e3f75962214af6b9b8a0f6aed", "is_disabled": 0, "rental_uris": {"ios": "https://dc.lft.to/lastmile_qr_scan", "android": "https://dc.lft.to/lastmile_qr_scan"}, "is_reserved": 0}, {"lon": -77.03262583333333, "bike_id": "05bd9581535cbd7c8ad93e64739ec233", "lat": 38.9344355, "fusion_lon": 0.0, "fusion_lat": 0.0, "type": "electric_scooter", "name": "05bd9581535cbd7c8ad93e64739ec233", "is_disabled": 0, "rental_uris": {"ios": "https://dc.lft.to/lastmile_qr_scan", "android": "https://dc.lft.to/lastmile_qr_scan"}, "is_reserved": 0}, {"lon": -77.0415685, "bike_id": "bfc539287521d59deddf1b15f7734c88", "lat": 38.907499, "fusion_lon": 0.0, "fusion_lat": 0.0, "type": "electric_scooter", "name": "bfc539287521d59deddf1b15f7734c88", "is_disabled": 0, "rental_uris": {"ios": "https://dc.lft.to/lastmile_qr_scan", "android": "https://dc.lft.to/lastmile_qr_scan"}, "is_reserved": 0}, {"lon": -76.990413, "bike_id": "dca741245e583ee82c6cd4897788a57e", "lat": 38.86379216666667, "fusion_lon": 0.0, "fusion_lat": 0.0, "type": "electric_scooter", "name": "dca741245e583ee82c6cd4897788a57e", "is_disabled": 0, "rental_uris": {"ios": "https://dc.lft.to/lastmile_qr_scan", "android": "https://dc.lft.to/lastmile_qr_scan"}, "is_reserved": 0}, {"lon": -77.0227885, "bike_id": "10949663bdc2999291b49142f82fd9c5", "lat": 38.90962116666667, "fusion_lon": 0.0, "fusion_lat": 0.0, "type": "electric_scooter", "name": "10949663bdc2999291b49142f82fd9c5", "is_disabled": 0, "rental_uris": {"ios": "https://dc.lft.to/lastmile_qr_scan", "android": "https://dc.lft.to/lastmile_qr_scan"}, "is_reserved": 0}, {"lon": -77.0385325, "bike_id": "52a1c730c01934ec93119057beb9b08d", "lat": 38.91667366666667, "fusion_lon": 0.0, "fusion_lat": 0.0, "type": "electric_scooter", "name": "52a1c730c01934ec93119057beb9b08d", "is_disabled": 0, "rental_uris": {"ios": "https://dc.lft.to/lastmile_qr_scan", "android": "https://dc.lft.to/lastmile_qr_scan"}, "is_reserved": 0}, {"lon": -77.04174516666667, "bike_id": "b692f69ed770cc5916063106300eb7c6", "lat": 38.919413666666664, "fusion_lon": 0.0, "fusion_lat": 0.0, "type": "electric_scooter", "name": "b692f69ed770cc5916063106300eb7c6", "is_disabled": 0, "rental_uris": {"ios": "https://dc.lft.to/lastmile_qr_scan", "android": "https://dc.lft.to/lastmile_qr_scan"}, "is_reserved": 0}, {"lon": -76.9220155, "bike_id": "1a7f4d0e3df33e7f9f11ddcec28d0a2b", "lat": 38.895088, "fusion_lon": 0.0, "fusion_lat": 0.0, "type": "electric_bike", "name": "1a7f4d0e3df33e7f9f11ddcec28d0a2b", "is_disabled": 0, "rental_uris": {"ios": "https://dc.lft.to/lastmile_qr_scan", "android": "https://dc.lft.to/lastmile_qr_scan"}, "is_reserved": 0}, {"lon": -77.0032835, "bike_id": "e24ba476731f3251617d37907877ef32", "lat": 38.90265266666667, "fusion_lon": 0.0, "fusion_lat": 0.0, "type": "electric_scooter", "name": "e24ba476731f3251617d37907877ef32", "is_disabled": 0, "rental_uris": {"ios": "https://dc.lft.to/lastmile_qr_scan", "android": "https://dc.lft.to/lastmile_qr_scan"}, "is_reserved": 0}, {"lon": -77.02467266666666, "bike_id": "02868667963c830bf4a4f539a2d8eb3b", "lat": 38.930975, "fusion_lon": 0.0, "fusion_lat": 0.0, "type": "electric_scooter", "name": "02868667963c830bf4a4f539a2d8eb3b", "is_disabled": 0, "rental_uris": {"ios": "https://dc.lft.to/lastmile_qr_scan", "android": "https://dc.lft.to/lastmile_qr_scan"}, "is_reserved": 0}, {"lon": -77.03479233333333, "bike_id": "3f59df5924e68b37a9cabb94b7798ec3", "lat": 38.92873633333333, "fusion_lon": 0.0, "fusion_lat": 0.0, "type": "electric_scooter", "name": "3f59df5924e68b37a9cabb94b7798ec3", "is_disabled": 0, "rental_uris": {"ios": "https://dc.lft.to/lastmile_qr_scan", "android": "https://dc.lft.to/lastmile_qr_scan"}, "is_reserved": 0}, {"lon": -76.98720133333333, "bike_id": "40adaa9d2d192d78ff591eb406c8b9ca", "lat": 38.866810666666666, "fusion_lon": 0.0, "fusion_lat": 0.0, "type": "electric_scooter", "name": "40adaa9d2d192d78ff591eb406c8b9ca", "is_disabled": 0, "rental_uris": {"ios": "https://dc.lft.to/lastmile_qr_scan", "android": "https://dc.lft.to/lastmile_qr_scan"}, "is_reserved": 0}, {"lon": -77.0058085, "bike_id": "10b1ad32a5e9ebb703f30f3c1031e425", "lat": 38.88440633333333, "fusion_lon": 0.0, "fusion_lat": 0.0, "type": "electric_scooter", "name": "10b1ad32a5e9ebb703f30f3c1031e425", "is_disabled": 0, "rental_uris": {"ios": "https://dc.lft.to/lastmile_qr_scan", "android": "https://dc.lft.to/lastmile_qr_scan"}, "is_reserved": 0}, {"lon": -77.0026835, "bike_id": "db0b1674c0dd2febfccc0cc733b91bd2", "lat": 38.908898666666666, "fusion_lon": 0.0, "fusion_lat": 0.0, "type": "electric_scooter", "name": "db0b1674c0dd2febfccc0cc733b91bd2", "is_disabled": 0, "rental_uris": {"ios": "https://dc.lft.to/lastmile_qr_scan", "android": "https://dc.lft.to/lastmile_qr_scan"}, "is_reserved": 0}, {"lon": -77.03704616666667, "bike_id": "1734970f152ef64fbc492d3334a3b963", "lat": 38.92642516666667, "fusion_lon": 0.0, "fusion_lat": 0.0, "type": "electric_scooter", "name": "1734970f152ef64fbc492d3334a3b963", "is_disabled": 0, "rental_uris": {"ios": "https://dc.lft.to/lastmile_qr_scan", "android": "https://dc.lft.to/lastmile_qr_scan"}, "is_reserved": 0}, {"lon": -76.99847666666666, "bike_id": "b6ffe53682d56fb976172a01a1bb14c1", "lat": 38.902210333333336, "fusion_lon": 0.0, "fusion_lat": 0.0, "type": "electric_scooter", "name": "b6ffe53682d56fb976172a01a1bb14c1", "is_disabled": 0, "rental_uris": {"ios": "https://dc.lft.to/lastmile_qr_scan", "android": "https://dc.lft.to/lastmile_qr_scan"}, "is_reserved": 0}, {"lon": -77.04210366666666, "bike_id": "6d102f451d595c93e53b633e47fbb847", "lat": 38.920964, "fusion_lon": 0.0, "fusion_lat": 0.0, "type": "electric_scooter", "name": "6d102f451d595c93e53b633e47fbb847", "is_disabled": 0, "rental_uris": {"ios": "https://dc.lft.to/lastmile_qr_scan", "android": "https://dc.lft.to/lastmile_qr_scan"}, "is_reserved": 0}, {"lon": -76.96781416666667, "bike_id": "a93c0471cc2a1b857b97ede176a91008", "lat": 38.868534833333335, "fusion_lon": 0.0, "fusion_lat": 0.0, "type": "electric_scooter", "name": "a93c0471cc2a1b857b97ede176a91008", "is_disabled": 0, "rental_uris": {"ios": "https://dc.lft.to/lastmile_qr_scan", "android": "https://dc.lft.to/lastmile_qr_scan"}, "is_reserved": 0}, {"lon": -76.961504, "bike_id": "62cf3eb7e84b9cfdae50d10dfe43b93c", "lat": 38.883599333333336, "fusion_lon": 0.0, "fusion_lat": 0.0, "type": "electric_scooter", "name": "62cf3eb7e84b9cfdae50d10dfe43b93c", "is_disabled": 0, "rental_uris": {"ios": "https://dc.lft.to/lastmile_qr_scan", "android": "https://dc.lft.to/lastmile_qr_scan"}, "is_reserved": 0}, {"lon": -77.03862433333333, "bike_id": "1546643ba9c70fa934d4fe27e13aad35", "lat": 38.945039333333334, "fusion_lon": 0.0, "fusion_lat": 0.0, "type": "electric_scooter", "name": "1546643ba9c70fa934d4fe27e13aad35", "is_disabled": 0, "rental_uris": {"ios": "https://dc.lft.to/lastmile_qr_scan", "android": "https://dc.lft.to/lastmile_qr_scan"}, "is_reserved": 0}, {"lon": -77.03260333333333, "bike_id": "a2751551664379b5644690483667cf43", "lat": 38.93724016666667, "fusion_lon": 0.0, "fusion_lat": 0.0, "type": "electric_scooter", "name": "a2751551664379b5644690483667cf43", "is_disabled": 0, "rental_uris": {"ios": "https://dc.lft.to/lastmile_qr_scan", "android": "https://dc.lft.to/lastmile_qr_scan"}, "is_reserved": 0}, {"lon": -77.039003, "bike_id": "1ad2a39dd5f0f6c2572cce540534e881", "lat": 38.910067833333336, "fusion_lon": 0.0, "fusion_lat": 0.0, "type": "electric_scooter", "name": "1ad2a39dd5f0f6c2572cce540534e881", "is_disabled": 0, "rental_uris": {"ios": "https://dc.lft.to/lastmile_qr_scan", "android": "https://dc.lft.to/lastmile_qr_scan"}, "is_reserved": 0}, {"lon": -77.03541566666667, "bike_id": "f3fff765053a0a4d9d7e57dfea795688", "lat": 38.92421516666667, "fusion_lon": 0.0, "fusion_lat": 0.0, "type": "electric_bike", "name": "f3fff765053a0a4d9d7e57dfea795688", "is_disabled": 0, "rental_uris": {"ios": "https://dc.lft.to/lastmile_qr_scan", "android": "https://dc.lft.to/lastmile_qr_scan"}, "is_reserved": 0}, {"lon": -76.95370083333333, "bike_id": "041b4dff9ee580021d13064cf64e9699", "lat": 38.89207116666667, "fusion_lon": 0.0, "fusion_lat": 0.0, "type": "electric_scooter", "name": "041b4dff9ee580021d13064cf64e9699", "is_disabled": 0, "rental_uris": {"ios": "https://dc.lft.to/lastmile_qr_scan", "android": "https://dc.lft.to/lastmile_qr_scan"}, "is_reserved": 0}, {"lon": -77.02359116666666, "bike_id": "2f779ac10b6cbca3f8b079838c7dedec", "lat": 38.8922355, "fusion_lon": 0.0, "fusion_lat": 0.0, "type": "electric_scooter", "name": "2f779ac10b6cbca3f8b079838c7dedec", "is_disabled": 0, "rental_uris": {"ios": "https://dc.lft.to/lastmile_qr_scan", "android": "https://dc.lft.to/lastmile_qr_scan"}, "is_reserved": 0}, {"lon": -77.02245716666667, "bike_id": "0668de45e91f3beeaeadd7a84d4b08f0", "lat": 38.922718333333336, "fusion_lon": 0.0, "fusion_lat": 0.0, "type": "electric_scooter", "name": "0668de45e91f3beeaeadd7a84d4b08f0", "is_disabled": 0, "rental_uris": {"ios": "https://dc.lft.to/lastmile_qr_scan", "android": "https://dc.lft.to/lastmile_qr_scan"}, "is_reserved": 0}, {"lon": -77.03989966666667, "bike_id": "70761ee24e3e6c2828b52d742824fa55", "lat": 38.924594, "fusion_lon": 0.0, "fusion_lat": 0.0, "type": "electric_scooter", "name": "70761ee24e3e6c2828b52d742824fa55", "is_disabled": 0, "rental_uris": {"ios": "https://dc.lft.to/lastmile_qr_scan", "android": "https://dc.lft.to/lastmile_qr_scan"}, "is_reserved": 0}, {"lon": -77.00427683333334, "bike_id": "649fe094dc9bd537beb3901b71f1ac70", "lat": 38.913350666666666, "fusion_lon": 0.0, "fusion_lat": 0.0, "type": "electric_scooter", "name": "649fe094dc9bd537beb3901b71f1ac70", "is_disabled": 0, "rental_uris": {"ios": "https://dc.lft.to/lastmile_qr_scan", "android": "https://dc.lft.to/lastmile_qr_scan"}, "is_reserved": 0}, {"lon": -77.05022316666667, "bike_id": "87b9b02e7f392cdbb3c948a9a5884286", "lat": 38.898238166666665, "fusion_lon": 0.0, "fusion_lat": 0.0, "type": "electric_scooter", "name": "87b9b02e7f392cdbb3c948a9a5884286", "is_disabled": 0, "rental_uris": {"ios": "https://dc.lft.to/lastmile_qr_scan", "android": "https://dc.lft.to/lastmile_qr_scan"}, "is_reserved": 0}, {"lon": -77.03836633333333, "bike_id": "c719b8ed3bdf1c5f54ae442a1ad8016b", "lat": 38.910971333333336, "fusion_lon": 0.0, "fusion_lat": 0.0, "type": "electric_scooter", "name": "c719b8ed3bdf1c5f54ae442a1ad8016b", "is_disabled": 0, "rental_uris": {"ios": "https://dc.lft.to/lastmile_qr_scan", "android": "https://dc.lft.to/lastmile_qr_scan"}, "is_reserved": 0}, {"lon": -76.98488716666667, "bike_id": "fbeb3822438b4caeeb27c79b2fc5ace6", "lat": 38.878390333333336, "fusion_lon": 0.0, "fusion_lat": 0.0, "type": "electric_scooter", "name": "fbeb3822438b4caeeb27c79b2fc5ace6", "is_disabled": 0, "rental_uris": {"ios": "https://dc.lft.to/lastmile_qr_scan", "android": "https://dc.lft.to/lastmile_qr_scan"}, "is_reserved": 0}, {"lon": -77.036493, "bike_id": "34de26ac8565b85302f66e3f0a7c5b80", "lat": 38.9234685, "fusion_lon": 0.0, "fusion_lat": 0.0, "type": "electric_scooter", "name": "34de26ac8565b85302f66e3f0a7c5b80", "is_disabled": 0, "rental_uris": {"ios": "https://dc.lft.to/lastmile_qr_scan", "android": "https://dc.lft.to/lastmile_qr_scan"}, "is_reserved": 0}, {"lon": -76.94631666666666, "bike_id": "2f8801b0349b515f2aa14dd2c56cdfa3", "lat": 38.898336666666665, "fusion_lon": 0.0, "fusion_lat": 0.0, "type": "electric_scooter", "name": "2f8801b0349b515f2aa14dd2c56cdfa3", "is_disabled": 0, "rental_uris": {"ios": "https://dc.lft.to/lastmile_qr_scan", "android": "https://dc.lft.to/lastmile_qr_scan"}, "is_reserved": 0}, {"lon": -77.04941966666667, "bike_id": "f313b7392dfca7a76f02bdb8e36c64f8", "lat": 38.9085055, "fusion_lon": 0.0, "fusion_lat": 0.0, "type": "electric_scooter", "name": "f313b7392dfca7a76f02bdb8e36c64f8", "is_disabled": 0, "rental_uris": {"ios": "https://dc.lft.to/lastmile_qr_scan", "android": "https://dc.lft.to/lastmile_qr_scan"}, "is_reserved": 0}, {"lon": -77.01628183333334, "bike_id": "0f093dbe1d7e94fdc3bfb275941f0595", "lat": 38.90664533333333, "fusion_lon": 0.0, "fusion_lat": 0.0, "type": "electric_scooter", "name": "0f093dbe1d7e94fdc3bfb275941f0595", "is_disabled": 0, "rental_uris": {"ios": "https://dc.lft.to/lastmile_qr_scan", "android": "https://dc.lft.to/lastmile_qr_scan"}, "is_reserved": 0}, {"lon": -77.07097333333333, "bike_id": "63e2446495cb34ac00d2fd68a17135d3", "lat": 38.92253316666667, "fusion_lon": 0.0, "fusion_lat": 0.0, "type": "electric_scooter", "name": "63e2446495cb34ac00d2fd68a17135d3", "is_disabled": 0, "rental_uris": {"ios": "https://dc.lft.to/lastmile_qr_scan", "android": "https://dc.lft.to/lastmile_qr_scan"}, "is_reserved": 0}, {"lon": -77.03968583333334, "bike_id": "835eef6862965afba5aea0854668ee11", "lat": 38.9315405, "fusion_lon": 0.0, "fusion_lat": 0.0, "type": "electric_scooter", "name": "835eef6862965afba5aea0854668ee11", "is_disabled": 0, "rental_uris": {"ios": "https://dc.lft.to/lastmile_qr_scan", "android": "https://dc.lft.to/lastmile_qr_scan"}, "is_reserved": 0}, {"lon": -77.03282, "bike_id": "6bec951776c5d3ee0606bfe415486dc3", "lat": 38.936488833333335, "fusion_lon": 0.0, "fusion_lat": 0.0, "type": "electric_scooter", "name": "6bec951776c5d3ee0606bfe415486dc3", "is_disabled": 0, "rental_uris": {"ios": "https://dc.lft.to/lastmile_qr_scan", "android": "https://dc.lft.to/lastmile_qr_scan"}, "is_reserved": 0}, {"lon": -77.04034116666666, "bike_id": "23b4c0696aebf8411c10468659b04f92", "lat": 38.923187, "fusion_lon": 0.0, "fusion_lat": 0.0, "type": "electric_scooter", "name": "23b4c0696aebf8411c10468659b04f92", "is_disabled": 0, "rental_uris": {"ios": "https://dc.lft.to/lastmile_qr_scan", "android": "https://dc.lft.to/lastmile_qr_scan"}, "is_reserved": 0}, {"lon": -77.05211166666666, "bike_id": "3c54f9270cae9e94697b68399d9b2695", "lat": 38.91568183333333, "fusion_lon": 0.0, "fusion_lat": 0.0, "type": "electric_scooter", "name": "3c54f9270cae9e94697b68399d9b2695", "is_disabled": 0, "rental_uris": {"ios": "https://dc.lft.to/lastmile_qr_scan", "android": "https://dc.lft.to/lastmile_qr_scan"}, "is_reserved": 0}, {"lon": -76.9412535, "bike_id": "73e5b94721ada72993d93e00994ac06f", "lat": 38.88613733333333, "fusion_lon": 0.0, "fusion_lat": 0.0, "type": "electric_scooter", "name": "73e5b94721ada72993d93e00994ac06f", "is_disabled": 0, "rental_uris": {"ios": "https://dc.lft.to/lastmile_qr_scan", "android": "https://dc.lft.to/lastmile_qr_scan"}, "is_reserved": 0}, {"lon": -77.04395516666666, "bike_id": "b3813fd5c1e3e6ceb05b5f19f09f75a5", "lat": 38.898504333333335, "fusion_lon": 0.0, "fusion_lat": 0.0, "type": "electric_scooter", "name": "b3813fd5c1e3e6ceb05b5f19f09f75a5", "is_disabled": 0, "rental_uris": {"ios": "https://dc.lft.to/lastmile_qr_scan", "android": "https://dc.lft.to/lastmile_qr_scan"}, "is_reserved": 0}, {"lon": -77.03460566666666, "bike_id": "7a60e704c101b6e17e6c986fc524ad31", "lat": 38.906496, "fusion_lon": 0.0, "fusion_lat": 0.0, "type": "electric_scooter", "name": "7a60e704c101b6e17e6c986fc524ad31", "is_disabled": 0, "rental_uris": {"ios": "https://dc.lft.to/lastmile_qr_scan", "android": "https://dc.lft.to/lastmile_qr_scan"}, "is_reserved": 0}, {"lon": -77.0365385, "bike_id": "deb47102ee9601c99235f314188cac46", "lat": 38.940932833333335, "fusion_lon": 0.0, "fusion_lat": 0.0, "type": "electric_scooter", "name": "deb47102ee9601c99235f314188cac46", "is_disabled": 0, "rental_uris": {"ios": "https://dc.lft.to/lastmile_qr_scan", "android": "https://dc.lft.to/lastmile_qr_scan"}, "is_reserved": 0}, {"lon": -77.030043, "bike_id": "017fcaabf91bc33f5dc08fa0108f2a36", "lat": 38.902664333333334, "fusion_lon": 0.0, "fusion_lat": 0.0, "type": "electric_scooter", "name": "017fcaabf91bc33f5dc08fa0108f2a36", "is_disabled": 0, "rental_uris": {"ios": "https://dc.lft.to/lastmile_qr_scan", "android": "https://dc.lft.to/lastmile_qr_scan"}, "is_reserved": 0}, {"lon": -77.03638466666666, "bike_id": "2a354d5a066d866ed0f042124009070a", "lat": 38.912969833333335, "fusion_lon": 0.0, "fusion_lat": 0.0, "type": "electric_scooter", "name": "2a354d5a066d866ed0f042124009070a", "is_disabled": 0, "rental_uris": {"ios": "https://dc.lft.to/lastmile_qr_scan", "android": "https://dc.lft.to/lastmile_qr_scan"}, "is_reserved": 0}, {"lon": -77.02802716666666, "bike_id": "27fd4f8f7244c7f23e4c44f099ceb299", "lat": 38.90470083333334, "fusion_lon": 0.0, "fusion_lat": 0.0, "type": "electric_scooter", "name": "27fd4f8f7244c7f23e4c44f099ceb299", "is_disabled": 0, "rental_uris": {"ios": "https://dc.lft.to/lastmile_qr_scan", "android": "https://dc.lft.to/lastmile_qr_scan"}, "is_reserved": 0}, {"lon": -77.023637, "bike_id": "27ef2500953738bab24d7bac03ab881e", "lat": 38.8922595, "fusion_lon": 0.0, "fusion_lat": 0.0, "type": "electric_scooter", "name": "27ef2500953738bab24d7bac03ab881e", "is_disabled": 0, "rental_uris": {"ios": "https://dc.lft.to/lastmile_qr_scan", "android": "https://dc.lft.to/lastmile_qr_scan"}, "is_reserved": 0}, {"lon": -77.02872233333333, "bike_id": "40b902e02e60cb2b0fe54faa11eb97ce", "lat": 38.9282505, "fusion_lon": 0.0, "fusion_lat": 0.0, "type": "electric_scooter", "name": "40b902e02e60cb2b0fe54faa11eb97ce", "is_disabled": 0, "rental_uris": {"ios": "https://dc.lft.to/lastmile_qr_scan", "android": "https://dc.lft.to/lastmile_qr_scan"}, "is_reserved": 0}, {"lon": -77.031205, "bike_id": "c89d97b82589bc47cc96ca460cee1db9", "lat": 38.9170495, "fusion_lon": 0.0, "fusion_lat": 0.0, "type": "electric_scooter", "name": "c89d97b82589bc47cc96ca460cee1db9", "is_disabled": 0, "rental_uris": {"ios": "https://dc.lft.to/lastmile_qr_scan", "android": "https://dc.lft.to/lastmile_qr_scan"}, "is_reserved": 0}, {"lon": -77.03280533333333, "bike_id": "617a9c0f43ab3f6654a7a09fa5528fd1", "lat": 38.93646716666667, "fusion_lon": 0.0, "fusion_lat": 0.0, "type": "electric_scooter", "name": "617a9c0f43ab3f6654a7a09fa5528fd1", "is_disabled": 0, "rental_uris": {"ios": "https://dc.lft.to/lastmile_qr_scan", "android": "https://dc.lft.to/lastmile_qr_scan"}, "is_reserved": 0}, {"lon": -76.99456083333334, "bike_id": "b204e3c90868c9df947534a06af8208a", "lat": 38.8621885, "fusion_lon": 0.0, "fusion_lat": 0.0, "type": "electric_scooter", "name": "b204e3c90868c9df947534a06af8208a", "is_disabled": 0, "rental_uris": {"ios": "https://dc.lft.to/lastmile_qr_scan", "android": "https://dc.lft.to/lastmile_qr_scan"}, "is_reserved": 0}, {"lon": -77.00774416666667, "bike_id": "63910ce3be001849455caf41972ff9fd", "lat": 38.98397816666667, "fusion_lon": 0.0, "fusion_lat": 0.0, "type": "electric_bike", "name": "63910ce3be001849455caf41972ff9fd", "is_disabled": 0, "rental_uris": {"ios": "https://dc.lft.to/lastmile_qr_scan", "android": "https://dc.lft.to/lastmile_qr_scan"}, "is_reserved": 0}, {"lon": -77.05448183333333, "bike_id": "1c6db8aea74fe6bed96aae4aae93aba2", "lat": 38.92866766666667, "fusion_lon": 0.0, "fusion_lat": 0.0, "type": "electric_scooter", "name": "1c6db8aea74fe6bed96aae4aae93aba2", "is_disabled": 0, "rental_uris": {"ios": "https://dc.lft.to/lastmile_qr_scan", "android": "https://dc.lft.to/lastmile_qr_scan"}, "is_reserved": 0}, {"lon": -76.98090333333333, "bike_id": "406b1de696f49a07530dba82784d94f5", "lat": 38.953579166666664, "fusion_lon": 0.0, "fusion_lat": 0.0, "type": "electric_bike", "name": "406b1de696f49a07530dba82784d94f5", "is_disabled": 0, "rental_uris": {"ios": "https://dc.lft.to/lastmile_qr_scan", "android": "https://dc.lft.to/lastmile_qr_scan"}, "is_reserved": 0}, {"lon": -76.94437066666667, "bike_id": "c179a48e49f5875b5556264bc4927635", "lat": 38.900453666666664, "fusion_lon": 0.0, "fusion_lat": 0.0, "type": "electric_scooter", "name": "c179a48e49f5875b5556264bc4927635", "is_disabled": 0, "rental_uris": {"ios": "https://dc.lft.to/lastmile_qr_scan", "android": "https://dc.lft.to/lastmile_qr_scan"}, "is_reserved": 0}, {"lon": -77.00135766666666, "bike_id": "87432bd82b586ebff5609241c59f76ae", "lat": 38.925514, "fusion_lon": 0.0, "fusion_lat": 0.0, "type": "electric_bike", "name": "87432bd82b586ebff5609241c59f76ae", "is_disabled": 0, "rental_uris": {"ios": "https://dc.lft.to/lastmile_qr_scan", "android": "https://dc.lft.to/lastmile_qr_scan"}, "is_reserved": 0}, {"lon": -77.0270475, "bike_id": "370913871a28cab1d6ece9f0392e0f12", "lat": 38.906731666666666, "fusion_lon": 0.0, "fusion_lat": 0.0, "type": "electric_scooter", "name": "370913871a28cab1d6ece9f0392e0f12", "is_disabled": 0, "rental_uris": {"ios": "https://dc.lft.to/lastmile_qr_scan", "android": "https://dc.lft.to/lastmile_qr_scan"}, "is_reserved": 0}, {"lon": -77.10091883333334, "bike_id": "e79875e46e71531e7b6f36cb084a973a", "lat": 38.959591333333336, "fusion_lon": 0.0, "fusion_lat": 0.0, "type": "electric_bike", "name": "e79875e46e71531e7b6f36cb084a973a", "is_disabled": 0, "rental_uris": {"ios": "https://dc.lft.to/lastmile_qr_scan", "android": "https://dc.lft.to/lastmile_qr_scan"}, "is_reserved": 0}, {"lon": -77.01155266666666, "bike_id": "e3160a431cf996505cb99192127a39f0", "lat": 38.914097, "fusion_lon": 0.0, "fusion_lat": 0.0, "type": "electric_scooter", "name": "e3160a431cf996505cb99192127a39f0", "is_disabled": 0, "rental_uris": {"ios": "https://dc.lft.to/lastmile_qr_scan", "android": "https://dc.lft.to/lastmile_qr_scan"}, "is_reserved": 0}, {"lon": -76.983681, "bike_id": "61e9c2657ce7d4c7d7d47ab924fedc92", "lat": 38.91500583333333, "fusion_lon": 0.0, "fusion_lat": 0.0, "type": "electric_scooter", "name": "61e9c2657ce7d4c7d7d47ab924fedc92", "is_disabled": 0, "rental_uris": {"ios": "https://dc.lft.to/lastmile_qr_scan", "android": "https://dc.lft.to/lastmile_qr_scan"}, "is_reserved": 0}, {"lon": -76.987774, "bike_id": "c1ba18f7c316d1b4ced978f0ac3ebed6", "lat": 38.906605666666664, "fusion_lon": 0.0, "fusion_lat": 0.0, "type": "electric_scooter", "name": "c1ba18f7c316d1b4ced978f0ac3ebed6", "is_disabled": 0, "rental_uris": {"ios": "https://dc.lft.to/lastmile_qr_scan", "android": "https://dc.lft.to/lastmile_qr_scan"}, "is_reserved": 0}, {"lon": -77.01174233333333, "bike_id": "4de2a13b2d011695d5084a0c7b376782", "lat": 38.872366, "fusion_lon": 0.0, "fusion_lat": 0.0, "type": "electric_bike", "name": "4de2a13b2d011695d5084a0c7b376782", "is_disabled": 0, "rental_uris": {"ios": "https://dc.lft.to/lastmile_qr_scan", "android": "https://dc.lft.to/lastmile_qr_scan"}, "is_reserved": 0}, {"lon": -77.0125675, "bike_id": "0434ed301183c978755a3558f3119f35", "lat": 38.908505166666664, "fusion_lon": 0.0, "fusion_lat": 0.0, "type": "electric_scooter", "name": "0434ed301183c978755a3558f3119f35", "is_disabled": 0, "rental_uris": {"ios": "https://dc.lft.to/lastmile_qr_scan", "android": "https://dc.lft.to/lastmile_qr_scan"}, "is_reserved": 0}, {"lon": -77.04645366666666, "bike_id": "c0820298b155461ab21111b1a393047a", "lat": 38.915775833333335, "fusion_lon": 0.0, "fusion_lat": 0.0, "type": "electric_scooter", "name": "c0820298b155461ab21111b1a393047a", "is_disabled": 0, "rental_uris": {"ios": "https://dc.lft.to/lastmile_qr_scan", "android": "https://dc.lft.to/lastmile_qr_scan"}, "is_reserved": 0}, {"lon": -76.99407383333333, "bike_id": "db5e778a1ab8de71ec9e9e82a6e93c82", "lat": 38.831396833333336, "fusion_lon": 0.0, "fusion_lat": 0.0, "type": "electric_bike", "name": "db5e778a1ab8de71ec9e9e82a6e93c82", "is_disabled": 0, "rental_uris": {"ios": "https://dc.lft.to/lastmile_qr_scan", "android": "https://dc.lft.to/lastmile_qr_scan"}, "is_reserved": 0}, {"lon": -77.03058066666667, "bike_id": "ababeaa52d9591e4c31e0cec39f53b63", "lat": 38.90809466666666, "fusion_lon": 0.0, "fusion_lat": 0.0, "type": "electric_scooter", "name": "ababeaa52d9591e4c31e0cec39f53b63", "is_disabled": 0, "rental_uris": {"ios": "https://dc.lft.to/lastmile_qr_scan", "android": "https://dc.lft.to/lastmile_qr_scan"}, "is_reserved": 0}, {"lon": -77.0176685, "bike_id": "8623b9c521c7c839266be4917b6a585d", "lat": 38.921054833333336, "fusion_lon": 0.0, "fusion_lat": 0.0, "type": "electric_scooter", "name": "8623b9c521c7c839266be4917b6a585d", "is_disabled": 0, "rental_uris": {"ios": "https://dc.lft.to/lastmile_qr_scan", "android": "https://dc.lft.to/lastmile_qr_scan"}, "is_reserved": 0}, {"lon": -77.036612, "bike_id": "2947cc7b2204fb036f2cc6c1c6c435d4", "lat": 38.9175345, "fusion_lon": 0.0, "fusion_lat": 0.0, "type": "electric_scooter", "name": "2947cc7b2204fb036f2cc6c1c6c435d4", "is_disabled": 0, "rental_uris": {"ios": "https://dc.lft.to/lastmile_qr_scan", "android": "https://dc.lft.to/lastmile_qr_scan"}, "is_reserved": 0}, {"lon": -77.02537033333333, "bike_id": "73e81dc5337f18dba6b14e76deec2e73", "lat": 38.92745, "fusion_lon": 0.0, "fusion_lat": 0.0, "type": "electric_scooter", "name": "73e81dc5337f18dba6b14e76deec2e73", "is_disabled": 0, "rental_uris": {"ios": "https://dc.lft.to/lastmile_qr_scan", "android": "https://dc.lft.to/lastmile_qr_scan"}, "is_reserved": 0}, {"lon": -76.985003, "bike_id": "14dc1cd7bf1fb9f589480e98921c8e34", "lat": 38.92006633333333, "fusion_lon": 0.0, "fusion_lat": 0.0, "type": "electric_scooter", "name": "14dc1cd7bf1fb9f589480e98921c8e34", "is_disabled": 0, "rental_uris": {"ios": "https://dc.lft.to/lastmile_qr_scan", "android": "https://dc.lft.to/lastmile_qr_scan"}, "is_reserved": 0}, {"lon": -76.96385383333333, "bike_id": "45794e3eb2bd8c5ed6659c6bce00bed1", "lat": 38.95174316666667, "fusion_lon": 0.0, "fusion_lat": 0.0, "type": "electric_bike", "name": "45794e3eb2bd8c5ed6659c6bce00bed1", "is_disabled": 0, "rental_uris": {"ios": "https://dc.lft.to/lastmile_qr_scan", "android": "https://dc.lft.to/lastmile_qr_scan"}, "is_reserved": 0}, {"lon": -77.0078845, "bike_id": "7c3fbafbf43c3cae4ac19ae07026fd0b", "lat": 38.896706333333334, "fusion_lon": 0.0, "fusion_lat": 0.0, "type": "electric_scooter", "name": "7c3fbafbf43c3cae4ac19ae07026fd0b", "is_disabled": 0, "rental_uris": {"ios": "https://dc.lft.to/lastmile_qr_scan", "android": "https://dc.lft.to/lastmile_qr_scan"}, "is_reserved": 0}, {"lon": -77.03613616666667, "bike_id": "ba579cc6ecb8b371ccc2fae00c0196a2", "lat": 38.937442, "fusion_lon": 0.0, "fusion_lat": 0.0, "type": "electric_scooter", "name": "ba579cc6ecb8b371ccc2fae00c0196a2", "is_disabled": 0, "rental_uris": {"ios": "https://dc.lft.to/lastmile_qr_scan", "android": "https://dc.lft.to/lastmile_qr_scan"}, "is_reserved": 0}, {"lon": -77.030759, "bike_id": "d2a9a4eb2726732290a7d598374a7514", "lat": 38.9181905, "fusion_lon": 0.0, "fusion_lat": 0.0, "type": "electric_scooter", "name": "d2a9a4eb2726732290a7d598374a7514", "is_disabled": 0, "rental_uris": {"ios": "https://dc.lft.to/lastmile_qr_scan", "android": "https://dc.lft.to/lastmile_qr_scan"}, "is_reserved": 0}, {"lon": -77.01139183333333, "bike_id": "3a679b2802deb424cdc84bc0a8115c77", "lat": 38.906438, "fusion_lon": 0.0, "fusion_lat": 0.0, "type": "electric_scooter", "name": "3a679b2802deb424cdc84bc0a8115c77", "is_disabled": 0, "rental_uris": {"ios": "https://dc.lft.to/lastmile_qr_scan", "android": "https://dc.lft.to/lastmile_qr_scan"}, "is_reserved": 0}, {"lon": -77.03258816666667, "bike_id": "2a423f9e84d193cd43efbe5dd3b55eb6", "lat": 38.904556666666664, "fusion_lon": 0.0, "fusion_lat": 0.0, "type": "electric_scooter", "name": "2a423f9e84d193cd43efbe5dd3b55eb6", "is_disabled": 0, "rental_uris": {"ios": "https://dc.lft.to/lastmile_qr_scan", "android": "https://dc.lft.to/lastmile_qr_scan"}, "is_reserved": 0}, {"lon": -76.98591083333334, "bike_id": "34ef69ad57fb8053d53e0a5fe59b26ab", "lat": 38.908152333333334, "fusion_lon": 0.0, "fusion_lat": 0.0, "type": "electric_scooter", "name": "34ef69ad57fb8053d53e0a5fe59b26ab", "is_disabled": 0, "rental_uris": {"ios": "https://dc.lft.to/lastmile_qr_scan", "android": "https://dc.lft.to/lastmile_qr_scan"}, "is_reserved": 0}, {"lon": -76.93373766666667, "bike_id": "bdc571e1a2dca4b6c22cdbc86e52c093", "lat": 38.899153, "fusion_lon": 0.0, "fusion_lat": 0.0, "type": "electric_scooter", "name": "bdc571e1a2dca4b6c22cdbc86e52c093", "is_disabled": 0, "rental_uris": {"ios": "https://dc.lft.to/lastmile_qr_scan", "android": "https://dc.lft.to/lastmile_qr_scan"}, "is_reserved": 0}, {"lon": -77.04413366666667, "bike_id": "8dc851966434e2b20c5cafb8e58d2fb8", "lat": 38.912603833333336, "fusion_lon": 0.0, "fusion_lat": 0.0, "type": "electric_scooter", "name": "8dc851966434e2b20c5cafb8e58d2fb8", "is_disabled": 0, "rental_uris": {"ios": "https://dc.lft.to/lastmile_qr_scan", "android": "https://dc.lft.to/lastmile_qr_scan"}, "is_reserved": 0}, {"lon": -77.02166783333334, "bike_id": "9f60932e92b1f4cef05379ac6bc68576", "lat": 38.88749083333333, "fusion_lon": 0.0, "fusion_lat": 0.0, "type": "electric_scooter", "name": "9f60932e92b1f4cef05379ac6bc68576", "is_disabled": 0, "rental_uris": {"ios": "https://dc.lft.to/lastmile_qr_scan", "android": "https://dc.lft.to/lastmile_qr_scan"}, "is_reserved": 0}, {"lon": -76.9950735, "bike_id": "9469d34eaccf1b7ac3373bfe84c54f67", "lat": 38.8835335, "fusion_lon": 0.0, "fusion_lat": 0.0, "type": "electric_scooter", "name": "9469d34eaccf1b7ac3373bfe84c54f67", "is_disabled": 0, "rental_uris": {"ios": "https://dc.lft.to/lastmile_qr_scan", "android": "https://dc.lft.to/lastmile_qr_scan"}, "is_reserved": 0}, {"lon": -77.02553016666667, "bike_id": "73e5b3630665a45300773cd14bb45a3d", "lat": 38.941422, "fusion_lon": 0.0, "fusion_lat": 0.0, "type": "electric_scooter", "name": "73e5b3630665a45300773cd14bb45a3d", "is_disabled": 0, "rental_uris": {"ios": "https://dc.lft.to/lastmile_qr_scan", "android": "https://dc.lft.to/lastmile_qr_scan"}, "is_reserved": 0}, {"lon": -77.0348645, "bike_id": "afabde3634636f3056c18a56c2378133", "lat": 38.932740833333334, "fusion_lon": 0.0, "fusion_lat": 0.0, "type": "electric_scooter", "name": "afabde3634636f3056c18a56c2378133", "is_disabled": 0, "rental_uris": {"ios": "https://dc.lft.to/lastmile_qr_scan", "android": "https://dc.lft.to/lastmile_qr_scan"}, "is_reserved": 0}, {"lon": -77.0916775, "bike_id": "071b107bf1593e7d03cfa99490d8c504", "lat": 38.94563133333333, "fusion_lon": 0.0, "fusion_lat": 0.0, "type": "electric_scooter", "name": "071b107bf1593e7d03cfa99490d8c504", "is_disabled": 0, "rental_uris": {"ios": "https://dc.lft.to/lastmile_qr_scan", "android": "https://dc.lft.to/lastmile_qr_scan"}, "is_reserved": 0}, {"lon": -76.94421033333333, "bike_id": "5f6126e558952f3314934b2e33db4259", "lat": 38.9662305, "fusion_lon": 0.0, "fusion_lat": 0.0, "type": "electric_bike", "name": "5f6126e558952f3314934b2e33db4259", "is_disabled": 0, "rental_uris": {"ios": "https://dc.lft.to/lastmile_qr_scan", "android": "https://dc.lft.to/lastmile_qr_scan"}, "is_reserved": 0}, {"lon": -77.03805783333334, "bike_id": "a06cf983e0d78f371e36f7ad5b2e2b2e", "lat": 38.93397316666667, "fusion_lon": 0.0, "fusion_lat": 0.0, "type": "electric_scooter", "name": "a06cf983e0d78f371e36f7ad5b2e2b2e", "is_disabled": 0, "rental_uris": {"ios": "https://dc.lft.to/lastmile_qr_scan", "android": "https://dc.lft.to/lastmile_qr_scan"}, "is_reserved": 0}, {"lon": -77.055978, "bike_id": "17be5570c13661154906cdf6126c4fa7", "lat": 38.93700483333333, "fusion_lon": 0.0, "fusion_lat": 0.0, "type": "electric_scooter", "name": "17be5570c13661154906cdf6126c4fa7", "is_disabled": 0, "rental_uris": {"ios": "https://dc.lft.to/lastmile_qr_scan", "android": "https://dc.lft.to/lastmile_qr_scan"}, "is_reserved": 0}, {"lon": -77.00415066666666, "bike_id": "3e81e36d167ffa3ac77a5fe77bf20b56", "lat": 38.908145833333336, "fusion_lon": 0.0, "fusion_lat": 0.0, "type": "electric_scooter", "name": "3e81e36d167ffa3ac77a5fe77bf20b56", "is_disabled": 0, "rental_uris": {"ios": "https://dc.lft.to/lastmile_qr_scan", "android": "https://dc.lft.to/lastmile_qr_scan"}, "is_reserved": 0}, {"lon": -76.94565783333333, "bike_id": "f677c380412ba402db5c82ad592fd9ff", "lat": 38.8662295, "fusion_lon": 0.0, "fusion_lat": 0.0, "type": "electric_bike", "name": "f677c380412ba402db5c82ad592fd9ff", "is_disabled": 0, "rental_uris": {"ios": "https://dc.lft.to/lastmile_qr_scan", "android": "https://dc.lft.to/lastmile_qr_scan"}, "is_reserved": 0}, {"lon": -77.02807733333333, "bike_id": "814cbdd2901fc37c8913bb7362adb08a", "lat": 38.928603333333335, "fusion_lon": 0.0, "fusion_lat": 0.0, "type": "electric_scooter", "name": "814cbdd2901fc37c8913bb7362adb08a", "is_disabled": 0, "rental_uris": {"ios": "https://dc.lft.to/lastmile_qr_scan", "android": "https://dc.lft.to/lastmile_qr_scan"}, "is_reserved": 0}, {"lon": -76.97331216666667, "bike_id": "c2ea755fda0330be88773bf998372671", "lat": 38.9041155, "fusion_lon": 0.0, "fusion_lat": 0.0, "type": "electric_scooter", "name": "c2ea755fda0330be88773bf998372671", "is_disabled": 0, "rental_uris": {"ios": "https://dc.lft.to/lastmile_qr_scan", "android": "https://dc.lft.to/lastmile_qr_scan"}, "is_reserved": 0}, {"lon": -76.9420555, "bike_id": "9ed15f9b8a6db7be234ed03e0c22ab3f", "lat": 38.89317416666667, "fusion_lon": 0.0, "fusion_lat": 0.0, "type": "electric_bike", "name": "9ed15f9b8a6db7be234ed03e0c22ab3f", "is_disabled": 0, "rental_uris": {"ios": "https://dc.lft.to/lastmile_qr_scan", "android": "https://dc.lft.to/lastmile_qr_scan"}, "is_reserved": 0}, {"lon": -77.0236555, "bike_id": "3d3ebd29934e2b20f87ed09c67cfa0c1", "lat": 38.89997016666667, "fusion_lon": 0.0, "fusion_lat": 0.0, "type": "electric_scooter", "name": "3d3ebd29934e2b20f87ed09c67cfa0c1", "is_disabled": 0, "rental_uris": {"ios": "https://dc.lft.to/lastmile_qr_scan", "android": "https://dc.lft.to/lastmile_qr_scan"}, "is_reserved": 0}, {"lon": -76.99426783333334, "bike_id": "13b371388834127a7feb014c971c0d43", "lat": 38.83604533333333, "fusion_lon": 0.0, "fusion_lat": 0.0, "type": "electric_scooter", "name": "13b371388834127a7feb014c971c0d43", "is_disabled": 0, "rental_uris": {"ios": "https://dc.lft.to/lastmile_qr_scan", "android": "https://dc.lft.to/lastmile_qr_scan"}, "is_reserved": 0}, {"lon": -77.0067285, "bike_id": "c6d009ed86b01188565707acd3cd8bd9", "lat": 38.945110166666666, "fusion_lon": 0.0, "fusion_lat": 0.0, "type": "electric_bike", "name": "c6d009ed86b01188565707acd3cd8bd9", "is_disabled": 0, "rental_uris": {"ios": "https://dc.lft.to/lastmile_qr_scan", "android": "https://dc.lft.to/lastmile_qr_scan"}, "is_reserved": 0}, {"lon": -76.98839533333333, "bike_id": "256c20b0e04fa92d4d57474b503db66c", "lat": 38.842840333333335, "fusion_lon": 0.0, "fusion_lat": 0.0, "type": "electric_bike", "name": "256c20b0e04fa92d4d57474b503db66c", "is_disabled": 0, "rental_uris": {"ios": "https://dc.lft.to/lastmile_qr_scan", "android": "https://dc.lft.to/lastmile_qr_scan"}, "is_reserved": 0}, {"lon": -77.0241295, "bike_id": "4f1adbbebf10977e7d99816f33a9ab9e", "lat": 38.917789, "fusion_lon": 0.0, "fusion_lat": 0.0, "type": "electric_scooter", "name": "4f1adbbebf10977e7d99816f33a9ab9e", "is_disabled": 0, "rental_uris": {"ios": "https://dc.lft.to/lastmile_qr_scan", "android": "https://dc.lft.to/lastmile_qr_scan"}, "is_reserved": 0}, {"lon": -77.04248083333333, "bike_id": "23df973a34d9c3630b5c14979ce25eed", "lat": 38.90645383333333, "fusion_lon": 0.0, "fusion_lat": 0.0, "type": "electric_scooter", "name": "23df973a34d9c3630b5c14979ce25eed", "is_disabled": 0, "rental_uris": {"ios": "https://dc.lft.to/lastmile_qr_scan", "android": "https://dc.lft.to/lastmile_qr_scan"}, "is_reserved": 0}, {"lon": -77.045491, "bike_id": "b3dd3c46e45a301f282d91df49d35631", "lat": 38.91930516666667, "fusion_lon": 0.0, "fusion_lat": 0.0, "type": "electric_scooter", "name": "b3dd3c46e45a301f282d91df49d35631", "is_disabled": 0, "rental_uris": {"ios": "https://dc.lft.to/lastmile_qr_scan", "android": "https://dc.lft.to/lastmile_qr_scan"}, "is_reserved": 0}, {"lon": -77.00927016666667, "bike_id": "ec07729bdce44df45db08b84966ab0cf", "lat": 38.89653766666667, "fusion_lon": 0.0, "fusion_lat": 0.0, "type": "electric_scooter", "name": "ec07729bdce44df45db08b84966ab0cf", "is_disabled": 0, "rental_uris": {"ios": "https://dc.lft.to/lastmile_qr_scan", "android": "https://dc.lft.to/lastmile_qr_scan"}, "is_reserved": 0}, {"lon": -76.99205516666666, "bike_id": "7cf499312377db6e3affe71b633a0df3", "lat": 38.898304833333334, "fusion_lon": 0.0, "fusion_lat": 0.0, "type": "electric_scooter", "name": "7cf499312377db6e3affe71b633a0df3", "is_disabled": 0, "rental_uris": {"ios": "https://dc.lft.to/lastmile_qr_scan", "android": "https://dc.lft.to/lastmile_qr_scan"}, "is_reserved": 0}, {"lon": -77.01814483333334, "bike_id": "7c9140506e2cdc913d14bcb0928d1730", "lat": 38.920295333333335, "fusion_lon": 0.0, "fusion_lat": 0.0, "type": "electric_scooter", "name": "7c9140506e2cdc913d14bcb0928d1730", "is_disabled": 0, "rental_uris": {"ios": "https://dc.lft.to/lastmile_qr_scan", "android": "https://dc.lft.to/lastmile_qr_scan"}, "is_reserved": 0}, {"lon": -77.02167583333333, "bike_id": "e8800ff3bcf9abbc1fb56674cbf446a0", "lat": 38.9429495, "fusion_lon": 0.0, "fusion_lat": 0.0, "type": "electric_scooter", "name": "e8800ff3bcf9abbc1fb56674cbf446a0", "is_disabled": 0, "rental_uris": {"ios": "https://dc.lft.to/lastmile_qr_scan", "android": "https://dc.lft.to/lastmile_qr_scan"}, "is_reserved": 0}, {"lon": -77.00468433333333, "bike_id": "ce2b4cc804f4bc658bc4e3e9d2d5f662", "lat": 38.91179183333333, "fusion_lon": 0.0, "fusion_lat": 0.0, "type": "electric_scooter", "name": "ce2b4cc804f4bc658bc4e3e9d2d5f662", "is_disabled": 0, "rental_uris": {"ios": "https://dc.lft.to/lastmile_qr_scan", "android": "https://dc.lft.to/lastmile_qr_scan"}, "is_reserved": 0}, {"lon": -76.94632883333334, "bike_id": "36f8b09ef646f7053a3c0154c7ea1e61", "lat": 38.8983335, "fusion_lon": 0.0, "fusion_lat": 0.0, "type": "electric_scooter", "name": "36f8b09ef646f7053a3c0154c7ea1e61", "is_disabled": 0, "rental_uris": {"ios": "https://dc.lft.to/lastmile_qr_scan", "android": "https://dc.lft.to/lastmile_qr_scan"}, "is_reserved": 0}, {"lon": -77.02318333333334, "bike_id": "e97ecac69d7dae3b99a36b932d3a178d", "lat": 38.907342166666666, "fusion_lon": 0.0, "fusion_lat": 0.0, "type": "electric_scooter", "name": "e97ecac69d7dae3b99a36b932d3a178d", "is_disabled": 0, "rental_uris": {"ios": "https://dc.lft.to/lastmile_qr_scan", "android": "https://dc.lft.to/lastmile_qr_scan"}, "is_reserved": 0}, {"lon": -77.039424, "bike_id": "13444baa80be4719b4e7241c5f4cd46c", "lat": 38.91941416666667, "fusion_lon": 0.0, "fusion_lat": 0.0, "type": "electric_scooter", "name": "13444baa80be4719b4e7241c5f4cd46c", "is_disabled": 0, "rental_uris": {"ios": "https://dc.lft.to/lastmile_qr_scan", "android": "https://dc.lft.to/lastmile_qr_scan"}, "is_reserved": 0}, {"lon": -77.07669283333334, "bike_id": "89772871c3eabb08a0c14f7fa8305a80", "lat": 38.943287166666664, "fusion_lon": 0.0, "fusion_lat": 0.0, "type": "electric_scooter", "name": "89772871c3eabb08a0c14f7fa8305a80", "is_disabled": 0, "rental_uris": {"ios": "https://dc.lft.to/lastmile_qr_scan", "android": "https://dc.lft.to/lastmile_qr_scan"}, "is_reserved": 0}, {"lon": -77.05612283333333, "bike_id": "7e7247ddb4367bc30baa67f48dbbce4e", "lat": 38.9234495, "fusion_lon": 0.0, "fusion_lat": 0.0, "type": "electric_scooter", "name": "7e7247ddb4367bc30baa67f48dbbce4e", "is_disabled": 0, "rental_uris": {"ios": "https://dc.lft.to/lastmile_qr_scan", "android": "https://dc.lft.to/lastmile_qr_scan"}, "is_reserved": 0}, {"lon": -76.99857533333333, "bike_id": "adb805d432ae11406ec5d17f7ca3fa13", "lat": 38.90777416666667, "fusion_lon": 0.0, "fusion_lat": 0.0, "type": "electric_scooter", "name": "adb805d432ae11406ec5d17f7ca3fa13", "is_disabled": 0, "rental_uris": {"ios": "https://dc.lft.to/lastmile_qr_scan", "android": "https://dc.lft.to/lastmile_qr_scan"}, "is_reserved": 0}, {"lon": -77.02345233333334, "bike_id": "5bbb4b1ffdafc32d79299391328a1273", "lat": 38.92250216666667, "fusion_lon": 0.0, "fusion_lat": 0.0, "type": "electric_scooter", "name": "5bbb4b1ffdafc32d79299391328a1273", "is_disabled": 0, "rental_uris": {"ios": "https://dc.lft.to/lastmile_qr_scan", "android": "https://dc.lft.to/lastmile_qr_scan"}, "is_reserved": 0}, {"lon": -76.96525583333333, "bike_id": "ed8dc1cf7ff07f6dfeecdc80a53869ad", "lat": 38.8747835, "fusion_lon": 0.0, "fusion_lat": 0.0, "type": "electric_scooter", "name": "ed8dc1cf7ff07f6dfeecdc80a53869ad", "is_disabled": 0, "rental_uris": {"ios": "https://dc.lft.to/lastmile_qr_scan", "android": "https://dc.lft.to/lastmile_qr_scan"}, "is_reserved": 0}, {"lon": -77.02977416666667, "bike_id": "69e650b04820cfec7f069c0f25d90d8d", "lat": 38.907304, "fusion_lon": 0.0, "fusion_lat": 0.0, "type": "electric_scooter", "name": "69e650b04820cfec7f069c0f25d90d8d", "is_disabled": 0, "rental_uris": {"ios": "https://dc.lft.to/lastmile_qr_scan", "android": "https://dc.lft.to/lastmile_qr_scan"}, "is_reserved": 0}, {"lon": -77.01344566666667, "bike_id": "a102ffc090a3153f8de79a7445bfbe11", "lat": 38.878159333333336, "fusion_lon": 0.0, "fusion_lat": 0.0, "type": "electric_scooter", "name": "a102ffc090a3153f8de79a7445bfbe11", "is_disabled": 0, "rental_uris": {"ios": "https://dc.lft.to/lastmile_qr_scan", "android": "https://dc.lft.to/lastmile_qr_scan"}, "is_reserved": 0}, {"lon": -77.029768, "bike_id": "b3e889bcedea9d898c9d0c5668eca43e", "lat": 38.896932166666666, "fusion_lon": 0.0, "fusion_lat": 0.0, "type": "electric_scooter", "name": "b3e889bcedea9d898c9d0c5668eca43e", "is_disabled": 0, "rental_uris": {"ios": "https://dc.lft.to/lastmile_qr_scan", "android": "https://dc.lft.to/lastmile_qr_scan"}, "is_reserved": 0}, {"lon": -77.02701116666667, "bike_id": "5211523b0c143d2e76a620f9ae436838", "lat": 38.906715166666665, "fusion_lon": 0.0, "fusion_lat": 0.0, "type": "electric_scooter", "name": "5211523b0c143d2e76a620f9ae436838", "is_disabled": 0, "rental_uris": {"ios": "https://dc.lft.to/lastmile_qr_scan", "android": "https://dc.lft.to/lastmile_qr_scan"}, "is_reserved": 0}, {"lon": -77.1170765, "bike_id": "3f293c937b89f50a1b46c06be4381d5b", "lat": 38.867458666666664, "fusion_lon": 0.0, "fusion_lat": 0.0, "type": "electric_bike", "name": "3f293c937b89f50a1b46c06be4381d5b", "is_disabled": 0, "rental_uris": {"ios": "https://dc.lft.to/lastmile_qr_scan", "android": "https://dc.lft.to/lastmile_qr_scan"}, "is_reserved": 0}, {"lon": -77.02002966666667, "bike_id": "99e01bf9ee030a0804e3679aa732b2bf", "lat": 38.931118166666664, "fusion_lon": 0.0, "fusion_lat": 0.0, "type": "electric_scooter", "name": "99e01bf9ee030a0804e3679aa732b2bf", "is_disabled": 0, "rental_uris": {"ios": "https://dc.lft.to/lastmile_qr_scan", "android": "https://dc.lft.to/lastmile_qr_scan"}, "is_reserved": 0}, {"lon": -77.00099, "bike_id": "e0b20893ff437e9b870b8ed3d971a50b", "lat": 38.9163515, "fusion_lon": 0.0, "fusion_lat": 0.0, "type": "electric_scooter", "name": "e0b20893ff437e9b870b8ed3d971a50b", "is_disabled": 0, "rental_uris": {"ios": "https://dc.lft.to/lastmile_qr_scan", "android": "https://dc.lft.to/lastmile_qr_scan"}, "is_reserved": 0}, {"lon": -77.03295583333333, "bike_id": "31ab7ad89ddddeec2a059ab93a46745d", "lat": 38.9285715, "fusion_lon": 0.0, "fusion_lat": 0.0, "type": "electric_scooter", "name": "31ab7ad89ddddeec2a059ab93a46745d", "is_disabled": 0, "rental_uris": {"ios": "https://dc.lft.to/lastmile_qr_scan", "android": "https://dc.lft.to/lastmile_qr_scan"}, "is_reserved": 0}, {"lon": -77.04278366666666, "bike_id": "1e3a327dc1c49cd9a258d542b68a9e97", "lat": 38.9224535, "fusion_lon": 0.0, "fusion_lat": 0.0, "type": "electric_scooter", "name": "1e3a327dc1c49cd9a258d542b68a9e97", "is_disabled": 0, "rental_uris": {"ios": "https://dc.lft.to/lastmile_qr_scan", "android": "https://dc.lft.to/lastmile_qr_scan"}, "is_reserved": 0}, {"lon": -77.05524366666667, "bike_id": "2fb82908f40f799fd98a5aa5dc549163", "lat": 38.9297315, "fusion_lon": 0.0, "fusion_lat": 0.0, "type": "electric_scooter", "name": "2fb82908f40f799fd98a5aa5dc549163", "is_disabled": 0, "rental_uris": {"ios": "https://dc.lft.to/lastmile_qr_scan", "android": "https://dc.lft.to/lastmile_qr_scan"}, "is_reserved": 0}, {"lon": -77.024636, "bike_id": "2d5a5af5c6ee61615ce33683082db0ec", "lat": 38.92072866666667, "fusion_lon": 0.0, "fusion_lat": 0.0, "type": "electric_scooter", "name": "2d5a5af5c6ee61615ce33683082db0ec", "is_disabled": 0, "rental_uris": {"ios": "https://dc.lft.to/lastmile_qr_scan", "android": "https://dc.lft.to/lastmile_qr_scan"}, "is_reserved": 0}, {"lon": -77.08977216666666, "bike_id": "a473a52fe6d7ca304b5868f145f7f77a", "lat": 38.874782833333335, "fusion_lon": 0.0, "fusion_lat": 0.0, "type": "electric_bike", "name": "a473a52fe6d7ca304b5868f145f7f77a", "is_disabled": 0, "rental_uris": {"ios": "https://dc.lft.to/lastmile_qr_scan", "android": "https://dc.lft.to/lastmile_qr_scan"}, "is_reserved": 0}, {"lon": -77.01797916666666, "bike_id": "cbfb2a0a9d8537cc3591dde7b8c85a9f", "lat": 38.921325333333336, "fusion_lon": 0.0, "fusion_lat": 0.0, "type": "electric_scooter", "name": "cbfb2a0a9d8537cc3591dde7b8c85a9f", "is_disabled": 0, "rental_uris": {"ios": "https://dc.lft.to/lastmile_qr_scan", "android": "https://dc.lft.to/lastmile_qr_scan"}, "is_reserved": 0}, {"lon": -77.04734433333333, "bike_id": "9e3068566124ba8f9122e04f61abad8e", "lat": 38.91779966666667, "fusion_lon": 0.0, "fusion_lat": 0.0, "type": "electric_scooter", "name": "9e3068566124ba8f9122e04f61abad8e", "is_disabled": 0, "rental_uris": {"ios": "https://dc.lft.to/lastmile_qr_scan", "android": "https://dc.lft.to/lastmile_qr_scan"}, "is_reserved": 0}, {"lon": -76.98525316666667, "bike_id": "ca23417d4f7fb07dae2fcd9af7792c79", "lat": 38.904606666666666, "fusion_lon": 0.0, "fusion_lat": 0.0, "type": "electric_scooter", "name": "ca23417d4f7fb07dae2fcd9af7792c79", "is_disabled": 0, "rental_uris": {"ios": "https://dc.lft.to/lastmile_qr_scan", "android": "https://dc.lft.to/lastmile_qr_scan"}, "is_reserved": 0}, {"lon": -77.0481585, "bike_id": "bce11b08d870bad9981a73d4e820c28d", "lat": 38.907341, "fusion_lon": 0.0, "fusion_lat": 0.0, "type": "electric_scooter", "name": "bce11b08d870bad9981a73d4e820c28d", "is_disabled": 0, "rental_uris": {"ios": "https://dc.lft.to/lastmile_qr_scan", "android": "https://dc.lft.to/lastmile_qr_scan"}, "is_reserved": 0}, {"lon": -76.997522, "bike_id": "9fbc82b1195df27cf3be397f83296f31", "lat": 38.887715, "fusion_lon": 0.0, "fusion_lat": 0.0, "type": "electric_scooter", "name": "9fbc82b1195df27cf3be397f83296f31", "is_disabled": 0, "rental_uris": {"ios": "https://dc.lft.to/lastmile_qr_scan", "android": "https://dc.lft.to/lastmile_qr_scan"}, "is_reserved": 0}, {"lon": -77.015311, "bike_id": "ef62a223ae67a49b079d0903f03d6ed3", "lat": 38.88497566666667, "fusion_lon": 0.0, "fusion_lat": 0.0, "type": "electric_scooter", "name": "ef62a223ae67a49b079d0903f03d6ed3", "is_disabled": 0, "rental_uris": {"ios": "https://dc.lft.to/lastmile_qr_scan", "android": "https://dc.lft.to/lastmile_qr_scan"}, "is_reserved": 0}, {"lon": -76.94196033333333, "bike_id": "3410bd80abc95b38f06dc479939b278e", "lat": 38.893753333333336, "fusion_lon": 0.0, "fusion_lat": 0.0, "type": "electric_scooter", "name": "3410bd80abc95b38f06dc479939b278e", "is_disabled": 0, "rental_uris": {"ios": "https://dc.lft.to/lastmile_qr_scan", "android": "https://dc.lft.to/lastmile_qr_scan"}, "is_reserved": 0}, {"lon": -77.03430583333333, "bike_id": "bde6753d7adc106c295cf0cb07d4d815", "lat": 38.92735116666667, "fusion_lon": 0.0, "fusion_lat": 0.0, "type": "electric_scooter", "name": "bde6753d7adc106c295cf0cb07d4d815", "is_disabled": 0, "rental_uris": {"ios": "https://dc.lft.to/lastmile_qr_scan", "android": "https://dc.lft.to/lastmile_qr_scan"}, "is_reserved": 0}, {"lon": -76.98834416666666, "bike_id": "4f27a8700c232ddf7be0d0df2456ee04", "lat": 38.896734333333335, "fusion_lon": 0.0, "fusion_lat": 0.0, "type": "electric_scooter", "name": "4f27a8700c232ddf7be0d0df2456ee04", "is_disabled": 0, "rental_uris": {"ios": "https://dc.lft.to/lastmile_qr_scan", "android": "https://dc.lft.to/lastmile_qr_scan"}, "is_reserved": 0}, {"lon": -77.02306833333333, "bike_id": "557cdb707005afa67e5e383cf5dae16c", "lat": 38.927335, "fusion_lon": 0.0, "fusion_lat": 0.0, "type": "electric_scooter", "name": "557cdb707005afa67e5e383cf5dae16c", "is_disabled": 0, "rental_uris": {"ios": "https://dc.lft.to/lastmile_qr_scan", "android": "https://dc.lft.to/lastmile_qr_scan"}, "is_reserved": 0}, {"lon": -77.0450515, "bike_id": "04aeb2993356194eb091bbc1d8120dcf", "lat": 38.905142833333336, "fusion_lon": 0.0, "fusion_lat": 0.0, "type": "electric_scooter", "name": "04aeb2993356194eb091bbc1d8120dcf", "is_disabled": 0, "rental_uris": {"ios": "https://dc.lft.to/lastmile_qr_scan", "android": "https://dc.lft.to/lastmile_qr_scan"}, "is_reserved": 0}, {"lon": -77.05752616666666, "bike_id": "874ffb252cb9c935265ae98caf1498e3", "lat": 38.9250275, "fusion_lon": 0.0, "fusion_lat": 0.0, "type": "electric_bike", "name": "874ffb252cb9c935265ae98caf1498e3", "is_disabled": 0, "rental_uris": {"ios": "https://dc.lft.to/lastmile_qr_scan", "android": "https://dc.lft.to/lastmile_qr_scan"}, "is_reserved": 0}, {"lon": -77.02839066666667, "bike_id": "5e639a568ae6ee6f82c27c568ffb8b26", "lat": 38.88767583333333, "fusion_lon": 0.0, "fusion_lat": 0.0, "type": "electric_scooter", "name": "5e639a568ae6ee6f82c27c568ffb8b26", "is_disabled": 0, "rental_uris": {"ios": "https://dc.lft.to/lastmile_qr_scan", "android": "https://dc.lft.to/lastmile_qr_scan"}, "is_reserved": 0}, {"lon": -77.10838483333333, "bike_id": "43a04279d64dd283dd7e410151a47a90", "lat": 38.812024666666666, "fusion_lon": 0.0, "fusion_lat": 0.0, "type": "electric_bike", "name": "43a04279d64dd283dd7e410151a47a90", "is_disabled": 0, "rental_uris": {"ios": "https://dc.lft.to/lastmile_qr_scan", "android": "https://dc.lft.to/lastmile_qr_scan"}, "is_reserved": 0}, {"lon": -76.94683716666667, "bike_id": "126125368da57230e112c85ab685e133", "lat": 38.88631483333333, "fusion_lon": 0.0, "fusion_lat": 0.0, "type": "electric_scooter", "name": "126125368da57230e112c85ab685e133", "is_disabled": 0, "rental_uris": {"ios": "https://dc.lft.to/lastmile_qr_scan", "android": "https://dc.lft.to/lastmile_qr_scan"}, "is_reserved": 0}, {"lon": -77.0000725, "bike_id": "555d9386fdf81efea58a7989502ba365", "lat": 38.897423333333336, "fusion_lon": 0.0, "fusion_lat": 0.0, "type": "electric_scooter", "name": "555d9386fdf81efea58a7989502ba365", "is_disabled": 0, "rental_uris": {"ios": "https://dc.lft.to/lastmile_qr_scan", "android": "https://dc.lft.to/lastmile_qr_scan"}, "is_reserved": 0}, {"lon": -77.04125633333334, "bike_id": "15437e3fd1aafd2d20120ea7e22ea7bb", "lat": 38.91557366666667, "fusion_lon": 0.0, "fusion_lat": 0.0, "type": "electric_scooter", "name": "15437e3fd1aafd2d20120ea7e22ea7bb", "is_disabled": 0, "rental_uris": {"ios": "https://dc.lft.to/lastmile_qr_scan", "android": "https://dc.lft.to/lastmile_qr_scan"}, "is_reserved": 0}, {"lon": -77.02806883333334, "bike_id": "0d43423bb8f8610a5b38da648d8fb912", "lat": 38.9073865, "fusion_lon": 0.0, "fusion_lat": 0.0, "type": "electric_scooter", "name": "0d43423bb8f8610a5b38da648d8fb912", "is_disabled": 0, "rental_uris": {"ios": "https://dc.lft.to/lastmile_qr_scan", "android": "https://dc.lft.to/lastmile_qr_scan"}, "is_reserved": 0}, {"lon": -77.06574633333334, "bike_id": "38112433f0bd67b068dcba3ddc7a5940", "lat": 38.91134866666667, "fusion_lon": 0.0, "fusion_lat": 0.0, "type": "electric_bike", "name": "38112433f0bd67b068dcba3ddc7a5940", "is_disabled": 0, "rental_uris": {"ios": "https://dc.lft.to/lastmile_qr_scan", "android": "https://dc.lft.to/lastmile_qr_scan"}, "is_reserved": 0}, {"lon": -76.9652325, "bike_id": "8799cdbf7435133032729c5ec1637853", "lat": 38.876336, "fusion_lon": 0.0, "fusion_lat": 0.0, "type": "electric_scooter", "name": "8799cdbf7435133032729c5ec1637853", "is_disabled": 0, "rental_uris": {"ios": "https://dc.lft.to/lastmile_qr_scan", "android": "https://dc.lft.to/lastmile_qr_scan"}, "is_reserved": 0}, {"lon": -77.03247666666667, "bike_id": "374ccc0c8924c2256ca08e234f1878cb", "lat": 38.92771466666667, "fusion_lon": 0.0, "fusion_lat": 0.0, "type": "electric_scooter", "name": "374ccc0c8924c2256ca08e234f1878cb", "is_disabled": 0, "rental_uris": {"ios": "https://dc.lft.to/lastmile_qr_scan", "android": "https://dc.lft.to/lastmile_qr_scan"}, "is_reserved": 0}, {"lon": -77.03161516666667, "bike_id": "977f55da46528dd32ab804088c52b110", "lat": 38.892231333333335, "fusion_lon": 0.0, "fusion_lat": 0.0, "type": "electric_scooter", "name": "977f55da46528dd32ab804088c52b110", "is_disabled": 0, "rental_uris": {"ios": "https://dc.lft.to/lastmile_qr_scan", "android": "https://dc.lft.to/lastmile_qr_scan"}, "is_reserved": 0}, {"lon": -76.9949995, "bike_id": "039297ebdf6e04b5462b246d3fd5fc0b", "lat": 38.897685, "fusion_lon": 0.0, "fusion_lat": 0.0, "type": "electric_scooter", "name": "039297ebdf6e04b5462b246d3fd5fc0b", "is_disabled": 0, "rental_uris": {"ios": "https://dc.lft.to/lastmile_qr_scan", "android": "https://dc.lft.to/lastmile_qr_scan"}, "is_reserved": 0}, {"lon": -77.01753633333334, "bike_id": "e84433e0c8fa87aa3ab060a85903a67e", "lat": 38.8820865, "fusion_lon": 0.0, "fusion_lat": 0.0, "type": "electric_scooter", "name": "e84433e0c8fa87aa3ab060a85903a67e", "is_disabled": 0, "rental_uris": {"ios": "https://dc.lft.to/lastmile_qr_scan", "android": "https://dc.lft.to/lastmile_qr_scan"}, "is_reserved": 0}, {"lon": -76.99705566666667, "bike_id": "5d5e3d5c691ac0aef53676ff5e8e9aa1", "lat": 38.84435633333333, "fusion_lon": 0.0, "fusion_lat": 0.0, "type": "electric_scooter", "name": "5d5e3d5c691ac0aef53676ff5e8e9aa1", "is_disabled": 0, "rental_uris": {"ios": "https://dc.lft.to/lastmile_qr_scan", "android": "https://dc.lft.to/lastmile_qr_scan"}, "is_reserved": 0}, {"lon": -77.0419415, "bike_id": "2f102bb2a088258226e19f0323d1f0b4", "lat": 38.901463666666665, "fusion_lon": 0.0, "fusion_lat": 0.0, "type": "electric_scooter", "name": "2f102bb2a088258226e19f0323d1f0b4", "is_disabled": 0, "rental_uris": {"ios": "https://dc.lft.to/lastmile_qr_scan", "android": "https://dc.lft.to/lastmile_qr_scan"}, "is_reserved": 0}, {"lon": -77.11798766666666, "bike_id": "7de5cdbdef187e48098a51f32f0fd668", "lat": 38.873773166666666, "fusion_lon": 0.0, "fusion_lat": 0.0, "type": "electric_bike", "name": "7de5cdbdef187e48098a51f32f0fd668", "is_disabled": 0, "rental_uris": {"ios": "https://dc.lft.to/lastmile_qr_scan", "android": "https://dc.lft.to/lastmile_qr_scan"}, "is_reserved": 0}, {"lon": -77.00539, "bike_id": "12be9ffd7848e7b517d85e763d3b47f5", "lat": 38.87548066666667, "fusion_lon": 0.0, "fusion_lat": 0.0, "type": "electric_scooter", "name": "12be9ffd7848e7b517d85e763d3b47f5", "is_disabled": 0, "rental_uris": {"ios": "https://dc.lft.to/lastmile_qr_scan", "android": "https://dc.lft.to/lastmile_qr_scan"}, "is_reserved": 0}, {"lon": -77.01144933333333, "bike_id": "953f93e5cdeafd60a7e6ec66246a0d9e", "lat": 38.89604816666667, "fusion_lon": 0.0, "fusion_lat": 0.0, "type": "electric_scooter", "name": "953f93e5cdeafd60a7e6ec66246a0d9e", "is_disabled": 0, "rental_uris": {"ios": "https://dc.lft.to/lastmile_qr_scan", "android": "https://dc.lft.to/lastmile_qr_scan"}, "is_reserved": 0}, {"lon": -77.0250935, "bike_id": "f6f644005205aa58fa7df281bf51a596", "lat": 38.94209883333333, "fusion_lon": 0.0, "fusion_lat": 0.0, "type": "electric_scooter", "name": "f6f644005205aa58fa7df281bf51a596", "is_disabled": 0, "rental_uris": {"ios": "https://dc.lft.to/lastmile_qr_scan", "android": "https://dc.lft.to/lastmile_qr_scan"}, "is_reserved": 0}, {"lon": -76.97603716666667, "bike_id": "43dd0ff8b100e0d199ed845d6e3c6a09", "lat": 38.897568, "fusion_lon": 0.0, "fusion_lat": 0.0, "type": "electric_scooter", "name": "43dd0ff8b100e0d199ed845d6e3c6a09", "is_disabled": 0, "rental_uris": {"ios": "https://dc.lft.to/lastmile_qr_scan", "android": "https://dc.lft.to/lastmile_qr_scan"}, "is_reserved": 0}, {"lon": -77.02963916666667, "bike_id": "f16be1a2689e383e03b610e5164875c8", "lat": 38.922960833333335, "fusion_lon": 0.0, "fusion_lat": 0.0, "type": "electric_scooter", "name": "f16be1a2689e383e03b610e5164875c8", "is_disabled": 0, "rental_uris": {"ios": "https://dc.lft.to/lastmile_qr_scan", "android": "https://dc.lft.to/lastmile_qr_scan"}, "is_reserved": 0}, {"lon": -76.97887816666666, "bike_id": "bafa8ef10760d3ade9e580219222c87d", "lat": 38.885416, "fusion_lon": 0.0, "fusion_lat": 0.0, "type": "electric_scooter", "name": "bafa8ef10760d3ade9e580219222c87d", "is_disabled": 0, "rental_uris": {"ios": "https://dc.lft.to/lastmile_qr_scan", "android": "https://dc.lft.to/lastmile_qr_scan"}, "is_reserved": 0}, {"lon": -76.98337333333333, "bike_id": "4197f93dace5a4c73d7f44e930ce13df", "lat": 38.895479, "fusion_lon": 0.0, "fusion_lat": 0.0, "type": "electric_scooter", "name": "4197f93dace5a4c73d7f44e930ce13df", "is_disabled": 0, "rental_uris": {"ios": "https://dc.lft.to/lastmile_qr_scan", "android": "https://dc.lft.to/lastmile_qr_scan"}, "is_reserved": 0}, {"lon": -77.0229565, "bike_id": "e7d79e9e6d448d572bead5b3034fe124", "lat": 38.92328633333333, "fusion_lon": 0.0, "fusion_lat": 0.0, "type": "electric_bike", "name": "e7d79e9e6d448d572bead5b3034fe124", "is_disabled": 0, "rental_uris": {"ios": "https://dc.lft.to/lastmile_qr_scan", "android": "https://dc.lft.to/lastmile_qr_scan"}, "is_reserved": 0}, {"lon": -76.99539733333333, "bike_id": "9f1e149e056bcb3f42c94949bbd15e28", "lat": 38.86219466666667, "fusion_lon": 0.0, "fusion_lat": 0.0, "type": "electric_scooter", "name": "9f1e149e056bcb3f42c94949bbd15e28", "is_disabled": 0, "rental_uris": {"ios": "https://dc.lft.to/lastmile_qr_scan", "android": "https://dc.lft.to/lastmile_qr_scan"}, "is_reserved": 0}, {"lon": -77.07791566666667, "bike_id": "555ef863fdce2eb7cd06467b74367d1b", "lat": 38.99604, "fusion_lon": 0.0, "fusion_lat": 0.0, "type": "electric_bike", "name": "555ef863fdce2eb7cd06467b74367d1b", "is_disabled": 0, "rental_uris": {"ios": "https://dc.lft.to/lastmile_qr_scan", "android": "https://dc.lft.to/lastmile_qr_scan"}, "is_reserved": 0}, {"lon": -77.011956, "bike_id": "cd502e318b9b0629e4ad219afc3ad610", "lat": 38.8932155, "fusion_lon": 0.0, "fusion_lat": 0.0, "type": "electric_scooter", "name": "cd502e318b9b0629e4ad219afc3ad610", "is_disabled": 0, "rental_uris": {"ios": "https://dc.lft.to/lastmile_qr_scan", "android": "https://dc.lft.to/lastmile_qr_scan"}, "is_reserved": 0}, {"lon": -76.98879533333333, "bike_id": "9b2463aa73acf09ea2d24dee1ffebea5", "lat": 38.8666275, "fusion_lon": 0.0, "fusion_lat": 0.0, "type": "electric_scooter", "name": "9b2463aa73acf09ea2d24dee1ffebea5", "is_disabled": 0, "rental_uris": {"ios": "https://dc.lft.to/lastmile_qr_scan", "android": "https://dc.lft.to/lastmile_qr_scan"}, "is_reserved": 0}, {"lon": -77.0249235, "bike_id": "a65c874837735effa5a8a14c2f9dd04f", "lat": 38.941872833333335, "fusion_lon": 0.0, "fusion_lat": 0.0, "type": "electric_scooter", "name": "a65c874837735effa5a8a14c2f9dd04f", "is_disabled": 0, "rental_uris": {"ios": "https://dc.lft.to/lastmile_qr_scan", "android": "https://dc.lft.to/lastmile_qr_scan"}, "is_reserved": 0}, {"lon": -77.06136016666666, "bike_id": "bb428f7ae5be651d8b71f9e5a93402da", "lat": 38.9436115, "fusion_lon": 0.0, "fusion_lat": 0.0, "type": "electric_scooter", "name": "bb428f7ae5be651d8b71f9e5a93402da", "is_disabled": 0, "rental_uris": {"ios": "https://dc.lft.to/lastmile_qr_scan", "android": "https://dc.lft.to/lastmile_qr_scan"}, "is_reserved": 0}, {"lon": -76.99782283333333, "bike_id": "995090368a2ec790420a79028cfe6128", "lat": 38.910638666666664, "fusion_lon": 0.0, "fusion_lat": 0.0, "type": "electric_scooter", "name": "995090368a2ec790420a79028cfe6128", "is_disabled": 0, "rental_uris": {"ios": "https://dc.lft.to/lastmile_qr_scan", "android": "https://dc.lft.to/lastmile_qr_scan"}, "is_reserved": 0}, {"lon": -77.04346166666667, "bike_id": "96c6b0540861cd851d23911422728971", "lat": 38.90785366666667, "fusion_lon": 0.0, "fusion_lat": 0.0, "type": "electric_scooter", "name": "96c6b0540861cd851d23911422728971", "is_disabled": 0, "rental_uris": {"ios": "https://dc.lft.to/lastmile_qr_scan", "android": "https://dc.lft.to/lastmile_qr_scan"}, "is_reserved": 0}, {"lon": -76.92911633333334, "bike_id": "59a762b3e58a53a1e75e3af272625b4f", "lat": 38.893005, "fusion_lon": 0.0, "fusion_lat": 0.0, "type": "electric_scooter", "name": "59a762b3e58a53a1e75e3af272625b4f", "is_disabled": 0, "rental_uris": {"ios": "https://dc.lft.to/lastmile_qr_scan", "android": "https://dc.lft.to/lastmile_qr_scan"}, "is_reserved": 0}, {"lon": -77.0350045, "bike_id": "4a4585fc8e73ca244b15a8c52f527aac", "lat": 38.92479183333333, "fusion_lon": 0.0, "fusion_lat": 0.0, "type": "electric_scooter", "name": "4a4585fc8e73ca244b15a8c52f527aac", "is_disabled": 0, "rental_uris": {"ios": "https://dc.lft.to/lastmile_qr_scan", "android": "https://dc.lft.to/lastmile_qr_scan"}, "is_reserved": 0}, {"lon": -77.0012845, "bike_id": "cc200f072c3adf2422586bbf931a3fe0", "lat": 38.885253166666665, "fusion_lon": 0.0, "fusion_lat": 0.0, "type": "electric_scooter", "name": "cc200f072c3adf2422586bbf931a3fe0", "is_disabled": 0, "rental_uris": {"ios": "https://dc.lft.to/lastmile_qr_scan", "android": "https://dc.lft.to/lastmile_qr_scan"}, "is_reserved": 0}, {"lon": -77.0511805, "bike_id": "f3f3d3cc9f33a37a245b04e91041df71", "lat": 38.923447333333336, "fusion_lon": 0.0, "fusion_lat": 0.0, "type": "electric_scooter", "name": "f3f3d3cc9f33a37a245b04e91041df71", "is_disabled": 0, "rental_uris": {"ios": "https://dc.lft.to/lastmile_qr_scan", "android": "https://dc.lft.to/lastmile_qr_scan"}, "is_reserved": 0}, {"lon": -77.00277666666666, "bike_id": "2c3a44f2cc6873c3a8178c84a89776a5", "lat": 38.918084666666665, "fusion_lon": 0.0, "fusion_lat": 0.0, "type": "electric_scooter", "name": "2c3a44f2cc6873c3a8178c84a89776a5", "is_disabled": 0, "rental_uris": {"ios": "https://dc.lft.to/lastmile_qr_scan", "android": "https://dc.lft.to/lastmile_qr_scan"}, "is_reserved": 0}, {"lon": -77.025813, "bike_id": "b795236c6da7cb4c437bb34184d55838", "lat": 38.90373966666667, "fusion_lon": 0.0, "fusion_lat": 0.0, "type": "electric_scooter", "name": "b795236c6da7cb4c437bb34184d55838", "is_disabled": 0, "rental_uris": {"ios": "https://dc.lft.to/lastmile_qr_scan", "android": "https://dc.lft.to/lastmile_qr_scan"}, "is_reserved": 0}, {"lon": -77.0092875, "bike_id": "a0d279bb07be20704a12e5717cee4b48", "lat": 38.91806866666667, "fusion_lon": 0.0, "fusion_lat": 0.0, "type": "electric_scooter", "name": "a0d279bb07be20704a12e5717cee4b48", "is_disabled": 0, "rental_uris": {"ios": "https://dc.lft.to/lastmile_qr_scan", "android": "https://dc.lft.to/lastmile_qr_scan"}, "is_reserved": 0}, {"lon": -77.02899066666667, "bike_id": "dfc74b8e6f2338b6a26f5f410340fd82", "lat": 38.90371783333333, "fusion_lon": 0.0, "fusion_lat": 0.0, "type": "electric_scooter", "name": "dfc74b8e6f2338b6a26f5f410340fd82", "is_disabled": 0, "rental_uris": {"ios": "https://dc.lft.to/lastmile_qr_scan", "android": "https://dc.lft.to/lastmile_qr_scan"}, "is_reserved": 0}, {"lon": -76.986667, "bike_id": "610f189bdab87d7396862219be48831a", "lat": 38.902533166666664, "fusion_lon": 0.0, "fusion_lat": 0.0, "type": "electric_scooter", "name": "610f189bdab87d7396862219be48831a", "is_disabled": 0, "rental_uris": {"ios": "https://dc.lft.to/lastmile_qr_scan", "android": "https://dc.lft.to/lastmile_qr_scan"}, "is_reserved": 0}, {"lon": -77.04717516666666, "bike_id": "9818bfe8e1fea6ba7823f2c2b9616395", "lat": 38.92236333333334, "fusion_lon": 0.0, "fusion_lat": 0.0, "type": "electric_scooter", "name": "9818bfe8e1fea6ba7823f2c2b9616395", "is_disabled": 0, "rental_uris": {"ios": "https://dc.lft.to/lastmile_qr_scan", "android": "https://dc.lft.to/lastmile_qr_scan"}, "is_reserved": 0}, {"lon": -77.0273105, "bike_id": "9f7cb731dc0bbc9d7852f2d500112f1a", "lat": 38.928421166666666, "fusion_lon": 0.0, "fusion_lat": 0.0, "type": "electric_scooter", "name": "9f7cb731dc0bbc9d7852f2d500112f1a", "is_disabled": 0, "rental_uris": {"ios": "https://dc.lft.to/lastmile_qr_scan", "android": "https://dc.lft.to/lastmile_qr_scan"}, "is_reserved": 0}, {"lon": -77.042686, "bike_id": "56c85ace2c2d4121be89fd564d94d39c", "lat": 38.91789383333333, "fusion_lon": 0.0, "fusion_lat": 0.0, "type": "electric_scooter", "name": "56c85ace2c2d4121be89fd564d94d39c", "is_disabled": 0, "rental_uris": {"ios": "https://dc.lft.to/lastmile_qr_scan", "android": "https://dc.lft.to/lastmile_qr_scan"}, "is_reserved": 0}, {"lon": -77.00065283333333, "bike_id": "08a438843b21f226d66ee17cbe0b20e6", "lat": 38.924375, "fusion_lon": 0.0, "fusion_lat": 0.0, "type": "electric_scooter", "name": "08a438843b21f226d66ee17cbe0b20e6", "is_disabled": 0, "rental_uris": {"ios": "https://dc.lft.to/lastmile_qr_scan", "android": "https://dc.lft.to/lastmile_qr_scan"}, "is_reserved": 0}, {"lon": -77.05220066666666, "bike_id": "0c5123d22ce380e34728ff4ac769993e", "lat": 38.90016883333333, "fusion_lon": 0.0, "fusion_lat": 0.0, "type": "electric_scooter", "name": "0c5123d22ce380e34728ff4ac769993e", "is_disabled": 0, "rental_uris": {"ios": "https://dc.lft.to/lastmile_qr_scan", "android": "https://dc.lft.to/lastmile_qr_scan"}, "is_reserved": 0}, {"lon": -76.97617383333333, "bike_id": "8c9604df3382aac7e91aadb342cf5029", "lat": 38.90381816666667, "fusion_lon": 0.0, "fusion_lat": 0.0, "type": "electric_scooter", "name": "8c9604df3382aac7e91aadb342cf5029", "is_disabled": 0, "rental_uris": {"ios": "https://dc.lft.to/lastmile_qr_scan", "android": "https://dc.lft.to/lastmile_qr_scan"}, "is_reserved": 0}, {"lon": -77.02400483333334, "bike_id": "d3c6a2779dfa4bcf622870d8b027a64a", "lat": 38.91764416666667, "fusion_lon": 0.0, "fusion_lat": 0.0, "type": "electric_scooter", "name": "d3c6a2779dfa4bcf622870d8b027a64a", "is_disabled": 0, "rental_uris": {"ios": "https://dc.lft.to/lastmile_qr_scan", "android": "https://dc.lft.to/lastmile_qr_scan"}, "is_reserved": 0}, {"lon": -76.93608, "bike_id": "d54aca254d830455e23a92f3cb329dbf", "lat": 38.89685816666667, "fusion_lon": 0.0, "fusion_lat": 0.0, "type": "electric_scooter", "name": "d54aca254d830455e23a92f3cb329dbf", "is_disabled": 0, "rental_uris": {"ios": "https://dc.lft.to/lastmile_qr_scan", "android": "https://dc.lft.to/lastmile_qr_scan"}, "is_reserved": 0}, {"lon": -76.9992475, "bike_id": "6a0bea0d2d77c2207ac573459c2545c0", "lat": 38.90914016666667, "fusion_lon": 0.0, "fusion_lat": 0.0, "type": "electric_scooter", "name": "6a0bea0d2d77c2207ac573459c2545c0", "is_disabled": 0, "rental_uris": {"ios": "https://dc.lft.to/lastmile_qr_scan", "android": "https://dc.lft.to/lastmile_qr_scan"}, "is_reserved": 0}, {"lon": -77.03862033333333, "bike_id": "b2cab0c3afd9b119eb153f37a0680c1d", "lat": 38.91560233333333, "fusion_lon": 0.0, "fusion_lat": 0.0, "type": "electric_scooter", "name": "b2cab0c3afd9b119eb153f37a0680c1d", "is_disabled": 0, "rental_uris": {"ios": "https://dc.lft.to/lastmile_qr_scan", "android": "https://dc.lft.to/lastmile_qr_scan"}, "is_reserved": 0}, {"lon": -77.0454085, "bike_id": "c2f6cbff9303733f6f156c3731cb79b4", "lat": 38.93406866666667, "fusion_lon": 0.0, "fusion_lat": 0.0, "type": "electric_scooter", "name": "c2f6cbff9303733f6f156c3731cb79b4", "is_disabled": 0, "rental_uris": {"ios": "https://dc.lft.to/lastmile_qr_scan", "android": "https://dc.lft.to/lastmile_qr_scan"}, "is_reserved": 0}, {"lon": -77.023414, "bike_id": "186d189dacacd8d7710505f7c7612ff0", "lat": 38.917677, "fusion_lon": 0.0, "fusion_lat": 0.0, "type": "electric_scooter", "name": "186d189dacacd8d7710505f7c7612ff0", "is_disabled": 0, "rental_uris": {"ios": "https://dc.lft.to/lastmile_qr_scan", "android": "https://dc.lft.to/lastmile_qr_scan"}, "is_reserved": 0}, {"lon": -77.023005, "bike_id": "11042afbcb15439ac117f5e21270436d", "lat": 38.9268585, "fusion_lon": 0.0, "fusion_lat": 0.0, "type": "electric_scooter", "name": "11042afbcb15439ac117f5e21270436d", "is_disabled": 0, "rental_uris": {"ios": "https://dc.lft.to/lastmile_qr_scan", "android": "https://dc.lft.to/lastmile_qr_scan"}, "is_reserved": 0}, {"lon": -77.01739816666667, "bike_id": "cb506a3142ddf8d9c42b63ff6569ba50", "lat": 38.903728, "fusion_lon": 0.0, "fusion_lat": 0.0, "type": "electric_scooter", "name": "cb506a3142ddf8d9c42b63ff6569ba50", "is_disabled": 0, "rental_uris": {"ios": "https://dc.lft.to/lastmile_qr_scan", "android": "https://dc.lft.to/lastmile_qr_scan"}, "is_reserved": 0},