{"data": {"bikes": [{"rental_uris": {"android": "https://dc.lft.to/lastmile_qr_scan", "ios": "https://dc.lft.to/lastmile_qr_scan"}, "fusion_lat": 0.0, "is_reserved": 0, "lat": 38.857080333333336, "name": "2899fc6703e4fb8d3f01a118e545d09a", "bike_id": "2899fc6703e4fb8d3f01a118e545d09a", "is_disabled": 0, "fusion_lon": 0.0, "type": "electric_scooter", "lon": -76.98213983333333}, {"rental_uris": {"android": "https://dc.lft.to/lastmile_qr_scan", "ios": "https://dc.lft.to/lastmile_qr_scan"}, "fusion_lat": 0.0, "is_reserved": 0, "lat": 38.923358, "name": "28ee415290f673d7a6a72af11fb5da32", "bike_id": "28ee415290f673d7a6a72af11fb5da32", "is_disabled": 0, "fusion_lon": 0.0, "type": "electric_scooter", "lon": -77.035484}, {"rental_uris": {"android": "https://dc.lft.to/lastmile_qr_scan", "ios": "https://dc.lft.to/lastmile_qr_scan"}, "fusion_lat": 0.0, "is_reserved": 0, "lat": 38.8986365, "name": "cb5aa884ea0ea00c753f4baf78e9024a", "bike_id": "cb5aa884ea0ea00c753f4baf78e9024a", "is_disabled": 0, "fusion_lon": 0.0, "type": "electric_scooter", "lon": -76.94676233333334}, {"rental_uris": {"android": "https://dc.lft.to/lastmile_qr_scan", "ios": "https://dc.lft.to/lastmile_qr_scan"}, "fusion_lat": 0.0, "is_reserved": 0, "lat": 38.8706635, "name": "13c4f653f2aa69b6bc4a712c060c263b", "bike_id": "13c4f653f2aa69b6bc4a712c060c263b", "is_disabled": 0, "fusion_lon": 0.0, "type": "electric_scooter", "lon": -76.97909483333333}, {"rental_uris": {"android": "https://dc.lft.to/lastmile_qr_scan", "ios": "https://dc.lft.to/lastmile_qr_scan"}, "fusion_lat": 0.0, "is_reserved": 0, "lat": 38.920321333333334, "name": "ea39da5f577696a2ae5726391edcac6a", "bike_id": "ea39da5f577696a2ae5726391edcac6a", "is_disabled": 0, "fusion_lon": 0.0, "type": "electric_scooter", "lon": -77.04819983333333}, {"rental_uris": {"android": "https://dc.lft.to/lastmile_qr_scan", "ios": "https://dc.lft.to/lastmile_qr_scan"}, "fusion_lat": 0.0, "is_reserved": 0, "lat": 38.916821666666664, "name": "af5d10b35afa86b7e291382a8fabad7f", "bike_id": "af5d10b35afa86b7e291382a8fabad7f", "is_disabled": 0, "fusion_lon": 0.0, "type": "electric_scooter", "lon": -77.0413995}, {"rental_uris": {"android": "https://dc.lft.to/lastmile_qr_scan", "ios": "https://dc.lft.to/lastmile_qr_scan"}, "fusion_lat": 0.0, "is_reserved": 0, "lat": 38.89720783333333, "name": "93fff47ff030a65e5cfd0ef7898442c1", "bike_id": "93fff47ff030a65e5cfd0ef7898442c1", "is_disabled": 0, "fusion_lon": 0.0, "type": "electric_scooter", "lon": -77.0249385}, {"rental_uris": {"android": "https://dc.lft.to/lastmile_qr_scan", "ios": "https://dc.lft.to/lastmile_qr_scan"}, "fusion_lat": 0.0, "is_reserved": 0, "lat": 38.912544833333335, "name": "cd28c7e99057007ac4a8f9ab24e2452b", "bike_id": "cd28c7e99057007ac4a8f9ab24e2452b", "is_disabled": 0, "fusion_lon": 0.0, "type": "electric_scooter", "lon": -77.03869933333333}, {"rental_uris": {"android": "https://dc.lft.to/lastmile_qr_scan", "ios": "https://dc.lft.to/lastmile_qr_scan"}, "fusion_lat": 0.0, "is_reserved": 0, "lat": 38.94413016666667, "name": "09d5bd7030091ce5176e35d20772dad0", "bike_id": "09d5bd7030091ce5176e35d20772dad0", "is_disabled": 0, "fusion_lon": 0.0, "type": "electric_scooter", "lon": -77.06321933333334}, {"rental_uris": {"android": "https://dc.lft.to/lastmile_qr_scan", "ios": "https://dc.lft.to/lastmile_qr_scan"}, "fusion_lat": 0.0, "is_reserved": 0, "lat": 38.883499666666665, "name": "66adbca2447e113f3624c7935c397ab5", "bike_id": "66adbca2447e113f3624c7935c397ab5", "is_disabled": 0, "fusion_lon": 0.0, "type": "electric_scooter", "lon": -76.9926875}, {"rental_uris": {"android": "https://dc.lft.to/lastmile_qr_scan", "ios": "https://dc.lft.to/lastmile_qr_scan"}, "fusion_lat": 0.0, "is_reserved": 0, "lat": 38.903028166666665, "name": "32a8f57d4f38227036437558ec8a9f3a", "bike_id": "32a8f57d4f38227036437558ec8a9f3a", "is_disabled": 0, "fusion_lon": 0.0, "type": "electric_scooter", "lon": -77.05807233333333}, {"rental_uris": {"android": "https://dc.lft.to/lastmile_qr_scan", "ios": "https://dc.lft.to/lastmile_qr_scan"}, "fusion_lat": 0.0, "is_reserved": 0, "lat": 38.91121616666667, "name": "ba5ce3615a8ef72c2a66d8a5c7536f96", "bike_id": "ba5ce3615a8ef72c2a66d8a5c7536f96", "is_disabled": 0, "fusion_lon": 0.0, "type": "electric_scooter", "lon": -77.02199216666666}, {"rental_uris": {"android": "https://dc.lft.to/lastmile_qr_scan", "ios": "https://dc.lft.to/lastmile_qr_scan"}, "fusion_lat": 0.0, "is_reserved": 0, "lat": 38.88515133333333, "name": "c5650f11c695227abdb30236d8b3dded", "bike_id": "c5650f11c695227abdb30236d8b3dded", "is_disabled": 0, "fusion_lon": 0.0, "type": "electric_scooter", "lon": -76.99674933333333}, {"rental_uris": {"android": "https://dc.lft.to/lastmile_qr_scan", "ios": "https://dc.lft.to/lastmile_qr_scan"}, "fusion_lat": 0.0, "is_reserved": 0, "lat": 38.91607033333333, "name": "c0511cccb4d28d67cbc83fdd0f4d97b2", "bike_id": "c0511cccb4d28d67cbc83fdd0f4d97b2", "is_disabled": 0, "fusion_lon": 0.0, "type": "electric_scooter", "lon": -77.04589266666666}, {"rental_uris": {"android": "https://dc.lft.to/lastmile_qr_scan", "ios": "https://dc.lft.to/lastmile_qr_scan"}, "fusion_lat": 0.0, "is_reserved": 0, "lat": 38.923905833333336, "name": "efd3bd47da43c2d5947cf6fa490a79a8", "bike_id": "efd3bd47da43c2d5947cf6fa490a79a8", "is_disabled": 0, "fusion_lon": 0.0, "type": "electric_scooter", "lon": -77.036524}, {"rental_uris": {"android": "https://dc.lft.to/lastmile_qr_scan", "ios": "https://dc.lft.to/lastmile_qr_scan"}, "fusion_lat": 0.0, "is_reserved": 0, "lat": 38.89235166666667, "name": "d4442d381c423094fbd9d1244691db46", "bike_id": "d4442d381c423094fbd9d1244691db46", "is_disabled": 0, "fusion_lon": 0.0, "type": "electric_scooter", "lon": -77.02385683333334}, {"rental_uris": {"android": "https://dc.lft.to/lastmile_qr_scan", "ios": "https://dc.lft.to/lastmile_qr_scan"}, "fusion_lat": 0.0, "is_reserved": 0, "lat": 38.9215995, "name": "9b3f1762815965924fc4f6f6f4b74727", "bike_id": "9b3f1762815965924fc4f6f6f4b74727", "is_disabled": 0, "fusion_lon": 0.0, "type": "electric_scooter", "lon": -77.0266565}, {"rental_uris": {"android": "https://dc.lft.to/lastmile_qr_scan", "ios": "https://dc.lft.to/lastmile_qr_scan"}, "fusion_lat": 0.0, "is_reserved": 0, "lat": 38.94365033333333, "name": "243cd66ed2571a2b787a6fcf49d623d9", "bike_id": "243cd66ed2571a2b787a6fcf49d623d9", "is_disabled": 0, "fusion_lon": 0.0, "type": "electric_scooter", "lon": -77.0610525}, {"rental_uris": {"android": "https://dc.lft.to/lastmile_qr_scan", "ios": "https://dc.lft.to/lastmile_qr_scan"}, "fusion_lat": 0.0, "is_reserved": 0, "lat": 38.95752616666667, "name": "0d20802caaa87ef167e1aa9d4949d62c", "bike_id": "0d20802caaa87ef167e1aa9d4949d62c", "is_disabled": 0, "fusion_lon": 0.0, "type": "electric_scooter", "lon": -77.00915416666666}, {"rental_uris": {"android": "https://dc.lft.to/lastmile_qr_scan", "ios": "https://dc.lft.to/lastmile_qr_scan"}, "fusion_lat": 0.0, "is_reserved": 0, "lat": 38.8765765, "name": "38868e0eae2f5c24ec59ba97ba8c9709", "bike_id": "38868e0eae2f5c24ec59ba97ba8c9709", "is_disabled": 0, "fusion_lon": 0.0, "type": "electric_scooter", "lon": -76.9931935}, {"rental_uris": {"android": "https://dc.lft.to/lastmile_qr_scan", "ios": "https://dc.lft.to/lastmile_qr_scan"}, "fusion_lat": 0.0, "is_reserved": 0, "lat": 38.92010333333333, "name": "40f5cc0d8320a180b580ad285af51e5f", "bike_id": "40f5cc0d8320a180b580ad285af51e5f", "is_disabled": 0, "fusion_lon": 0.0, "type": "electric_scooter", "lon": -77.03781633333334}, {"rental_uris": {"android": "https://dc.lft.to/lastmile_qr_scan", "ios": "https://dc.lft.to/lastmile_qr_scan"}, "fusion_lat": 0.0, "is_reserved": 0, "lat": 38.911681, "name": "cb26a526d398bd81faeed95a6e16630c", "bike_id": "cb26a526d398bd81faeed95a6e16630c", "is_disabled": 0, "fusion_lon": 0.0, "type": "electric_scooter", "lon": -77.06628266666667}, {"rental_uris": {"android": "https://dc.lft.to/lastmile_qr_scan", "ios": "https://dc.lft.to/lastmile_qr_scan"}, "fusion_lat": 0.0, "is_reserved": 0, "lat": 38.98226416666667, "name": "e969ac1f0ddcb4a1742ef7fc5eebed7f", "bike_id": "e969ac1f0ddcb4a1742ef7fc5eebed7f", "is_disabled": 0, "fusion_lon": 0.0, "type": "electric_scooter", "lon": -77.026427}, {"rental_uris": {"android": "https://dc.lft.to/lastmile_qr_scan", "ios": "https://dc.lft.to/lastmile_qr_scan"}, "fusion_lat": 0.0, "is_reserved": 0, "lat": 38.92498416666667, "name": "ac1f7aa75ba7b44e6af219ed3de48a1a", "bike_id": "ac1f7aa75ba7b44e6af219ed3de48a1a", "is_disabled": 0, "fusion_lon": 0.0, "type": "electric_scooter", "lon": -77.0216645}, {"rental_uris": {"android": "https://dc.lft.to/lastmile_qr_scan", "ios": "https://dc.lft.to/lastmile_qr_scan"}, "fusion_lat": 0.0, "is_reserved": 0, "lat": 38.902388, "name": "176275bad1b5a6c92938155af3dacb41", "bike_id": "176275bad1b5a6c92938155af3dacb41", "is_disabled": 0, "fusion_lon": 0.0, "type": "electric_scooter", "lon": -77.00199716666667}, {"rental_uris": {"android": "https://dc.lft.to/lastmile_qr_scan", "ios": "https://dc.lft.to/lastmile_qr_scan"}, "fusion_lat": 0.0, "is_reserved": 0, "lat": 38.944125166666666, "name": "0fe445077a1fbb6b58ac551ac9a59499", "bike_id": "0fe445077a1fbb6b58ac551ac9a59499", "is_disabled": 0, "fusion_lon": 0.0, "type": "electric_scooter", "lon": -77.063215}, {"rental_uris": {"android": "https://dc.lft.to/lastmile_qr_scan", "ios": "https://dc.lft.to/lastmile_qr_scan"}, "fusion_lat": 0.0, "is_reserved": 0, "lat": 38.883273833333334, "name": "07bc9027322ccae5d976dc6c2855c367", "bike_id": "07bc9027322ccae5d976dc6c2855c367", "is_disabled": 0, "fusion_lon": 0.0, "type": "electric_bike", "lon": -76.960594}, {"rental_uris": {"android": "https://dc.lft.to/lastmile_qr_scan", "ios": "https://dc.lft.to/lastmile_qr_scan"}, "fusion_lat": 0.0, "is_reserved": 0, "lat": 38.886269, "name": "d35212683d6a1c8ff915fbf0db119342", "bike_id": "d35212683d6a1c8ff915fbf0db119342", "is_disabled": 0, "fusion_lon": 0.0, "type": "electric_scooter", "lon": -77.0317035}, {"rental_uris": {"android": "https://dc.lft.to/lastmile_qr_scan", "ios": "https://dc.lft.to/lastmile_qr_scan"}, "fusion_lat": 0.0, "is_reserved": 0, "lat": 38.9317055, "name": "ceea3839a1cb5063090864c9316326d7", "bike_id": "ceea3839a1cb5063090864c9316326d7", "is_disabled": 0, "fusion_lon": 0.0, "type": "electric_scooter", "lon": -76.9960945}, {"rental_uris": {"android": "https://dc.lft.to/lastmile_qr_scan", "ios": "https://dc.lft.to/lastmile_qr_scan"}, "fusion_lat": 0.0, "is_reserved": 0, "lat": 38.89328666666667, "name": "3811644ad7935081bf2bf645c441226f", "bike_id": "3811644ad7935081bf2bf645c441226f", "is_disabled": 0, "fusion_lon": 0.0, "type": "electric_scooter", "lon": -77.04678633333333}, {"rental_uris": {"android": "https://dc.lft.to/lastmile_qr_scan", "ios": "https://dc.lft.to/lastmile_qr_scan"}, "fusion_lat": 0.0, "is_reserved": 0, "lat": 38.78398983333334, "name": "09cb22ce68b141f4bf2de1d9efe2de38", "bike_id": "09cb22ce68b141f4bf2de1d9efe2de38", "is_disabled": 0, "fusion_lon": 0.0, "type": "electric_bike", "lon": -77.12076866666666}, {"rental_uris": {"android": "https://dc.lft.to/lastmile_qr_scan", "ios": "https://dc.lft.to/lastmile_qr_scan"}, "fusion_lat": 0.0, "is_reserved": 0, "lat": 38.90034716666667, "name": "b619f283827bd0041f88f4227a4a2ae2", "bike_id": "b619f283827bd0041f88f4227a4a2ae2", "is_disabled": 0, "fusion_lon": 0.0, "type": "electric_scooter", "lon": -77.00198583333334}, {"rental_uris": {"android": "https://dc.lft.to/lastmile_qr_scan", "ios": "https://dc.lft.to/lastmile_qr_scan"}, "fusion_lat": 0.0, "is_reserved": 0, "lat": 38.913219, "name": "e8cc70688efc0122523084f43922b26a", "bike_id": "e8cc70688efc0122523084f43922b26a", "is_disabled": 0, "fusion_lon": 0.0, "type": "electric_scooter", "lon": -77.01672016666667}, {"rental_uris": {"android": "https://dc.lft.to/lastmile_qr_scan", "ios": "https://dc.lft.to/lastmile_qr_scan"}, "fusion_lat": 0.0, "is_reserved": 0, "lat": 38.900364833333335, "name": "e88fa4bd9cc687d450549038357a61c7", "bike_id": "e88fa4bd9cc687d450549038357a61c7", "is_disabled": 0, "fusion_lon": 0.0, "type": "electric_scooter", "lon": -77.013147}, {"rental_uris": {"android": "https://dc.lft.to/lastmile_qr_scan", "ios": "https://dc.lft.to/lastmile_qr_scan"}, "fusion_lat": 0.0, "is_reserved": 0, "lat": 38.88329066666667, "name": "082aa0f34935341c5391b7093a8dc0b6", "bike_id": "082aa0f34935341c5391b7093a8dc0b6", "is_disabled": 0, "fusion_lon": 0.0, "type": "electric_scooter", "lon": -77.00961483333333}, {"rental_uris": {"android": "https://dc.lft.to/lastmile_qr_scan", "ios": "https://dc.lft.to/lastmile_qr_scan"}, "fusion_lat": 0.0, "is_reserved": 0, "lat": 38.909001333333336, "name": "25df1a661d16443ad6f183d67d88f811", "bike_id": "25df1a661d16443ad6f183d67d88f811", "is_disabled": 0, "fusion_lon": 0.0, "type": "electric_scooter", "lon": -76.983956}, {"rental_uris": {"android": "https://dc.lft.to/lastmile_qr_scan", "ios": "https://dc.lft.to/lastmile_qr_scan"}, "fusion_lat": 0.0, "is_reserved": 0, "lat": 38.928011, "name": "d4c0a73c49157160e579006de5916543", "bike_id": "d4c0a73c49157160e579006de5916543", "is_disabled": 0, "fusion_lon": 0.0, "type": "electric_scooter", "lon": -77.025979}, {"rental_uris": {"android": "https://dc.lft.to/lastmile_qr_scan", "ios": "https://dc.lft.to/lastmile_qr_scan"}, "fusion_lat": 0.0, "is_reserved": 0, "lat": 38.90178983333333, "name": "ad9d82cb97b1835d4c60e98be5e927e4", "bike_id": "ad9d82cb97b1835d4c60e98be5e927e4", "is_disabled": 0, "fusion_lon": 0.0, "type": "electric_scooter", "lon": -77.00116066666666}, {"rental_uris": {"android": "https://dc.lft.to/lastmile_qr_scan", "ios": "https://dc.lft.to/lastmile_qr_scan"}, "fusion_lat": 0.0, "is_reserved": 0, "lat": 38.895096333333335, "name": "f8b650bee4c29c74e6783f43ef85961b", "bike_id": "f8b650bee4c29c74e6783f43ef85961b", "is_disabled": 0, "fusion_lon": 0.0, "type": "electric_scooter", "lon": -77.0282995}, {"rental_uris": {"android": "https://dc.lft.to/lastmile_qr_scan", "ios": "https://dc.lft.to/lastmile_qr_scan"}, "fusion_lat": 0.0, "is_reserved": 0, "lat": 38.91915516666667, "name": "757c353fad00c935de49b8a29bc470ef", "bike_id": "757c353fad00c935de49b8a29bc470ef", "is_disabled": 0, "fusion_lon": 0.0, "type": "electric_scooter", "lon": -77.03415666666666}, {"rental_uris": {"android": "https://dc.lft.to/lastmile_qr_scan", "ios": "https://dc.lft.to/lastmile_qr_scan"}, "fusion_lat": 0.0, "is_reserved": 0, "lat": 38.935342, "name": "8a28ba87d568ae22279ad1b277a84247", "bike_id": "8a28ba87d568ae22279ad1b277a84247", "is_disabled": 0, "fusion_lon": 0.0, "type": "electric_scooter", "lon": -77.02345283333334}, {"rental_uris": {"android": "https://dc.lft.to/lastmile_qr_scan", "ios": "https://dc.lft.to/lastmile_qr_scan"}, "fusion_lat": 0.0, "is_reserved": 0, "lat": 38.905717333333335, "name": "828ddf32f7a253f8f099e7ab26233cef", "bike_id": "828ddf32f7a253f8f099e7ab26233cef", "is_disabled": 0, "fusion_lon": 0.0, "type": "electric_scooter", "lon": -77.0221415}, {"rental_uris": {"android": "https://dc.lft.to/lastmile_qr_scan", "ios": "https://dc.lft.to/lastmile_qr_scan"}, "fusion_lat": 0.0, "is_reserved": 0, "lat": 38.927782, "name": "ff4d04bd6aaa7a938f9fdbff9393dd28", "bike_id": "ff4d04bd6aaa7a938f9fdbff9393dd28", "is_disabled": 0, "fusion_lon": 0.0, "type": "electric_scooter", "lon": -77.03150466666666}, {"rental_uris": {"android": "https://dc.lft.to/lastmile_qr_scan", "ios": "https://dc.lft.to/lastmile_qr_scan"}, "fusion_lat": 0.0, "is_reserved": 0, "lat": 38.901041, "name": "c011efa5ae99f40efb010892ef890b16", "bike_id": "c011efa5ae99f40efb010892ef890b16", "is_disabled": 0, "fusion_lon": 0.0, "type": "electric_scooter", "lon": -77.01868233333333}, {"rental_uris": {"android": "https://dc.lft.to/lastmile_qr_scan", "ios": "https://dc.lft.to/lastmile_qr_scan"}, "fusion_lat": 0.0, "is_reserved": 0, "lat": 38.9362155, "name": "c1a75b671bfd5e04c49be74bccc4449f", "bike_id": "c1a75b671bfd5e04c49be74bccc4449f", "is_disabled": 0, "fusion_lon": 0.0, "type": "electric_scooter", "lon": -77.05908366666667}, {"rental_uris": {"android": "https://dc.lft.to/lastmile_qr_scan", "ios": "https://dc.lft.to/lastmile_qr_scan"}, "fusion_lat": 0.0, "is_reserved": 0, "lat": 38.944248333333334, "name": "b1ce0c30475b476deacc65e41925b3d7", "bike_id": "b1ce0c30475b476deacc65e41925b3d7", "is_disabled": 0, "fusion_lon": 0.0, "type": "electric_scooter", "lon": -77.077498}, {"rental_uris": {"android": "https://dc.lft.to/lastmile_qr_scan", "ios": "https://dc.lft.to/lastmile_qr_scan"}, "fusion_lat": 0.0, "is_reserved": 0, "lat": 38.90946016666667, "name": "998c5b77567717840545dcf37bbb3613", "bike_id": "998c5b77567717840545dcf37bbb3613", "is_disabled": 0, "fusion_lon": 0.0, "type": "electric_scooter", "lon": -77.0189265}, {"rental_uris": {"android": "https://dc.lft.to/lastmile_qr_scan", "ios": "https://dc.lft.to/lastmile_qr_scan"}, "fusion_lat": 0.0, "is_reserved": 0, "lat": 38.92468066666667, "name": "499476235b16ad4f70ed4fd7aa47cec1", "bike_id": "499476235b16ad4f70ed4fd7aa47cec1", "is_disabled": 0, "fusion_lon": 0.0, "type": "electric_scooter", "lon": -77.03725066666667}, {"rental_uris": {"android": "https://dc.lft.to/lastmile_qr_scan", "ios": "https://dc.lft.to/lastmile_qr_scan"}, "fusion_lat": 0.0, "is_reserved": 0, "lat": 38.947250833333335, "name": "0bfe56588d07bff95a0c8aaa7a1d63c5", "bike_id": "0bfe56588d07bff95a0c8aaa7a1d63c5", "is_disabled": 0, "fusion_lon": 0.0, "type": "electric_scooter", "lon": -77.033008}, {"rental_uris": {"android": "https://dc.lft.to/lastmile_qr_scan", "ios": "https://dc.lft.to/lastmile_qr_scan"}, "fusion_lat": 0.0, "is_reserved": 0, "lat": 38.95388633333334, "name": "3f39a4bfec3991c7aeed3e91e56759a4", "bike_id": "3f39a4bfec3991c7aeed3e91e56759a4", "is_disabled": 0, "fusion_lon": 0.0, "type": "electric_scooter", "lon": -77.0064265}, {"rental_uris": {"android": "https://dc.lft.to/lastmile_qr_scan", "ios": "https://dc.lft.to/lastmile_qr_scan"}, "fusion_lat": 0.0, "is_reserved": 0, "lat": 38.91793166666667, "name": "d34fef4d3031aaa286b563fa1273eb41", "bike_id": "d34fef4d3031aaa286b563fa1273eb41", "is_disabled": 0, "fusion_lon": 0.0, "type": "electric_scooter", "lon": -77.03216283333333}, {"rental_uris": {"android": "https://dc.lft.to/lastmile_qr_scan", "ios": "https://dc.lft.to/lastmile_qr_scan"}, "fusion_lat": 0.0, "is_reserved": 0, "lat": 38.886716, "name": "4170fe476b14207cf85cc036f5ef6346", "bike_id": "4170fe476b14207cf85cc036f5ef6346", "is_disabled": 0, "fusion_lon": 0.0, "type": "electric_scooter", "lon": -77.031656}, {"rental_uris": {"android": "https://dc.lft.to/lastmile_qr_scan", "ios": "https://dc.lft.to/lastmile_qr_scan"}, "fusion_lat": 0.0, "is_reserved": 0, "lat": 38.860178, "name": "d362ad84ce278012b918c53aff3deb0d", "bike_id": "d362ad84ce278012b918c53aff3deb0d", "is_disabled": 0, "fusion_lon": 0.0, "type": "electric_scooter", "lon": -76.97001366666667}, {"rental_uris": {"android": "https://dc.lft.to/lastmile_qr_scan", "ios": "https://dc.lft.to/lastmile_qr_scan"}, "fusion_lat": 0.0, "is_reserved": 0, "lat": 38.91452, "name": "fa5f4c4c6d7fd965136c9c839f46ccfa", "bike_id": "fa5f4c4c6d7fd965136c9c839f46ccfa", "is_disabled": 0, "fusion_lon": 0.0, "type": "electric_scooter", "lon": -77.04172866666667}, {"rental_uris": {"android": "https://dc.lft.to/lastmile_qr_scan", "ios": "https://dc.lft.to/lastmile_qr_scan"}, "fusion_lat": 0.0, "is_reserved": 0, "lat": 38.89544466666667, "name": "f1fca53dc748e189be1bf3451ee65a36", "bike_id": "f1fca53dc748e189be1bf3451ee65a36", "is_disabled": 0, "fusion_lon": 0.0, "type": "electric_scooter", "lon": -76.98337633333334}, {"rental_uris": {"android": "https://dc.lft.to/lastmile_qr_scan", "ios": "https://dc.lft.to/lastmile_qr_scan"}, "fusion_lat": 0.0, "is_reserved": 0, "lat": 38.914201166666665, "name": "23af23f00f6fc7fd3fb56afe1afbf799", "bike_id": "23af23f00f6fc7fd3fb56afe1afbf799", "is_disabled": 0, "fusion_lon": 0.0, "type": "electric_scooter", "lon": -77.0309965}, {"rental_uris": {"android": "https://dc.lft.to/lastmile_qr_scan", "ios": "https://dc.lft.to/lastmile_qr_scan"}, "fusion_lat": 0.0, "is_reserved": 0, "lat": 38.904016, "name": "636a67d326f5ab99a4956fd890692396", "bike_id": "636a67d326f5ab99a4956fd890692396", "is_disabled": 0, "fusion_lon": 0.0, "type": "electric_scooter", "lon": -76.9735135}, {"rental_uris": {"android": "https://dc.lft.to/lastmile_qr_scan", "ios": "https://dc.lft.to/lastmile_qr_scan"}, "fusion_lat": 0.0, "is_reserved": 0, "lat": 38.908908333333336, "name": "8b2786279d4e75aafc12997f5f576de4", "bike_id": "8b2786279d4e75aafc12997f5f576de4", "is_disabled": 0, "fusion_lon": 0.0, "type": "electric_scooter", "lon": -76.99860416666667}, {"rental_uris": {"android": "https://dc.lft.to/lastmile_qr_scan", "ios": "https://dc.lft.to/lastmile_qr_scan"}, "fusion_lat": 0.0, "is_reserved": 0, "lat": 38.9667695, "name": "854d2ab53c35e771fca49565703fbf2e", "bike_id": "854d2ab53c35e771fca49565703fbf2e", "is_disabled": 0, "fusion_lon": 0.0, "type": "electric_scooter", "lon": -77.03606616666667}, {"rental_uris": {"android": "https://dc.lft.to/lastmile_qr_scan", "ios": "https://dc.lft.to/lastmile_qr_scan"}, "fusion_lat": 0.0, "is_reserved": 0, "lat": 38.920302, "name": "4c2b2fe937ff6b57416f21fca660e6ad", "bike_id": "4c2b2fe937ff6b57416f21fca660e6ad", "is_disabled": 0, "fusion_lon": 0.0, "type": "electric_scooter", "lon": -77.03163283333333}, {"rental_uris": {"android": "https://dc.lft.to/lastmile_qr_scan", "ios": "https://dc.lft.to/lastmile_qr_scan"}, "fusion_lat": 0.0, "is_reserved": 0, "lat": 38.9518415, "name": "f38e341f50c1b288f484e8516aa005a6", "bike_id": "f38e341f50c1b288f484e8516aa005a6", "is_disabled": 0, "fusion_lon": 0.0, "type": "electric_scooter", "lon": -77.01267033333333}, {"rental_uris": {"android": "https://dc.lft.to/lastmile_qr_scan", "ios": "https://dc.lft.to/lastmile_qr_scan"}, "fusion_lat": 0.0, "is_reserved": 0, "lat": 38.89536233333333, "name": "0a9286b06bac4395517cc174340da2ea", "bike_id": "0a9286b06bac4395517cc174340da2ea", "is_disabled": 0, "fusion_lon": 0.0, "type": "electric_scooter", "lon": -76.92777683333334}, {"rental_uris": {"android": "https://dc.lft.to/lastmile_qr_scan", "ios": "https://dc.lft.to/lastmile_qr_scan"}, "fusion_lat": 0.0, "is_reserved": 0, "lat": 38.918065, "name": "236a86e697d738ad6d6b545489d9a444", "bike_id": "236a86e697d738ad6d6b545489d9a444", "is_disabled": 0, "fusion_lon": 0.0, "type": "electric_scooter", "lon": -77.03148516666667}, {"rental_uris": {"android": "https://dc.lft.to/lastmile_qr_scan", "ios": "https://dc.lft.to/lastmile_qr_scan"}, "fusion_lat": 0.0, "is_reserved": 0, "lat": 38.919179666666665, "name": "02f3f56ccacbb4f482c8a1b54628afaa", "bike_id": "02f3f56ccacbb4f482c8a1b54628afaa", "is_disabled": 0, "fusion_lon": 0.0, "type": "electric_scooter", "lon": -77.0421055}, {"rental_uris": {"android": "https://dc.lft.to/lastmile_qr_scan", "ios": "https://dc.lft.to/lastmile_qr_scan"}, "fusion_lat": 0.0, "is_reserved": 0, "lat": 38.921503333333334, "name": "55ca773b907ae6e571bac6fb5e1d90a8", "bike_id": "55ca773b907ae6e571bac6fb5e1d90a8", "is_disabled": 0, "fusion_lon": 0.0, "type": "electric_scooter", "lon": -77.03383883333333}, {"rental_uris": {"android": "https://dc.lft.to/lastmile_qr_scan", "ios": "https://dc.lft.to/lastmile_qr_scan"}, "fusion_lat": 0.0, "is_reserved": 0, "lat": 38.89774716666667, "name": "8ca535dca9354873115696de8f7dd15c", "bike_id": "8ca535dca9354873115696de8f7dd15c", "is_disabled": 0, "fusion_lon": 0.0, "type": "electric_scooter", "lon": -77.04777883333334}, {"rental_uris": {"android": "https://dc.lft.to/lastmile_qr_scan", "ios": "https://dc.lft.to/lastmile_qr_scan"}, "fusion_lat": 0.0, "is_reserved": 0, "lat": 38.9291765, "name": "ef74771638efca5ab37275652c9afc02", "bike_id": "ef74771638efca5ab37275652c9afc02", "is_disabled": 0, "fusion_lon": 0.0, "type": "electric_scooter", "lon": -76.998159}, {"rental_uris": {"android": "https://dc.lft.to/lastmile_qr_scan", "ios": "https://dc.lft.to/lastmile_qr_scan"}, "fusion_lat": 0.0, "is_reserved": 0, "lat": 38.924795, "name": "939cb309916f28550554c503b6893fcc", "bike_id": "939cb309916f28550554c503b6893fcc", "is_disabled": 0, "fusion_lon": 0.0, "type": "electric_scooter", "lon": -77.05212483333334}, {"rental_uris": {"android": "https://dc.lft.to/lastmile_qr_scan", "ios": "https://dc.lft.to/lastmile_qr_scan"}, "fusion_lat": 0.0, "is_reserved": 0, "lat": 38.906984666666666, "name": "6b0144c19adfc9589fc800cd110dcf00", "bike_id": "6b0144c19adfc9589fc800cd110dcf00", "is_disabled": 0, "fusion_lon": 0.0, "type": "electric_scooter", "lon": -77.02693933333333}, {"rental_uris": {"android": "https://dc.lft.to/lastmile_qr_scan", "ios": "https://dc.lft.to/lastmile_qr_scan"}, "fusion_lat": 0.0, "is_reserved": 0, "lat": 38.899499, "name": "0acf79adcc027d8e22861c81390f5cdf", "bike_id": "0acf79adcc027d8e22861c81390f5cdf", "is_disabled": 0, "fusion_lon": 0.0, "type": "electric_scooter", "lon": -77.05119983333333}, {"rental_uris": {"android": "https://dc.lft.to/lastmile_qr_scan", "ios": "https://dc.lft.to/lastmile_qr_scan"}, "fusion_lat": 0.0, "is_reserved": 0, "lat": 38.8935945, "name": "6044baac827ec880cf8aa80796c1b5b5", "bike_id": "6044baac827ec880cf8aa80796c1b5b5", "is_disabled": 0, "fusion_lon": 0.0, "type": "electric_scooter", "lon": -77.0033465}, {"rental_uris": {"android": "https://dc.lft.to/lastmile_qr_scan", "ios": "https://dc.lft.to/lastmile_qr_scan"}, "fusion_lat": 0.0, "is_reserved": 0, "lat": 38.903069333333335, "name": "fea5f98a9582a637d5b878b2661feec3", "bike_id": "fea5f98a9582a637d5b878b2661feec3", "is_disabled": 0, "fusion_lon": 0.0, "type": "electric_scooter", "lon": -76.98130066666667}, {"rental_uris": {"android": "https://dc.lft.to/lastmile_qr_scan", "ios": "https://dc.lft.to/lastmile_qr_scan"}, "fusion_lat": 0.0, "is_reserved": 0, "lat": 38.9247555, "name": "a375211029fa9514e1a6b9db1a4d985c", "bike_id": "a375211029fa9514e1a6b9db1a4d985c", "is_disabled": 0, "fusion_lon": 0.0, "type": "electric_scooter", "lon": -77.05224266666667}, {"rental_uris": {"android": "https://dc.lft.to/lastmile_qr_scan", "ios": "https://dc.lft.to/lastmile_qr_scan"}, "fusion_lat": 0.0, "is_reserved": 0, "lat": 38.8935705, "name": "99aea119edff25e98272381dce7bcc86", "bike_id": "99aea119edff25e98272381dce7bcc86", "is_disabled": 0, "fusion_lon": 0.0, "type": "electric_scooter", "lon": -77.003372}, {"rental_uris": {"android": "https://dc.lft.to/lastmile_qr_scan", "ios": "https://dc.lft.to/lastmile_qr_scan"}, "fusion_lat": 0.0, "is_reserved": 0, "lat": 38.9177925, "name": "13435c3256bf71c41245dc78e7b9e2ca", "bike_id": "13435c3256bf71c41245dc78e7b9e2ca", "is_disabled": 0, "fusion_lon": 0.0, "type": "electric_scooter", "lon": -77.02306683333333}, {"rental_uris": {"android": "https://dc.lft.to/lastmile_qr_scan", "ios": "https://dc.lft.to/lastmile_qr_scan"}, "fusion_lat": 0.0, "is_reserved": 0, "lat": 38.974984666666664, "name": "b524f5b73123e78b9309e6322ff35cd2", "bike_id": "b524f5b73123e78b9309e6322ff35cd2", "is_disabled": 0, "fusion_lon": 0.0, "type": "electric_scooter", "lon": -77.01697}, {"rental_uris": {"android": "https://dc.lft.to/lastmile_qr_scan", "ios": "https://dc.lft.to/lastmile_qr_scan"}, "fusion_lat": 0.0, "is_reserved": 0, "lat": 38.938566333333334, "name": "178715e915512d5876cb85c105af45f6", "bike_id": "178715e915512d5876cb85c105af45f6", "is_disabled": 0, "fusion_lon": 0.0, "type": "electric_scooter", "lon": -77.02473266666667}, {"rental_uris": {"android": "https://dc.lft.to/lastmile_qr_scan", "ios": "https://dc.lft.to/lastmile_qr_scan"}, "fusion_lat": 0.0, "is_reserved": 0, "lat": 38.928265833333334, "name": "99e29d2dfe8b8c82976da7d52b2a3a37", "bike_id": "99e29d2dfe8b8c82976da7d52b2a3a37", "is_disabled": 0, "fusion_lon": 0.0, "type": "electric_scooter", "lon": -77.05420866666667}, {"rental_uris": {"android": "https://dc.lft.to/lastmile_qr_scan", "ios": "https://dc.lft.to/lastmile_qr_scan"}, "fusion_lat": 0.0, "is_reserved": 0, "lat": 38.936807, "name": "100a6eec4997e09eab2f2575101cf639", "bike_id": "100a6eec4997e09eab2f2575101cf639", "is_disabled": 0, "fusion_lon": 0.0, "type": "electric_scooter", "lon": -77.036306}, {"rental_uris": {"android": "https://dc.lft.to/lastmile_qr_scan", "ios": "https://dc.lft.to/lastmile_qr_scan"}, "fusion_lat": 0.0, "is_reserved": 0, "lat": 38.90081983333334, "name": "edf91685f2c2fc1d61fa180d77f4bd14", "bike_id": "edf91685f2c2fc1d61fa180d77f4bd14", "is_disabled": 0, "fusion_lon": 0.0, "type": "electric_scooter", "lon": -77.044899}, {"rental_uris": {"android": "https://dc.lft.to/lastmile_qr_scan", "ios": "https://dc.lft.to/lastmile_qr_scan"}, "fusion_lat": 0.0, "is_reserved": 0, "lat": 38.8879135, "name": "3953be4b6d1be35a7f9c8dbe53eb9808", "bike_id": "3953be4b6d1be35a7f9c8dbe53eb9808", "is_disabled": 0, "fusion_lon": 0.0, "type": "electric_scooter", "lon": -76.9771075}, {"rental_uris": {"android": "https://dc.lft.to/lastmile_qr_scan", "ios": "https://dc.lft.to/lastmile_qr_scan"}, "fusion_lat": 0.0, "is_reserved": 0, "lat": 38.898838833333336, "name": "398ff677e4a408ded39814dd442309cd", "bike_id": "398ff677e4a408ded39814dd442309cd", "is_disabled": 0, "fusion_lon": 0.0, "type": "electric_scooter", "lon": -76.98838966666666}, {"rental_uris": {"android": "https://dc.lft.to/lastmile_qr_scan", "ios": "https://dc.lft.to/lastmile_qr_scan"}, "fusion_lat": 0.0, "is_reserved": 0, "lat": 38.895434333333334, "name": "fe531e7743d87ded05f05aecef61d92b", "bike_id": "fe531e7743d87ded05f05aecef61d92b", "is_disabled": 0, "fusion_lon": 0.0, "type": "electric_scooter", "lon": -76.98339183333333}, {"rental_uris": {"android": "https://dc.lft.to/lastmile_qr_scan", "ios": "https://dc.lft.to/lastmile_qr_scan"}, "fusion_lat": 0.0, "is_reserved": 0, "lat": 38.952188, "name": "16ca7bbf5e62eff7ab6c7dcc141b26ac", "bike_id": "16ca7bbf5e62eff7ab6c7dcc141b26ac", "is_disabled": 0, "fusion_lon": 0.0, "type": "electric_scooter", "lon": -77.06976383333334}, {"rental_uris": {"android": "https://dc.lft.to/lastmile_qr_scan", "ios": "https://dc.lft.to/lastmile_qr_scan"}, "fusion_lat": 0.0, "is_reserved": 0, "lat": 38.92972133333333, "name": "0fb23123f671bb99ecc57de45fed6a7f", "bike_id": "0fb23123f671bb99ecc57de45fed6a7f", "is_disabled": 0, "fusion_lon": 0.0, "type": "electric_scooter", "lon": -77.02798016666667}, {"rental_uris": {"android": "https://dc.lft.to/lastmile_qr_scan", "ios": "https://dc.lft.to/lastmile_qr_scan"}, "fusion_lat": 0.0, "is_reserved": 0, "lat": 38.9125135, "name": "578b3452fb74abc99a19241bb3f54401", "bike_id": "578b3452fb74abc99a19241bb3f54401", "is_disabled": 0, "fusion_lon": 0.0, "type": "electric_scooter", "lon": -77.03444283333333}, {"rental_uris": {"android": "https://dc.lft.to/lastmile_qr_scan", "ios": "https://dc.lft.to/lastmile_qr_scan"}, "fusion_lat": 0.0, "is_reserved": 0, "lat": 38.940274333333335, "name": "19f4b2b92c4235203c4bd17e8dbbab97", "bike_id": "19f4b2b92c4235203c4bd17e8dbbab97", "is_disabled": 0, "fusion_lon": 0.0, "type": "electric_scooter", "lon": -77.02512633333333}, {"rental_uris": {"android": "https://dc.lft.to/lastmile_qr_scan", "ios": "https://dc.lft.to/lastmile_qr_scan"}, "fusion_lat": 0.0, "is_reserved": 0, "lat": 38.916994333333335, "name": "44092f4c712317a618b8130cde880cea", "bike_id": "44092f4c712317a618b8130cde880cea", "is_disabled": 0, "fusion_lon": 0.0, "type": "electric_scooter", "lon": -77.02675033333334}, {"rental_uris": {"android": "https://dc.lft.to/lastmile_qr_scan", "ios": "https://dc.lft.to/lastmile_qr_scan"}, "fusion_lat": 0.0, "is_reserved": 0, "lat": 38.933294, "name": "2eea614da321995d1ef7a2e32428dc6e", "bike_id": "2eea614da321995d1ef7a2e32428dc6e", "is_disabled": 0, "fusion_lon": 0.0, "type": "electric_scooter", "lon": -77.03637116666667}, {"rental_uris": {"android": "https://dc.lft.to/lastmile_qr_scan", "ios": "https://dc.lft.to/lastmile_qr_scan"}, "fusion_lat": 0.0, "is_reserved": 0, "lat": 38.92466666666667, "name": "fd2daf5d103bdc563d2c11a527d4a27a", "bike_id": "fd2daf5d103bdc563d2c11a527d4a27a", "is_disabled": 0, "fusion_lon": 0.0, "type": "electric_scooter", "lon": -77.02272516666666}, {"rental_uris": {"android": "https://dc.lft.to/lastmile_qr_scan", "ios": "https://dc.lft.to/lastmile_qr_scan"}, "fusion_lat": 0.0, "is_reserved": 0, "lat": 38.917933166666664, "name": "f9fdb80b018dc7d49ab238f4b81defc3", "bike_id": "f9fdb80b018dc7d49ab238f4b81defc3", "is_disabled": 0, "fusion_lon": 0.0, "type": "electric_scooter", "lon": -77.031793}, {"rental_uris": {"android": "https://dc.lft.to/lastmile_qr_scan", "ios": "https://dc.lft.to/lastmile_qr_scan"}, "fusion_lat": 0.0, "is_reserved": 0, "lat": 38.924203166666665, "name": "aca12040bf9cbb45ff5045d0508a0975", "bike_id": "aca12040bf9cbb45ff5045d0508a0975", "is_disabled": 0, "fusion_lon": 0.0, "type": "electric_scooter", "lon": -77.01952383333334}, {"rental_uris": {"android": "https://dc.lft.to/lastmile_qr_scan", "ios": "https://dc.lft.to/lastmile_qr_scan"}, "fusion_lat": 0.0, "is_reserved": 0, "lat": 38.916054333333335, "name": "dbd5f7cbdb694110ee340ce8dfd5a72e", "bike_id": "dbd5f7cbdb694110ee340ce8dfd5a72e", "is_disabled": 0, "fusion_lon": 0.0, "type": "electric_scooter", "lon": -77.0230165}, {"rental_uris": {"android": "https://dc.lft.to/lastmile_qr_scan", "ios": "https://dc.lft.to/lastmile_qr_scan"}, "fusion_lat": 0.0, "is_reserved": 0, "lat": 38.89222983333333, "name": "1f68bddf568790bb7e89369e71f2c7fa", "bike_id": "1f68bddf568790bb7e89369e71f2c7fa", "is_disabled": 0, "fusion_lon": 0.0, "type": "electric_scooter", "lon": -77.03989483333334}, {"rental_uris": {"android": "https://dc.lft.to/lastmile_qr_scan", "ios": "https://dc.lft.to/lastmile_qr_scan"}, "fusion_lat": 0.0, "is_reserved": 0, "lat": 38.87293233333333, "name": "cffeb7820ffe4843bf4e41b1512e3791", "bike_id": "cffeb7820ffe4843bf4e41b1512e3791", "is_disabled": 0, "fusion_lon": 0.0, "type": "electric_scooter", "lon": -77.00231366666667}, {"rental_uris": {"android": "https://dc.lft.to/lastmile_qr_scan", "ios": "https://dc.lft.to/lastmile_qr_scan"}, "fusion_lat": 0.0, "is_reserved": 0, "lat": 38.922376, "name": "b2a1518d30381236550fe17f1115460e", "bike_id": "b2a1518d30381236550fe17f1115460e", "is_disabled": 0, "fusion_lon": 0.0, "type": "electric_scooter", "lon": -77.0347715}, {"rental_uris": {"android": "https://dc.lft.to/lastmile_qr_scan", "ios": "https://dc.lft.to/lastmile_qr_scan"}, "fusion_lat": 0.0, "is_reserved": 0, "lat": 38.89791833333334, "name": "f6c2803ee101b08945a6f7d10fad0fe6", "bike_id": "f6c2803ee101b08945a6f7d10fad0fe6", "is_disabled": 0, "fusion_lon": 0.0, "type": "electric_scooter", "lon": -77.05456483333333}, {"rental_uris": {"android": "https://dc.lft.to/lastmile_qr_scan", "ios": "https://dc.lft.to/lastmile_qr_scan"}, "fusion_lat": 0.0, "is_reserved": 0, "lat": 38.88179933333333, "name": "5b3789327bc89193572d94eb7e60c055", "bike_id": "5b3789327bc89193572d94eb7e60c055", "is_disabled": 0, "fusion_lon": 0.0, "type": "electric_scooter", "lon": -76.99027133333334}, {"rental_uris": {"android": "https://dc.lft.to/lastmile_qr_scan", "ios": "https://dc.lft.to/lastmile_qr_scan"}, "fusion_lat": 0.0, "is_reserved": 0, "lat": 38.908783666666665, "name": "8dfe7a4494996d4ce9edf0cfe9e35b9a", "bike_id": "8dfe7a4494996d4ce9edf0cfe9e35b9a", "is_disabled": 0, "fusion_lon": 0.0, "type": "electric_scooter", "lon": -77.04395616666666}, {"rental_uris": {"android": "https://dc.lft.to/lastmile_qr_scan", "ios": "https://dc.lft.to/lastmile_qr_scan"}, "fusion_lat": 0.0, "is_reserved": 0, "lat": 38.9184585, "name": "ddcfc0fb2f9d4914562be5286b59f27d", "bike_id": "ddcfc0fb2f9d4914562be5286b59f27d", "is_disabled": 0, "fusion_lon": 0.0, "type": "electric_scooter", "lon": -77.02184166666666}, {"rental_uris": {"android": "https://dc.lft.to/lastmile_qr_scan", "ios": "https://dc.lft.to/lastmile_qr_scan"}, "fusion_lat": 0.0, "is_reserved": 0, "lat": 38.912866666666666, "name": "da9a45f4641d96d65f6fc4d8c4976769", "bike_id": "da9a45f4641d96d65f6fc4d8c4976769", "is_disabled": 0, "fusion_lon": 0.0, "type": "electric_scooter", "lon": -77.02300383333333}, {"rental_uris": {"android": "https://dc.lft.to/lastmile_qr_scan", "ios": "https://dc.lft.to/lastmile_qr_scan"}, "fusion_lat": 0.0, "is_reserved": 0, "lat": 38.91474766666666, "name": "fc24df7cdcae727d392e07a8f96dcdea", "bike_id": "fc24df7cdcae727d392e07a8f96dcdea", "is_disabled": 0, "fusion_lon": 0.0, "type": "electric_scooter", "lon": -77.03209416666667}, {"rental_uris": {"android": "https://dc.lft.to/lastmile_qr_scan", "ios": "https://dc.lft.to/lastmile_qr_scan"}, "fusion_lat": 0.0, "is_reserved": 0, "lat": 38.93353783333333, "name": "be352a2cf955ed11a811b5a976410432", "bike_id": "be352a2cf955ed11a811b5a976410432", "is_disabled": 0, "fusion_lon": 0.0, "type": "electric_scooter", "lon": -77.05702533333333}, {"rental_uris": {"android": "https://dc.lft.to/lastmile_qr_scan", "ios": "https://dc.lft.to/lastmile_qr_scan"}, "fusion_lat": 0.0, "is_reserved": 0, "lat": 38.926782, "name": "6f652a88d118fc27553bf366c3e5b1b1", "bike_id": "6f652a88d118fc27553bf366c3e5b1b1", "is_disabled": 0, "fusion_lon": 0.0, "type": "electric_scooter", "lon": -77.02251266666667}, {"rental_uris": {"android": "https://dc.lft.to/lastmile_qr_scan", "ios": "https://dc.lft.to/lastmile_qr_scan"}, "fusion_lat": 0.0, "is_reserved": 0, "lat": 38.840326, "name": "0b077db7b0c63bb7b2775791ef4941b5", "bike_id": "0b077db7b0c63bb7b2775791ef4941b5", "is_disabled": 0, "fusion_lon": 0.0, "type": "electric_bike", "lon": -76.97620216666667}, {"rental_uris": {"android": "https://dc.lft.to/lastmile_qr_scan", "ios": "https://dc.lft.to/lastmile_qr_scan"}, "fusion_lat": 0.0, "is_reserved": 0, "lat": 38.920904166666666, "name": "d62769f1c59f464a5cfcdca38b3e7568", "bike_id": "d62769f1c59f464a5cfcdca38b3e7568", "is_disabled": 0, "fusion_lon": 0.0, "type": "electric_scooter", "lon": -77.02193366666667}, {"rental_uris": {"android": "https://dc.lft.to/lastmile_qr_scan", "ios": "https://dc.lft.to/lastmile_qr_scan"}, "fusion_lat": 0.0, "is_reserved": 0, "lat": 38.91778, "name": "c5b5386d860dfacb2a695f1396d767c1", "bike_id": "c5b5386d860dfacb2a695f1396d767c1", "is_disabled": 0, "fusion_lon": 0.0, "type": "electric_scooter", "lon": -77.044009}, {"rental_uris": {"android": "https://dc.lft.to/lastmile_qr_scan", "ios": "https://dc.lft.to/lastmile_qr_scan"}, "fusion_lat": 0.0, "is_reserved": 0, "lat": 38.89610666666667, "name": "ff9334ecba1e09ad28d5a6d469f25b5d", "bike_id": "ff9334ecba1e09ad28d5a6d469f25b5d", "is_disabled": 0, "fusion_lon": 0.0, "type": "electric_scooter", "lon": -77.0281155}, {"rental_uris": {"android": "https://dc.lft.to/lastmile_qr_scan", "ios": "https://dc.lft.to/lastmile_qr_scan"}, "fusion_lat": 0.0, "is_reserved": 0, "lat": 38.914713666666664, "name": "facab5ce418dfefcebd7828e44b4b724", "bike_id": "facab5ce418dfefcebd7828e44b4b724", "is_disabled": 0, "fusion_lon": 0.0, "type": "electric_scooter", "lon": -77.038369}, {"rental_uris": {"android": "https://dc.lft.to/lastmile_qr_scan", "ios": "https://dc.lft.to/lastmile_qr_scan"}, "fusion_lat": 0.0, "is_reserved": 0, "lat": 38.894723, "name": "1e54d73c2661613313df07351e8cee9c", "bike_id": "1e54d73c2661613313df07351e8cee9c", "is_disabled": 0, "fusion_lon": 0.0, "type": "electric_scooter", "lon": -77.026516}, {"rental_uris": {"android": "https://dc.lft.to/lastmile_qr_scan", "ios": "https://dc.lft.to/lastmile_qr_scan"}, "fusion_lat": 0.0, "is_reserved": 0, "lat": 38.9350165, "name": "766daa61eb9b9e582a0c057b43a8e7ac", "bike_id": "766daa61eb9b9e582a0c057b43a8e7ac", "is_disabled": 0, "fusion_lon": 0.0, "type": "electric_scooter", "lon": -77.02004183333334}, {"rental_uris": {"android": "https://dc.lft.to/lastmile_qr_scan", "ios": "https://dc.lft.to/lastmile_qr_scan"}, "fusion_lat": 0.0, "is_reserved": 0, "lat": 38.8381085, "name": "41e477b174e0cc262a1aa6339a1acad9", "bike_id": "41e477b174e0cc262a1aa6339a1acad9", "is_disabled": 0, "fusion_lon": 0.0, "type": "electric_bike", "lon": -77.0952425}, {"rental_uris": {"android": "https://dc.lft.to/lastmile_qr_scan", "ios": "https://dc.lft.to/lastmile_qr_scan"}, "fusion_lat": 0.0, "is_reserved": 0, "lat": 38.933522333333336, "name": "a308ad076202a24b446135f255dca5c7", "bike_id": "a308ad076202a24b446135f255dca5c7", "is_disabled": 0, "fusion_lon": 0.0, "type": "electric_scooter", "lon": -77.025667}, {"rental_uris": {"android": "https://dc.lft.to/lastmile_qr_scan", "ios": "https://dc.lft.to/lastmile_qr_scan"}, "fusion_lat": 0.0, "is_reserved": 0, "lat": 38.90716716666667, "name": "c10dbd8de7f9e78223c32d57d82cca91", "bike_id": "c10dbd8de7f9e78223c32d57d82cca91", "is_disabled": 0, "fusion_lon": 0.0, "type": "electric_scooter", "lon": -77.03896983333334}, {"rental_uris": {"android": "https://dc.lft.to/lastmile_qr_scan", "ios": "https://dc.lft.to/lastmile_qr_scan"}, "fusion_lat": 0.0, "is_reserved": 0, "lat": 38.924605666666665, "name": "8c471663fe9f036c2a7c615ca05951d0", "bike_id": "8c471663fe9f036c2a7c615ca05951d0", "is_disabled": 0, "fusion_lon": 0.0, "type": "electric_scooter", "lon": -77.02697666666667}, {"rental_uris": {"android": "https://dc.lft.to/lastmile_qr_scan", "ios": "https://dc.lft.to/lastmile_qr_scan"}, "fusion_lat": 0.0, "is_reserved": 0, "lat": 38.90717083333333, "name": "0601f1b0414c643372961f28e266184c", "bike_id": "0601f1b0414c643372961f28e266184c", "is_disabled": 0, "fusion_lon": 0.0, "type": "electric_scooter", "lon": -77.0500475}, {"rental_uris": {"android": "https://dc.lft.to/lastmile_qr_scan", "ios": "https://dc.lft.to/lastmile_qr_scan"}, "fusion_lat": 0.0, "is_reserved": 0, "lat": 38.93356766666667, "name": "91e57e496217058ef8b33e7b1cc39f0a", "bike_id": "91e57e496217058ef8b33e7b1cc39f0a", "is_disabled": 0, "fusion_lon": 0.0, "type": "electric_scooter", "lon": -77.02374916666666}, {"rental_uris": {"android": "https://dc.lft.to/lastmile_qr_scan", "ios": "https://dc.lft.to/lastmile_qr_scan"}, "fusion_lat": 0.0, "is_reserved": 0, "lat": 38.90768833333333, "name": "5a53f1711bff16653829cd93e64cf803", "bike_id": "5a53f1711bff16653829cd93e64cf803", "is_disabled": 0, "fusion_lon": 0.0, "type": "electric_scooter", "lon": -77.04504583333333}, {"rental_uris": {"android": "https://dc.lft.to/lastmile_qr_scan", "ios": "https://dc.lft.to/lastmile_qr_scan"}, "fusion_lat": 0.0, "is_reserved": 0, "lat": 38.89898483333333, "name": "ddd1a51c400336164cf20f1653e6d556", "bike_id": "ddd1a51c400336164cf20f1653e6d556", "is_disabled": 0, "fusion_lon": 0.0, "type": "electric_scooter", "lon": -76.97604466666667}, {"rental_uris": {"android": "https://dc.lft.to/lastmile_qr_scan", "ios": "https://dc.lft.to/lastmile_qr_scan"}, "fusion_lat": 0.0, "is_reserved": 0, "lat": 38.919231333333336, "name": "fe5b3c7b8eebf166ac3734945d5a2cef", "bike_id": "fe5b3c7b8eebf166ac3734945d5a2cef", "is_disabled": 0, "fusion_lon": 0.0, "type": "electric_scooter", "lon": -77.03182766666667}, {"rental_uris": {"android": "https://dc.lft.to/lastmile_qr_scan", "ios": "https://dc.lft.to/lastmile_qr_scan"}, "fusion_lat": 0.0, "is_reserved": 0, "lat": 38.919138, "name": "84247eb6c1b4edb8ac735684f17a4ade", "bike_id": "84247eb6c1b4edb8ac735684f17a4ade", "is_disabled": 0, "fusion_lon": 0.0, "type": "electric_scooter", "lon": -77.02946816666666}, {"rental_uris": {"android": "https://dc.lft.to/lastmile_qr_scan", "ios": "https://dc.lft.to/lastmile_qr_scan"}, "fusion_lat": 0.0, "is_reserved": 0, "lat": 38.892206, "name": "bbf6c1395efc184e568f073469f2df7c", "bike_id": "bbf6c1395efc184e568f073469f2df7c", "is_disabled": 0, "fusion_lon": 0.0, "type": "electric_scooter", "lon": -77.03340416666667}, {"rental_uris": {"android": "https://dc.lft.to/lastmile_qr_scan", "ios": "https://dc.lft.to/lastmile_qr_scan"}, "fusion_lat": 0.0, "is_reserved": 0, "lat": 38.896099666666665, "name": "06b2ad6c58403d3df0e98e445f877181", "bike_id": "06b2ad6c58403d3df0e98e445f877181", "is_disabled": 0, "fusion_lon": 0.0, "type": "electric_scooter", "lon": -77.03351833333333}, {"rental_uris": {"android": "https://dc.lft.to/lastmile_qr_scan", "ios": "https://dc.lft.to/lastmile_qr_scan"}, "fusion_lat": 0.0, "is_reserved": 0, "lat": 38.95937216666667, "name": "780b1709daf12c035acff09e96f51f2d", "bike_id": "780b1709daf12c035acff09e96f51f2d", "is_disabled": 0, "fusion_lon": 0.0, "type": "electric_scooter", "lon": -77.0312245}, {"rental_uris": {"android": "https://dc.lft.to/lastmile_qr_scan", "ios": "https://dc.lft.to/lastmile_qr_scan"}, "fusion_lat": 0.0, "is_reserved": 0, "lat": 38.90039783333334, "name": "0c44df3465a63cb20499c6cf3e2c2f25", "bike_id": "0c44df3465a63cb20499c6cf3e2c2f25", "is_disabled": 0, "fusion_lon": 0.0, "type": "electric_scooter", "lon": -77.04853683333333}, {"rental_uris": {"android": "https://dc.lft.to/lastmile_qr_scan", "ios": "https://dc.lft.to/lastmile_qr_scan"}, "fusion_lat": 0.0, "is_reserved": 0, "lat": 38.86524333333333, "name": "b64959c89801f7745cf1d60d6eecd406", "bike_id": "b64959c89801f7745cf1d60d6eecd406", "is_disabled": 0, "fusion_lon": 0.0, "type": "electric_scooter", "lon": -76.96904933333333}, {"rental_uris": {"android": "https://dc.lft.to/lastmile_qr_scan", "ios": "https://dc.lft.to/lastmile_qr_scan"}, "fusion_lat": 0.0, "is_reserved": 0, "lat": 38.91559916666667, "name": "0b82c29a1d6f34b0cbbc77331edbda9d", "bike_id": "0b82c29a1d6f34b0cbbc77331edbda9d", "is_disabled": 0, "fusion_lon": 0.0, "type": "electric_scooter", "lon": -77.031266}, {"rental_uris": {"android": "https://dc.lft.to/lastmile_qr_scan", "ios": "https://dc.lft.to/lastmile_qr_scan"}, "fusion_lat": 0.0, "is_reserved": 0, "lat": 38.90520683333333, "name": "776c0077279bb570538d608739ae0c4a", "bike_id": "776c0077279bb570538d608739ae0c4a", "is_disabled": 0, "fusion_lon": 0.0, "type": "electric_scooter", "lon": -76.98404983333333}, {"rental_uris": {"android": "https://dc.lft.to/lastmile_qr_scan", "ios": "https://dc.lft.to/lastmile_qr_scan"}, "fusion_lat": 0.0, "is_reserved": 0, "lat": 38.89957316666667, "name": "10fd7959ca67eb08d07f0353ba9171a9", "bike_id": "10fd7959ca67eb08d07f0353ba9171a9", "is_disabled": 0, "fusion_lon": 0.0, "type": "electric_scooter", "lon": -77.01603466666667}, {"rental_uris": {"android": "https://dc.lft.to/lastmile_qr_scan", "ios": "https://dc.lft.to/lastmile_qr_scan"}, "fusion_lat": 0.0, "is_reserved": 0, "lat": 38.933609833333335, "name": "b43410a37e0f128ae930b5076834b2d1", "bike_id": "b43410a37e0f128ae930b5076834b2d1", "is_disabled": 0, "fusion_lon": 0.0, "type": "electric_scooter", "lon": -77.041245}, {"rental_uris": {"android": "https://dc.lft.to/lastmile_qr_scan", "ios": "https://dc.lft.to/lastmile_qr_scan"}, "fusion_lat": 0.0, "is_reserved": 0, "lat": 38.914150666666664, "name": "5d880c13a41612cfe3a3bee8532eba5a", "bike_id": "5d880c13a41612cfe3a3bee8532eba5a", "is_disabled": 0, "fusion_lon": 0.0, "type": "electric_scooter", "lon": -77.00184}, {"rental_uris": {"android": "https://dc.lft.to/lastmile_qr_scan", "ios": "https://dc.lft.to/lastmile_qr_scan"}, "fusion_lat": 0.0, "is_reserved": 0, "lat": 38.921129666666666, "name": "1de3ad17fcc31204d96c78173566880a", "bike_id": "1de3ad17fcc31204d96c78173566880a", "is_disabled": 0, "fusion_lon": 0.0, "type": "electric_scooter", "lon": -77.0365725}, {"rental_uris": {"android": "https://dc.lft.to/lastmile_qr_scan", "ios": "https://dc.lft.to/lastmile_qr_scan"}, "fusion_lat": 0.0, "is_reserved": 0, "lat": 38.903489666666665, "name": "8687476e09d00ac6b52b0009277e52f5", "bike_id": "8687476e09d00ac6b52b0009277e52f5", "is_disabled": 0, "fusion_lon": 0.0, "type": "electric_scooter", "lon": -77.02612783333333}, {"rental_uris": {"android": "https://dc.lft.to/lastmile_qr_scan", "ios": "https://dc.lft.to/lastmile_qr_scan"}, "fusion_lat": 0.0, "is_reserved": 0, "lat": 38.93168583333333, "name": "ec949c720b9db5d3508872bbdb5a3221", "bike_id": "ec949c720b9db5d3508872bbdb5a3221", "is_disabled": 0, "fusion_lon": 0.0, "type": "electric_bike", "lon": -77.0202095}, {"rental_uris": {"android": "https://dc.lft.to/lastmile_qr_scan", "ios": "https://dc.lft.to/lastmile_qr_scan"}, "fusion_lat": 0.0, "is_reserved": 0, "lat": 38.9236755, "name": "db36c82bbaa88f094f786efc8a0f8fe1", "bike_id": "db36c82bbaa88f094f786efc8a0f8fe1", "is_disabled": 0, "fusion_lon": 0.0, "type": "electric_scooter", "lon": -77.01920266666667}, {"rental_uris": {"android": "https://dc.lft.to/lastmile_qr_scan", "ios": "https://dc.lft.to/lastmile_qr_scan"}, "fusion_lat": 0.0, "is_reserved": 0, "lat": 38.907822, "name": "49c2f09e76e6bd43b418d9547a1587f6", "bike_id": "49c2f09e76e6bd43b418d9547a1587f6", "is_disabled": 0, "fusion_lon": 0.0, "type": "electric_scooter", "lon": -77.06450516666666}, {"rental_uris": {"android": "https://dc.lft.to/lastmile_qr_scan", "ios": "https://dc.lft.to/lastmile_qr_scan"}, "fusion_lat": 0.0, "is_reserved": 0, "lat": 38.8971605, "name": "81c4676cf69390c4de4af1cec835299c", "bike_id": "81c4676cf69390c4de4af1cec835299c", "is_disabled": 0, "fusion_lon": 0.0, "type": "electric_scooter", "lon": -77.00798783333333}, {"rental_uris": {"android": "https://dc.lft.to/lastmile_qr_scan", "ios": "https://dc.lft.to/lastmile_qr_scan"}, "fusion_lat": 0.0, "is_reserved": 0, "lat": 38.894789, "name": "c066c09cdc1c9e67afd64f18d69b3cdf", "bike_id": "c066c09cdc1c9e67afd64f18d69b3cdf", "is_disabled": 0, "fusion_lon": 0.0, "type": "electric_scooter", "lon": -76.98008566666667}, {"rental_uris": {"android": "https://dc.lft.to/lastmile_qr_scan", "ios": "https://dc.lft.to/lastmile_qr_scan"}, "fusion_lat": 0.0, "is_reserved": 0, "lat": 38.9389305, "name": "1a1d12f4ccf1b00a1c75a80a4198702b", "bike_id": "1a1d12f4ccf1b00a1c75a80a4198702b", "is_disabled": 0, "fusion_lon": 0.0, "type": "electric_scooter", "lon": -77.03321866666667}, {"rental_uris": {"android": "https://dc.lft.to/lastmile_qr_scan", "ios": "https://dc.lft.to/lastmile_qr_scan"}, "fusion_lat": 0.0, "is_reserved": 0, "lat": 38.885089, "name": "5c503263e3db270ea44946b0c16d4b3b", "bike_id": "5c503263e3db270ea44946b0c16d4b3b", "is_disabled": 0, "fusion_lon": 0.0, "type": "electric_scooter", "lon": -77.01117966666666}, {"rental_uris": {"android": "https://dc.lft.to/lastmile_qr_scan", "ios": "https://dc.lft.to/lastmile_qr_scan"}, "fusion_lat": 0.0, "is_reserved": 0, "lat": 38.930985166666666, "name": "85b547c67fca6f72658de504083ed001", "bike_id": "85b547c67fca6f72658de504083ed001", "is_disabled": 0, "fusion_lon": 0.0, "type": "electric_scooter", "lon": -77.024795}, {"rental_uris": {"android": "https://dc.lft.to/lastmile_qr_scan", "ios": "https://dc.lft.to/lastmile_qr_scan"}, "fusion_lat": 0.0, "is_reserved": 0, "lat": 38.92378333333333, "name": "6ff9e6d30e09d8efd460aeaa98142ae5", "bike_id": "6ff9e6d30e09d8efd460aeaa98142ae5", "is_disabled": 0, "fusion_lon": 0.0, "type": "electric_scooter", "lon": -77.05179316666667}, {"rental_uris": {"android": "https://dc.lft.to/lastmile_qr_scan", "ios": "https://dc.lft.to/lastmile_qr_scan"}, "fusion_lat": 0.0, "is_reserved": 0, "lat": 38.90393366666667, "name": "3763589826faa135f5d44d9801b04418", "bike_id": "3763589826faa135f5d44d9801b04418", "is_disabled": 0, "fusion_lon": 0.0, "type": "electric_scooter", "lon": -77.06298383333333}, {"rental_uris": {"android": "https://dc.lft.to/lastmile_qr_scan", "ios": "https://dc.lft.to/lastmile_qr_scan"}, "fusion_lat": 0.0, "is_reserved": 0, "lat": 38.83136366666667, "name": "891273d42030d2cb133fc7b9ebf541e0", "bike_id": "891273d42030d2cb133fc7b9ebf541e0", "is_disabled": 0, "fusion_lon": 0.0, "type": "electric_bike", "lon": -77.11347233333333}, {"rental_uris": {"android": "https://dc.lft.to/lastmile_qr_scan", "ios": "https://dc.lft.to/lastmile_qr_scan"}, "fusion_lat": 0.0, "is_reserved": 0, "lat": 38.892113333333334, "name": "e7cf79697df4582f3520fe36b30e3efd", "bike_id": "e7cf79697df4582f3520fe36b30e3efd", "is_disabled": 0, "fusion_lon": 0.0, "type": "electric_scooter", "lon": -76.99494233333333}, {"rental_uris": {"android": "https://dc.lft.to/lastmile_qr_scan", "ios": "https://dc.lft.to/lastmile_qr_scan"}, "fusion_lat": 0.0, "is_reserved": 0, "lat": 38.941720833333335, "name": "960416d57fc9244a27b32b1bca58fa78", "bike_id": "960416d57fc9244a27b32b1bca58fa78", "is_disabled": 0, "fusion_lon": 0.0, "type": "electric_scooter", "lon": -77.02333233333333}, {"rental_uris": {"android": "https://dc.lft.to/lastmile_qr_scan", "ios": "https://dc.lft.to/lastmile_qr_scan"}, "fusion_lat": 0.0, "is_reserved": 0, "lat": 38.9062595, "name": "35582f3cef0dd59737bacc404530d4f0", "bike_id": "35582f3cef0dd59737bacc404530d4f0", "is_disabled": 0, "fusion_lon": 0.0, "type": "electric_scooter", "lon": -76.95006216666667}, {"rental_uris": {"android": "https://dc.lft.to/lastmile_qr_scan", "ios": "https://dc.lft.to/lastmile_qr_scan"}, "fusion_lat": 0.0, "is_reserved": 0, "lat": 38.9066545, "name": "07a32d7cc61d3a44f0abdd2601a2b77a", "bike_id": "07a32d7cc61d3a44f0abdd2601a2b77a", "is_disabled": 0, "fusion_lon": 0.0, "type": "electric_scooter", "lon": -77.02704633333333}, {"rental_uris": {"android": "https://dc.lft.to/lastmile_qr_scan", "ios": "https://dc.lft.to/lastmile_qr_scan"}, "fusion_lat": 0.0, "is_reserved": 0, "lat": 38.926612, "name": "0d691d1f79dafe01821b3b6baf201d52", "bike_id": "0d691d1f79dafe01821b3b6baf201d52", "is_disabled": 0, "fusion_lon": 0.0, "type": "electric_scooter", "lon": -77.02276183333333}, {"rental_uris": {"android": "https://dc.lft.to/lastmile_qr_scan", "ios": "https://dc.lft.to/lastmile_qr_scan"}, "fusion_lat": 0.0, "is_reserved": 0, "lat": 38.901811333333335, "name": "edb681231c7b3290dcdb9de6496243f2", "bike_id": "edb681231c7b3290dcdb9de6496243f2", "is_disabled": 0, "fusion_lon": 0.0, "type": "electric_scooter", "lon": -77.03376866666666}, {"rental_uris": {"android": "https://dc.lft.to/lastmile_qr_scan", "ios": "https://dc.lft.to/lastmile_qr_scan"}, "fusion_lat": 0.0, "is_reserved": 0, "lat": 38.91045316666667, "name": "e60af93f7316c83e93cddfadf02d555c", "bike_id": "e60af93f7316c83e93cddfadf02d555c", "is_disabled": 0, "fusion_lon": 0.0, "type": "electric_scooter", "lon": -77.03842166666666}, {"rental_uris": {"android": "https://dc.lft.to/lastmile_qr_scan", "ios": "https://dc.lft.to/lastmile_qr_scan"}, "fusion_lat": 0.0, "is_reserved": 0, "lat": 38.944129833333335, "name": "498fc3d9666cbb08ac85e43e8f7ee352", "bike_id": "498fc3d9666cbb08ac85e43e8f7ee352", "is_disabled": 0, "fusion_lon": 0.0, "type": "electric_scooter", "lon": -77.06325133333333}, {"rental_uris": {"android": "https://dc.lft.to/lastmile_qr_scan", "ios": "https://dc.lft.to/lastmile_qr_scan"}, "fusion_lat": 0.0, "is_reserved": 0, "lat": 38.93248466666667, "name": "b316750e9218518207b5970ad6560919", "bike_id": "b316750e9218518207b5970ad6560919", "is_disabled": 0, "fusion_lon": 0.0, "type": "electric_scooter", "lon": -77.03205383333334}, {"rental_uris": {"android": "https://dc.lft.to/lastmile_qr_scan", "ios": "https://dc.lft.to/lastmile_qr_scan"}, "fusion_lat": 0.0, "is_reserved": 0, "lat": 38.902714, "name": "dc70bb590487a3fffe8ac13a8d1ad10d", "bike_id": "dc70bb590487a3fffe8ac13a8d1ad10d", "is_disabled": 0, "fusion_lon": 0.0, "type": "electric_scooter", "lon": -77.0322835}, {"rental_uris": {"android": "https://dc.lft.to/lastmile_qr_scan", "ios": "https://dc.lft.to/lastmile_qr_scan"}, "fusion_lat": 0.0, "is_reserved": 0, "lat": 38.888807166666666, "name": "53d9bad4049f3eb13f2c0fc172653475", "bike_id": "53d9bad4049f3eb13f2c0fc172653475", "is_disabled": 0, "fusion_lon": 0.0, "type": "electric_scooter", "lon": -76.99036216666667}, {"rental_uris": {"android": "https://dc.lft.to/lastmile_qr_scan", "ios": "https://dc.lft.to/lastmile_qr_scan"}, "fusion_lat": 0.0, "is_reserved": 0, "lat": 38.8997495, "name": "f99abaaaa489b2903604af1e9879086d", "bike_id": "f99abaaaa489b2903604af1e9879086d", "is_disabled": 0, "fusion_lon": 0.0, "type": "electric_scooter", "lon": -77.022381}, {"rental_uris": {"android": "https://dc.lft.to/lastmile_qr_scan", "ios": "https://dc.lft.to/lastmile_qr_scan"}, "fusion_lat": 0.0, "is_reserved": 0, "lat": 38.905584166666664, "name": "4d5d2a51c8f20ca3ba9cdf4d6edaa208", "bike_id": "4d5d2a51c8f20ca3ba9cdf4d6edaa208", "is_disabled": 0, "fusion_lon": 0.0, "type": "electric_scooter", "lon": -77.04105066666666}, {"rental_uris": {"android": "https://dc.lft.to/lastmile_qr_scan", "ios": "https://dc.lft.to/lastmile_qr_scan"}, "fusion_lat": 0.0, "is_reserved": 0, "lat": 38.88772983333333, "name": "a6dd17fce28102974902988541a9e29e", "bike_id": "a6dd17fce28102974902988541a9e29e", "is_disabled": 0, "fusion_lon": 0.0, "type": "electric_scooter", "lon": -76.93263066666667}, {"rental_uris": {"android": "https://dc.lft.to/lastmile_qr_scan", "ios": "https://dc.lft.to/lastmile_qr_scan"}, "fusion_lat": 0.0, "is_reserved": 0, "lat": 38.92731716666667, "name": "af28f581067581da3d0130fc5e37cdd4", "bike_id": "af28f581067581da3d0130fc5e37cdd4", "is_disabled": 0, "fusion_lon": 0.0, "type": "electric_scooter", "lon": -77.0224735}, {"rental_uris": {"android": "https://dc.lft.to/lastmile_qr_scan", "ios": "https://dc.lft.to/lastmile_qr_scan"}, "fusion_lat": 0.0, "is_reserved": 0, "lat": 38.91543683333333, "name": "ce8b2bf1868a66299df0377b9e508ad5", "bike_id": "ce8b2bf1868a66299df0377b9e508ad5", "is_disabled": 0, "fusion_lon": 0.0, "type": "electric_scooter", "lon": -77.0365655}, {"rental_uris": {"android": "https://dc.lft.to/lastmile_qr_scan", "ios": "https://dc.lft.to/lastmile_qr_scan"}, "fusion_lat": 0.0, "is_reserved": 0, "lat": 38.92068366666667, "name": "8a29f0dcc538b6bd230cac06191d62d0", "bike_id": "8a29f0dcc538b6bd230cac06191d62d0", "is_disabled": 0, "fusion_lon": 0.0, "type": "electric_scooter", "lon": -77.025642}, {"rental_uris": {"android": "https://dc.lft.to/lastmile_qr_scan", "ios": "https://dc.lft.to/lastmile_qr_scan"}, "fusion_lat": 0.0, "is_reserved": 0, "lat": 38.915418333333335, "name": "b82c944d43fb771f7bed9b599317f111", "bike_id": "b82c944d43fb771f7bed9b599317f111", "is_disabled": 0, "fusion_lon": 0.0, "type": "electric_scooter", "lon": -77.0122615}, {"rental_uris": {"android": "https://dc.lft.to/lastmile_qr_scan", "ios": "https://dc.lft.to/lastmile_qr_scan"}, "fusion_lat": 0.0, "is_reserved": 0, "lat": 38.887220666666664, "name": "dfe26e54955b38633697bdb53d738051", "bike_id": "dfe26e54955b38633697bdb53d738051", "is_disabled": 0, "fusion_lon": 0.0, "type": "electric_scooter", "lon": -76.99682283333334}, {"rental_uris": {"android": "https://dc.lft.to/lastmile_qr_scan", "ios": "https://dc.lft.to/lastmile_qr_scan"}, "fusion_lat": 0.0, "is_reserved": 0, "lat": 38.91250083333333, "name": "7c3284d5aa238ec18e6bea7eb8f4006c", "bike_id": "7c3284d5aa238ec18e6bea7eb8f4006c", "is_disabled": 0, "fusion_lon": 0.0, "type": "electric_scooter", "lon": -77.03865333333333}, {"rental_uris": {"android": "https://dc.lft.to/lastmile_qr_scan", "ios": "https://dc.lft.to/lastmile_qr_scan"}, "fusion_lat": 0.0, "is_reserved": 0, "lat": 38.8791815, "name": "66aa54ef92c5cb980b15dab35f3da365", "bike_id": "66aa54ef92c5cb980b15dab35f3da365", "is_disabled": 0, "fusion_lon": 0.0, "type": "electric_scooter", "lon": -77.00746016666666}, {"rental_uris": {"android": "https://dc.lft.to/lastmile_qr_scan", "ios": "https://dc.lft.to/lastmile_qr_scan"}, "fusion_lat": 0.0, "is_reserved": 0, "lat": 38.89603783333333, "name": "5b22f073af7f930d9940e5e83c0c6ec5", "bike_id": "5b22f073af7f930d9940e5e83c0c6ec5", "is_disabled": 0, "fusion_lon": 0.0, "type": "electric_scooter", "lon": -77.0303695}, {"rental_uris": {"android": "https://dc.lft.to/lastmile_qr_scan", "ios": "https://dc.lft.to/lastmile_qr_scan"}, "fusion_lat": 0.0, "is_reserved": 0, "lat": 38.88718083333333, "name": "601767e296a33ac63289d33d411aac99", "bike_id": "601767e296a33ac63289d33d411aac99", "is_disabled": 0, "fusion_lon": 0.0, "type": "electric_scooter", "lon": -77.02179783333334}, {"rental_uris": {"android": "https://dc.lft.to/lastmile_qr_scan", "ios": "https://dc.lft.to/lastmile_qr_scan"}, "fusion_lat": 0.0, "is_reserved": 0, "lat": 38.902244833333334, "name": "04fb517b13f059b909058bac12a8aa18", "bike_id": "04fb517b13f059b909058bac12a8aa18", "is_disabled": 0, "fusion_lon": 0.0, "type": "electric_scooter", "lon": -77.01740133333334}, {"rental_uris": {"android": "https://dc.lft.to/lastmile_qr_scan", "ios": "https://dc.lft.to/lastmile_qr_scan"}, "fusion_lat": 0.0, "is_reserved": 0, "lat": 38.89745033333333, "name": "02c11c6d4f8bf5a5361c8a2ed378f800", "bike_id": "02c11c6d4f8bf5a5361c8a2ed378f800", "is_disabled": 0, "fusion_lon": 0.0, "type": "electric_scooter", "lon": -77.007488}, {"rental_uris": {"android": "https://dc.lft.to/lastmile_qr_scan", "ios": "https://dc.lft.to/lastmile_qr_scan"}, "fusion_lat": 0.0, "is_reserved": 0, "lat": 38.93378766666667, "name": "30630d2df3e079686196d2d931792628", "bike_id": "30630d2df3e079686196d2d931792628", "is_disabled": 0, "fusion_lon": 0.0, "type": "electric_scooter", "lon": -77.032497}, {"rental_uris": {"android": "https://dc.lft.to/lastmile_qr_scan", "ios": "https://dc.lft.to/lastmile_qr_scan"}, "fusion_lat": 0.0, "is_reserved": 0, "lat": 38.91801816666667, "name": "825f3987f49b9cf23731a68763daf5af", "bike_id": "825f3987f49b9cf23731a68763daf5af", "is_disabled": 0, "fusion_lon": 0.0, "type": "electric_scooter", "lon": -77.03145}, {"rental_uris": {"android": "https://dc.lft.to/lastmile_qr_scan", "ios": "https://dc.lft.to/lastmile_qr_scan"}, "fusion_lat": 0.0, "is_reserved": 0, "lat": 38.92325233333333, "name": "747046d82fc27752923ed8c27081036e", "bike_id": "747046d82fc27752923ed8c27081036e", "is_disabled": 0, "fusion_lon": 0.0, "type": "electric_scooter", "lon": -77.03617183333333}, {"rental_uris": {"android": "https://dc.lft.to/lastmile_qr_scan", "ios": "https://dc.lft.to/lastmile_qr_scan"}, "fusion_lat": 0.0, "is_reserved": 0, "lat": 38.904522666666665, "name": "fb61562c7fda90ba68533939f1b39343", "bike_id": "fb61562c7fda90ba68533939f1b39343", "is_disabled": 0, "fusion_lon": 0.0, "type": "electric_scooter", "lon": -77.06011783333334}, {"rental_uris": {"android": "https://dc.lft.to/lastmile_qr_scan", "ios": "https://dc.lft.to/lastmile_qr_scan"}, "fusion_lat": 0.0, "is_reserved": 0, "lat": 38.943117, "name": "3ac074762b3c657dd7cf9c23ee693066", "bike_id": "3ac074762b3c657dd7cf9c23ee693066", "is_disabled": 0, "fusion_lon": 0.0, "type": "electric_scooter", "lon": -77.02181183333333}, {"rental_uris": {"android": "https://dc.lft.to/lastmile_qr_scan", "ios": "https://dc.lft.to/lastmile_qr_scan"}, "fusion_lat": 0.0, "is_reserved": 0, "lat": 38.9012455, "name": "8bc01d7e50299dfddecb479f306c1af3", "bike_id": "8bc01d7e50299dfddecb479f306c1af3", "is_disabled": 0, "fusion_lon": 0.0, "type": "electric_scooter", "lon": -77.00320216666667}, {"rental_uris": {"android": "https://dc.lft.to/lastmile_qr_scan", "ios": "https://dc.lft.to/lastmile_qr_scan"}, "fusion_lat": 0.0, "is_reserved": 0, "lat": 38.92540916666667, "name": "a5f5146a6e59486e8df1d42cd334d3be", "bike_id": "a5f5146a6e59486e8df1d42cd334d3be", "is_disabled": 0, "fusion_lon": 0.0, "type": "electric_scooter", "lon": -77.04056733333333}, {"rental_uris": {"android": "https://dc.lft.to/lastmile_qr_scan", "ios": "https://dc.lft.to/lastmile_qr_scan"}, "fusion_lat": 0.0, "is_reserved": 0, "lat": 38.87838766666667, "name": "2dd74f92909e2b11fb7eb4ab84c80b09", "bike_id": "2dd74f92909e2b11fb7eb4ab84c80b09", "is_disabled": 0, "fusion_lon": 0.0, "type": "electric_scooter", "lon": -76.98290216666666}, {"rental_uris": {"android": "https://dc.lft.to/lastmile_qr_scan", "ios": "https://dc.lft.to/lastmile_qr_scan"}, "fusion_lat": 0.0, "is_reserved": 0, "lat": 38.906946, "name": "e97695983c5ae420b6722ad3edb0d4ad", "bike_id": "e97695983c5ae420b6722ad3edb0d4ad", "is_disabled": 0, "fusion_lon": 0.0, "type": "electric_scooter", "lon": -77.0111415}, {"rental_uris": {"android": "https://dc.lft.to/lastmile_qr_scan", "ios": "https://dc.lft.to/lastmile_qr_scan"}, "fusion_lat": 0.0, "is_reserved": 0, "lat": 38.89361183333333, "name": "8647c17aa23a88b710c96107088fbc41", "bike_id": "8647c17aa23a88b710c96107088fbc41", "is_disabled": 0, "fusion_lon": 0.0, "type": "electric_scooter", "lon": -76.98645266666666}, {"rental_uris": {"android": "https://dc.lft.to/lastmile_qr_scan", "ios": "https://dc.lft.to/lastmile_qr_scan"}, "fusion_lat": 0.0, "is_reserved": 0, "lat": 38.92027816666667, "name": "30be857fd93a9d5aee872c548c5e9b6e", "bike_id": "30be857fd93a9d5aee872c548c5e9b6e", "is_disabled": 0, "fusion_lon": 0.0, "type": "electric_scooter", "lon": -77.01031016666667}, {"rental_uris": {"android": "https://dc.lft.to/lastmile_qr_scan", "ios": "https://dc.lft.to/lastmile_qr_scan"}, "fusion_lat": 0.0, "is_reserved": 0, "lat": 38.89922383333333, "name": "ea2209b0fb219691ccc5f78785abf8f3", "bike_id": "ea2209b0fb219691ccc5f78785abf8f3", "is_disabled": 0, "fusion_lon": 0.0, "type": "electric_scooter", "lon": -77.026709}, {"rental_uris": {"android": "https://dc.lft.to/lastmile_qr_scan", "ios": "https://dc.lft.to/lastmile_qr_scan"}, "fusion_lat": 0.0, "is_reserved": 0, "lat": 38.9970625, "name": "a10505fbcb0642feed1d11cacf17631c", "bike_id": "a10505fbcb0642feed1d11cacf17631c", "is_disabled": 0, "fusion_lon": 0.0, "type": "electric_bike", "lon": -77.03771533333334}, {"rental_uris": {"android": "https://dc.lft.to/lastmile_qr_scan", "ios": "https://dc.lft.to/lastmile_qr_scan"}, "fusion_lat": 0.0, "is_reserved": 0, "lat": 38.90105616666666, "name": "ea16338b0113704c0d43bdafc151edf7", "bike_id": "ea16338b0113704c0d43bdafc151edf7", "is_disabled": 0, "fusion_lon": 0.0, "type": "electric_scooter", "lon": -77.01976666666667}, {"rental_uris": {"android": "https://dc.lft.to/lastmile_qr_scan", "ios": "https://dc.lft.to/lastmile_qr_scan"}, "fusion_lat": 0.0, "is_reserved": 0, "lat": 38.9216895, "name": "8f9a22efebc70869270516be02a7c44b", "bike_id": "8f9a22efebc70869270516be02a7c44b", "is_disabled": 0, "fusion_lon": 0.0, "type": "electric_scooter", "lon": -77.018736}, {"rental_uris": {"android": "https://dc.lft.to/lastmile_qr_scan", "ios": "https://dc.lft.to/lastmile_qr_scan"}, "fusion_lat": 0.0, "is_reserved": 0, "lat": 38.92617833333333, "name": "504c3dc81f1f65f0a5b6cd397a3bc5f4", "bike_id": "504c3dc81f1f65f0a5b6cd397a3bc5f4", "is_disabled": 0, "fusion_lon": 0.0, "type": "electric_scooter", "lon": -77.0222705}, {"rental_uris": {"android": "https://dc.lft.to/lastmile_qr_scan", "ios": "https://dc.lft.to/lastmile_qr_scan"}, "fusion_lat": 0.0, "is_reserved": 0, "lat": 38.90904966666667, "name": "68e03ba87a54d22e9ad66a583c13cc38", "bike_id": "68e03ba87a54d22e9ad66a583c13cc38", "is_disabled": 0, "fusion_lon": 0.0, "type": "electric_scooter", "lon": -77.07273733333334}, {"rental_uris": {"android": "https://dc.lft.to/lastmile_qr_scan", "ios": "https://dc.lft.to/lastmile_qr_scan"}, "fusion_lat": 0.0, "is_reserved": 0, "lat": 38.92434816666667, "name": "e18f0668dca0d025ed668be1dc92d971", "bike_id": "e18f0668dca0d025ed668be1dc92d971", "is_disabled": 0, "fusion_lon": 0.0, "type": "electric_scooter", "lon": -77.00069233333333}, {"rental_uris": {"android": "https://dc.lft.to/lastmile_qr_scan", "ios": "https://dc.lft.to/lastmile_qr_scan"}, "fusion_lat": 0.0, "is_reserved": 0, "lat": 38.9278485, "name": "4f4fd8ba021f2f093acffe0853778ad3", "bike_id": "4f4fd8ba021f2f093acffe0853778ad3", "is_disabled": 0, "fusion_lon": 0.0, "type": "electric_scooter", "lon": -77.03081516666667}, {"rental_uris": {"android": "https://dc.lft.to/lastmile_qr_scan", "ios": "https://dc.lft.to/lastmile_qr_scan"}, "fusion_lat": 0.0, "is_reserved": 0, "lat": 38.91985016666667, "name": "a02c47a3b4448ebb6f61e7d9e9265b0e", "bike_id": "a02c47a3b4448ebb6f61e7d9e9265b0e", "is_disabled": 0, "fusion_lon": 0.0, "type": "electric_scooter", "lon": -77.03322483333334}, {"rental_uris": {"android": "https://dc.lft.to/lastmile_qr_scan", "ios": "https://dc.lft.to/lastmile_qr_scan"}, "fusion_lat": 0.0, "is_reserved": 0, "lat": 38.9105455, "name": "9fdc685929eaba80bd692d3013c89f3b", "bike_id": "9fdc685929eaba80bd692d3013c89f3b", "is_disabled": 0, "fusion_lon": 0.0, "type": "electric_scooter", "lon": -77.0539255}, {"rental_uris": {"android": "https://dc.lft.to/lastmile_qr_scan", "ios": "https://dc.lft.to/lastmile_qr_scan"}, "fusion_lat": 0.0, "is_reserved": 0, "lat": 38.8354555, "name": "d3e816badd4af0115bd8c273d1c9dac5", "bike_id": "d3e816badd4af0115bd8c273d1c9dac5", "is_disabled": 0, "fusion_lon": 0.0, "type": "electric_bike", "lon": -77.00747}, {"rental_uris": {"android": "https://dc.lft.to/lastmile_qr_scan", "ios": "https://dc.lft.to/lastmile_qr_scan"}, "fusion_lat": 0.0, "is_reserved": 0, "lat": 38.90967083333334, "name": "49774341391dfb8e3a27c9a5f901bd52", "bike_id": "49774341391dfb8e3a27c9a5f901bd52", "is_disabled": 0, "fusion_lon": 0.0, "type": "electric_scooter", "lon": -77.04446866666666}, {"rental_uris": {"android": "https://dc.lft.to/lastmile_qr_scan", "ios": "https://dc.lft.to/lastmile_qr_scan"}, "fusion_lat": 0.0, "is_reserved": 0, "lat": 38.90651866666666, "name": "9df00dbdfde877ddfe05d6604c5ad6ad", "bike_id": "9df00dbdfde877ddfe05d6604c5ad6ad", "is_disabled": 0, "fusion_lon": 0.0, "type": "electric_scooter", "lon": -77.05323683333333}, {"rental_uris": {"android": "https://dc.lft.to/lastmile_qr_scan", "ios": "https://dc.lft.to/lastmile_qr_scan"}, "fusion_lat": 0.0, "is_reserved": 0, "lat": 38.897344, "name": "d54e086304b9f7a99e17a2c1c5df33ec", "bike_id": "d54e086304b9f7a99e17a2c1c5df33ec", "is_disabled": 0, "fusion_lon": 0.0, "type": "electric_scooter", "lon": -77.026759}, {"rental_uris": {"android": "https://dc.lft.to/lastmile_qr_scan", "ios": "https://dc.lft.to/lastmile_qr_scan"}, "fusion_lat": 0.0, "is_reserved": 0, "lat": 38.89130133333333, "name": "a18fd6a8ae67520e5b1f109249c9286a", "bike_id": "a18fd6a8ae67520e5b1f109249c9286a", "is_disabled": 0, "fusion_lon": 0.0, "type": "electric_scooter", "lon": -76.99944}, {"rental_uris": {"android": "https://dc.lft.to/lastmile_qr_scan", "ios": "https://dc.lft.to/lastmile_qr_scan"}, "fusion_lat": 0.0, "is_reserved": 0, "lat": 38.864851333333334, "name": "98ef2d2479580c858114ae08fe34e440", "bike_id": "98ef2d2479580c858114ae08fe34e440", "is_disabled": 0, "fusion_lon": 0.0, "type": "electric_scooter", "lon": -76.9774565}, {"rental_uris": {"android": "https://dc.lft.to/lastmile_qr_scan", "ios": "https://dc.lft.to/lastmile_qr_scan"}, "fusion_lat": 0.0, "is_reserved": 0, "lat": 38.9449755, "name": "6edd9dad24d3b5f8bcd698599e6653ec", "bike_id": "6edd9dad24d3b5f8bcd698599e6653ec", "is_disabled": 0, "fusion_lon": 0.0, "type": "electric_bike", "lon": -77.00505633333333}, {"rental_uris": {"android": "https://dc.lft.to/lastmile_qr_scan", "ios": "https://dc.lft.to/lastmile_qr_scan"}, "fusion_lat": 0.0, "is_reserved": 0, "lat": 38.919173, "name": "378eed9cb13cac4cf4e7d4274b606789", "bike_id": "378eed9cb13cac4cf4e7d4274b606789", "is_disabled": 0, "fusion_lon": 0.0, "type": "electric_scooter", "lon": -77.02417533333333}, {"rental_uris": {"android": "https://dc.lft.to/lastmile_qr_scan", "ios": "https://dc.lft.to/lastmile_qr_scan"}, "fusion_lat": 0.0, "is_reserved": 0, "lat": 38.921706, "name": "f9e7781a06aba03de1ef58cb177c7a4b", "bike_id": "f9e7781a06aba03de1ef58cb177c7a4b", "is_disabled": 0, "fusion_lon": 0.0, "type": "electric_scooter", "lon": -77.026658}, {"rental_uris": {"android": "https://dc.lft.to/lastmile_qr_scan", "ios": "https://dc.lft.to/lastmile_qr_scan"}, "fusion_lat": 0.0, "is_reserved": 0, "lat": 38.89352916666667, "name": "3cc9f673894b2f5cebc6e56ca3a1295f", "bike_id": "3cc9f673894b2f5cebc6e56ca3a1295f", "is_disabled": 0, "fusion_lon": 0.0, "type": "electric_scooter", "lon": -77.01744616666667}, {"rental_uris": {"android": "https://dc.lft.to/lastmile_qr_scan", "ios": "https://dc.lft.to/lastmile_qr_scan"}, "fusion_lat": 0.0, "is_reserved": 0, "lat": 38.935894833333336, "name": "aff500421e7b19646f3dd15a2441c51b", "bike_id": "aff500421e7b19646f3dd15a2441c51b", "is_disabled": 0, "fusion_lon": 0.0, "type": "electric_scooter", "lon": -77.03366283333334}, {"rental_uris": {"android": "https://dc.lft.to/lastmile_qr_scan", "ios": "https://dc.lft.to/lastmile_qr_scan"}, "fusion_lat": 0.0, "is_reserved": 0, "lat": 38.90033283333333, "name": "8e26678d82757eceb765ee78456fc64b", "bike_id": "8e26678d82757eceb765ee78456fc64b", "is_disabled": 0, "fusion_lon": 0.0, "type": "electric_scooter", "lon": -76.98817866666667}, {"rental_uris": {"android": "https://dc.lft.to/lastmile_qr_scan", "ios": "https://dc.lft.to/lastmile_qr_scan"}, "fusion_lat": 0.0, "is_reserved": 0, "lat": 38.91760883333333, "name": "71de42a65bed9d0a5ad03b03bcbb0fd7", "bike_id": "71de42a65bed9d0a5ad03b03bcbb0fd7", "is_disabled": 0, "fusion_lon": 0.0, "type": "electric_scooter", "lon": -77.02805616666667}, {"rental_uris": {"android": "https://dc.lft.to/lastmile_qr_scan", "ios": "https://dc.lft.to/lastmile_qr_scan"}, "fusion_lat": 0.0, "is_reserved": 0, "lat": 38.92610066666667, "name": "84fb7f5a23b9a8bc728216baa7dcd407", "bike_id": "84fb7f5a23b9a8bc728216baa7dcd407", "is_disabled": 0, "fusion_lon": 0.0, "type": "electric_scooter", "lon": -77.02160716666667}, {"rental_uris": {"android": "https://dc.lft.to/lastmile_qr_scan", "ios": "https://dc.lft.to/lastmile_qr_scan"}, "fusion_lat": 0.0, "is_reserved": 0, "lat": 38.93018, "name": "ec814eb1029d72da672fe9859bbf7707", "bike_id": "ec814eb1029d72da672fe9859bbf7707", "is_disabled": 0, "fusion_lon": 0.0, "type": "electric_scooter", "lon": -77.03660716666667}, {"rental_uris": {"android": "https://dc.lft.to/lastmile_qr_scan", "ios": "https://dc.lft.to/lastmile_qr_scan"}, "fusion_lat": 0.0, "is_reserved": 0, "lat": 38.89478183333333, "name": "7b1b579f33decd1e7162651178d722e1", "bike_id": "7b1b579f33decd1e7162651178d722e1", "is_disabled": 0, "fusion_lon": 0.0, "type": "electric_scooter", "lon": -76.99575283333333}, {"rental_uris": {"android": "https://dc.lft.to/lastmile_qr_scan", "ios": "https://dc.lft.to/lastmile_qr_scan"}, "fusion_lat": 0.0, "is_reserved": 0, "lat": 38.92525166666667, "name": "0eaa1e7f3eae65befb7606a97bb48844", "bike_id": "0eaa1e7f3eae65befb7606a97bb48844", "is_disabled": 0, "fusion_lon": 0.0, "type": "electric_scooter", "lon": -77.05536}, {"rental_uris": {"android": "https://dc.lft.to/lastmile_qr_scan", "ios": "https://dc.lft.to/lastmile_qr_scan"}, "fusion_lat": 0.0, "is_reserved": 0, "lat": 38.9004155, "name": "bbbd80f636796981db4c69b00e7b7b9c", "bike_id": "bbbd80f636796981db4c69b00e7b7b9c", "is_disabled": 0, "fusion_lon": 0.0, "type": "electric_scooter", "lon": -77.04323183333334}, {"rental_uris": {"android": "https://dc.lft.to/lastmile_qr_scan", "ios": "https://dc.lft.to/lastmile_qr_scan"}, "fusion_lat": 0.0, "is_reserved": 0, "lat": 38.855996833333336, "name": "f15b60c70fa97913f8399a38c03e0188", "bike_id": "f15b60c70fa97913f8399a38c03e0188", "is_disabled": 0, "fusion_lon": 0.0, "type": "electric_bike", "lon": -76.97458433333334}, {"rental_uris": {"android": "https://dc.lft.to/lastmile_qr_scan", "ios": "https://dc.lft.to/lastmile_qr_scan"}, "fusion_lat": 0.0, "is_reserved": 0, "lat": 38.9134115, "name": "325811ba104db6f4daae9fd359a8c682", "bike_id": "325811ba104db6f4daae9fd359a8c682", "is_disabled": 0, "fusion_lon": 0.0, "type": "electric_scooter", "lon": -77.03193083333333}, {"rental_uris": {"android": "https://dc.lft.to/lastmile_qr_scan", "ios": "https://dc.lft.to/lastmile_qr_scan"}, "fusion_lat": 0.0, "is_reserved": 0, "lat": 38.9389005, "name": "2e85cebffa9f4c1ae589b72500a4faae", "bike_id": "2e85cebffa9f4c1ae589b72500a4faae", "is_disabled": 0, "fusion_lon": 0.0, "type": "electric_scooter", "lon": -77.01762233333334}, {"rental_uris": {"android": "https://dc.lft.to/lastmile_qr_scan", "ios": "https://dc.lft.to/lastmile_qr_scan"}, "fusion_lat": 0.0, "is_reserved": 0, "lat": 38.9602445, "name": "8fc786b8b36cb45f607aa2ca98ce4c4e", "bike_id": "8fc786b8b36cb45f607aa2ca98ce4c4e", "is_disabled": 0, "fusion_lon": 0.0, "type": "electric_scooter", "lon": -77.02425183333334}, {"rental_uris": {"android": "https://dc.lft.to/lastmile_qr_scan", "ios": "https://dc.lft.to/lastmile_qr_scan"}, "fusion_lat": 0.0, "is_reserved": 0, "lat": 38.898558333333334, "name": "339c77059f32e837e5c59c3d3e405ed1", "bike_id": "339c77059f32e837e5c59c3d3e405ed1", "is_disabled": 0, "fusion_lon": 0.0, "type": "electric_scooter", "lon": -77.04875666666666}, {"rental_uris": {"android": "https://dc.lft.to/lastmile_qr_scan", "ios": "https://dc.lft.to/lastmile_qr_scan"}, "fusion_lat": 0.0, "is_reserved": 0, "lat": 38.943135833333336, "name": "0fc8a56e684a8773c7538ca60f999d9d", "bike_id": "0fc8a56e684a8773c7538ca60f999d9d", "is_disabled": 0, "fusion_lon": 0.0, "type": "electric_bike", "lon": -76.99011616666667}, {"rental_uris": {"android": "https://dc.lft.to/lastmile_qr_scan", "ios": "https://dc.lft.to/lastmile_qr_scan"}, "fusion_lat": 0.0, "is_reserved": 0, "lat": 38.9070615, "name": "ecce535a3bfe7ba968e83706a142738a", "bike_id": "ecce535a3bfe7ba968e83706a142738a", "is_disabled": 0, "fusion_lon": 0.0, "type": "electric_scooter", "lon": -77.02312516666667}, {"rental_uris": {"android": "https://dc.lft.to/lastmile_qr_scan", "ios": "https://dc.lft.to/lastmile_qr_scan"}, "fusion_lat": 0.0, "is_reserved": 0, "lat": 38.877513, "name": "773384a58d90fe36c09a1ffb3cc14c7d", "bike_id": "773384a58d90fe36c09a1ffb3cc14c7d", "is_disabled": 0, "fusion_lon": 0.0, "type": "electric_scooter", "lon": -77.00601433333334}, {"rental_uris": {"android": "https://dc.lft.to/lastmile_qr_scan", "ios": "https://dc.lft.to/lastmile_qr_scan"}, "fusion_lat": 0.0, "is_reserved": 0, "lat": 38.9209355, "name": "aa66e7884ae4713a89cf20baee803fcf", "bike_id": "aa66e7884ae4713a89cf20baee803fcf", "is_disabled": 0, "fusion_lon": 0.0, "type": "electric_scooter", "lon": -77.02198066666666}, {"rental_uris": {"android": "https://dc.lft.to/lastmile_qr_scan", "ios": "https://dc.lft.to/lastmile_qr_scan"}, "fusion_lat": 0.0, "is_reserved": 0, "lat": 38.897488333333335, "name": "d8d06c3605a39022f099978c0405b8b8", "bike_id": "d8d06c3605a39022f099978c0405b8b8", "is_disabled": 0, "fusion_lon": 0.0, "type": "electric_scooter", "lon": -76.97691383333333}, {"rental_uris": {"android": "https://dc.lft.to/lastmile_qr_scan", "ios": "https://dc.lft.to/lastmile_qr_scan"}, "fusion_lat": 0.0, "is_reserved": 0, "lat": 38.90360716666667, "name": "3069ca18d278e68880a45815cf44a34b", "bike_id": "3069ca18d278e68880a45815cf44a34b", "is_disabled": 0, "fusion_lon": 0.0, "type": "electric_scooter", "lon": -77.03553466666666}, {"rental_uris": {"android": "https://dc.lft.to/lastmile_qr_scan", "ios": "https://dc.lft.to/lastmile_qr_scan"}, "fusion_lat": 0.0, "is_reserved": 0, "lat": 38.91258966666667, "name": "d91cb5a4f4e2242405a4037d037b22b9", "bike_id": "d91cb5a4f4e2242405a4037d037b22b9", "is_disabled": 0, "fusion_lon": 0.0, "type": "electric_scooter", "lon": -77.04551066666667}, {"rental_uris": {"android": "https://dc.lft.to/lastmile_qr_scan", "ios": "https://dc.lft.to/lastmile_qr_scan"}, "fusion_lat": 0.0, "is_reserved": 0, "lat": 38.89227116666667, "name": "1f9dabbb9dbe5606283f61f5188b0fe6", "bike_id": "1f9dabbb9dbe5606283f61f5188b0fe6", "is_disabled": 0, "fusion_lon": 0.0, "type": "electric_scooter", "lon": -77.03182616666666}, {"rental_uris": {"android": "https://dc.lft.to/lastmile_qr_scan", "ios": "https://dc.lft.to/lastmile_qr_scan"}, "fusion_lat": 0.0, "is_reserved": 0, "lat": 38.80668033333333, "name": "691c7b6aab52cc1485d9909a62296c05", "bike_id": "691c7b6aab52cc1485d9909a62296c05", "is_disabled": 0, "fusion_lon": 0.0, "type": "electric_bike", "lon": -77.0875665}, {"rental_uris": {"android": "https://dc.lft.to/lastmile_qr_scan", "ios": "https://dc.lft.to/lastmile_qr_scan"}, "fusion_lat": 0.0, "is_reserved": 0, "lat": 38.92365516666667, "name": "ae596d23157a9836b852cc2e4c5619e7", "bike_id": "ae596d23157a9836b852cc2e4c5619e7", "is_disabled": 0, "fusion_lon": 0.0, "type": "electric_scooter", "lon": -77.05032683333333}, {"rental_uris": {"android": "https://dc.lft.to/lastmile_qr_scan", "ios": "https://dc.lft.to/lastmile_qr_scan"}, "fusion_lat": 0.0, "is_reserved": 0, "lat": 38.91876233333333, "name": "8eca099465e55c2ae8e524977e5f50f4", "bike_id": "8eca099465e55c2ae8e524977e5f50f4", "is_disabled": 0, "fusion_lon": 0.0, "type": "electric_scooter", "lon": -77.04729516666667}, {"rental_uris": {"android": "https://dc.lft.to/lastmile_qr_scan", "ios": "https://dc.lft.to/lastmile_qr_scan"}, "fusion_lat": 0.0, "is_reserved": 0, "lat": 38.7933125, "name": "bbc4003b6e4294ba0b29da48c56efb0d", "bike_id": "bbc4003b6e4294ba0b29da48c56efb0d", "is_disabled": 0, "fusion_lon": 0.0, "type": "electric_bike", "lon": -77.00050566666667}, {"rental_uris": {"android": "https://dc.lft.to/lastmile_qr_scan", "ios": "https://dc.lft.to/lastmile_qr_scan"}, "fusion_lat": 0.0, "is_reserved": 0, "lat": 38.911753, "name": "b65f0f47dd5d99dd3282a364165a160c", "bike_id": "b65f0f47dd5d99dd3282a364165a160c", "is_disabled": 0, "fusion_lon": 0.0, "type": "electric_scooter", "lon": -77.00444366666666}, {"rental_uris": {"android": "https://dc.lft.to/lastmile_qr_scan", "ios": "https://dc.lft.to/lastmile_qr_scan"}, "fusion_lat": 0.0, "is_reserved": 0, "lat": 38.89278316666667, "name": "54f2f2401338a373d8b1ad11a001a1e1", "bike_id": "54f2f2401338a373d8b1ad11a001a1e1", "is_disabled": 0, "fusion_lon": 0.0, "type": "electric_scooter", "lon": -76.92134633333333}, {"rental_uris": {"android": "https://dc.lft.to/lastmile_qr_scan", "ios": "https://dc.lft.to/lastmile_qr_scan"}, "fusion_lat": 0.0, "is_reserved": 0, "lat": 38.9155385, "name": "ea98e097ff786905094a7bfdf404d822", "bike_id": "ea98e097ff786905094a7bfdf404d822", "is_disabled": 0, "fusion_lon": 0.0, "type": "electric_scooter", "lon": -77.01413216666667}, {"rental_uris": {"android": "https://dc.lft.to/lastmile_qr_scan", "ios": "https://dc.lft.to/lastmile_qr_scan"}, "fusion_lat": 0.0, "is_reserved": 0, "lat": 38.906494, "name": "8ff1241874f952485fbbec3bd7ee06f1", "bike_id": "8ff1241874f952485fbbec3bd7ee06f1", "is_disabled": 0, "fusion_lon": 0.0, "type": "electric_scooter", "lon": -77.011448}, {"rental_uris": {"android": "https://dc.lft.to/lastmile_qr_scan", "ios": "https://dc.lft.to/lastmile_qr_scan"}, "fusion_lat": 0.0, "is_reserved": 0, "lat": 38.9367935, "name": "b238c2a381b565ce05178992685173da", "bike_id": "b238c2a381b565ce05178992685173da", "is_disabled": 0, "fusion_lon": 0.0, "type": "electric_scooter", "lon": -77.03631066666667}, {"rental_uris": {"android": "https://dc.lft.to/lastmile_qr_scan", "ios": "https://dc.lft.to/lastmile_qr_scan"}, "fusion_lat": 0.0, "is_reserved": 0, "lat": 38.903319333333336, "name": "b43c519c60e7cca6cfaf6eaa7ec01fa6", "bike_id": "b43c519c60e7cca6cfaf6eaa7ec01fa6", "is_disabled": 0, "fusion_lon": 0.0, "type": "electric_bike", "lon": -76.93369816666667}, {"rental_uris": {"android": "https://dc.lft.to/lastmile_qr_scan", "ios": "https://dc.lft.to/lastmile_qr_scan"}, "fusion_lat": 0.0, "is_reserved": 0, "lat": 38.90210416666667, "name": "a076cbe341c03316b3c06b706ffc2bd4", "bike_id": "a076cbe341c03316b3c06b706ffc2bd4", "is_disabled": 0, "fusion_lon": 0.0, "type": "electric_scooter", "lon": -77.02436566666667}, {"rental_uris": {"android": "https://dc.lft.to/lastmile_qr_scan", "ios": "https://dc.lft.to/lastmile_qr_scan"}, "fusion_lat": 0.0, "is_reserved": 0, "lat": 38.887724666666664, "name": "0e5f3a713c6bf770dcd608968058be7c", "bike_id": "0e5f3a713c6bf770dcd608968058be7c", "is_disabled": 0, "fusion_lon": 0.0, "type": "electric_scooter", "lon": -76.93264066666667}, {"rental_uris": {"android": "https://dc.lft.to/lastmile_qr_scan", "ios": "https://dc.lft.to/lastmile_qr_scan"}, "fusion_lat": 0.0, "is_reserved": 0, "lat": 38.93357433333333, "name": "61b1d1dc4992e412b239b42d6c444970", "bike_id": "61b1d1dc4992e412b239b42d6c444970", "is_disabled": 0, "fusion_lon": 0.0, "type": "electric_scooter", "lon": -77.024941}, {"rental_uris": {"android": "https://dc.lft.to/lastmile_qr_scan", "ios": "https://dc.lft.to/lastmile_qr_scan"}, "fusion_lat": 0.0, "is_reserved": 0, "lat": 38.90730216666667, "name": "99e464cd102beb2e909cb1134f492751", "bike_id": "99e464cd102beb2e909cb1134f492751", "is_disabled": 0, "fusion_lon": 0.0, "type": "electric_scooter", "lon": -77.01726866666667}, {"rental_uris": {"android": "https://dc.lft.to/lastmile_qr_scan", "ios": "https://dc.lft.to/lastmile_qr_scan"}, "fusion_lat": 0.0, "is_reserved": 0, "lat": 38.9215, "name": "d9c731d0a686c6814d112ae5ed4bc816", "bike_id": "d9c731d0a686c6814d112ae5ed4bc816", "is_disabled": 0, "fusion_lon": 0.0, "type": "electric_scooter", "lon": -77.03384516666667}, {"rental_uris": {"android": "https://dc.lft.to/lastmile_qr_scan", "ios": "https://dc.lft.to/lastmile_qr_scan"}, "fusion_lat": 0.0, "is_reserved": 0, "lat": 38.887524666666664, "name": "cc2a56d71036d62a299122e46d8790a7", "bike_id": "cc2a56d71036d62a299122e46d8790a7", "is_disabled": 0, "fusion_lon": 0.0, "type": "electric_bike", "lon": -76.90080633333334}, {"rental_uris": {"android": "https://dc.lft.to/lastmile_qr_scan", "ios": "https://dc.lft.to/lastmile_qr_scan"}, "fusion_lat": 0.0, "is_reserved": 0, "lat": 38.920243166666666, "name": "18c9ccf3967a26cdf9a1e60ec8520f76", "bike_id": "18c9ccf3967a26cdf9a1e60ec8520f76", "is_disabled": 0, "fusion_lon": 0.0, "type": "electric_scooter", "lon": -76.98543599999999}, {"rental_uris": {"android": "https://dc.lft.to/lastmile_qr_scan", "ios": "https://dc.lft.to/lastmile_qr_scan"}, "fusion_lat": 0.0, "is_reserved": 0, "lat": 38.923648666666665, "name": "9a15d13959329a7b400d5469a560892a", "bike_id": "9a15d13959329a7b400d5469a560892a", "is_disabled": 0, "fusion_lon": 0.0, "type": "electric_scooter", "lon": -77.05032633333333}, {"rental_uris": {"android": "https://dc.lft.to/lastmile_qr_scan", "ios": "https://dc.lft.to/lastmile_qr_scan"}, "fusion_lat": 0.0, "is_reserved": 0, "lat": 38.921615, "name": "887bcf2fcb7fd497fb81a104a610f6f8", "bike_id": "887bcf2fcb7fd497fb81a104a610f6f8", "is_disabled": 0, "fusion_lon": 0.0, "type": "electric_scooter", "lon": -77.01908166666666}, {"rental_uris": {"android": "https://dc.lft.to/lastmile_qr_scan", "ios": "https://dc.lft.to/lastmile_qr_scan"}, "fusion_lat": 0.0, "is_reserved": 0, "lat": 38.92184683333333, "name": "cbf55948de27a98d7b5778621d08e189", "bike_id": "cbf55948de27a98d7b5778621d08e189", "is_disabled": 0, "fusion_lon": 0.0, "type": "electric_scooter", "lon": -76.99620466666667}, {"rental_uris": {"android": "https://dc.lft.to/lastmile_qr_scan", "ios": "https://dc.lft.to/lastmile_qr_scan"}, "fusion_lat": 0.0, "is_reserved": 0, "lat": 38.90157083333333, "name": "133c35278fa1e1e9de456ccff8fb3b36", "bike_id": "133c35278fa1e1e9de456ccff8fb3b36", "is_disabled": 0, "fusion_lon": 0.0, "type": "electric_scooter", "lon": -77.0317185}, {"rental_uris": {"android": "https://dc.lft.to/lastmile_qr_scan", "ios": "https://dc.lft.to/lastmile_qr_scan"}, "fusion_lat": 0.0, "is_reserved": 0, "lat": 38.9220175, "name": "d7a9ffe663926197c864325bc4b330b2", "bike_id": "d7a9ffe663926197c864325bc4b330b2", "is_disabled": 0, "fusion_lon": 0.0, "type": "electric_scooter", "lon": -77.02036466666667}, {"rental_uris": {"android": "https://dc.lft.to/lastmile_qr_scan", "ios": "https://dc.lft.to/lastmile_qr_scan"}, "fusion_lat": 0.0, "is_reserved": 0, "lat": 38.926709833333334, "name": "934def59895e9cb67336e274c6309af8", "bike_id": "934def59895e9cb67336e274c6309af8", "is_disabled": 0, "fusion_lon": 0.0, "type": "electric_scooter", "lon": -77.02875516666667}, {"rental_uris": {"android": "https://dc.lft.to/lastmile_qr_scan", "ios": "https://dc.lft.to/lastmile_qr_scan"}, "fusion_lat": 0.0, "is_reserved": 0, "lat": 38.923802333333335, "name": "f4f81458e09785c9c27e65b74d288f00", "bike_id": "f4f81458e09785c9c27e65b74d288f00", "is_disabled": 0, "fusion_lon": 0.0, "type": "electric_scooter", "lon": -77.0365115}, {"rental_uris": {"android": "https://dc.lft.to/lastmile_qr_scan", "ios": "https://dc.lft.to/lastmile_qr_scan"}, "fusion_lat": 0.0, "is_reserved": 0, "lat": 38.92337416666667, "name": "fe32f3971b1c6efd37c092d3e3ac7606", "bike_id": "fe32f3971b1c6efd37c092d3e3ac7606", "is_disabled": 0, "fusion_lon": 0.0, "type": "electric_scooter", "lon": -77.03551266666666}, {"rental_uris": {"android": "https://dc.lft.to/lastmile_qr_scan", "ios": "https://dc.lft.to/lastmile_qr_scan"}, "fusion_lat": 0.0, "is_reserved": 0, "lat": 38.90023566666667, "name": "0ebd3daa08049b0d113c8bc03023a915", "bike_id": "0ebd3daa08049b0d113c8bc03023a915", "is_disabled": 0, "fusion_lon": 0.0, "type": "electric_scooter", "lon": -77.01617033333333}, {"rental_uris": {"android": "https://dc.lft.to/lastmile_qr_scan", "ios": "https://dc.lft.to/lastmile_qr_scan"}, "fusion_lat": 0.0, "is_reserved": 0, "lat": 38.920289833333335, "name": "2b9b5f1bd9c641609d1d44308975b510", "bike_id": "2b9b5f1bd9c641609d1d44308975b510", "is_disabled": 0, "fusion_lon": 0.0, "type": "electric_scooter", "lon": -77.03089133333333}, {"rental_uris": {"android": "https://dc.lft.to/lastmile_qr_scan", "ios": "https://dc.lft.to/lastmile_qr_scan"}, "fusion_lat": 0.0, "is_reserved": 0, "lat": 38.9083755, "name": "b0a72b3369ac59ffd67d7160a1f7fb9e", "bike_id": "b0a72b3369ac59ffd67d7160a1f7fb9e", "is_disabled": 0, "fusion_lon": 0.0, "type": "electric_scooter", "lon": -77.00215933333334}, {"rental_uris": {"android": "https://dc.lft.to/lastmile_qr_scan", "ios": "https://dc.lft.to/lastmile_qr_scan"}, "fusion_lat": 0.0, "is_reserved": 0, "lat": 38.921339833333334, "name": "10dc3a91be2d941817f9b569f012f59a", "bike_id": "10dc3a91be2d941817f9b569f012f59a", "is_disabled": 0, "fusion_lon": 0.0, "type": "electric_scooter", "lon": -77.04113316666667}, {"rental_uris": {"android": "https://dc.lft.to/lastmile_qr_scan", "ios": "https://dc.lft.to/lastmile_qr_scan"}, "fusion_lat": 0.0, "is_reserved": 0, "lat": 38.90105633333334, "name": "64c1f42cd1ac2c7d5f673cbcd8ff890f", "bike_id": "64c1f42cd1ac2c7d5f673cbcd8ff890f", "is_disabled": 0, "fusion_lon": 0.0, "type": "electric_scooter", "lon": -77.04484466666666}, {"rental_uris": {"android": "https://dc.lft.to/lastmile_qr_scan", "ios": "https://dc.lft.to/lastmile_qr_scan"}, "fusion_lat": 0.0, "is_reserved": 0, "lat": 38.89887316666667, "name": "9fa0669e683bea022dbddc4ac2f361ca", "bike_id": "9fa0669e683bea022dbddc4ac2f361ca", "is_disabled": 0, "fusion_lon": 0.0, "type": "electric_scooter", "lon": -76.98839333333333}, {"rental_uris": {"android": "https://dc.lft.to/lastmile_qr_scan", "ios": "https://dc.lft.to/lastmile_qr_scan"}, "fusion_lat": 0.0, "is_reserved": 0, "lat": 38.926465666666665, "name": "6871869f9a362c210af24980473dbace", "bike_id": "6871869f9a362c210af24980473dbace", "is_disabled": 0, "fusion_lon": 0.0, "type": "electric_scooter", "lon": -77.0250755}, {"rental_uris": {"android": "https://dc.lft.to/lastmile_qr_scan", "ios": "https://dc.lft.to/lastmile_qr_scan"}, "fusion_lat": 0.0, "is_reserved": 0, "lat": 38.92368233333333, "name": "3d66d0faac7500bb4bb0ab1d1939d65a", "bike_id": "3d66d0faac7500bb4bb0ab1d1939d65a", "is_disabled": 0, "fusion_lon": 0.0, "type": "electric_scooter", "lon": -77.01952633333333}, {"rental_uris": {"android": "https://dc.lft.to/lastmile_qr_scan", "ios": "https://dc.lft.to/lastmile_qr_scan"}, "fusion_lat": 0.0, "is_reserved": 0, "lat": 38.89609333333333, "name": "e9db8ace16c925cd9e8774c04ce41b7f", "bike_id": "e9db8ace16c925cd9e8774c04ce41b7f", "is_disabled": 0, "fusion_lon": 0.0, "type": "electric_scooter", "lon": -76.9728605}, {"rental_uris": {"android": "https://dc.lft.to/lastmile_qr_scan", "ios": "https://dc.lft.to/lastmile_qr_scan"}, "fusion_lat": 0.0, "is_reserved": 0, "lat": 38.989871666666666, "name": "99e0054b236902910253442e4a16d8bb", "bike_id": "99e0054b236902910253442e4a16d8bb", "is_disabled": 0, "fusion_lon": 0.0, "type": "electric_scooter", "lon": -77.0336165}, {"rental_uris": {"android": "https://dc.lft.to/lastmile_qr_scan", "ios": "https://dc.lft.to/lastmile_qr_scan"}, "fusion_lat": 0.0, "is_reserved": 0, "lat": 38.924634, "name": "877ca8646a24b797c44f12691ca94aa5", "bike_id": "877ca8646a24b797c44f12691ca94aa5", "is_disabled": 0, "fusion_lon": 0.0, "type": "electric_scooter", "lon": -77.02692833333333}, {"rental_uris": {"android": "https://dc.lft.to/lastmile_qr_scan", "ios": "https://dc.lft.to/lastmile_qr_scan"}, "fusion_lat": 0.0, "is_reserved": 0, "lat": 38.897768, "name": "62c6a0096a29962bc89af05e23524bb7", "bike_id": "62c6a0096a29962bc89af05e23524bb7", "is_disabled": 0, "fusion_lon": 0.0, "type": "electric_scooter", "lon": -76.99275366666667}, {"rental_uris": {"android": "https://dc.lft.to/lastmile_qr_scan", "ios": "https://dc.lft.to/lastmile_qr_scan"}, "fusion_lat": 0.0, "is_reserved": 0, "lat": 38.921097833333334, "name": "b8659298fcaf77092332147c50b9e75e", "bike_id": "b8659298fcaf77092332147c50b9e75e", "is_disabled": 0, "fusion_lon": 0.0, "type": "electric_scooter", "lon": -77.04194933333333}, {"rental_uris": {"android": "https://dc.lft.to/lastmile_qr_scan", "ios": "https://dc.lft.to/lastmile_qr_scan"}, "fusion_lat": 0.0, "is_reserved": 0, "lat": 38.887232, "name": "a7902c92053a01e3e621a5e87f0ea58d", "bike_id": "a7902c92053a01e3e621a5e87f0ea58d", "is_disabled": 0, "fusion_lon": 0.0, "type": "electric_scooter", "lon": -76.9967825}, {"rental_uris": {"android": "https://dc.lft.to/lastmile_qr_scan", "ios": "https://dc.lft.to/lastmile_qr_scan"}, "fusion_lat": 0.0, "is_reserved": 0, "lat": 38.91537433333333, "name": "dafb1dab7cdddb62932a41d88e6dfd6d", "bike_id": "dafb1dab7cdddb62932a41d88e6dfd6d", "is_disabled": 0, "fusion_lon": 0.0, "type": "electric_scooter", "lon": -77.0200145}, {"rental_uris": {"android": "https://dc.lft.to/lastmile_qr_scan", "ios": "https://dc.lft.to/lastmile_qr_scan"}, "fusion_lat": 0.0, "is_reserved": 0, "lat": 38.94329883333333, "name": "1348bf6648d8ce8c1f771781767a172a", "bike_id": "1348bf6648d8ce8c1f771781767a172a", "is_disabled": 0, "fusion_lon": 0.0, "type": "electric_scooter", "lon": -77.0155415}, {"rental_uris": {"android": "https://dc.lft.to/lastmile_qr_scan", "ios": "https://dc.lft.to/lastmile_qr_scan"}, "fusion_lat": 0.0, "is_reserved": 0, "lat": 38.92841266666667, "name": "8bd0860c3cce46c528ecc957b173e570", "bike_id": "8bd0860c3cce46c528ecc957b173e570", "is_disabled": 0, "fusion_lon": 0.0, "type": "electric_scooter", "lon": -77.02486866666666}, {"rental_uris": {"android": "https://dc.lft.to/lastmile_qr_scan", "ios": "https://dc.lft.to/lastmile_qr_scan"}, "fusion_lat": 0.0, "is_reserved": 0, "lat": 38.9332085, "name": "3efcaebb6cc46f34218e0e6d1a4d4037", "bike_id": "3efcaebb6cc46f34218e0e6d1a4d4037", "is_disabled": 0, "fusion_lon": 0.0, "type": "electric_scooter", "lon": -77.0379475}, {"rental_uris": {"android": "https://dc.lft.to/lastmile_qr_scan", "ios": "https://dc.lft.to/lastmile_qr_scan"}, "fusion_lat": 0.0, "is_reserved": 0, "lat": 38.86236933333333, "name": "542e732fd05c333a09405f66bf69f114", "bike_id": "542e732fd05c333a09405f66bf69f114", "is_disabled": 0, "fusion_lon": 0.0, "type": "electric_scooter", "lon": -76.9816765}, {"rental_uris": {"android": "https://dc.lft.to/lastmile_qr_scan", "ios": "https://dc.lft.to/lastmile_qr_scan"}, "fusion_lat": 0.0, "is_reserved": 0, "lat": 38.93502383333333, "name": "f11c7b47f0669fc82a6f37c5e65af177", "bike_id": "f11c7b47f0669fc82a6f37c5e65af177", "is_disabled": 0, "fusion_lon": 0.0, "type": "electric_scooter", "lon": -77.04458566666666}, {"rental_uris": {"android": "https://dc.lft.to/lastmile_qr_scan", "ios": "https://dc.lft.to/lastmile_qr_scan"}, "fusion_lat": 0.0, "is_reserved": 0, "lat": 38.915775333333336, "name": "47a33a8eeab36fa48e0afb80d311dad7", "bike_id": "47a33a8eeab36fa48e0afb80d311dad7", "is_disabled": 0, "fusion_lon": 0.0, "type": "electric_scooter", "lon": -77.012408}, {"rental_uris": {"android": "https://dc.lft.to/lastmile_qr_scan", "ios": "https://dc.lft.to/lastmile_qr_scan"}, "fusion_lat": 0.0, "is_reserved": 0, "lat": 38.984292833333335, "name": "e965117c30ed0a13f3f951f66f249f78", "bike_id": "e965117c30ed0a13f3f951f66f249f78", "is_disabled": 0, "fusion_lon": 0.0, "type": "electric_scooter", "lon": -77.02675466666666}, {"rental_uris": {"android": "https://dc.lft.to/lastmile_qr_scan", "ios": "https://dc.lft.to/lastmile_qr_scan"}, "fusion_lat": 0.0, "is_reserved": 0, "lat": 38.898072666666664, "name": "c451111068a25162f4397c83c649afd4", "bike_id": "c451111068a25162f4397c83c649afd4", "is_disabled": 0, "fusion_lon": 0.0, "type": "electric_bike", "lon": -76.990856}, {"rental_uris": {"android": "https://dc.lft.to/lastmile_qr_scan", "ios": "https://dc.lft.to/lastmile_qr_scan"}, "fusion_lat": 0.0, "is_reserved": 0, "lat": 38.935146, "name": "eb02d8312900e26860bacf914742dd9a", "bike_id": "eb02d8312900e26860bacf914742dd9a", "is_disabled": 0, "fusion_lon": 0.0, "type": "electric_scooter", "lon": -77.032912}, {"rental_uris": {"android": "https://dc.lft.to/lastmile_qr_scan", "ios": "https://dc.lft.to/lastmile_qr_scan"}, "fusion_lat": 0.0, "is_reserved": 0, "lat": 38.91961933333333, "name": "a431fb0ab65ef13df23cc55ad127c002", "bike_id": "a431fb0ab65ef13df23cc55ad127c002", "is_disabled": 0, "fusion_lon": 0.0, "type": "electric_scooter", "lon": -77.04218233333333}, {"rental_uris": {"android": "https://dc.lft.to/lastmile_qr_scan", "ios": "https://dc.lft.to/lastmile_qr_scan"}, "fusion_lat": 0.0, "is_reserved": 0, "lat": 38.8844045, "name": "10a6ee66a09a6438539613bfecdd085e", "bike_id": "10a6ee66a09a6438539613bfecdd085e", "is_disabled": 0, "fusion_lon": 0.0, "type": "electric_scooter", "lon": -77.003482}, {"rental_uris": {"android": "https://dc.lft.to/lastmile_qr_scan", "ios": "https://dc.lft.to/lastmile_qr_scan"}, "fusion_lat": 0.0, "is_reserved": 0, "lat": 38.88878883333334, "name": "11bb896f64d6a190d44670814edaaba3", "bike_id": "11bb896f64d6a190d44670814edaaba3", "is_disabled": 0, "fusion_lon": 0.0, "type": "electric_scooter", "lon": -76.990343}, {"rental_uris": {"android": "https://dc.lft.to/lastmile_qr_scan", "ios": "https://dc.lft.to/lastmile_qr_scan"}, "fusion_lat": 0.0, "is_reserved": 0, "lat": 38.91385433333333, "name": "4166fe150077732cf49f133fe3a29e5d", "bike_id": "4166fe150077732cf49f133fe3a29e5d", "is_disabled": 0, "fusion_lon": 0.0, "type": "electric_scooter", "lon": -76.98425416666667}, {"rental_uris": {"android": "https://dc.lft.to/lastmile_qr_scan", "ios": "https://dc.lft.to/lastmile_qr_scan"}, "fusion_lat": 0.0, "is_reserved": 0, "lat": 38.909799, "name": "f314321708d1ecd63cdef2659c670b0e", "bike_id": "f314321708d1ecd63cdef2659c670b0e", "is_disabled": 0, "fusion_lon": 0.0, "type": "electric_scooter", "lon": -77.03225433333333}, {"rental_uris": {"android": "https://dc.lft.to/lastmile_qr_scan", "ios": "https://dc.lft.to/lastmile_qr_scan"}, "fusion_lat": 0.0, "is_reserved": 0, "lat": 38.9086205, "name": "ce95428a18f994d244274426fe335771", "bike_id": "ce95428a18f994d244274426fe335771", "is_disabled": 0, "fusion_lon": 0.0, "type": "electric_scooter", "lon": -77.0035015}, {"rental_uris": {"android": "https://dc.lft.to/lastmile_qr_scan", "ios": "https://dc.lft.to/lastmile_qr_scan"}, "fusion_lat": 0.0, "is_reserved": 0, "lat": 38.97367166666667, "name": "377ce2498798df942ac89f6bef9bb5a8", "bike_id": "377ce2498798df942ac89f6bef9bb5a8", "is_disabled": 0, "fusion_lon": 0.0, "type": "electric_scooter", "lon": -77.0267395}, {"rental_uris": {"android": "https://dc.lft.to/lastmile_qr_scan", "ios": "https://dc.lft.to/lastmile_qr_scan"}, "fusion_lat": 0.0, "is_reserved": 0, "lat": 38.89302883333333, "name": "40c8118cdee3763306e75dc004520177", "bike_id": "40c8118cdee3763306e75dc004520177", "is_disabled": 0, "fusion_lon": 0.0, "type": "electric_scooter", "lon": -76.93975016666667}, {"rental_uris": {"android": "https://dc.lft.to/lastmile_qr_scan", "ios": "https://dc.lft.to/lastmile_qr_scan"}, "fusion_lat": 0.0, "is_reserved": 0, "lat": 38.90589533333333, "name": "c3cce3b7c2970f28f5bd6cca7b5d413c", "bike_id": "c3cce3b7c2970f28f5bd6cca7b5d413c", "is_disabled": 0, "fusion_lon": 0.0, "type": "electric_scooter", "lon": -77.021831}, {"rental_uris": {"android": "https://dc.lft.to/lastmile_qr_scan", "ios": "https://dc.lft.to/lastmile_qr_scan"}, "fusion_lat": 0.0, "is_reserved": 0, "lat": 38.91779416666667, "name": "959f6a892ad6d20d8702bb954599eb2f", "bike_id": "959f6a892ad6d20d8702bb954599eb2f", "is_disabled": 0, "fusion_lon": 0.0, "type": "electric_scooter", "lon": -77.04752666666667}, {"rental_uris": {"android": "https://dc.lft.to/lastmile_qr_scan", "ios": "https://dc.lft.to/lastmile_qr_scan"}, "fusion_lat": 0.0, "is_reserved": 0, "lat": 38.912639166666665, "name": "a367f58eaf98654ebe8baa838f97deb4", "bike_id": "a367f58eaf98654ebe8baa838f97deb4", "is_disabled": 0, "fusion_lon": 0.0, "type": "electric_scooter", "lon": -77.022082}, {"rental_uris": {"android": "https://dc.lft.to/lastmile_qr_scan", "ios": "https://dc.lft.to/lastmile_qr_scan"}, "fusion_lat": 0.0, "is_reserved": 0, "lat": 38.91772233333333, "name": "9403805e0b9a8aa476b65dc2f64bf676", "bike_id": "9403805e0b9a8aa476b65dc2f64bf676", "is_disabled": 0, "fusion_lon": 0.0, "type": "electric_scooter", "lon": -77.023041}, {"rental_uris": {"android": "https://dc.lft.to/lastmile_qr_scan", "ios": "https://dc.lft.to/lastmile_qr_scan"},