{"data": {"bikes": [{"fusion_lat": 0.0, "name": "caf7965206a33abaf55bdbb06b22b57c", "is_disabled": 0, "rental_uris": {"android": "https://dc.lft.to/lastmile_qr_scan", "ios": "https://dc.lft.to/lastmile_qr_scan"}, "fusion_lon": 0.0, "lat": 38.97120066666667, "bike_id": "caf7965206a33abaf55bdbb06b22b57c", "type": "electric_bike", "is_reserved": 0, "lon": -77.02090466666667}, {"fusion_lat": 0.0, "name": "afe1de95e3d9cdedb2422d51d88cae12", "is_disabled": 0, "rental_uris": {"android": "https://dc.lft.to/lastmile_qr_scan", "ios": "https://dc.lft.to/lastmile_qr_scan"}, "fusion_lon": 0.0, "lat": 38.938948333333336, "bike_id": "afe1de95e3d9cdedb2422d51d88cae12", "type": "electric_scooter", "is_reserved": 0, "lon": -77.03327566666667}, {"fusion_lat": 0.0, "name": "58cb6449878c279f6d1373da44c576cc", "is_disabled": 0, "rental_uris": {"android": "https://dc.lft.to/lastmile_qr_scan", "ios": "https://dc.lft.to/lastmile_qr_scan"}, "fusion_lon": 0.0, "lat": 38.90252516666666, "bike_id": "58cb6449878c279f6d1373da44c576cc", "type": "electric_scooter", "is_reserved": 0, "lon": -77.02600316666667}, {"fusion_lat": 0.0, "name": "24e85635a3aec3639e323c916563d235", "is_disabled": 0, "rental_uris": {"android": "https://dc.lft.to/lastmile_qr_scan", "ios": "https://dc.lft.to/lastmile_qr_scan"}, "fusion_lon": 0.0, "lat": 38.923139, "bike_id": "24e85635a3aec3639e323c916563d235", "type": "electric_scooter", "is_reserved": 0, "lon": -77.02795116666667}, {"fusion_lat": 0.0, "name": "f99b52a35938e1af197c70a269f62cdc", "is_disabled": 0, "rental_uris": {"android": "https://dc.lft.to/lastmile_qr_scan", "ios": "https://dc.lft.to/lastmile_qr_scan"}, "fusion_lon": 0.0, "lat": 38.933772833333336, "bike_id": "f99b52a35938e1af197c70a269f62cdc", "type": "electric_scooter", "is_reserved": 0, "lon": -77.0242015}, {"fusion_lat": 0.0, "name": "39d0b250aaab461e3cb959bb8c56bfb0", "is_disabled": 0, "rental_uris": {"android": "https://dc.lft.to/lastmile_qr_scan", "ios": "https://dc.lft.to/lastmile_qr_scan"}, "fusion_lon": 0.0, "lat": 38.898877666666664, "bike_id": "39d0b250aaab461e3cb959bb8c56bfb0", "type": "electric_scooter", "is_reserved": 0, "lon": -77.01497233333333}, {"fusion_lat": 0.0, "name": "077b4707855cbd394c8c50b6ce073c69", "is_disabled": 0, "rental_uris": {"android": "https://dc.lft.to/lastmile_qr_scan", "ios": "https://dc.lft.to/lastmile_qr_scan"}, "fusion_lon": 0.0, "lat": 38.92787666666667, "bike_id": "077b4707855cbd394c8c50b6ce073c69", "type": "electric_scooter", "is_reserved": 0, "lon": -77.03148416666667}, {"fusion_lat": 0.0, "name": "2c1f7ae63e9c5a6812f1c48b53877d08", "is_disabled": 0, "rental_uris": {"android": "https://dc.lft.to/lastmile_qr_scan", "ios": "https://dc.lft.to/lastmile_qr_scan"}, "fusion_lon": 0.0, "lat": 38.93371616666667, "bike_id": "2c1f7ae63e9c5a6812f1c48b53877d08", "type": "electric_scooter", "is_reserved": 0, "lon": -77.0243135}, {"fusion_lat": 0.0, "name": "f0878b95da7f372a7303ce0bdab84a4b", "is_disabled": 0, "rental_uris": {"android": "https://dc.lft.to/lastmile_qr_scan", "ios": "https://dc.lft.to/lastmile_qr_scan"}, "fusion_lon": 0.0, "lat": 38.924506666666666, "bike_id": "f0878b95da7f372a7303ce0bdab84a4b", "type": "electric_scooter", "is_reserved": 0, "lon": -77.03325333333333}, {"fusion_lat": 0.0, "name": "577c40e381c3a39f3d09270115ca00be", "is_disabled": 0, "rental_uris": {"android": "https://dc.lft.to/lastmile_qr_scan", "ios": "https://dc.lft.to/lastmile_qr_scan"}, "fusion_lon": 0.0, "lat": 38.9352515, "bike_id": "577c40e381c3a39f3d09270115ca00be", "type": "electric_scooter", "is_reserved": 0, "lon": -77.0234575}, {"fusion_lat": 0.0, "name": "c157b83f5c512e101f416f80738555f3", "is_disabled": 0, "rental_uris": {"android": "https://dc.lft.to/lastmile_qr_scan", "ios": "https://dc.lft.to/lastmile_qr_scan"}, "fusion_lon": 0.0, "lat": 38.88990733333333, "bike_id": "c157b83f5c512e101f416f80738555f3", "type": "electric_scooter", "is_reserved": 0, "lon": -76.98224633333334}, {"fusion_lat": 0.0, "name": "1478f46874fbb1b7d3f31a414bd43851", "is_disabled": 0, "rental_uris": {"android": "https://dc.lft.to/lastmile_qr_scan", "ios": "https://dc.lft.to/lastmile_qr_scan"}, "fusion_lon": 0.0, "lat": 38.917284333333335, "bike_id": "1478f46874fbb1b7d3f31a414bd43851", "type": "electric_scooter", "is_reserved": 0, "lon": -77.03656666666667}, {"fusion_lat": 0.0, "name": "64694db4e8f48df3a43921755ed3f3dc", "is_disabled": 0, "rental_uris": {"android": "https://dc.lft.to/lastmile_qr_scan", "ios": "https://dc.lft.to/lastmile_qr_scan"}, "fusion_lon": 0.0, "lat": 38.92380133333333, "bike_id": "64694db4e8f48df3a43921755ed3f3dc", "type": "electric_scooter", "is_reserved": 0, "lon": -77.04021233333333}, {"fusion_lat": 0.0, "name": "6b36c9fdb14c05fa26597261a1c97641", "is_disabled": 0, "rental_uris": {"android": "https://dc.lft.to/lastmile_qr_scan", "ios": "https://dc.lft.to/lastmile_qr_scan"}, "fusion_lon": 0.0, "lat": 38.9095435, "bike_id": "6b36c9fdb14c05fa26597261a1c97641", "type": "electric_scooter", "is_reserved": 0, "lon": -77.04858033333333}, {"fusion_lat": 0.0, "name": "fc321b59683c93654ceafe789fdf5297", "is_disabled": 0, "rental_uris": {"android": "https://dc.lft.to/lastmile_qr_scan", "ios": "https://dc.lft.to/lastmile_qr_scan"}, "fusion_lon": 0.0, "lat": 38.89331633333333, "bike_id": "fc321b59683c93654ceafe789fdf5297", "type": "electric_scooter", "is_reserved": 0, "lon": -76.93927733333334}, {"fusion_lat": 0.0, "name": "466efb0201127a9274afcded65bf46f5", "is_disabled": 0, "rental_uris": {"android": "https://dc.lft.to/lastmile_qr_scan", "ios": "https://dc.lft.to/lastmile_qr_scan"}, "fusion_lon": 0.0, "lat": 38.804455833333336, "bike_id": "466efb0201127a9274afcded65bf46f5", "type": "electric_bike", "is_reserved": 0, "lon": -77.13227383333333}, {"fusion_lat": 0.0, "name": "6bf124693f5e9254157a2a069886c3bc", "is_disabled": 0, "rental_uris": {"android": "https://dc.lft.to/lastmile_qr_scan", "ios": "https://dc.lft.to/lastmile_qr_scan"}, "fusion_lon": 0.0, "lat": 38.906893333333336, "bike_id": "6bf124693f5e9254157a2a069886c3bc", "type": "electric_scooter", "is_reserved": 0, "lon": -77.0651625}, {"fusion_lat": 0.0, "name": "104dce0fa4ce72dcd1d3a25cab62eed0", "is_disabled": 0, "rental_uris": {"android": "https://dc.lft.to/lastmile_qr_scan", "ios": "https://dc.lft.to/lastmile_qr_scan"}, "fusion_lon": 0.0, "lat": 38.918132166666666, "bike_id": "104dce0fa4ce72dcd1d3a25cab62eed0", "type": "electric_scooter", "is_reserved": 0, "lon": -77.02608816666667}, {"fusion_lat": 0.0, "name": "8ee7cb2c3a448466325a25a5f011056d", "is_disabled": 0, "rental_uris": {"android": "https://dc.lft.to/lastmile_qr_scan", "ios": "https://dc.lft.to/lastmile_qr_scan"}, "fusion_lon": 0.0, "lat": 38.902853, "bike_id": "8ee7cb2c3a448466325a25a5f011056d", "type": "electric_scooter", "is_reserved": 0, "lon": -76.99044833333333}, {"fusion_lat": 0.0, "name": "4defa67fa0fa0e55ed6ad2b27b1e4d43", "is_disabled": 0, "rental_uris": {"android": "https://dc.lft.to/lastmile_qr_scan", "ios": "https://dc.lft.to/lastmile_qr_scan"}, "fusion_lon": 0.0, "lat": 38.916440333333334, "bike_id": "4defa67fa0fa0e55ed6ad2b27b1e4d43", "type": "electric_scooter", "is_reserved": 0, "lon": -77.02402733333334}, {"fusion_lat": 0.0, "name": "ebf2c1f9fd2ac16744773936ee9733d2", "is_disabled": 0, "rental_uris": {"android": "https://dc.lft.to/lastmile_qr_scan", "ios": "https://dc.lft.to/lastmile_qr_scan"}, "fusion_lon": 0.0, "lat": 38.922783333333335, "bike_id": "ebf2c1f9fd2ac16744773936ee9733d2", "type": "electric_scooter", "is_reserved": 0, "lon": -77.07310916666667}, {"fusion_lat": 0.0, "name": "6109f9db78213710b9bba5853f3ff4d6", "is_disabled": 0, "rental_uris": {"android": "https://dc.lft.to/lastmile_qr_scan", "ios": "https://dc.lft.to/lastmile_qr_scan"}, "fusion_lon": 0.0, "lat": 38.89956633333333, "bike_id": "6109f9db78213710b9bba5853f3ff4d6", "type": "electric_scooter", "is_reserved": 0, "lon": -77.04523133333333}, {"fusion_lat": 0.0, "name": "c7c083cd482f70e954b249f894e2bc85", "is_disabled": 0, "rental_uris": {"android": "https://dc.lft.to/lastmile_qr_scan", "ios": "https://dc.lft.to/lastmile_qr_scan"}, "fusion_lon": 0.0, "lat": 38.995242166666664, "bike_id": "c7c083cd482f70e954b249f894e2bc85", "type": "electric_bike", "is_reserved": 0, "lon": -77.029058}, {"fusion_lat": 0.0, "name": "c82f5b133c9adba2c59498648580b193", "is_disabled": 0, "rental_uris": {"android": "https://dc.lft.to/lastmile_qr_scan", "ios": "https://dc.lft.to/lastmile_qr_scan"}, "fusion_lon": 0.0, "lat": 38.9376195, "bike_id": "c82f5b133c9adba2c59498648580b193", "type": "electric_scooter", "is_reserved": 0, "lon": -77.07595383333333}, {"fusion_lat": 0.0, "name": "b33598b8c115135a12487ecc6c652bd9", "is_disabled": 0, "rental_uris": {"android": "https://dc.lft.to/lastmile_qr_scan", "ios": "https://dc.lft.to/lastmile_qr_scan"}, "fusion_lon": 0.0, "lat": 38.9071245, "bike_id": "b33598b8c115135a12487ecc6c652bd9", "type": "electric_scooter", "is_reserved": 0, "lon": -76.9981575}, {"fusion_lat": 0.0, "name": "0aebc995f02a0aa1593904b02c170e86", "is_disabled": 0, "rental_uris": {"android": "https://dc.lft.to/lastmile_qr_scan", "ios": "https://dc.lft.to/lastmile_qr_scan"}, "fusion_lon": 0.0, "lat": 38.884410833333334, "bike_id": "0aebc995f02a0aa1593904b02c170e86", "type": "electric_scooter", "is_reserved": 0, "lon": -77.00345616666667}, {"fusion_lat": 0.0, "name": "98f503dfcb0bd2d02de4e643ec20acfa", "is_disabled": 0, "rental_uris": {"android": "https://dc.lft.to/lastmile_qr_scan", "ios": "https://dc.lft.to/lastmile_qr_scan"}, "fusion_lon": 0.0, "lat": 38.895342666666664, "bike_id": "98f503dfcb0bd2d02de4e643ec20acfa", "type": "electric_scooter", "is_reserved": 0, "lon": -76.94962233333334}, {"fusion_lat": 0.0, "name": "b3023b3d13f274a041bcb8d4edbfa870", "is_disabled": 0, "rental_uris": {"android": "https://dc.lft.to/lastmile_qr_scan", "ios": "https://dc.lft.to/lastmile_qr_scan"}, "fusion_lon": 0.0, "lat": 38.90407783333333, "bike_id": "b3023b3d13f274a041bcb8d4edbfa870", "type": "electric_scooter", "is_reserved": 0, "lon": -76.97330933333333}, {"fusion_lat": 0.0, "name": "0fb2c821871c424585f3cd59f4d866cf", "is_disabled": 0, "rental_uris": {"android": "https://dc.lft.to/lastmile_qr_scan", "ios": "https://dc.lft.to/lastmile_qr_scan"}, "fusion_lon": 0.0, "lat": 38.91136866666667, "bike_id": "0fb2c821871c424585f3cd59f4d866cf", "type": "electric_bike", "is_reserved": 0, "lon": -77.0657955}, {"fusion_lat": 0.0, "name": "5e58017203ed6d2b577dcf0e0e814aa5", "is_disabled": 0, "rental_uris": {"android": "https://dc.lft.to/lastmile_qr_scan", "ios": "https://dc.lft.to/lastmile_qr_scan"}, "fusion_lon": 0.0, "lat": 38.900332666666664, "bike_id": "5e58017203ed6d2b577dcf0e0e814aa5", "type": "electric_scooter", "is_reserved": 0, "lon": -77.00196516666666}, {"fusion_lat": 0.0, "name": "d88a759e8b6993eab370c2ac94fccf1a", "is_disabled": 0, "rental_uris": {"android": "https://dc.lft.to/lastmile_qr_scan", "ios": "https://dc.lft.to/lastmile_qr_scan"}, "fusion_lon": 0.0, "lat": 38.926013166666664, "bike_id": "d88a759e8b6993eab370c2ac94fccf1a", "type": "electric_scooter", "is_reserved": 0, "lon": -77.0339925}, {"fusion_lat": 0.0, "name": "2c419019bd2e27cfd0ff6c764fe54196", "is_disabled": 0, "rental_uris": {"android": "https://dc.lft.to/lastmile_qr_scan", "ios": "https://dc.lft.to/lastmile_qr_scan"}, "fusion_lon": 0.0, "lat": 38.896757666666666, "bike_id": "2c419019bd2e27cfd0ff6c764fe54196", "type": "electric_scooter", "is_reserved": 0, "lon": -77.0510345}, {"fusion_lat": 0.0, "name": "567ba4e604abbe8860a9a1e51a65182c", "is_disabled": 0, "rental_uris": {"android": "https://dc.lft.to/lastmile_qr_scan", "ios": "https://dc.lft.to/lastmile_qr_scan"}, "fusion_lon": 0.0, "lat": 38.80446083333333, "bike_id": "567ba4e604abbe8860a9a1e51a65182c", "type": "electric_bike", "is_reserved": 0, "lon": -77.05388766666667}, {"fusion_lat": 0.0, "name": "e95365bf7955cf7c03d991647d6f0ea1", "is_disabled": 0, "rental_uris": {"android": "https://dc.lft.to/lastmile_qr_scan", "ios": "https://dc.lft.to/lastmile_qr_scan"}, "fusion_lon": 0.0, "lat": 38.866487, "bike_id": "e95365bf7955cf7c03d991647d6f0ea1", "type": "electric_scooter", "is_reserved": 0, "lon": -77.0106145}, {"fusion_lat": 0.0, "name": "e77b4af322e3b10416c0574df4eeb5d7", "is_disabled": 0, "rental_uris": {"android": "https://dc.lft.to/lastmile_qr_scan", "ios": "https://dc.lft.to/lastmile_qr_scan"}, "fusion_lon": 0.0, "lat": 38.893610833333334, "bike_id": "e77b4af322e3b10416c0574df4eeb5d7", "type": "electric_scooter", "is_reserved": 0, "lon": -77.022512}, {"fusion_lat": 0.0, "name": "880c8e939e7d27376d813d8f6740e9d9", "is_disabled": 0, "rental_uris": {"android": "https://dc.lft.to/lastmile_qr_scan", "ios": "https://dc.lft.to/lastmile_qr_scan"}, "fusion_lon": 0.0, "lat": 38.87741166666667, "bike_id": "880c8e939e7d27376d813d8f6740e9d9", "type": "electric_scooter", "is_reserved": 0, "lon": -77.0034075}, {"fusion_lat": 0.0, "name": "d791a61f8704ce4c9059b86170af46d8", "is_disabled": 0, "rental_uris": {"android": "https://dc.lft.to/lastmile_qr_scan", "ios": "https://dc.lft.to/lastmile_qr_scan"}, "fusion_lon": 0.0, "lat": 38.90315783333333, "bike_id": "d791a61f8704ce4c9059b86170af46d8", "type": "electric_scooter", "is_reserved": 0, "lon": -77.01197066666667}, {"fusion_lat": 0.0, "name": "89e53792a7b90b7f180958ee23480689", "is_disabled": 0, "rental_uris": {"android": "https://dc.lft.to/lastmile_qr_scan", "ios": "https://dc.lft.to/lastmile_qr_scan"}, "fusion_lon": 0.0, "lat": 38.92475233333333, "bike_id": "89e53792a7b90b7f180958ee23480689", "type": "electric_scooter", "is_reserved": 0, "lon": -77.039088}, {"fusion_lat": 0.0, "name": "39227fb1603b1c8e67b4f18e1c4a2503", "is_disabled": 0, "rental_uris": {"android": "https://dc.lft.to/lastmile_qr_scan", "ios": "https://dc.lft.to/lastmile_qr_scan"}, "fusion_lon": 0.0, "lat": 38.9231335, "bike_id": "39227fb1603b1c8e67b4f18e1c4a2503", "type": "electric_scooter", "is_reserved": 0, "lon": -77.0390545}, {"fusion_lat": 0.0, "name": "ecca68a7a847e6e7913ef5083168b074", "is_disabled": 0, "rental_uris": {"android": "https://dc.lft.to/lastmile_qr_scan", "ios": "https://dc.lft.to/lastmile_qr_scan"}, "fusion_lon": 0.0, "lat": 38.90942016666666, "bike_id": "ecca68a7a847e6e7913ef5083168b074", "type": "electric_scooter", "is_reserved": 0, "lon": -77.021838}, {"fusion_lat": 0.0, "name": "8787ab0daa99af7deb596918e9700ca9", "is_disabled": 0, "rental_uris": {"android": "https://dc.lft.to/lastmile_qr_scan", "ios": "https://dc.lft.to/lastmile_qr_scan"}, "fusion_lon": 0.0, "lat": 38.907141833333334, "bike_id": "8787ab0daa99af7deb596918e9700ca9", "type": "electric_scooter", "is_reserved": 0, "lon": -77.05133733333334}, {"fusion_lat": 0.0, "name": "ed96ac8e47400cd326b415ce94f354f6", "is_disabled": 0, "rental_uris": {"android": "https://dc.lft.to/lastmile_qr_scan", "ios": "https://dc.lft.to/lastmile_qr_scan"}, "fusion_lon": 0.0, "lat": 38.89218916666667, "bike_id": "ed96ac8e47400cd326b415ce94f354f6", "type": "electric_scooter", "is_reserved": 0, "lon": -77.03220683333333}, {"fusion_lat": 0.0, "name": "a2f98adebba9aa3af8dfe2e3c382ddc8", "is_disabled": 0, "rental_uris": {"android": "https://dc.lft.to/lastmile_qr_scan", "ios": "https://dc.lft.to/lastmile_qr_scan"}, "fusion_lon": 0.0, "lat": 38.91607533333333, "bike_id": "a2f98adebba9aa3af8dfe2e3c382ddc8", "type": "electric_scooter", "is_reserved": 0, "lon": -77.04603866666666}, {"fusion_lat": 0.0, "name": "1fe441a606a02118f1c79c5cd698dbe6", "is_disabled": 0, "rental_uris": {"android": "https://dc.lft.to/lastmile_qr_scan", "ios": "https://dc.lft.to/lastmile_qr_scan"}, "fusion_lon": 0.0, "lat": 38.87750916666667, "bike_id": "1fe441a606a02118f1c79c5cd698dbe6", "type": "electric_scooter", "is_reserved": 0, "lon": -77.01428466666667}, {"fusion_lat": 0.0, "name": "93b26d455f7f47c32462262cdb91b721", "is_disabled": 0, "rental_uris": {"android": "https://dc.lft.to/lastmile_qr_scan", "ios": "https://dc.lft.to/lastmile_qr_scan"}, "fusion_lon": 0.0, "lat": 38.9006525, "bike_id": "93b26d455f7f47c32462262cdb91b721", "type": "electric_scooter", "is_reserved": 0, "lon": -76.9273975}, {"fusion_lat": 0.0, "name": "ed6e840a0e7c68a99aa47a5bf83173dc", "is_disabled": 0, "rental_uris": {"android": "https://dc.lft.to/lastmile_qr_scan", "ios": "https://dc.lft.to/lastmile_qr_scan"}, "fusion_lon": 0.0, "lat": 38.916057333333335, "bike_id": "ed6e840a0e7c68a99aa47a5bf83173dc", "type": "electric_scooter", "is_reserved": 0, "lon": -77.045972}, {"fusion_lat": 0.0, "name": "a283bbe98bcf2d7588ecf46cc260a5cd", "is_disabled": 0, "rental_uris": {"android": "https://dc.lft.to/lastmile_qr_scan", "ios": "https://dc.lft.to/lastmile_qr_scan"}, "fusion_lon": 0.0, "lat": 38.94149016666667, "bike_id": "a283bbe98bcf2d7588ecf46cc260a5cd", "type": "electric_bike", "is_reserved": 0, "lon": -77.00176116666667}, {"fusion_lat": 0.0, "name": "9d50b045d7cb33461914332fe087982e", "is_disabled": 0, "rental_uris": {"android": "https://dc.lft.to/lastmile_qr_scan", "ios": "https://dc.lft.to/lastmile_qr_scan"}, "fusion_lon": 0.0, "lat": 38.929681, "bike_id": "9d50b045d7cb33461914332fe087982e", "type": "electric_scooter", "is_reserved": 0, "lon": -77.03136183333334}, {"fusion_lat": 0.0, "name": "239d8ed9ec6f83202eb68c7d0325297c", "is_disabled": 0, "rental_uris": {"android": "https://dc.lft.to/lastmile_qr_scan", "ios": "https://dc.lft.to/lastmile_qr_scan"}, "fusion_lon": 0.0, "lat": 38.90224766666667, "bike_id": "239d8ed9ec6f83202eb68c7d0325297c", "type": "electric_scooter", "is_reserved": 0, "lon": -77.05989683333334}, {"fusion_lat": 0.0, "name": "1869f9d379b54f1dddc9bd923442e545", "is_disabled": 0, "rental_uris": {"android": "https://dc.lft.to/lastmile_qr_scan", "ios": "https://dc.lft.to/lastmile_qr_scan"}, "fusion_lon": 0.0, "lat": 38.90407883333334, "bike_id": "1869f9d379b54f1dddc9bd923442e545", "type": "electric_scooter", "is_reserved": 0, "lon": -76.97327283333334}, {"fusion_lat": 0.0, "name": "ba40dba7a3e9d2d8e6bca0ba732d14e3", "is_disabled": 0, "rental_uris": {"android": "https://dc.lft.to/lastmile_qr_scan", "ios": "https://dc.lft.to/lastmile_qr_scan"}, "fusion_lon": 0.0, "lat": 38.98782283333333, "bike_id": "ba40dba7a3e9d2d8e6bca0ba732d14e3", "type": "electric_bike", "is_reserved": 0, "lon": -77.14097083333333}, {"fusion_lat": 0.0, "name": "34c2db21975043539a1d4667b1cd2322", "is_disabled": 0, "rental_uris": {"android": "https://dc.lft.to/lastmile_qr_scan", "ios": "https://dc.lft.to/lastmile_qr_scan"}, "fusion_lon": 0.0, "lat": 38.915704833333336, "bike_id": "34c2db21975043539a1d4667b1cd2322", "type": "electric_scooter", "is_reserved": 0, "lon": -77.01246266666666}, {"fusion_lat": 0.0, "name": "8516eaef3ede3061db21c87378505a04", "is_disabled": 0, "rental_uris": {"android": "https://dc.lft.to/lastmile_qr_scan", "ios": "https://dc.lft.to/lastmile_qr_scan"}, "fusion_lon": 0.0, "lat": 38.8851285, "bike_id": "8516eaef3ede3061db21c87378505a04", "type": "electric_scooter", "is_reserved": 0, "lon": -76.99730566666666}, {"fusion_lat": 0.0, "name": "dd8ee2989cd489549a97f4293d75df7c", "is_disabled": 0, "rental_uris": {"android": "https://dc.lft.to/lastmile_qr_scan", "ios": "https://dc.lft.to/lastmile_qr_scan"}, "fusion_lon": 0.0, "lat": 38.941640166666666, "bike_id": "dd8ee2989cd489549a97f4293d75df7c", "type": "electric_bike", "is_reserved": 0, "lon": -76.9664375}, {"fusion_lat": 0.0, "name": "e2b7975f117c27fba53d528d029a7823", "is_disabled": 0, "rental_uris": {"android": "https://dc.lft.to/lastmile_qr_scan", "ios": "https://dc.lft.to/lastmile_qr_scan"}, "fusion_lon": 0.0, "lat": 38.908075, "bike_id": "e2b7975f117c27fba53d528d029a7823", "type": "electric_bike", "is_reserved": 0, "lon": -77.01883583333333}, {"fusion_lat": 0.0, "name": "4a6449244c13e3c0733c5732a02b8790", "is_disabled": 0, "rental_uris": {"android": "https://dc.lft.to/lastmile_qr_scan", "ios": "https://dc.lft.to/lastmile_qr_scan"}, "fusion_lon": 0.0, "lat": 38.9306285, "bike_id": "4a6449244c13e3c0733c5732a02b8790", "type": "electric_scooter", "is_reserved": 0, "lon": -77.03942}, {"fusion_lat": 0.0, "name": "06e60d1f1bdc098c3221e6078fc67261", "is_disabled": 0, "rental_uris": {"android": "https://dc.lft.to/lastmile_qr_scan", "ios": "https://dc.lft.to/lastmile_qr_scan"}, "fusion_lon": 0.0, "lat": 38.949765166666666, "bike_id": "06e60d1f1bdc098c3221e6078fc67261", "type": "electric_scooter", "is_reserved": 0, "lon": -77.0269605}, {"fusion_lat": 0.0, "name": "b35336b207ad3a0e2361f2ba10b37bd7", "is_disabled": 0, "rental_uris": {"android": "https://dc.lft.to/lastmile_qr_scan", "ios": "https://dc.lft.to/lastmile_qr_scan"}, "fusion_lon": 0.0, "lat": 38.9450395, "bike_id": "b35336b207ad3a0e2361f2ba10b37bd7", "type": "electric_bike", "is_reserved": 0, "lon": -77.00667383333334}, {"fusion_lat": 0.0, "name": "3942ad0db6341417a554c0d28bca81e5", "is_disabled": 0, "rental_uris": {"android": "https://dc.lft.to/lastmile_qr_scan", "ios": "https://dc.lft.to/lastmile_qr_scan"}, "fusion_lon": 0.0, "lat": 38.86849466666666, "bike_id": "3942ad0db6341417a554c0d28bca81e5", "type": "electric_scooter", "is_reserved": 0, "lon": -76.98831583333333}, {"fusion_lat": 0.0, "name": "5a157f653d675db4dee11fa80ac2a6a0", "is_disabled": 0, "rental_uris": {"android": "https://dc.lft.to/lastmile_qr_scan", "ios": "https://dc.lft.to/lastmile_qr_scan"}, "fusion_lon": 0.0, "lat": 38.916808833333334, "bike_id": "5a157f653d675db4dee11fa80ac2a6a0", "type": "electric_bike", "is_reserved": 0, "lon": -76.98239566666666}, {"fusion_lat": 0.0, "name": "7e9783e903c9168c4055c8305ebc963c", "is_disabled": 0, "rental_uris": {"android": "https://dc.lft.to/lastmile_qr_scan", "ios": "https://dc.lft.to/lastmile_qr_scan"}, "fusion_lon": 0.0, "lat": 38.949763833333336, "bike_id": "7e9783e903c9168c4055c8305ebc963c", "type": "electric_scooter", "is_reserved": 0, "lon": -77.02697316666666}, {"fusion_lat": 0.0, "name": "bdcd48574754445c06217a6614a98d7f", "is_disabled": 0, "rental_uris": {"android": "https://dc.lft.to/lastmile_qr_scan", "ios": "https://dc.lft.to/lastmile_qr_scan"}, "fusion_lon": 0.0, "lat": 38.8921935, "bike_id": "bdcd48574754445c06217a6614a98d7f", "type": "electric_scooter", "is_reserved": 0, "lon": -77.01494833333334}, {"fusion_lat": 0.0, "name": "ce1808b57d620afa3fcb002a42e97a1f", "is_disabled": 0, "rental_uris": {"android": "https://dc.lft.to/lastmile_qr_scan", "ios": "https://dc.lft.to/lastmile_qr_scan"}, "fusion_lon": 0.0, "lat": 38.925374166666664, "bike_id": "ce1808b57d620afa3fcb002a42e97a1f", "type": "electric_scooter", "is_reserved": 0, "lon": -77.0511805}, {"fusion_lat": 0.0, "name": "3c6f8f3e66bc61ff603e7723edb90728", "is_disabled": 0, "rental_uris": {"android": "https://dc.lft.to/lastmile_qr_scan", "ios": "https://dc.lft.to/lastmile_qr_scan"}, "fusion_lon": 0.0, "lat": 38.95728316666667, "bike_id": "3c6f8f3e66bc61ff603e7723edb90728", "type": "electric_scooter", "is_reserved": 0, "lon": -77.0240105}, {"fusion_lat": 0.0, "name": "eb7287f554c3cb482b8c8147c105f63f", "is_disabled": 0, "rental_uris": {"android": "https://dc.lft.to/lastmile_qr_scan", "ios": "https://dc.lft.to/lastmile_qr_scan"}, "fusion_lon": 0.0, "lat": 38.87554816666667, "bike_id": "eb7287f554c3cb482b8c8147c105f63f", "type": "electric_scooter", "is_reserved": 0, "lon": -77.00708316666666}, {"fusion_lat": 0.0, "name": "daef250b578d3af947a0d5fac73b6c8e", "is_disabled": 0, "rental_uris": {"android": "https://dc.lft.to/lastmile_qr_scan", "ios": "https://dc.lft.to/lastmile_qr_scan"}, "fusion_lon": 0.0, "lat": 38.906420833333335, "bike_id": "daef250b578d3af947a0d5fac73b6c8e", "type": "electric_scooter", "is_reserved": 0, "lon": -77.02935}, {"fusion_lat": 0.0, "name": "f2228a50a439c49fb30569a2369e01d6", "is_disabled": 0, "rental_uris": {"android": "https://dc.lft.to/lastmile_qr_scan", "ios": "https://dc.lft.to/lastmile_qr_scan"}, "fusion_lon": 0.0, "lat": 38.9267965, "bike_id": "f2228a50a439c49fb30569a2369e01d6", "type": "electric_scooter", "is_reserved": 0, "lon": -77.02253016666667}, {"fusion_lat": 0.0, "name": "2be7d955135b34b4a5b5b7006fda1f66", "is_disabled": 0, "rental_uris": {"android": "https://dc.lft.to/lastmile_qr_scan", "ios": "https://dc.lft.to/lastmile_qr_scan"}, "fusion_lon": 0.0, "lat": 38.895159666666665, "bike_id": "2be7d955135b34b4a5b5b7006fda1f66", "type": "electric_scooter", "is_reserved": 0, "lon": -76.98084783333333}, {"fusion_lat": 0.0, "name": "8e349badd5112161bec1bfcffdf8e0c4", "is_disabled": 0, "rental_uris": {"android": "https://dc.lft.to/lastmile_qr_scan", "ios": "https://dc.lft.to/lastmile_qr_scan"}, "fusion_lon": 0.0, "lat": 38.935512333333335, "bike_id": "8e349badd5112161bec1bfcffdf8e0c4", "type": "electric_scooter", "is_reserved": 0, "lon": -77.02222983333333}, {"fusion_lat": 0.0, "name": "ff87e4d0b5ad7d94c19ec91e75d00729", "is_disabled": 0, "rental_uris": {"android": "https://dc.lft.to/lastmile_qr_scan", "ios": "https://dc.lft.to/lastmile_qr_scan"}, "fusion_lon": 0.0, "lat": 38.95343483333333, "bike_id": "ff87e4d0b5ad7d94c19ec91e75d00729", "type": "electric_scooter", "is_reserved": 0, "lon": -77.07947783333333}, {"fusion_lat": 0.0, "name": "f2ff92ad0dccf6872b0a28db91c9dc45", "is_disabled": 0, "rental_uris": {"android": "https://dc.lft.to/lastmile_qr_scan", "ios": "https://dc.lft.to/lastmile_qr_scan"}, "fusion_lon": 0.0, "lat": 38.9591585, "bike_id": "f2ff92ad0dccf6872b0a28db91c9dc45", "type": "electric_scooter", "is_reserved": 0, "lon": -77.08483483333333}, {"fusion_lat": 0.0, "name": "02eead26b5803a2f4df4ea28b527ea8a", "is_disabled": 0, "rental_uris": {"android": "https://dc.lft.to/lastmile_qr_scan", "ios": "https://dc.lft.to/lastmile_qr_scan"}, "fusion_lon": 0.0, "lat": 38.911185833333334, "bike_id": "02eead26b5803a2f4df4ea28b527ea8a", "type": "electric_scooter", "is_reserved": 0, "lon": -76.997723}, {"fusion_lat": 0.0, "name": "915a27ccaa483531c11436deee34a4c1", "is_disabled": 0, "rental_uris": {"android": "https://dc.lft.to/lastmile_qr_scan", "ios": "https://dc.lft.to/lastmile_qr_scan"}, "fusion_lon": 0.0, "lat": 38.862622333333334, "bike_id": "915a27ccaa483531c11436deee34a4c1", "type": "electric_bike", "is_reserved": 0, "lon": -76.98344766666666}, {"fusion_lat": 0.0, "name": "0c936a4425683eebcaddb4bde09f0422", "is_disabled": 0, "rental_uris": {"android": "https://dc.lft.to/lastmile_qr_scan", "ios": "https://dc.lft.to/lastmile_qr_scan"}, "fusion_lon": 0.0, "lat": 38.9228245, "bike_id": "0c936a4425683eebcaddb4bde09f0422", "type": "electric_scooter", "is_reserved": 0, "lon": -77.03657633333333}, {"fusion_lat": 0.0, "name": "9ae7f47a5edb3849a4200c43c8b32eb5", "is_disabled": 0, "rental_uris": {"android": "https://dc.lft.to/lastmile_qr_scan", "ios": "https://dc.lft.to/lastmile_qr_scan"}, "fusion_lon": 0.0, "lat": 38.93060083333334, "bike_id": "9ae7f47a5edb3849a4200c43c8b32eb5", "type": "electric_scooter", "is_reserved": 0, "lon": -77.029674}, {"fusion_lat": 0.0, "name": "f10f21867b730bf68164f4e448a166e0", "is_disabled": 0, "rental_uris": {"android": "https://dc.lft.to/lastmile_qr_scan", "ios": "https://dc.lft.to/lastmile_qr_scan"}, "fusion_lon": 0.0, "lat": 38.8948105, "bike_id": "f10f21867b730bf68164f4e448a166e0", "type": "electric_scooter", "is_reserved": 0, "lon": -77.0109295}, {"fusion_lat": 0.0, "name": "251f3f6cb9e8f7d4f82189757b9f7c7c", "is_disabled": 0, "rental_uris": {"android": "https://dc.lft.to/lastmile_qr_scan", "ios": "https://dc.lft.to/lastmile_qr_scan"}, "fusion_lon": 0.0, "lat": 38.9167285, "bike_id": "251f3f6cb9e8f7d4f82189757b9f7c7c", "type": "electric_scooter", "is_reserved": 0, "lon": -77.02715033333334}, {"fusion_lat": 0.0, "name": "1a4bc23c1fcf05ee3fbb0dccc2be26c1", "is_disabled": 0, "rental_uris": {"android": "https://dc.lft.to/lastmile_qr_scan", "ios": "https://dc.lft.to/lastmile_qr_scan"}, "fusion_lon": 0.0, "lat": 38.93042, "bike_id": "1a4bc23c1fcf05ee3fbb0dccc2be26c1", "type": "electric_scooter", "is_reserved": 0, "lon": -77.03350483333334}, {"fusion_lat": 0.0, "name": "170003a345fdcc2db88eff1360f2dd82", "is_disabled": 0, "rental_uris": {"android": "https://dc.lft.to/lastmile_qr_scan", "ios": "https://dc.lft.to/lastmile_qr_scan"}, "fusion_lon": 0.0, "lat": 38.85794116666667, "bike_id": "170003a345fdcc2db88eff1360f2dd82", "type": "electric_bike", "is_reserved": 0, "lon": -77.12013433333334}, {"fusion_lat": 0.0, "name": "95282c15365538f620f5782418382f03", "is_disabled": 0, "rental_uris": {"android": "https://dc.lft.to/lastmile_qr_scan", "ios": "https://dc.lft.to/lastmile_qr_scan"}, "fusion_lon": 0.0, "lat": 38.89472383333333, "bike_id": "95282c15365538f620f5782418382f03", "type": "electric_scooter", "is_reserved": 0, "lon": -77.02650566666667}, {"fusion_lat": 0.0, "name": "a67690124459091003980369b363e350", "is_disabled": 0, "rental_uris": {"android": "https://dc.lft.to/lastmile_qr_scan", "ios": "https://dc.lft.to/lastmile_qr_scan"}, "fusion_lon": 0.0, "lat": 38.90260033333333, "bike_id": "a67690124459091003980369b363e350", "type": "electric_scooter", "is_reserved": 0, "lon": -77.019437}, {"fusion_lat": 0.0, "name": "0349f9f83f7baac4373f3f2db5ff6a8a", "is_disabled": 0, "rental_uris": {"android": "https://dc.lft.to/lastmile_qr_scan", "ios": "https://dc.lft.to/lastmile_qr_scan"}, "fusion_lon": 0.0, "lat": 38.93558383333333, "bike_id": "0349f9f83f7baac4373f3f2db5ff6a8a", "type": "electric_scooter", "is_reserved": 0, "lon": -77.034798}, {"fusion_lat": 0.0, "name": "bc4860794542e8f2febcd81d85a17b44", "is_disabled": 0, "rental_uris": {"android": "https://dc.lft.to/lastmile_qr_scan", "ios": "https://dc.lft.to/lastmile_qr_scan"}, "fusion_lon": 0.0, "lat": 38.88606433333333, "bike_id": "bc4860794542e8f2febcd81d85a17b44", "type": "electric_scooter", "is_reserved": 0, "lon": -77.0124925}, {"fusion_lat": 0.0, "name": "87e42c659feee5c099a7d74a14a51cac", "is_disabled": 0, "rental_uris": {"android": "https://dc.lft.to/lastmile_qr_scan", "ios": "https://dc.lft.to/lastmile_qr_scan"}, "fusion_lon": 0.0, "lat": 38.935019833333335, "bike_id": "87e42c659feee5c099a7d74a14a51cac", "type": "electric_scooter", "is_reserved": 0, "lon": -77.0361535}, {"fusion_lat": 0.0, "name": "07e4414788de8f0d1e86b300ed5df245", "is_disabled": 0, "rental_uris": {"android": "https://dc.lft.to/lastmile_qr_scan", "ios": "https://dc.lft.to/lastmile_qr_scan"}, "fusion_lon": 0.0, "lat": 38.9165675, "bike_id": "07e4414788de8f0d1e86b300ed5df245", "type": "electric_scooter", "is_reserved": 0, "lon": -77.02811333333334}, {"fusion_lat": 0.0, "name": "320833a26b97c6eb58def6d46875a3f9", "is_disabled": 0, "rental_uris": {"android": "https://dc.lft.to/lastmile_qr_scan", "ios": "https://dc.lft.to/lastmile_qr_scan"}, "fusion_lon": 0.0, "lat": 38.89233383333333, "bike_id": "320833a26b97c6eb58def6d46875a3f9", "type": "electric_scooter", "is_reserved": 0, "lon": -77.04654933333333}, {"fusion_lat": 0.0, "name": "d3ff52453bb3398f37d973cb8742c957", "is_disabled": 0, "rental_uris": {"android": "https://dc.lft.to/lastmile_qr_scan", "ios": "https://dc.lft.to/lastmile_qr_scan"}, "fusion_lon": 0.0, "lat": 38.9132055, "bike_id": "d3ff52453bb3398f37d973cb8742c957", "type": "electric_scooter", "is_reserved": 0, "lon": -77.04534333333334}, {"fusion_lat": 0.0, "name": "76447cee3eb82e48f841515d07f234c8", "is_disabled": 0, "rental_uris": {"android": "https://dc.lft.to/lastmile_qr_scan", "ios": "https://dc.lft.to/lastmile_qr_scan"}, "fusion_lon": 0.0, "lat": 38.913554833333336, "bike_id": "76447cee3eb82e48f841515d07f234c8", "type": "electric_scooter", "is_reserved": 0, "lon": -77.02196183333334}, {"fusion_lat": 0.0, "name": "67468525f7598c3f4691b2f458f3994f", "is_disabled": 0, "rental_uris": {"android": "https://dc.lft.to/lastmile_qr_scan", "ios": "https://dc.lft.to/lastmile_qr_scan"}, "fusion_lon": 0.0, "lat": 38.90241866666667, "bike_id": "67468525f7598c3f4691b2f458f3994f", "type": "electric_scooter", "is_reserved": 0, "lon": -77.0532385}, {"fusion_lat": 0.0, "name": "5df3559710b4d972833996ea1cdef077", "is_disabled": 0, "rental_uris": {"android": "https://dc.lft.to/lastmile_qr_scan", "ios": "https://dc.lft.to/lastmile_qr_scan"}, "fusion_lon": 0.0, "lat": 38.9289425, "bike_id": "5df3559710b4d972833996ea1cdef077", "type": "electric_scooter", "is_reserved": 0, "lon": -77.01364266666667}, {"fusion_lat": 0.0, "name": "0714f489b16ddf29a8b7857cbb9afe9c", "is_disabled": 0, "rental_uris": {"android": "https://dc.lft.to/lastmile_qr_scan", "ios": "https://dc.lft.to/lastmile_qr_scan"}, "fusion_lon": 0.0, "lat": 38.90512483333333, "bike_id": "0714f489b16ddf29a8b7857cbb9afe9c", "type": "electric_scooter", "is_reserved": 0, "lon": -77.05140566666667}, {"fusion_lat": 0.0, "name": "08f93f9341c69692811f95f48a34aaf8", "is_disabled": 0, "rental_uris": {"android": "https://dc.lft.to/lastmile_qr_scan", "ios": "https://dc.lft.to/lastmile_qr_scan"}, "fusion_lon": 0.0, "lat": 38.916299, "bike_id": "08f93f9341c69692811f95f48a34aaf8", "type": "electric_scooter", "is_reserved": 0, "lon": -77.031424}, {"fusion_lat": 0.0, "name": "bf99a174bd7102a2ba2a2beac58bdf86", "is_disabled": 0, "rental_uris": {"android": "https://dc.lft.to/lastmile_qr_scan", "ios": "https://dc.lft.to/lastmile_qr_scan"}, "fusion_lon": 0.0, "lat": 38.9019575, "bike_id": "bf99a174bd7102a2ba2a2beac58bdf86", "type": "electric_scooter", "is_reserved": 0, "lon": -76.97858183333334}, {"fusion_lat": 0.0, "name": "39b258a622e3681d4d1a6a542e2c8c1f", "is_disabled": 0, "rental_uris": {"android": "https://dc.lft.to/lastmile_qr_scan", "ios": "https://dc.lft.to/lastmile_qr_scan"}, "fusion_lon": 0.0, "lat": 38.93312866666667, "bike_id": "39b258a622e3681d4d1a6a542e2c8c1f", "type": "electric_scooter", "is_reserved": 0, "lon": -77.0274815}, {"fusion_lat": 0.0, "name": "bcdfc798525502b77cb1f56ef4b67930", "is_disabled": 0, "rental_uris": {"android": "https://dc.lft.to/lastmile_qr_scan", "ios": "https://dc.lft.to/lastmile_qr_scan"}, "fusion_lon": 0.0, "lat": 38.896036333333335, "bike_id": "bcdfc798525502b77cb1f56ef4b67930", "type": "electric_scooter", "is_reserved": 0, "lon": -77.00929583333334}, {"fusion_lat": 0.0, "name": "d83db6bc917a8898dc210a247e31fff9", "is_disabled": 0, "rental_uris": {"android": "https://dc.lft.to/lastmile_qr_scan", "ios": "https://dc.lft.to/lastmile_qr_scan"}, "fusion_lon": 0.0, "lat": 38.886539, "bike_id": "d83db6bc917a8898dc210a247e31fff9", "type": "electric_scooter", "is_reserved": 0, "lon": -77.01942333333334}, {"fusion_lat": 0.0, "name": "5bc25123f76fecd614dc368f70b10bd9", "is_disabled": 0, "rental_uris": {"android": "https://dc.lft.to/lastmile_qr_scan", "ios": "https://dc.lft.to/lastmile_qr_scan"}, "fusion_lon": 0.0, "lat": 38.9215965, "bike_id": "5bc25123f76fecd614dc368f70b10bd9", "type": "electric_scooter", "is_reserved": 0, "lon": -77.0338145}, {"fusion_lat": 0.0, "name": "224433a9b0d7a345135febd1dbda04b5", "is_disabled": 0, "rental_uris": {"android": "https://dc.lft.to/lastmile_qr_scan", "ios": "https://dc.lft.to/lastmile_qr_scan"}, "fusion_lon": 0.0, "lat": 38.92848383333333, "bike_id": "224433a9b0d7a345135febd1dbda04b5", "type": "electric_scooter", "is_reserved": 0, "lon": -77.02438766666667}, {"fusion_lat": 0.0, "name": "aaffb8b0140f33467bb19207e7bbab0a", "is_disabled": 0, "rental_uris": {"android": "https://dc.lft.to/lastmile_qr_scan", "ios": "https://dc.lft.to/lastmile_qr_scan"}, "fusion_lon": 0.0, "lat": 38.9070705, "bike_id": "aaffb8b0140f33467bb19207e7bbab0a", "type": "electric_scooter", "is_reserved": 0, "lon": -77.00074216666667}, {"fusion_lat": 0.0, "name": "36a942a553d72afef7f03722090c5c60", "is_disabled": 0, "rental_uris": {"android": "https://dc.lft.to/lastmile_qr_scan", "ios": "https://dc.lft.to/lastmile_qr_scan"}, "fusion_lon": 0.0, "lat": 38.920671666666664, "bike_id": "36a942a553d72afef7f03722090c5c60", "type": "electric_scooter", "is_reserved": 0, "lon": -77.02396433333334}, {"fusion_lat": 0.0, "name": "98502efdb82bd6eb9cde96d37e27f7ed", "is_disabled": 0, "rental_uris": {"android": "https://dc.lft.to/lastmile_qr_scan", "ios": "https://dc.lft.to/lastmile_qr_scan"}, "fusion_lon": 0.0, "lat": 38.909673166666664, "bike_id": "98502efdb82bd6eb9cde96d37e27f7ed", "type": "electric_scooter", "is_reserved": 0, "lon": -77.00901466666667}, {"fusion_lat": 0.0, "name": "6d4c76ee2d8b0514f221e8ebcc5ca88d", "is_disabled": 0, "rental_uris": {"android": "https://dc.lft.to/lastmile_qr_scan", "ios": "https://dc.lft.to/lastmile_qr_scan"}, "fusion_lon": 0.0, "lat": 38.92749833333333, "bike_id": "6d4c76ee2d8b0514f221e8ebcc5ca88d", "type": "electric_scooter", "is_reserved": 0, "lon": -77.02537866666667}, {"fusion_lat": 0.0, "name": "ae958aefc8fb1216c38afe997f7010cb", "is_disabled": 0, "rental_uris": {"android": "https://dc.lft.to/lastmile_qr_scan", "ios": "https://dc.lft.to/lastmile_qr_scan"}, "fusion_lon": 0.0, "lat": 38.8876655, "bike_id": "ae958aefc8fb1216c38afe997f7010cb", "type": "electric_scooter", "is_reserved": 0, "lon": -76.97749416666667}, {"fusion_lat": 0.0, "name": "8902c6fcdabbef5cc882defbe26e405a", "is_disabled": 0, "rental_uris": {"android": "https://dc.lft.to/lastmile_qr_scan", "ios": "https://dc.lft.to/lastmile_qr_scan"}, "fusion_lon": 0.0, "lat": 38.854577666666664, "bike_id": "8902c6fcdabbef5cc882defbe26e405a", "type": "electric_scooter", "is_reserved": 0, "lon": -76.97223883333334}, {"fusion_lat": 0.0, "name": "fd8e22a24cd2e69120358b0a2c0b75de", "is_disabled": 0, "rental_uris": {"android": "https://dc.lft.to/lastmile_qr_scan", "ios": "https://dc.lft.to/lastmile_qr_scan"}, "fusion_lon": 0.0, "lat": 38.892367166666666, "bike_id": "fd8e22a24cd2e69120358b0a2c0b75de", "type": "electric_scooter", "is_reserved": 0, "lon": -77.03347066666667}, {"fusion_lat": 0.0, "name": "f71ade85ef4416670552840ea3d53802", "is_disabled": 0, "rental_uris": {"android": "https://dc.lft.to/lastmile_qr_scan", "ios": "https://dc.lft.to/lastmile_qr_scan"}, "fusion_lon": 0.0, "lat": 38.93626366666667, "bike_id": "f71ade85ef4416670552840ea3d53802", "type": "electric_scooter", "is_reserved": 0, "lon": -77.0364745}, {"fusion_lat": 0.0, "name": "698e943bb653582a34cf2ab6320bc162", "is_disabled": 0, "rental_uris": {"android": "https://dc.lft.to/lastmile_qr_scan", "ios": "https://dc.lft.to/lastmile_qr_scan"}, "fusion_lon": 0.0, "lat": 38.927255, "bike_id": "698e943bb653582a34cf2ab6320bc162", "type": "electric_scooter", "is_reserved": 0, "lon": -77.0230205}, {"fusion_lat": 0.0, "name": "222b9e68df67b2cc6120bc9c657fff86", "is_disabled": 0, "rental_uris": {"android": "https://dc.lft.to/lastmile_qr_scan", "ios": "https://dc.lft.to/lastmile_qr_scan"}, "fusion_lon": 0.0, "lat": 38.9004975, "bike_id": "222b9e68df67b2cc6120bc9c657fff86", "type": "electric_scooter", "is_reserved": 0, "lon": -77.02598316666666}, {"fusion_lat": 0.0, "name": "72d314097f169b39ba5e989d19972020", "is_disabled": 0, "rental_uris": {"android": "https://dc.lft.to/lastmile_qr_scan", "ios": "https://dc.lft.to/lastmile_qr_scan"}, "fusion_lon": 0.0, "lat": 38.879208, "bike_id": "72d314097f169b39ba5e989d19972020", "type": "electric_scooter", "is_reserved": 0, "lon": -77.0082785}, {"fusion_lat": 0.0, "name": "6ffa7c48090b66f5cbb47443ccf82a34", "is_disabled": 0, "rental_uris": {"android": "https://dc.lft.to/lastmile_qr_scan", "ios": "https://dc.lft.to/lastmile_qr_scan"}, "fusion_lon": 0.0, "lat": 38.892308166666666, "bike_id": "6ffa7c48090b66f5cbb47443ccf82a34", "type": "electric_scooter", "is_reserved": 0, "lon": -77.01710866666667}, {"fusion_lat": 0.0, "name": "a15ae3df673600fbfe9db1033ccaf3ae", "is_disabled": 0, "rental_uris": {"android": "https://dc.lft.to/lastmile_qr_scan", "ios": "https://dc.lft.to/lastmile_qr_scan"}, "fusion_lon": 0.0, "lat": 38.892240666666666, "bike_id": "a15ae3df673600fbfe9db1033ccaf3ae", "type": "electric_scooter", "is_reserved": 0, "lon": -77.00300883333334}, {"fusion_lat": 0.0, "name": "dbce08b888de6c9aea773b6d0805440d", "is_disabled": 0, "rental_uris": {"android": "https://dc.lft.to/lastmile_qr_scan", "ios": "https://dc.lft.to/lastmile_qr_scan"}, "fusion_lon": 0.0, "lat": 38.905595166666664, "bike_id": "dbce08b888de6c9aea773b6d0805440d", "type": "electric_scooter", "is_reserved": 0, "lon": -77.00595183333333}, {"fusion_lat": 0.0, "name": "ac2ce632e191071f1b13715a0503b09a", "is_disabled": 0, "rental_uris": {"android": "https://dc.lft.to/lastmile_qr_scan", "ios": "https://dc.lft.to/lastmile_qr_scan"}, "fusion_lon": 0.0, "lat": 38.89476883333333, "bike_id": "ac2ce632e191071f1b13715a0503b09a", "type": "electric_scooter", "is_reserved": 0, "lon": -77.02185716666666}, {"fusion_lat": 0.0, "name": "e7c64e2d5fb1d934f35a75378601ad1a", "is_disabled": 0, "rental_uris": {"android": "https://dc.lft.to/lastmile_qr_scan", "ios": "https://dc.lft.to/lastmile_qr_scan"}, "fusion_lon": 0.0, "lat": 38.90012616666667, "bike_id": "e7c64e2d5fb1d934f35a75378601ad1a", "type": "electric_scooter", "is_reserved": 0, "lon": -77.00193733333333}, {"fusion_lat": 0.0, "name": "fefa9c7df916de0ba55ae22c36ca3002", "is_disabled": 0, "rental_uris": {"android": "https://dc.lft.to/lastmile_qr_scan", "ios": "https://dc.lft.to/lastmile_qr_scan"}, "fusion_lon": 0.0, "lat": 38.819388833333335, "bike_id": "fefa9c7df916de0ba55ae22c36ca3002", "type": "electric_bike", "is_reserved": 0, "lon": -77.00201833333334}, {"fusion_lat": 0.0, "name": "3af92a3726c14ffb57f2a02c393e2142", "is_disabled": 0, "rental_uris": {"android": "https://dc.lft.to/lastmile_qr_scan", "ios": "https://dc.lft.to/lastmile_qr_scan"}, "fusion_lon": 0.0, "lat": 38.904598166666666, "bike_id": "3af92a3726c14ffb57f2a02c393e2142", "type": "electric_scooter", "is_reserved": 0, "lon": -77.02945883333334}, {"fusion_lat": 0.0, "name": "3d6472398be46856f91ff005853da3d0", "is_disabled": 0, "rental_uris": {"android": "https://dc.lft.to/lastmile_qr_scan", "ios": "https://dc.lft.to/lastmile_qr_scan"}, "fusion_lon": 0.0, "lat": 38.909531333333334, "bike_id": "3d6472398be46856f91ff005853da3d0", "type": "electric_scooter", "is_reserved": 0, "lon": -76.98539083333333}, {"fusion_lat": 0.0, "name": "a39bbf60b8e1369b24f3390714ea39cf", "is_disabled": 0, "rental_uris": {"android": "https://dc.lft.to/lastmile_qr_scan", "ios": "https://dc.lft.to/lastmile_qr_scan"}, "fusion_lon": 0.0, "lat": 38.88833016666667, "bike_id": "a39bbf60b8e1369b24f3390714ea39cf", "type": "electric_scooter", "is_reserved": 0, "lon": -77.04843183333334}, {"fusion_lat": 0.0, "name": "50c91408d3089ebbea7da702f080667e", "is_disabled": 0, "rental_uris": {"android": "https://dc.lft.to/lastmile_qr_scan", "ios": "https://dc.lft.to/lastmile_qr_scan"}, "fusion_lon": 0.0, "lat": 38.841251666666665, "bike_id": "50c91408d3089ebbea7da702f080667e", "type": "electric_bike", "is_reserved": 0, "lon": -77.06305033333334}, {"fusion_lat": 0.0, "name": "85e71281e049790eca2920c7cda7ba75", "is_disabled": 0, "rental_uris": {"android": "https://dc.lft.to/lastmile_qr_scan", "ios": "https://dc.lft.to/lastmile_qr_scan"}, "fusion_lon": 0.0, "lat": 38.907163, "bike_id": "85e71281e049790eca2920c7cda7ba75", "type": "electric_scooter", "is_reserved": 0, "lon": -77.02532766666667}, {"fusion_lat": 0.0, "name": "3cacad9d34ac832dcf5c02347ff0abb4", "is_disabled": 0, "rental_uris": {"android": "https://dc.lft.to/lastmile_qr_scan", "ios": "https://dc.lft.to/lastmile_qr_scan"}, "fusion_lon": 0.0, "lat": 38.863511, "bike_id": "3cacad9d34ac832dcf5c02347ff0abb4", "type": "electric_bike", "is_reserved": 0, "lon": -77.0771845}, {"fusion_lat": 0.0, "name": "e60a39329de58046d2d95c0507911be0", "is_disabled": 0, "rental_uris": {"android": "https://dc.lft.to/lastmile_qr_scan", "ios": "https://dc.lft.to/lastmile_qr_scan"}, "fusion_lon": 0.0, "lat": 38.93747116666667, "bike_id": "e60a39329de58046d2d95c0507911be0", "type": "electric_scooter", "is_reserved": 0, "lon": -77.02523433333333}, {"fusion_lat": 0.0, "name": "6ef3908b7b5ea85286b86f9f9d642394", "is_disabled": 0, "rental_uris": {"android": "https://dc.lft.to/lastmile_qr_scan", "ios": "https://dc.lft.to/lastmile_qr_scan"}, "fusion_lon": 0.0, "lat": 38.931455666666665, "bike_id": "6ef3908b7b5ea85286b86f9f9d642394", "type": "electric_scooter", "is_reserved": 0, "lon": -77.03968416666666}, {"fusion_lat": 0.0, "name": "ffb6809ba984854fd188f7f5f21585ce", "is_disabled": 0, "rental_uris": {"android": "https://dc.lft.to/lastmile_qr_scan", "ios": "https://dc.lft.to/lastmile_qr_scan"}, "fusion_lon": 0.0, "lat": 38.847525833333336, "bike_id": "ffb6809ba984854fd188f7f5f21585ce", "type": "electric_scooter", "is_reserved": 0, "lon": -76.99501616666667}, {"fusion_lat": 0.0, "name": "2936960e284289bb7e5779743865b89d", "is_disabled": 0, "rental_uris": {"android": "https://dc.lft.to/lastmile_qr_scan", "ios": "https://dc.lft.to/lastmile_qr_scan"}, "fusion_lon": 0.0, "lat": 38.9215405, "bike_id": "2936960e284289bb7e5779743865b89d", "type": "electric_scooter", "is_reserved": 0, "lon": -77.03394666666667}, {"fusion_lat": 0.0, "name": "7757a4fe3252a69c9c67c65f2a4b0b64", "is_disabled": 0, "rental_uris": {"android": "https://dc.lft.to/lastmile_qr_scan", "ios": "https://dc.lft.to/lastmile_qr_scan"}, "fusion_lon": 0.0, "lat": 38.922796166666664, "bike_id": "7757a4fe3252a69c9c67c65f2a4b0b64", "type": "electric_scooter", "is_reserved": 0, "lon": -77.0424605}, {"fusion_lat": 0.0, "name": "f9d346b0c654569a5c6dae6b7ec8d635", "is_disabled": 0, "rental_uris": {"android": "https://dc.lft.to/lastmile_qr_scan", "ios": "https://dc.lft.to/lastmile_qr_scan"}, "fusion_lon": 0.0, "lat": 38.923985, "bike_id": "f9d346b0c654569a5c6dae6b7ec8d635", "type": "electric_scooter", "is_reserved": 0, "lon": -77.02518283333333}, {"fusion_lat": 0.0, "name": "781fff49a261b3a9f9c89fd33cea60f6", "is_disabled": 0, "rental_uris": {"android": "https://dc.lft.to/lastmile_qr_scan", "ios": "https://dc.lft.to/lastmile_qr_scan"}, "fusion_lon": 0.0, "lat": 38.90688816666667, "bike_id": "781fff49a261b3a9f9c89fd33cea60f6", "type": "electric_scooter", "is_reserved": 0, "lon": -77.03719483333333}, {"fusion_lat": 0.0, "name": "ad89dffe0ba25ad2027bad1af9a16d81", "is_disabled": 0, "rental_uris": {"android": "https://dc.lft.to/lastmile_qr_scan", "ios": "https://dc.lft.to/lastmile_qr_scan"}, "fusion_lon": 0.0, "lat": 38.90519116666667, "bike_id": "ad89dffe0ba25ad2027bad1af9a16d81", "type": "electric_scooter", "is_reserved": 0, "lon": -77.06451216666666}, {"fusion_lat": 0.0, "name": "b4d8a00937aad0fe1f07d005672b788b", "is_disabled": 0, "rental_uris": {"android": "https://dc.lft.to/lastmile_qr_scan", "ios": "https://dc.lft.to/lastmile_qr_scan"}, "fusion_lon": 0.0, "lat": 38.914922, "bike_id": "b4d8a00937aad0fe1f07d005672b788b", "type": "electric_scooter", "is_reserved": 0, "lon": -77.0132485}, {"fusion_lat": 0.0, "name": "d114918869578dcc7d0c60cefd0708a1", "is_disabled": 0, "rental_uris": {"android": "https://dc.lft.to/lastmile_qr_scan", "ios": "https://dc.lft.to/lastmile_qr_scan"}, "fusion_lon": 0.0, "lat": 38.9246425, "bike_id": "d114918869578dcc7d0c60cefd0708a1", "type": "electric_scooter", "is_reserved": 0, "lon": -77.03635333333334}, {"fusion_lat": 0.0, "name": "9b3917a0fb19848127eaa2596d2869f9", "is_disabled": 0, "rental_uris": {"android": "https://dc.lft.to/lastmile_qr_scan", "ios": "https://dc.lft.to/lastmile_qr_scan"}, "fusion_lon": 0.0, "lat": 38.90140266666667, "bike_id": "9b3917a0fb19848127eaa2596d2869f9", "type": "electric_scooter", "is_reserved": 0, "lon": -76.9983865}, {"fusion_lat": 0.0, "name": "1b43423df458f394435653e72e8638ec", "is_disabled": 0, "rental_uris": {"android": "https://dc.lft.to/lastmile_qr_scan", "ios": "https://dc.lft.to/lastmile_qr_scan"}, "fusion_lon": 0.0, "lat": 38.85355333333333, "bike_id": "1b43423df458f394435653e72e8638ec", "type": "electric_bike", "is_reserved": 0, "lon": -77.1346795}, {"fusion_lat": 0.0, "name": "4d5b2767b121a37916540d78d4ed7fc6", "is_disabled": 0, "rental_uris": {"android": "https://dc.lft.to/lastmile_qr_scan", "ios": "https://dc.lft.to/lastmile_qr_scan"}, "fusion_lon": 0.0, "lat": 38.8972585, "bike_id": "4d5b2767b121a37916540d78d4ed7fc6", "type": "electric_scooter", "is_reserved": 0, "lon": -76.99508933333334}, {"fusion_lat": 0.0, "name": "dee802d3ad739cdd12f976c0bf5abcb9", "is_disabled": 0, "rental_uris": {"android": "https://dc.lft.to/lastmile_qr_scan", "ios": "https://dc.lft.to/lastmile_qr_scan"}, "fusion_lon": 0.0, "lat": 38.920669333333336, "bike_id": "dee802d3ad739cdd12f976c0bf5abcb9", "type": "electric_scooter", "is_reserved": 0, "lon": -77.02386333333334}, {"fusion_lat": 0.0, "name": "1a1bbade4d85a1c8034899d1b3ff5863", "is_disabled": 0, "rental_uris": {"android": "https://dc.lft.to/lastmile_qr_scan", "ios": "https://dc.lft.to/lastmile_qr_scan"}, "fusion_lon": 0.0, "lat": 38.925788833333336, "bike_id": "1a1bbade4d85a1c8034899d1b3ff5863", "type": "electric_scooter", "is_reserved": 0, "lon": -77.02755633333334}, {"fusion_lat": 0.0, "name": "3fcc8913845fef813968059f52ae1a76", "is_disabled": 0, "rental_uris": {"android": "https://dc.lft.to/lastmile_qr_scan", "ios": "https://dc.lft.to/lastmile_qr_scan"}, "fusion_lon": 0.0, "lat": 38.884431666666664, "bike_id": "3fcc8913845fef813968059f52ae1a76", "type": "electric_scooter", "is_reserved": 0, "lon": -76.98589466666667}, {"fusion_lat": 0.0, "name": "f5018d9abca23f82bdb4b087209c1d8d", "is_disabled": 0, "rental_uris": {"android": "https://dc.lft.to/lastmile_qr_scan", "ios": "https://dc.lft.to/lastmile_qr_scan"}, "fusion_lon": 0.0, "lat": 38.898743333333336, "bike_id": "f5018d9abca23f82bdb4b087209c1d8d", "type": "electric_scooter", "is_reserved": 0, "lon": -76.93184283333333}, {"fusion_lat": 0.0, "name": "329a561ef469019fee291af19243bf86", "is_disabled": 0, "rental_uris": {"android": "https://dc.lft.to/lastmile_qr_scan", "ios": "https://dc.lft.to/lastmile_qr_scan"}, "fusion_lon": 0.0, "lat": 38.92256666666667, "bike_id": "329a561ef469019fee291af19243bf86", "type": "electric_scooter", "is_reserved": 0, "lon": -77.03518016666666}, {"fusion_lat": 0.0, "name": "a42b150042905a2988be1230d8dd1d52", "is_disabled": 0, "rental_uris": {"android": "https://dc.lft.to/lastmile_qr_scan", "ios": "https://dc.lft.to/lastmile_qr_scan"}, "fusion_lon": 0.0, "lat": 38.932863, "bike_id": "a42b150042905a2988be1230d8dd1d52", "type": "electric_scooter", "is_reserved": 0, "lon": -77.02793283333334}, {"fusion_lat": 0.0, "name": "165c0d88d2683b4f603235dfcbf8c003", "is_disabled": 0, "rental_uris": {"android": "https://dc.lft.to/lastmile_qr_scan", "ios": "https://dc.lft.to/lastmile_qr_scan"}, "fusion_lon": 0.0, "lat": 38.93377, "bike_id": "165c0d88d2683b4f603235dfcbf8c003", "type": "electric_scooter", "is_reserved": 0, "lon": -77.02449116666666}, {"fusion_lat": 0.0, "name": "13514ed3d887518715376171063b39be", "is_disabled": 0, "rental_uris": {"android": "https://dc.lft.to/lastmile_qr_scan", "ios": "https://dc.lft.to/lastmile_qr_scan"}, "fusion_lon": 0.0, "lat": 38.8781545, "bike_id": "13514ed3d887518715376171063b39be", "type": "electric_scooter", "is_reserved": 0, "lon": -77.01321233333333}, {"fusion_lat": 0.0, "name": "522521516e8cf4b64e5542942c64a7ea", "is_disabled": 0, "rental_uris": {"android": "https://dc.lft.to/lastmile_qr_scan", "ios": "https://dc.lft.to/lastmile_qr_scan"}, "fusion_lon": 0.0, "lat": 38.91423183333333, "bike_id": "522521516e8cf4b64e5542942c64a7ea", "type": "electric_scooter", "is_reserved": 0, "lon": -77.064104}, {"fusion_lat": 0.0, "name": "dffd560b1dc5a33025d3f56bc95c67e4", "is_disabled": 0, "rental_uris": {"android": "https://dc.lft.to/lastmile_qr_scan", "ios": "https://dc.lft.to/lastmile_qr_scan"}, "fusion_lon": 0.0, "lat": 38.8822905, "bike_id": "dffd560b1dc5a33025d3f56bc95c67e4", "type": "electric_scooter", "is_reserved": 0, "lon": -77.02612316666666}, {"fusion_lat": 0.0, "name": "63df949c01ef5d67675af7afa00c4f61", "is_disabled": 0, "rental_uris": {"android": "https://dc.lft.to/lastmile_qr_scan", "ios": "https://dc.lft.to/lastmile_qr_scan"}, "fusion_lon": 0.0, "lat": 38.928977333333336, "bike_id": "63df949c01ef5d67675af7afa00c4f61", "type": "electric_scooter", "is_reserved": 0, "lon": -77.0375595}, {"fusion_lat": 0.0, "name": "3d968d932b690e6cb7fee62598d9b582", "is_disabled": 0, "rental_uris": {"android": "https://dc.lft.to/lastmile_qr_scan", "ios": "https://dc.lft.to/lastmile_qr_scan"}, "fusion_lon": 0.0, "lat": 38.92038683333333, "bike_id": "3d968d932b690e6cb7fee62598d9b582", "type": "electric_scooter", "is_reserved": 0, "lon": -77.017542}, {"fusion_lat": 0.0, "name": "184bd617ace25cb1f3374ef53f0cd449", "is_disabled": 0, "rental_uris": {"android": "https://dc.lft.to/lastmile_qr_scan", "ios": "https://dc.lft.to/lastmile_qr_scan"}, "fusion_lon": 0.0, "lat": 38.92314433333333, "bike_id": "184bd617ace25cb1f3374ef53f0cd449", "type": "electric_scooter", "is_reserved": 0, "lon": -77.0562545}, {"fusion_lat": 0.0, "name": "7a5f85d61c68666f15dec76e941dfbcc", "is_disabled": 0, "rental_uris": {"android": "https://dc.lft.to/lastmile_qr_scan", "ios": "https://dc.lft.to/lastmile_qr_scan"}, "fusion_lon": 0.0, "lat": 38.884530166666664, "bike_id": "7a5f85d61c68666f15dec76e941dfbcc", "type": "electric_scooter", "is_reserved": 0, "lon": -76.998369}, {"fusion_lat": 0.0, "name": "b468a41758244b147f00ad822e395a6e", "is_disabled": 0, "rental_uris": {"android": "https://dc.lft.to/lastmile_qr_scan", "ios": "https://dc.lft.to/lastmile_qr_scan"}, "fusion_lon": 0.0, "lat": 38.90024833333333, "bike_id": "b468a41758244b147f00ad822e395a6e", "type": "electric_scooter", "is_reserved": 0, "lon": -77.0121735}, {"fusion_lat": 0.0, "name": "ec31dfb5ba59dafcfc76f4c72690efb1", "is_disabled": 0, "rental_uris": {"android": "https://dc.lft.to/lastmile_qr_scan", "ios": "https://dc.lft.to/lastmile_qr_scan"}, "fusion_lon": 0.0, "lat": 38.90397866666667, "bike_id": "ec31dfb5ba59dafcfc76f4c72690efb1", "type": "electric_scooter", "is_reserved": 0, "lon": -77.050119}, {"fusion_lat": 0.0, "name": "52e6aa7b01686df8b195933fe416fe39", "is_disabled": 0, "rental_uris": {"android": "https://dc.lft.to/lastmile_qr_scan", "ios": "https://dc.lft.to/lastmile_qr_scan"}, "fusion_lon": 0.0, "lat": 38.939288166666664, "bike_id": "52e6aa7b01686df8b195933fe416fe39", "type": "electric_scooter", "is_reserved": 0, "lon": -77.07477416666667}, {"fusion_lat": 0.0, "name": "1cb5c66f0dc20dfe6f878b5dbc330702", "is_disabled": 0, "rental_uris": {"android": "https://dc.lft.to/lastmile_qr_scan", "ios": "https://dc.lft.to/lastmile_qr_scan"}, "fusion_lon": 0.0, "lat": 38.89682766666667, "bike_id": "1cb5c66f0dc20dfe6f878b5dbc330702", "type": "electric_scooter", "is_reserved": 0, "lon": -76.93709516666667}, {"fusion_lat": 0.0, "name": "51a4c6218daa390609a01208f3a1e02d", "is_disabled": 0, "rental_uris": {"android": "https://dc.lft.to/lastmile_qr_scan", "ios": "https://dc.lft.to/lastmile_qr_scan"}, "fusion_lon": 0.0, "lat": 38.80291716666667, "bike_id": "51a4c6218daa390609a01208f3a1e02d", "type": "electric_bike", "is_reserved": 0, "lon": -77.05934216666667}, {"fusion_lat": 0.0, "name": "8a380b944fa2cc7ed34d868071d8c463", "is_disabled": 0, "rental_uris": {"android": "https://dc.lft.to/lastmile_qr_scan", "ios": "https://dc.lft.to/lastmile_qr_scan"}, "fusion_lon": 0.0, "lat": 38.92731716666667, "bike_id": "8a380b944fa2cc7ed34d868071d8c463", "type": "electric_scooter", "is_reserved": 0, "lon": -77.04214866666666}, {"fusion_lat": 0.0, "name": "ac6e529207100fcdf749bfa5896bf8c8", "is_disabled": 0, "rental_uris": {"android": "https://dc.lft.to/lastmile_qr_scan", "ios": "https://dc.lft.to/lastmile_qr_scan"}, "fusion_lon": 0.0, "lat": 38.96122316666667, "bike_id": "ac6e529207100fcdf749bfa5896bf8c8", "type": "electric_bike", "is_reserved": 0, "lon": -77.03268233333333}, {"fusion_lat": 0.0, "name": "f9231f9bc4b8eafe78dbea57625be298", "is_disabled": 0, "rental_uris": {"android": "https://dc.lft.to/lastmile_qr_scan", "ios": "https://dc.lft.to/lastmile_qr_scan"}, "fusion_lon": 0.0, "lat": 38.90433566666667, "bike_id": "f9231f9bc4b8eafe78dbea57625be298", "type": "electric_scooter", "is_reserved": 0, "lon": -77.0432035}, {"fusion_lat": 0.0, "name": "d39dbeb6dce60a6ddf5fe54d8b537c23", "is_disabled": 0, "rental_uris": {"android": "https://dc.lft.to/lastmile_qr_scan", "ios": "https://dc.lft.to/lastmile_qr_scan"}, "fusion_lon": 0.0, "lat": 38.9270645, "bike_id": "d39dbeb6dce60a6ddf5fe54d8b537c23", "type": "electric_scooter", "is_reserved": 0, "lon": -77.03760866666667}, {"fusion_lat": 0.0, "name": "dc7dba1d384ac37e22fb62154fe66b88", "is_disabled": 0, "rental_uris": {"android": "https://dc.lft.to/lastmile_qr_scan", "ios": "https://dc.lft.to/lastmile_qr_scan"}, "fusion_lon": 0.0, "lat": 38.927891833333334, "bike_id": "dc7dba1d384ac37e22fb62154fe66b88", "type": "electric_scooter", "is_reserved": 0, "lon": -77.027265}, {"fusion_lat": 0.0, "name": "5b5d313cccfce5450f91e7161dd79513", "is_disabled": 0, "rental_uris": {"android": "https://dc.lft.to/lastmile_qr_scan", "ios": "https://dc.lft.to/lastmile_qr_scan"}, "fusion_lon": 0.0, "lat": 38.90613483333333, "bike_id": "5b5d313cccfce5450f91e7161dd79513", "type": "electric_scooter", "is_reserved": 0, "lon": -77.00910633333334}, {"fusion_lat": 0.0, "name": "00621cfbd0b373604e4cb35b5729aaa3", "is_disabled": 0, "rental_uris": {"android": "https://dc.lft.to/lastmile_qr_scan", "ios": "https://dc.lft.to/lastmile_qr_scan"}, "fusion_lon": 0.0, "lat": 38.90610083333333, "bike_id": "00621cfbd0b373604e4cb35b5729aaa3", "type": "electric_scooter", "is_reserved": 0, "lon": -77.02403733333334}, {"fusion_lat": 0.0, "name": "56de1fbb97c61a8e39dd436e92c1c85c", "is_disabled": 0, "rental_uris": {"android": "https://dc.lft.to/lastmile_qr_scan", "ios": "https://dc.lft.to/lastmile_qr_scan"}, "fusion_lon": 0.0, "lat": 38.900263333333335, "bike_id": "56de1fbb97c61a8e39dd436e92c1c85c", "type": "electric_scooter", "is_reserved": 0, "lon": -76.9885135}, {"fusion_lat": 0.0, "name": "18b2b79d861a9d65466f2063a74666c7", "is_disabled": 0, "rental_uris": {"android": "https://dc.lft.to/lastmile_qr_scan", "ios": "https://dc.lft.to/lastmile_qr_scan"}, "fusion_lon": 0.0, "lat": 38.87692583333333, "bike_id": "18b2b79d861a9d65466f2063a74666c7", "type": "electric_scooter", "is_reserved": 0, "lon": -77.01763966666667}, {"fusion_lat": 0.0, "name": "efc5e7d986a4a46a9193ef3f99bed5d4", "is_disabled": 0, "rental_uris": {"android": "https://dc.lft.to/lastmile_qr_scan", "ios": "https://dc.lft.to/lastmile_qr_scan"}, "fusion_lon": 0.0, "lat": 38.942287666666665, "bike_id": "efc5e7d986a4a46a9193ef3f99bed5d4", "type": "electric_scooter", "is_reserved": 0, "lon": -77.0234795}, {"fusion_lat": 0.0, "name": "c5a4dc10cbf385a221b50cfb86eb6093", "is_disabled": 0, "rental_uris": {"android": "https://dc.lft.to/lastmile_qr_scan", "ios": "https://dc.lft.to/lastmile_qr_scan"}, "fusion_lon": 0.0, "lat": 38.909592333333336, "bike_id": "c5a4dc10cbf385a221b50cfb86eb6093", "type": "electric_scooter", "is_reserved": 0, "lon": -77.048661}, {"fusion_lat": 0.0, "name": "c6ceb6f3c796484dbac76a86c9e850d0", "is_disabled": 0, "rental_uris": {"android": "https://dc.lft.to/lastmile_qr_scan", "ios": "https://dc.lft.to/lastmile_qr_scan"}, "fusion_lon": 0.0, "lat": 38.93051883333333, "bike_id": "c6ceb6f3c796484dbac76a86c9e850d0", "type": "electric_scooter", "is_reserved": 0, "lon": -77.04065833333334}, {"fusion_lat": 0.0, "name": "ed95f488669f1efb2a3b363480569d08", "is_disabled": 0, "rental_uris": {"android": "https://dc.lft.to/lastmile_qr_scan", "ios": "https://dc.lft.to/lastmile_qr_scan"}, "fusion_lon": 0.0, "lat": 38.91967016666667, "bike_id": "ed95f488669f1efb2a3b363480569d08", "type": "electric_scooter", "is_reserved": 0, "lon": -77.0175985}, {"fusion_lat": 0.0, "name": "0f52dd50eb01aa49660a8deff80ee1f1", "is_disabled": 0, "rental_uris": {"android": "https://dc.lft.to/lastmile_qr_scan", "ios": "https://dc.lft.to/lastmile_qr_scan"}, "fusion_lon": 0.0, "lat": 38.91403483333333, "bike_id": "0f52dd50eb01aa49660a8deff80ee1f1", "type": "electric_scooter", "is_reserved": 0, "lon": -77.03218016666666}, {"fusion_lat": 0.0, "name": "a77c06fcab846e2fa4b9183c6ab93067", "is_disabled": 0, "rental_uris": {"android": "https://dc.lft.to/lastmile_qr_scan", "ios": "https://dc.lft.to/lastmile_qr_scan"}, "fusion_lon": 0.0, "lat": 38.92205, "bike_id": "a77c06fcab846e2fa4b9183c6ab93067", "type": "electric_scooter", "is_reserved": 0, "lon": -77.04126833333333}, {"fusion_lat": 0.0, "name": "26adb50a5881a0f02736d93cd6576e0d", "is_disabled": 0, "rental_uris": {"android": "https://dc.lft.to/lastmile_qr_scan", "ios": "https://dc.lft.to/lastmile_qr_scan"}, "fusion_lon": 0.0, "lat": 38.899591666666666, "bike_id": "26adb50a5881a0f02736d93cd6576e0d", "type": "electric_scooter", "is_reserved": 0, "lon": -77.01496966666667}, {"fusion_lat": 0.0, "name": "2220ff7cfbb877c5fa1f04a0011f22a1", "is_disabled": 0, "rental_uris": {"android": "https://dc.lft.to/lastmile_qr_scan", "ios": "https://dc.lft.to/lastmile_qr_scan"}, "fusion_lon": 0.0, "lat": 38.9241535, "bike_id": "2220ff7cfbb877c5fa1f04a0011f22a1", "type": "electric_scooter", "is_reserved": 0, "lon": -77.02006583333333}, {"fusion_lat": 0.0, "name": "e73c7328b97c05cfde959ce0619665e3", "is_disabled": 0, "rental_uris": {"android": "https://dc.lft.to/lastmile_qr_scan", "ios": "https://dc.lft.to/lastmile_qr_scan"}, "fusion_lon": 0.0, "lat": 38.90931583333333, "bike_id": "e73c7328b97c05cfde959ce0619665e3", "type": "electric_scooter", "is_reserved": 0, "lon": -77.03842666666667}, {"fusion_lat": 0.0, "name": "9a8e4616288263aa2afaf9e35890399b", "is_disabled": 0, "rental_uris": {"android": "https://dc.lft.to/lastmile_qr_scan", "ios": "https://dc.lft.to/lastmile_qr_scan"}, "fusion_lon": 0.0, "lat": 38.95653716666666, "bike_id": "9a8e4616288263aa2afaf9e35890399b", "type": "electric_scooter", "is_reserved": 0, "lon": -77.03323566666667}, {"fusion_lat": 0.0, "name": "9a1be9999747ec23e13c14b521773448", "is_disabled": 0, "rental_uris": {"android": "https://dc.lft.to/lastmile_qr_scan", "ios": "https://dc.lft.to/lastmile_qr_scan"}, "fusion_lon": 0.0, "lat": 38.907799, "bike_id": "9a1be9999747ec23e13c14b521773448", "type": "electric_scooter", "is_reserved": 0, "lon": -77.038645}, {"fusion_lat": 0.0, "name": "568d2a327fcb443e5ca09aa52db06f35", "is_disabled": 0, "rental_uris": {"android": "https://dc.lft.to/lastmile_qr_scan", "ios": "https://dc.lft.to/lastmile_qr_scan"}, "fusion_lon": 0.0, "lat": 39.01076833333333, "bike_id": "568d2a327fcb443e5ca09aa52db06f35", "type": "electric_bike", "is_reserved": 0, "lon": -76.91065683333333}, {"fusion_lat": 0.0, "name": "b6bcd01c31dd767de9727727c41f66d5", "is_disabled": 0, "rental_uris": {"android": "https://dc.lft.to/lastmile_qr_scan", "ios": "https://dc.lft.to/lastmile_qr_scan"}, "fusion_lon": 0.0, "lat": 38.919819833333335, "bike_id": "b6bcd01c31dd767de9727727c41f66d5", "type": "electric_scooter", "is_reserved": 0, "lon": -77.0217415}, {"fusion_lat": 0.0, "name": "83aa946ab745e01f88249f22c90129aa", "is_disabled": 0, "rental_uris": {"android": "https://dc.lft.to/lastmile_qr_scan", "ios": "https://dc.lft.to/lastmile_qr_scan"}, "fusion_lon": 0.0, "lat": 38.9031035, "bike_id": "83aa946ab745e01f88249f22c90129aa", "type": "electric_scooter", "is_reserved": 0, "lon": -76.977955}, {"fusion_lat": 0.0, "name": "94390fdef5cb8a8360c9f01816890aae", "is_disabled": 0, "rental_uris": {"android": "https://dc.lft.to/lastmile_qr_scan", "ios": "https://dc.lft.to/lastmile_qr_scan"}, "fusion_lon": 0.0, "lat": 38.92421483333333, "bike_id": "94390fdef5cb8a8360c9f01816890aae", "type": "electric_scooter", "is_reserved": 0, "lon": -76.98591083333334}, {"fusion_lat": 0.0, "name": "eb8b1bac8b6523edd5d8a6efb2d8f30e", "is_disabled": 0, "rental_uris": {"android": "https://dc.lft.to/lastmile_qr_scan", "ios": "https://dc.lft.to/lastmile_qr_scan"}, "fusion_lon": 0.0, "lat": 38.8886965, "bike_id": "eb8b1bac8b6523edd5d8a6efb2d8f30e", "type": "electric_scooter", "is_reserved": 0, "lon": -76.98455066666666}, {"fusion_lat": 0.0, "name": "92778f0446b6f1ce83783cc4c6f60526", "is_disabled": 0, "rental_uris": {"android": "https://dc.lft.to/lastmile_qr_scan", "ios": "https://dc.lft.to/lastmile_qr_scan"}, "fusion_lon": 0.0, "lat": 38.901225333333336, "bike_id": "92778f0446b6f1ce83783cc4c6f60526", "type": "electric_scooter", "is_reserved": 0, "lon": -77.0513725}, {"fusion_lat": 0.0, "name": "692b421b032cdd17185da459fe6b53c4", "is_disabled": 0, "rental_uris": {"android": "https://dc.lft.to/lastmile_qr_scan", "ios": "https://dc.lft.to/lastmile_qr_scan"}, "fusion_lon": 0.0, "lat": 38.89480983333333, "bike_id": "692b421b032cdd17185da459fe6b53c4", "type": "electric_scooter", "is_reserved": 0, "lon": -76.99731233333333}, {"fusion_lat": 0.0, "name": "dc91673a86304c1a293ef77d56796128", "is_disabled": 0, "rental_uris": {"android": "https://dc.lft.to/lastmile_qr_scan", "ios": "https://dc.lft.to/lastmile_qr_scan"}, "fusion_lon": 0.0, "lat": 38.9018825, "bike_id": "dc91673a86304c1a293ef77d56796128", "type": "electric_scooter", "is_reserved": 0, "lon": -76.92893966666666}, {"fusion_lat": 0.0, "name": "3d874a84a453d7ab5a25a3b230f11af1", "is_disabled": 0, "rental_uris": {"android": "https://dc.lft.to/lastmile_qr_scan", "ios": "https://dc.lft.to/lastmile_qr_scan"}, "fusion_lon": 0.0, "lat": 38.905072, "bike_id": "3d874a84a453d7ab5a25a3b230f11af1", "type": "electric_scooter", "is_reserved": 0, "lon": -77.01712233333333}, {"fusion_lat": 0.0, "name": "1385f1e1687c13850091b2cf4429a2ac", "is_disabled": 0, "rental_uris": {"android": "https://dc.lft.to/lastmile_qr_scan", "ios": "https://dc.lft.to/lastmile_qr_scan"}, "fusion_lon": 0.0, "lat": 38.8874075, "bike_id": "1385f1e1687c13850091b2cf4429a2ac", "type": "electric_scooter", "is_reserved": 0, "lon": -76.99619433333334}, {"fusion_lat": 0.0, "name": "3f324a4060fc15226bc48f2f233ff579", "is_disabled": 0, "rental_uris": {"android": "https://dc.lft.to/lastmile_qr_scan", "ios": "https://dc.lft.to/lastmile_qr_scan"}, "fusion_lon": 0.0, "lat": 38.855078166666665, "bike_id": "3f324a4060fc15226bc48f2f233ff579", "type": "electric_bike", "is_reserved": 0, "lon": -77.10538433333333}, {"fusion_lat": 0.0, "name": "c208923c45e3b74c2324f7ef01fa0750", "is_disabled": 0, "rental_uris": {"android": "https://dc.lft.to/lastmile_qr_scan", "ios": "https://dc.lft.to/lastmile_qr_scan"}, "fusion_lon": 0.0, "lat": 38.92350916666667, "bike_id": "c208923c45e3b74c2324f7ef01fa0750", "type": "electric_scooter", "is_reserved": 0, "lon": -76.9925345}, {"fusion_lat": 0.0, "name": "ff4b5f004aa957b679c688a58e306614", "is_disabled": 0, "rental_uris": {"android": "https://dc.lft.to/lastmile_qr_scan", "ios": "https://dc.lft.to/lastmile_qr_scan"}, "fusion_lon": 0.0, "lat": 38.8475615, "bike_id": "ff4b5f004aa957b679c688a58e306614", "type": "electric_scooter", "is_reserved": 0, "lon": -76.99501183333334}, {"fusion_lat": 0.0, "name": "76b48773197b114501d9346cbef7341a", "is_disabled": 0, "rental_uris": {"android": "https://dc.lft.to/lastmile_qr_scan", "ios": "https://dc.lft.to/lastmile_qr_scan"}, "fusion_lon": 0.0, "lat": 38.9370365, "bike_id": "76b48773197b114501d9346cbef7341a", "type": "electric_scooter", "is_reserved": 0, "lon": -77.0609345}, {"fusion_lat": 0.0, "name": "02933537dcf727d8a8b71099d650f170", "is_disabled": 0, "rental_uris": {"android": "https://dc.lft.to/lastmile_qr_scan", "ios": "https://dc.lft.to/lastmile_qr_scan"}, "fusion_lon": 0.0, "lat": 38.9012135, "bike_id": "02933537dcf727d8a8b71099d650f170", "type": "electric_scooter", "is_reserved": 0, "lon": -77.0402975}, {"fusion_lat": 0.0, "name": "192691178b7fc80d2fe048571e79229c", "is_disabled": 0, "rental_uris": {"android": "https://dc.lft.to/lastmile_qr_scan", "ios": "https://dc.lft.to/lastmile_qr_scan"}, "fusion_lon": 0.0, "lat": 38.941094, "bike_id": "192691178b7fc80d2fe048571e79229c", "type": "electric_scooter", "is_reserved": 0, "lon": -77.03483616666666}, {"fusion_lat": 0.0, "name": "70cac6a3ccede0f941c771689e9444a3", "is_disabled": 0, "rental_uris": {"android": "https://dc.lft.to/lastmile_qr_scan", "ios": "https://dc.lft.to/lastmile_qr_scan"}, "fusion_lon": 0.0, "lat": 38.903112, "bike_id": "70cac6a3ccede0f941c771689e9444a3", "type": "electric_scooter", "is_reserved": 0, "lon": -77.03186316666667}, {"fusion_lat": 0.0, "name": "01a71425183685803845a481b1536383", "is_disabled": 0, "rental_uris": {"android": "https://dc.lft.to/lastmile_qr_scan", "ios": "https://dc.lft.to/lastmile_qr_scan"}, "fusion_lon": 0.0, "lat": 38.88751083333333, "bike_id": "01a71425183685803845a481b1536383", "type": "electric_scooter", "is_reserved": 0, "lon": -76.997835}, {"fusion_lat": 0.0, "name": "6de3f7df5949fd62cb5378ddb91b7f4b", "is_disabled": 0, "rental_uris": {"android": "https://dc.lft.to/lastmile_qr_scan", "ios": "https://dc.lft.to/lastmile_qr_scan"}, "fusion_lon": 0.0, "lat": 38.935951, "bike_id": "6de3f7df5949fd62cb5378ddb91b7f4b", "type": "electric_scooter", "is_reserved": 0, "lon": -77.02386466666667}, {"fusion_lat": 0.0, "name": "f1f0c5e1443a1ff523ad440230e180e6", "is_disabled": 0, "rental_uris": {"android": "https://dc.lft.to/lastmile_qr_scan", "ios": "https://dc.lft.to/lastmile_qr_scan"}, "fusion_lon": 0.0, "lat": 38.90665466666667, "bike_id": "f1f0c5e1443a1ff523ad440230e180e6", "type": "electric_scooter", "is_reserved": 0, "lon": -77.0297525}, {"fusion_lat": 0.0, "name": "ddd1ea9c21bc2e9978bbc7612f2f841c", "is_disabled": 0, "rental_uris": {"android": "https://dc.lft.to/lastmile_qr_scan", "ios": "https://dc.lft.to/lastmile_qr_scan"}, "fusion_lon": 0.0, "lat": 38.889902666666664, "bike_id": "ddd1ea9c21bc2e9978bbc7612f2f841c", "type": "electric_scooter", "is_reserved": 0, "lon": -76.929867}, {"fusion_lat": 0.0, "name": "0a96d3f030b6385bc412010d9499cf7a", "is_disabled": 0, "rental_uris": {"android": "https://dc.lft.to/lastmile_qr_scan", "ios": "https://dc.lft.to/lastmile_qr_scan"}, "fusion_lon": 0.0, "lat": 38.91704216666667, "bike_id": "0a96d3f030b6385bc412010d9499cf7a", "type": "electric_scooter", "is_reserved": 0, "lon": -77.0274405}, {"fusion_lat": 0.0, "name": "b02c237173a23ac550a20db9ac599895", "is_disabled": 0, "rental_uris": {"android": "https://dc.lft.to/lastmile_qr_scan", "ios": "https://dc.lft.to/lastmile_qr_scan"}, "fusion_lon": 0.0, "lat": 38.9228345, "bike_id": "b02c237173a23ac550a20db9ac599895", "type": "electric_scooter", "is_reserved": 0, "lon": -77.02522}, {"fusion_lat": 0.0, "name": "72eeb85ea200cecf9765c332d2963dc0", "is_disabled": 0, "rental_uris": {"android": "https://dc.lft.to/lastmile_qr_scan", "ios": "https://dc.lft.to/lastmile_qr_scan"}, "fusion_lon": 0.0, "lat": 38.908776333333336, "bike_id": "72eeb85ea200cecf9765c332d2963dc0", "type": "electric_scooter", "is_reserved": 0, "lon": -77.02358516666666}, {"fusion_lat": 0.0, "name": "4126eb16147a406d8ec8ff1203f63981", "is_disabled": 0, "rental_uris": {"android": "https://dc.lft.to/lastmile_qr_scan", "ios": "https://dc.lft.to/lastmile_qr_scan"}, "fusion_lon": 0.0, "lat": 38.878938, "bike_id": "4126eb16147a406d8ec8ff1203f63981", "type": "electric_scooter", "is_reserved": 0, "lon": -77.01357666666667}, {"fusion_lat": 0.0, "name": "50cc53854b1dfec3a1533b2f20ac72b4", "is_disabled": 0, "rental_uris": {"android": "https://dc.lft.to/lastmile_qr_scan", "ios": "https://dc.lft.to/lastmile_qr_scan"}, "fusion_lon": 0.0, "lat": 38.92758933333333, "bike_id": "50cc53854b1dfec3a1533b2f20ac72b4", "type": "electric_scooter", "is_reserved": 0, "lon": -77.01616566666667}, {"fusion_lat": 0.0, "name": "f602e7333f1fbab8d813fd008d3efa4d", "is_disabled": 0, "rental_uris": {"android": "https://dc.lft.to/lastmile_qr_scan", "ios": "https://dc.lft.to/lastmile_qr_scan"}, "fusion_lon": 0.0, "lat": 38.906467666666664, "bike_id": "f602e7333f1fbab8d813fd008d3efa4d", "type": "electric_scooter", "is_reserved": 0, "lon": -77.0533245}, {"fusion_lat": 0.0, "name": "7fdaba4eb769a1af383bb941d3ee71d4", "is_disabled": 0, "rental_uris": {"android": "https://dc.lft.to/lastmile_qr_scan", "ios": "https://dc.lft.to/lastmile_qr_scan"}, "fusion_lon": 0.0, "lat": 38.919670833333335, "bike_id": "7fdaba4eb769a1af383bb941d3ee71d4", "type": "electric_scooter", "is_reserved": 0, "lon": -77.071023}, {"fusion_lat": 0.0, "name": "3bfd7ed2ffd82b31a63f7d22611adbd2", "is_disabled": 0, "rental_uris": {"android": "https://dc.lft.to/lastmile_qr_scan", "ios": "https://dc.lft.to/lastmile_qr_scan"}, "fusion_lon": 0.0, "lat": 38.895244166666664, "bike_id": "3bfd7ed2ffd82b31a63f7d22611adbd2", "type": "electric_scooter", "is_reserved": 0, "lon": -76.93410433333334}, {"fusion_lat": 0.0, "name": "f40c0eb23a95e4e7da4481695218c46a", "is_disabled": 0, "rental_uris": {"android": "https://dc.lft.to/lastmile_qr_scan", "ios": "https://dc.lft.to/lastmile_qr_scan"}, "fusion_lon": 0.0, "lat": 38.907379, "bike_id": "f40c0eb23a95e4e7da4481695218c46a", "type": "electric_scooter", "is_reserved": 0, "lon": -77.04743933333333}, {"fusion_lat": 0.0, "name": "28b28649673975cd371e982a5c7dabb6", "is_disabled": 0, "rental_uris": {"android": "https://dc.lft.to/lastmile_qr_scan", "ios": "https://dc.lft.to/lastmile_qr_scan"}, "fusion_lon": 0.0, "lat": 38.922467166666664, "bike_id": "28b28649673975cd371e982a5c7dabb6", "type": "electric_scooter", "is_reserved": 0, "lon": -77.07446233333333}, {"fusion_lat": 0.0, "name": "8762d58498e84ac5188215adcd756cff", "is_disabled": 0, "rental_uris": {"android": "https://dc.lft.to/lastmile_qr_scan", "ios": "https://dc.lft.to/lastmile_qr_scan"}, "fusion_lon": 0.0, "lat": 38.914952666666665, "bike_id": "8762d58498e84ac5188215adcd756cff", "type": "electric_scooter", "is_reserved": 0, "lon": -76.98356266666667}, {"fusion_lat": 0.0, "name": "e3bd6bbed08d4c83a03546aeddba864f", "is_disabled": 0, "rental_uris": {"android": "https://dc.lft.to/lastmile_qr_scan", "ios": "https://dc.lft.to/lastmile_qr_scan"}, "fusion_lon": 0.0, "lat": 38.93397433333333, "bike_id": "e3bd6bbed08d4c83a03546aeddba864f", "type": "electric_scooter", "is_reserved": 0, "lon": -77.05738583333333}, {"fusion_lat": 0.0, "name": "36fc28cd5d6c1cac4001e90c22a12886", "is_disabled": 0, "rental_uris": {"android": "https://dc.lft.to/lastmile_qr_scan", "ios": "https://dc.lft.to/lastmile_qr_scan"}, "fusion_lon": 0.0, "lat": 38.905564, "bike_id": "36fc28cd5d6c1cac4001e90c22a12886", "type": "electric_scooter", "is_reserved": 0, "lon": -76.9979255}, {"fusion_lat": 0.0, "name": "003a325bdcc7abba12206c976d11a574", "is_disabled": 0, "rental_uris": {"android": "https://dc.lft.to/lastmile_qr_scan", "ios": "https://dc.lft.to/lastmile_qr_scan"}, "fusion_lon": 0.0, "lat": 38.907914166666664, "bike_id": "003a325bdcc7abba12206c976d11a574", "type": "electric_scooter", "is_reserved": 0, "lon": -76.99426966666667}, {"fusion_lat": 0.0, "name": "f1fd47f5d607db60a4db766e322cb455", "is_disabled": 0, "rental_uris": {"android": "https://dc.lft.to/lastmile_qr_scan", "ios": "https://dc.lft.to/lastmile_qr_scan"}, "fusion_lon": 0.0, "lat": 38.905582, "bike_id": "f1fd47f5d607db60a4db766e322cb455", "type": "electric_scooter", "is_reserved": 0, "lon": -76.981982}, {"fusion_lat": 0.0, "name": "daf2b694c299d0b3731ddbe4992c7876", "is_disabled": 0, "rental_uris": {"android": "https://dc.lft.to/lastmile_qr_scan", "ios": "https://dc.lft.to/lastmile_qr_scan"}, "fusion_lon": 0.0, "lat": 38.88824183333333, "bike_id": "daf2b694c299d0b3731ddbe4992c7876", "type": "electric_scooter", "is_reserved": 0, "lon": -76.9866175}, {"fusion_lat": 0.0, "name": "c9142efe661274377ee63c5074e9c6de", "is_disabled": 0, "rental_uris": {"android": "https://dc.lft.to/lastmile_qr_scan", "ios": "https://dc.lft.to/lastmile_qr_scan"}, "fusion_lon": 0.0, "lat": 38.90550783333333, "bike_id": "c9142efe661274377ee63c5074e9c6de", "type": "electric_scooter", "is_reserved": 0, "lon": -77.0650995}, {"fusion_lat": 0.0, "name": "aeeaacf40e27fcedbd181da0df83d85e", "is_disabled": 0, "rental_uris": {"android": "https://dc.lft.to/lastmile_qr_scan", "ios": "https://dc.lft.to/lastmile_qr_scan"}, "fusion_lon": 0.0, "lat": 38.90240383333333, "bike_id": "aeeaacf40e27fcedbd181da0df83d85e", "type": "electric_scooter", "is_reserved": 0, "lon": -77.00202483333334}, {"fusion_lat": 0.0, "name": "5758e2f81549b4d30bd13fd638c9c338", "is_disabled": 0, "rental_uris": {"android": "https://dc.lft.to/lastmile_qr_scan", "ios": "https://dc.lft.to/lastmile_qr_scan"}, "fusion_lon": 0.0, "lat": 38.93556266666667, "bike_id": "5758e2f81549b4d30bd13fd638c9c338", "type": "electric_scooter", "is_reserved": 0, "lon": -77.0345645}, {"fusion_lat": 0.0, "name": "9dd25a4c410a3630485f6c326c5c2ffd", "is_disabled": 0, "rental_uris": {"android": "https://dc.lft.to/lastmile_qr_scan", "ios": "https://dc.lft.to/lastmile_qr_scan"}, "fusion_lon": 0.0, "lat": 38.9256985, "bike_id": "9dd25a4c410a3630485f6c326c5c2ffd", "type": "electric_scooter", "is_reserved": 0, "lon": -77.0226345}, {"fusion_lat": 0.0, "name": "37d3cb3afd6c69c81ca5795a6ff50228", "is_disabled": 0, "rental_uris": {"android": "https://dc.lft.to/lastmile_qr_scan", "ios": "https://dc.lft.to/lastmile_qr_scan"}, "fusion_lon": 0.0, "lat": 39.070541166666665, "bike_id": "37d3cb3afd6c69c81ca5795a6ff50228", "type": "electric_bike", "is_reserved": 0, "lon": -77.1148555}, {"fusion_lat": 0.0, "name": "25db6637878cbf9d43ef183c956acb68", "is_disabled": 0, "rental_uris": {"android": "https://dc.lft.to/lastmile_qr_scan", "ios": "https://dc.lft.to/lastmile_qr_scan"}, "fusion_lon": 0.0, "lat": 38.84086683333334, "bike_id": "25db6637878cbf9d43ef183c956acb68", "type": "electric_bike", "is_reserved": 0, "lon": -76.97026266666667}, {"fusion_lat": 0.0, "name": "f68e6a1fa513f3525b3d0202e153395a", "is_disabled": 0, "rental_uris": {"android": "https://dc.lft.to/lastmile_qr_scan", "ios": "https://dc.lft.to/lastmile_qr_scan"}, "fusion_lon": 0.0, "lat": 38.938377333333335, "bike_id": "f68e6a1fa513f3525b3d0202e153395a", "type": "electric_scooter", "is_reserved": 0, "lon": -77.06243133333334}, {"fusion_lat": 0.0, "name": "4f6d7eed1ae9c15cf8d404b92c1dd56c", "is_disabled": 0, "rental_uris": {"android": "https://dc.lft.to/lastmile_qr_scan", "ios": "https://dc.lft.to/lastmile_qr_scan"}, "fusion_lon": 0.0, "lat": 38.929954333333335, "bike_id": "4f6d7eed1ae9c15cf8d404b92c1dd56c", "type": "electric_scooter", "is_reserved": 0, "lon": -77.03235666666667}, {"fusion_lat": 0.0, "name": "c806b4c5f736c8bce2b35840c054c8cb", "is_disabled": 0, "rental_uris": {"android": "https://dc.lft.to/lastmile_qr_scan", "ios": "https://dc.lft.to/lastmile_qr_scan"}, "fusion_lon": 0.0, "lat": 38.8902995, "bike_id": "c806b4c5f736c8bce2b35840c054c8cb", "type": "electric_bike", "is_reserved": 0, "lon": -77.08643516666666}, {"fusion_lat": 0.0, "name": "57825adadfd8d610a97a727e414af9e6", "is_disabled": 0, "rental_uris": {"android": "https://dc.lft.to/lastmile_qr_scan", "ios": "https://dc.lft.to/lastmile_qr_scan"}, "fusion_lon": 0.0, "lat": 38.9160075, "bike_id": "57825adadfd8d610a97a727e414af9e6", "type": "electric_scooter", "is_reserved": 0, "lon": -77.04902866666667}, {"fusion_lat": 0.0, "name": "e8a5001a1836abd469956eb45f0ff099", "is_disabled": 0, "rental_uris": {"android": "https://dc.lft.to/lastmile_qr_scan", "ios": "https://dc.lft.to/lastmile_qr_scan"}, "fusion_lon": 0.0, "lat": 38.902196333333336, "bike_id": "e8a5001a1836abd469956eb45f0ff099", "type": "electric_scooter", "is_reserved": 0, "lon": -77.0237275}, {"fusion_lat": 0.0, "name": "940f2477e4f495bec852d30c68bec0b2", "is_disabled": 0, "rental_uris": {"android": "https://dc.lft.to/lastmile_qr_scan", "ios": "https://dc.lft.to/lastmile_qr_scan"}, "fusion_lon": 0.0, "lat": 38.91994833333333, "bike_id": "940f2477e4f495bec852d30c68bec0b2", "type": "electric_scooter", "is_reserved": 0, "lon": -77.0710325}, {"fusion_lat": 0.0, "name": "b6204e7baa3a2355f4d6b9bb8e5073d7", "is_disabled": 0, "rental_uris": {"android": "https://dc.lft.to/lastmile_qr_scan", "ios": "https://dc.lft.to/lastmile_qr_scan"}, "fusion_lon": 0.0, "lat": 38.92613683333333, "bike_id": "b6204e7baa3a2355f4d6b9bb8e5073d7", "type": "electric_scooter", "is_reserved": 0, "lon": -77.04321416666667}, {"fusion_lat": 0.0, "name": "53ba074c8ef56b4838ac79d9331f7783", "is_disabled": 0, "rental_uris": {"android": "https://dc.lft.to/lastmile_qr_scan", "ios": "https://dc.lft.to/lastmile_qr_scan"}, "fusion_lon": 0.0, "lat": 38.93114633333333, "bike_id": "53ba074c8ef56b4838ac79d9331f7783", "type": "electric_scooter", "is_reserved": 0, "lon": -77.0209815}, {"fusion_lat": 0.0, "name": "d7b909d515292730c14855900936217e", "is_disabled": 0, "rental_uris": {"android": "https://dc.lft.to/lastmile_qr_scan", "ios": "https://dc.lft.to/lastmile_qr_scan"}, "fusion_lon": 0.0, "lat": 38.9666855, "bike_id": "d7b909d515292730c14855900936217e", "type": "electric_bike", "is_reserved": 0, "lon": -76.97446733333334}, {"fusion_lat": 0.0, "name": "d4e0df324ee2940a8bd530a24529ae92", "is_disabled": 0, "rental_uris": {"android": "https://dc.lft.to/lastmile_qr_scan", "ios": "https://dc.lft.to/lastmile_qr_scan"}, "fusion_lon": 0.0, "lat": 38.90029666666667, "bike_id": "d4e0df324ee2940a8bd530a24529ae92", "type": "electric_scooter", "is_reserved": 0, "lon": -77.00028033333334}, {"fusion_lat": 0.0, "name": "00a153d7e075ad55b60b05b308636731", "is_disabled": 0, "rental_uris": {"android": "https://dc.lft.to/lastmile_qr_scan", "ios": "https://dc.lft.to/lastmile_qr_scan"}, "fusion_lon": 0.0, "lat": 38.9055795, "bike_id": "00a153d7e075ad55b60b05b308636731", "type": "electric_scooter", "is_reserved": 0, "lon": -77.00587783333333}, {"fusion_lat": 0.0, "name": "80996dd7eebe6c8017042d91609df7b5", "is_disabled": 0, "rental_uris": {"android": "https://dc.lft.to/lastmile_qr_scan", "ios": "https://dc.lft.to/lastmile_qr_scan"}, "fusion_lon": 0.0, "lat": 38.939164, "bike_id": "80996dd7eebe6c8017042d91609df7b5", "type": "electric_scooter", "is_reserved": 0, "lon": -77.02797616666666}, {"fusion_lat": 0.0, "name": "d02c0f5728d496295ea455be08381353", "is_disabled": 0, "rental_uris": {"android": "https://dc.lft.to/lastmile_qr_scan", "ios": "https://dc.lft.to/lastmile_qr_scan"}, "fusion_lon": 0.0, "lat": 38.920526, "bike_id": "d02c0f5728d496295ea455be08381353", "type": "electric_scooter", "is_reserved": 0, "lon": -76.99857583333333}, {"fusion_lat": 0.0, "name": "53d4e390294667828ffd69d912ed5935", "is_disabled": 0, "rental_uris": {"android": "https://dc.lft.to/lastmile_qr_scan", "ios": "https://dc.lft.to/lastmile_qr_scan"}, "fusion_lon": 0.0, "lat": 38.91025833333333, "bike_id": "53d4e390294667828ffd69d912ed5935", "type": "electric_scooter", "is_reserved": 0, "lon": -77.00757866666666}, {"fusion_lat": 0.0, "name": "1ea743cc15189242137885c34928d89d", "is_disabled": 0, "rental_uris": {"android": "https://dc.lft.to/lastmile_qr_scan", "ios": "https://dc.lft.to/lastmile_qr_scan"}, "fusion_lon": 0.0, "lat": 38.906346, "bike_id": "1ea743cc15189242137885c34928d89d", "type": "electric_scooter", "is_reserved": 0, "lon": -77.0231945}, {"fusion_lat": 0.0, "name": "4ef99692190e759abeaeee08de1c4ad0", "is_disabled": 0, "rental_uris": {"android": "https://dc.lft.to/lastmile_qr_scan", "ios": "https://dc.lft.to/lastmile_qr_scan"}, "fusion_lon": 0.0, "lat": 38.883963, "bike_id": "4ef99692190e759abeaeee08de1c4ad0", "type": "electric_scooter", "is_reserved": 0, "lon": -77.01972866666667}, {"fusion_lat": 0.0, "name": "461bcf3422295a1e07963d6dbb8a7256", "is_disabled": 0, "rental_uris": {"android": "https://dc.lft.to/lastmile_qr_scan", "ios": "https://dc.lft.to/lastmile_qr_scan"}, "fusion_lon": 0.0, "lat": 38.96144733333333, "bike_id": "461bcf3422295a1e07963d6dbb8a7256", "type": "electric_bike", "is_reserved": 0, "lon": -77.03240516666666}, {"fusion_lat": 0.0, "name": "8ca4aa98bfdf886b79df4fda766d37dd", "is_disabled": 0, "rental_uris": {"android": "https://dc.lft.to/lastmile_qr_scan", "ios": "https://dc.lft.to/lastmile_qr_scan"}, "fusion_lon": 0.0, "lat": 38.9002565, "bike_id": "8ca4aa98bfdf886b79df4fda766d37dd", "type": "electric_scooter", "is_reserved": 0, "lon": -76.99134666666667}, {"fusion_lat": 0.0, "name": "e7cfb6cad7819417ef1c836c8914ec00", "is_disabled": 0, "rental_uris": {"android": "https://dc.lft.to/lastmile_qr_scan", "ios": "https://dc.lft.to/lastmile_qr_scan"}, "fusion_lon": 0.0, "lat": 38.92340016666667, "bike_id": "e7cfb6cad7819417ef1c836c8914ec00", "type": "electric_scooter", "is_reserved": 0, "lon": -77.0018545}, {"fusion_lat": 0.0, "name": "c763541d9df3c6dc7a32ecf45fc2e939", "is_disabled": 0, "rental_uris": {"android": "https://dc.lft.to/lastmile_qr_scan", "ios": "https://dc.lft.to/lastmile_qr_scan"}, "fusion_lon": 0.0, "lat": 38.92509616666667, "bike_id": "c763541d9df3c6dc7a32ecf45fc2e939", "type": "electric_scooter", "is_reserved": 0, "lon": -77.03773333333334}, {"fusion_lat": 0.0, "name": "f9be757b5f15243671ba90092ab129e3", "is_disabled": 0, "rental_uris": {"android": "https://dc.lft.to/lastmile_qr_scan", "ios": "https://dc.lft.to/lastmile_qr_scan"}, "fusion_lon": 0.0, "lat": 38.888959166666666, "bike_id": "f9be757b5f15243671ba90092ab129e3", "type": "electric_bike", "is_reserved": 0, "lon": -77.11530316666666}, {"fusion_lat": 0.0, "name": "17e993bc35aab329153b6685b73cc94c", "is_disabled": 0, "rental_uris": {"android": "https://dc.lft.to/lastmile_qr_scan", "ios": "https://dc.lft.to/lastmile_qr_scan"}, "fusion_lon": 0.0, "lat": 38.92556666666667, "bike_id": "17e993bc35aab329153b6685b73cc94c", "type": "electric_scooter", "is_reserved": 0, "lon": -77.02283}, {"fusion_lat": 0.0, "name": "af6e1af7f75f4a68d622e5766849bb64", "is_disabled": 0, "rental_uris": {"android": "https://dc.lft.to/lastmile_qr_scan", "ios": "https://dc.lft.to/lastmile_qr_scan"}, "fusion_lon": 0.0, "lat": 38.897472666666665, "bike_id": "af6e1af7f75f4a68d622e5766849bb64", "type": "electric_scooter", "is_reserved": 0, "lon": -77.02733433333333}, {"fusion_lat": 0.0, "name": "f7a3a73b5da905d23dfd2689d730661b", "is_disabled": 0, "rental_uris": {"android": "https://dc.lft.to/lastmile_qr_scan", "ios": "https://dc.lft.to/lastmile_qr_scan"}, "fusion_lon": 0.0, "lat": 38.9010575, "bike_id": "f7a3a73b5da905d23dfd2689d730661b", "type": "electric_scooter", "is_reserved": 0, "lon": -77.03358916666667}, {"fusion_lat": 0.0, "name": "34ace9978a546895ed2d0238047d1af1", "is_disabled": 0, "rental_uris": {"android": "https://dc.lft.to/lastmile_qr_scan", "ios": "https://dc.lft.to/lastmile_qr_scan"}, "fusion_lon": 0.0, "lat": 38.964457833333334, "bike_id": "34ace9978a546895ed2d0238047d1af1", "type": "electric_scooter", "is_reserved": 0, "lon": -77.02069716666666}, {"fusion_lat": 0.0, "name": "7d01dd68c95cf1230ba18cb3c93a4a91", "is_disabled": 0, "rental_uris": {"android": "https://dc.lft.to/lastmile_qr_scan", "ios": "https://dc.lft.to/lastmile_qr_scan"}, "fusion_lon": 0.0, "lat": 38.908953833333335, "bike_id": "7d01dd68c95cf1230ba18cb3c93a4a91", "type": "electric_scooter", "is_reserved": 0, "lon": -77.04386816666667}, {"fusion_lat": 0.0, "name": "28cabce623484dea2ed769a28baf8a0d", "is_disabled": 0, "rental_uris": {"android": "https://dc.lft.to/lastmile_qr_scan", "ios": "https://dc.lft.to/lastmile_qr_scan"}, "fusion_lon": 0.0, "lat": 38.921805666666664, "bike_id": "28cabce623484dea2ed769a28baf8a0d", "type": "electric_scooter", "is_reserved": 0, "lon": -77.04231266666666}, {"fusion_lat": 0.0, "name": "c77a629e310b72e66d050f5a4b4cfebf", "is_disabled": 0, "rental_uris": {"android": "https://dc.lft.to/lastmile_qr_scan", "ios": "https://dc.lft.to/lastmile_qr_scan"}, "fusion_lon": 0.0, "lat": 38.934911666666665, "bike_id": "c77a629e310b72e66d050f5a4b4cfebf", "type": "electric_scooter", "is_reserved": 0, "lon": -77.03075633333333}, {"fusion_lat": 0.0, "name": "0f6d9bdd486073f33e723c5346859be5", "is_disabled": 0, "rental_uris": {"android": "https://dc.lft.to/lastmile_qr_scan", "ios": "https://dc.lft.to/lastmile_qr_scan"}, "fusion_lon": 0.0, "lat": 38.898494666666664, "bike_id": "0f6d9bdd486073f33e723c5346859be5", "type": "electric_scooter", "is_reserved": 0, "lon": -76.99273283333333}, {"fusion_lat": 0.0, "name": "bad2338cb26b3a5671c7fbd6b4a1f689", "is_disabled": 0, "rental_uris": {"android": "https://dc.lft.to/lastmile_qr_scan", "ios": "https://dc.lft.to/lastmile_qr_scan"}, "fusion_lon": 0.0, "lat": 38.905012, "bike_id": "bad2338cb26b3a5671c7fbd6b4a1f689", "type": "electric_scooter", "is_reserved": 0, "lon": -77.02947016666667}, {"fusion_lat": 0.0, "name": "fae1598d30bd4c3b30f1aaf70c95bfe8", "is_disabled": 0, "rental_uris": {"android": "https://dc.lft.to/lastmile_qr_scan", "ios": "https://dc.lft.to/lastmile_qr_scan"}, "fusion_lon": 0.0, "lat": 38.910384, "bike_id": "fae1598d30bd4c3b30f1aaf70c95bfe8", "type": "electric_scooter", "is_reserved": 0, "lon": -77.0129315}, {"fusion_lat": 0.0, "name": "10cbdbeff26f532990cc7b8589480cae", "is_disabled": 0, "rental_uris": {"android": "https://dc.lft.to/lastmile_qr_scan", "ios": "https://dc.lft.to/lastmile_qr_scan"}, "fusion_lon": 0.0, "lat": 38.904506, "bike_id": "10cbdbeff26f532990cc7b8589480cae", "type": "electric_bike", "is_reserved": 0, "lon": -76.97426083333333}, {"fusion_lat": 0.0, "name": "1da61519e2f15a46509bf1cd513c196e", "is_disabled": 0, "rental_uris": {"android": "https://dc.lft.to/lastmile_qr_scan", "ios": "https://dc.lft.to/lastmile_qr_scan"}, "fusion_lon": 0.0, "lat": 38.855626666666666, "bike_id": "1da61519e2f15a46509bf1cd513c196e", "type": "electric_bike", "is_reserved": 0, "lon": -77.113137}, {"fusion_lat": 0.0, "name": "ddde5484824505e2592b15c9458cb8fe", "is_disabled": 0, "rental_uris": {"android": "https://dc.lft.to/lastmile_qr_scan", "ios": "https://dc.lft.to/lastmile_qr_scan"}, "fusion_lon": 0.0, "lat": 38.892200333333335, "bike_id": "ddde5484824505e2592b15c9458cb8fe", "type": "electric_scooter", "is_reserved": 0, "lon": -77.03218833333334}, {"fusion_lat": 0.0, "name": "3302afabbe28a9f8fb9f9aff4bb025e5", "is_disabled": 0, "rental_uris": {"android": "https://dc.lft.to/lastmile_qr_scan", "ios": "https://dc.lft.to/lastmile_qr_scan"}, "fusion_lon": 0.0, "lat": 38.96065733333333, "bike_id": "3302afabbe28a9f8fb9f9aff4bb025e5", "type": "electric_scooter", "is_reserved": 0, "lon": -77.00093533333333}, {"fusion_lat": 0.0, "name": "c7ccb7355a7188d35cd58e7244893277", "is_disabled": 0, "rental_uris": {"android": "https://dc.lft.to/lastmile_qr_scan", "ios": "https://dc.lft.to/lastmile_qr_scan"}, "fusion_lon": 0.0, "lat": 38.89727166666667, "bike_id": "c7ccb7355a7188d35cd58e7244893277", "type": "electric_scooter", "is_reserved": 0, "lon": -76.94700316666666}, {"fusion_lat": 0.0, "name": "e5ca36c162c381378212925173d25dc3", "is_disabled": 0, "rental_uris": {"android": "https://dc.lft.to/lastmile_qr_scan", "ios": "https://dc.lft.to/lastmile_qr_scan"}, "fusion_lon": 0.0, "lat": 38.91562916666667, "bike_id": "e5ca36c162c381378212925173d25dc3", "type": "electric_scooter", "is_reserved": 0, "lon": -77.03820133333333}, {"fusion_lat": 0.0, "name": "deb638d4684d2ab57d9d550be90df118", "is_disabled": 0, "rental_uris": {"android": "https://dc.lft.to/lastmile_qr_scan", "ios": "https://dc.lft.to/lastmile_qr_scan"}, "fusion_lon": 0.0, "lat": 38.9357255, "bike_id": "deb638d4684d2ab57d9d550be90df118", "type": "electric_scooter", "is_reserved": 0, "lon": -77.01925666666666}, {"fusion_lat": 0.0, "name": "ed14458c6ca41613df0ce7de4344a09d", "is_disabled": 0, "rental_uris": {"android": "https://dc.lft.to/lastmile_qr_scan", "ios": "https://dc.lft.to/lastmile_qr_scan"}, "fusion_lon": 0.0, "lat": 38.877623166666666, "bike_id": "ed14458c6ca41613df0ce7de4344a09d", "type": "electric_scooter", "is_reserved": 0, "lon": -76.993868}, {"fusion_lat": 0.0, "name": "e40413d9e439364d62da0d0ddb96917a", "is_disabled": 0, "rental_uris": {"android": "https://dc.lft.to/lastmile_qr_scan", "ios": "https://dc.lft.to/lastmile_qr_scan"}, "fusion_lon": 0.0, "lat": 38.9224935, "bike_id": "e40413d9e439364d62da0d0ddb96917a", "type": "electric_scooter", "is_reserved": 0, "lon": -77.033819}, {"fusion_lat": 0.0, "name": "48e00c1d1c4532a13c80becdf2a0630b", "is_disabled": 0, "rental_uris": {"android": "https://dc.lft.to/lastmile_qr_scan", "ios": "https://dc.lft.to/lastmile_qr_scan"}, "fusion_lon": 0.0, "lat": 38.90584066666667, "bike_id": "48e00c1d1c4532a13c80becdf2a0630b", "type": "electric_scooter", "is_reserved": 0, "lon": -77.00887583333333}, {"fusion_lat": 0.0, "name": "91a5e359b392f18c64f24b5e4786b977", "is_disabled": 0, "rental_uris": {"android": "https://dc.lft.to/lastmile_qr_scan", "ios": "https://dc.lft.to/lastmile_qr_scan"}, "fusion_lon": 0.0, "lat": 38.899883333333335, "bike_id": "91a5e359b392f18c64f24b5e4786b977", "type": "electric_scooter", "is_reserved": 0, "lon": -77.025083}, {"fusion_lat": 0.0, "name": "ec206ec771c8951b48eba1fd62735d34", "is_disabled": 0, "rental_uris": {"android": "https://dc.lft.to/lastmile_qr_scan", "ios": "https://dc.lft.to/lastmile_qr_scan"}, "fusion_lon": 0.0, "lat": 38.8971, "bike_id": "ec206ec771c8951b48eba1fd62735d34", "type": "electric_scooter", "is_reserved": 0, "lon": -77.05127866666666}, {"fusion_lat": 0.0, "name": "a427745529320f004972ec2f95771719", "is_disabled": 0, "rental_uris": {"android": "https://dc.lft.to/lastmile_qr_scan", "ios": "https://dc.lft.to/lastmile_qr_scan"}, "fusion_lon": 0.0, "lat": 38.89756333333333, "bike_id": "a427745529320f004972ec2f95771719", "type": "electric_scooter", "is_reserved": 0, "lon": -77.05107183333334}, {"fusion_lat": 0.0, "name": "3db08bede33f85deade9833316051960", "is_disabled": 0, "rental_uris": {"android": "https://dc.lft.to/lastmile_qr_scan", "ios": "https://dc.lft.to/lastmile_qr_scan"}, "fusion_lon": 0.0, "lat": 38.904071, "bike_id": "3db08bede33f85deade9833316051960", "type": "electric_scooter", "is_reserved": 0, "lon": -76.97328583333334}, {"fusion_lat": 0.0, "name": "6371e655df2eb2867770d97d4c5992e4", "is_disabled": 0, "rental_uris": {"android": "https://dc.lft.to/lastmile_qr_scan", "ios": "https://dc.lft.to/lastmile_qr_scan"}, "fusion_lon": 0.0, "lat": 38.89738933333334, "bike_id": "6371e655df2eb2867770d97d4c5992e4", "type": "electric_scooter", "is_reserved": 0, "lon": -77.045504}, {"fusion_lat": 0.0, "name": "57ee9b2e672dceb07904e9acf48ce84d", "is_disabled": 0, "rental_uris": {"android": "https://dc.lft.to/lastmile_qr_scan", "ios": "https://dc.lft.to/lastmile_qr_scan"}, "fusion_lon": 0.0, "lat": 38.88436466666667, "bike_id": "57ee9b2e672dceb07904e9acf48ce84d", "type": "electric_scooter", "is_reserved": 0, "lon": -77.003459}, {"fusion_lat": 0.0, "name": "99f624b1ae49b1c7c7d119c4ef503f76", "is_disabled": 0, "rental_uris": {"android": "https://dc.lft.to/lastmile_qr_scan", "ios": "https://dc.lft.to/lastmile_qr_scan"}, "fusion_lon": 0.0, "lat": 38.83405333333333, "bike_id": "99f624b1ae49b1c7c7d119c4ef503f76", "type": "electric_bike", "is_reserved": 0, "lon": -77.00324933333333}, {"fusion_lat": 0.0, "name": "57ca44f989ccac9da30b212a103998cb", "is_disabled": 0, "rental_uris": {"android": "https://dc.lft.to/lastmile_qr_scan", "ios": "https://dc.lft.to/lastmile_qr_scan"}, "fusion_lon": 0.0, "lat": 38.9350685, "bike_id": "57ca44f989ccac9da30b212a103998cb", "type": "electric_scooter", "is_reserved": 0, "lon": -77.02404183333333}, {"fusion_lat": 0.0, "name": "a207a66aaaec1224fd84c005dab99b66", "is_disabled": 0, "rental_uris": {"android": "https://dc.lft.to/lastmile_qr_scan", "ios": "https://dc.lft.to/lastmile_qr_scan"}, "fusion_lon": 0.0, "lat": 38.91618716666667, "bike_id": "a207a66aaaec1224fd84c005dab99b66", "type": "electric_scooter", "is_reserved": 0, "lon": -77.0385345}, {"fusion_lat": 0.0, "name": "3c31da778e6dce3cf5ed30f2b4f49037", "is_disabled": 0, "rental_uris": {"android": "https://dc.lft.to/lastmile_qr_scan", "ios": "https://dc.lft.to/lastmile_qr_scan"}, "fusion_lon": 0.0, "lat": 38.9003285, "bike_id": "3c31da778e6dce3cf5ed30f2b4f49037", "type": "electric_scooter", "is_reserved": 0, "lon": -77.05829666666666}, {"fusion_lat": 0.0, "name": "7d8702a37c13f4556d648be3b547a5d2", "is_disabled": 0, "rental_uris": {"android": "https://dc.lft.to/lastmile_qr_scan", "ios": "https://dc.lft.to/lastmile_qr_scan"}, "fusion_lon": 0.0, "lat": 38.92576366666667, "bike_id": "7d8702a37c13f4556d648be3b547a5d2", "type": "electric_scooter", "is_reserved": 0, "lon": -77.03749816666667}, {"fusion_lat": 0.0, "name": "dc2406b6c26ad411cf0a2a096712476c", "is_disabled": 0, "rental_uris": {"android": "https://dc.lft.to/lastmile_qr_scan", "ios": "https://dc.lft.to/lastmile_qr_scan"}, "fusion_lon": 0.0, "lat": 38.90662183333333, "bike_id": "dc2406b6c26ad411cf0a2a096712476c", "type": "electric_scooter", "is_reserved": 0, "lon": -77.0701725}, {"fusion_lat": 0.0, "name": "934a852c9222386034c1c9c7a3877a0a", "is_disabled": 0, "rental_uris": {"android": "https://dc.lft.to/lastmile_qr_scan", "ios": "https://dc.lft.to/lastmile_qr_scan"}, "fusion_lon": 0.0, "lat": 38.897224666666666, "bike_id": "934a852c9222386034c1c9c7a3877a0a", "type": "electric_scooter", "is_reserved": 0, "lon": -77.02162583333333}, {"fusion_lat": 0.0, "name": "40b6d56c2fb233ab2e7937359b33cfd6", "is_disabled": 0, "rental_uris": {"android": "https://dc.lft.to/lastmile_qr_scan", "ios": "https://dc.lft.to/lastmile_qr_scan"}, "fusion_lon": 0.0, "lat": 38.899033833333334, "bike_id": "40b6d56c2fb233ab2e7937359b33cfd6", "type": "electric_scooter", "is_reserved": 0, "lon": -76.933466}, {"fusion_lat": 0.0, "name": "5f2fc862aedc621be2c8f4300f24a56e", "is_disabled": 0, "rental_uris": {"android": "https://dc.lft.to/lastmile_qr_scan", "ios": "https://dc.lft.to/lastmile_qr_scan"}, "fusion_lon": 0.0, "lat": 38.9341065, "bike_id": "5f2fc862aedc621be2c8f4300f24a56e", "type": "electric_scooter", "is_reserved": 0, "lon": -77.041535}, {"fusion_lat": 0.0, "name": "4231eec35f4945573c1d92c95822ba3e", "is_disabled": 0, "rental_uris": {"android": "https://dc.lft.to/lastmile_qr_scan", "ios": "https://dc.lft.to/lastmile_qr_scan"}, "fusion_lon": 0.0, "lat": 38.92936816666667, "bike_id": "4231eec35f4945573c1d92c95822ba3e", "type": "electric_scooter", "is_reserved": 0, "lon": -77.02334766666667}, {"fusion_lat": 0.0, "name": "7a807eaa9a202fe0022ee363dd9d2f37", "is_disabled": 0, "rental_uris": {"android": "https://dc.lft.to/lastmile_qr_scan", "ios": "https://dc.lft.to/lastmile_qr_scan"}, "fusion_lon": 0.0, "lat": 38.895534833333336, "bike_id": "7a807eaa9a202fe0022ee363dd9d2f37", "type": "electric_scooter", "is_reserved": 0, "lon": -76.9984205}, {"fusion_lat": 0.0, "name": "3db8bef7927600e2e511d996ec4c2867", "is_disabled": 0, "rental_uris": {"android": "https://dc.lft.to/lastmile_qr_scan", "ios": "https://dc.lft.to/lastmile_qr_scan"}, "fusion_lon": 0.0, "lat": 38.84504866666666, "bike_id": "3db8bef7927600e2e511d996ec4c2867", "type": "electric_bike", "is_reserved": 0, "lon": -76.99356933333334}, {"fusion_lat": 0.0, "name": "401ca567c0835b3e90e6ceb512311cd2", "is_disabled": 0, "rental_uris": {"android": "https://dc.lft.to/lastmile_qr_scan", "ios": "https://dc.lft.to/lastmile_qr_scan"}, "fusion_lon": 0.0, "lat": 38.919032, "bike_id": "401ca567c0835b3e90e6ceb512311cd2", "type": "electric_scooter", "is_reserved": 0, "lon": -77.01442}, {"fusion_lat": 0.0, "name": "961ba2eed0138e66f6db7c1c61d66df5", "is_disabled": 0, "rental_uris": {"android": "https://dc.lft.to/lastmile_qr_scan", "ios": "https://dc.lft.to/lastmile_qr_scan"}, "fusion_lon": 0.0, "lat": 38.92313516666667, "bike_id": "961ba2eed0138e66f6db7c1c61d66df5", "type": "electric_scooter", "is_reserved": 0, "lon": -77.04369133333333}, {"fusion_lat": 0.0, "name": "d69512fb71ef02038484d5396c7b0d38", "is_disabled": 0, "rental_uris": {"android": "https://dc.lft.to/lastmile_qr_scan", "ios": "https://dc.lft.to/lastmile_qr_scan"}, "fusion_lon": 0.0, "lat": 38.90963216666667, "bike_id": "d69512fb71ef02038484d5396c7b0d38", "type": "electric_scooter", "is_reserved": 0, "lon": -77.03939066666666}, {"fusion_lat": 0.0, "name": "940924db9a8a162dc1a89376c74a693a", "is_disabled": 0, "rental_uris": {"android": "https://dc.lft.to/lastmile_qr_scan", "ios": "https://dc.lft.to/lastmile_qr_scan"}, "fusion_lon": 0.0, "lat": 38.904879, "bike_id": "940924db9a8a162dc1a89376c74a693a", "type": "electric_scooter", "is_reserved": 0, "lon": -77.02589116666667}, {"fusion_lat": 0.0, "name": "81fa64dfad5520a8a7fe773d695f9388", "is_disabled": 0, "rental_uris": {"android": "https://dc.lft.to/lastmile_qr_scan", "ios": "https://dc.lft.to/lastmile_qr_scan"}, "fusion_lon": 0.0, "lat": 38.932196833333336, "bike_id": "81fa64dfad5520a8a7fe773d695f9388", "type": "electric_scooter", "is_reserved": 0, "lon": -77.04411333333333}, {"fusion_lat": 0.0, "name": "e7d22fc554f5fe7afeb89441688edb18", "is_disabled": 0, "rental_uris": {"android": "https://dc.lft.to/lastmile_qr_scan", "ios": "https://dc.lft.to/lastmile_qr_scan"}, "fusion_lon": 0.0, "lat": 38.92081183333333, "bike_id": "e7d22fc554f5fe7afeb89441688edb18", "type": "electric_scooter", "is_reserved": 0, "lon": -77.012123}, {"fusion_lat": 0.0, "name": "2fee906c7b52db62405822dfc6ee914c", "is_disabled": 0, "rental_uris": {"android": "https://dc.lft.to/lastmile_qr_scan", "ios": "https://dc.lft.to/lastmile_qr_scan"}, "fusion_lon": 0.0, "lat": 38.899994666666665, "bike_id": "2fee906c7b52db62405822dfc6ee914c", "type": "electric_scooter", "is_reserved": 0, "lon": -77.04068783333334},