{"data": {"bikes": [{"fusion_lon": 0.0, "bike_id": "bdcf0f7f707a695b093547bd722aef34", "is_disabled": 0, "is_reserved": 0, "lat": 38.9157155, "name": "bdcf0f7f707a695b093547bd722aef34", "rental_uris": {"ios": "https://dc.lft.to/lastmile_qr_scan", "android": "https://dc.lft.to/lastmile_qr_scan"}, "type": "electric_scooter", "fusion_lat": 0.0, "lon": -77.03191366666667}, {"fusion_lon": 0.0, "bike_id": "742fd804175c7455c6237d49f9f30cbc", "is_disabled": 0, "is_reserved": 0, "lat": 38.90060283333333, "name": "742fd804175c7455c6237d49f9f30cbc", "rental_uris": {"ios": "https://dc.lft.to/lastmile_qr_scan", "android": "https://dc.lft.to/lastmile_qr_scan"}, "type": "electric_scooter", "fusion_lat": 0.0, "lon": -77.04542233333333}, {"fusion_lon": 0.0, "bike_id": "bf83fff72f3375040bb78e5789264527", "is_disabled": 0, "is_reserved": 0, "lat": 38.92965816666667, "name": "bf83fff72f3375040bb78e5789264527", "rental_uris": {"ios": "https://dc.lft.to/lastmile_qr_scan", "android": "https://dc.lft.to/lastmile_qr_scan"}, "type": "electric_scooter", "fusion_lat": 0.0, "lon": -77.0314555}, {"fusion_lon": 0.0, "bike_id": "7811b59f5a85d136d9f06ef60f6b82a9", "is_disabled": 0, "is_reserved": 0, "lat": 38.8969465, "name": "7811b59f5a85d136d9f06ef60f6b82a9", "rental_uris": {"ios": "https://dc.lft.to/lastmile_qr_scan", "android": "https://dc.lft.to/lastmile_qr_scan"}, "type": "electric_scooter", "fusion_lat": 0.0, "lon": -77.04874083333333}, {"fusion_lon": 0.0, "bike_id": "08efc29be292704eb2e2ef80a44f6356", "is_disabled": 0, "is_reserved": 0, "lat": 38.8984915, "name": "08efc29be292704eb2e2ef80a44f6356", "rental_uris": {"ios": "https://dc.lft.to/lastmile_qr_scan", "android": "https://dc.lft.to/lastmile_qr_scan"}, "type": "electric_scooter", "fusion_lat": 0.0, "lon": -76.92748516666667}, {"fusion_lon": 0.0, "bike_id": "4b8e7d938e3a91b2f895885afb00f034", "is_disabled": 0, "is_reserved": 0, "lat": 38.921609333333336, "name": "4b8e7d938e3a91b2f895885afb00f034", "rental_uris": {"ios": "https://dc.lft.to/lastmile_qr_scan", "android": "https://dc.lft.to/lastmile_qr_scan"}, "type": "electric_bike", "fusion_lat": 0.0, "lon": -77.07886}, {"fusion_lon": 0.0, "bike_id": "3fd0e23047ebd0868f7dabd5719bce54", "is_disabled": 0, "is_reserved": 0, "lat": 38.90118583333334, "name": "3fd0e23047ebd0868f7dabd5719bce54", "rental_uris": {"ios": "https://dc.lft.to/lastmile_qr_scan", "android": "https://dc.lft.to/lastmile_qr_scan"}, "type": "electric_scooter", "fusion_lat": 0.0, "lon": -77.04979616666667}, {"fusion_lon": 0.0, "bike_id": "316859598429c85738dd3310a837dd69", "is_disabled": 0, "is_reserved": 0, "lat": 38.83692516666667, "name": "316859598429c85738dd3310a837dd69", "rental_uris": {"ios": "https://dc.lft.to/lastmile_qr_scan", "android": "https://dc.lft.to/lastmile_qr_scan"}, "type": "electric_bike", "fusion_lat": 0.0, "lon": -77.057186}, {"fusion_lon": 0.0, "bike_id": "1b272e3e95c2bf29b8d2859e846da1c3", "is_disabled": 0, "is_reserved": 0, "lat": 38.9214975, "name": "1b272e3e95c2bf29b8d2859e846da1c3", "rental_uris": {"ios": "https://dc.lft.to/lastmile_qr_scan", "android": "https://dc.lft.to/lastmile_qr_scan"}, "type": "electric_scooter", "fusion_lat": 0.0, "lon": -77.042384}, {"fusion_lon": 0.0, "bike_id": "3a92ad1e66449c5144ed173c14832caf", "is_disabled": 0, "is_reserved": 0, "lat": 38.9043275, "name": "3a92ad1e66449c5144ed173c14832caf", "rental_uris": {"ios": "https://dc.lft.to/lastmile_qr_scan", "android": "https://dc.lft.to/lastmile_qr_scan"}, "type": "electric_bike", "fusion_lat": 0.0, "lon": -76.97227033333333}, {"fusion_lon": 0.0, "bike_id": "1223176632ed5e327be5dc1df04e08f0", "is_disabled": 0, "is_reserved": 0, "lat": 38.911194, "name": "1223176632ed5e327be5dc1df04e08f0", "rental_uris": {"ios": "https://dc.lft.to/lastmile_qr_scan", "android": "https://dc.lft.to/lastmile_qr_scan"}, "type": "electric_scooter", "fusion_lat": 0.0, "lon": -77.00440433333333}, {"fusion_lon": 0.0, "bike_id": "79343d2c7cc561df29719bbb10187a86", "is_disabled": 0, "is_reserved": 0, "lat": 38.83296716666667, "name": "79343d2c7cc561df29719bbb10187a86", "rental_uris": {"ios": "https://dc.lft.to/lastmile_qr_scan", "android": "https://dc.lft.to/lastmile_qr_scan"}, "type": "electric_bike", "fusion_lat": 0.0, "lon": -77.08409316666666}, {"fusion_lon": 0.0, "bike_id": "c8ae73e1852dc2b4ae90b52256711590", "is_disabled": 0, "is_reserved": 0, "lat": 38.92250516666667, "name": "c8ae73e1852dc2b4ae90b52256711590", "rental_uris": {"ios": "https://dc.lft.to/lastmile_qr_scan", "android": "https://dc.lft.to/lastmile_qr_scan"}, "type": "electric_scooter", "fusion_lat": 0.0, "lon": -77.01970833333333}, {"fusion_lon": 0.0, "bike_id": "7edb2c11e1e2e96480ca84f1a3a3dd97", "is_disabled": 0, "is_reserved": 0, "lat": 38.91287283333333, "name": "7edb2c11e1e2e96480ca84f1a3a3dd97", "rental_uris": {"ios": "https://dc.lft.to/lastmile_qr_scan", "android": "https://dc.lft.to/lastmile_qr_scan"}, "type": "electric_scooter", "fusion_lat": 0.0, "lon": -77.0344395}, {"fusion_lon": 0.0, "bike_id": "b579e9fe00322911e46487aa40ed98d5", "is_disabled": 0, "is_reserved": 0, "lat": 38.89788866666667, "name": "b579e9fe00322911e46487aa40ed98d5", "rental_uris": {"ios": "https://dc.lft.to/lastmile_qr_scan", "android": "https://dc.lft.to/lastmile_qr_scan"}, "type": "electric_scooter", "fusion_lat": 0.0, "lon": -77.0120145}, {"fusion_lon": 0.0, "bike_id": "6f5d17d8f7aef787495b6d0deac2bd58", "is_disabled": 0, "is_reserved": 0, "lat": 38.92031433333333, "name": "6f5d17d8f7aef787495b6d0deac2bd58", "rental_uris": {"ios": "https://dc.lft.to/lastmile_qr_scan", "android": "https://dc.lft.to/lastmile_qr_scan"}, "type": "electric_scooter", "fusion_lat": 0.0, "lon": -77.04187216666666}, {"fusion_lon": 0.0, "bike_id": "864cab371fbcf4a5234401c0e9a8c41e", "is_disabled": 0, "is_reserved": 0, "lat": 38.909466, "name": "864cab371fbcf4a5234401c0e9a8c41e", "rental_uris": {"ios": "https://dc.lft.to/lastmile_qr_scan", "android": "https://dc.lft.to/lastmile_qr_scan"}, "type": "electric_scooter", "fusion_lat": 0.0, "lon": -76.985422}, {"fusion_lon": 0.0, "bike_id": "6104012cbe4bc8175651a90858bd73f4", "is_disabled": 0, "is_reserved": 0, "lat": 38.93538216666666, "name": "6104012cbe4bc8175651a90858bd73f4", "rental_uris": {"ios": "https://dc.lft.to/lastmile_qr_scan", "android": "https://dc.lft.to/lastmile_qr_scan"}, "type": "electric_scooter", "fusion_lat": 0.0, "lon": -77.02346816666666}, {"fusion_lon": 0.0, "bike_id": "ab96d681f553e2b943be3551548df2de", "is_disabled": 0, "is_reserved": 0, "lat": 38.89837816666667, "name": "ab96d681f553e2b943be3551548df2de", "rental_uris": {"ios": "https://dc.lft.to/lastmile_qr_scan", "android": "https://dc.lft.to/lastmile_qr_scan"}, "type": "electric_scooter", "fusion_lat": 0.0, "lon": -77.022678}, {"fusion_lon": 0.0, "bike_id": "97879b45f516f4211f6f10878fd0ad2e", "is_disabled": 0, "is_reserved": 0, "lat": 38.923735666666666, "name": "97879b45f516f4211f6f10878fd0ad2e", "rental_uris": {"ios": "https://dc.lft.to/lastmile_qr_scan", "android": "https://dc.lft.to/lastmile_qr_scan"}, "type": "electric_scooter", "fusion_lat": 0.0, "lon": -77.03160416666667}, {"fusion_lon": 0.0, "bike_id": "f66095996f51783cf89502c9102351e5", "is_disabled": 0, "is_reserved": 0, "lat": 38.925049666666666, "name": "f66095996f51783cf89502c9102351e5", "rental_uris": {"ios": "https://dc.lft.to/lastmile_qr_scan", "android": "https://dc.lft.to/lastmile_qr_scan"}, "type": "electric_scooter", "fusion_lat": 0.0, "lon": -77.02169733333334}, {"fusion_lon": 0.0, "bike_id": "8f2db4ae5203fa4309e7bcf5d0ba673a", "is_disabled": 0, "is_reserved": 0, "lat": 38.91573, "name": "8f2db4ae5203fa4309e7bcf5d0ba673a", "rental_uris": {"ios": "https://dc.lft.to/lastmile_qr_scan", "android": "https://dc.lft.to/lastmile_qr_scan"}, "type": "electric_scooter", "fusion_lat": 0.0, "lon": -77.0461235}, {"fusion_lon": 0.0, "bike_id": "3e07389137f546a10cafe6d15ef7f6e0", "is_disabled": 0, "is_reserved": 0, "lat": 38.887343666666666, "name": "3e07389137f546a10cafe6d15ef7f6e0", "rental_uris": {"ios": "https://dc.lft.to/lastmile_qr_scan", "android": "https://dc.lft.to/lastmile_qr_scan"}, "type": "electric_scooter", "fusion_lat": 0.0, "lon": -77.03183716666666}, {"fusion_lon": 0.0, "bike_id": "0b5175cb67e166d1629a1a5dfd031c1a", "is_disabled": 0, "is_reserved": 0, "lat": 38.93188416666667, "name": "0b5175cb67e166d1629a1a5dfd031c1a", "rental_uris": {"ios": "https://dc.lft.to/lastmile_qr_scan", "android": "https://dc.lft.to/lastmile_qr_scan"}, "type": "electric_scooter", "fusion_lat": 0.0, "lon": -77.02833166666667}, {"fusion_lon": 0.0, "bike_id": "b9b4fd7b36a454d208cc310b6811a3d9", "is_disabled": 0, "is_reserved": 0, "lat": 38.91703183333333, "name": "b9b4fd7b36a454d208cc310b6811a3d9", "rental_uris": {"ios": "https://dc.lft.to/lastmile_qr_scan", "android": "https://dc.lft.to/lastmile_qr_scan"}, "type": "electric_scooter", "fusion_lat": 0.0, "lon": -77.050774}, {"fusion_lon": 0.0, "bike_id": "cbdeda9c5c500cacfbf609204e44e9ea", "is_disabled": 0, "is_reserved": 0, "lat": 38.879218, "name": "cbdeda9c5c500cacfbf609204e44e9ea", "rental_uris": {"ios": "https://dc.lft.to/lastmile_qr_scan", "android": "https://dc.lft.to/lastmile_qr_scan"}, "type": "electric_scooter", "fusion_lat": 0.0, "lon": -77.013282}, {"fusion_lon": 0.0, "bike_id": "adcaaded22b64bdf4503dffd82ddad84", "is_disabled": 0, "is_reserved": 0, "lat": 38.898517, "name": "adcaaded22b64bdf4503dffd82ddad84", "rental_uris": {"ios": "https://dc.lft.to/lastmile_qr_scan", "android": "https://dc.lft.to/lastmile_qr_scan"}, "type": "electric_scooter", "fusion_lat": 0.0, "lon": -76.93209216666666}, {"fusion_lon": 0.0, "bike_id": "81701ad9ba7ce240202d44346e26c35b", "is_disabled": 0, "is_reserved": 0, "lat": 38.872470166666666, "name": "81701ad9ba7ce240202d44346e26c35b", "rental_uris": {"ios": "https://dc.lft.to/lastmile_qr_scan", "android": "https://dc.lft.to/lastmile_qr_scan"}, "type": "electric_scooter", "fusion_lat": 0.0, "lon": -76.97723216666667}, {"fusion_lon": 0.0, "bike_id": "8fc6d4d9d0384cc60c538c48e424e49f", "is_disabled": 0, "is_reserved": 0, "lat": 38.928341833333334, "name": "8fc6d4d9d0384cc60c538c48e424e49f", "rental_uris": {"ios": "https://dc.lft.to/lastmile_qr_scan", "android": "https://dc.lft.to/lastmile_qr_scan"}, "type": "electric_scooter", "fusion_lat": 0.0, "lon": -77.01402666666667}, {"fusion_lon": 0.0, "bike_id": "0d37599cb3dd6c17239fff38607bae83", "is_disabled": 0, "is_reserved": 0, "lat": 38.882431, "name": "0d37599cb3dd6c17239fff38607bae83", "rental_uris": {"ios": "https://dc.lft.to/lastmile_qr_scan", "android": "https://dc.lft.to/lastmile_qr_scan"}, "type": "electric_scooter", "fusion_lat": 0.0, "lon": -76.9333615}, {"fusion_lon": 0.0, "bike_id": "8ebcde05311338333cea3aa8d9a18397", "is_disabled": 0, "is_reserved": 0, "lat": 38.918653, "name": "8ebcde05311338333cea3aa8d9a18397", "rental_uris": {"ios": "https://dc.lft.to/lastmile_qr_scan", "android": "https://dc.lft.to/lastmile_qr_scan"}, "type": "electric_scooter", "fusion_lat": 0.0, "lon": -77.04156733333333}, {"fusion_lon": 0.0, "bike_id": "9559d45dd2caa9e9207d0ff946edae3a", "is_disabled": 0, "is_reserved": 0, "lat": 38.929618166666664, "name": "9559d45dd2caa9e9207d0ff946edae3a", "rental_uris": {"ios": "https://dc.lft.to/lastmile_qr_scan", "android": "https://dc.lft.to/lastmile_qr_scan"}, "type": "electric_scooter", "fusion_lat": 0.0, "lon": -77.0164085}, {"fusion_lon": 0.0, "bike_id": "e17192584624adca9327e35e4c81f2b2", "is_disabled": 0, "is_reserved": 0, "lat": 38.90396116666667, "name": "e17192584624adca9327e35e4c81f2b2", "rental_uris": {"ios": "https://dc.lft.to/lastmile_qr_scan", "android": "https://dc.lft.to/lastmile_qr_scan"}, "type": "electric_scooter", "fusion_lat": 0.0, "lon": -77.0532835}, {"fusion_lon": 0.0, "bike_id": "87824db9e199623a408841cab2ed35d5", "is_disabled": 0, "is_reserved": 0, "lat": 38.896206166666666, "name": "87824db9e199623a408841cab2ed35d5", "rental_uris": {"ios": "https://dc.lft.to/lastmile_qr_scan", "android": "https://dc.lft.to/lastmile_qr_scan"}, "type": "electric_scooter", "fusion_lat": 0.0, "lon": -76.99843516666667}, {"fusion_lon": 0.0, "bike_id": "10302b5e015d8b38f14ee6b4f8812f42", "is_disabled": 0, "is_reserved": 0, "lat": 38.920147666666665, "name": "10302b5e015d8b38f14ee6b4f8812f42", "rental_uris": {"ios": "https://dc.lft.to/lastmile_qr_scan", "android": "https://dc.lft.to/lastmile_qr_scan"}, "type": "electric_scooter", "fusion_lat": 0.0, "lon": -77.02388266666667}, {"fusion_lon": 0.0, "bike_id": "ada91897ff1d54f492f769dfab1bb790", "is_disabled": 0, "is_reserved": 0, "lat": 38.893739, "name": "ada91897ff1d54f492f769dfab1bb790", "rental_uris": {"ios": "https://dc.lft.to/lastmile_qr_scan", "android": "https://dc.lft.to/lastmile_qr_scan"}, "type": "electric_scooter", "fusion_lat": 0.0, "lon": -77.02067116666667}, {"fusion_lon": 0.0, "bike_id": "59bfdb4907bd1fd0c4c257fe264a542c", "is_disabled": 0, "is_reserved": 0, "lat": 38.898452166666665, "name": "59bfdb4907bd1fd0c4c257fe264a542c", "rental_uris": {"ios": "https://dc.lft.to/lastmile_qr_scan", "android": "https://dc.lft.to/lastmile_qr_scan"}, "type": "electric_scooter", "fusion_lat": 0.0, "lon": -77.0228035}, {"fusion_lon": 0.0, "bike_id": "b1bd6074a792ec5ac50c69d00c5ed945", "is_disabled": 0, "is_reserved": 0, "lat": 38.9358765, "name": "b1bd6074a792ec5ac50c69d00c5ed945", "rental_uris": {"ios": "https://dc.lft.to/lastmile_qr_scan", "android": "https://dc.lft.to/lastmile_qr_scan"}, "type": "electric_scooter", "fusion_lat": 0.0, "lon": -77.07425116666667}, {"fusion_lon": 0.0, "bike_id": "f8082f3c3482b9b7fe9ef9ff067c2616", "is_disabled": 0, "is_reserved": 0, "lat": 38.9017, "name": "f8082f3c3482b9b7fe9ef9ff067c2616", "rental_uris": {"ios": "https://dc.lft.to/lastmile_qr_scan", "android": "https://dc.lft.to/lastmile_qr_scan"}, "type": "electric_scooter", "fusion_lat": 0.0, "lon": -77.024781}, {"fusion_lon": 0.0, "bike_id": "3bd992f6c71a29e572626027f9b38d2f", "is_disabled": 0, "is_reserved": 0, "lat": 38.97476783333333, "name": "3bd992f6c71a29e572626027f9b38d2f", "rental_uris": {"ios": "https://dc.lft.to/lastmile_qr_scan", "android": "https://dc.lft.to/lastmile_qr_scan"}, "type": "electric_bike", "fusion_lat": 0.0, "lon": -76.98672783333333}, {"fusion_lon": 0.0, "bike_id": "1d7082aefc53c7285fc9eadda0b72941", "is_disabled": 0, "is_reserved": 0, "lat": 38.9354745, "name": "1d7082aefc53c7285fc9eadda0b72941", "rental_uris": {"ios": "https://dc.lft.to/lastmile_qr_scan", "android": "https://dc.lft.to/lastmile_qr_scan"}, "type": "electric_scooter", "fusion_lat": 0.0, "lon": -77.02503016666667}, {"fusion_lon": 0.0, "bike_id": "f8786e35a29577282bfc9ae41b3871cb", "is_disabled": 0, "is_reserved": 0, "lat": 38.929465, "name": "f8786e35a29577282bfc9ae41b3871cb", "rental_uris": {"ios": "https://dc.lft.to/lastmile_qr_scan", "android": "https://dc.lft.to/lastmile_qr_scan"}, "type": "electric_scooter", "fusion_lat": 0.0, "lon": -77.055066}, {"fusion_lon": 0.0, "bike_id": "b260c8162f768418745ce5f0feb0e227", "is_disabled": 0, "is_reserved": 0, "lat": 38.92790683333333, "name": "b260c8162f768418745ce5f0feb0e227", "rental_uris": {"ios": "https://dc.lft.to/lastmile_qr_scan", "android": "https://dc.lft.to/lastmile_qr_scan"}, "type": "electric_scooter", "fusion_lat": 0.0, "lon": -77.0362005}, {"fusion_lon": 0.0, "bike_id": "902216089491013578d88ae132b38f4d", "is_disabled": 0, "is_reserved": 0, "lat": 38.9131295, "name": "902216089491013578d88ae132b38f4d", "rental_uris": {"ios": "https://dc.lft.to/lastmile_qr_scan", "android": "https://dc.lft.to/lastmile_qr_scan"}, "type": "electric_scooter", "fusion_lat": 0.0, "lon": -77.02174933333333}, {"fusion_lon": 0.0, "bike_id": "06a1ad1dd3c857c3d4f130d60f821611", "is_disabled": 0, "is_reserved": 0, "lat": 39.022960166666664, "name": "06a1ad1dd3c857c3d4f130d60f821611", "rental_uris": {"ios": "https://dc.lft.to/lastmile_qr_scan", "android": "https://dc.lft.to/lastmile_qr_scan"}, "type": "electric_bike", "fusion_lat": 0.0, "lon": -77.0210235}, {"fusion_lon": 0.0, "bike_id": "439d02a542ea0b05a38b9aced44f49ce", "is_disabled": 0, "is_reserved": 0, "lat": 38.8943825, "name": "439d02a542ea0b05a38b9aced44f49ce", "rental_uris": {"ios": "https://dc.lft.to/lastmile_qr_scan", "android": "https://dc.lft.to/lastmile_qr_scan"}, "type": "electric_scooter", "fusion_lat": 0.0, "lon": -77.02448183333334}, {"fusion_lon": 0.0, "bike_id": "47c6476ab66f0ecc2a53a9720114bc5c", "is_disabled": 0, "is_reserved": 0, "lat": 38.92137016666667, "name": "47c6476ab66f0ecc2a53a9720114bc5c", "rental_uris": {"ios": "https://dc.lft.to/lastmile_qr_scan", "android": "https://dc.lft.to/lastmile_qr_scan"}, "type": "electric_scooter", "fusion_lat": 0.0, "lon": -77.0206105}, {"fusion_lon": 0.0, "bike_id": "fbae8e6208697d220d82151fd9ffc3e0", "is_disabled": 0, "is_reserved": 0, "lat": 38.805071, "name": "fbae8e6208697d220d82151fd9ffc3e0", "rental_uris": {"ios": "https://dc.lft.to/lastmile_qr_scan", "android": "https://dc.lft.to/lastmile_qr_scan"}, "type": "electric_bike", "fusion_lat": 0.0, "lon": -77.0480635}, {"fusion_lon": 0.0, "bike_id": "c0b34679d9fd8cd249f35d04580c0f21", "is_disabled": 0, "is_reserved": 0, "lat": 38.911907166666666, "name": "c0b34679d9fd8cd249f35d04580c0f21", "rental_uris": {"ios": "https://dc.lft.to/lastmile_qr_scan", "android": "https://dc.lft.to/lastmile_qr_scan"}, "type": "electric_scooter", "fusion_lat": 0.0, "lon": -77.00500733333334}, {"fusion_lon": 0.0, "bike_id": "e4dbcf1aaf70f446a96cabc7f6d16606", "is_disabled": 0, "is_reserved": 0, "lat": 38.889687333333335, "name": "e4dbcf1aaf70f446a96cabc7f6d16606", "rental_uris": {"ios": "https://dc.lft.to/lastmile_qr_scan", "android": "https://dc.lft.to/lastmile_qr_scan"}, "type": "electric_scooter", "fusion_lat": 0.0, "lon": -76.98038766666667}, {"fusion_lon": 0.0, "bike_id": "562c49371431cab4a6db9018fcfb8896", "is_disabled": 0, "is_reserved": 0, "lat": 38.9043095, "name": "562c49371431cab4a6db9018fcfb8896", "rental_uris": {"ios": "https://dc.lft.to/lastmile_qr_scan", "android": "https://dc.lft.to/lastmile_qr_scan"}, "type": "electric_scooter", "fusion_lat": 0.0, "lon": -77.028356}, {"fusion_lon": 0.0, "bike_id": "c10ae07322bd30768afcadfa4234ec2b", "is_disabled": 0, "is_reserved": 0, "lat": 38.89422183333333, "name": "c10ae07322bd30768afcadfa4234ec2b", "rental_uris": {"ios": "https://dc.lft.to/lastmile_qr_scan", "android": "https://dc.lft.to/lastmile_qr_scan"}, "type": "electric_bike", "fusion_lat": 0.0, "lon": -77.09445216666667}, {"fusion_lon": 0.0, "bike_id": "40a4899363704df4f4cb278d86dbd731", "is_disabled": 0, "is_reserved": 0, "lat": 38.927964833333334, "name": "40a4899363704df4f4cb278d86dbd731", "rental_uris": {"ios": "https://dc.lft.to/lastmile_qr_scan", "android": "https://dc.lft.to/lastmile_qr_scan"}, "type": "electric_scooter", "fusion_lat": 0.0, "lon": -77.026007}, {"fusion_lon": 0.0, "bike_id": "658199f83b31597df46a315118d83b0f", "is_disabled": 0, "is_reserved": 0, "lat": 38.924321666666664, "name": "658199f83b31597df46a315118d83b0f", "rental_uris": {"ios": "https://dc.lft.to/lastmile_qr_scan", "android": "https://dc.lft.to/lastmile_qr_scan"}, "type": "electric_scooter", "fusion_lat": 0.0, "lon": -77.042457}, {"fusion_lon": 0.0, "bike_id": "9a72f7cbaab91b0370484d4561957e8b", "is_disabled": 0, "is_reserved": 0, "lat": 38.88122633333333, "name": "9a72f7cbaab91b0370484d4561957e8b", "rental_uris": {"ios": "https://dc.lft.to/lastmile_qr_scan", "android": "https://dc.lft.to/lastmile_qr_scan"}, "type": "electric_scooter", "fusion_lat": 0.0, "lon": -77.016662}, {"fusion_lon": 0.0, "bike_id": "4e9323872dd48c0ad14b2ddc21f4f0c5", "is_disabled": 0, "is_reserved": 0, "lat": 38.93030433333333, "name": "4e9323872dd48c0ad14b2ddc21f4f0c5", "rental_uris": {"ios": "https://dc.lft.to/lastmile_qr_scan", "android": "https://dc.lft.to/lastmile_qr_scan"}, "type": "electric_scooter", "fusion_lat": 0.0, "lon": -77.0607405}, {"fusion_lon": 0.0, "bike_id": "90e37429b8c30d32a86c77390946ac3e", "is_disabled": 0, "is_reserved": 0, "lat": 38.8932915, "name": "90e37429b8c30d32a86c77390946ac3e", "rental_uris": {"ios": "https://dc.lft.to/lastmile_qr_scan", "android": "https://dc.lft.to/lastmile_qr_scan"}, "type": "electric_scooter", "fusion_lat": 0.0, "lon": -76.93931416666666}, {"fusion_lon": 0.0, "bike_id": "dcc8469caa013809ebb9973b4583e57b", "is_disabled": 0, "is_reserved": 0, "lat": 38.89621183333333, "name": "dcc8469caa013809ebb9973b4583e57b", "rental_uris": {"ios": "https://dc.lft.to/lastmile_qr_scan", "android": "https://dc.lft.to/lastmile_qr_scan"}, "type": "electric_scooter", "fusion_lat": 0.0, "lon": -77.02617916666667}, {"fusion_lon": 0.0, "bike_id": "6a7a1c0181a4aa2a701eaf072214b800", "is_disabled": 0, "is_reserved": 0, "lat": 38.87578333333333, "name": "6a7a1c0181a4aa2a701eaf072214b800", "rental_uris": {"ios": "https://dc.lft.to/lastmile_qr_scan", "android": "https://dc.lft.to/lastmile_qr_scan"}, "type": "electric_bike", "fusion_lat": 0.0, "lon": -77.23411866666666}, {"fusion_lon": 0.0, "bike_id": "ce13429221393153ebff2588e599f5a6", "is_disabled": 0, "is_reserved": 0, "lat": 38.9239015, "name": "ce13429221393153ebff2588e599f5a6", "rental_uris": {"ios": "https://dc.lft.to/lastmile_qr_scan", "android": "https://dc.lft.to/lastmile_qr_scan"}, "type": "electric_scooter", "fusion_lat": 0.0, "lon": -77.0430285}, {"fusion_lon": 0.0, "bike_id": "11d21c42728f664b7b2e8cb441f7f709", "is_disabled": 0, "is_reserved": 0, "lat": 38.90903183333333, "name": "11d21c42728f664b7b2e8cb441f7f709", "rental_uris": {"ios": "https://dc.lft.to/lastmile_qr_scan", "android": "https://dc.lft.to/lastmile_qr_scan"}, "type": "electric_bike", "fusion_lat": 0.0, "lon": -77.08997566666666}, {"fusion_lon": 0.0, "bike_id": "0e7b7b9ec26ce7081fee2152f9fe424b", "is_disabled": 0, "is_reserved": 0, "lat": 38.8887955, "name": "0e7b7b9ec26ce7081fee2152f9fe424b", "rental_uris": {"ios": "https://dc.lft.to/lastmile_qr_scan", "android": "https://dc.lft.to/lastmile_qr_scan"}, "type": "electric_scooter", "fusion_lat": 0.0, "lon": -77.0000545}, {"fusion_lon": 0.0, "bike_id": "88ac7509faf080f91a0e9b9a0076354b", "is_disabled": 0, "is_reserved": 0, "lat": 38.9475075, "name": "88ac7509faf080f91a0e9b9a0076354b", "rental_uris": {"ios": "https://dc.lft.to/lastmile_qr_scan", "android": "https://dc.lft.to/lastmile_qr_scan"}, "type": "electric_scooter", "fusion_lat": 0.0, "lon": -77.0328255}, {"fusion_lon": 0.0, "bike_id": "ac2ecfd2f778124ab2ecb6e6f1f172e4", "is_disabled": 0, "is_reserved": 0, "lat": 38.920093333333334, "name": "ac2ecfd2f778124ab2ecb6e6f1f172e4", "rental_uris": {"ios": "https://dc.lft.to/lastmile_qr_scan", "android": "https://dc.lft.to/lastmile_qr_scan"}, "type": "electric_scooter", "fusion_lat": 0.0, "lon": -77.071398}, {"fusion_lon": 0.0, "bike_id": "8c0a990d06ce6c41c60fb7785bb2d960", "is_disabled": 0, "is_reserved": 0, "lat": 38.9002045, "name": "8c0a990d06ce6c41c60fb7785bb2d960", "rental_uris": {"ios": "https://dc.lft.to/lastmile_qr_scan", "android": "https://dc.lft.to/lastmile_qr_scan"}, "type": "electric_scooter", "fusion_lat": 0.0, "lon": -77.045006}, {"fusion_lon": 0.0, "bike_id": "e7862f742e8bfce7988d624b04ffd27b", "is_disabled": 0, "is_reserved": 0, "lat": 38.961257833333335, "name": "e7862f742e8bfce7988d624b04ffd27b", "rental_uris": {"ios": "https://dc.lft.to/lastmile_qr_scan", "android": "https://dc.lft.to/lastmile_qr_scan"}, "type": "electric_bike", "fusion_lat": 0.0, "lon": -77.03273883333334}, {"fusion_lon": 0.0, "bike_id": "fb321cccae411842a555db0e4b731098", "is_disabled": 0, "is_reserved": 0, "lat": 38.924164, "name": "fb321cccae411842a555db0e4b731098", "rental_uris": {"ios": "https://dc.lft.to/lastmile_qr_scan", "android": "https://dc.lft.to/lastmile_qr_scan"}, "type": "electric_scooter", "fusion_lat": 0.0, "lon": -77.03545}, {"fusion_lon": 0.0, "bike_id": "55721388ccf2154c7286189eb96f337e", "is_disabled": 0, "is_reserved": 0, "lat": 38.955858166666665, "name": "55721388ccf2154c7286189eb96f337e", "rental_uris": {"ios": "https://dc.lft.to/lastmile_qr_scan", "android": "https://dc.lft.to/lastmile_qr_scan"}, "type": "electric_scooter", "fusion_lat": 0.0, "lon": -77.01781816666667}, {"fusion_lon": 0.0, "bike_id": "ca8f6473a3bd1c47eb33b8c19366767f", "is_disabled": 0, "is_reserved": 0, "lat": 38.9028845, "name": "ca8f6473a3bd1c47eb33b8c19366767f", "rental_uris": {"ios": "https://dc.lft.to/lastmile_qr_scan", "android": "https://dc.lft.to/lastmile_qr_scan"}, "type": "electric_scooter", "fusion_lat": 0.0, "lon": -77.03263383333334}, {"fusion_lon": 0.0, "bike_id": "5882d81cf6801a0c071c1f924d4d6c5c", "is_disabled": 0, "is_reserved": 0, "lat": 38.9012355, "name": "5882d81cf6801a0c071c1f924d4d6c5c", "rental_uris": {"ios": "https://dc.lft.to/lastmile_qr_scan", "android": "https://dc.lft.to/lastmile_qr_scan"}, "type": "electric_scooter", "fusion_lat": 0.0, "lon": -76.9985035}, {"fusion_lon": 0.0, "bike_id": "cfd3224611b4d91d57f44d0bfd43e73c", "is_disabled": 0, "is_reserved": 0, "lat": 38.91693316666667, "name": "cfd3224611b4d91d57f44d0bfd43e73c", "rental_uris": {"ios": "https://dc.lft.to/lastmile_qr_scan", "android": "https://dc.lft.to/lastmile_qr_scan"}, "type": "electric_scooter", "fusion_lat": 0.0, "lon": -77.03772016666667}, {"fusion_lon": 0.0, "bike_id": "09dc762bd53e4b61d4978bd67b147836", "is_disabled": 0, "is_reserved": 0, "lat": 38.90437266666667, "name": "09dc762bd53e4b61d4978bd67b147836", "rental_uris": {"ios": "https://dc.lft.to/lastmile_qr_scan", "android": "https://dc.lft.to/lastmile_qr_scan"}, "type": "electric_scooter", "fusion_lat": 0.0, "lon": -77.034128}, {"fusion_lon": 0.0, "bike_id": "870aa5aeabb43f2b68f9b8d0a3b161e4", "is_disabled": 0, "is_reserved": 0, "lat": 38.917745833333335, "name": "870aa5aeabb43f2b68f9b8d0a3b161e4", "rental_uris": {"ios": "https://dc.lft.to/lastmile_qr_scan", "android": "https://dc.lft.to/lastmile_qr_scan"}, "type": "electric_scooter", "fusion_lat": 0.0, "lon": -77.02318666666666}, {"fusion_lon": 0.0, "bike_id": "cabd5f05059b25a939c1daf90af9d528", "is_disabled": 0, "is_reserved": 0, "lat": 38.931513833333334, "name": "cabd5f05059b25a939c1daf90af9d528", "rental_uris": {"ios": "https://dc.lft.to/lastmile_qr_scan", "android": "https://dc.lft.to/lastmile_qr_scan"}, "type": "electric_scooter", "fusion_lat": 0.0, "lon": -77.0216055}, {"fusion_lon": 0.0, "bike_id": "3f5c6c403ed109e1e93bfa7b08f4b657", "is_disabled": 0, "is_reserved": 0, "lat": 38.909767333333335, "name": "3f5c6c403ed109e1e93bfa7b08f4b657", "rental_uris": {"ios": "https://dc.lft.to/lastmile_qr_scan", "android": "https://dc.lft.to/lastmile_qr_scan"}, "type": "electric_scooter", "fusion_lat": 0.0, "lon": -77.04873683333334}, {"fusion_lon": 0.0, "bike_id": "5a81afcdea1140d09928fbdaa2e0fda1", "is_disabled": 0, "is_reserved": 0, "lat": 38.914107333333334, "name": "5a81afcdea1140d09928fbdaa2e0fda1", "rental_uris": {"ios": "https://dc.lft.to/lastmile_qr_scan", "android": "https://dc.lft.to/lastmile_qr_scan"}, "type": "electric_scooter", "fusion_lat": 0.0, "lon": -77.00989583333333}, {"fusion_lon": 0.0, "bike_id": "725ccbd3b9d61aeddb128d7db8a0757d", "is_disabled": 0, "is_reserved": 0, "lat": 38.88619083333333, "name": "725ccbd3b9d61aeddb128d7db8a0757d", "rental_uris": {"ios": "https://dc.lft.to/lastmile_qr_scan", "android": "https://dc.lft.to/lastmile_qr_scan"}, "type": "electric_scooter", "fusion_lat": 0.0, "lon": -76.92633616666667}, {"fusion_lon": 0.0, "bike_id": "d00904a3caac56ffa90d9e3f189e056b", "is_disabled": 0, "is_reserved": 0, "lat": 38.87910983333333, "name": "d00904a3caac56ffa90d9e3f189e056b", "rental_uris": {"ios": "https://dc.lft.to/lastmile_qr_scan", "android": "https://dc.lft.to/lastmile_qr_scan"}, "type": "electric_scooter", "fusion_lat": 0.0, "lon": -77.02149583333333}, {"fusion_lon": 0.0, "bike_id": "80c4de250e12219daeaeee1c57c6cd60", "is_disabled": 0, "is_reserved": 0, "lat": 38.93256233333334, "name": "80c4de250e12219daeaeee1c57c6cd60", "rental_uris": {"ios": "https://dc.lft.to/lastmile_qr_scan", "android": "https://dc.lft.to/lastmile_qr_scan"}, "type": "electric_scooter", "fusion_lat": 0.0, "lon": -77.03862766666667}, {"fusion_lon": 0.0, "bike_id": "e78e670392939e9bfcc7a855a2d05b96", "is_disabled": 0, "is_reserved": 0, "lat": 38.915397, "name": "e78e670392939e9bfcc7a855a2d05b96", "rental_uris": {"ios": "https://dc.lft.to/lastmile_qr_scan", "android": "https://dc.lft.to/lastmile_qr_scan"}, "type": "electric_scooter", "fusion_lat": 0.0, "lon": -77.04453266666667}, {"fusion_lon": 0.0, "bike_id": "a09f0ea492d098daee870b3876a8d5b8", "is_disabled": 0, "is_reserved": 0, "lat": 38.933532166666666, "name": "a09f0ea492d098daee870b3876a8d5b8", "rental_uris": {"ios": "https://dc.lft.to/lastmile_qr_scan", "android": "https://dc.lft.to/lastmile_qr_scan"}, "type": "electric_scooter", "fusion_lat": 0.0, "lon": -77.027479}, {"fusion_lon": 0.0, "bike_id": "a60c8edc8c5021017821c116280a7f65", "is_disabled": 0, "is_reserved": 0, "lat": 39.02647866666667, "name": "a60c8edc8c5021017821c116280a7f65", "rental_uris": {"ios": "https://dc.lft.to/lastmile_qr_scan", "android": "https://dc.lft.to/lastmile_qr_scan"}, "type": "electric_bike", "fusion_lat": 0.0, "lon": -77.036853}, {"fusion_lon": 0.0, "bike_id": "738a7f0c755ec7f51ab572f7f2513af6", "is_disabled": 0, "is_reserved": 0, "lat": 38.895081166666664, "name": "738a7f0c755ec7f51ab572f7f2513af6", "rental_uris": {"ios": "https://dc.lft.to/lastmile_qr_scan", "android": "https://dc.lft.to/lastmile_qr_scan"}, "type": "electric_scooter", "fusion_lat": 0.0, "lon": -76.94891383333334}, {"fusion_lon": 0.0, "bike_id": "9cf45fcc6f352c4d3081108040626205", "is_disabled": 0, "is_reserved": 0, "lat": 38.927068166666665, "name": "9cf45fcc6f352c4d3081108040626205", "rental_uris": {"ios": "https://dc.lft.to/lastmile_qr_scan", "android": "https://dc.lft.to/lastmile_qr_scan"}, "type": "electric_scooter", "fusion_lat": 0.0, "lon": -77.06005233333333}, {"fusion_lon": 0.0, "bike_id": "3d6e61cd91f960e5567edf934587b00d", "is_disabled": 0, "is_reserved": 0, "lat": 38.94201733333333, "name": "3d6e61cd91f960e5567edf934587b00d", "rental_uris": {"ios": "https://dc.lft.to/lastmile_qr_scan", "android": "https://dc.lft.to/lastmile_qr_scan"}, "type": "electric_scooter", "fusion_lat": 0.0, "lon": -77.01334583333333}, {"fusion_lon": 0.0, "bike_id": "6c7ab26c28400791950ee4b5a9ab4f80", "is_disabled": 0, "is_reserved": 0, "lat": 38.9195525, "name": "6c7ab26c28400791950ee4b5a9ab4f80", "rental_uris": {"ios": "https://dc.lft.to/lastmile_qr_scan", "android": "https://dc.lft.to/lastmile_qr_scan"}, "type": "electric_scooter", "fusion_lat": 0.0, "lon": -77.07870766666667}, {"fusion_lon": 0.0, "bike_id": "cf236d047d141c18ce08febe701512b5", "is_disabled": 0, "is_reserved": 0, "lat": 38.878553833333335, "name": "cf236d047d141c18ce08febe701512b5", "rental_uris": {"ios": "https://dc.lft.to/lastmile_qr_scan", "android": "https://dc.lft.to/lastmile_qr_scan"}, "type": "electric_scooter", "fusion_lat": 0.0, "lon": -77.00709383333333}, {"fusion_lon": 0.0, "bike_id": "7ea8a49495313be6cf9b446c0feab3be", "is_disabled": 0, "is_reserved": 0, "lat": 38.927372, "name": "7ea8a49495313be6cf9b446c0feab3be", "rental_uris": {"ios": "https://dc.lft.to/lastmile_qr_scan", "android": "https://dc.lft.to/lastmile_qr_scan"}, "type": "electric_scooter", "fusion_lat": 0.0, "lon": -77.03559033333333}, {"fusion_lon": 0.0, "bike_id": "12c1838c210566042f406bcd7395daca", "is_disabled": 0, "is_reserved": 0, "lat": 38.918267, "name": "12c1838c210566042f406bcd7395daca", "rental_uris": {"ios": "https://dc.lft.to/lastmile_qr_scan", "android": "https://dc.lft.to/lastmile_qr_scan"}, "type": "electric_scooter", "fusion_lat": 0.0, "lon": -77.04523516666667}, {"fusion_lon": 0.0, "bike_id": "133ad81404caa333e9e8d0218a399da4", "is_disabled": 0, "is_reserved": 0, "lat": 38.921033333333334, "name": "133ad81404caa333e9e8d0218a399da4", "rental_uris": {"ios": "https://dc.lft.to/lastmile_qr_scan", "android": "https://dc.lft.to/lastmile_qr_scan"}, "type": "electric_scooter", "fusion_lat": 0.0, "lon": -77.04704016666666}, {"fusion_lon": 0.0, "bike_id": "251f84bb94ea4946415af9a9a29439b8", "is_disabled": 0, "is_reserved": 0, "lat": 38.897428166666664, "name": "251f84bb94ea4946415af9a9a29439b8", "rental_uris": {"ios": "https://dc.lft.to/lastmile_qr_scan", "android": "https://dc.lft.to/lastmile_qr_scan"}, "type": "electric_scooter", "fusion_lat": 0.0, "lon": -77.04865766666667}, {"fusion_lon": 0.0, "bike_id": "edad273a42c6fe838e657073e0ad468c", "is_disabled": 0, "is_reserved": 0, "lat": 38.934874, "name": "edad273a42c6fe838e657073e0ad468c", "rental_uris": {"ios": "https://dc.lft.to/lastmile_qr_scan", "android": "https://dc.lft.to/lastmile_qr_scan"}, "type": "electric_scooter", "fusion_lat": 0.0, "lon": -77.03268433333334}, {"fusion_lon": 0.0, "bike_id": "0eaf1b57342d87ad515e29f86c9efb7a", "is_disabled": 0, "is_reserved": 0, "lat": 38.92369133333333, "name": "0eaf1b57342d87ad515e29f86c9efb7a", "rental_uris": {"ios": "https://dc.lft.to/lastmile_qr_scan", "android": "https://dc.lft.to/lastmile_qr_scan"}, "type": "electric_scooter", "fusion_lat": 0.0, "lon": -77.01955033333333}, {"fusion_lon": 0.0, "bike_id": "97b8626e9d3ccb58d112da743a81b734", "is_disabled": 0, "is_reserved": 0, "lat": 38.905577, "name": "97b8626e9d3ccb58d112da743a81b734", "rental_uris": {"ios": "https://dc.lft.to/lastmile_qr_scan", "android": "https://dc.lft.to/lastmile_qr_scan"}, "type": "electric_scooter", "fusion_lat": 0.0, "lon": -77.0500315}, {"fusion_lon": 0.0, "bike_id": "4cb73bf90a9e57b24ee1ea9dba968dc5", "is_disabled": 0, "is_reserved": 0, "lat": 38.910681, "name": "4cb73bf90a9e57b24ee1ea9dba968dc5", "rental_uris": {"ios": "https://dc.lft.to/lastmile_qr_scan", "android": "https://dc.lft.to/lastmile_qr_scan"}, "type": "electric_scooter", "fusion_lat": 0.0, "lon": -77.01611266666667}, {"fusion_lon": 0.0, "bike_id": "8b1c20ba4f9c118dee27b0394fd77664", "is_disabled": 0, "is_reserved": 0, "lat": 38.90510183333333, "name": "8b1c20ba4f9c118dee27b0394fd77664", "rental_uris": {"ios": "https://dc.lft.to/lastmile_qr_scan", "android": "https://dc.lft.to/lastmile_qr_scan"}, "type": "electric_scooter", "fusion_lat": 0.0, "lon": -76.98482466666667}, {"fusion_lon": 0.0, "bike_id": "f42c30fa3803a4ed88746023ccd7e8af", "is_disabled": 0, "is_reserved": 0, "lat": 38.91027616666667, "name": "f42c30fa3803a4ed88746023ccd7e8af", "rental_uris": {"ios": "https://dc.lft.to/lastmile_qr_scan", "android": "https://dc.lft.to/lastmile_qr_scan"}, "type": "electric_scooter", "fusion_lat": 0.0, "lon": -77.0294225}, {"fusion_lon": 0.0, "bike_id": "619e23fea9154169b5fc890e69fd7739", "is_disabled": 0, "is_reserved": 0, "lat": 38.84612216666667, "name": "619e23fea9154169b5fc890e69fd7739", "rental_uris": {"ios": "https://dc.lft.to/lastmile_qr_scan", "android": "https://dc.lft.to/lastmile_qr_scan"}, "type": "electric_bike", "fusion_lat": 0.0, "lon": -76.97821683333333}, {"fusion_lon": 0.0, "bike_id": "4d284871d4e6d160e4f05b5fe8e9e957", "is_disabled": 0, "is_reserved": 0, "lat": 38.881120833333334, "name": "4d284871d4e6d160e4f05b5fe8e9e957", "rental_uris": {"ios": "https://dc.lft.to/lastmile_qr_scan", "android": "https://dc.lft.to/lastmile_qr_scan"}, "type": "electric_scooter", "fusion_lat": 0.0, "lon": -77.01664916666667}, {"fusion_lon": 0.0, "bike_id": "974d50074ba9cebffc9f00927d056d38", "is_disabled": 0, "is_reserved": 0, "lat": 38.916915, "name": "974d50074ba9cebffc9f00927d056d38", "rental_uris": {"ios": "https://dc.lft.to/lastmile_qr_scan", "android": "https://dc.lft.to/lastmile_qr_scan"}, "type": "electric_scooter", "fusion_lat": 0.0, "lon": -77.02722183333333}, {"fusion_lon": 0.0, "bike_id": "a0552b66090fc947f2bb639f3a1c8f3e", "is_disabled": 0, "is_reserved": 0, "lat": 38.90906183333333, "name": "a0552b66090fc947f2bb639f3a1c8f3e", "rental_uris": {"ios": "https://dc.lft.to/lastmile_qr_scan", "android": "https://dc.lft.to/lastmile_qr_scan"}, "type": "electric_scooter", "fusion_lat": 0.0, "lon": -76.9977315}, {"fusion_lon": 0.0, "bike_id": "facfde9b9095b39bce6bec203b2d09d9", "is_disabled": 0, "is_reserved": 0, "lat": 38.90684066666667, "name": "facfde9b9095b39bce6bec203b2d09d9", "rental_uris": {"ios": "https://dc.lft.to/lastmile_qr_scan", "android": "https://dc.lft.to/lastmile_qr_scan"}, "type": "electric_scooter", "fusion_lat": 0.0, "lon": -77.07192866666666}, {"fusion_lon": 0.0, "bike_id": "9f6ef76e0fc9ff955965b6c71d06ce47", "is_disabled": 0, "is_reserved": 0, "lat": 38.914059333333334, "name": "9f6ef76e0fc9ff955965b6c71d06ce47", "rental_uris": {"ios": "https://dc.lft.to/lastmile_qr_scan", "android": "https://dc.lft.to/lastmile_qr_scan"}, "type": "electric_scooter", "fusion_lat": 0.0, "lon": -77.01072066666667}, {"fusion_lon": 0.0, "bike_id": "a8b8c57dc2f0c71c9e26c7204b22d460", "is_disabled": 0, "is_reserved": 0, "lat": 38.906847166666665, "name": "a8b8c57dc2f0c71c9e26c7204b22d460", "rental_uris": {"ios": "https://dc.lft.to/lastmile_qr_scan", "android": "https://dc.lft.to/lastmile_qr_scan"}, "type": "electric_scooter", "fusion_lat": 0.0, "lon": -77.06265433333333}, {"fusion_lon": 0.0, "bike_id": "7b174919cb254c9bc3b677737e1b416d", "is_disabled": 0, "is_reserved": 0, "lat": 38.89220516666666, "name": "7b174919cb254c9bc3b677737e1b416d", "rental_uris": {"ios": "https://dc.lft.to/lastmile_qr_scan", "android": "https://dc.lft.to/lastmile_qr_scan"}, "type": "electric_scooter", "fusion_lat": 0.0, "lon": -77.0487385}, {"fusion_lon": 0.0, "bike_id": "2333ed9c58d34121fc9ff39dbe2e1fff", "is_disabled": 0, "is_reserved": 0, "lat": 38.92006533333333, "name": "2333ed9c58d34121fc9ff39dbe2e1fff", "rental_uris": {"ios": "https://dc.lft.to/lastmile_qr_scan", "android": "https://dc.lft.to/lastmile_qr_scan"}, "type": "electric_scooter", "fusion_lat": 0.0, "lon": -77.02389616666666}, {"fusion_lon": 0.0, "bike_id": "e02330950c16a4ea342c75a13b312569", "is_disabled": 0, "is_reserved": 0, "lat": 38.901681333333336, "name": "e02330950c16a4ea342c75a13b312569", "rental_uris": {"ios": "https://dc.lft.to/lastmile_qr_scan", "android": "https://dc.lft.to/lastmile_qr_scan"}, "type": "electric_scooter", "fusion_lat": 0.0, "lon": -77.0343395}, {"fusion_lon": 0.0, "bike_id": "6f1fde9276d2bdc05a34513b5ee6fa3d", "is_disabled": 0, "is_reserved": 0, "lat": 38.9208225, "name": "6f1fde9276d2bdc05a34513b5ee6fa3d", "rental_uris": {"ios": "https://dc.lft.to/lastmile_qr_scan", "android": "https://dc.lft.to/lastmile_qr_scan"}, "type": "electric_scooter", "fusion_lat": 0.0, "lon": -77.02398983333333}, {"fusion_lon": 0.0, "bike_id": "d3da0dce8a5f46abb34bba9c2605515c", "is_disabled": 0, "is_reserved": 0, "lat": 38.91301983333334, "name": "d3da0dce8a5f46abb34bba9c2605515c", "rental_uris": {"ios": "https://dc.lft.to/lastmile_qr_scan", "android": "https://dc.lft.to/lastmile_qr_scan"}, "type": "electric_scooter", "fusion_lat": 0.0, "lon": -76.98692766666667}, {"fusion_lon": 0.0, "bike_id": "931384ef186fd2f35d1dcc0c03b4c447", "is_disabled": 0, "is_reserved": 0, "lat": 38.93251866666667, "name": "931384ef186fd2f35d1dcc0c03b4c447", "rental_uris": {"ios": "https://dc.lft.to/lastmile_qr_scan", "android": "https://dc.lft.to/lastmile_qr_scan"}, "type": "electric_scooter", "fusion_lat": 0.0, "lon": -77.0327965}, {"fusion_lon": 0.0, "bike_id": "1380ab95ec7a934e06308a5356a36507", "is_disabled": 0, "is_reserved": 0, "lat": 38.9006955, "name": "1380ab95ec7a934e06308a5356a36507", "rental_uris": {"ios": "https://dc.lft.to/lastmile_qr_scan", "android": "https://dc.lft.to/lastmile_qr_scan"}, "type": "electric_scooter", "fusion_lat": 0.0, "lon": -77.04544383333334}, {"fusion_lon": 0.0, "bike_id": "5baf30708ce59dbaa5d2c20b2af59ccb", "is_disabled": 0, "is_reserved": 0, "lat": 38.907774333333336, "name": "5baf30708ce59dbaa5d2c20b2af59ccb", "rental_uris": {"ios": "https://dc.lft.to/lastmile_qr_scan", "android": "https://dc.lft.to/lastmile_qr_scan"}, "type": "electric_bike", "fusion_lat": 0.0, "lon": -77.08162466666667}, {"fusion_lon": 0.0, "bike_id": "fdc5db24f909d2983f8accd22d2ec0aa", "is_disabled": 0, "is_reserved": 0, "lat": 38.912527, "name": "fdc5db24f909d2983f8accd22d2ec0aa", "rental_uris": {"ios": "https://dc.lft.to/lastmile_qr_scan", "android": "https://dc.lft.to/lastmile_qr_scan"}, "type": "electric_scooter", "fusion_lat": 0.0, "lon": -77.04437533333333}, {"fusion_lon": 0.0, "bike_id": "6dbf9a07295c31541f16b3440d31c904", "is_disabled": 0, "is_reserved": 0, "lat": 38.908505, "name": "6dbf9a07295c31541f16b3440d31c904", "rental_uris": {"ios": "https://dc.lft.to/lastmile_qr_scan", "android": "https://dc.lft.to/lastmile_qr_scan"}, "type": "electric_scooter", "fusion_lat": 0.0, "lon": -77.06379466666667}, {"fusion_lon": 0.0, "bike_id": "fca8205f9f945909ad436f2f4a2eb987", "is_disabled": 0, "is_reserved": 0, "lat": 38.939242166666666, "name": "fca8205f9f945909ad436f2f4a2eb987", "rental_uris": {"ios": "https://dc.lft.to/lastmile_qr_scan", "android": "https://dc.lft.to/lastmile_qr_scan"}, "type": "electric_scooter", "fusion_lat": 0.0, "lon": -77.06053466666667}, {"fusion_lon": 0.0, "bike_id": "a444d00229d2d439a3036d0dfb2b1a03", "is_disabled": 0, "is_reserved": 0, "lat": 38.93060883333333, "name": "a444d00229d2d439a3036d0dfb2b1a03", "rental_uris": {"ios": "https://dc.lft.to/lastmile_qr_scan", "android": "https://dc.lft.to/lastmile_qr_scan"}, "type": "electric_scooter", "fusion_lat": 0.0, "lon": -77.0232445}, {"fusion_lon": 0.0, "bike_id": "b1d8b5504c10d799ee43aa9fe34f081e", "is_disabled": 0, "is_reserved": 0, "lat": 38.91840916666666, "name": "b1d8b5504c10d799ee43aa9fe34f081e", "rental_uris": {"ios": "https://dc.lft.to/lastmile_qr_scan", "android": "https://dc.lft.to/lastmile_qr_scan"}, "type": "electric_scooter", "fusion_lat": 0.0, "lon": -77.03185216666667}, {"fusion_lon": 0.0, "bike_id": "d312321642fb134472d94819c7d35baf", "is_disabled": 0, "is_reserved": 0, "lat": 38.90970383333333, "name": "d312321642fb134472d94819c7d35baf", "rental_uris": {"ios": "https://dc.lft.to/lastmile_qr_scan", "android": "https://dc.lft.to/lastmile_qr_scan"}, "type": "electric_scooter", "fusion_lat": 0.0, "lon": -77.00891583333333}, {"fusion_lon": 0.0, "bike_id": "c4becae7923315844f0d661a917b473d", "is_disabled": 0, "is_reserved": 0, "lat": 38.898445, "name": "c4becae7923315844f0d661a917b473d", "rental_uris": {"ios": "https://dc.lft.to/lastmile_qr_scan", "android": "https://dc.lft.to/lastmile_qr_scan"}, "type": "electric_scooter", "fusion_lat": 0.0, "lon": -77.04808866666667}, {"fusion_lon": 0.0, "bike_id": "bee35f83cafb1f402be36867a267a01f", "is_disabled": 0, "is_reserved": 0, "lat": 38.87630166666667, "name": "bee35f83cafb1f402be36867a267a01f", "rental_uris": {"ios": "https://dc.lft.to/lastmile_qr_scan", "android": "https://dc.lft.to/lastmile_qr_scan"}, "type": "electric_bike", "fusion_lat": 0.0, "lon": -77.00365016666667}, {"fusion_lon": 0.0, "bike_id": "7a7148dc8aa517a4d591d19c82c85650", "is_disabled": 0, "is_reserved": 0, "lat": 38.898389333333334, "name": "7a7148dc8aa517a4d591d19c82c85650", "rental_uris": {"ios": "https://dc.lft.to/lastmile_qr_scan", "android": "https://dc.lft.to/lastmile_qr_scan"}, "type": "electric_scooter", "fusion_lat": 0.0, "lon": -77.04813916666667}, {"fusion_lon": 0.0, "bike_id": "c890312b1dcd385dd21eddf5ab5d2ee9", "is_disabled": 0, "is_reserved": 0, "lat": 38.84457666666667, "name": "c890312b1dcd385dd21eddf5ab5d2ee9", "rental_uris": {"ios": "https://dc.lft.to/lastmile_qr_scan", "android": "https://dc.lft.to/lastmile_qr_scan"}, "type": "electric_bike", "fusion_lat": 0.0, "lon": -77.0682465}, {"fusion_lon": 0.0, "bike_id": "0a8d5bd05edce85a7cb6b6c007cd9837", "is_disabled": 0, "is_reserved": 0, "lat": 38.896230833333334, "name": "0a8d5bd05edce85a7cb6b6c007cd9837", "rental_uris": {"ios": "https://dc.lft.to/lastmile_qr_scan", "android": "https://dc.lft.to/lastmile_qr_scan"}, "type": "electric_scooter", "fusion_lat": 0.0, "lon": -77.00336483333334}, {"fusion_lon": 0.0, "bike_id": "e43edd095cf2c82f2fe8b4ff9cf401aa", "is_disabled": 0, "is_reserved": 0, "lat": 38.903550333333335, "name": "e43edd095cf2c82f2fe8b4ff9cf401aa", "rental_uris": {"ios": "https://dc.lft.to/lastmile_qr_scan", "android": "https://dc.lft.to/lastmile_qr_scan"}, "type": "electric_scooter", "fusion_lat": 0.0, "lon": -77.01110266666667}, {"fusion_lon": 0.0, "bike_id": "4a302e95604b3c23e254211eb9e11d0d", "is_disabled": 0, "is_reserved": 0, "lat": 38.9112695, "name": "4a302e95604b3c23e254211eb9e11d0d", "rental_uris": {"ios": "https://dc.lft.to/lastmile_qr_scan", "android": "https://dc.lft.to/lastmile_qr_scan"}, "type": "electric_scooter", "fusion_lat": 0.0, "lon": -77.0219605}, {"fusion_lon": 0.0, "bike_id": "87913d4406c50060b5e0bd4d430b78a9", "is_disabled": 0, "is_reserved": 0, "lat": 38.921532166666665, "name": "87913d4406c50060b5e0bd4d430b78a9", "rental_uris": {"ios": "https://dc.lft.to/lastmile_qr_scan", "android": "https://dc.lft.to/lastmile_qr_scan"}, "type": "electric_scooter", "fusion_lat": 0.0, "lon": -77.01796016666667}, {"fusion_lon": 0.0, "bike_id": "29bedf2c246e0c3008d732e1717088b9", "is_disabled": 0, "is_reserved": 0, "lat": 38.9256815, "name": "29bedf2c246e0c3008d732e1717088b9", "rental_uris": {"ios": "https://dc.lft.to/lastmile_qr_scan", "android": "https://dc.lft.to/lastmile_qr_scan"}, "type": "electric_scooter", "fusion_lat": 0.0, "lon": -77.03776066666667}, {"fusion_lon": 0.0, "bike_id": "67521d06fdd7f292069aefe8e5aad0b7", "is_disabled": 0, "is_reserved": 0, "lat": 38.917112833333334, "name": "67521d06fdd7f292069aefe8e5aad0b7", "rental_uris": {"ios": "https://dc.lft.to/lastmile_qr_scan", "android": "https://dc.lft.to/lastmile_qr_scan"}, "type": "electric_scooter", "fusion_lat": 0.0, "lon": -77.0324765}, {"fusion_lon": 0.0, "bike_id": "844d702f26d402148afb30de16818865", "is_disabled": 0, "is_reserved": 0, "lat": 38.895765, "name": "844d702f26d402148afb30de16818865", "rental_uris": {"ios": "https://dc.lft.to/lastmile_qr_scan", "android": "https://dc.lft.to/lastmile_qr_scan"}, "type": "electric_scooter", "fusion_lat": 0.0, "lon": -77.0416225}, {"fusion_lon": 0.0, "bike_id": "6176fffd2543acb3500c8c5c253499b6", "is_disabled": 0, "is_reserved": 0, "lat": 38.914303833333335, "name": "6176fffd2543acb3500c8c5c253499b6", "rental_uris": {"ios": "https://dc.lft.to/lastmile_qr_scan", "android": "https://dc.lft.to/lastmile_qr_scan"}, "type": "electric_scooter", "fusion_lat": 0.0, "lon": -77.01803583333333}, {"fusion_lon": 0.0, "bike_id": "e0d729e3b3b9bfca6c59be67da8be899", "is_disabled": 0, "is_reserved": 0, "lat": 38.88963233333333, "name": "e0d729e3b3b9bfca6c59be67da8be899", "rental_uris": {"ios": "https://dc.lft.to/lastmile_qr_scan", "android": "https://dc.lft.to/lastmile_qr_scan"}, "type": "electric_scooter", "fusion_lat": 0.0, "lon": -76.9273905}, {"fusion_lon": 0.0, "bike_id": "834fba09b9092258570947c6d471df0e", "is_disabled": 0, "is_reserved": 0, "lat": 38.8303205, "name": "834fba09b9092258570947c6d471df0e", "rental_uris": {"ios": "https://dc.lft.to/lastmile_qr_scan", "android": "https://dc.lft.to/lastmile_qr_scan"}, "type": "electric_bike", "fusion_lat": 0.0, "lon": -77.008337}, {"fusion_lon": 0.0, "bike_id": "4258f96d630b88055674f988ef83e7d1", "is_disabled": 0, "is_reserved": 0, "lat": 38.91415966666667, "name": "4258f96d630b88055674f988ef83e7d1", "rental_uris": {"ios": "https://dc.lft.to/lastmile_qr_scan", "android": "https://dc.lft.to/lastmile_qr_scan"}, "type": "electric_scooter", "fusion_lat": 0.0, "lon": -77.02214533333333}, {"fusion_lon": 0.0, "bike_id": "9328c03861128f022885037fd1dd620d", "is_disabled": 0, "is_reserved": 0, "lat": 38.9337935, "name": "9328c03861128f022885037fd1dd620d", "rental_uris": {"ios": "https://dc.lft.to/lastmile_qr_scan", "android": "https://dc.lft.to/lastmile_qr_scan"}, "type": "electric_scooter", "fusion_lat": 0.0, "lon": -77.02745333333333}, {"fusion_lon": 0.0, "bike_id": "ceeb6187bfd6967693959727a77f4983", "is_disabled": 0, "is_reserved": 0, "lat": 38.899739833333335, "name": "ceeb6187bfd6967693959727a77f4983", "rental_uris": {"ios": "https://dc.lft.to/lastmile_qr_scan", "android": "https://dc.lft.to/lastmile_qr_scan"}, "type": "electric_scooter", "fusion_lat": 0.0, "lon": -77.0472105}, {"fusion_lon": 0.0, "bike_id": "449ea5e210b9c38e8fe9d8ec315bdf46", "is_disabled": 0, "is_reserved": 0, "lat": 38.8904905, "name": "449ea5e210b9c38e8fe9d8ec315bdf46", "rental_uris": {"ios": "https://dc.lft.to/lastmile_qr_scan", "android": "https://dc.lft.to/lastmile_qr_scan"}, "type": "electric_scooter", "fusion_lat": 0.0, "lon": -76.93751133333333}, {"fusion_lon": 0.0, "bike_id": "4f943cbdb03780e3f7fd0396841a893e", "is_disabled": 0, "is_reserved": 0, "lat": 38.9531135, "name": "4f943cbdb03780e3f7fd0396841a893e", "rental_uris": {"ios": "https://dc.lft.to/lastmile_qr_scan", "android": "https://dc.lft.to/lastmile_qr_scan"}, "type": "electric_bike", "fusion_lat": 0.0, "lon": -77.01917816666666}, {"fusion_lon": 0.0, "bike_id": "a0a09c8223431ca3b643df30c16fdd75", "is_disabled": 0, "is_reserved": 0, "lat": 38.90037066666667, "name": "a0a09c8223431ca3b643df30c16fdd75", "rental_uris": {"ios": "https://dc.lft.to/lastmile_qr_scan", "android": "https://dc.lft.to/lastmile_qr_scan"}, "type": "electric_scooter", "fusion_lat": 0.0, "lon": -77.00198533333334}, {"fusion_lon": 0.0, "bike_id": "53adfb7bb5b6b6e69a7055afab856e5d", "is_disabled": 0, "is_reserved": 0, "lat": 38.919830166666664, "name": "53adfb7bb5b6b6e69a7055afab856e5d", "rental_uris": {"ios": "https://dc.lft.to/lastmile_qr_scan", "android": "https://dc.lft.to/lastmile_qr_scan"}, "type": "electric_scooter", "fusion_lat": 0.0, "lon": -77.04103033333334}, {"fusion_lon": 0.0, "bike_id": "40ccd9dfd89a7e18df45064be4d50a2f", "is_disabled": 0, "is_reserved": 0, "lat": 38.9129235, "name": "40ccd9dfd89a7e18df45064be4d50a2f", "rental_uris": {"ios": "https://dc.lft.to/lastmile_qr_scan", "android": "https://dc.lft.to/lastmile_qr_scan"}, "type": "electric_scooter", "fusion_lat": 0.0, "lon": -77.036401}, {"fusion_lon": 0.0, "bike_id": "8c72c896b0104e94d20d6a7ac1c7149b", "is_disabled": 0, "is_reserved": 0, "lat": 38.957341, "name": "8c72c896b0104e94d20d6a7ac1c7149b", "rental_uris": {"ios": "https://dc.lft.to/lastmile_qr_scan", "android": "https://dc.lft.to/lastmile_qr_scan"}, "type": "electric_scooter", "fusion_lat": 0.0, "lon": -77.024167}, {"fusion_lon": 0.0, "bike_id": "a098993fdd8c160aa22020e31fcedebf", "is_disabled": 0, "is_reserved": 0, "lat": 38.89093666666667, "name": "a098993fdd8c160aa22020e31fcedebf", "rental_uris": {"ios": "https://dc.lft.to/lastmile_qr_scan", "android": "https://dc.lft.to/lastmile_qr_scan"}, "type": "electric_scooter", "fusion_lat": 0.0, "lon": -76.98824666666667}, {"fusion_lon": 0.0, "bike_id": "fb79cc9f8777e6fb2ca20cc2ceff57a7", "is_disabled": 0, "is_reserved": 0, "lat": 38.876312666666664, "name": "fb79cc9f8777e6fb2ca20cc2ceff57a7", "rental_uris": {"ios": "https://dc.lft.to/lastmile_qr_scan", "android": "https://dc.lft.to/lastmile_qr_scan"}, "type": "electric_scooter", "fusion_lat": 0.0, "lon": -77.009515}, {"fusion_lon": 0.0, "bike_id": "6975aaa274877bdec6c505877def6c3c", "is_disabled": 0, "is_reserved": 0, "lat": 38.8864145, "name": "6975aaa274877bdec6c505877def6c3c", "rental_uris": {"ios": "https://dc.lft.to/lastmile_qr_scan", "android": "https://dc.lft.to/lastmile_qr_scan"}, "type": "electric_scooter", "fusion_lat": 0.0, "lon": -76.98210216666666}, {"fusion_lon": 0.0, "bike_id": "f199407a00bb88af4c00001b2f113ee5", "is_disabled": 0, "is_reserved": 0, "lat": 38.918163, "name": "f199407a00bb88af4c00001b2f113ee5", "rental_uris": {"ios": "https://dc.lft.to/lastmile_qr_scan", "android": "https://dc.lft.to/lastmile_qr_scan"}, "type": "electric_scooter", "fusion_lat": 0.0, "lon": -77.03670166666667}, {"fusion_lon": 0.0, "bike_id": "f5fb060fa002bae28ac5a90c578899ed", "is_disabled": 0, "is_reserved": 0, "lat": 38.89367416666666, "name": "f5fb060fa002bae28ac5a90c578899ed", "rental_uris": {"ios": "https://dc.lft.to/lastmile_qr_scan", "android": "https://dc.lft.to/lastmile_qr_scan"}, "type": "electric_scooter", "fusion_lat": 0.0, "lon": -77.03954516666667}, {"fusion_lon": 0.0, "bike_id": "41a78d17e98f897023d30201ecfd7351", "is_disabled": 0, "is_reserved": 0, "lat": 38.91413216666667, "name": "41a78d17e98f897023d30201ecfd7351", "rental_uris": {"ios": "https://dc.lft.to/lastmile_qr_scan", "android": "https://dc.lft.to/lastmile_qr_scan"}, "type": "electric_scooter", "fusion_lat": 0.0, "lon": -77.01302316666667}, {"fusion_lon": 0.0, "bike_id": "4c4d5a92a3290242f8d84e47778bc2e6", "is_disabled": 0, "is_reserved": 0, "lat": 38.91006316666667, "name": "4c4d5a92a3290242f8d84e47778bc2e6", "rental_uris": {"ios": "https://dc.lft.to/lastmile_qr_scan", "android": "https://dc.lft.to/lastmile_qr_scan"}, "type": "electric_scooter", "fusion_lat": 0.0, "lon": -76.99398316666667}, {"fusion_lon": 0.0, "bike_id": "bee7e88e80c2a933cdb63658ed3b64e0", "is_disabled": 0, "is_reserved": 0, "lat": 38.9242235, "name": "bee7e88e80c2a933cdb63658ed3b64e0", "rental_uris": {"ios": "https://dc.lft.to/lastmile_qr_scan", "android": "https://dc.lft.to/lastmile_qr_scan"}, "type": "electric_scooter", "fusion_lat": 0.0, "lon": -77.02131466666667}, {"fusion_lon": 0.0, "bike_id": "da8bdc237236686c9e5a415d7399c0a2", "is_disabled": 0, "is_reserved": 0, "lat": 38.8467345, "name": "da8bdc237236686c9e5a415d7399c0a2", "rental_uris": {"ios": "https://dc.lft.to/lastmile_qr_scan", "android": "https://dc.lft.to/lastmile_qr_scan"}, "type": "electric_bike", "fusion_lat": 0.0, "lon": -77.13935333333333}, {"fusion_lon": 0.0, "bike_id": "e71a68b9b59572096b14e61f19274694", "is_disabled": 0, "is_reserved": 0, "lat": 38.8935945, "name": "e71a68b9b59572096b14e61f19274694", "rental_uris": {"ios": "https://dc.lft.to/lastmile_qr_scan", "android": "https://dc.lft.to/lastmile_qr_scan"}, "type": "electric_scooter", "fusion_lat": 0.0, "lon": -77.01565333333333}, {"fusion_lon": 0.0, "bike_id": "8dc61b6991c53d391e9f9395a0e69e72", "is_disabled": 0, "is_reserved": 0, "lat": 38.923311166666664, "name": "8dc61b6991c53d391e9f9395a0e69e72", "rental_uris": {"ios": "https://dc.lft.to/lastmile_qr_scan", "android": "https://dc.lft.to/lastmile_qr_scan"}, "type": "electric_scooter", "fusion_lat": 0.0, "lon": -77.02044933333333}, {"fusion_lon": 0.0, "bike_id": "6fcd796751ed0c6752258cd298a6688d", "is_disabled": 0, "is_reserved": 0, "lat": 38.900721833333336, "name": "6fcd796751ed0c6752258cd298a6688d", "rental_uris": {"ios": "https://dc.lft.to/lastmile_qr_scan", "android": "https://dc.lft.to/lastmile_qr_scan"}, "type": "electric_scooter", "fusion_lat": 0.0, "lon": -77.05061216666667}, {"fusion_lon": 0.0, "bike_id": "28cf161fba31e7c6e1ace2935574ef6d", "is_disabled": 0, "is_reserved": 0, "lat": 38.93735, "name": "28cf161fba31e7c6e1ace2935574ef6d", "rental_uris": {"ios": "https://dc.lft.to/lastmile_qr_scan", "android": "https://dc.lft.to/lastmile_qr_scan"}, "type": "electric_scooter", "fusion_lat": 0.0, "lon": -77.07364666666666}, {"fusion_lon": 0.0, "bike_id": "8e1023fdc936598fc4e4da7024c32f5a", "is_disabled": 0, "is_reserved": 0, "lat": 38.8887435, "name": "8e1023fdc936598fc4e4da7024c32f5a", "rental_uris": {"ios": "https://dc.lft.to/lastmile_qr_scan", "android": "https://dc.lft.to/lastmile_qr_scan"}, "type": "electric_scooter", "fusion_lat": 0.0, "lon": -76.9903255}, {"fusion_lon": 0.0, "bike_id": "c4269b9ea045decbff1a461ab6627401", "is_disabled": 0, "is_reserved": 0, "lat": 38.90647833333333, "name": "c4269b9ea045decbff1a461ab6627401", "rental_uris": {"ios": "https://dc.lft.to/lastmile_qr_scan", "android": "https://dc.lft.to/lastmile_qr_scan"}, "type": "electric_scooter", "fusion_lat": 0.0, "lon": -77.05339416666666}, {"fusion_lon": 0.0, "bike_id": "1dc9638a7e2990cb78bc752b144f22d8", "is_disabled": 0, "is_reserved": 0, "lat": 38.89881833333333, "name": "1dc9638a7e2990cb78bc752b144f22d8", "rental_uris": {"ios": "https://dc.lft.to/lastmile_qr_scan", "android": "https://dc.lft.to/lastmile_qr_scan"}, "type": "electric_scooter", "fusion_lat": 0.0, "lon": -77.02034266666666}, {"fusion_lon": 0.0, "bike_id": "068806254b0f5d1af8dac87ce184d1c0", "is_disabled": 0, "is_reserved": 0, "lat": 38.914846, "name": "068806254b0f5d1af8dac87ce184d1c0", "rental_uris": {"ios": "https://dc.lft.to/lastmile_qr_scan", "android": "https://dc.lft.to/lastmile_qr_scan"}, "type": "electric_scooter", "fusion_lat": 0.0, "lon": -77.0218575}, {"fusion_lon": 0.0, "bike_id": "f684493dcd4ae2f2715e18c38b26c092", "is_disabled": 0, "is_reserved": 0, "lat": 38.931391166666664, "name": "f684493dcd4ae2f2715e18c38b26c092", "rental_uris": {"ios": "https://dc.lft.to/lastmile_qr_scan", "android": "https://dc.lft.to/lastmile_qr_scan"}, "type": "electric_scooter", "fusion_lat": 0.0, "lon": -77.07834733333334}, {"fusion_lon": 0.0, "bike_id": "3c14315c96cbe9d64f2205f99fc78327", "is_disabled": 0, "is_reserved": 0, "lat": 38.907691166666666, "name": "3c14315c96cbe9d64f2205f99fc78327", "rental_uris": {"ios": "https://dc.lft.to/lastmile_qr_scan", "android": "https://dc.lft.to/lastmile_qr_scan"}, "type": "electric_scooter", "fusion_lat": 0.0, "lon": -77.00359216666666}, {"fusion_lon": 0.0, "bike_id": "ad3380518c7cd91ed0b9361b63e97e3f", "is_disabled": 0, "is_reserved": 0, "lat": 38.9176655, "name": "ad3380518c7cd91ed0b9361b63e97e3f", "rental_uris": {"ios": "https://dc.lft.to/lastmile_qr_scan", "android": "https://dc.lft.to/lastmile_qr_scan"}, "type": "electric_scooter", "fusion_lat": 0.0, "lon": -77.00343683333334}, {"fusion_lon": 0.0, "bike_id": "76a65d41ee2cd877caf600acfb440e60", "is_disabled": 0, "is_reserved": 0, "lat": 38.927366166666665, "name": "76a65d41ee2cd877caf600acfb440e60", "rental_uris": {"ios": "https://dc.lft.to/lastmile_qr_scan", "android": "https://dc.lft.to/lastmile_qr_scan"}, "type": "electric_bike", "fusion_lat": 0.0, "lon": -76.99365433333334}, {"fusion_lon": 0.0, "bike_id": "0b7d5c5d9e0afb0a1162350a2f62d42f", "is_disabled": 0, "is_reserved": 0, "lat": 38.90177933333333, "name": "0b7d5c5d9e0afb0a1162350a2f62d42f", "rental_uris": {"ios": "https://dc.lft.to/lastmile_qr_scan", "android": "https://dc.lft.to/lastmile_qr_scan"}, "type": "electric_scooter", "fusion_lat": 0.0, "lon": -76.92946483333333}, {"fusion_lon": 0.0, "bike_id": "6b6a19034f38d5cd8e4ce584cbd937dc", "is_disabled": 0, "is_reserved": 0, "lat": 38.92119183333333, "name": "6b6a19034f38d5cd8e4ce584cbd937dc", "rental_uris": {"ios": "https://dc.lft.to/lastmile_qr_scan", "android": "https://dc.lft.to/lastmile_qr_scan"}, "type": "electric_scooter", "fusion_lat": 0.0, "lon": -77.01209316666667}, {"fusion_lon": 0.0, "bike_id": "0d05c25151001214292f423018d1fac0", "is_disabled": 0, "is_reserved": 0, "lat": 38.885616, "name": "0d05c25151001214292f423018d1fac0", "rental_uris": {"ios": "https://dc.lft.to/lastmile_qr_scan", "android": "https://dc.lft.to/lastmile_qr_scan"}, "type": "electric_scooter", "fusion_lat": 0.0, "lon": -77.0199425}, {"fusion_lon": 0.0, "bike_id": "25b887656a87f22468fe297590c80f6f", "is_disabled": 0, "is_reserved": 0, "lat": 38.919399, "name": "25b887656a87f22468fe297590c80f6f", "rental_uris": {"ios": "https://dc.lft.to/lastmile_qr_scan", "android": "https://dc.lft.to/lastmile_qr_scan"}, "type": "electric_scooter", "fusion_lat": 0.0, "lon": -77.0134795}, {"fusion_lon": 0.0, "bike_id": "e2f10245c4ecace3fff519f13f3d9de8", "is_disabled": 0, "is_reserved": 0, "lat": 38.877349, "name": "e2f10245c4ecace3fff519f13f3d9de8", "rental_uris": {"ios": "https://dc.lft.to/lastmile_qr_scan", "android": "https://dc.lft.to/lastmile_qr_scan"}, "type": "electric_scooter", "fusion_lat": 0.0, "lon": -77.01057466666667}, {"fusion_lon": 0.0, "bike_id": "44b99fecbe1b7269dccb5ad3d5eb3359", "is_disabled": 0, "is_reserved": 0, "lat": 38.920491, "name": "44b99fecbe1b7269dccb5ad3d5eb3359", "rental_uris": {"ios": "https://dc.lft.to/lastmile_qr_scan", "android": "https://dc.lft.to/lastmile_qr_scan"}, "type": "electric_scooter", "fusion_lat": 0.0, "lon": -77.03414883333333}, {"fusion_lon": 0.0, "bike_id": "95a74878bd5dd8af937ac375866e2112", "is_disabled": 0, "is_reserved": 0, "lat": 38.9274835, "name": "95a74878bd5dd8af937ac375866e2112", "rental_uris": {"ios": "https://dc.lft.to/lastmile_qr_scan", "android": "https://dc.lft.to/lastmile_qr_scan"}, "type": "electric_scooter", "fusion_lat": 0.0, "lon": -77.03301333333333}, {"fusion_lon": 0.0, "bike_id": "10eac355c205f1cb00e3433e5e1844ab", "is_disabled": 0, "is_reserved": 0, "lat": 38.9132215, "name": "10eac355c205f1cb00e3433e5e1844ab", "rental_uris": {"ios": "https://dc.lft.to/lastmile_qr_scan", "android": "https://dc.lft.to/lastmile_qr_scan"}, "type": "electric_scooter", "fusion_lat": 0.0, "lon": -77.043389}, {"fusion_lon": 0.0, "bike_id": "55f1f7421277296a935a1ad5585c9c13", "is_disabled": 0, "is_reserved": 0, "lat": 38.887700833333334, "name": "55f1f7421277296a935a1ad5585c9c13", "rental_uris": {"ios": "https://dc.lft.to/lastmile_qr_scan", "android": "https://dc.lft.to/lastmile_qr_scan"}, "type": "electric_scooter", "fusion_lat": 0.0, "lon": -76.93263266666666}, {"fusion_lon": 0.0, "bike_id": "cac84fef7884208eaf5e65aaa1a5c664", "is_disabled": 0, "is_reserved": 0, "lat": 38.9148885, "name": "cac84fef7884208eaf5e65aaa1a5c664", "rental_uris": {"ios": "https://dc.lft.to/lastmile_qr_scan", "android": "https://dc.lft.to/lastmile_qr_scan"}, "type": "electric_scooter", "fusion_lat": 0.0, "lon": -77.038343}, {"fusion_lon": 0.0, "bike_id": "7cfd40f5edf470e97c3ce8c3038910b7", "is_disabled": 0, "is_reserved": 0, "lat": 38.90747966666667, "name": "7cfd40f5edf470e97c3ce8c3038910b7", "rental_uris": {"ios": "https://dc.lft.to/lastmile_qr_scan", "android": "https://dc.lft.to/lastmile_qr_scan"}, "type": "electric_scooter", "fusion_lat": 0.0, "lon": -77.00806483333334}, {"fusion_lon": 0.0, "bike_id": "d08c6243b7b7b32cbc04bfbd9b3d37ba", "is_disabled": 0, "is_reserved": 0, "lat": 38.945721, "name": "d08c6243b7b7b32cbc04bfbd9b3d37ba", "rental_uris": {"ios": "https://dc.lft.to/lastmile_qr_scan", "android": "https://dc.lft.to/lastmile_qr_scan"}, "type": "electric_bike", "fusion_lat": 0.0, "lon": -76.98115316666667}, {"fusion_lon": 0.0, "bike_id": "dd9119481767d33fa0c819c94f7e6ac5", "is_disabled": 0, "is_reserved": 0, "lat": 38.9888545, "name": "dd9119481767d33fa0c819c94f7e6ac5", "rental_uris": {"ios": "https://dc.lft.to/lastmile_qr_scan", "android": "https://dc.lft.to/lastmile_qr_scan"}, "type": "electric_bike", "fusion_lat": 0.0, "lon": -76.98803933333333}, {"fusion_lon": 0.0, "bike_id": "4851051ac992b7e9db3b421d1e36e2d5", "is_disabled": 0, "is_reserved": 0, "lat": 38.89719066666667, "name": "4851051ac992b7e9db3b421d1e36e2d5", "rental_uris": {"ios": "https://dc.lft.to/lastmile_qr_scan", "android": "https://dc.lft.to/lastmile_qr_scan"}, "type": "electric_scooter", "fusion_lat": 0.0, "lon": -77.00799283333333}, {"fusion_lon": 0.0, "bike_id": "3b43a967f99100189e4215e9ac8d6245", "is_disabled": 0, "is_reserved": 0, "lat": 38.93190966666667, "name": "3b43a967f99100189e4215e9ac8d6245", "rental_uris": {"ios": "https://dc.lft.to/lastmile_qr_scan", "android": "https://dc.lft.to/lastmile_qr_scan"}, "type": "electric_scooter", "fusion_lat": 0.0, "lon": -77.025647}, {"fusion_lon": 0.0, "bike_id": "4817a50d79abf0b1b86a8ee0b037f2a5", "is_disabled": 0, "is_reserved": 0, "lat": 38.90837916666667, "name": "4817a50d79abf0b1b86a8ee0b037f2a5", "rental_uris": {"ios": "https://dc.lft.to/lastmile_qr_scan", "android": "https://dc.lft.to/lastmile_qr_scan"}, "type": "electric_scooter", "fusion_lat": 0.0, "lon": -77.0330445}, {"fusion_lon": 0.0, "bike_id": "ddc583b157d1da6db4cc3513909b449d", "is_disabled": 0, "is_reserved": 0, "lat": 38.900186833333336, "name": "ddc583b157d1da6db4cc3513909b449d", "rental_uris": {"ios": "https://dc.lft.to/lastmile_qr_scan", "android": "https://dc.lft.to/lastmile_qr_scan"}, "type": "electric_scooter", "fusion_lat": 0.0, "lon": -77.01974016666667}, {"fusion_lon": 0.0, "bike_id": "b197b3637dd13908aeb8d460c935fbfe", "is_disabled": 0, "is_reserved": 0, "lat": 38.9449385, "name": "b197b3637dd13908aeb8d460c935fbfe", "rental_uris": {"ios": "https://dc.lft.to/lastmile_qr_scan", "android": "https://dc.lft.to/lastmile_qr_scan"}, "type": "electric_scooter", "fusion_lat": 0.0, "lon": -77.028528}, {"fusion_lon": 0.0, "bike_id": "4af57a1635b30a749aeb1ac059b2228c", "is_disabled": 0, "is_reserved": 0, "lat": 38.92254916666667, "name": "4af57a1635b30a749aeb1ac059b2228c", "rental_uris": {"ios": "https://dc.lft.to/lastmile_qr_scan", "android": "https://dc.lft.to/lastmile_qr_scan"}, "type": "electric_scooter", "fusion_lat": 0.0, "lon": -77.0194755}, {"fusion_lon": 0.0, "bike_id": "b942f31ccfff9059eb3096dd30762f94", "is_disabled": 0, "is_reserved": 0, "lat": 38.9233535, "name": "b942f31ccfff9059eb3096dd30762f94", "rental_uris": {"ios": "https://dc.lft.to/lastmile_qr_scan", "android": "https://dc.lft.to/lastmile_qr_scan"}, "type": "electric_scooter", "fusion_lat": 0.0, "lon": -77.05618333333334}, {"fusion_lon": 0.0, "bike_id": "ebb8c40c8d247079cd0dd1c7f486a6ed", "is_disabled": 0, "is_reserved": 0, "lat": 38.897648333333336, "name": "ebb8c40c8d247079cd0dd1c7f486a6ed", "rental_uris": {"ios": "https://dc.lft.to/lastmile_qr_scan", "android": "https://dc.lft.to/lastmile_qr_scan"}, "type": "electric_scooter", "fusion_lat": 0.0, "lon": -77.012059}, {"fusion_lon": 0.0, "bike_id": "16d40a66ad8320f10889a40cc1947116", "is_disabled": 0, "is_reserved": 0, "lat": 38.93577833333333, "name": "16d40a66ad8320f10889a40cc1947116", "rental_uris": {"ios": "https://dc.lft.to/lastmile_qr_scan", "android": "https://dc.lft.to/lastmile_qr_scan"}, "type": "electric_bike", "fusion_lat": 0.0, "lon": -77.021229}, {"fusion_lon": 0.0, "bike_id": "95bc1b2deaf8c87e10e8bacdff2bba9d", "is_disabled": 0, "is_reserved": 0, "lat": 38.895552333333335, "name": "95bc1b2deaf8c87e10e8bacdff2bba9d", "rental_uris": {"ios": "https://dc.lft.to/lastmile_qr_scan", "android": "https://dc.lft.to/lastmile_qr_scan"}, "type": "electric_scooter", "fusion_lat": 0.0, "lon": -77.00911366666666}, {"fusion_lon": 0.0, "bike_id": "801ae587b3c6785f59d5361ccd7d8ee7", "is_disabled": 0, "is_reserved": 0, "lat": 38.9679185, "name": "801ae587b3c6785f59d5361ccd7d8ee7", "rental_uris": {"ios": "https://dc.lft.to/lastmile_qr_scan", "android": "https://dc.lft.to/lastmile_qr_scan"}, "type": "electric_scooter", "fusion_lat": 0.0, "lon": -77.02435416666667}, {"fusion_lon": 0.0, "bike_id": "0e8fa541b077ded02bb4f14455395b46", "is_disabled": 0, "is_reserved": 0, "lat": 38.921651833333335, "name": "0e8fa541b077ded02bb4f14455395b46", "rental_uris": {"ios": "https://dc.lft.to/lastmile_qr_scan", "android": "https://dc.lft.to/lastmile_qr_scan"}, "type": "electric_scooter", "fusion_lat": 0.0, "lon": -77.040161}, {"fusion_lon": 0.0, "bike_id": "5a4e6613e33cbadb955cd20287157a4f", "is_disabled": 0, "is_reserved": 0, "lat": 38.914660166666664, "name": "5a4e6613e33cbadb955cd20287157a4f", "rental_uris": {"ios": "https://dc.lft.to/lastmile_qr_scan", "android": "https://dc.lft.to/lastmile_qr_scan"}, "type": "electric_scooter", "fusion_lat": 0.0, "lon": -77.00213883333333}, {"fusion_lon": 0.0, "bike_id": "6024382cea0e69cf1a34973dd2eb43c8", "is_disabled": 0, "is_reserved": 0, "lat": 38.915714333333334, "name": "6024382cea0e69cf1a34973dd2eb43c8", "rental_uris": {"ios": "https://dc.lft.to/lastmile_qr_scan", "android": "https://dc.lft.to/lastmile_qr_scan"}, "type": "electric_scooter", "fusion_lat": 0.0, "lon": -77.019903}, {"fusion_lon": 0.0, "bike_id": "eeb172a9964726408d72afbf31b89913", "is_disabled": 0, "is_reserved": 0, "lat": 38.913448, "name": "eeb172a9964726408d72afbf31b89913", "rental_uris": {"ios": "https://dc.lft.to/lastmile_qr_scan", "android": "https://dc.lft.to/lastmile_qr_scan"}, "type": "electric_scooter", "fusion_lat": 0.0, "lon": -77.00337816666666}, {"fusion_lon": 0.0, "bike_id": "7f5d0fca465fa8b337bd439ee0910a53", "is_disabled": 0, "is_reserved": 0, "lat": 38.89963016666667, "name": "7f5d0fca465fa8b337bd439ee0910a53", "rental_uris": {"ios": "https://dc.lft.to/lastmile_qr_scan", "android": "https://dc.lft.to/lastmile_qr_scan"}, "type": "electric_scooter", "fusion_lat": 0.0, "lon": -77.02627533333333}, {"fusion_lon": 0.0, "bike_id": "1c36f68bdf0d1ef993bd27b98ad0f166", "is_disabled": 0, "is_reserved": 0, "lat": 38.93059783333333, "name": "1c36f68bdf0d1ef993bd27b98ad0f166", "rental_uris": {"ios": "https://dc.lft.to/lastmile_qr_scan", "android": "https://dc.lft.to/lastmile_qr_scan"}, "type": "electric_scooter", "fusion_lat": 0.0, "lon": -77.02321166666667}, {"fusion_lon": 0.0, "bike_id": "57d361f62d39accba791205ea525df93", "is_disabled": 0, "is_reserved": 0, "lat": 38.81938016666667, "name": "57d361f62d39accba791205ea525df93", "rental_uris": {"ios": "https://dc.lft.to/lastmile_qr_scan", "android": "https://dc.lft.to/lastmile_qr_scan"}, "type": "electric_bike", "fusion_lat": 0.0, "lon": -77.00202766666666}, {"fusion_lon": 0.0, "bike_id": "61d2a70c21dd5614fbf1844ffca2f61e", "is_disabled": 0, "is_reserved": 0, "lat": 38.903821, "name": "61d2a70c21dd5614fbf1844ffca2f61e", "rental_uris": {"ios": "https://dc.lft.to/lastmile_qr_scan", "android": "https://dc.lft.to/lastmile_qr_scan"}, "type": "electric_scooter", "fusion_lat": 0.0, "lon": -77.0482385}, {"fusion_lon": 0.0, "bike_id": "31ec3d411862c765486ff50c51b5565a", "is_disabled": 0, "is_reserved": 0, "lat": 38.91537133333333, "name": "31ec3d411862c765486ff50c51b5565a", "rental_uris": {"ios": "https://dc.lft.to/lastmile_qr_scan", "android": "https://dc.lft.to/lastmile_qr_scan"}, "type": "electric_scooter", "fusion_lat": 0.0, "lon": -77.04421566666667}, {"fusion_lon": 0.0, "bike_id": "f5242e68906c39a54b63cb1ba4f6d086", "is_disabled": 0, "is_reserved": 0, "lat": 38.932013, "name": "f5242e68906c39a54b63cb1ba4f6d086", "rental_uris": {"ios": "https://dc.lft.to/lastmile_qr_scan", "android": "https://dc.lft.to/lastmile_qr_scan"}, "type": "electric_scooter", "fusion_lat": 0.0, "lon": -77.0187695}, {"fusion_lon": 0.0, "bike_id": "976d71f12ff56bab9bac051441d8e9de", "is_disabled": 0, "is_reserved": 0, "lat": 38.92079, "name": "976d71f12ff56bab9bac051441d8e9de", "rental_uris": {"ios": "https://dc.lft.to/lastmile_qr_scan", "android": "https://dc.lft.to/lastmile_qr_scan"}, "type": "electric_scooter", "fusion_lat": 0.0, "lon": -77.02506333333334}, {"fusion_lon": 0.0, "bike_id": "e2c01f9d2948100f5bfaba7b20ed708f", "is_disabled": 0, "is_reserved": 0, "lat": 38.8902595, "name": "e2c01f9d2948100f5bfaba7b20ed708f", "rental_uris": {"ios": "https://dc.lft.to/lastmile_qr_scan", "android": "https://dc.lft.to/lastmile_qr_scan"}, "type": "electric_scooter", "fusion_lat": 0.0, "lon": -76.94460666666667}, {"fusion_lon": 0.0, "bike_id": "827e7d1dc58697f3c47d9a7952d2b588", "is_disabled": 0, "is_reserved": 0, "lat": 38.9021955, "name": "827e7d1dc58697f3c47d9a7952d2b588", "rental_uris": {"ios": "https://dc.lft.to/lastmile_qr_scan", "android": "https://dc.lft.to/lastmile_qr_scan"}, "type": "electric_scooter", "fusion_lat": 0.0, "lon": -77.04849933333334}, {"fusion_lon": 0.0, "bike_id": "ff2c0d7fb8c80e46d71de8c893c0c466", "is_disabled": 0, "is_reserved": 0, "lat": 38.916780333333335, "name": "ff2c0d7fb8c80e46d71de8c893c0c466", "rental_uris": {"ios": "https://dc.lft.to/lastmile_qr_scan", "android": "https://dc.lft.to/lastmile_qr_scan"}, "type": "electric_scooter", "fusion_lat": 0.0, "lon": -77.02608933333333}, {"fusion_lon": 0.0, "bike_id": "b1a3862e65dabedfa24989385073e711", "is_disabled": 0, "is_reserved": 0, "lat": 38.926123, "name": "b1a3862e65dabedfa24989385073e711", "rental_uris": {"ios": "https://dc.lft.to/lastmile_qr_scan", "android": "https://dc.lft.to/lastmile_qr_scan"}, "type": "electric_scooter", "fusion_lat": 0.0, "lon": -77.02159216666666}, {"fusion_lon": 0.0, "bike_id": "b9e85c3500a7e7c7bb431de2dcac4fa3", "is_disabled": 0, "is_reserved": 0, "lat": 38.942010833333335, "name": "b9e85c3500a7e7c7bb431de2dcac4fa3", "rental_uris": {"ios": "https://dc.lft.to/lastmile_qr_scan", "android": "https://dc.lft.to/lastmile_qr_scan"}, "type": "electric_scooter", "fusion_lat": 0.0, "lon": -77.02505216666667}, {"fusion_lon": 0.0, "bike_id": "55a9251729fb7867aca5a8a1a3534220", "is_disabled": 0, "is_reserved": 0, "lat": 38.90845866666667, "name": "55a9251729fb7867aca5a8a1a3534220", "rental_uris": {"ios": "https://dc.lft.to/lastmile_qr_scan", "android": "https://dc.lft.to/lastmile_qr_scan"}, "type": "electric_scooter", "fusion_lat": 0.0, "lon": -77.0417005}, {"fusion_lon": 0.0, "bike_id": "54a11116e4c69a776814527eea4e0513", "is_disabled": 0, "is_reserved": 0, "lat": 38.887282, "name": "54a11116e4c69a776814527eea4e0513", "rental_uris": {"ios": "https://dc.lft.to/lastmile_qr_scan", "android": "https://dc.lft.to/lastmile_qr_scan"}, "type": "electric_scooter", "fusion_lat": 0.0, "lon": -76.98377733333334}, {"fusion_lon": 0.0, "bike_id": "a706d3e879575bb0466f57d01adcb6a2", "is_disabled": 0, "is_reserved": 0, "lat": 38.916934166666664, "name": "a706d3e879575bb0466f57d01adcb6a2", "rental_uris": {"ios": "https://dc.lft.to/lastmile_qr_scan", "android": "https://dc.lft.to/lastmile_qr_scan"}, "type": "electric_scooter", "fusion_lat": 0.0, "lon": -77.02724166666667}, {"fusion_lon": 0.0, "bike_id": "a53e7685cb20aad80836ef842f91dede", "is_disabled": 0, "is_reserved": 0, "lat": 38.916897666666664, "name": "a53e7685cb20aad80836ef842f91dede", "rental_uris": {"ios": "https://dc.lft.to/lastmile_qr_scan", "android": "https://dc.lft.to/lastmile_qr_scan"}, "type": "electric_scooter", "fusion_lat": 0.0, "lon": -77.027226}, {"fusion_lon": 0.0, "bike_id": "59ba679998570d37f3db892dea55175d", "is_disabled": 0, "is_reserved": 0, "lat": 38.914162166666664, "name": "59ba679998570d37f3db892dea55175d", "rental_uris": {"ios": "https://dc.lft.to/lastmile_qr_scan", "android": "https://dc.lft.to/lastmile_qr_scan"}, "type": "electric_scooter", "fusion_lat": 0.0, "lon": -77.008306}, {"fusion_lon": 0.0, "bike_id": "bcba3d19ce907124b578f3d259d2e0a8", "is_disabled": 0, "is_reserved": 0, "lat": 38.921635, "name": "bcba3d19ce907124b578f3d259d2e0a8", "rental_uris": {"ios": "https://dc.lft.to/lastmile_qr_scan", "android": "https://dc.lft.to/lastmile_qr_scan"}, "type": "electric_scooter", "fusion_lat": 0.0, "lon": -77.02120883333333}, {"fusion_lon": 0.0, "bike_id": "f9988146e750ac3d76a953d8c5d9543f", "is_disabled": 0, "is_reserved": 0, "lat": 38.89321616666667, "name": "f9988146e750ac3d76a953d8c5d9543f", "rental_uris": {"ios": "https://dc.lft.to/lastmile_qr_scan", "android": "https://dc.lft.to/lastmile_qr_scan"}, "type": "electric_scooter", "fusion_lat": 0.0, "lon": -77.03365266666667}, {"fusion_lon": 0.0, "bike_id": "a85d812b07c8bb42ef20fb0763527840", "is_disabled": 0, "is_reserved": 0, "lat": 38.908014666666666, "name": "a85d812b07c8bb42ef20fb0763527840", "rental_uris": {"ios": "https://dc.lft.to/lastmile_qr_scan", "android": "https://dc.lft.to/lastmile_qr_scan"}, "type": "electric_scooter", "fusion_lat": 0.0, "lon": -77.00021933333333}, {"fusion_lon": 0.0, "bike_id": "07589deedc0fbcaceff26d896d97f29e", "is_disabled": 0, "is_reserved": 0, "lat": 38.919894166666666, "name": "07589deedc0fbcaceff26d896d97f29e", "rental_uris": {"ios": "https://dc.lft.to/lastmile_qr_scan", "android": "https://dc.lft.to/lastmile_qr_scan"}, "type": "electric_scooter", "fusion_lat": 0.0, "lon": -77.03245083333333}, {"fusion_lon": 0.0, "bike_id": "e14bb4dcb074066172f7bf5965452c12", "is_disabled": 0, "is_reserved": 0, "lat": 38.90378883333333, "name": "e14bb4dcb074066172f7bf5965452c12", "rental_uris": {"ios": "https://dc.lft.to/lastmile_qr_scan", "android": "https://dc.lft.to/lastmile_qr_scan"}, "type": "electric_scooter", "fusion_lat": 0.0, "lon": -77.05028133333333}, {"fusion_lon": 0.0, "bike_id": "59a06987f55c33d3b2b836795fe2989f", "is_disabled": 0, "is_reserved": 0, "lat": 38.923317, "name": "59a06987f55c33d3b2b836795fe2989f", "rental_uris": {"ios": "https://dc.lft.to/lastmile_qr_scan", "android": "https://dc.lft.to/lastmile_qr_scan"}, "type": "electric_scooter", "fusion_lat": 0.0, "lon": -77.00892783333333}, {"fusion_lon": 0.0, "bike_id": "346aed781780c3f5786329e6d20f2dd7", "is_disabled": 0, "is_reserved": 0, "lat": 38.89231866666667, "name": "346aed781780c3f5786329e6d20f2dd7", "rental_uris": {"ios": "https://dc.lft.to/lastmile_qr_scan", "android": "https://dc.lft.to/lastmile_qr_scan"}, "type": "electric_scooter", "fusion_lat": 0.0, "lon": -77.03193583333334}, {"fusion_lon": 0.0, "bike_id": "5cec36efefc87fbc156e6ece7579422b", "is_disabled": 0, "is_reserved": 0, "lat": 38.925818666666665, "name": "5cec36efefc87fbc156e6ece7579422b", "rental_uris": {"ios": "https://dc.lft.to/lastmile_qr_scan", "android": "https://dc.lft.to/lastmile_qr_scan"}, "type": "electric_scooter", "fusion_lat": 0.0, "lon": -77.02807083333333}, {"fusion_lon": 0.0, "bike_id": "59047d94ce8b73ff9431fabd5908e286", "is_disabled": 0, "is_reserved": 0, "lat": 39.0850665, "name": "59047d94ce8b73ff9431fabd5908e286", "rental_uris": {"ios": "https://dc.lft.to/lastmile_qr_scan", "android": "https://dc.lft.to/lastmile_qr_scan"}, "type": "electric_bike", "fusion_lat": 0.0, "lon": -76.95059816666667}, {"fusion_lon": 0.0, "bike_id": "50d6f7a49bc742a064ce72035105e949", "is_disabled": 0, "is_reserved": 0, "lat": 38.92106183333333, "name": "50d6f7a49bc742a064ce72035105e949", "rental_uris": {"ios": "https://dc.lft.to/lastmile_qr_scan", "android": "https://dc.lft.to/lastmile_qr_scan"}, "type": "electric_scooter", "fusion_lat": 0.0, "lon": -77.04205816666666}, {"fusion_lon": 0.0, "bike_id": "3f5bb0e124721333f36f55575a9928e2", "is_disabled": 0, "is_reserved": 0, "lat": 38.88739616666667, "name": "3f5bb0e124721333f36f55575a9928e2", "rental_uris": {"ios": "https://dc.lft.to/lastmile_qr_scan", "android": "https://dc.lft.to/lastmile_qr_scan"}, "type": "electric_scooter", "fusion_lat": 0.0, "lon": -77.0031795}, {"fusion_lon": 0.0, "bike_id": "9f1627fa9c7e668032504bfe37e79a50", "is_disabled": 0, "is_reserved": 0, "lat": 38.86748466666667, "name": "9f1627fa9c7e668032504bfe37e79a50", "rental_uris": {"ios": "https://dc.lft.to/lastmile_qr_scan", "android": "https://dc.lft.to/lastmile_qr_scan"}, "type": "electric_scooter", "fusion_lat": 0.0, "lon": -77.00146266666667}, {"fusion_lon": 0.0, "bike_id": "ff23c87a8e192aa8685f4e717af1e9a0", "is_disabled": 0, "is_reserved": 0, "lat": 38.89986866666667, "name": "ff23c87a8e192aa8685f4e717af1e9a0", "rental_uris": {"ios": "https://dc.lft.to/lastmile_qr_scan", "android": "https://dc.lft.to/lastmile_qr_scan"}, "type": "electric_scooter", "fusion_lat": 0.0, "lon": -77.02198383333334}, {"fusion_lon": 0.0, "bike_id": "77092605b2b49925f00917d39ca48d54", "is_disabled": 0, "is_reserved": 0, "lat": 39.02518283333333, "name": "77092605b2b49925f00917d39ca48d54", "rental_uris": {"ios": "https://dc.lft.to/lastmile_qr_scan", "android": "https://dc.lft.to/lastmile_qr_scan"}, "type": "electric_bike", "fusion_lat": 0.0, "lon": -77.0196535}, {"fusion_lon": 0.0, "bike_id": "f9890e5d372d322ca1845fa329f43cca", "is_disabled": 0, "is_reserved": 0, "lat": 38.887824, "name": "f9890e5d372d322ca1845fa329f43cca", "rental_uris": {"ios": "https://dc.lft.to/lastmile_qr_scan", "android": "https://dc.lft.to/lastmile_qr_scan"}, "type": "electric_scooter", "fusion_lat": 0.0, "lon": -76.9552655}, {"fusion_lon": 0.0, "bike_id": "38aaddb78fedc050288dd1e0fe70f1cc", "is_disabled": 0, "is_reserved": 0, "lat": 38.9246735, "name": "38aaddb78fedc050288dd1e0fe70f1cc", "rental_uris": {"ios": "https://dc.lft.to/lastmile_qr_scan", "android": "https://dc.lft.to/lastmile_qr_scan"}, "type": "electric_scooter", "fusion_lat": 0.0, "lon": -77.02219566666666}, {"fusion_lon": 0.0, "bike_id": "96ab8fd929b75b80d9c3e9b45190da6a", "is_disabled": 0, "is_reserved": 0, "lat": 38.86672333333333, "name": "96ab8fd929b75b80d9c3e9b45190da6a", "rental_uris": {"ios": "https://dc.lft.to/lastmile_qr_scan", "android": "https://dc.lft.to/lastmile_qr_scan"}, "type": "electric_scooter", "fusion_lat": 0.0, "lon": -76.9851935}, {"fusion_lon": 0.0, "bike_id": "2437b5e04869ee5d70e392f50cdba5fb", "is_disabled": 0, "is_reserved": 0, "lat": 38.9144095, "name": "2437b5e04869ee5d70e392f50cdba5fb", "rental_uris": {"ios": "https://dc.lft.to/lastmile_qr_scan", "android": "https://dc.lft.to/lastmile_qr_scan"}, "type": "electric_scooter", "fusion_lat": 0.0, "lon": -77.0122715}, {"fusion_lon": 0.0, "bike_id": "9380556c469e70899c650a10aab95d14", "is_disabled": 0, "is_reserved": 0, "lat": 38.928175833333334, "name": "9380556c469e70899c650a10aab95d14", "rental_uris": {"ios": "https://dc.lft.to/lastmile_qr_scan", "android": "https://dc.lft.to/lastmile_qr_scan"}, "type": "electric_scooter", "fusion_lat": 0.0, "lon": -77.05473916666666}, {"fusion_lon": 0.0, "bike_id": "1e1ce76cb54a09fb6213f6895d8d5792", "is_disabled": 0, "is_reserved": 0, "lat": 38.90726316666667, "name": "1e1ce76cb54a09fb6213f6895d8d5792", "rental_uris": {"ios": "https://dc.lft.to/lastmile_qr_scan", "android": "https://dc.lft.to/lastmile_qr_scan"}, "type": "electric_scooter", "fusion_lat": 0.0, "lon": -77.06897133333334}, {"fusion_lon": 0.0, "bike_id": "80081c2feb474fc98494c769b38b0852", "is_disabled": 0, "is_reserved": 0, "lat": 38.923723833333334, "name": "80081c2feb474fc98494c769b38b0852", "rental_uris": {"ios": "https://dc.lft.to/lastmile_qr_scan", "android": "https://dc.lft.to/lastmile_qr_scan"}, "type": "electric_scooter", "fusion_lat": 0.0, "lon": -77.0433165}, {"fusion_lon": 0.0, "bike_id": "b108c42f399dfa5f4d35bd9c0c14c4c2", "is_disabled": 0, "is_reserved": 0, "lat": 38.902593833333334, "name": "b108c42f399dfa5f4d35bd9c0c14c4c2", "rental_uris": {"ios": "https://dc.lft.to/lastmile_qr_scan", "android": "https://dc.lft.to/lastmile_qr_scan"}, "type": "electric_scooter", "fusion_lat": 0.0, "lon": -77.051644}, {"fusion_lon": 0.0, "bike_id": "3dd0508adcc803c40318bc5a5283eb7d", "is_disabled": 0, "is_reserved": 0, "lat": 38.921024, "name": "3dd0508adcc803c40318bc5a5283eb7d", "rental_uris": {"ios": "https://dc.lft.to/lastmile_qr_scan", "android": "https://dc.lft.to/lastmile_qr_scan"}, "type": "electric_scooter", "fusion_lat": 0.0, "lon": -77.03166866666666}, {"fusion_lon": 0.0, "bike_id": "b5fab335dce0ca553c8a8d26b51d2775", "is_disabled": 0, "is_reserved": 0, "lat": 38.9081225, "name": "b5fab335dce0ca553c8a8d26b51d2775", "rental_uris": {"ios": "https://dc.lft.to/lastmile_qr_scan", "android": "https://dc.lft.to/lastmile_qr_scan"}, "type": "electric_scooter", "fusion_lat": 0.0, "lon": -77.041694}, {"fusion_lon": 0.0, "bike_id": "8ca6109f3794202e9d8d172ebe7453b3", "is_disabled": 0, "is_reserved": 0, "lat": 38.888741, "name": "8ca6109f3794202e9d8d172ebe7453b3", "rental_uris": {"ios": "https://dc.lft.to/lastmile_qr_scan", "android": "https://dc.lft.to/lastmile_qr_scan"}, "type": "electric_bike", "fusion_lat": 0.0, "lon": -76.9570325}, {"fusion_lon": 0.0, "bike_id": "68ff16c2ce81dc9e0753c56e7e7a4dd6", "is_disabled": 0, "is_reserved": 0, "lat": 38.89915083333333, "name": "68ff16c2ce81dc9e0753c56e7e7a4dd6", "rental_uris": {"ios": "https://dc.lft.to/lastmile_qr_scan", "android": "https://dc.lft.to/lastmile_qr_scan"}, "type": "electric_scooter", "fusion_lat": 0.0, "lon": -76.93381916666667}, {"fusion_lon": 0.0, "bike_id": "bfd353abbfd377459518e95b8f730550", "is_disabled": 0, "is_reserved": 0, "lat": 38.879556666666666, "name": "bfd353abbfd377459518e95b8f730550", "rental_uris": {"ios": "https://dc.lft.to/lastmile_qr_scan", "android": "https://dc.lft.to/lastmile_qr_scan"}, "type": "electric_bike", "fusion_lat": 0.0, "lon": -76.93189966666667}, {"fusion_lon": 0.0, "bike_id": "48c877db90d6b7ad15410730b7eaaf95", "is_disabled": 0, "is_reserved": 0, "lat": 38.91026433333333, "name": "48c877db90d6b7ad15410730b7eaaf95", "rental_uris": {"ios": "https://dc.lft.to/lastmile_qr_scan", "android": "https://dc.lft.to/lastmile_qr_scan"}, "type": "electric_scooter", "fusion_lat": 0.0, "lon": -77.00757433333334}, {"fusion_lon": 0.0, "bike_id": "0863e4e2e875773485ddf2cf170c3c1c", "is_disabled": 0, "is_reserved": 0, "lat": 38.92757816666666, "name": "0863e4e2e875773485ddf2cf170c3c1c", "rental_uris": {"ios": "https://dc.lft.to/lastmile_qr_scan", "android": "https://dc.lft.to/lastmile_qr_scan"}, "type": "electric_scooter", "fusion_lat": 0.0, "lon": -77.03301716666667}, {"fusion_lon": 0.0, "bike_id": "4111019de9b1473bf7d1063e87a08f01", "is_disabled": 0, "is_reserved": 0, "lat": 38.924770333333335, "name": "4111019de9b1473bf7d1063e87a08f01", "rental_uris": {"ios": "https://dc.lft.to/lastmile_qr_scan", "android": "https://dc.lft.to/lastmile_qr_scan"}, "type": "electric_scooter", "fusion_lat": 0.0, "lon": -77.02557633333333}, {"fusion_lon": 0.0, "bike_id": "a59e4ba2138620449457c5a075171354", "is_disabled": 0, "is_reserved": 0, "lat": 38.908697833333335, "name": "a59e4ba2138620449457c5a075171354", "rental_uris": {"ios": "https://dc.lft.to/lastmile_qr_scan", "android": "https://dc.lft.to/lastmile_qr_scan"}, "type": "electric_scooter", "fusion_lat": 0.0, "lon": -77.003578}, {"fusion_lon": 0.0, "bike_id": "0630b96eeaf56d2947ddae9f554e041c", "is_disabled": 0, "is_reserved": 0, "lat": 38.87432583333333, "name": "0630b96eeaf56d2947ddae9f554e041c", "rental_uris": {"ios": "https://dc.lft.to/lastmile_qr_scan", "android": "https://dc.lft.to/lastmile_qr_scan"}, "type": "electric_scooter", "fusion_lat": 0.0, "lon": -77.00020833333333}, {"fusion_lon": 0.0, "bike_id": "367f51464981142eaa375f9e95d8e3da", "is_disabled": 0, "is_reserved": 0, "lat": 38.92075633333333, "name": "367f51464981142eaa375f9e95d8e3da", "rental_uris": {"ios": "https://dc.lft.to/lastmile_qr_scan", "android": "https://dc.lft.to/lastmile_qr_scan"}, "type": "electric_scooter", "fusion_lat": 0.0, "lon": -77.0251995}, {"fusion_lon": 0.0, "bike_id": "c714c832bf15f8f703b6d231d0c6e3c8", "is_disabled": 0, "is_reserved": 0, "lat": 38.89669633333333, "name": "c714c832bf15f8f703b6d231d0c6e3c8", "rental_uris": {"ios": "https://dc.lft.to/lastmile_qr_scan", "android": "https://dc.lft.to/lastmile_qr_scan"}, "type": "electric_scooter", "fusion_lat": 0.0, "lon": -76.93221516666667}, {"fusion_lon": 0.0, "bike_id": "e159e3d6b54666abcc5574f2158f0290", "is_disabled": 0, "is_reserved": 0, "lat": 38.920631166666666, "name": "e159e3d6b54666abcc5574f2158f0290", "rental_uris": {"ios": "https://dc.lft.to/lastmile_qr_scan", "android": "https://dc.lft.to/lastmile_qr_scan"}, "type": "electric_scooter", "fusion_lat": 0.0, "lon": -77.02399316666667}, {"fusion_lon": 0.0, "bike_id": "4b2387cf048011506eafc25f98c007eb", "is_disabled": 0, "is_reserved": 0, "lat": 38.92354383333333, "name": "4b2387cf048011506eafc25f98c007eb", "rental_uris": {"ios": "https://dc.lft.to/lastmile_qr_scan", "android": "https://dc.lft.to/lastmile_qr_scan"}, "type": "electric_scooter", "fusion_lat": 0.0, "lon": -77.03378616666667}, {"fusion_lon": 0.0, "bike_id": "235c20450a1c82c1886db3199749e3b3", "is_disabled": 0, "is_reserved": 0, "lat": 38.87924566666667, "name": "235c20450a1c82c1886db3199749e3b3", "rental_uris": {"ios": "https://dc.lft.to/lastmile_qr_scan", "android": "https://dc.lft.to/lastmile_qr_scan"}, "type": "electric_bike", "fusion_lat": 0.0, "lon": -77.01380566666667}, {"fusion_lon": 0.0, "bike_id": "83c8b587d27a5960687db972e1a98590", "is_disabled": 0, "is_reserved": 0, "lat": 38.92118583333333, "name": "83c8b587d27a5960687db972e1a98590", "rental_uris": {"ios": "https://dc.lft.to/lastmile_qr_scan", "android": "https://dc.lft.to/lastmile_qr_scan"}, "type": "electric_scooter", "fusion_lat": 0.0, "lon": -77.03646883333333}, {"fusion_lon": 0.0, "bike_id": "e306cb7707a6e579bf24fe4a8ac32be8", "is_disabled": 0, "is_reserved": 0, "lat": 38.93127583333333, "name": "e306cb7707a6e579bf24fe4a8ac32be8", "rental_uris": {"ios": "https://dc.lft.to/lastmile_qr_scan", "android": "https://dc.lft.to/lastmile_qr_scan"}, "type": "electric_scooter", "fusion_lat": 0.0, "lon": -77.0227035}, {"fusion_lon": 0.0, "bike_id": "7dce6efdc66a5a5155e84865db6f2fb7", "is_disabled": 0, "is_reserved": 0, "lat": 38.89827483333333, "name": "7dce6efdc66a5a5155e84865db6f2fb7", "rental_uris": {"ios": "https://dc.lft.to/lastmile_qr_scan", "android": "https://dc.lft.to/lastmile_qr_scan"}, "type": "electric_scooter", "fusion_lat": 0.0, "lon": -76.94651816666666}, {"fusion_lon": 0.0, "bike_id": "df020b5ae155460be0dfc8d5080db00e", "is_disabled": 0, "is_reserved": 0, "lat": 38.898888, "name": "df020b5ae155460be0dfc8d5080db00e", "rental_uris": {"ios": "https://dc.lft.to/lastmile_qr_scan", "android": "https://dc.lft.to/lastmile_qr_scan"}, "type": "electric_scooter", "fusion_lat": 0.0, "lon": -77.05301033333333}, {"fusion_lon": 0.0, "bike_id": "c927194022c7b414a1f1a13a1df10b0d", "is_disabled": 0, "is_reserved": 0, "lat": 38.9265185, "name": "c927194022c7b414a1f1a13a1df10b0d", "rental_uris": {"ios": "https://dc.lft.to/lastmile_qr_scan", "android": "https://dc.lft.to/lastmile_qr_scan"}, "type": "electric_scooter", "fusion_lat": 0.0, "lon": -77.03308583333333}, {"fusion_lon": 0.0, "bike_id": "04001510eb445263d70a573ad877aaf0", "is_disabled": 0, "is_reserved": 0, "lat": 38.88358516666667, "name": "04001510eb445263d70a573ad877aaf0", "rental_uris": {"ios": "https://dc.lft.to/lastmile_qr_scan", "android": "https://dc.lft.to/lastmile_qr_scan"}, "type": "electric_scooter", "fusion_lat": 0.0, "lon": -76.95769016666667}, {"fusion_lon": 0.0, "bike_id": "1c3e2233ee09a119bad192177883d31b", "is_disabled": 0, "is_reserved": 0, "lat": 38.9241615, "name": "1c3e2233ee09a119bad192177883d31b", "rental_uris": {"ios": "https://dc.lft.to/lastmile_qr_scan", "android": "https://dc.lft.to/lastmile_qr_scan"}, "type": "electric_scooter", "fusion_lat": 0.0, "lon": -77.02263266666667}, {"fusion_lon": 0.0, "bike_id": "90182ab40c568a85a248e14166e10a1a", "is_disabled": 0, "is_reserved": 0, "lat": 39.08428833333333, "name": "90182ab40c568a85a248e14166e10a1a", "rental_uris": {"ios": "https://dc.lft.to/lastmile_qr_scan", "android": "https://dc.lft.to/lastmile_qr_scan"}, "type": "electric_bike", "fusion_lat": 0.0, "lon": -76.951391}, {"fusion_lon": 0.0, "bike_id": "2cbb48951f16edbbc83782c30e7e3811", "is_disabled": 0, "is_reserved": 0, "lat": 38.927133833333336, "name": "2cbb48951f16edbbc83782c30e7e3811", "rental_uris": {"ios": "https://dc.lft.to/lastmile_qr_scan", "android": "https://dc.lft.to/lastmile_qr_scan"}, "type": "electric_scooter", "fusion_lat": 0.0, "lon": -77.020798}, {"fusion_lon": 0.0, "bike_id": "20dee31f0cf5a08af98dbcd781a49be1", "is_disabled": 0, "is_reserved": 0, "lat": 38.9094545, "name": "20dee31f0cf5a08af98dbcd781a49be1", "rental_uris": {"ios": "https://dc.lft.to/lastmile_qr_scan", "android": "https://dc.lft.to/lastmile_qr_scan"}, "type": "electric_scooter", "fusion_lat": 0.0, "lon": -76.9359655}, {"fusion_lon": 0.0, "bike_id": "3c059fef9008b59921c71097685ecdd0", "is_disabled": 0, "is_reserved": 0, "lat": 38.914408, "name": "3c059fef9008b59921c71097685ecdd0", "rental_uris": {"ios": "https://dc.lft.to/lastmile_qr_scan", "android": "https://dc.lft.to/lastmile_qr_scan"}, "type": "electric_scooter", "fusion_lat": 0.0, "lon": -77.021765}, {"fusion_lon": 0.0, "bike_id": "47230f0fdb875b7efab6466e943e98ec", "is_disabled": 0, "is_reserved": 0, "lat": 38.90814316666667, "name": "47230f0fdb875b7efab6466e943e98ec", "rental_uris": {"ios": "https://dc.lft.to/lastmile_qr_scan", "android": "https://dc.lft.to/lastmile_qr_scan"}, "type": "electric_scooter", "fusion_lat": 0.0, "lon": -77.06367216666666}, {"fusion_lon": 0.0, "bike_id": "ce4a16288f52efdf7f65a4475fe555a5", "is_disabled": 0, "is_reserved": 0, "lat": 38.909606833333335, "name": "ce4a16288f52efdf7f65a4475fe555a5", "rental_uris": {"ios": "https://dc.lft.to/lastmile_qr_scan", "android": "https://dc.lft.to/lastmile_qr_scan"}, "type": "electric_scooter", "fusion_lat": 0.0, "lon": -77.02794216666666}, {"fusion_lon": 0.0, "bike_id": "8670e2a5e7462c404853ae907b221b82", "is_disabled": 0, "is_reserved": 0, "lat": 38.897299, "name": "8670e2a5e7462c404853ae907b221b82", "rental_uris": {"ios": "https://dc.lft.to/lastmile_qr_scan", "android": "https://dc.lft.to/lastmile_qr_scan"}, "type": "electric_scooter", "fusion_lat": 0.0, "lon": -77.04988383333334}, {"fusion_lon": 0.0, "bike_id": "245f8d688db5d773f3812d58c7654362", "is_disabled": 0, "is_reserved": 0, "lat": 38.931603333333335, "name": "245f8d688db5d773f3812d58c7654362", "rental_uris": {"ios": "https://dc.lft.to/lastmile_qr_scan", "android": "https://dc.lft.to/lastmile_qr_scan"}, "type": "electric_scooter", "fusion_lat": 0.0, "lon": -77.05611716666667}, {"fusion_lon": 0.0, "bike_id": "6baccfdfc67457c5d06bf6adfbaf00a5", "is_disabled": 0, "is_reserved": 0, "lat": 38.92961916666667, "name": "6baccfdfc67457c5d06bf6adfbaf00a5", "rental_uris": {"ios": "https://dc.lft.to/lastmile_qr_scan", "android": "https://dc.lft.to/lastmile_qr_scan"}, "type": "electric_scooter", "fusion_lat": 0.0, "lon": -77.03186683333334}, {"fusion_lon": 0.0, "bike_id": "4aff1a0df9672e6a60f4d4a4b967af0b", "is_disabled": 0, "is_reserved": 0, "lat": 38.9028215, "name": "4aff1a0df9672e6a60f4d4a4b967af0b", "rental_uris": {"ios": "https://dc.lft.to/lastmile_qr_scan", "android": "https://dc.lft.to/lastmile_qr_scan"}, "type": "electric_scooter", "fusion_lat": 0.0, "lon": -77.04025483333334}, {"fusion_lon": 0.0, "bike_id": "6e5b50db921d1fdfecdb4b1b162e6541", "is_disabled": 0, "is_reserved": 0, "lat": 38.904631, "name": "6e5b50db921d1fdfecdb4b1b162e6541", "rental_uris": {"ios": "https://dc.lft.to/lastmile_qr_scan", "android": "https://dc.lft.to/lastmile_qr_scan"}, "type": "electric_scooter", "fusion_lat": 0.0, "lon": -77.01672616666667}, {"fusion_lon": 0.0, "bike_id": "8c5762445a03771ba725dbf9dcdf1b01", "is_disabled": 0, "is_reserved": 0, "lat": 38.91990966666667, "name": "8c5762445a03771ba725dbf9dcdf1b01", "rental_uris": {"ios": "https://dc.lft.to/lastmile_qr_scan", "android": "https://dc.lft.to/lastmile_qr_scan"}, "type": "electric_scooter", "fusion_lat": 0.0, "lon": -77.02168133333333}, {"fusion_lon": 0.0, "bike_id": "7622f91a55003a875716ad5ce97ae73f", "is_disabled": 0, "is_reserved": 0, "lat": 38.88118883333333, "name": "7622f91a55003a875716ad5ce97ae73f", "rental_uris": {"ios": "https://dc.lft.to/lastmile_qr_scan", "android": "https://dc.lft.to/lastmile_qr_scan"}, "type": "electric_bike", "fusion_lat": 0.0, "lon": -77.01670383333334}, {"fusion_lon": 0.0, "bike_id": "08870e304af6d80454c8d1b1109cc8d3", "is_disabled": 0, "is_reserved": 0, "lat": 38.920608, "name": "08870e304af6d80454c8d1b1109cc8d3", "rental_uris": {"ios": "https://dc.lft.to/lastmile_qr_scan", "android": "https://dc.lft.to/lastmile_qr_scan"}, "type": "electric_scooter", "fusion_lat": 0.0, "lon": -77.07887133333334}, {"fusion_lon": 0.0, "bike_id": "af7ef03387f1a1f368064e7f20a4d0c6", "is_disabled": 0, "is_reserved": 0, "lat": 38.9059945, "name": "af7ef03387f1a1f368064e7f20a4d0c6", "rental_uris": {"ios": "https://dc.lft.to/lastmile_qr_scan", "android": "https://dc.lft.to/lastmile_qr_scan"}, "type": "electric_scooter", "fusion_lat": 0.0, "lon": -77.02609816666667}, {"fusion_lon": 0.0, "bike_id": "b50c4d56ab31d963551ac38baa757cf8", "is_disabled": 0, "is_reserved": 0, "lat": 38.89992983333333, "name": "b50c4d56ab31d963551ac38baa757cf8", "rental_uris": {"ios": "https://dc.lft.to/lastmile_qr_scan", "android": "https://dc.lft.to/lastmile_qr_scan"}, "type": "electric_scooter", "fusion_lat": 0.0, "lon": -77.02668466666667}, {"fusion_lon": 0.0, "bike_id": "0a5d6976dc3543d937dfe22fda492eee", "is_disabled": 0, "is_reserved": 0, "lat": 38.9051595, "name": "0a5d6976dc3543d937dfe22fda492eee", "rental_uris": {"ios": "https://dc.lft.to/lastmile_qr_scan", "android": "https://dc.lft.to/lastmile_qr_scan"}, "type": "electric_scooter", "fusion_lat": 0.0, "lon": -77.05003266666667}, {"fusion_lon": 0.0, "bike_id": "b1d5b73f0badb44cfd87e4f656f3b0fc", "is_disabled": 0, "is_reserved": 0, "lat": 38.89485916666667, "name": "b1d5b73f0badb44cfd87e4f656f3b0fc", "rental_uris": {"ios": "https://dc.lft.to/lastmile_qr_scan", "android": "https://dc.lft.to/lastmile_qr_scan"}, "type": "electric_scooter", "fusion_lat": 0.0, "lon": -77.0217965}, {"fusion_lon": 0.0, "bike_id": "463de08215bb1909b7c71f4b39778af4", "is_disabled": 0, "is_reserved": 0, "lat": 38.878626, "name": "463de08215bb1909b7c71f4b39778af4", "rental_uris": {"ios": "https://dc.lft.to/lastmile_qr_scan", "android": "https://dc.lft.to/lastmile_qr_scan"}, "type": "electric_scooter", "fusion_lat": 0.0, "lon": -77.00135116666667}, {"fusion_lon": 0.0, "bike_id": "e75c6d02132f116bed28559e9717466e", "is_disabled": 0, "is_reserved": 0, "lat": 38.914389666666665, "name": "e75c6d02132f116bed28559e9717466e", "rental_uris": {"ios": "https://dc.lft.to/lastmile_qr_scan", "android": "https://dc.lft.to/lastmile_qr_scan"}, "type": "electric_scooter", "fusion_lat": 0.0, "lon": -77.022908}, {"fusion_lon": 0.0, "bike_id": "8609a54f49bb68a63a127636062625d8", "is_disabled": 0, "is_reserved": 0, "lat": 38.91627166666667, "name": "8609a54f49bb68a63a127636062625d8", "rental_uris": {"ios": "https://dc.lft.to/lastmile_qr_scan", "android": "https://dc.lft.to/lastmile_qr_scan"}, "type": "electric_scooter", "fusion_lat": 0.0, "lon": -77.039614}, {"fusion_lon": 0.0, "bike_id": "3fedf1742e21261a989e2dce92886b9f", "is_disabled": 0, "is_reserved": 0, "lat": 38.92095166666667, "name": "3fedf1742e21261a989e2dce92886b9f", "rental_uris": {"ios": "https://dc.lft.to/lastmile_qr_scan", "android": "https://dc.lft.to/lastmile_qr_scan"}, "type": "electric_scooter", "fusion_lat": 0.0, "lon": -77.024074}, {"fusion_lon": 0.0, "bike_id": "222c701d745b6d714852e6c88f655da3", "is_disabled": 0, "is_reserved": 0, "lat": 38.9068765, "name": "222c701d745b6d714852e6c88f655da3", "rental_uris": {"ios": "https://dc.lft.to/lastmile_qr_scan", "android": "https://dc.lft.to/lastmile_qr_scan"}, "type": "electric_scooter", "fusion_lat": 0.0, "lon": -76.99965016666667}, {"fusion_lon": 0.0, "bike_id": "d8bd0bb307cb7029dd28797d3e56f685", "is_disabled": 0, "is_reserved": 0, "lat": 38.90566616666667, "name": "d8bd0bb307cb7029dd28797d3e56f685", "rental_uris": {"ios": "https://dc.lft.to/lastmile_qr_scan", "android": "https://dc.lft.to/lastmile_qr_scan"}, "type": "electric_scooter", "fusion_lat": 0.0, "lon": -77.03435016666667}, {"fusion_lon": 0.0, "bike_id": "1fd8c42ea215a533f1456dd4215d2180", "is_disabled": 0, "is_reserved": 0, "lat": 38.923239833333334, "name": "1fd8c42ea215a533f1456dd4215d2180", "rental_uris": {"ios": "https://dc.lft.to/lastmile_qr_scan", "android": "https://dc.lft.to/lastmile_qr_scan"}, "type": "electric_scooter", "fusion_lat": 0.0, "lon": -77.02123433333334}, {"fusion_lon": 0.0, "bike_id": "5fdb760cf9bd30a81a6f3665d13c15c5", "is_disabled": 0, "is_reserved": 0, "lat": 38.86079183333333, "name": "5fdb760cf9bd30a81a6f3665d13c15c5", "rental_uris": {"ios": "https://dc.lft.to/lastmile_qr_scan", "android": "https://dc.lft.to/lastmile_qr_scan"}, "type": "electric_scooter", "fusion_lat": 0.0, "lon": -76.98373833333333}, {"fusion_lon": 0.0, "bike_id": "25c4924e1df2c9427f529327c814c72f", "is_disabled": 0, "is_reserved": 0, "lat": 38.863357, "name": "25c4924e1df2c9427f529327c814c72f", "rental_uris": {"ios": "https://dc.lft.to/lastmile_qr_scan", "android": "https://dc.lft.to/lastmile_qr_scan"}, "type": "electric_bike", "fusion_lat": 0.0, "lon": -76.987326}, {"fusion_lon": 0.0, "bike_id": "0ed8d8be0094c884dbdf65e8c9d870ba", "is_disabled": 0, "is_reserved": 0, "lat": 38.9489065, "name": "0ed8d8be0094c884dbdf65e8c9d870ba", "rental_uris": {"ios": "https://dc.lft.to/lastmile_qr_scan", "android": "https://dc.lft.to/lastmile_qr_scan"}, "type": "electric_scooter", "fusion_lat": 0.0, "lon": -77.01854983333334}, {"fusion_lon": 0.0, "bike_id": "ade731accc8539048199709fb94aa602", "is_disabled": 0, "is_reserved": 0, "lat": 38.915690166666664, "name": "ade731accc8539048199709fb94aa602", "rental_uris": {"ios": "https://dc.lft.to/lastmile_qr_scan", "android": "https://dc.lft.to/lastmile_qr_scan"}, "type": "electric_scooter", "fusion_lat": 0.0, "lon": -77.0199095}, {"fusion_lon": 0.0, "bike_id": "d098e626e2a68df8aeff094fb27072bf", "is_disabled": 0, "is_reserved": 0, "lat": 38.917102666666665, "name": "d098e626e2a68df8aeff094fb27072bf", "rental_uris": {"ios": "https://dc.lft.to/lastmile_qr_scan", "android": "https://dc.lft.to/lastmile_qr_scan"}, "type": "electric_scooter", "fusion_lat": 0.0, "lon": -77.03869}, {"fusion_lon": 0.0, "bike_id": "186f97c6cae28d6c74ad30a082a435ab", "is_disabled": 0, "is_reserved": 0, "lat": 38.92409383333333, "name": "186f97c6cae28d6c74ad30a082a435ab", "rental_uris": {"ios": "https://dc.lft.to/lastmile_qr_scan", "android": "https://dc.lft.to/lastmile_qr_scan"}, "type": "electric_bike", "fusion_lat": 0.0, "lon": -77.0503675},