{"data": {"bikes": [{"lat": 38.920138666666666, "is_disabled": 0, "type": "electric_scooter", "lon": -77.03170283333333, "bike_id": "82fc0a2ad2f818b4d559a92c9bf56b59", "fusion_lat": 0.0, "name": "82fc0a2ad2f818b4d559a92c9bf56b59", "is_reserved": 0, "rental_uris": {"android": "https://dc.lft.to/lastmile_qr_scan", "ios": "https://dc.lft.to/lastmile_qr_scan"}, "fusion_lon": 0.0}, {"lat": 38.896148, "is_disabled": 0, "type": "electric_scooter", "lon": -76.956007, "bike_id": "3f2b2f730901f195719aeaf280575ec3", "fusion_lat": 0.0, "name": "3f2b2f730901f195719aeaf280575ec3", "is_reserved": 0, "rental_uris": {"android": "https://dc.lft.to/lastmile_qr_scan", "ios": "https://dc.lft.to/lastmile_qr_scan"}, "fusion_lon": 0.0}, {"lat": 38.918923, "is_disabled": 0, "type": "electric_scooter", "lon": -77.03905566666667, "bike_id": "ede10866c12caec701d4db594ba30336", "fusion_lat": 0.0, "name": "ede10866c12caec701d4db594ba30336", "is_reserved": 0, "rental_uris": {"android": "https://dc.lft.to/lastmile_qr_scan", "ios": "https://dc.lft.to/lastmile_qr_scan"}, "fusion_lon": 0.0}, {"lat": 38.91709933333333, "is_disabled": 0, "type": "electric_scooter", "lon": -77.03865983333333, "bike_id": "b5bb7c80bfd7b2b7955c394140a31605", "fusion_lat": 0.0, "name": "b5bb7c80bfd7b2b7955c394140a31605", "is_reserved": 0, "rental_uris": {"android": "https://dc.lft.to/lastmile_qr_scan", "ios": "https://dc.lft.to/lastmile_qr_scan"}, "fusion_lon": 0.0}, {"lat": 38.91396983333333, "is_disabled": 0, "type": "electric_scooter", "lon": -77.03059516666667, "bike_id": "60c0a04b93f4f1945e387967f548adc1", "fusion_lat": 0.0, "name": "60c0a04b93f4f1945e387967f548adc1", "is_reserved": 0, "rental_uris": {"android": "https://dc.lft.to/lastmile_qr_scan", "ios": "https://dc.lft.to/lastmile_qr_scan"}, "fusion_lon": 0.0}, {"lat": 38.902443, "is_disabled": 0, "type": "electric_scooter", "lon": -77.01756633333333, "bike_id": "bb0ecb568e0d0d8a86c90ab5e30f7b8e", "fusion_lat": 0.0, "name": "bb0ecb568e0d0d8a86c90ab5e30f7b8e", "is_reserved": 0, "rental_uris": {"android": "https://dc.lft.to/lastmile_qr_scan", "ios": "https://dc.lft.to/lastmile_qr_scan"}, "fusion_lon": 0.0}, {"lat": 38.902559833333335, "is_disabled": 0, "type": "electric_scooter", "lon": -77.046974, "bike_id": "7ba8d1c13c81a29c45dfeba9438abfe7", "fusion_lat": 0.0, "name": "7ba8d1c13c81a29c45dfeba9438abfe7", "is_reserved": 0, "rental_uris": {"android": "https://dc.lft.to/lastmile_qr_scan", "ios": "https://dc.lft.to/lastmile_qr_scan"}, "fusion_lon": 0.0}, {"lat": 38.904585166666664, "is_disabled": 0, "type": "electric_scooter", "lon": -77.00770666666666, "bike_id": "24007650b9c286010500ce22e9b8afe3", "fusion_lat": 0.0, "name": "24007650b9c286010500ce22e9b8afe3", "is_reserved": 0, "rental_uris": {"android": "https://dc.lft.to/lastmile_qr_scan", "ios": "https://dc.lft.to/lastmile_qr_scan"}, "fusion_lon": 0.0}, {"lat": 38.910604166666666, "is_disabled": 0, "type": "electric_scooter", "lon": -77.045822, "bike_id": "fbf163e2a9b55e4067ebe28d91abb155", "fusion_lat": 0.0, "name": "fbf163e2a9b55e4067ebe28d91abb155", "is_reserved": 0, "rental_uris": {"android": "https://dc.lft.to/lastmile_qr_scan", "ios": "https://dc.lft.to/lastmile_qr_scan"}, "fusion_lon": 0.0}, {"lat": 38.90141283333333, "is_disabled": 0, "type": "electric_scooter", "lon": -77.04162216666667, "bike_id": "8ed2e3da96f98e487d9f07f509998658", "fusion_lat": 0.0, "name": "8ed2e3da96f98e487d9f07f509998658", "is_reserved": 0, "rental_uris": {"android": "https://dc.lft.to/lastmile_qr_scan", "ios": "https://dc.lft.to/lastmile_qr_scan"}, "fusion_lon": 0.0}, {"lat": 38.9262975, "is_disabled": 0, "type": "electric_scooter", "lon": -77.03620083333334, "bike_id": "468286f7050b30762a750253115bd459", "fusion_lat": 0.0, "name": "468286f7050b30762a750253115bd459", "is_reserved": 0, "rental_uris": {"android": "https://dc.lft.to/lastmile_qr_scan", "ios": "https://dc.lft.to/lastmile_qr_scan"}, "fusion_lon": 0.0}, {"lat": 38.938889833333334, "is_disabled": 0, "type": "electric_scooter", "lon": -77.03221983333333, "bike_id": "290528d6a46a34263385b7bcd68b1826", "fusion_lat": 0.0, "name": "290528d6a46a34263385b7bcd68b1826", "is_reserved": 0, "rental_uris": {"android": "https://dc.lft.to/lastmile_qr_scan", "ios": "https://dc.lft.to/lastmile_qr_scan"}, "fusion_lon": 0.0}, {"lat": 38.924194666666665, "is_disabled": 0, "type": "electric_scooter", "lon": -77.0354985, "bike_id": "004c7ec21c146524f5dd07bdd873c1fb", "fusion_lat": 0.0, "name": "004c7ec21c146524f5dd07bdd873c1fb", "is_reserved": 0, "rental_uris": {"android": "https://dc.lft.to/lastmile_qr_scan", "ios": "https://dc.lft.to/lastmile_qr_scan"}, "fusion_lon": 0.0}, {"lat": 38.90014333333333, "is_disabled": 0, "type": "electric_scooter", "lon": -76.99870033333333, "bike_id": "2056e8efbbd37e010a1b37655aca26d3", "fusion_lat": 0.0, "name": "2056e8efbbd37e010a1b37655aca26d3", "is_reserved": 0, "rental_uris": {"android": "https://dc.lft.to/lastmile_qr_scan", "ios": "https://dc.lft.to/lastmile_qr_scan"}, "fusion_lon": 0.0}, {"lat": 38.886623166666666, "is_disabled": 0, "type": "electric_bike", "lon": -77.16235483333334, "bike_id": "0098e20530b4bad586dba7c087d33850", "fusion_lat": 0.0, "name": "0098e20530b4bad586dba7c087d33850", "is_reserved": 0, "rental_uris": {"android": "https://dc.lft.to/lastmile_qr_scan", "ios": "https://dc.lft.to/lastmile_qr_scan"}, "fusion_lon": 0.0}, {"lat": 38.93347383333333, "is_disabled": 0, "type": "electric_scooter", "lon": -77.057046, "bike_id": "ff0571d50904371a5f2a85103b2e6719", "fusion_lat": 0.0, "name": "ff0571d50904371a5f2a85103b2e6719", "is_reserved": 0, "rental_uris": {"android": "https://dc.lft.to/lastmile_qr_scan", "ios": "https://dc.lft.to/lastmile_qr_scan"}, "fusion_lon": 0.0}, {"lat": 38.907789333333334, "is_disabled": 0, "type": "electric_scooter", "lon": -77.038618, "bike_id": "d257972e52ef6acd5545a5ab923e0410", "fusion_lat": 0.0, "name": "d257972e52ef6acd5545a5ab923e0410", "is_reserved": 0, "rental_uris": {"android": "https://dc.lft.to/lastmile_qr_scan", "ios": "https://dc.lft.to/lastmile_qr_scan"}, "fusion_lon": 0.0}, {"lat": 39.030420166666666, "is_disabled": 0, "type": "electric_bike", "lon": -77.0947565, "bike_id": "18d256c0ab5d53017ee9bd1e8b366f89", "fusion_lat": 0.0, "name": "18d256c0ab5d53017ee9bd1e8b366f89", "is_reserved": 0, "rental_uris": {"android": "https://dc.lft.to/lastmile_qr_scan", "ios": "https://dc.lft.to/lastmile_qr_scan"}, "fusion_lon": 0.0}, {"lat": 38.872154333333334, "is_disabled": 0, "type": "electric_scooter", "lon": -77.01765016666667, "bike_id": "14f7f93cad9b36297648c81ea8e4aafd", "fusion_lat": 0.0, "name": "14f7f93cad9b36297648c81ea8e4aafd", "is_reserved": 0, "rental_uris": {"android": "https://dc.lft.to/lastmile_qr_scan", "ios": "https://dc.lft.to/lastmile_qr_scan"}, "fusion_lon": 0.0}, {"lat": 38.899804, "is_disabled": 0, "type": "electric_scooter", "lon": -77.0335545, "bike_id": "54d1584661a2f9d3bb87ca82bdb420b5", "fusion_lat": 0.0, "name": "54d1584661a2f9d3bb87ca82bdb420b5", "is_reserved": 0, "rental_uris": {"android": "https://dc.lft.to/lastmile_qr_scan", "ios": "https://dc.lft.to/lastmile_qr_scan"}, "fusion_lon": 0.0}, {"lat": 38.9168435, "is_disabled": 0, "type": "electric_scooter", "lon": -77.02946816666666, "bike_id": "9c8acb693351ac55174a3a449d4de81d", "fusion_lat": 0.0, "name": "9c8acb693351ac55174a3a449d4de81d", "is_reserved": 0, "rental_uris": {"android": "https://dc.lft.to/lastmile_qr_scan", "ios": "https://dc.lft.to/lastmile_qr_scan"}, "fusion_lon": 0.0}, {"lat": 39.02435966666667, "is_disabled": 0, "type": "electric_bike", "lon": -77.13098283333333, "bike_id": "a501747ae1d665ad0764040dc2940ac6", "fusion_lat": 0.0, "name": "a501747ae1d665ad0764040dc2940ac6", "is_reserved": 0, "rental_uris": {"android": "https://dc.lft.to/lastmile_qr_scan", "ios": "https://dc.lft.to/lastmile_qr_scan"}, "fusion_lon": 0.0}, {"lat": 38.94519583333334, "is_disabled": 0, "type": "electric_scooter", "lon": -77.06392583333333, "bike_id": "97e150c225a469d410c4a7704dfff3a0", "fusion_lat": 0.0, "name": "97e150c225a469d410c4a7704dfff3a0", "is_reserved": 0, "rental_uris": {"android": "https://dc.lft.to/lastmile_qr_scan", "ios": "https://dc.lft.to/lastmile_qr_scan"}, "fusion_lon": 0.0}, {"lat": 38.9111795, "is_disabled": 0, "type": "electric_scooter", "lon": -77.038357, "bike_id": "bc7baf5f56144d728aa0e20e9a5ce499", "fusion_lat": 0.0, "name": "bc7baf5f56144d728aa0e20e9a5ce499", "is_reserved": 0, "rental_uris": {"android": "https://dc.lft.to/lastmile_qr_scan", "ios": "https://dc.lft.to/lastmile_qr_scan"}, "fusion_lon": 0.0}, {"lat": 38.965044, "is_disabled": 0, "type": "electric_bike", "lon": -76.93841183333333, "bike_id": "d11499235dfd353a54bf119ab190ee58", "fusion_lat": 0.0, "name": "d11499235dfd353a54bf119ab190ee58", "is_reserved": 0, "rental_uris": {"android": "https://dc.lft.to/lastmile_qr_scan", "ios": "https://dc.lft.to/lastmile_qr_scan"}, "fusion_lon": 0.0}, {"lat": 38.9105585, "is_disabled": 0, "type": "electric_scooter", "lon": -77.04092933333334, "bike_id": "fe1616c766bb770a8c34fe6594d71036", "fusion_lat": 0.0, "name": "fe1616c766bb770a8c34fe6594d71036", "is_reserved": 0, "rental_uris": {"android": "https://dc.lft.to/lastmile_qr_scan", "ios": "https://dc.lft.to/lastmile_qr_scan"}, "fusion_lon": 0.0}, {"lat": 38.88583883333333, "is_disabled": 0, "type": "electric_scooter", "lon": -77.01226016666666, "bike_id": "eb44e3384dee2493db45bacf69da8152", "fusion_lat": 0.0, "name": "eb44e3384dee2493db45bacf69da8152", "is_reserved": 0, "rental_uris": {"android": "https://dc.lft.to/lastmile_qr_scan", "ios": "https://dc.lft.to/lastmile_qr_scan"}, "fusion_lon": 0.0}, {"lat": 38.93612266666667, "is_disabled": 0, "type": "electric_scooter", "lon": -77.03211366666666, "bike_id": "a3c8cf9735e33d0e3649923e5fe6d038", "fusion_lat": 0.0, "name": "a3c8cf9735e33d0e3649923e5fe6d038", "is_reserved": 0, "rental_uris": {"android": "https://dc.lft.to/lastmile_qr_scan", "ios": "https://dc.lft.to/lastmile_qr_scan"}, "fusion_lon": 0.0}, {"lat": 38.862342166666664, "is_disabled": 0, "type": "electric_scooter", "lon": -76.995509, "bike_id": "9ffe2f0846121d13fea4cdbf92c46998", "fusion_lat": 0.0, "name": "9ffe2f0846121d13fea4cdbf92c46998", "is_reserved": 0, "rental_uris": {"android": "https://dc.lft.to/lastmile_qr_scan", "ios": "https://dc.lft.to/lastmile_qr_scan"}, "fusion_lon": 0.0}, {"lat": 38.956225333333336, "is_disabled": 0, "type": "electric_bike", "lon": -76.93884633333333, "bike_id": "d0a5c3f54325ffd868a5e4d1feed82d5", "fusion_lat": 0.0, "name": "d0a5c3f54325ffd868a5e4d1feed82d5", "is_reserved": 0, "rental_uris": {"android": "https://dc.lft.to/lastmile_qr_scan", "ios": "https://dc.lft.to/lastmile_qr_scan"}, "fusion_lon": 0.0}, {"lat": 38.905607, "is_disabled": 0, "type": "electric_scooter", "lon": -77.0058965, "bike_id": "f6c558074daa6edafb9790c7fe977052", "fusion_lat": 0.0, "name": "f6c558074daa6edafb9790c7fe977052", "is_reserved": 0, "rental_uris": {"android": "https://dc.lft.to/lastmile_qr_scan", "ios": "https://dc.lft.to/lastmile_qr_scan"}, "fusion_lon": 0.0}, {"lat": 38.9246175, "is_disabled": 0, "type": "electric_scooter", "lon": -77.0523115, "bike_id": "b991331a8be118d57f723d7735b65cd3", "fusion_lat": 0.0, "name": "b991331a8be118d57f723d7735b65cd3", "is_reserved": 0, "rental_uris": {"android": "https://dc.lft.to/lastmile_qr_scan", "ios": "https://dc.lft.to/lastmile_qr_scan"}, "fusion_lon": 0.0}, {"lat": 38.916888166666666, "is_disabled": 0, "type": "electric_scooter", "lon": -77.022828, "bike_id": "86017101044b0442e378487166469e58", "fusion_lat": 0.0, "name": "86017101044b0442e378487166469e58", "is_reserved": 0, "rental_uris": {"android": "https://dc.lft.to/lastmile_qr_scan", "ios": "https://dc.lft.to/lastmile_qr_scan"}, "fusion_lon": 0.0}, {"lat": 38.90617916666667, "is_disabled": 0, "type": "electric_scooter", "lon": -77.01286866666666, "bike_id": "b0ef21887aff89826fdf88960ba6b808", "fusion_lat": 0.0, "name": "b0ef21887aff89826fdf88960ba6b808", "is_reserved": 0, "rental_uris": {"android": "https://dc.lft.to/lastmile_qr_scan", "ios": "https://dc.lft.to/lastmile_qr_scan"}, "fusion_lon": 0.0}, {"lat": 38.904295833333336, "is_disabled": 0, "type": "electric_scooter", "lon": -77.05329616666667, "bike_id": "4b7a0c688e40af86babdedf196ebb873", "fusion_lat": 0.0, "name": "4b7a0c688e40af86babdedf196ebb873", "is_reserved": 0, "rental_uris": {"android": "https://dc.lft.to/lastmile_qr_scan", "ios": "https://dc.lft.to/lastmile_qr_scan"}, "fusion_lon": 0.0}, {"lat": 38.885202666666665, "is_disabled": 0, "type": "electric_scooter", "lon": -77.00274466666667, "bike_id": "2595362c8dd5be525249ab94f3931f54", "fusion_lat": 0.0, "name": "2595362c8dd5be525249ab94f3931f54", "is_reserved": 0, "rental_uris": {"android": "https://dc.lft.to/lastmile_qr_scan", "ios": "https://dc.lft.to/lastmile_qr_scan"}, "fusion_lon": 0.0}, {"lat": 38.900398833333334, "is_disabled": 0, "type": "electric_scooter", "lon": -76.98838616666667, "bike_id": "43fbea78938f45b41ac6aa175778840c", "fusion_lat": 0.0, "name": "43fbea78938f45b41ac6aa175778840c", "is_reserved": 0, "rental_uris": {"android": "https://dc.lft.to/lastmile_qr_scan", "ios": "https://dc.lft.to/lastmile_qr_scan"}, "fusion_lon": 0.0}, {"lat": 38.8957175, "is_disabled": 0, "type": "electric_scooter", "lon": -77.03346316666666, "bike_id": "9d002ccb43ebfe3c13f24fc553825cd3", "fusion_lat": 0.0, "name": "9d002ccb43ebfe3c13f24fc553825cd3", "is_reserved": 0, "rental_uris": {"android": "https://dc.lft.to/lastmile_qr_scan", "ios": "https://dc.lft.to/lastmile_qr_scan"}, "fusion_lon": 0.0}, {"lat": 38.897709666666664, "is_disabled": 0, "type": "electric_bike", "lon": -76.90436916666667, "bike_id": "de967303e8c541df658236482ec3f9c3", "fusion_lat": 0.0, "name": "de967303e8c541df658236482ec3f9c3", "is_reserved": 0, "rental_uris": {"android": "https://dc.lft.to/lastmile_qr_scan", "ios": "https://dc.lft.to/lastmile_qr_scan"}, "fusion_lon": 0.0}, {"lat": 38.8996915, "is_disabled": 0, "type": "electric_scooter", "lon": -77.050942, "bike_id": "69c6d44f0bfe1794af6cdf731452be06", "fusion_lat": 0.0, "name": "69c6d44f0bfe1794af6cdf731452be06", "is_reserved": 0, "rental_uris": {"android": "https://dc.lft.to/lastmile_qr_scan", "ios": "https://dc.lft.to/lastmile_qr_scan"}, "fusion_lon": 0.0}, {"lat": 38.901587166666665, "is_disabled": 0, "type": "electric_scooter", "lon": -76.986327, "bike_id": "043860c5eb5a2819e5b7da13ae035641", "fusion_lat": 0.0, "name": "043860c5eb5a2819e5b7da13ae035641", "is_reserved": 0, "rental_uris": {"android": "https://dc.lft.to/lastmile_qr_scan", "ios": "https://dc.lft.to/lastmile_qr_scan"}, "fusion_lon": 0.0}, {"lat": 38.86625816666667, "is_disabled": 0, "type": "electric_scooter", "lon": -76.98717866666667, "bike_id": "78860afde24f749fc0b35c9581a543ac", "fusion_lat": 0.0, "name": "78860afde24f749fc0b35c9581a543ac", "is_reserved": 0, "rental_uris": {"android": "https://dc.lft.to/lastmile_qr_scan", "ios": "https://dc.lft.to/lastmile_qr_scan"}, "fusion_lon": 0.0}, {"lat": 38.95706966666667, "is_disabled": 0, "type": "electric_scooter", "lon": -77.070899, "bike_id": "ef48b3467a0ed1b959495334b411fd2e", "fusion_lat": 0.0, "name": "ef48b3467a0ed1b959495334b411fd2e", "is_reserved": 0, "rental_uris": {"android": "https://dc.lft.to/lastmile_qr_scan", "ios": "https://dc.lft.to/lastmile_qr_scan"}, "fusion_lon": 0.0}, {"lat": 38.89240916666667, "is_disabled": 0, "type": "electric_scooter", "lon": -77.028067, "bike_id": "2f8b9c373f53f9bf88ca7793f819b2a2", "fusion_lat": 0.0, "name": "2f8b9c373f53f9bf88ca7793f819b2a2", "is_reserved": 0, "rental_uris": {"android": "https://dc.lft.to/lastmile_qr_scan", "ios": "https://dc.lft.to/lastmile_qr_scan"}, "fusion_lon": 0.0}, {"lat": 38.842726166666665, "is_disabled": 0, "type": "electric_bike", "lon": -76.988449, "bike_id": "2101a9c54c1eb4f288ac11451a843e34", "fusion_lat": 0.0, "name": "2101a9c54c1eb4f288ac11451a843e34", "is_reserved": 0, "rental_uris": {"android": "https://dc.lft.to/lastmile_qr_scan", "ios": "https://dc.lft.to/lastmile_qr_scan"}, "fusion_lon": 0.0}, {"lat": 38.873165666666665, "is_disabled": 0, "type": "electric_bike", "lon": -76.99158083333333, "bike_id": "2fc9b422aeae0887309a2805e5b737dd", "fusion_lat": 0.0, "name": "2fc9b422aeae0887309a2805e5b737dd", "is_reserved": 0, "rental_uris": {"android": "https://dc.lft.to/lastmile_qr_scan", "ios": "https://dc.lft.to/lastmile_qr_scan"}, "fusion_lon": 0.0}, {"lat": 38.9513935, "is_disabled": 0, "type": "electric_scooter", "lon": -77.01331783333333, "bike_id": "ee9c2d61170a04933ee10a9beca2adef", "fusion_lat": 0.0, "name": "ee9c2d61170a04933ee10a9beca2adef", "is_reserved": 0, "rental_uris": {"android": "https://dc.lft.to/lastmile_qr_scan", "ios": "https://dc.lft.to/lastmile_qr_scan"}, "fusion_lon": 0.0}, {"lat": 38.91335083333333, "is_disabled": 0, "type": "electric_scooter", "lon": -77.0312215, "bike_id": "cb4c2af324fb8be7922bd8f3c3cad163", "fusion_lat": 0.0, "name": "cb4c2af324fb8be7922bd8f3c3cad163", "is_reserved": 0, "rental_uris": {"android": "https://dc.lft.to/lastmile_qr_scan", "ios": "https://dc.lft.to/lastmile_qr_scan"}, "fusion_lon": 0.0}, {"lat": 38.903106333333334, "is_disabled": 0, "type": "electric_scooter", "lon": -76.97806316666667, "bike_id": "2db1e63cf1bda08ca8ed5f7a658a8abc", "fusion_lat": 0.0, "name": "2db1e63cf1bda08ca8ed5f7a658a8abc", "is_reserved": 0, "rental_uris": {"android": "https://dc.lft.to/lastmile_qr_scan", "ios": "https://dc.lft.to/lastmile_qr_scan"}, "fusion_lon": 0.0}, {"lat": 38.901251, "is_disabled": 0, "type": "electric_scooter", "lon": -76.99744016666666, "bike_id": "312523201924a4bbffc500562c97700b", "fusion_lat": 0.0, "name": "312523201924a4bbffc500562c97700b", "is_reserved": 0, "rental_uris": {"android": "https://dc.lft.to/lastmile_qr_scan", "ios": "https://dc.lft.to/lastmile_qr_scan"}, "fusion_lon": 0.0}, {"lat": 38.894939666666666, "is_disabled": 0, "type": "electric_scooter", "lon": -77.02162483333333, "bike_id": "a4f953a2d601e625985cdeea404cfa7b", "fusion_lat": 0.0, "name": "a4f953a2d601e625985cdeea404cfa7b", "is_reserved": 0, "rental_uris": {"android": "https://dc.lft.to/lastmile_qr_scan", "ios": "https://dc.lft.to/lastmile_qr_scan"}, "fusion_lon": 0.0}, {"lat": 38.91789416666667, "is_disabled": 0, "type": "electric_scooter", "lon": -77.040707, "bike_id": "f485f1e42dcfa8221002d878b9d83284", "fusion_lat": 0.0, "name": "f485f1e42dcfa8221002d878b9d83284", "is_reserved": 0, "rental_uris": {"android": "https://dc.lft.to/lastmile_qr_scan", "ios": "https://dc.lft.to/lastmile_qr_scan"}, "fusion_lon": 0.0}, {"lat": 38.907212333333334, "is_disabled": 0, "type": "electric_scooter", "lon": -77.04753383333333, "bike_id": "3d6b2dc281ab57687bcd8742cc7b7132", "fusion_lat": 0.0, "name": "3d6b2dc281ab57687bcd8742cc7b7132", "is_reserved": 0, "rental_uris": {"android": "https://dc.lft.to/lastmile_qr_scan", "ios": "https://dc.lft.to/lastmile_qr_scan"}, "fusion_lon": 0.0}, {"lat": 38.970884833333336, "is_disabled": 0, "type": "electric_bike", "lon": -77.06966166666666, "bike_id": "ab497180a185015970772ee74b631106", "fusion_lat": 0.0, "name": "ab497180a185015970772ee74b631106", "is_reserved": 0, "rental_uris": {"android": "https://dc.lft.to/lastmile_qr_scan", "ios": "https://dc.lft.to/lastmile_qr_scan"}, "fusion_lon": 0.0}, {"lat": 38.90650216666667, "is_disabled": 0, "type": "electric_scooter", "lon": -77.0250265, "bike_id": "cf7cf6341b6c538429364ef8a219436f", "fusion_lat": 0.0, "name": "cf7cf6341b6c538429364ef8a219436f", "is_reserved": 0, "rental_uris": {"android": "https://dc.lft.to/lastmile_qr_scan", "ios": "https://dc.lft.to/lastmile_qr_scan"}, "fusion_lon": 0.0}, {"lat": 38.91558966666667, "is_disabled": 0, "type": "electric_scooter", "lon": -77.0487585, "bike_id": "0fecee39d2242aaabbdf08a0e0d0aff2", "fusion_lat": 0.0, "name": "0fecee39d2242aaabbdf08a0e0d0aff2", "is_reserved": 0, "rental_uris": {"android": "https://dc.lft.to/lastmile_qr_scan", "ios": "https://dc.lft.to/lastmile_qr_scan"}, "fusion_lon": 0.0}, {"lat": 38.88498716666667, "is_disabled": 0, "type": "electric_scooter", "lon": -77.01547983333333, "bike_id": "284ea71b0daf8f843095672f7d9dcf4c", "fusion_lat": 0.0, "name": "284ea71b0daf8f843095672f7d9dcf4c", "is_reserved": 0, "rental_uris": {"android": "https://dc.lft.to/lastmile_qr_scan", "ios": "https://dc.lft.to/lastmile_qr_scan"}, "fusion_lon": 0.0}, {"lat": 38.92592766666667, "is_disabled": 0, "type": "electric_scooter", "lon": -77.00474983333334, "bike_id": "ca7774e36e79e5756511c4664b3edaa3", "fusion_lat": 0.0, "name": "ca7774e36e79e5756511c4664b3edaa3", "is_reserved": 0, "rental_uris": {"android": "https://dc.lft.to/lastmile_qr_scan", "ios": "https://dc.lft.to/lastmile_qr_scan"}, "fusion_lon": 0.0}, {"lat": 38.9353585, "is_disabled": 0, "type": "electric_scooter", "lon": -77.02352266666666, "bike_id": "58777f851cd424d2d8e542a279aa9859", "fusion_lat": 0.0, "name": "58777f851cd424d2d8e542a279aa9859", "is_reserved": 0, "rental_uris": {"android": "https://dc.lft.to/lastmile_qr_scan", "ios": "https://dc.lft.to/lastmile_qr_scan"}, "fusion_lon": 0.0}, {"lat": 38.91984166666667, "is_disabled": 0, "type": "electric_scooter", "lon": -77.04172316666667, "bike_id": "a0396d1c28dc13845067e42ace5b592f", "fusion_lat": 0.0, "name": "a0396d1c28dc13845067e42ace5b592f", "is_reserved": 0, "rental_uris": {"android": "https://dc.lft.to/lastmile_qr_scan", "ios": "https://dc.lft.to/lastmile_qr_scan"}, "fusion_lon": 0.0}, {"lat": 38.89877283333333, "is_disabled": 0, "type": "electric_scooter", "lon": -76.931857, "bike_id": "37906856d5f30eddb0c089437b5c59e2", "fusion_lat": 0.0, "name": "37906856d5f30eddb0c089437b5c59e2", "is_reserved": 0, "rental_uris": {"android": "https://dc.lft.to/lastmile_qr_scan", "ios": "https://dc.lft.to/lastmile_qr_scan"}, "fusion_lon": 0.0}, {"lat": 38.918853666666664, "is_disabled": 0, "type": "electric_scooter", "lon": -77.0473545, "bike_id": "df7f942de1a28451b582fb0276b3a4e9", "fusion_lat": 0.0, "name": "df7f942de1a28451b582fb0276b3a4e9", "is_reserved": 0, "rental_uris": {"android": "https://dc.lft.to/lastmile_qr_scan", "ios": "https://dc.lft.to/lastmile_qr_scan"}, "fusion_lon": 0.0}, {"lat": 38.8925015, "is_disabled": 0, "type": "electric_scooter", "lon": -77.039575, "bike_id": "f25f0c616314a476cbb06433ba0ebc4f", "fusion_lat": 0.0, "name": "f25f0c616314a476cbb06433ba0ebc4f", "is_reserved": 0, "rental_uris": {"android": "https://dc.lft.to/lastmile_qr_scan", "ios": "https://dc.lft.to/lastmile_qr_scan"}, "fusion_lon": 0.0}, {"lat": 38.8909325, "is_disabled": 0, "type": "electric_scooter", "lon": -76.94295416666667, "bike_id": "b54c857a132170c11dafb2f4c0c48fa0", "fusion_lat": 0.0, "name": "b54c857a132170c11dafb2f4c0c48fa0", "is_reserved": 0, "rental_uris": {"android": "https://dc.lft.to/lastmile_qr_scan", "ios": "https://dc.lft.to/lastmile_qr_scan"}, "fusion_lon": 0.0}, {"lat": 38.95277466666667, "is_disabled": 0, "type": "electric_scooter", "lon": -77.03653416666667, "bike_id": "87c2a1fc4a6fd9a93f51a1196a16218c", "fusion_lat": 0.0, "name": "87c2a1fc4a6fd9a93f51a1196a16218c", "is_reserved": 0, "rental_uris": {"android": "https://dc.lft.to/lastmile_qr_scan", "ios": "https://dc.lft.to/lastmile_qr_scan"}, "fusion_lon": 0.0}, {"lat": 38.91601283333333, "is_disabled": 0, "type": "electric_scooter", "lon": -77.07557983333334, "bike_id": "92b1fdcccf309634571658a5b9a8c86f", "fusion_lat": 0.0, "name": "92b1fdcccf309634571658a5b9a8c86f", "is_reserved": 0, "rental_uris": {"android": "https://dc.lft.to/lastmile_qr_scan", "ios": "https://dc.lft.to/lastmile_qr_scan"}, "fusion_lon": 0.0}, {"lat": 38.92469033333333, "is_disabled": 0, "type": "electric_bike", "lon": -77.20840083333333, "bike_id": "5ffdccbcbd9eb1e74e79fd91dc039d48", "fusion_lat": 0.0, "name": "5ffdccbcbd9eb1e74e79fd91dc039d48", "is_reserved": 0, "rental_uris": {"android": "https://dc.lft.to/lastmile_qr_scan", "ios": "https://dc.lft.to/lastmile_qr_scan"}, "fusion_lon": 0.0}, {"lat": 38.929457166666666, "is_disabled": 0, "type": "electric_scooter", "lon": -77.07033683333333, "bike_id": "e56fcb32f89f1c4b3e62453447a9e7da", "fusion_lat": 0.0, "name": "e56fcb32f89f1c4b3e62453447a9e7da", "is_reserved": 0, "rental_uris": {"android": "https://dc.lft.to/lastmile_qr_scan", "ios": "https://dc.lft.to/lastmile_qr_scan"}, "fusion_lon": 0.0}, {"lat": 38.96392633333333, "is_disabled": 0, "type": "electric_scooter", "lon": -77.025885, "bike_id": "3157d4030cb2976086ffc2ea7322491f", "fusion_lat": 0.0, "name": "3157d4030cb2976086ffc2ea7322491f", "is_reserved": 0, "rental_uris": {"android": "https://dc.lft.to/lastmile_qr_scan", "ios": "https://dc.lft.to/lastmile_qr_scan"}, "fusion_lon": 0.0}, {"lat": 38.90237616666667, "is_disabled": 0, "type": "electric_scooter", "lon": -77.00528766666666, "bike_id": "9c6c58450f50eec659b8f7c72866a084", "fusion_lat": 0.0, "name": "9c6c58450f50eec659b8f7c72866a084", "is_reserved": 0, "rental_uris": {"android": "https://dc.lft.to/lastmile_qr_scan", "ios": "https://dc.lft.to/lastmile_qr_scan"}, "fusion_lon": 0.0}, {"lat": 38.9292655, "is_disabled": 0, "type": "electric_scooter", "lon": -77.03261983333333, "bike_id": "2fded3e420bf48fd8f9ca523144e754f", "fusion_lat": 0.0, "name": "2fded3e420bf48fd8f9ca523144e754f", "is_reserved": 0, "rental_uris": {"android": "https://dc.lft.to/lastmile_qr_scan", "ios": "https://dc.lft.to/lastmile_qr_scan"}, "fusion_lon": 0.0}, {"lat": 38.8774725, "is_disabled": 0, "type": "electric_bike", "lon": -76.99516116666666, "bike_id": "538b6dabc461857eb74fb8d910e7fb33", "fusion_lat": 0.0, "name": "538b6dabc461857eb74fb8d910e7fb33", "is_reserved": 0, "rental_uris": {"android": "https://dc.lft.to/lastmile_qr_scan", "ios": "https://dc.lft.to/lastmile_qr_scan"}, "fusion_lon": 0.0}, {"lat": 38.92711466666667, "is_disabled": 0, "type": "electric_scooter", "lon": -77.02096633333333, "bike_id": "7dc928b2f54ab12fde5914e1221d8b43", "fusion_lat": 0.0, "name": "7dc928b2f54ab12fde5914e1221d8b43", "is_reserved": 0, "rental_uris": {"android": "https://dc.lft.to/lastmile_qr_scan", "ios": "https://dc.lft.to/lastmile_qr_scan"}, "fusion_lon": 0.0}, {"lat": 38.900367333333335, "is_disabled": 0, "type": "electric_scooter", "lon": -77.0058325, "bike_id": "6fd29900a654c96218cf4c8e4f917e15", "fusion_lat": 0.0, "name": "6fd29900a654c96218cf4c8e4f917e15", "is_reserved": 0, "rental_uris": {"android": "https://dc.lft.to/lastmile_qr_scan", "ios": "https://dc.lft.to/lastmile_qr_scan"}, "fusion_lon": 0.0}, {"lat": 38.85806483333333, "is_disabled": 0, "type": "electric_scooter", "lon": -76.98653466666667, "bike_id": "686b0f2f752a3b231cc9f6f6b8804dce", "fusion_lat": 0.0, "name": "686b0f2f752a3b231cc9f6f6b8804dce", "is_reserved": 0, "rental_uris": {"android": "https://dc.lft.to/lastmile_qr_scan", "ios": "https://dc.lft.to/lastmile_qr_scan"}, "fusion_lon": 0.0}, {"lat": 38.9446765, "is_disabled": 0, "type": "electric_scooter", "lon": -77.06038166666667, "bike_id": "ffe55abd5eeda8346ee767f1ba52a240", "fusion_lat": 0.0, "name": "ffe55abd5eeda8346ee767f1ba52a240", "is_reserved": 0, "rental_uris": {"android": "https://dc.lft.to/lastmile_qr_scan", "ios": "https://dc.lft.to/lastmile_qr_scan"}, "fusion_lon": 0.0}, {"lat": 38.917310666666665, "is_disabled": 0, "type": "electric_scooter", "lon": -77.036582, "bike_id": "22bf119de28d81c9a762dea3da0dbde4", "fusion_lat": 0.0, "name": "22bf119de28d81c9a762dea3da0dbde4", "is_reserved": 0, "rental_uris": {"android": "https://dc.lft.to/lastmile_qr_scan", "ios": "https://dc.lft.to/lastmile_qr_scan"}, "fusion_lon": 0.0}, {"lat": 38.92212216666667, "is_disabled": 0, "type": "electric_scooter", "lon": -77.03777916666667, "bike_id": "ed8916d2eb4b81c89b5a6e567c50ad9e", "fusion_lat": 0.0, "name": "ed8916d2eb4b81c89b5a6e567c50ad9e", "is_reserved": 0, "rental_uris": {"android": "https://dc.lft.to/lastmile_qr_scan", "ios": "https://dc.lft.to/lastmile_qr_scan"}, "fusion_lon": 0.0}, {"lat": 38.916924, "is_disabled": 0, "type": "electric_scooter", "lon": -77.045898, "bike_id": "d8f6bc9e258e1fc39f07a679021aed8e", "fusion_lat": 0.0, "name": "d8f6bc9e258e1fc39f07a679021aed8e", "is_reserved": 0, "rental_uris": {"android": "https://dc.lft.to/lastmile_qr_scan", "ios": "https://dc.lft.to/lastmile_qr_scan"}, "fusion_lon": 0.0}, {"lat": 38.932671666666664, "is_disabled": 0, "type": "electric_scooter", "lon": -77.0326675, "bike_id": "54164f9399d5414b9530fd6a20eb8f4d", "fusion_lat": 0.0, "name": "54164f9399d5414b9530fd6a20eb8f4d", "is_reserved": 0, "rental_uris": {"android": "https://dc.lft.to/lastmile_qr_scan", "ios": "https://dc.lft.to/lastmile_qr_scan"}, "fusion_lon": 0.0}, {"lat": 38.882356, "is_disabled": 0, "type": "electric_scooter", "lon": -76.990928, "bike_id": "42a31604a32649febf566559bc768e14", "fusion_lat": 0.0, "name": "42a31604a32649febf566559bc768e14", "is_reserved": 0, "rental_uris": {"android": "https://dc.lft.to/lastmile_qr_scan", "ios": "https://dc.lft.to/lastmile_qr_scan"}, "fusion_lon": 0.0}, {"lat": 38.91560583333333, "is_disabled": 0, "type": "electric_scooter", "lon": -77.031511, "bike_id": "ae2ecdcb456bc6cbeba9496c0eeac294", "fusion_lat": 0.0, "name": "ae2ecdcb456bc6cbeba9496c0eeac294", "is_reserved": 0, "rental_uris": {"android": "https://dc.lft.to/lastmile_qr_scan", "ios": "https://dc.lft.to/lastmile_qr_scan"}, "fusion_lon": 0.0}, {"lat": 38.911037, "is_disabled": 0, "type": "electric_scooter", "lon": -77.03085733333333, "bike_id": "914f8986235701062732a57493dc4db8", "fusion_lat": 0.0, "name": "914f8986235701062732a57493dc4db8", "is_reserved": 0, "rental_uris": {"android": "https://dc.lft.to/lastmile_qr_scan", "ios": "https://dc.lft.to/lastmile_qr_scan"}, "fusion_lon": 0.0}, {"lat": 38.916934499999996, "is_disabled": 0, "type": "electric_scooter", "lon": -77.023117, "bike_id": "8d41cea235a7c0c4c8f60bc46a7b485c", "fusion_lat": 0.0, "name": "8d41cea235a7c0c4c8f60bc46a7b485c", "is_reserved": 0, "rental_uris": {"android": "https://dc.lft.to/lastmile_qr_scan", "ios": "https://dc.lft.to/lastmile_qr_scan"}, "fusion_lon": 0.0}, {"lat": 38.857905, "is_disabled": 0, "type": "electric_bike", "lon": -77.0996275, "bike_id": "f1b959554af74b941fa8d2acdbe71d00", "fusion_lat": 0.0, "name": "f1b959554af74b941fa8d2acdbe71d00", "is_reserved": 0, "rental_uris": {"android": "https://dc.lft.to/lastmile_qr_scan", "ios": "https://dc.lft.to/lastmile_qr_scan"}, "fusion_lon": 0.0}, {"lat": 38.87689533333333, "is_disabled": 0, "type": "electric_scooter", "lon": -77.017571, "bike_id": "87b76f5b325a55268996d972b661dcae", "fusion_lat": 0.0, "name": "87b76f5b325a55268996d972b661dcae", "is_reserved": 0, "rental_uris": {"android": "https://dc.lft.to/lastmile_qr_scan", "ios": "https://dc.lft.to/lastmile_qr_scan"}, "fusion_lon": 0.0}, {"lat": 38.91543766666667, "is_disabled": 0, "type": "electric_scooter", "lon": -77.03182866666667, "bike_id": "dc492f016501225d8e8299c03c2e5d50", "fusion_lat": 0.0, "name": "dc492f016501225d8e8299c03c2e5d50", "is_reserved": 0, "rental_uris": {"android": "https://dc.lft.to/lastmile_qr_scan", "ios": "https://dc.lft.to/lastmile_qr_scan"}, "fusion_lon": 0.0}, {"lat": 38.891424, "is_disabled": 0, "type": "electric_bike", "lon": -77.11301716666667, "bike_id": "a48f28daa5cba36a34c2b743540beedf", "fusion_lat": 0.0, "name": "a48f28daa5cba36a34c2b743540beedf", "is_reserved": 0, "rental_uris": {"android": "https://dc.lft.to/lastmile_qr_scan", "ios": "https://dc.lft.to/lastmile_qr_scan"}, "fusion_lon": 0.0}, {"lat": 38.90820316666667, "is_disabled": 0, "type": "electric_scooter", "lon": -76.99679, "bike_id": "f3f0377951de7470929297ff0eba8691", "fusion_lat": 0.0, "name": "f3f0377951de7470929297ff0eba8691", "is_reserved": 0, "rental_uris": {"android": "https://dc.lft.to/lastmile_qr_scan", "ios": "https://dc.lft.to/lastmile_qr_scan"}, "fusion_lon": 0.0}, {"lat": 38.92679433333333, "is_disabled": 0, "type": "electric_scooter", "lon": -77.00740083333334, "bike_id": "5f08147c3c0b456f6f0ccd6cf8075912", "fusion_lat": 0.0, "name": "5f08147c3c0b456f6f0ccd6cf8075912", "is_reserved": 0, "rental_uris": {"android": "https://dc.lft.to/lastmile_qr_scan", "ios": "https://dc.lft.to/lastmile_qr_scan"}, "fusion_lon": 0.0}, {"lat": 38.88461916666667, "is_disabled": 0, "type": "electric_scooter", "lon": -77.0153725, "bike_id": "ed122fac18af8484930ddefb20f9de4b", "fusion_lat": 0.0, "name": "ed122fac18af8484930ddefb20f9de4b", "is_reserved": 0, "rental_uris": {"android": "https://dc.lft.to/lastmile_qr_scan", "ios": "https://dc.lft.to/lastmile_qr_scan"}, "fusion_lon": 0.0}, {"lat": 38.8922325, "is_disabled": 0, "type": "electric_bike", "lon": -77.10779266666667, "bike_id": "3112c38e42d0558203c10f1a4ea57518", "fusion_lat": 0.0, "name": "3112c38e42d0558203c10f1a4ea57518", "is_reserved": 0, "rental_uris": {"android": "https://dc.lft.to/lastmile_qr_scan", "ios": "https://dc.lft.to/lastmile_qr_scan"}, "fusion_lon": 0.0}, {"lat": 38.909651333333336, "is_disabled": 0, "type": "electric_scooter", "lon": -77.04061783333333, "bike_id": "8b3b3e0e46e5a3737db7b1226bddb9f0", "fusion_lat": 0.0, "name": "8b3b3e0e46e5a3737db7b1226bddb9f0", "is_reserved": 0, "rental_uris": {"android": "https://dc.lft.to/lastmile_qr_scan", "ios": "https://dc.lft.to/lastmile_qr_scan"}, "fusion_lon": 0.0}, {"lat": 38.91730366666667, "is_disabled": 0, "type": "electric_scooter", "lon": -77.0364745, "bike_id": "3071504d817102ec65b83e6c14bc8033", "fusion_lat": 0.0, "name": "3071504d817102ec65b83e6c14bc8033", "is_reserved": 0, "rental_uris": {"android": "https://dc.lft.to/lastmile_qr_scan", "ios": "https://dc.lft.to/lastmile_qr_scan"}, "fusion_lon": 0.0}, {"lat": 38.900211, "is_disabled": 0, "type": "electric_scooter", "lon": -77.00204483333333, "bike_id": "2ade5bfedd929160b63de67e99477d73", "fusion_lat": 0.0, "name": "2ade5bfedd929160b63de67e99477d73", "is_reserved": 0, "rental_uris": {"android": "https://dc.lft.to/lastmile_qr_scan", "ios": "https://dc.lft.to/lastmile_qr_scan"}, "fusion_lon": 0.0}, {"lat": 38.95737116666667, "is_disabled": 0, "type": "electric_bike", "lon": -77.0232085, "bike_id": "ffd1439fae45557de2a24f96616205bd", "fusion_lat": 0.0, "name": "ffd1439fae45557de2a24f96616205bd", "is_reserved": 0, "rental_uris": {"android": "https://dc.lft.to/lastmile_qr_scan", "ios": "https://dc.lft.to/lastmile_qr_scan"}, "fusion_lon": 0.0}, {"lat": 38.916838, "is_disabled": 0, "type": "electric_scooter", "lon": -77.04148283333333, "bike_id": "25447eb4d27411285dc2c4ef4be8a3a9", "fusion_lat": 0.0, "name": "25447eb4d27411285dc2c4ef4be8a3a9", "is_reserved": 0, "rental_uris": {"android": "https://dc.lft.to/lastmile_qr_scan", "ios": "https://dc.lft.to/lastmile_qr_scan"}, "fusion_lon": 0.0}, {"lat": 38.9003365, "is_disabled": 0, "type": "electric_scooter", "lon": -77.00539783333333, "bike_id": "2b62c0f4246fe0e26d3ce32ff3958cdf", "fusion_lat": 0.0, "name": "2b62c0f4246fe0e26d3ce32ff3958cdf", "is_reserved": 0, "rental_uris": {"android": "https://dc.lft.to/lastmile_qr_scan", "ios": "https://dc.lft.to/lastmile_qr_scan"}, "fusion_lon": 0.0}, {"lat": 38.9254535, "is_disabled": 0, "type": "electric_scooter", "lon": -77.03453066666667, "bike_id": "e1daf0d5aaf57cb33f07f1de511c0ca6", "fusion_lat": 0.0, "name": "e1daf0d5aaf57cb33f07f1de511c0ca6", "is_reserved": 0, "rental_uris": {"android": "https://dc.lft.to/lastmile_qr_scan", "ios": "https://dc.lft.to/lastmile_qr_scan"}, "fusion_lon": 0.0}, {"lat": 38.85807783333333, "is_disabled": 0, "type": "electric_scooter", "lon": -76.986541, "bike_id": "589fd71d4351f8d224fe71922cd0629f", "fusion_lat": 0.0, "name": "589fd71d4351f8d224fe71922cd0629f", "is_reserved": 0, "rental_uris": {"android": "https://dc.lft.to/lastmile_qr_scan", "ios": "https://dc.lft.to/lastmile_qr_scan"}, "fusion_lon": 0.0}, {"lat": 38.96613716666667, "is_disabled": 0, "type": "electric_scooter", "lon": -77.02054483333333, "bike_id": "9d59674e968ea9415fae4c51c08eb78a", "fusion_lat": 0.0, "name": "9d59674e968ea9415fae4c51c08eb78a", "is_reserved": 0, "rental_uris": {"android": "https://dc.lft.to/lastmile_qr_scan", "ios": "https://dc.lft.to/lastmile_qr_scan"}, "fusion_lon": 0.0}, {"lat": 38.915432333333335, "is_disabled": 0, "type": "electric_scooter", "lon": -77.02203533333333, "bike_id": "9d752bab37b9542025cb48ab15c2c6b7", "fusion_lat": 0.0, "name": "9d752bab37b9542025cb48ab15c2c6b7", "is_reserved": 0, "rental_uris": {"android": "https://dc.lft.to/lastmile_qr_scan", "ios": "https://dc.lft.to/lastmile_qr_scan"}, "fusion_lon": 0.0}, {"lat": 38.90017183333333, "is_disabled": 0, "type": "electric_scooter", "lon": -76.99868883333333, "bike_id": "eff1019a5a15abcf904bd6094ef05009", "fusion_lat": 0.0, "name": "eff1019a5a15abcf904bd6094ef05009", "is_reserved": 0, "rental_uris": {"android": "https://dc.lft.to/lastmile_qr_scan", "ios": "https://dc.lft.to/lastmile_qr_scan"}, "fusion_lon": 0.0}, {"lat": 38.913171166666665, "is_disabled": 0, "type": "electric_scooter", "lon": -77.03205566666666, "bike_id": "aa64bce639cdb7e18f1ed4726f5cb4da", "fusion_lat": 0.0, "name": "aa64bce639cdb7e18f1ed4726f5cb4da", "is_reserved": 0, "rental_uris": {"android": "https://dc.lft.to/lastmile_qr_scan", "ios": "https://dc.lft.to/lastmile_qr_scan"}, "fusion_lon": 0.0}, {"lat": 38.924849, "is_disabled": 0, "type": "electric_scooter", "lon": -77.0318165, "bike_id": "b2c9d6875499c20bca2de04132d421d4", "fusion_lat": 0.0, "name": "b2c9d6875499c20bca2de04132d421d4", "is_reserved": 0, "rental_uris": {"android": "https://dc.lft.to/lastmile_qr_scan", "ios": "https://dc.lft.to/lastmile_qr_scan"}, "fusion_lon": 0.0}, {"lat": 38.90031616666667, "is_disabled": 0, "type": "electric_scooter", "lon": -77.00211383333334, "bike_id": "c06f56de26ae8b44c05f1e66cc93c8d2", "fusion_lat": 0.0, "name": "c06f56de26ae8b44c05f1e66cc93c8d2", "is_reserved": 0, "rental_uris": {"android": "https://dc.lft.to/lastmile_qr_scan", "ios": "https://dc.lft.to/lastmile_qr_scan"}, "fusion_lon": 0.0}, {"lat": 38.887442166666666, "is_disabled": 0, "type": "electric_scooter", "lon": -77.03148616666667, "bike_id": "04fc5042a7f5142b0ca524d72e0686ae", "fusion_lat": 0.0, "name": "04fc5042a7f5142b0ca524d72e0686ae", "is_reserved": 0, "rental_uris": {"android": "https://dc.lft.to/lastmile_qr_scan", "ios": "https://dc.lft.to/lastmile_qr_scan"}, "fusion_lon": 0.0}, {"lat": 38.93476066666667, "is_disabled": 0, "type": "electric_scooter", "lon": -77.05791266666667, "bike_id": "761e4d3b2af973810cf0a1763c0a0fff", "fusion_lat": 0.0, "name": "761e4d3b2af973810cf0a1763c0a0fff", "is_reserved": 0, "rental_uris": {"android": "https://dc.lft.to/lastmile_qr_scan", "ios": "https://dc.lft.to/lastmile_qr_scan"}, "fusion_lon": 0.0}, {"lat": 38.90245733333333, "is_disabled": 0, "type": "electric_scooter", "lon": -77.01756016666667, "bike_id": "92e9d8aeae8770c5aa7db464f53f3dbc", "fusion_lat": 0.0, "name": "92e9d8aeae8770c5aa7db464f53f3dbc", "is_reserved": 0, "rental_uris": {"android": "https://dc.lft.to/lastmile_qr_scan", "ios": "https://dc.lft.to/lastmile_qr_scan"}, "fusion_lon": 0.0}, {"lat": 38.93858983333333, "is_disabled": 0, "type": "electric_scooter", "lon": -77.02591533333333, "bike_id": "4a025d42da95d1e66cdb560f1c40ac42", "fusion_lat": 0.0, "name": "4a025d42da95d1e66cdb560f1c40ac42", "is_reserved": 0, "rental_uris": {"android": "https://dc.lft.to/lastmile_qr_scan", "ios": "https://dc.lft.to/lastmile_qr_scan"}, "fusion_lon": 0.0}, {"lat": 38.900603, "is_disabled": 0, "type": "electric_scooter", "lon": -77.01360366666667, "bike_id": "2ff6dc16bba620a46700bbd2d073724f", "fusion_lat": 0.0, "name": "2ff6dc16bba620a46700bbd2d073724f", "is_reserved": 0, "rental_uris": {"android": "https://dc.lft.to/lastmile_qr_scan", "ios": "https://dc.lft.to/lastmile_qr_scan"}, "fusion_lon": 0.0}, {"lat": 38.90198516666667, "is_disabled": 0, "type": "electric_scooter", "lon": -77.02370533333334, "bike_id": "46ba17b3794f6c887f7e0367be7a248d", "fusion_lat": 0.0, "name": "46ba17b3794f6c887f7e0367be7a248d", "is_reserved": 0, "rental_uris": {"android": "https://dc.lft.to/lastmile_qr_scan", "ios": "https://dc.lft.to/lastmile_qr_scan"}, "fusion_lon": 0.0}, {"lat": 38.9011175, "is_disabled": 0, "type": "electric_scooter", "lon": -77.0498035, "bike_id": "43551351b75d3f89e4a986f354398966", "fusion_lat": 0.0, "name": "43551351b75d3f89e4a986f354398966", "is_reserved": 0, "rental_uris": {"android": "https://dc.lft.to/lastmile_qr_scan", "ios": "https://dc.lft.to/lastmile_qr_scan"}, "fusion_lon": 0.0}, {"lat": 38.91831416666667, "is_disabled": 0, "type": "electric_scooter", "lon": -77.01467733333334, "bike_id": "3fc2db3d6d2fe303a190b9e18480f6db", "fusion_lat": 0.0, "name": "3fc2db3d6d2fe303a190b9e18480f6db", "is_reserved": 0, "rental_uris": {"android": "https://dc.lft.to/lastmile_qr_scan", "ios": "https://dc.lft.to/lastmile_qr_scan"}, "fusion_lon": 0.0}, {"lat": 38.931173333333334, "is_disabled": 0, "type": "electric_scooter", "lon": -77.0380595, "bike_id": "cb3f18df5780b9685b0a2d66f752526b", "fusion_lat": 0.0, "name": "cb3f18df5780b9685b0a2d66f752526b", "is_reserved": 0, "rental_uris": {"android": "https://dc.lft.to/lastmile_qr_scan", "ios": "https://dc.lft.to/lastmile_qr_scan"}, "fusion_lon": 0.0}, {"lat": 38.917808, "is_disabled": 0, "type": "electric_scooter", "lon": -77.0230725, "bike_id": "08222e78933bae7e76315c8326e2ab16", "fusion_lat": 0.0, "name": "08222e78933bae7e76315c8326e2ab16", "is_reserved": 0, "rental_uris": {"android": "https://dc.lft.to/lastmile_qr_scan", "ios": "https://dc.lft.to/lastmile_qr_scan"}, "fusion_lon": 0.0}, {"lat": 38.892852833333336, "is_disabled": 0, "type": "electric_scooter", "lon": -77.05041866666667, "bike_id": "8d7610587c8aea1d818fb6d279d47da4", "fusion_lat": 0.0, "name": "8d7610587c8aea1d818fb6d279d47da4", "is_reserved": 0, "rental_uris": {"android": "https://dc.lft.to/lastmile_qr_scan", "ios": "https://dc.lft.to/lastmile_qr_scan"}, "fusion_lon": 0.0}, {"lat": 38.9184965, "is_disabled": 0, "type": "electric_scooter", "lon": -76.965447, "bike_id": "7c72cd8f97ffdafeeda3c5d8e97c2dc3", "fusion_lat": 0.0, "name": "7c72cd8f97ffdafeeda3c5d8e97c2dc3", "is_reserved": 0, "rental_uris": {"android": "https://dc.lft.to/lastmile_qr_scan", "ios": "https://dc.lft.to/lastmile_qr_scan"}, "fusion_lon": 0.0}, {"lat": 38.923780666666666, "is_disabled": 0, "type": "electric_scooter", "lon": -77.030741, "bike_id": "d5965e2932fc4b991ea55503019bf0ba", "fusion_lat": 0.0, "name": "d5965e2932fc4b991ea55503019bf0ba", "is_reserved": 0, "rental_uris": {"android": "https://dc.lft.to/lastmile_qr_scan", "ios": "https://dc.lft.to/lastmile_qr_scan"}, "fusion_lon": 0.0}, {"lat": 38.893245, "is_disabled": 0, "type": "electric_bike", "lon": -77.0222625, "bike_id": "9930fe42976b861f0eb37d74a563d071", "fusion_lat": 0.0, "name": "9930fe42976b861f0eb37d74a563d071", "is_reserved": 0, "rental_uris": {"android": "https://dc.lft.to/lastmile_qr_scan", "ios": "https://dc.lft.to/lastmile_qr_scan"}, "fusion_lon": 0.0}, {"lat": 38.84622366666667, "is_disabled": 0, "type": "electric_bike", "lon": -77.06938916666667, "bike_id": "6617b16bd84dfa5b3c4090e3301632d4", "fusion_lat": 0.0, "name": "6617b16bd84dfa5b3c4090e3301632d4", "is_reserved": 0, "rental_uris": {"android": "https://dc.lft.to/lastmile_qr_scan", "ios": "https://dc.lft.to/lastmile_qr_scan"}, "fusion_lon": 0.0}, {"lat": 38.918050666666666, "is_disabled": 0, "type": "electric_scooter", "lon": -77.03179666666666, "bike_id": "a2eb87ecaf016023da8cfae115865291", "fusion_lat": 0.0, "name": "a2eb87ecaf016023da8cfae115865291", "is_reserved": 0, "rental_uris": {"android": "https://dc.lft.to/lastmile_qr_scan", "ios": "https://dc.lft.to/lastmile_qr_scan"}, "fusion_lon": 0.0}, {"lat": 38.89009933333333, "is_disabled": 0, "type": "electric_scooter", "lon": -76.93742683333333, "bike_id": "2ff69aa1b57017c2d635ade058eff21e", "fusion_lat": 0.0, "name": "2ff69aa1b57017c2d635ade058eff21e", "is_reserved": 0, "rental_uris": {"android": "https://dc.lft.to/lastmile_qr_scan", "ios": "https://dc.lft.to/lastmile_qr_scan"}, "fusion_lon": 0.0}, {"lat": 38.89506083333333, "is_disabled": 0, "type": "electric_scooter", "lon": -77.027486, "bike_id": "a0803e849fd9228a6ca433403e493be1", "fusion_lat": 0.0, "name": "a0803e849fd9228a6ca433403e493be1", "is_reserved": 0, "rental_uris": {"android": "https://dc.lft.to/lastmile_qr_scan", "ios": "https://dc.lft.to/lastmile_qr_scan"}, "fusion_lon": 0.0}, {"lat": 38.90977316666667, "is_disabled": 0, "type": "electric_scooter", "lon": -77.03187566666666, "bike_id": "90e533feaa1e68ca886eb24fb7f66748", "fusion_lat": 0.0, "name": "90e533feaa1e68ca886eb24fb7f66748", "is_reserved": 0, "rental_uris": {"android": "https://dc.lft.to/lastmile_qr_scan", "ios": "https://dc.lft.to/lastmile_qr_scan"}, "fusion_lon": 0.0}, {"lat": 38.91715416666667, "is_disabled": 0, "type": "electric_scooter", "lon": -77.03458733333333, "bike_id": "09afa07df1a660eec759c794026dcc2e", "fusion_lat": 0.0, "name": "09afa07df1a660eec759c794026dcc2e", "is_reserved": 0, "rental_uris": {"android": "https://dc.lft.to/lastmile_qr_scan", "ios": "https://dc.lft.to/lastmile_qr_scan"}, "fusion_lon": 0.0}, {"lat": 38.912233, "is_disabled": 0, "type": "electric_scooter", "lon": -77.04345333333333, "bike_id": "78934dc8824557bfe9136eb40fb505e2", "fusion_lat": 0.0, "name": "78934dc8824557bfe9136eb40fb505e2", "is_reserved": 0, "rental_uris": {"android": "https://dc.lft.to/lastmile_qr_scan", "ios": "https://dc.lft.to/lastmile_qr_scan"}, "fusion_lon": 0.0}, {"lat": 38.8862025, "is_disabled": 0, "type": "electric_scooter", "lon": -77.02172166666666, "bike_id": "6006b94d7e7dd4f13d5915f1a039ba82", "fusion_lat": 0.0, "name": "6006b94d7e7dd4f13d5915f1a039ba82", "is_reserved": 0, "rental_uris": {"android": "https://dc.lft.to/lastmile_qr_scan", "ios": "https://dc.lft.to/lastmile_qr_scan"}, "fusion_lon": 0.0}, {"lat": 38.90519966666667, "is_disabled": 0, "type": "electric_scooter", "lon": -77.02606616666667, "bike_id": "6a658aaa92c98557b98bdc924a5e398a", "fusion_lat": 0.0, "name": "6a658aaa92c98557b98bdc924a5e398a", "is_reserved": 0, "rental_uris": {"android": "https://dc.lft.to/lastmile_qr_scan", "ios": "https://dc.lft.to/lastmile_qr_scan"}, "fusion_lon": 0.0}, {"lat": 38.909711333333334, "is_disabled": 0, "type": "electric_scooter", "lon": -77.00922916666667, "bike_id": "42265b7f3dd8707cdda8a54e549a0a71", "fusion_lat": 0.0, "name": "42265b7f3dd8707cdda8a54e549a0a71", "is_reserved": 0, "rental_uris": {"android": "https://dc.lft.to/lastmile_qr_scan", "ios": "https://dc.lft.to/lastmile_qr_scan"}, "fusion_lon": 0.0}, {"lat": 38.9054735, "is_disabled": 0, "type": "electric_scooter", "lon": -77.03412466666667, "bike_id": "31ecb266b423389bf3adade13b7c07a0", "fusion_lat": 0.0, "name": "31ecb266b423389bf3adade13b7c07a0", "is_reserved": 0, "rental_uris": {"android": "https://dc.lft.to/lastmile_qr_scan", "ios": "https://dc.lft.to/lastmile_qr_scan"}, "fusion_lon": 0.0}, {"lat": 38.916894166666665, "is_disabled": 0, "type": "electric_scooter", "lon": -77.0312665, "bike_id": "4f64fa121952d45ae236a2526f847887", "fusion_lat": 0.0, "name": "4f64fa121952d45ae236a2526f847887", "is_reserved": 0, "rental_uris": {"android": "https://dc.lft.to/lastmile_qr_scan", "ios": "https://dc.lft.to/lastmile_qr_scan"}, "fusion_lon": 0.0}, {"lat": 38.893477, "is_disabled": 0, "type": "electric_scooter", "lon": -76.94932316666667, "bike_id": "5db4c8c6474e5f96526bd7831f6cc56e", "fusion_lat": 0.0, "name": "5db4c8c6474e5f96526bd7831f6cc56e", "is_reserved": 0, "rental_uris": {"android": "https://dc.lft.to/lastmile_qr_scan", "ios": "https://dc.lft.to/lastmile_qr_scan"}, "fusion_lon": 0.0}, {"lat": 38.92425766666667, "is_disabled": 0, "type": "electric_scooter", "lon": -77.05177233333333, "bike_id": "971c7d24ccce84f51ac0af0255fa01e7", "fusion_lat": 0.0, "name": "971c7d24ccce84f51ac0af0255fa01e7", "is_reserved": 0, "rental_uris": {"android": "https://dc.lft.to/lastmile_qr_scan", "ios": "https://dc.lft.to/lastmile_qr_scan"}, "fusion_lon": 0.0}, {"lat": 38.89520866666667, "is_disabled": 0, "type": "electric_bike", "lon": -77.07340433333333, "bike_id": "bff19749aaa28c3af33f7d267906cdcf", "fusion_lat": 0.0, "name": "bff19749aaa28c3af33f7d267906cdcf", "is_reserved": 0, "rental_uris": {"android": "https://dc.lft.to/lastmile_qr_scan", "ios": "https://dc.lft.to/lastmile_qr_scan"}, "fusion_lon": 0.0}, {"lat": 38.94433633333333, "is_disabled": 0, "type": "electric_scooter", "lon": -76.99207533333333, "bike_id": "db24919d134bfd88d2ca27e576b2289b", "fusion_lat": 0.0, "name": "db24919d134bfd88d2ca27e576b2289b", "is_reserved": 0, "rental_uris": {"android": "https://dc.lft.to/lastmile_qr_scan", "ios": "https://dc.lft.to/lastmile_qr_scan"}, "fusion_lon": 0.0}, {"lat": 38.915429833333334, "is_disabled": 0, "type": "electric_scooter", "lon": -77.03189183333333, "bike_id": "5b5b8256f77e035c8aa151265f24fbb9", "fusion_lat": 0.0, "name": "5b5b8256f77e035c8aa151265f24fbb9", "is_reserved": 0, "rental_uris": {"android": "https://dc.lft.to/lastmile_qr_scan", "ios": "https://dc.lft.to/lastmile_qr_scan"}, "fusion_lon": 0.0}, {"lat": 38.91757066666667, "is_disabled": 0, "type": "electric_scooter", "lon": -77.0399805, "bike_id": "7224de4538505fb9c5e85a52d7ce3d46", "fusion_lat": 0.0, "name": "7224de4538505fb9c5e85a52d7ce3d46", "is_reserved": 0, "rental_uris": {"android": "https://dc.lft.to/lastmile_qr_scan", "ios": "https://dc.lft.to/lastmile_qr_scan"}, "fusion_lon": 0.0}, {"lat": 38.892971333333335, "is_disabled": 0, "type": "electric_scooter", "lon": -77.00208566666667, "bike_id": "be3f8d9a7d64e604840219272ffe352b", "fusion_lat": 0.0, "name": "be3f8d9a7d64e604840219272ffe352b", "is_reserved": 0, "rental_uris": {"android": "https://dc.lft.to/lastmile_qr_scan", "ios": "https://dc.lft.to/lastmile_qr_scan"}, "fusion_lon": 0.0}, {"lat": 38.933223, "is_disabled": 0, "type": "electric_scooter", "lon": -77.04395283333334, "bike_id": "c37c5df69009bd013384142ff027c5f7", "fusion_lat": 0.0, "name": "c37c5df69009bd013384142ff027c5f7", "is_reserved": 0, "rental_uris": {"android": "https://dc.lft.to/lastmile_qr_scan", "ios": "https://dc.lft.to/lastmile_qr_scan"}, "fusion_lon": 0.0}, {"lat": 38.903910333333336, "is_disabled": 0, "type": "electric_scooter", "lon": -77.02801783333334, "bike_id": "d652d62a53fa9314af37925bd0616227", "fusion_lat": 0.0, "name": "d652d62a53fa9314af37925bd0616227", "is_reserved": 0, "rental_uris": {"android": "https://dc.lft.to/lastmile_qr_scan", "ios": "https://dc.lft.to/lastmile_qr_scan"}, "fusion_lon": 0.0}, {"lat": 38.884917333333334, "is_disabled": 0, "type": "electric_scooter", "lon": -77.0209115, "bike_id": "d52e17a90f21032f9fa3e9359be40055", "fusion_lat": 0.0, "name": "d52e17a90f21032f9fa3e9359be40055", "is_reserved": 0, "rental_uris": {"android": "https://dc.lft.to/lastmile_qr_scan", "ios": "https://dc.lft.to/lastmile_qr_scan"}, "fusion_lon": 0.0}, {"lat": 38.898125666666665, "is_disabled": 0, "type": "electric_scooter", "lon": -77.03307716666667, "bike_id": "9d8f9253b9359a6bea6fdba1223120fe", "fusion_lat": 0.0, "name": "9d8f9253b9359a6bea6fdba1223120fe", "is_reserved": 0, "rental_uris": {"android": "https://dc.lft.to/lastmile_qr_scan", "ios": "https://dc.lft.to/lastmile_qr_scan"}, "fusion_lon": 0.0}, {"lat": 38.89282083333333, "is_disabled": 0, "type": "electric_scooter", "lon": -77.03185816666667, "bike_id": "5fbbbe8681e32a385173b6afe94683b5", "fusion_lat": 0.0, "name": "5fbbbe8681e32a385173b6afe94683b5", "is_reserved": 0, "rental_uris": {"android": "https://dc.lft.to/lastmile_qr_scan", "ios": "https://dc.lft.to/lastmile_qr_scan"}, "fusion_lon": 0.0}, {"lat": 38.899595, "is_disabled": 0, "type": "electric_scooter", "lon": -77.05199733333333, "bike_id": "925edf2ecfffb5f0d1584a8de9692ad5", "fusion_lat": 0.0, "name": "925edf2ecfffb5f0d1584a8de9692ad5", "is_reserved": 0, "rental_uris": {"android": "https://dc.lft.to/lastmile_qr_scan", "ios": "https://dc.lft.to/lastmile_qr_scan"}, "fusion_lon": 0.0}, {"lat": 38.928988333333336, "is_disabled": 0, "type": "electric_bike", "lon": -77.022464, "bike_id": "4ae8f1591037bf40c045e2dc3da904e5", "fusion_lat": 0.0, "name": "4ae8f1591037bf40c045e2dc3da904e5", "is_reserved": 0, "rental_uris": {"android": "https://dc.lft.to/lastmile_qr_scan", "ios": "https://dc.lft.to/lastmile_qr_scan"}, "fusion_lon": 0.0}, {"lat": 38.912214666666664, "is_disabled": 0, "type": "electric_scooter", "lon": -77.0045845, "bike_id": "d5a06a3aa23dacd04c10cc8bbcbd7166", "fusion_lat": 0.0, "name": "d5a06a3aa23dacd04c10cc8bbcbd7166", "is_reserved": 0, "rental_uris": {"android": "https://dc.lft.to/lastmile_qr_scan", "ios": "https://dc.lft.to/lastmile_qr_scan"}, "fusion_lon": 0.0}, {"lat": 38.802297, "is_disabled": 0, "type": "electric_bike", "lon": -77.0791605, "bike_id": "809d8d21973d9a8fb2452412e4211b4b", "fusion_lat": 0.0, "name": "809d8d21973d9a8fb2452412e4211b4b", "is_reserved": 0, "rental_uris": {"android": "https://dc.lft.to/lastmile_qr_scan", "ios": "https://dc.lft.to/lastmile_qr_scan"}, "fusion_lon": 0.0}, {"lat": 38.90972516666667, "is_disabled": 0, "type": "electric_scooter", "lon": -77.02392483333334, "bike_id": "f02e2bebcb681f932142d9a2f19c727e", "fusion_lat": 0.0, "name": "f02e2bebcb681f932142d9a2f19c727e", "is_reserved": 0, "rental_uris": {"android": "https://dc.lft.to/lastmile_qr_scan", "ios": "https://dc.lft.to/lastmile_qr_scan"}, "fusion_lon": 0.0}, {"lat": 38.857904, "is_disabled": 0, "type": "electric_bike", "lon": -76.98744833333333, "bike_id": "20e11f4039fa09ef81b13fe60c1e35ee", "fusion_lat": 0.0, "name": "20e11f4039fa09ef81b13fe60c1e35ee", "is_reserved": 0, "rental_uris": {"android": "https://dc.lft.to/lastmile_qr_scan", "ios": "https://dc.lft.to/lastmile_qr_scan"}, "fusion_lon": 0.0}, {"lat": 38.90721216666667, "is_disabled": 0, "type": "electric_scooter", "lon": -77.02542816666667, "bike_id": "16eeda79a7dffb33a1c134711a0cff98", "fusion_lat": 0.0, "name": "16eeda79a7dffb33a1c134711a0cff98", "is_reserved": 0, "rental_uris": {"android": "https://dc.lft.to/lastmile_qr_scan", "ios": "https://dc.lft.to/lastmile_qr_scan"}, "fusion_lon": 0.0}, {"lat": 38.91816266666667, "is_disabled": 0, "type": "electric_scooter", "lon": -77.03447, "bike_id": "9d78c317ce9e29f9273e5c663aefd7aa", "fusion_lat": 0.0, "name": "9d78c317ce9e29f9273e5c663aefd7aa", "is_reserved": 0, "rental_uris": {"android": "https://dc.lft.to/lastmile_qr_scan", "ios": "https://dc.lft.to/lastmile_qr_scan"}, "fusion_lon": 0.0}, {"lat": 38.9258245, "is_disabled": 0, "type": "electric_scooter", "lon": -77.0275835, "bike_id": "cbe11bc538f5cc7f2392f2b94f6405b9", "fusion_lat": 0.0, "name": "cbe11bc538f5cc7f2392f2b94f6405b9", "is_reserved": 0, "rental_uris": {"android": "https://dc.lft.to/lastmile_qr_scan", "ios": "https://dc.lft.to/lastmile_qr_scan"}, "fusion_lon": 0.0}, {"lat": 38.901241166666665, "is_disabled": 0, "type": "electric_scooter", "lon": -77.01971083333333, "bike_id": "bcc9b287a87b1d42f99b2c657bdc36ac", "fusion_lat": 0.0, "name": "bcc9b287a87b1d42f99b2c657bdc36ac", "is_reserved": 0, "rental_uris": {"android": "https://dc.lft.to/lastmile_qr_scan", "ios": "https://dc.lft.to/lastmile_qr_scan"}, "fusion_lon": 0.0}, {"lat": 38.89682333333333, "is_disabled": 0, "type": "electric_scooter", "lon": -76.93611033333333, "bike_id": "8a4fbbb2e5ceb9a45a8f8f6ef43e9a56", "fusion_lat": 0.0, "name": "8a4fbbb2e5ceb9a45a8f8f6ef43e9a56", "is_reserved": 0, "rental_uris": {"android": "https://dc.lft.to/lastmile_qr_scan", "ios": "https://dc.lft.to/lastmile_qr_scan"}, "fusion_lon": 0.0}, {"lat": 38.91651733333333, "is_disabled": 0, "type": "electric_scooter", "lon": -77.0158745, "bike_id": "f2200882ee429438bf1229d44bf8eed8", "fusion_lat": 0.0, "name": "f2200882ee429438bf1229d44bf8eed8", "is_reserved": 0, "rental_uris": {"android": "https://dc.lft.to/lastmile_qr_scan", "ios": "https://dc.lft.to/lastmile_qr_scan"}, "fusion_lon": 0.0}, {"lat": 38.91361783333333, "is_disabled": 0, "type": "electric_scooter", "lon": -77.0456805, "bike_id": "3cc6a3e4874d11305de9a6e96849b60b", "fusion_lat": 0.0, "name": "3cc6a3e4874d11305de9a6e96849b60b", "is_reserved": 0, "rental_uris": {"android": "https://dc.lft.to/lastmile_qr_scan", "ios": "https://dc.lft.to/lastmile_qr_scan"}, "fusion_lon": 0.0}, {"lat": 38.8871955, "is_disabled": 0, "type": "electric_scooter", "lon": -76.95474183333333, "bike_id": "3794c69cc8397f2ffe25de1a1914f3d7", "fusion_lat": 0.0, "name": "3794c69cc8397f2ffe25de1a1914f3d7", "is_reserved": 0, "rental_uris": {"android": "https://dc.lft.to/lastmile_qr_scan", "ios": "https://dc.lft.to/lastmile_qr_scan"}, "fusion_lon": 0.0}, {"lat": 38.9234415, "is_disabled": 0, "type": "electric_scooter", "lon": -77.05115133333334, "bike_id": "f7b321da07b5493bda6c10d5cbae329e", "fusion_lat": 0.0, "name": "f7b321da07b5493bda6c10d5cbae329e", "is_reserved": 0, "rental_uris": {"android": "https://dc.lft.to/lastmile_qr_scan", "ios": "https://dc.lft.to/lastmile_qr_scan"}, "fusion_lon": 0.0}, {"lat": 38.923186, "is_disabled": 0, "type": "electric_scooter", "lon": -77.04119416666667, "bike_id": "e1cb036405eef0efe74858f5fb6d23db", "fusion_lat": 0.0, "name": "e1cb036405eef0efe74858f5fb6d23db", "is_reserved": 0, "rental_uris": {"android": "https://dc.lft.to/lastmile_qr_scan", "ios": "https://dc.lft.to/lastmile_qr_scan"}, "fusion_lon": 0.0}, {"lat": 38.92740533333333, "is_disabled": 0, "type": "electric_scooter", "lon": -77.0428585, "bike_id": "9c5f8fcc8d2716c9260db360266f955c", "fusion_lat": 0.0, "name": "9c5f8fcc8d2716c9260db360266f955c", "is_reserved": 0, "rental_uris": {"android": "https://dc.lft.to/lastmile_qr_scan", "ios": "https://dc.lft.to/lastmile_qr_scan"}, "fusion_lon": 0.0}, {"lat": 38.95882183333333, "is_disabled": 0, "type": "electric_bike", "lon": -76.924794, "bike_id": "95bfb1456929048942f762e8cb0da445", "fusion_lat": 0.0, "name": "95bfb1456929048942f762e8cb0da445", "is_reserved": 0, "rental_uris": {"android": "https://dc.lft.to/lastmile_qr_scan", "ios": "https://dc.lft.to/lastmile_qr_scan"}, "fusion_lon": 0.0}, {"lat": 38.902494, "is_disabled": 0, "type": "electric_scooter", "lon": -77.0436005, "bike_id": "175f9fd59c8c37e9e9faf6dd696b205a", "fusion_lat": 0.0, "name": "175f9fd59c8c37e9e9faf6dd696b205a", "is_reserved": 0, "rental_uris": {"android": "https://dc.lft.to/lastmile_qr_scan", "ios": "https://dc.lft.to/lastmile_qr_scan"}, "fusion_lon": 0.0}, {"lat": 38.952126166666666, "is_disabled": 0, "type": "electric_scooter", "lon": -77.00247, "bike_id": "ff15013696198abb70ac98aef22cfffa", "fusion_lat": 0.0, "name": "ff15013696198abb70ac98aef22cfffa", "is_reserved": 0, "rental_uris": {"android": "https://dc.lft.to/lastmile_qr_scan", "ios": "https://dc.lft.to/lastmile_qr_scan"}, "fusion_lon": 0.0}, {"lat": 38.973259, "is_disabled": 0, "type": "electric_bike", "lon": -77.0214635, "bike_id": "b22917e4df318e9ab33ae0de31586a70", "fusion_lat": 0.0, "name": "b22917e4df318e9ab33ae0de31586a70", "is_reserved": 0, "rental_uris": {"android": "https://dc.lft.to/lastmile_qr_scan", "ios": "https://dc.lft.to/lastmile_qr_scan"}, "fusion_lon": 0.0}, {"lat": 38.91762283333333, "is_disabled": 0, "type": "electric_scooter", "lon": -76.976158, "bike_id": "1d0ce1ccdfad16f2a526a2a5953c960f", "fusion_lat": 0.0, "name": "1d0ce1ccdfad16f2a526a2a5953c960f", "is_reserved": 0, "rental_uris": {"android": "https://dc.lft.to/lastmile_qr_scan", "ios": "https://dc.lft.to/lastmile_qr_scan"}, "fusion_lon": 0.0}, {"lat": 38.9263095, "is_disabled": 0, "type": "electric_scooter", "lon": -77.0379, "bike_id": "1f5f375ac268fa0e78e29c9cf48d6f55", "fusion_lat": 0.0, "name": "1f5f375ac268fa0e78e29c9cf48d6f55", "is_reserved": 0, "rental_uris": {"android": "https://dc.lft.to/lastmile_qr_scan", "ios": "https://dc.lft.to/lastmile_qr_scan"}, "fusion_lon": 0.0}, {"lat": 38.91680366666667, "is_disabled": 0, "type": "electric_scooter", "lon": -77.001981, "bike_id": "249d72c66e172a830244d6398294964b", "fusion_lat": 0.0, "name": "249d72c66e172a830244d6398294964b", "is_reserved": 0, "rental_uris": {"android": "https://dc.lft.to/lastmile_qr_scan", "ios": "https://dc.lft.to/lastmile_qr_scan"}, "fusion_lon": 0.0}, {"lat": 38.88364466666667, "is_disabled": 0, "type": "electric_scooter", "lon": -76.9415515, "bike_id": "13f4083a65ab023a1c84e2136ea1c780", "fusion_lat": 0.0, "name": "13f4083a65ab023a1c84e2136ea1c780", "is_reserved": 0, "rental_uris": {"android": "https://dc.lft.to/lastmile_qr_scan", "ios": "https://dc.lft.to/lastmile_qr_scan"}, "fusion_lon": 0.0}, {"lat": 38.88308816666667, "is_disabled": 0, "type": "electric_bike", "lon": -77.03156666666666, "bike_id": "d2ddb8c5def429a46c7e61b4bab27929", "fusion_lat": 0.0, "name": "d2ddb8c5def429a46c7e61b4bab27929", "is_reserved": 0, "rental_uris": {"android": "https://dc.lft.to/lastmile_qr_scan", "ios": "https://dc.lft.to/lastmile_qr_scan"}, "fusion_lon": 0.0}, {"lat": 38.88621833333333, "is_disabled": 0, "type": "electric_scooter", "lon": -77.01914116666667, "bike_id": "b8f90271b7584900277f8bfc6cdb44aa", "fusion_lat": 0.0, "name": "b8f90271b7584900277f8bfc6cdb44aa", "is_reserved": 0, "rental_uris": {"android": "https://dc.lft.to/lastmile_qr_scan", "ios": "https://dc.lft.to/lastmile_qr_scan"}, "fusion_lon": 0.0}, {"lat": 38.885479333333336, "is_disabled": 0, "type": "electric_bike", "lon": -77.11786816666667, "bike_id": "6b442436edb685529c0349c389950095", "fusion_lat": 0.0, "name": "6b442436edb685529c0349c389950095", "is_reserved": 0, "rental_uris": {"android": "https://dc.lft.to/lastmile_qr_scan", "ios": "https://dc.lft.to/lastmile_qr_scan"}, "fusion_lon": 0.0}, {"lat": 38.87683, "is_disabled": 0, "type": "electric_scooter", "lon": -77.016144, "bike_id": "ce322c387cb7a571b236cdb17b1ab0e9", "fusion_lat": 0.0, "name": "ce322c387cb7a571b236cdb17b1ab0e9", "is_reserved": 0, "rental_uris": {"android": "https://dc.lft.to/lastmile_qr_scan", "ios": "https://dc.lft.to/lastmile_qr_scan"}, "fusion_lon": 0.0}, {"lat": 38.929020333333334, "is_disabled": 0, "type": "electric_scooter", "lon": -77.016454, "bike_id": "99697f1ba48fab5c44e880af039a2a04", "fusion_lat": 0.0, "name": "99697f1ba48fab5c44e880af039a2a04", "is_reserved": 0, "rental_uris": {"android": "https://dc.lft.to/lastmile_qr_scan", "ios": "https://dc.lft.to/lastmile_qr_scan"}, "fusion_lon": 0.0}, {"lat": 38.892510333333334, "is_disabled": 0, "type": "electric_scooter", "lon": -77.03957416666667, "bike_id": "7803ef369ea4d5d69576334fd4d347c0", "fusion_lat": 0.0, "name": "7803ef369ea4d5d69576334fd4d347c0", "is_reserved": 0, "rental_uris": {"android": "https://dc.lft.to/lastmile_qr_scan", "ios": "https://dc.lft.to/lastmile_qr_scan"}, "fusion_lon": 0.0}, {"lat": 38.88457, "is_disabled": 0, "type": "electric_scooter", "lon": -76.92955433333333, "bike_id": "493e810dc1ea93058a8e3b9f6c21cd8e", "fusion_lat": 0.0, "name": "493e810dc1ea93058a8e3b9f6c21cd8e", "is_reserved": 0, "rental_uris": {"android": "https://dc.lft.to/lastmile_qr_scan", "ios": "https://dc.lft.to/lastmile_qr_scan"}, "fusion_lon": 0.0}, {"lat": 38.9343315, "is_disabled": 0, "type": "electric_scooter", "lon": -76.96509316666666, "bike_id": "1f3e103520a013abef42697b1575826a", "fusion_lat": 0.0, "name": "1f3e103520a013abef42697b1575826a", "is_reserved": 0, "rental_uris": {"android": "https://dc.lft.to/lastmile_qr_scan", "ios": "https://dc.lft.to/lastmile_qr_scan"}, "fusion_lon": 0.0}, {"lat": 38.957073333333334, "is_disabled": 0, "type": "electric_scooter", "lon": -77.02399283333334, "bike_id": "db1f2aa280933df34097ed0a04a1d544", "fusion_lat": 0.0, "name": "db1f2aa280933df34097ed0a04a1d544", "is_reserved": 0, "rental_uris": {"android": "https://dc.lft.to/lastmile_qr_scan", "ios": "https://dc.lft.to/lastmile_qr_scan"}, "fusion_lon": 0.0}, {"lat": 38.933771, "is_disabled": 0, "type": "electric_scooter", "lon": -77.0355095, "bike_id": "3ac7bea1a6b733f672988b093c0a89b5", "fusion_lat": 0.0, "name": "3ac7bea1a6b733f672988b093c0a89b5", "is_reserved": 0, "rental_uris": {"android": "https://dc.lft.to/lastmile_qr_scan", "ios": "https://dc.lft.to/lastmile_qr_scan"}, "fusion_lon": 0.0}, {"lat": 38.99869416666667, "is_disabled": 0, "type": "electric_bike", "lon": -77.029017, "bike_id": "6622a34691c93e89cecc6cc56e4239ae", "fusion_lat": 0.0, "name": "6622a34691c93e89cecc6cc56e4239ae", "is_reserved": 0, "rental_uris": {"android": "https://dc.lft.to/lastmile_qr_scan", "ios": "https://dc.lft.to/lastmile_qr_scan"}, "fusion_lon": 0.0}, {"lat": 38.8981105, "is_disabled": 0, "type": "electric_scooter", "lon": -77.03319266666666, "bike_id": "b94caf28d31326448cc471bb24f113e5", "fusion_lat": 0.0, "name": "b94caf28d31326448cc471bb24f113e5", "is_reserved": 0, "rental_uris": {"android": "https://dc.lft.to/lastmile_qr_scan", "ios": "https://dc.lft.to/lastmile_qr_scan"}, "fusion_lon": 0.0}, {"lat": 38.902537833333334, "is_disabled": 0, "type": "electric_scooter", "lon": -77.0268285, "bike_id": "ab744a82e91b92243010df14a348c748", "fusion_lat": 0.0, "name": "ab744a82e91b92243010df14a348c748", "is_reserved": 0, "rental_uris": {"android": "https://dc.lft.to/lastmile_qr_scan", "ios": "https://dc.lft.to/lastmile_qr_scan"}, "fusion_lon": 0.0}, {"lat": 38.8871575, "is_disabled": 0, "type": "electric_bike", "lon": -77.1330535, "bike_id": "a2783e298b7ae781eccadf60b43865e0", "fusion_lat": 0.0, "name": "a2783e298b7ae781eccadf60b43865e0", "is_reserved": 0, "rental_uris": {"android": "https://dc.lft.to/lastmile_qr_scan", "ios": "https://dc.lft.to/lastmile_qr_scan"}, "fusion_lon": 0.0}, {"lat": 38.900263, "is_disabled": 0, "type": "electric_scooter", "lon": -77.00203883333333, "bike_id": "121482bb95d04ad7354ee027e9dd169c", "fusion_lat": 0.0, "name": "121482bb95d04ad7354ee027e9dd169c", "is_reserved": 0, "rental_uris": {"android": "https://dc.lft.to/lastmile_qr_scan", "ios": "https://dc.lft.to/lastmile_qr_scan"}, "fusion_lon": 0.0}, {"lat": 38.916001666666666, "is_disabled": 0, "type": "electric_scooter", "lon": -77.024, "bike_id": "2a9e2848eda012b4d1c638961c45f5ff", "fusion_lat": 0.0, "name": "2a9e2848eda012b4d1c638961c45f5ff", "is_reserved": 0, "rental_uris": {"android": "https://dc.lft.to/lastmile_qr_scan", "ios": "https://dc.lft.to/lastmile_qr_scan"}, "fusion_lon": 0.0}, {"lat": 38.908683333333336, "is_disabled": 0, "type": "electric_scooter", "lon": -77.0466085, "bike_id": "396964be8575565958d85e3346741f7b", "fusion_lat": 0.0, "name": "396964be8575565958d85e3346741f7b", "is_reserved": 0, "rental_uris": {"android": "https://dc.lft.to/lastmile_qr_scan", "ios": "https://dc.lft.to/lastmile_qr_scan"}, "fusion_lon": 0.0}, {"lat": 38.91991433333333, "is_disabled": 0, "type": "electric_scooter", "lon": -76.97305783333333, "bike_id": "d009b6f47969f99e11b1ceb8ece0f5f1", "fusion_lat": 0.0, "name": "d009b6f47969f99e11b1ceb8ece0f5f1", "is_reserved": 0, "rental_uris": {"android": "https://dc.lft.to/lastmile_qr_scan", "ios": "https://dc.lft.to/lastmile_qr_scan"}, "fusion_lon": 0.0}, {"lat": 38.899680333333336, "is_disabled": 0, "type": "electric_scooter", "lon": -77.0410465, "bike_id": "9bef9a589ab2a8bce4a25b8bdb1eaf8c", "fusion_lat": 0.0, "name": "9bef9a589ab2a8bce4a25b8bdb1eaf8c", "is_reserved": 0, "rental_uris": {"android": "https://dc.lft.to/lastmile_qr_scan", "ios": "https://dc.lft.to/lastmile_qr_scan"}, "fusion_lon": 0.0}, {"lat": 38.95003616666666, "is_disabled": 0, "type": "electric_scooter", "lon": -77.01558816666666, "bike_id": "9f94bd1c31f6bc442143f7717141a37f", "fusion_lat": 0.0, "name": "9f94bd1c31f6bc442143f7717141a37f", "is_reserved": 0, "rental_uris": {"android": "https://dc.lft.to/lastmile_qr_scan", "ios": "https://dc.lft.to/lastmile_qr_scan"}, "fusion_lon": 0.0}, {"lat": 38.9242485, "is_disabled": 0, "type": "electric_scooter", "lon": -77.051795, "bike_id": "9357acf090eb461593bff9e77bea483a", "fusion_lat": 0.0, "name": "9357acf090eb461593bff9e77bea483a", "is_reserved": 0, "rental_uris": {"android": "https://dc.lft.to/lastmile_qr_scan", "ios": "https://dc.lft.to/lastmile_qr_scan"}, "fusion_lon": 0.0}, {"lat": 38.99413583333333, "is_disabled": 0, "type": "electric_bike", "lon": -77.0310085, "bike_id": "9c8635ecf3078de5cbdfbb136ebe3dda", "fusion_lat": 0.0, "name": "9c8635ecf3078de5cbdfbb136ebe3dda", "is_reserved": 0, "rental_uris": {"android": "https://dc.lft.to/lastmile_qr_scan", "ios": "https://dc.lft.to/lastmile_qr_scan"}, "fusion_lon": 0.0}, {"lat": 38.9096125, "is_disabled": 0, "type": "electric_scooter", "lon": -77.04031483333333, "bike_id": "edbe90005dd71e52862ba60014f2e3c2", "fusion_lat": 0.0, "name": "edbe90005dd71e52862ba60014f2e3c2", "is_reserved": 0, "rental_uris": {"android": "https://dc.lft.to/lastmile_qr_scan", "ios": "https://dc.lft.to/lastmile_qr_scan"}, "fusion_lon": 0.0}, {"lat": 39.03422583333333, "is_disabled": 0, "type": "electric_bike", "lon": -77.04308216666666, "bike_id": "81759bcf500556f5a913445039428f16", "fusion_lat": 0.0, "name": "81759bcf500556f5a913445039428f16", "is_reserved": 0, "rental_uris": {"android": "https://dc.lft.to/lastmile_qr_scan", "ios": "https://dc.lft.to/lastmile_qr_scan"}, "fusion_lon": 0.0}, {"lat": 38.88743933333333, "is_disabled": 0, "type": "electric_scooter", "lon": -77.02833916666667, "bike_id": "41a9f1cd9fc3b592fb2a3594a504cdb0", "fusion_lat": 0.0, "name": "41a9f1cd9fc3b592fb2a3594a504cdb0", "is_reserved": 0, "rental_uris": {"android": "https://dc.lft.to/lastmile_qr_scan", "ios": "https://dc.lft.to/lastmile_qr_scan"}, "fusion_lon": 0.0}, {"lat": 38.92797183333333, "is_disabled": 0, "type": "electric_scooter", "lon": -77.02600183333334, "bike_id": "b12fc70165f614483f3cef2a01aa3603", "fusion_lat": 0.0, "name": "b12fc70165f614483f3cef2a01aa3603", "is_reserved": 0, "rental_uris": {"android": "https://dc.lft.to/lastmile_qr_scan", "ios": "https://dc.lft.to/lastmile_qr_scan"}, "fusion_lon": 0.0}, {"lat": 38.9154195, "is_disabled": 0, "type": "electric_scooter", "lon": -77.02202333333334, "bike_id": "ed026baaa731e30fbe0cbcbcf09a42f5", "fusion_lat": 0.0, "name": "ed026baaa731e30fbe0cbcbcf09a42f5", "is_reserved": 0, "rental_uris": {"android": "https://dc.lft.to/lastmile_qr_scan", "ios": "https://dc.lft.to/lastmile_qr_scan"}, "fusion_lon": 0.0}, {"lat": 38.92436983333333, "is_disabled": 0, "type": "electric_scooter", "lon": -77.03401416666667, "bike_id": "d3edf051423c9688be3a23b1383088e2", "fusion_lat": 0.0, "name": "d3edf051423c9688be3a23b1383088e2", "is_reserved": 0, "rental_uris": {"android": "https://dc.lft.to/lastmile_qr_scan", "ios": "https://dc.lft.to/lastmile_qr_scan"}, "fusion_lon": 0.0}, {"lat": 38.8794325, "is_disabled": 0, "type": "electric_bike", "lon": -76.98378766666667, "bike_id": "39af6054593950c2edcf7f4a6ac3ee27", "fusion_lat": 0.0, "name": "39af6054593950c2edcf7f4a6ac3ee27", "is_reserved": 0, "rental_uris": {"android": "https://dc.lft.to/lastmile_qr_scan", "ios": "https://dc.lft.to/lastmile_qr_scan"}, "fusion_lon": 0.0}, {"lat": 38.881243, "is_disabled": 0, "type": "electric_scooter", "lon": -77.00096566666667, "bike_id": "c0ffbaeb96220510d65420302fd3e791", "fusion_lat": 0.0, "name": "c0ffbaeb96220510d65420302fd3e791", "is_reserved": 0, "rental_uris": {"android": "https://dc.lft.to/lastmile_qr_scan", "ios": "https://dc.lft.to/lastmile_qr_scan"}, "fusion_lon": 0.0}, {"lat": 38.88512383333333, "is_disabled": 0, "type": "electric_scooter", "lon": -77.00573366666667, "bike_id": "ed3165c5f6614447111402c1dcc205cd", "fusion_lat": 0.0, "name": "ed3165c5f6614447111402c1dcc205cd", "is_reserved": 0, "rental_uris": {"android": "https://dc.lft.to/lastmile_qr_scan", "ios": "https://dc.lft.to/lastmile_qr_scan"}, "fusion_lon": 0.0}, {"lat": 38.900266333333335, "is_disabled": 0, "type": "electric_scooter", "lon": -76.996091, "bike_id": "c5671743b31d1d06caef76b8e7a718fb", "fusion_lat": 0.0, "name": "c5671743b31d1d06caef76b8e7a718fb", "is_reserved": 0, "rental_uris": {"android": "https://dc.lft.to/lastmile_qr_scan", "ios": "https://dc.lft.to/lastmile_qr_scan"}, "fusion_lon": 0.0}, {"lat": 38.9733115, "is_disabled": 0, "type": "electric_bike", "lon": -77.021478, "bike_id": "3aba69a180aab4004445eac48290d20f", "fusion_lat": 0.0, "name": "3aba69a180aab4004445eac48290d20f", "is_reserved": 0, "rental_uris": {"android": "https://dc.lft.to/lastmile_qr_scan", "ios": "https://dc.lft.to/lastmile_qr_scan"}, "fusion_lon": 0.0}, {"lat": 38.91111316666667, "is_disabled": 0, "type": "electric_scooter", "lon": -77.0450045, "bike_id": "a271c130e9a33fc8a85b3f7dd64479ef", "fusion_lat": 0.0, "name": "a271c130e9a33fc8a85b3f7dd64479ef", "is_reserved": 0, "rental_uris": {"android": "https://dc.lft.to/lastmile_qr_scan", "ios": "https://dc.lft.to/lastmile_qr_scan"}, "fusion_lon": 0.0}, {"lat": 38.8977055, "is_disabled": 0, "type": "electric_scooter", "lon": -77.03208566666666, "bike_id": "6c3ee9c7ea7d32ab44b84ccc24864e21", "fusion_lat": 0.0, "name": "6c3ee9c7ea7d32ab44b84ccc24864e21", "is_reserved": 0, "rental_uris": {"android": "https://dc.lft.to/lastmile_qr_scan", "ios": "https://dc.lft.to/lastmile_qr_scan"}, "fusion_lon": 0.0}, {"lat": 38.84429033333333, "is_disabled": 0, "type": "electric_scooter", "lon": -76.99780366666667, "bike_id": "973e0dfbb4d2d7668337b5a770772276", "fusion_lat": 0.0, "name": "973e0dfbb4d2d7668337b5a770772276", "is_reserved": 0, "rental_uris": {"android": "https://dc.lft.to/lastmile_qr_scan", "ios": "https://dc.lft.to/lastmile_qr_scan"}, "fusion_lon": 0.0}, {"lat": 38.90575166666667, "is_disabled": 0, "type": "electric_scooter", "lon": -77.04881666666667, "bike_id": "5223df3128ee0a7bae06b44e344df634", "fusion_lat": 0.0, "name": "5223df3128ee0a7bae06b44e344df634", "is_reserved": 0, "rental_uris": {"android": "https://dc.lft.to/lastmile_qr_scan", "ios": "https://dc.lft.to/lastmile_qr_scan"}, "fusion_lon": 0.0}, {"lat": 38.9025745, "is_disabled": 0, "type": "electric_scooter", "lon": -77.0336345, "bike_id": "c6f3340b0855368ba8ee511c11b0bfcd", "fusion_lat": 0.0, "name": "c6f3340b0855368ba8ee511c11b0bfcd", "is_reserved": 0, "rental_uris": {"android": "https://dc.lft.to/lastmile_qr_scan", "ios": "https://dc.lft.to/lastmile_qr_scan"}, "fusion_lon": 0.0}, {"lat": 38.91183816666667, "is_disabled": 0, "type": "electric_scooter", "lon": -77.038314, "bike_id": "c1f724f44dfebee018399f157d7c35ae", "fusion_lat": 0.0, "name": "c1f724f44dfebee018399f157d7c35ae", "is_reserved": 0, "rental_uris": {"android": "https://dc.lft.to/lastmile_qr_scan", "ios": "https://dc.lft.to/lastmile_qr_scan"}, "fusion_lon": 0.0}, {"lat": 38.876423333333335, "is_disabled": 0, "type": "electric_scooter", "lon": -77.007329, "bike_id": "23e6b6cd571d0e9b71045669d0e1172d", "fusion_lat": 0.0, "name": "23e6b6cd571d0e9b71045669d0e1172d", "is_reserved": 0, "rental_uris": {"android": "https://dc.lft.to/lastmile_qr_scan", "ios": "https://dc.lft.to/lastmile_qr_scan"}, "fusion_lon": 0.0}, {"lat": 38.91490783333333, "is_disabled": 0, "type": "electric_scooter", "lon": -77.01863616666667, "bike_id": "552a6b033151116ce01af3ca2d2d2bc4", "fusion_lat": 0.0, "name": "552a6b033151116ce01af3ca2d2d2bc4", "is_reserved": 0, "rental_uris": {"android": "https://dc.lft.to/lastmile_qr_scan", "ios": "https://dc.lft.to/lastmile_qr_scan"}, "fusion_lon": 0.0}, {"lat": 38.9348145, "is_disabled": 0, "type": "electric_scooter", "lon": -77.0360605, "bike_id": "eb2668e7d209c5b42d4b15a669f61061", "fusion_lat": 0.0, "name": "eb2668e7d209c5b42d4b15a669f61061", "is_reserved": 0, "rental_uris": {"android": "https://dc.lft.to/lastmile_qr_scan", "ios": "https://dc.lft.to/lastmile_qr_scan"}, "fusion_lon": 0.0}, {"lat": 38.91979333333333, "is_disabled": 0, "type": "electric_scooter", "lon": -77.02388133333334, "bike_id": "ee3b44ad96b76467afe019d9a044ced3", "fusion_lat": 0.0, "name": "ee3b44ad96b76467afe019d9a044ced3", "is_reserved": 0, "rental_uris": {"android": "https://dc.lft.to/lastmile_qr_scan", "ios": "https://dc.lft.to/lastmile_qr_scan"}, "fusion_lon": 0.0}, {"lat": 38.9365915, "is_disabled": 0, "type": "electric_bike", "lon": -76.95215233333333, "bike_id": "6a4220fd4d7fbf7db663ca7d4e208d14", "fusion_lat": 0.0, "name": "6a4220fd4d7fbf7db663ca7d4e208d14", "is_reserved": 0, "rental_uris": {"android": "https://dc.lft.to/lastmile_qr_scan", "ios": "https://dc.lft.to/lastmile_qr_scan"}, "fusion_lon": 0.0}, {"lat": 38.9064375, "is_disabled": 0, "type": "electric_scooter", "lon": -77.03462566666667, "bike_id": "9baa3bf7f457c9d87327c0783c6e51b4", "fusion_lat": 0.0, "name": "9baa3bf7f457c9d87327c0783c6e51b4", "is_reserved": 0, "rental_uris": {"android": "https://dc.lft.to/lastmile_qr_scan", "ios": "https://dc.lft.to/lastmile_qr_scan"}, "fusion_lon": 0.0}, {"lat": 38.91629116666667, "is_disabled": 0, "type": "electric_scooter", "lon": -77.03129666666666, "bike_id": "b07137b2cfc02903a384b09ec103e640", "fusion_lat": 0.0, "name": "b07137b2cfc02903a384b09ec103e640", "is_reserved": 0, "rental_uris": {"android": "https://dc.lft.to/lastmile_qr_scan", "ios": "https://dc.lft.to/lastmile_qr_scan"}, "fusion_lon": 0.0}, {"lat": 38.89832966666667, "is_disabled": 0, "type": "electric_scooter", "lon": -77.03019483333334, "bike_id": "78f6cecf2c8399a7efa198ad38eaf518", "fusion_lat": 0.0, "name": "78f6cecf2c8399a7efa198ad38eaf518", "is_reserved": 0, "rental_uris": {"android": "https://dc.lft.to/lastmile_qr_scan", "ios": "https://dc.lft.to/lastmile_qr_scan"}, "fusion_lon": 0.0}, {"lat": 38.9307365, "is_disabled": 0, "type": "electric_scooter", "lon": -77.03130983333334, "bike_id": "78ac986142345277dc6693f202c8ad83", "fusion_lat": 0.0, "name": "78ac986142345277dc6693f202c8ad83", "is_reserved": 0, "rental_uris": {"android": "https://dc.lft.to/lastmile_qr_scan", "ios": "https://dc.lft.to/lastmile_qr_scan"}, "fusion_lon": 0.0}, {"lat": 38.9408705, "is_disabled": 0, "type": "electric_scooter", "lon": -77.06131466666666, "bike_id": "c51fb7303f45212d1160db9c3213b49c", "fusion_lat": 0.0, "name": "c51fb7303f45212d1160db9c3213b49c", "is_reserved": 0, "rental_uris": {"android": "https://dc.lft.to/lastmile_qr_scan", "ios": "https://dc.lft.to/lastmile_qr_scan"}, "fusion_lon": 0.0}, {"lat": 38.939853666666664, "is_disabled": 0, "type": "electric_scooter", "lon": -77.02890266666667, "bike_id": "d688bfba035025035ce03ea01b459551", "fusion_lat": 0.0, "name": "d688bfba035025035ce03ea01b459551", "is_reserved": 0, "rental_uris": {"android": "https://dc.lft.to/lastmile_qr_scan", "ios": "https://dc.lft.to/lastmile_qr_scan"}, "fusion_lon": 0.0}, {"lat": 38.89820566666667, "is_disabled": 0, "type": "electric_scooter", "lon": -77.02382466666667, "bike_id": "8896ce63ccc2ad320f45ec30ba8af016", "fusion_lat": 0.0, "name": "8896ce63ccc2ad320f45ec30ba8af016", "is_reserved": 0, "rental_uris": {"android": "https://dc.lft.to/lastmile_qr_scan", "ios": "https://dc.lft.to/lastmile_qr_scan"}, "fusion_lon": 0.0}, {"lat": 38.9240075, "is_disabled": 0, "type": "electric_scooter", "lon": -77.02701116666667, "bike_id": "547b3da2bbea9caea5547e2733ba0134", "fusion_lat": 0.0, "name": "547b3da2bbea9caea5547e2733ba0134", "is_reserved": 0, "rental_uris": {"android": "https://dc.lft.to/lastmile_qr_scan", "ios": "https://dc.lft.to/lastmile_qr_scan"}, "fusion_lon": 0.0}, {"lat": 38.949030666666665, "is_disabled": 0, "type": "electric_bike", "lon": -76.9723985, "bike_id": "6ea78bae500ab83cde256c0b2e6ce953", "fusion_lat": 0.0, "name": "6ea78bae500ab83cde256c0b2e6ce953", "is_reserved": 0, "rental_uris": {"android": "https://dc.lft.to/lastmile_qr_scan", "ios": "https://dc.lft.to/lastmile_qr_scan"}, "fusion_lon": 0.0}, {"lat": 38.90213683333333, "is_disabled": 0, "type": "electric_scooter", "lon": -76.945895, "bike_id": "d691972e4f01caf1988ba9bfb990601a", "fusion_lat": 0.0, "name": "d691972e4f01caf1988ba9bfb990601a", "is_reserved": 0, "rental_uris": {"android": "https://dc.lft.to/lastmile_qr_scan", "ios": "https://dc.lft.to/lastmile_qr_scan"}, "fusion_lon": 0.0}, {"lat": 38.95537366666667, "is_disabled": 0, "type": "electric_bike", "lon": -77.01780866666667, "bike_id": "2f92789cb2654952ce181035ed24478e", "fusion_lat": 0.0, "name": "2f92789cb2654952ce181035ed24478e", "is_reserved": 0, "rental_uris": {"android": "https://dc.lft.to/lastmile_qr_scan", "ios": "https://dc.lft.to/lastmile_qr_scan"}, "fusion_lon": 0.0}, {"lat": 38.897793, "is_disabled": 0, "type": "electric_scooter", "lon": -77.04360016666666, "bike_id": "38a5480b3cea9e2eef0b99ba002aa6a2", "fusion_lat": 0.0, "name": "38a5480b3cea9e2eef0b99ba002aa6a2", "is_reserved": 0, "rental_uris": {"android": "https://dc.lft.to/lastmile_qr_scan", "ios": "https://dc.lft.to/lastmile_qr_scan"}, "fusion_lon": 0.0}, {"lat": 38.93011516666667, "is_disabled": 0, "type": "electric_bike", "lon": -77.21652733333333, "bike_id": "40abdcd98c77e9e77f589f3233397698", "fusion_lat": 0.0, "name": "40abdcd98c77e9e77f589f3233397698", "is_reserved": 0, "rental_uris": {"android": "https://dc.lft.to/lastmile_qr_scan", "ios": "https://dc.lft.to/lastmile_qr_scan"}, "fusion_lon": 0.0}, {"lat": 38.915683, "is_disabled": 0, "type": "electric_scooter", "lon": -77.0467415, "bike_id": "84030f8052fe0990c40da98b3c9a9749", "fusion_lat": 0.0, "name": "84030f8052fe0990c40da98b3c9a9749", "is_reserved": 0, "rental_uris": {"android": "https://dc.lft.to/lastmile_qr_scan", "ios": "https://dc.lft.to/lastmile_qr_scan"}, "fusion_lon": 0.0}, {"lat": 38.9561155, "is_disabled": 0, "type": "electric_scooter", "lon": -77.02778016666667, "bike_id": "fc3314b9fad4e60668ebf08c5a1aead9", "fusion_lat": 0.0, "name": "fc3314b9fad4e60668ebf08c5a1aead9", "is_reserved": 0, "rental_uris": {"android": "https://dc.lft.to/lastmile_qr_scan", "ios": "https://dc.lft.to/lastmile_qr_scan"}, "fusion_lon": 0.0}, {"lat": 38.917697833333335, "is_disabled": 0, "type": "electric_scooter", "lon": -77.02310766666666, "bike_id": "b94a9da11a17256ad4321698d1b708c8", "fusion_lat": 0.0, "name": "b94a9da11a17256ad4321698d1b708c8", "is_reserved": 0, "rental_uris": {"android": "https://dc.lft.to/lastmile_qr_scan", "ios": "https://dc.lft.to/lastmile_qr_scan"}, "fusion_lon": 0.0}, {"lat": 38.962824166666664, "is_disabled": 0, "type": "electric_bike", "lon": -77.03256666666667, "bike_id": "3e6eaf959376476ecb8281119ea0b341", "fusion_lat": 0.0, "name": "3e6eaf959376476ecb8281119ea0b341", "is_reserved": 0, "rental_uris": {"android": "https://dc.lft.to/lastmile_qr_scan", "ios": "https://dc.lft.to/lastmile_qr_scan"}, "fusion_lon": 0.0}, {"lat": 38.92339283333333, "is_disabled": 0, "type": "electric_bike", "lon": -77.05673583333333, "bike_id": "a19909484f6fc761d2c03f42f4dad631", "fusion_lat": 0.0, "name": "a19909484f6fc761d2c03f42f4dad631", "is_reserved": 0, "rental_uris": {"android": "https://dc.lft.to/lastmile_qr_scan", "ios": "https://dc.lft.to/lastmile_qr_scan"}, "fusion_lon": 0.0}, {"lat": 38.91305116666667, "is_disabled": 0, "type": "electric_scooter", "lon": -77.036432, "bike_id": "e7bf95ee3b875255e65eecf925cbdd72", "fusion_lat": 0.0, "name": "e7bf95ee3b875255e65eecf925cbdd72", "is_reserved": 0, "rental_uris": {"android": "https://dc.lft.to/lastmile_qr_scan", "ios": "https://dc.lft.to/lastmile_qr_scan"}, "fusion_lon": 0.0}, {"lat": 38.8985155, "is_disabled": 0, "type": "electric_scooter", "lon": -76.990336, "bike_id": "e4a08791cba2656de662736949ecb180", "fusion_lat": 0.0, "name": "e4a08791cba2656de662736949ecb180", "is_reserved": 0, "rental_uris": {"android": "https://dc.lft.to/lastmile_qr_scan", "ios": "https://dc.lft.to/lastmile_qr_scan"}, "fusion_lon": 0.0}, {"lat": 38.95925, "is_disabled": 0, "type": "electric_bike", "lon": -77.03118516666666, "bike_id": "7b47a7157a3879e84f9c63cb5fa79dfe", "fusion_lat": 0.0, "name": "7b47a7157a3879e84f9c63cb5fa79dfe", "is_reserved": 0, "rental_uris": {"android": "https://dc.lft.to/lastmile_qr_scan", "ios": "https://dc.lft.to/lastmile_qr_scan"}, "fusion_lon": 0.0}, {"lat": 38.91985116666667, "is_disabled": 0, "type": "electric_scooter", "lon": -76.97309633333333, "bike_id": "a8871c52d50bb7faa4ac7b7298f32e25", "fusion_lat": 0.0, "name": "a8871c52d50bb7faa4ac7b7298f32e25", "is_reserved": 0, "rental_uris": {"android": "https://dc.lft.to/lastmile_qr_scan", "ios": "https://dc.lft.to/lastmile_qr_scan"}, "fusion_lon": 0.0}, {"lat": 38.917212166666665, "is_disabled": 0, "type": "electric_scooter", "lon": -77.04105983333334, "bike_id": "0122bedc64c897d4e69b0a1c12a548e1", "fusion_lat": 0.0, "name": "0122bedc64c897d4e69b0a1c12a548e1", "is_reserved": 0, "rental_uris": {"android": "https://dc.lft.to/lastmile_qr_scan", "ios": "https://dc.lft.to/lastmile_qr_scan"}, "fusion_lon": 0.0}, {"lat": 38.884694333333336, "is_disabled": 0, "type": "electric_scooter", "lon": -76.992668, "bike_id": "7635efd55a9074c95bc8e33fd5a8493a", "fusion_lat": 0.0, "name": "7635efd55a9074c95bc8e33fd5a8493a", "is_reserved": 0, "rental_uris": {"android": "https://dc.lft.to/lastmile_qr_scan", "ios": "https://dc.lft.to/lastmile_qr_scan"}, "fusion_lon": 0.0}, {"lat": 38.880841, "is_disabled": 0, "type": "electric_scooter", "lon": -76.98530266666667, "bike_id": "78c86f4e8c3015d3ba9f4773acb91785", "fusion_lat": 0.0, "name": "78c86f4e8c3015d3ba9f4773acb91785", "is_reserved": 0, "rental_uris": {"android": "https://dc.lft.to/lastmile_qr_scan", "ios": "https://dc.lft.to/lastmile_qr_scan"}, "fusion_lon": 0.0}, {"lat": 38.90857283333333, "is_disabled": 0, "type": "electric_bike", "lon": -77.08076566666666, "bike_id": "55579a36e39bf1f5c180bd650559d9e7", "fusion_lat": 0.0, "name": "55579a36e39bf1f5c180bd650559d9e7", "is_reserved": 0, "rental_uris": {"android": "https://dc.lft.to/lastmile_qr_scan", "ios": "https://dc.lft.to/lastmile_qr_scan"}, "fusion_lon": 0.0}, {"lat": 38.90396466666667, "is_disabled": 0, "type": "electric_scooter", "lon": -77.06297016666667, "bike_id": "09712908cc3db8cbd394e88aa7c99633", "fusion_lat": 0.0, "name": "09712908cc3db8cbd394e88aa7c99633", "is_reserved": 0, "rental_uris": {"android": "https://dc.lft.to/lastmile_qr_scan", "ios": "https://dc.lft.to/lastmile_qr_scan"}, "fusion_lon": 0.0}, {"lat": 38.950723333333336, "is_disabled": 0, "type": "electric_scooter", "lon": -77.00877016666666, "bike_id": "edb9426952a4c594e0225128f58e9e0d", "fusion_lat": 0.0, "name": "edb9426952a4c594e0225128f58e9e0d", "is_reserved": 0, "rental_uris": {"android": "https://dc.lft.to/lastmile_qr_scan", "ios": "https://dc.lft.to/lastmile_qr_scan"}, "fusion_lon": 0.0}, {"lat": 38.960184, "is_disabled": 0, "type": "electric_bike", "lon": -77.01726033333334, "bike_id": "95f0e567b391761cb4251beac38bde47", "fusion_lat": 0.0, "name": "95f0e567b391761cb4251beac38bde47", "is_reserved": 0, "rental_uris": {"android": "https://dc.lft.to/lastmile_qr_scan", "ios": "https://dc.lft.to/lastmile_qr_scan"}, "fusion_lon": 0.0}, {"lat": 38.89978683333333, "is_disabled": 0, "type": "electric_scooter", "lon": -77.022929, "bike_id": "3be9dbc11349a01dff1a0cb8a081e6ab", "fusion_lat": 0.0, "name": "3be9dbc11349a01dff1a0cb8a081e6ab", "is_reserved": 0, "rental_uris": {"android": "https://dc.lft.to/lastmile_qr_scan", "ios": "https://dc.lft.to/lastmile_qr_scan"}, "fusion_lon": 0.0}, {"lat": 38.954054, "is_disabled": 0, "type": "electric_scooter", "lon": -77.02750683333333, "bike_id": "a7b2757acb5e7e65fd5110b2a6f6d4ab", "fusion_lat": 0.0, "name": "a7b2757acb5e7e65fd5110b2a6f6d4ab", "is_reserved": 0, "rental_uris": {"android": "https://dc.lft.to/lastmile_qr_scan", "ios": "https://dc.lft.to/lastmile_qr_scan"}, "fusion_lon": 0.0}, {"lat": 39.029352833333334, "is_disabled": 0, "type": "electric_bike", "lon": -77.04929466666667, "bike_id": "2cd150b1b7eae4f618e916a5d5d047ef", "fusion_lat": 0.0, "name": "2cd150b1b7eae4f618e916a5d5d047ef", "is_reserved": 0, "rental_uris": {"android": "https://dc.lft.to/lastmile_qr_scan", "ios": "https://dc.lft.to/lastmile_qr_scan"}, "fusion_lon": 0.0}, {"lat": 38.87664766666666, "is_disabled": 0, "type": "electric_scooter", "lon": -77.00441116666667, "bike_id": "97324a80f95e13dc7d9bf39948197478", "fusion_lat": 0.0, "name": "97324a80f95e13dc7d9bf39948197478", "is_reserved": 0, "rental_uris": {"android": "https://dc.lft.to/lastmile_qr_scan", "ios": "https://dc.lft.to/lastmile_qr_scan"}, "fusion_lon": 0.0}, {"lat": 38.8996425, "is_disabled": 0, "type": "electric_bike", "lon": -77.054988, "bike_id": "52f80b9d4bceb22af07b426e844cc0ba", "fusion_lat": 0.0, "name": "52f80b9d4bceb22af07b426e844cc0ba", "is_reserved": 0, "rental_uris": {"android": "https://dc.lft.to/lastmile_qr_scan", "ios": "https://dc.lft.to/lastmile_qr_scan"}, "fusion_lon": 0.0}, {"lat": 38.983674666666666, "is_disabled": 0, "type": "electric_scooter", "lon": -77.02644266666667, "bike_id": "2fa2baf323f1f6c7c5ad8c6815b84ea7", "fusion_lat": 0.0, "name": "2fa2baf323f1f6c7c5ad8c6815b84ea7", "is_reserved": 0, "rental_uris": {"android": "https://dc.lft.to/lastmile_qr_scan", "ios": "https://dc.lft.to/lastmile_qr_scan"}, "fusion_lon": 0.0}, {"lat": 38.92483033333333, "is_disabled": 0, "type": "electric_bike", "lon": -77.03040116666666, "bike_id": "63378a4ae1c2e8148bb1c549a046bd8a", "fusion_lat": 0.0, "name": "63378a4ae1c2e8148bb1c549a046bd8a", "is_reserved": 0, "rental_uris": {"android": "https://dc.lft.to/lastmile_qr_scan", "ios": "https://dc.lft.to/lastmile_qr_scan"}, "fusion_lon": 0.0}, {"lat": 38.91777316666666, "is_disabled": 0, "type": "electric_scooter", "lon": -77.028812, "bike_id": "bf1fd6302a726401114f0ae28037c68b", "fusion_lat": 0.0, "name": "bf1fd6302a726401114f0ae28037c68b", "is_reserved": 0, "rental_uris": {"android": "https://dc.lft.to/lastmile_qr_scan", "ios": "https://dc.lft.to/lastmile_qr_scan"}, "fusion_lon": 0.0}, {"lat": 38.876369, "is_disabled": 0, "type": "electric_scooter", "lon": -76.9932195, "bike_id": "894437367f67bf245c3de35a7c0e6474", "fusion_lat": 0.0, "name": "894437367f67bf245c3de35a7c0e6474", "is_reserved": 0, "rental_uris": {"android": "https://dc.lft.to/lastmile_qr_scan", "ios": "https://dc.lft.to/lastmile_qr_scan"}, "fusion_lon": 0.0}, {"lat": 38.905399333333335, "is_disabled": 0, "type": "electric_scooter", "lon": -77.02205666666667, "bike_id": "b4317ab60b42f1dce8032f7958da3a5a", "fusion_lat": 0.0, "name": "b4317ab60b42f1dce8032f7958da3a5a", "is_reserved": 0, "rental_uris": {"android": "https://dc.lft.to/lastmile_qr_scan", "ios": "https://dc.lft.to/lastmile_qr_scan"}, "fusion_lon": 0.0}, {"lat": 38.928548166666666, "is_disabled": 0, "type": "electric_bike", "lon": -77.22206633333333, "bike_id": "7c925c950e5f8c3fdea30d3ca210d095", "fusion_lat": 0.0, "name": "7c925c950e5f8c3fdea30d3ca210d095", "is_reserved": 0, "rental_uris": {"android": "https://dc.lft.to/lastmile_qr_scan", "ios": "https://dc.lft.to/lastmile_qr_scan"}, "fusion_lon": 0.0}, {"lat": 38.923007, "is_disabled": 0, "type": "electric_bike", "lon": -77.02352883333333, "bike_id": "f64888e16f5488a099ef4c490c8cbbb0", "fusion_lat": 0.0, "name": "f64888e16f5488a099ef4c490c8cbbb0", "is_reserved": 0, "rental_uris": {"android": "https://dc.lft.to/lastmile_qr_scan", "ios": "https://dc.lft.to/lastmile_qr_scan"}, "fusion_lon": 0.0}, {"lat": 38.881941833333336, "is_disabled": 0, "type": "electric_scooter", "lon": -76.99497766666667, "bike_id": "8d11c1f430aab66d59f8e7dceed89f0d", "fusion_lat": 0.0, "name": "8d11c1f430aab66d59f8e7dceed89f0d", "is_reserved": 0, "rental_uris": {"android": "https://dc.lft.to/lastmile_qr_scan", "ios": "https://dc.lft.to/lastmile_qr_scan"}, "fusion_lon": 0.0}, {"lat": 38.9259285, "is_disabled": 0, "type": "electric_scooter", "lon": -77.02439233333334, "bike_id": "1b12471ca20b9a7cea2d63db8f03bf3e", "fusion_lat": 0.0, "name": "1b12471ca20b9a7cea2d63db8f03bf3e", "is_reserved": 0, "rental_uris": {"android": "https://dc.lft.to/lastmile_qr_scan", "ios": "https://dc.lft.to/lastmile_qr_scan"}, "fusion_lon": 0.0}, {"lat": 39.088571, "is_disabled": 0, "type": "electric_bike", "lon": -77.178419, "bike_id": "69e5b4f1968ae05826f992335fe5d01d", "fusion_lat": 0.0, "name": "69e5b4f1968ae05826f992335fe5d01d", "is_reserved": 0, "rental_uris": {"android": "https://dc.lft.to/lastmile_qr_scan", "ios": "https://dc.lft.to/lastmile_qr_scan"}, "fusion_lon": 0.0}, {"lat": 38.9051325, "is_disabled": 0, "type": "electric_scooter", "lon": -77.04343033333333, "bike_id": "0b826d2efcf12852714f827d36fa423e", "fusion_lat": 0.0, "name": "0b826d2efcf12852714f827d36fa423e", "is_reserved": 0, "rental_uris": {"android": "https://dc.lft.to/lastmile_qr_scan", "ios": "https://dc.lft.to/lastmile_qr_scan"}, "fusion_lon": 0.0}, {"lat": 38.95924516666667, "is_disabled": 0, "type": "electric_bike", "lon": -77.031196, "bike_id": "f2487723d877cb0828233106a69e635c", "fusion_lat": 0.0, "name": "f2487723d877cb0828233106a69e635c", "is_reserved": 0, "rental_uris": {"android": "https://dc.lft.to/lastmile_qr_scan", "ios": "https://dc.lft.to/lastmile_qr_scan"}, "fusion_lon": 0.0}, {"lat": 38.89598733333333, "is_disabled": 0, "type": "electric_scooter", "lon": -77.02914566666666, "bike_id": "18215369b7d46cb59f48b039d8f92fac", "fusion_lat": 0.0, "name": "18215369b7d46cb59f48b039d8f92fac", "is_reserved": 0, "rental_uris": {"android": "https://dc.lft.to/lastmile_qr_scan", "ios": "https://dc.lft.to/lastmile_qr_scan"}, "fusion_lon": 0.0}, {"lat": 38.89241116666667, "is_disabled": 0, "type": "electric_scooter", "lon": -77.04891183333334, "bike_id": "05bad84e1c4ff7e71ef96c18f5a63d93", "fusion_lat": 0.0, "name": "05bad84e1c4ff7e71ef96c18f5a63d93", "is_reserved": 0, "rental_uris": {"android": "https://dc.lft.to/lastmile_qr_scan", "ios": "https://dc.lft.to/lastmile_qr_scan"}, "fusion_lon": 0.0}, {"lat": 38.89983566666667, "is_disabled": 0, "type": "electric_bike", "lon": -76.98544283333334, "bike_id": "abafe12b40b1a4202fe62c1a77de4883", "fusion_lat": 0.0, "name": "abafe12b40b1a4202fe62c1a77de4883", "is_reserved": 0, "rental_uris": {"android": "https://dc.lft.to/lastmile_qr_scan", "ios": "https://dc.lft.to/lastmile_qr_scan"}, "fusion_lon": 0.0}, {"lat": 38.923211333333334, "is_disabled": 0, "type": "electric_scooter", "lon": -77.029673, "bike_id": "913431da178e60f138a2fe0fca552371", "fusion_lat": 0.0, "name": "913431da178e60f138a2fe0fca552371", "is_reserved": 0, "rental_uris": {"android": "https://dc.lft.to/lastmile_qr_scan", "ios": "https://dc.lft.to/lastmile_qr_scan"}, "fusion_lon": 0.0}, {"lat": 38.93822983333333, "is_disabled": 0, "type": "electric_scooter", "lon": -77.06046116666667, "bike_id": "a35cdaeccf61dee116e7dbbf641cddba", "fusion_lat": 0.0, "name": "a35cdaeccf61dee116e7dbbf641cddba", "is_reserved": 0, "rental_uris": {"android": "https://dc.lft.to/lastmile_qr_scan", "ios": "https://dc.lft.to/lastmile_qr_scan"}, "fusion_lon": 0.0}, {"lat": 38.8983915, "is_disabled": 0, "type": "electric_scooter", "lon": -76.931028, "bike_id": "7f6e15e2f442c503b2d5f7da3c5ed4fb", "fusion_lat": 0.0, "name": "7f6e15e2f442c503b2d5f7da3c5ed4fb", "is_reserved": 0, "rental_uris": {"android": "https://dc.lft.to/lastmile_qr_scan", "ios": "https://dc.lft.to/lastmile_qr_scan"}, "fusion_lon": 0.0}, {"lat": 38.90239583333333, "is_disabled": 0, "type": "electric_scooter", "lon": -77.05341583333333, "bike_id": "0627f97c2e2d1d9863dac77bdfcab87b", "fusion_lat": 0.0, "name": "0627f97c2e2d1d9863dac77bdfcab87b", "is_reserved": 0, "rental_uris": {"android": "https://dc.lft.to/lastmile_qr_scan", "ios": "https://dc.lft.to/lastmile_qr_scan"}, "fusion_lon": 0.0}, {"lat": 38.9660395, "is_disabled": 0, "type": "electric_bike", "lon": -76.983308, "bike_id": "88c568a66a5e651280b07aa6a5b52d38", "fusion_lat": 0.0, "name": "88c568a66a5e651280b07aa6a5b52d38", "is_reserved": 0, "rental_uris": {"android": "https://dc.lft.to/lastmile_qr_scan", "ios": "https://dc.lft.to/lastmile_qr_scan"}, "fusion_lon": 0.0}, {"lat": 38.93669166666667, "is_disabled": 0, "type": "electric_scooter", "lon": -77.03636633333333, "bike_id": "08a8e074fbcd39b2d0daeedab10abfa5", "fusion_lat": 0.0, "name": "08a8e074fbcd39b2d0daeedab10abfa5", "is_reserved": 0, "rental_uris": {"android": "https://dc.lft.to/lastmile_qr_scan", "ios": "https://dc.lft.to/lastmile_qr_scan"}, "fusion_lon": 0.0}, {"lat": 38.933550833333335, "is_disabled": 0, "type": "electric_scooter", "lon": -77.07377433333333, "bike_id": "539be3e25bf2342b05544a79680947c4", "fusion_lat": 0.0, "name": "539be3e25bf2342b05544a79680947c4", "is_reserved": 0, "rental_uris": {"android": "https://dc.lft.to/lastmile_qr_scan", "ios": "https://dc.lft.to/lastmile_qr_scan"}, "fusion_lon": 0.0}, {"lat": 38.90211266666667, "is_disabled": 0, "type": "electric_scooter", "lon": -77.02319083333333, "bike_id": "4b60870db2019bca072494518d6d020b", "fusion_lat": 0.0, "name": "4b60870db2019bca072494518d6d020b", "is_reserved": 0, "rental_uris": {"android": "https://dc.lft.to/lastmile_qr_scan", "ios": "https://dc.lft.to/lastmile_qr_scan"}, "fusion_lon": 0.0}, {"lat": 38.953563833333334, "is_disabled": 0, "type": "electric_bike", "lon": -76.98088966666667, "bike_id": "c6c3dfeedb632e300b3dc23d9ca1b186", "fusion_lat": 0.0, "name": "c6c3dfeedb632e300b3dc23d9ca1b186", "is_reserved": 0, "rental_uris": {"android": "https://dc.lft.to/lastmile_qr_scan", "ios": "https://dc.lft.to/lastmile_qr_scan"}, "fusion_lon": 0.0}, {"lat": 38.89739083333333, "is_disabled": 0, "type": "electric_scooter", "lon": -76.947203, "bike_id": "249ac82947f6d39d5fd29101c40281e8", "fusion_lat": 0.0, "name": "249ac82947f6d39d5fd29101c40281e8", "is_reserved": 0, "rental_uris": {"android": "https://dc.lft.to/lastmile_qr_scan", "ios": "https://dc.lft.to/lastmile_qr_scan"}, "fusion_lon": 0.0}, {"lat": 38.91418483333333, "is_disabled": 0, "type": "electric_scooter", "lon": -77.03525516666667, "bike_id": "d2373150c985888f82b5eeb5500f1695", "fusion_lat": 0.0, "name": "d2373150c985888f82b5eeb5500f1695", "is_reserved": 0, "rental_uris": {"android": "https://dc.lft.to/lastmile_qr_scan", "ios": "https://dc.lft.to/lastmile_qr_scan"}, "fusion_lon": 0.0}, {"lat": 38.899454, "is_disabled": 0, "type": "electric_scooter", "lon": -77.04094416666666, "bike_id": "b2d6e5513b603860cdeedfdb94c99357", "fusion_lat": 0.0, "name": "b2d6e5513b603860cdeedfdb94c99357", "is_reserved": 0, "rental_uris": {"android": "https://dc.lft.to/lastmile_qr_scan", "ios": "https://dc.lft.to/lastmile_qr_scan"}, "fusion_lon": 0.0}, {"lat": 38.903017, "is_disabled": 0, "type": "electric_scooter", "lon": -77.05139183333333, "bike_id": "ade7a7f07d2a86900d7f73b0c873ede3", "fusion_lat": 0.0, "name": "ade7a7f07d2a86900d7f73b0c873ede3", "is_reserved": 0, "rental_uris": {"android": "https://dc.lft.to/lastmile_qr_scan", "ios": "https://dc.lft.to/lastmile_qr_scan"}, "fusion_lon": 0.0}, {"lat": 38.90401416666667, "is_disabled": 0, "type": "electric_scooter", "lon": -76.99288666666666, "bike_id": "c9359c840e4088d406b9ed8813e2fdff", "fusion_lat": 0.0, "name": "c9359c840e4088d406b9ed8813e2fdff", "is_reserved": 0, "rental_uris": {"android": "https://dc.lft.to/lastmile_qr_scan", "ios": "https://dc.lft.to/lastmile_qr_scan"}, "fusion_lon": 0.0}, {"lat": 38.8989435, "is_disabled": 0, "type": "electric_scooter", "lon": -76.984234, "bike_id": "3027ac2e158f5cb667d9ea2f9c9536b1", "fusion_lat": 0.0, "name": "3027ac2e158f5cb667d9ea2f9c9536b1", "is_reserved": 0, "rental_uris": {"android": "https://dc.lft.to/lastmile_qr_scan", "ios": "https://dc.lft.to/lastmile_qr_scan"}, "fusion_lon": 0.0}, {"lat": 38.927093666666664, "is_disabled": 0, "type": "electric_scooter", "lon": -77.0240525, "bike_id": "8898e04976627789165cfad32cd632af", "fusion_lat": 0.0, "name": "8898e04976627789165cfad32cd632af", "is_reserved": 0, "rental_uris": {"android": "https://dc.lft.to/lastmile_qr_scan", "ios": "https://dc.lft.to/lastmile_qr_scan"}, "fusion_lon": 0.0}, {"lat": 38.9037315, "is_disabled": 0, "type": "electric_scooter", "lon": -77.058018, "bike_id": "6b1e9881d47f7b98231db0e5ed8fcce9", "fusion_lat": 0.0, "name": "6b1e9881d47f7b98231db0e5ed8fcce9", "is_reserved": 0, "rental_uris": {"android": "https://dc.lft.to/lastmile_qr_scan", "ios": "https://dc.lft.to/lastmile_qr_scan"}, "fusion_lon": 0.0}, {"lat": 38.909455333333334, "is_disabled": 0, "type": "electric_scooter", "lon": -77.04295616666667, "bike_id": "74e6fc5ecff521426753a6bf6399d7e5", "fusion_lat": 0.0, "name": "74e6fc5ecff521426753a6bf6399d7e5", "is_reserved": 0, "rental_uris": {"android": "https://dc.lft.to/lastmile_qr_scan", "ios": "https://dc.lft.to/lastmile_qr_scan"}, "fusion_lon": 0.0}, {"lat": 38.91553483333333, "is_disabled": 0, "type": "electric_scooter", "lon": -77.03162116666667, "bike_id": "306576c6fd12958262dee41b27cd2bf8", "fusion_lat": 0.0, "name": "306576c6fd12958262dee41b27cd2bf8", "is_reserved": 0, "rental_uris": {"android": "https://dc.lft.to/lastmile_qr_scan", "ios": "https://dc.lft.to/lastmile_qr_scan"}, "fusion_lon": 0.0}, {"lat": 38.85563416666667, "is_disabled": 0, "type": "electric_bike", "lon": -77.08198533333334, "bike_id": "5af1a44f349b369b4718f00b7b1b71e1", "fusion_lat": 0.0, "name": "5af1a44f349b369b4718f00b7b1b71e1", "is_reserved": 0, "rental_uris": {"android": "https://dc.lft.to/lastmile_qr_scan", "ios": "https://dc.lft.to/lastmile_qr_scan"}, "fusion_lon": 0.0},