{"data": {"bikes": [{"name": "255abd6bd05aa9f2bca754175c80c92a", "lon": -77.0365375, "lat": 38.91795533333333, "type": "electric_scooter", "fusion_lon": 0.0, "is_reserved": 0, "bike_id": "255abd6bd05aa9f2bca754175c80c92a", "fusion_lat": 0.0, "is_disabled": 0, "rental_uris": {"ios": "https://dc.lft.to/lastmile_qr_scan", "android": "https://dc.lft.to/lastmile_qr_scan"}}, {"name": "ac2eee9d6ebb26388acc7e25c3d5b15d", "lon": -77.03830683333334, "lat": 38.906650166666665, "type": "electric_scooter", "fusion_lon": 0.0, "is_reserved": 0, "bike_id": "ac2eee9d6ebb26388acc7e25c3d5b15d", "fusion_lat": 0.0, "is_disabled": 0, "rental_uris": {"ios": "https://dc.lft.to/lastmile_qr_scan", "android": "https://dc.lft.to/lastmile_qr_scan"}}, {"name": "c20a86e78f3c981fa5a4ce9150c6b6c2", "lon": -77.034776, "lat": 38.9254195, "type": "electric_scooter", "fusion_lon": 0.0, "is_reserved": 0, "bike_id": "c20a86e78f3c981fa5a4ce9150c6b6c2", "fusion_lat": 0.0, "is_disabled": 0, "rental_uris": {"ios": "https://dc.lft.to/lastmile_qr_scan", "android": "https://dc.lft.to/lastmile_qr_scan"}}, {"name": "85e40d6a4154606dbcaffdd7f1cc8215", "lon": -77.03703016666667, "lat": 38.920366666666666, "type": "electric_bike", "fusion_lon": 0.0, "is_reserved": 0, "bike_id": "85e40d6a4154606dbcaffdd7f1cc8215", "fusion_lat": 0.0, "is_disabled": 0, "rental_uris": {"ios": "https://dc.lft.to/lastmile_qr_scan", "android": "https://dc.lft.to/lastmile_qr_scan"}}, {"name": "75f5f8dabbac5d812bd08cfac9f111c9", "lon": -76.984878, "lat": 38.915218333333335, "type": "electric_scooter", "fusion_lon": 0.0, "is_reserved": 0, "bike_id": "75f5f8dabbac5d812bd08cfac9f111c9", "fusion_lat": 0.0, "is_disabled": 0, "rental_uris": {"ios": "https://dc.lft.to/lastmile_qr_scan", "android": "https://dc.lft.to/lastmile_qr_scan"}}, {"name": "26720e0b780805a53f4e76e163b97903", "lon": -76.97237766666667, "lat": 38.9490625, "type": "electric_bike", "fusion_lon": 0.0, "is_reserved": 0, "bike_id": "26720e0b780805a53f4e76e163b97903", "fusion_lat": 0.0, "is_disabled": 0, "rental_uris": {"ios": "https://dc.lft.to/lastmile_qr_scan", "android": "https://dc.lft.to/lastmile_qr_scan"}}, {"name": "024e3c4495af1bfc45139098a9c63a61", "lon": -77.03890083333333, "lat": 38.922469, "type": "electric_scooter", "fusion_lon": 0.0, "is_reserved": 0, "bike_id": "024e3c4495af1bfc45139098a9c63a61", "fusion_lat": 0.0, "is_disabled": 0, "rental_uris": {"ios": "https://dc.lft.to/lastmile_qr_scan", "android": "https://dc.lft.to/lastmile_qr_scan"}}, {"name": "2453755119d0a4679a9a8008819a20dd", "lon": -77.08585633333334, "lat": 38.844413833333334, "type": "electric_bike", "fusion_lon": 0.0, "is_reserved": 0, "bike_id": "2453755119d0a4679a9a8008819a20dd", "fusion_lat": 0.0, "is_disabled": 0, "rental_uris": {"ios": "https://dc.lft.to/lastmile_qr_scan", "android": "https://dc.lft.to/lastmile_qr_scan"}}, {"name": "2b01d6e46449c8859f893e4ca08bf0ef", "lon": -76.99329833333333, "lat": 38.924444333333334, "type": "electric_scooter", "fusion_lon": 0.0, "is_reserved": 0, "bike_id": "2b01d6e46449c8859f893e4ca08bf0ef", "fusion_lat": 0.0, "is_disabled": 0, "rental_uris": {"ios": "https://dc.lft.to/lastmile_qr_scan", "android": "https://dc.lft.to/lastmile_qr_scan"}}, {"name": "e8e94ca87f2ab5501920604a1a214f9a", "lon": -77.02207966666667, "lat": 38.886471666666665, "type": "electric_scooter", "fusion_lon": 0.0, "is_reserved": 0, "bike_id": "e8e94ca87f2ab5501920604a1a214f9a", "fusion_lat": 0.0, "is_disabled": 0, "rental_uris": {"ios": "https://dc.lft.to/lastmile_qr_scan", "android": "https://dc.lft.to/lastmile_qr_scan"}}, {"name": "0fdaa8e370c57ba6ea08c3a6d93c14f0", "lon": -77.03672616666667, "lat": 38.93628866666667, "type": "electric_scooter", "fusion_lon": 0.0, "is_reserved": 0, "bike_id": "0fdaa8e370c57ba6ea08c3a6d93c14f0", "fusion_lat": 0.0, "is_disabled": 0, "rental_uris": {"ios": "https://dc.lft.to/lastmile_qr_scan", "android": "https://dc.lft.to/lastmile_qr_scan"}}, {"name": "e9fd870aee533e9fb726d2ce2eb146c5", "lon": -77.04271233333333, "lat": 38.908337, "type": "electric_scooter", "fusion_lon": 0.0, "is_reserved": 0, "bike_id": "e9fd870aee533e9fb726d2ce2eb146c5", "fusion_lat": 0.0, "is_disabled": 0, "rental_uris": {"ios": "https://dc.lft.to/lastmile_qr_scan", "android": "https://dc.lft.to/lastmile_qr_scan"}}, {"name": "8e0bcbb01ee47ea7d070e0fccb7b78d8", "lon": -77.03213283333334, "lat": 38.917800166666666, "type": "electric_scooter", "fusion_lon": 0.0, "is_reserved": 0, "bike_id": "8e0bcbb01ee47ea7d070e0fccb7b78d8", "fusion_lat": 0.0, "is_disabled": 0, "rental_uris": {"ios": "https://dc.lft.to/lastmile_qr_scan", "android": "https://dc.lft.to/lastmile_qr_scan"}}, {"name": "883e14597f0abce060a30bab57cb61d7", "lon": -77.0018865, "lat": 38.90039266666667, "type": "electric_scooter", "fusion_lon": 0.0, "is_reserved": 0, "bike_id": "883e14597f0abce060a30bab57cb61d7", "fusion_lat": 0.0, "is_disabled": 0, "rental_uris": {"ios": "https://dc.lft.to/lastmile_qr_scan", "android": "https://dc.lft.to/lastmile_qr_scan"}}, {"name": "6907d4d63359ccb9984e6fddd98ccf4f", "lon": -77.01744083333334, "lat": 38.88737616666667, "type": "electric_scooter", "fusion_lon": 0.0, "is_reserved": 0, "bike_id": "6907d4d63359ccb9984e6fddd98ccf4f", "fusion_lat": 0.0, "is_disabled": 0, "rental_uris": {"ios": "https://dc.lft.to/lastmile_qr_scan", "android": "https://dc.lft.to/lastmile_qr_scan"}}, {"name": "e25bd4342e5be48094335cdd3dfef1a9", "lon": -77.04473233333333, "lat": 38.905841333333335, "type": "electric_scooter", "fusion_lon": 0.0, "is_reserved": 0, "bike_id": "e25bd4342e5be48094335cdd3dfef1a9", "fusion_lat": 0.0, "is_disabled": 0, "rental_uris": {"ios": "https://dc.lft.to/lastmile_qr_scan", "android": "https://dc.lft.to/lastmile_qr_scan"}}, {"name": "d033d114f98b8f0636bd06b0db27d2a0", "lon": -77.04950533333333, "lat": 38.900824, "type": "electric_scooter", "fusion_lon": 0.0, "is_reserved": 0, "bike_id": "d033d114f98b8f0636bd06b0db27d2a0", "fusion_lat": 0.0, "is_disabled": 0, "rental_uris": {"ios": "https://dc.lft.to/lastmile_qr_scan", "android": "https://dc.lft.to/lastmile_qr_scan"}}, {"name": "0378d247dfe28c4ba2b1ce3fcc2f37c7", "lon": -77.043294, "lat": 38.89226883333333, "type": "electric_scooter", "fusion_lon": 0.0, "is_reserved": 0, "bike_id": "0378d247dfe28c4ba2b1ce3fcc2f37c7", "fusion_lat": 0.0, "is_disabled": 0, "rental_uris": {"ios": "https://dc.lft.to/lastmile_qr_scan", "android": "https://dc.lft.to/lastmile_qr_scan"}}, {"name": "b4cfd1dde14bb767e8ca1b5697a4d026", "lon": -77.02952416666666, "lat": 38.90755583333333, "type": "electric_scooter", "fusion_lon": 0.0, "is_reserved": 0, "bike_id": "b4cfd1dde14bb767e8ca1b5697a4d026", "fusion_lat": 0.0, "is_disabled": 0, "rental_uris": {"ios": "https://dc.lft.to/lastmile_qr_scan", "android": "https://dc.lft.to/lastmile_qr_scan"}}, {"name": "59f37eb776c1fb383b109d118b1dd975", "lon": -76.98534383333333, "lat": 38.8665225, "type": "electric_scooter", "fusion_lon": 0.0, "is_reserved": 0, "bike_id": "59f37eb776c1fb383b109d118b1dd975", "fusion_lat": 0.0, "is_disabled": 0, "rental_uris": {"ios": "https://dc.lft.to/lastmile_qr_scan", "android": "https://dc.lft.to/lastmile_qr_scan"}}, {"name": "55856af09ba1f0d96d286c6f2c5471a0", "lon": -77.04872083333333, "lat": 38.90638633333333, "type": "electric_scooter", "fusion_lon": 0.0, "is_reserved": 0, "bike_id": "55856af09ba1f0d96d286c6f2c5471a0", "fusion_lat": 0.0, "is_disabled": 0, "rental_uris": {"ios": "https://dc.lft.to/lastmile_qr_scan", "android": "https://dc.lft.to/lastmile_qr_scan"}}, {"name": "6f9b9dd8247c2c267dc5388b44f045f1", "lon": -77.00836716666667, "lat": 38.88171166666667, "type": "electric_scooter", "fusion_lon": 0.0, "is_reserved": 0, "bike_id": "6f9b9dd8247c2c267dc5388b44f045f1", "fusion_lat": 0.0, "is_disabled": 0, "rental_uris": {"ios": "https://dc.lft.to/lastmile_qr_scan", "android": "https://dc.lft.to/lastmile_qr_scan"}}, {"name": "988087ec993dd9791a3f91f0c2dfa216", "lon": -77.02716233333334, "lat": 38.900753333333334, "type": "electric_scooter", "fusion_lon": 0.0, "is_reserved": 0, "bike_id": "988087ec993dd9791a3f91f0c2dfa216", "fusion_lat": 0.0, "is_disabled": 0, "rental_uris": {"ios": "https://dc.lft.to/lastmile_qr_scan", "android": "https://dc.lft.to/lastmile_qr_scan"}}, {"name": "ac0085bc3a62ce1fe8f1e01c55431e5b", "lon": -77.03189283333333, "lat": 38.90766883333333, "type": "electric_scooter", "fusion_lon": 0.0, "is_reserved": 0, "bike_id": "ac0085bc3a62ce1fe8f1e01c55431e5b", "fusion_lat": 0.0, "is_disabled": 0, "rental_uris": {"ios": "https://dc.lft.to/lastmile_qr_scan", "android": "https://dc.lft.to/lastmile_qr_scan"}}, {"name": "261c2d3cfa1348694751991958133a03", "lon": -77.02202, "lat": 38.91395383333333, "type": "electric_scooter", "fusion_lon": 0.0, "is_reserved": 0, "bike_id": "261c2d3cfa1348694751991958133a03", "fusion_lat": 0.0, "is_disabled": 0, "rental_uris": {"ios": "https://dc.lft.to/lastmile_qr_scan", "android": "https://dc.lft.to/lastmile_qr_scan"}}, {"name": "b39c79256543e596b5bf135e0b22c85c", "lon": -77.0237815, "lat": 38.916561333333334, "type": "electric_scooter", "fusion_lon": 0.0, "is_reserved": 0, "bike_id": "b39c79256543e596b5bf135e0b22c85c", "fusion_lat": 0.0, "is_disabled": 0, "rental_uris": {"ios": "https://dc.lft.to/lastmile_qr_scan", "android": "https://dc.lft.to/lastmile_qr_scan"}}, {"name": "3d667f98e9990f6cb0433b79c2c769e9", "lon": -76.99711066666667, "lat": 38.84429, "type": "electric_scooter", "fusion_lon": 0.0, "is_reserved": 0, "bike_id": "3d667f98e9990f6cb0433b79c2c769e9", "fusion_lat": 0.0, "is_disabled": 0, "rental_uris": {"ios": "https://dc.lft.to/lastmile_qr_scan", "android": "https://dc.lft.to/lastmile_qr_scan"}}, {"name": "63f20fb4250217d2d6faacaecbec9ba1", "lon": -77.0062625, "lat": 38.87554016666667, "type": "electric_scooter", "fusion_lon": 0.0, "is_reserved": 0, "bike_id": "63f20fb4250217d2d6faacaecbec9ba1", "fusion_lat": 0.0, "is_disabled": 0, "rental_uris": {"ios": "https://dc.lft.to/lastmile_qr_scan", "android": "https://dc.lft.to/lastmile_qr_scan"}}, {"name": "f7c04b554f6ca8811faf85964735ee69", "lon": -77.03575766666667, "lat": 38.91914366666666, "type": "electric_bike", "fusion_lon": 0.0, "is_reserved": 0, "bike_id": "f7c04b554f6ca8811faf85964735ee69", "fusion_lat": 0.0, "is_disabled": 0, "rental_uris": {"ios": "https://dc.lft.to/lastmile_qr_scan", "android": "https://dc.lft.to/lastmile_qr_scan"}}, {"name": "67316b6a060102f8fbabd5e42dcc761d", "lon": -76.98841316666666, "lat": 38.8926075, "type": "electric_scooter", "fusion_lon": 0.0, "is_reserved": 0, "bike_id": "67316b6a060102f8fbabd5e42dcc761d", "fusion_lat": 0.0, "is_disabled": 0, "rental_uris": {"ios": "https://dc.lft.to/lastmile_qr_scan", "android": "https://dc.lft.to/lastmile_qr_scan"}}, {"name": "a752cb1a896bd3b6c869a6e0e50b5303", "lon": -77.02694916666667, "lat": 38.90434283333333, "type": "electric_scooter", "fusion_lon": 0.0, "is_reserved": 0, "bike_id": "a752cb1a896bd3b6c869a6e0e50b5303", "fusion_lat": 0.0, "is_disabled": 0, "rental_uris": {"ios": "https://dc.lft.to/lastmile_qr_scan", "android": "https://dc.lft.to/lastmile_qr_scan"}}, {"name": "feccd2be506f97fea94507b0d6e35667", "lon": -77.04858933333334, "lat": 38.91970833333333, "type": "electric_scooter", "fusion_lon": 0.0, "is_reserved": 0, "bike_id": "feccd2be506f97fea94507b0d6e35667", "fusion_lat": 0.0, "is_disabled": 0, "rental_uris": {"ios": "https://dc.lft.to/lastmile_qr_scan", "android": "https://dc.lft.to/lastmile_qr_scan"}}, {"name": "85974451c6cc0263d53178ac57ef8a68", "lon": -77.022973, "lat": 38.92807283333333, "type": "electric_scooter", "fusion_lon": 0.0, "is_reserved": 0, "bike_id": "85974451c6cc0263d53178ac57ef8a68", "fusion_lat": 0.0, "is_disabled": 0, "rental_uris": {"ios": "https://dc.lft.to/lastmile_qr_scan", "android": "https://dc.lft.to/lastmile_qr_scan"}}, {"name": "8f6e3bf067e25a7c80ffbc6310721786", "lon": -77.00439283333333, "lat": 38.876715833333336, "type": "electric_scooter", "fusion_lon": 0.0, "is_reserved": 0, "bike_id": "8f6e3bf067e25a7c80ffbc6310721786", "fusion_lat": 0.0, "is_disabled": 0, "rental_uris": {"ios": "https://dc.lft.to/lastmile_qr_scan", "android": "https://dc.lft.to/lastmile_qr_scan"}}, {"name": "23ac33e1754706cd0174d59f527ee877", "lon": -77.03849866666667, "lat": 38.912106666666666, "type": "electric_scooter", "fusion_lon": 0.0, "is_reserved": 0, "bike_id": "23ac33e1754706cd0174d59f527ee877", "fusion_lat": 0.0, "is_disabled": 0, "rental_uris": {"ios": "https://dc.lft.to/lastmile_qr_scan", "android": "https://dc.lft.to/lastmile_qr_scan"}}, {"name": "4b316fb9766a3799d846751c1f59ad2a", "lon": -77.05124416666666, "lat": 38.923503, "type": "electric_scooter", "fusion_lon": 0.0, "is_reserved": 0, "bike_id": "4b316fb9766a3799d846751c1f59ad2a", "fusion_lat": 0.0, "is_disabled": 0, "rental_uris": {"ios": "https://dc.lft.to/lastmile_qr_scan", "android": "https://dc.lft.to/lastmile_qr_scan"}}, {"name": "8aae7be029e226c423b5c71b2f37a51d", "lon": -77.048198, "lat": 38.910501333333336, "type": "electric_scooter", "fusion_lon": 0.0, "is_reserved": 0, "bike_id": "8aae7be029e226c423b5c71b2f37a51d", "fusion_lat": 0.0, "is_disabled": 0, "rental_uris": {"ios": "https://dc.lft.to/lastmile_qr_scan", "android": "https://dc.lft.to/lastmile_qr_scan"}}, {"name": "4ec4edc0e846c0a21c50257ed9c3398d", "lon": -77.02203033333333, "lat": 38.9058505, "type": "electric_scooter", "fusion_lon": 0.0, "is_reserved": 0, "bike_id": "4ec4edc0e846c0a21c50257ed9c3398d", "fusion_lat": 0.0, "is_disabled": 0, "rental_uris": {"ios": "https://dc.lft.to/lastmile_qr_scan", "android": "https://dc.lft.to/lastmile_qr_scan"}}, {"name": "a7a96ef689c8370cbf7241d402a42e55", "lon": -76.99809016666667, "lat": 38.885661166666665, "type": "electric_scooter", "fusion_lon": 0.0, "is_reserved": 0, "bike_id": "a7a96ef689c8370cbf7241d402a42e55", "fusion_lat": 0.0, "is_disabled": 0, "rental_uris": {"ios": "https://dc.lft.to/lastmile_qr_scan", "android": "https://dc.lft.to/lastmile_qr_scan"}}, {"name": "027015a16f87a08f019ee3f74a5b5680", "lon": -77.02162433333334, "lat": 38.92615833333333, "type": "electric_scooter", "fusion_lon": 0.0, "is_reserved": 0, "bike_id": "027015a16f87a08f019ee3f74a5b5680", "fusion_lat": 0.0, "is_disabled": 0, "rental_uris": {"ios": "https://dc.lft.to/lastmile_qr_scan", "android": "https://dc.lft.to/lastmile_qr_scan"}}, {"name": "5c5d34fedcc5907ac13f5ca9b40fab3f", "lon": -77.02700383333334, "lat": 38.906932833333336, "type": "electric_scooter", "fusion_lon": 0.0, "is_reserved": 0, "bike_id": "5c5d34fedcc5907ac13f5ca9b40fab3f", "fusion_lat": 0.0, "is_disabled": 0, "rental_uris": {"ios": "https://dc.lft.to/lastmile_qr_scan", "android": "https://dc.lft.to/lastmile_qr_scan"}}, {"name": "32393e27ed5ef973e4fd6b19a6c10fe7", "lon": -77.027645, "lat": 38.9542615, "type": "electric_scooter", "fusion_lon": 0.0, "is_reserved": 0, "bike_id": "32393e27ed5ef973e4fd6b19a6c10fe7", "fusion_lat": 0.0, "is_disabled": 0, "rental_uris": {"ios": "https://dc.lft.to/lastmile_qr_scan", "android": "https://dc.lft.to/lastmile_qr_scan"}}, {"name": "3ced0d8d64a5ada796e089b7a34bd31e", "lon": -77.05346766666666, "lat": 38.9235145, "type": "electric_scooter", "fusion_lon": 0.0, "is_reserved": 0, "bike_id": "3ced0d8d64a5ada796e089b7a34bd31e", "fusion_lat": 0.0, "is_disabled": 0, "rental_uris": {"ios": "https://dc.lft.to/lastmile_qr_scan", "android": "https://dc.lft.to/lastmile_qr_scan"}}, {"name": "e38bfe04a07640cfed079bf0c4f95469", "lon": -77.06333566666666, "lat": 38.90763416666667, "type": "electric_scooter", "fusion_lon": 0.0, "is_reserved": 0, "bike_id": "e38bfe04a07640cfed079bf0c4f95469", "fusion_lat": 0.0, "is_disabled": 0, "rental_uris": {"ios": "https://dc.lft.to/lastmile_qr_scan", "android": "https://dc.lft.to/lastmile_qr_scan"}}, {"name": "9100c8ba2d16d3072e1d0666b6b164ca", "lon": -77.03066666666666, "lat": 38.92251616666667, "type": "electric_scooter", "fusion_lon": 0.0, "is_reserved": 0, "bike_id": "9100c8ba2d16d3072e1d0666b6b164ca", "fusion_lat": 0.0, "is_disabled": 0, "rental_uris": {"ios": "https://dc.lft.to/lastmile_qr_scan", "android": "https://dc.lft.to/lastmile_qr_scan"}}, {"name": "6fd2a1f222b9aa155c17aacafabccbf9", "lon": -77.022035, "lat": 38.90199233333333, "type": "electric_scooter", "fusion_lon": 0.0, "is_reserved": 0, "bike_id": "6fd2a1f222b9aa155c17aacafabccbf9", "fusion_lat": 0.0, "is_disabled": 0, "rental_uris": {"ios": "https://dc.lft.to/lastmile_qr_scan", "android": "https://dc.lft.to/lastmile_qr_scan"}}, {"name": "ade8cf0b87358467ce6c9407258c7fea", "lon": -77.03205983333334, "lat": 38.9179175, "type": "electric_scooter", "fusion_lon": 0.0, "is_reserved": 0, "bike_id": "ade8cf0b87358467ce6c9407258c7fea", "fusion_lat": 0.0, "is_disabled": 0, "rental_uris": {"ios": "https://dc.lft.to/lastmile_qr_scan", "android": "https://dc.lft.to/lastmile_qr_scan"}}, {"name": "bd2c2902d57f043d5301dc707f3c2949", "lon": -76.9973955, "lat": 38.90132533333333, "type": "electric_scooter", "fusion_lon": 0.0, "is_reserved": 0, "bike_id": "bd2c2902d57f043d5301dc707f3c2949", "fusion_lat": 0.0, "is_disabled": 0, "rental_uris": {"ios": "https://dc.lft.to/lastmile_qr_scan", "android": "https://dc.lft.to/lastmile_qr_scan"}}, {"name": "511f95d52ad7e3e7cebb76c294672387", "lon": -77.06297916666666, "lat": 38.903993, "type": "electric_scooter", "fusion_lon": 0.0, "is_reserved": 0, "bike_id": "511f95d52ad7e3e7cebb76c294672387", "fusion_lat": 0.0, "is_disabled": 0, "rental_uris": {"ios": "https://dc.lft.to/lastmile_qr_scan", "android": "https://dc.lft.to/lastmile_qr_scan"}}, {"name": "8767025ef57ab0c4361fafbc28e87ec3", "lon": -76.98696216666667, "lat": 38.862575166666666, "type": "electric_scooter", "fusion_lon": 0.0, "is_reserved": 0, "bike_id": "8767025ef57ab0c4361fafbc28e87ec3", "fusion_lat": 0.0, "is_disabled": 0, "rental_uris": {"ios": "https://dc.lft.to/lastmile_qr_scan", "android": "https://dc.lft.to/lastmile_qr_scan"}}, {"name": "60f9e112feea2237af9ce530fa527fb9", "lon": -77.0272545, "lat": 38.934241, "type": "electric_scooter", "fusion_lon": 0.0, "is_reserved": 0, "bike_id": "60f9e112feea2237af9ce530fa527fb9", "fusion_lat": 0.0, "is_disabled": 0, "rental_uris": {"ios": "https://dc.lft.to/lastmile_qr_scan", "android": "https://dc.lft.to/lastmile_qr_scan"}}, {"name": "3421e18f17fc109c41898ed97c408111", "lon": -77.02638083333333, "lat": 38.89194883333333, "type": "electric_scooter", "fusion_lon": 0.0, "is_reserved": 0, "bike_id": "3421e18f17fc109c41898ed97c408111", "fusion_lat": 0.0, "is_disabled": 0, "rental_uris": {"ios": "https://dc.lft.to/lastmile_qr_scan", "android": "https://dc.lft.to/lastmile_qr_scan"}}, {"name": "58640a0bfe492977ba3340f9c1c6b9cd", "lon": -77.03282233333333, "lat": 38.936739, "type": "electric_scooter", "fusion_lon": 0.0, "is_reserved": 0, "bike_id": "58640a0bfe492977ba3340f9c1c6b9cd", "fusion_lat": 0.0, "is_disabled": 0, "rental_uris": {"ios": "https://dc.lft.to/lastmile_qr_scan", "android": "https://dc.lft.to/lastmile_qr_scan"}}, {"name": "9b827091eda98a27eeab42446174be84", "lon": -77.01437983333334, "lat": 38.91964466666667, "type": "electric_scooter", "fusion_lon": 0.0, "is_reserved": 0, "bike_id": "9b827091eda98a27eeab42446174be84", "fusion_lat": 0.0, "is_disabled": 0, "rental_uris": {"ios": "https://dc.lft.to/lastmile_qr_scan", "android": "https://dc.lft.to/lastmile_qr_scan"}}, {"name": "f885ebd5bc20574b83283cde618234a5", "lon": -77.03289733333334, "lat": 38.929006333333334, "type": "electric_scooter", "fusion_lon": 0.0, "is_reserved": 0, "bike_id": "f885ebd5bc20574b83283cde618234a5", "fusion_lat": 0.0, "is_disabled": 0, "rental_uris": {"ios": "https://dc.lft.to/lastmile_qr_scan", "android": "https://dc.lft.to/lastmile_qr_scan"}}, {"name": "2406e21df059b6ff7117090eebe514d5", "lon": -77.04513083333333, "lat": 38.89220316666667, "type": "electric_scooter", "fusion_lon": 0.0, "is_reserved": 0, "bike_id": "2406e21df059b6ff7117090eebe514d5", "fusion_lat": 0.0, "is_disabled": 0, "rental_uris": {"ios": "https://dc.lft.to/lastmile_qr_scan", "android": "https://dc.lft.to/lastmile_qr_scan"}}, {"name": "e4622365fbaf61c26cd1b8d891e66e91", "lon": -77.026807, "lat": 38.912664, "type": "electric_scooter", "fusion_lon": 0.0, "is_reserved": 0, "bike_id": "e4622365fbaf61c26cd1b8d891e66e91", "fusion_lat": 0.0, "is_disabled": 0, "rental_uris": {"ios": "https://dc.lft.to/lastmile_qr_scan", "android": "https://dc.lft.to/lastmile_qr_scan"}}, {"name": "aa917badb27fcaf3aa8f449c14d7d84c", "lon": -77.03194933333333, "lat": 38.917860166666664, "type": "electric_scooter", "fusion_lon": 0.0, "is_reserved": 0, "bike_id": "aa917badb27fcaf3aa8f449c14d7d84c", "fusion_lat": 0.0, "is_disabled": 0, "rental_uris": {"ios": "https://dc.lft.to/lastmile_qr_scan", "android": "https://dc.lft.to/lastmile_qr_scan"}}, {"name": "9f31bd912820e42eb682a14fd1bb5fd0", "lon": -77.01835066666666, "lat": 38.942071166666665, "type": "electric_scooter", "fusion_lon": 0.0, "is_reserved": 0, "bike_id": "9f31bd912820e42eb682a14fd1bb5fd0", "fusion_lat": 0.0, "is_disabled": 0, "rental_uris": {"ios": "https://dc.lft.to/lastmile_qr_scan", "android": "https://dc.lft.to/lastmile_qr_scan"}}, {"name": "13fcc85128254a2487b2e57a5983f52a", "lon": -77.02982066666667, "lat": 38.923730166666665, "type": "electric_scooter", "fusion_lon": 0.0, "is_reserved": 0, "bike_id": "13fcc85128254a2487b2e57a5983f52a", "fusion_lat": 0.0, "is_disabled": 0, "rental_uris": {"ios": "https://dc.lft.to/lastmile_qr_scan", "android": "https://dc.lft.to/lastmile_qr_scan"}}, {"name": "902017112ca9072a689999a138adaff8", "lon": -77.03954283333333, "lat": 38.930659166666665, "type": "electric_scooter", "fusion_lon": 0.0, "is_reserved": 0, "bike_id": "902017112ca9072a689999a138adaff8", "fusion_lat": 0.0, "is_disabled": 0, "rental_uris": {"ios": "https://dc.lft.to/lastmile_qr_scan", "android": "https://dc.lft.to/lastmile_qr_scan"}}, {"name": "6c498ce55e7beb5f04c8597282719b67", "lon": -77.03130783333333, "lat": 38.91929233333333, "type": "electric_scooter", "fusion_lon": 0.0, "is_reserved": 0, "bike_id": "6c498ce55e7beb5f04c8597282719b67", "fusion_lat": 0.0, "is_disabled": 0, "rental_uris": {"ios": "https://dc.lft.to/lastmile_qr_scan", "android": "https://dc.lft.to/lastmile_qr_scan"}}, {"name": "11f56f5f8282687bd6f8c98cc5e393a5", "lon": -76.99646716666666, "lat": 38.98830533333334, "type": "electric_bike", "fusion_lon": 0.0, "is_reserved": 0, "bike_id": "11f56f5f8282687bd6f8c98cc5e393a5", "fusion_lat": 0.0, "is_disabled": 0, "rental_uris": {"ios": "https://dc.lft.to/lastmile_qr_scan", "android": "https://dc.lft.to/lastmile_qr_scan"}}, {"name": "da6048695eadf70a424b2cc3ea9f866f", "lon": -77.0390395, "lat": 38.918304, "type": "electric_scooter", "fusion_lon": 0.0, "is_reserved": 0, "bike_id": "da6048695eadf70a424b2cc3ea9f866f", "fusion_lat": 0.0, "is_disabled": 0, "rental_uris": {"ios": "https://dc.lft.to/lastmile_qr_scan", "android": "https://dc.lft.to/lastmile_qr_scan"}}, {"name": "19786e30369eba53f4033206904833fd", "lon": -77.03738466666667, "lat": 38.9269225, "type": "electric_scooter", "fusion_lon": 0.0, "is_reserved": 0, "bike_id": "19786e30369eba53f4033206904833fd", "fusion_lat": 0.0, "is_disabled": 0, "rental_uris": {"ios": "https://dc.lft.to/lastmile_qr_scan", "android": "https://dc.lft.to/lastmile_qr_scan"}}, {"name": "2e06a75339460fdf2954ec5cd26d5608", "lon": -76.98369266666667, "lat": 38.91552033333333, "type": "electric_scooter", "fusion_lon": 0.0, "is_reserved": 0, "bike_id": "2e06a75339460fdf2954ec5cd26d5608", "fusion_lat": 0.0, "is_disabled": 0, "rental_uris": {"ios": "https://dc.lft.to/lastmile_qr_scan", "android": "https://dc.lft.to/lastmile_qr_scan"}}, {"name": "8a0469adb3d458a017469c8440bb4e23", "lon": -77.01981816666667, "lat": 38.88584483333333, "type": "electric_scooter", "fusion_lon": 0.0, "is_reserved": 0, "bike_id": "8a0469adb3d458a017469c8440bb4e23", "fusion_lat": 0.0, "is_disabled": 0, "rental_uris": {"ios": "https://dc.lft.to/lastmile_qr_scan", "android": "https://dc.lft.to/lastmile_qr_scan"}}, {"name": "1a64964d4b06db404f80302a23508a5e", "lon": -77.0609415, "lat": 38.911686333333336, "type": "electric_scooter", "fusion_lon": 0.0, "is_reserved": 0, "bike_id": "1a64964d4b06db404f80302a23508a5e", "fusion_lat": 0.0, "is_disabled": 0, "rental_uris": {"ios": "https://dc.lft.to/lastmile_qr_scan", "android": "https://dc.lft.to/lastmile_qr_scan"}}, {"name": "4820546c8b7a90b72753a2ca1fdd32fa", "lon": -77.036118, "lat": 38.923318333333334, "type": "electric_scooter", "fusion_lon": 0.0, "is_reserved": 0, "bike_id": "4820546c8b7a90b72753a2ca1fdd32fa", "fusion_lat": 0.0, "is_disabled": 0, "rental_uris": {"ios": "https://dc.lft.to/lastmile_qr_scan", "android": "https://dc.lft.to/lastmile_qr_scan"}}, {"name": "fb99f02d77f01e42ff10182315e490e0", "lon": -77.07347433333334, "lat": 38.93051716666667, "type": "electric_bike", "fusion_lon": 0.0, "is_reserved": 0, "bike_id": "fb99f02d77f01e42ff10182315e490e0", "fusion_lat": 0.0, "is_disabled": 0, "rental_uris": {"ios": "https://dc.lft.to/lastmile_qr_scan", "android": "https://dc.lft.to/lastmile_qr_scan"}}, {"name": "324317bf209efc078c0bbc6b77ba8bd4", "lon": -77.0219645, "lat": 38.910019, "type": "electric_scooter", "fusion_lon": 0.0, "is_reserved": 0, "bike_id": "324317bf209efc078c0bbc6b77ba8bd4", "fusion_lat": 0.0, "is_disabled": 0, "rental_uris": {"ios": "https://dc.lft.to/lastmile_qr_scan", "android": "https://dc.lft.to/lastmile_qr_scan"}}, {"name": "b689aaf89461027d69c564e8700ac5eb", "lon": -77.03182716666667, "lat": 38.913516666666666, "type": "electric_scooter", "fusion_lon": 0.0, "is_reserved": 0, "bike_id": "b689aaf89461027d69c564e8700ac5eb", "fusion_lat": 0.0, "is_disabled": 0, "rental_uris": {"ios": "https://dc.lft.to/lastmile_qr_scan", "android": "https://dc.lft.to/lastmile_qr_scan"}}, {"name": "408201eeec9ea4bb8555932b54f81af2", "lon": -77.02500566666667, "lat": 38.906365, "type": "electric_scooter", "fusion_lon": 0.0, "is_reserved": 0, "bike_id": "408201eeec9ea4bb8555932b54f81af2", "fusion_lat": 0.0, "is_disabled": 0, "rental_uris": {"ios": "https://dc.lft.to/lastmile_qr_scan", "android": "https://dc.lft.to/lastmile_qr_scan"}}, {"name": "b7726dac0d87d618ae069b7da503dd97", "lon": -77.11602033333334, "lat": 39.074944, "type": "electric_bike", "fusion_lon": 0.0, "is_reserved": 0, "bike_id": "b7726dac0d87d618ae069b7da503dd97", "fusion_lat": 0.0, "is_disabled": 0, "rental_uris": {"ios": "https://dc.lft.to/lastmile_qr_scan", "android": "https://dc.lft.to/lastmile_qr_scan"}}, {"name": "8c5cc1bbe0fb4f599396e5364c78a451", "lon": -76.997779, "lat": 38.909063333333336, "type": "electric_scooter", "fusion_lon": 0.0, "is_reserved": 0, "bike_id": "8c5cc1bbe0fb4f599396e5364c78a451", "fusion_lat": 0.0, "is_disabled": 0, "rental_uris": {"ios": "https://dc.lft.to/lastmile_qr_scan", "android": "https://dc.lft.to/lastmile_qr_scan"}}, {"name": "94c4b013ef666b09111911c3cbc08b53", "lon": -77.01509266666666, "lat": 38.886347, "type": "electric_scooter", "fusion_lon": 0.0, "is_reserved": 0, "bike_id": "94c4b013ef666b09111911c3cbc08b53", "fusion_lat": 0.0, "is_disabled": 0, "rental_uris": {"ios": "https://dc.lft.to/lastmile_qr_scan", "android": "https://dc.lft.to/lastmile_qr_scan"}}, {"name": "ca91656ac3b9d7b265272d5b517bd201", "lon": -77.02181066666667, "lat": 38.93478566666667, "type": "electric_scooter", "fusion_lon": 0.0, "is_reserved": 0, "bike_id": "ca91656ac3b9d7b265272d5b517bd201", "fusion_lat": 0.0, "is_disabled": 0, "rental_uris": {"ios": "https://dc.lft.to/lastmile_qr_scan", "android": "https://dc.lft.to/lastmile_qr_scan"}}, {"name": "029da85d6890edb4a5b0e39e831884f4", "lon": -77.01654066666667, "lat": 38.88126483333333, "type": "electric_scooter", "fusion_lon": 0.0, "is_reserved": 0, "bike_id": "029da85d6890edb4a5b0e39e831884f4", "fusion_lat": 0.0, "is_disabled": 0, "rental_uris": {"ios": "https://dc.lft.to/lastmile_qr_scan", "android": "https://dc.lft.to/lastmile_qr_scan"}}, {"name": "01b3d6c9c2faeab8a3e30cdd28af6a0a", "lon": -77.02831416666666, "lat": 38.95087733333333, "type": "electric_scooter", "fusion_lon": 0.0, "is_reserved": 0, "bike_id": "01b3d6c9c2faeab8a3e30cdd28af6a0a", "fusion_lat": 0.0, "is_disabled": 0, "rental_uris": {"ios": "https://dc.lft.to/lastmile_qr_scan", "android": "https://dc.lft.to/lastmile_qr_scan"}}, {"name": "d49412e33a85a11cd9a3d8f83aee3db9", "lon": -77.0384645, "lat": 38.90793, "type": "electric_scooter", "fusion_lon": 0.0, "is_reserved": 0, "bike_id": "d49412e33a85a11cd9a3d8f83aee3db9", "fusion_lat": 0.0, "is_disabled": 0, "rental_uris": {"ios": "https://dc.lft.to/lastmile_qr_scan", "android": "https://dc.lft.to/lastmile_qr_scan"}}, {"name": "fb36f74ebf3ecfd172b7d979095a2786", "lon": -77.047523, "lat": 38.90546533333333, "type": "electric_scooter", "fusion_lon": 0.0, "is_reserved": 0, "bike_id": "fb36f74ebf3ecfd172b7d979095a2786", "fusion_lat": 0.0, "is_disabled": 0, "rental_uris": {"ios": "https://dc.lft.to/lastmile_qr_scan", "android": "https://dc.lft.to/lastmile_qr_scan"}}, {"name": "33e670e5aa3e95b3087206631599d18d", "lon": -77.05088966666666, "lat": 38.813355666666666, "type": "electric_bike", "fusion_lon": 0.0, "is_reserved": 0, "bike_id": "33e670e5aa3e95b3087206631599d18d", "fusion_lat": 0.0, "is_disabled": 0, "rental_uris": {"ios": "https://dc.lft.to/lastmile_qr_scan", "android": "https://dc.lft.to/lastmile_qr_scan"}}, {"name": "68747c595352c042c33254560d0ad3b6", "lon": -77.03052283333334, "lat": 38.913388, "type": "electric_scooter", "fusion_lon": 0.0, "is_reserved": 0, "bike_id": "68747c595352c042c33254560d0ad3b6", "fusion_lat": 0.0, "is_disabled": 0, "rental_uris": {"ios": "https://dc.lft.to/lastmile_qr_scan", "android": "https://dc.lft.to/lastmile_qr_scan"}}, {"name": "192962965acd0ba8ddfcb3dc0ce1225f", "lon": -77.03391033333334, "lat": 38.9039855, "type": "electric_scooter", "fusion_lon": 0.0, "is_reserved": 0, "bike_id": "192962965acd0ba8ddfcb3dc0ce1225f", "fusion_lat": 0.0, "is_disabled": 0, "rental_uris": {"ios": "https://dc.lft.to/lastmile_qr_scan", "android": "https://dc.lft.to/lastmile_qr_scan"}}, {"name": "73f9e549624d34fc65aab436b390c8b5", "lon": -76.982729, "lat": 38.885328666666666, "type": "electric_scooter", "fusion_lon": 0.0, "is_reserved": 0, "bike_id": "73f9e549624d34fc65aab436b390c8b5", "fusion_lat": 0.0, "is_disabled": 0, "rental_uris": {"ios": "https://dc.lft.to/lastmile_qr_scan", "android": "https://dc.lft.to/lastmile_qr_scan"}}, {"name": "7ff6abf2bfdb82886e5777281ef98ad1", "lon": -77.02770933333333, "lat": 38.939619, "type": "electric_scooter", "fusion_lon": 0.0, "is_reserved": 0, "bike_id": "7ff6abf2bfdb82886e5777281ef98ad1", "fusion_lat": 0.0, "is_disabled": 0, "rental_uris": {"ios": "https://dc.lft.to/lastmile_qr_scan", "android": "https://dc.lft.to/lastmile_qr_scan"}}, {"name": "caedc9dfa33ac46198e91e41d4dcc462", "lon": -76.98600616666667, "lat": 38.90625983333334, "type": "electric_bike", "fusion_lon": 0.0, "is_reserved": 0, "bike_id": "caedc9dfa33ac46198e91e41d4dcc462", "fusion_lat": 0.0, "is_disabled": 0, "rental_uris": {"ios": "https://dc.lft.to/lastmile_qr_scan", "android": "https://dc.lft.to/lastmile_qr_scan"}}, {"name": "23efeba5005a7daa62087f6c659ca035", "lon": -76.99840516666667, "lat": 38.89082233333333, "type": "electric_scooter", "fusion_lon": 0.0, "is_reserved": 0, "bike_id": "23efeba5005a7daa62087f6c659ca035", "fusion_lat": 0.0, "is_disabled": 0, "rental_uris": {"ios": "https://dc.lft.to/lastmile_qr_scan", "android": "https://dc.lft.to/lastmile_qr_scan"}}, {"name": "db004616d68c32f40464bd992a3be8e1", "lon": -77.04554016666667, "lat": 38.94109566666667, "type": "electric_scooter", "fusion_lon": 0.0, "is_reserved": 0, "bike_id": "db004616d68c32f40464bd992a3be8e1", "fusion_lat": 0.0, "is_disabled": 0, "rental_uris": {"ios": "https://dc.lft.to/lastmile_qr_scan", "android": "https://dc.lft.to/lastmile_qr_scan"}}, {"name": "44c9a360d879104187e0e8937a31e0d4", "lon": -77.04618883333333, "lat": 38.919317666666664, "type": "electric_scooter", "fusion_lon": 0.0, "is_reserved": 0, "bike_id": "44c9a360d879104187e0e8937a31e0d4", "fusion_lat": 0.0, "is_disabled": 0, "rental_uris": {"ios": "https://dc.lft.to/lastmile_qr_scan", "android": "https://dc.lft.to/lastmile_qr_scan"}}, {"name": "3f4d035b4114bb17aeb561d7878902be", "lon": -77.0346205, "lat": 38.9073365, "type": "electric_scooter", "fusion_lon": 0.0, "is_reserved": 0, "bike_id": "3f4d035b4114bb17aeb561d7878902be", "fusion_lat": 0.0, "is_disabled": 0, "rental_uris": {"ios": "https://dc.lft.to/lastmile_qr_scan", "android": "https://dc.lft.to/lastmile_qr_scan"}}, {"name": "0eab5c5382283d3325861e7f6816e69f", "lon": -77.03834916666666, "lat": 38.9071735, "type": "electric_scooter", "fusion_lon": 0.0, "is_reserved": 0, "bike_id": "0eab5c5382283d3325861e7f6816e69f", "fusion_lat": 0.0, "is_disabled": 0, "rental_uris": {"ios": "https://dc.lft.to/lastmile_qr_scan", "android": "https://dc.lft.to/lastmile_qr_scan"}}, {"name": "b26ad4a48745de2d2522e849c664031e", "lon": -77.02332233333334, "lat": 38.9261935, "type": "electric_scooter", "fusion_lon": 0.0, "is_reserved": 0, "bike_id": "b26ad4a48745de2d2522e849c664031e", "fusion_lat": 0.0, "is_disabled": 0, "rental_uris": {"ios": "https://dc.lft.to/lastmile_qr_scan", "android": "https://dc.lft.to/lastmile_qr_scan"}}, {"name": "0d8189e0983cf981ee703209f5dc46c9", "lon": -77.01756, "lat": 38.88283583333333, "type": "electric_scooter", "fusion_lon": 0.0, "is_reserved": 0, "bike_id": "0d8189e0983cf981ee703209f5dc46c9", "fusion_lat": 0.0, "is_disabled": 0, "rental_uris": {"ios": "https://dc.lft.to/lastmile_qr_scan", "android": "https://dc.lft.to/lastmile_qr_scan"}}, {"name": "6563d0491be05d43156fdfdcaa705f0f", "lon": -77.061027, "lat": 38.937074, "type": "electric_scooter", "fusion_lon": 0.0, "is_reserved": 0, "bike_id": "6563d0491be05d43156fdfdcaa705f0f", "fusion_lat": 0.0, "is_disabled": 0, "rental_uris": {"ios": "https://dc.lft.to/lastmile_qr_scan", "android": "https://dc.lft.to/lastmile_qr_scan"}}, {"name": "e0beae69b053c2e8143e8c025358fd58", "lon": -77.02443733333334, "lat": 38.924034666666664, "type": "electric_scooter", "fusion_lon": 0.0, "is_reserved": 0, "bike_id": "e0beae69b053c2e8143e8c025358fd58", "fusion_lat": 0.0, "is_disabled": 0, "rental_uris": {"ios": "https://dc.lft.to/lastmile_qr_scan", "android": "https://dc.lft.to/lastmile_qr_scan"}}, {"name": "9ce4b0cba42ce9ea16ecf2ed2df20d5e", "lon": -76.98842, "lat": 38.901976, "type": "electric_scooter", "fusion_lon": 0.0, "is_reserved": 0, "bike_id": "9ce4b0cba42ce9ea16ecf2ed2df20d5e", "fusion_lat": 0.0, "is_disabled": 0, "rental_uris": {"ios": "https://dc.lft.to/lastmile_qr_scan", "android": "https://dc.lft.to/lastmile_qr_scan"}}, {"name": "0d14df5caa7d66841d7854d09818e5bf", "lon": -76.98479066666667, "lat": 38.91091266666667, "type": "electric_bike", "fusion_lon": 0.0, "is_reserved": 0, "bike_id": "0d14df5caa7d66841d7854d09818e5bf", "fusion_lat": 0.0, "is_disabled": 0, "rental_uris": {"ios": "https://dc.lft.to/lastmile_qr_scan", "android": "https://dc.lft.to/lastmile_qr_scan"}}, {"name": "ce710c09e6ae05bb8d921346d036163d", "lon": -77.02596166666666, "lat": 38.916922, "type": "electric_scooter", "fusion_lon": 0.0, "is_reserved": 0, "bike_id": "ce710c09e6ae05bb8d921346d036163d", "fusion_lat": 0.0, "is_disabled": 0, "rental_uris": {"ios": "https://dc.lft.to/lastmile_qr_scan", "android": "https://dc.lft.to/lastmile_qr_scan"}}, {"name": "f6c94f6be3ce53263abf2470365f53a1", "lon": -77.02181316666666, "lat": 38.91506716666667, "type": "electric_scooter", "fusion_lon": 0.0, "is_reserved": 0, "bike_id": "f6c94f6be3ce53263abf2470365f53a1", "fusion_lat": 0.0, "is_disabled": 0, "rental_uris": {"ios": "https://dc.lft.to/lastmile_qr_scan", "android": "https://dc.lft.to/lastmile_qr_scan"}}, {"name": "0c9a2111a078d15cd31df79002a9e9c6", "lon": -77.03348616666666, "lat": 38.8982915, "type": "electric_scooter", "fusion_lon": 0.0, "is_reserved": 0, "bike_id": "0c9a2111a078d15cd31df79002a9e9c6", "fusion_lat": 0.0, "is_disabled": 0, "rental_uris": {"ios": "https://dc.lft.to/lastmile_qr_scan", "android": "https://dc.lft.to/lastmile_qr_scan"}}, {"name": "9f6c4937fc964b786ae8dc143a45b7f3", "lon": -77.03296866666666, "lat": 38.92063616666667, "type": "electric_scooter", "fusion_lon": 0.0, "is_reserved": 0, "bike_id": "9f6c4937fc964b786ae8dc143a45b7f3", "fusion_lat": 0.0, "is_disabled": 0, "rental_uris": {"ios": "https://dc.lft.to/lastmile_qr_scan", "android": "https://dc.lft.to/lastmile_qr_scan"}}, {"name": "56ace98784a1585396afff33fdf97a61", "lon": -77.0242435, "lat": 38.90965883333333, "type": "electric_scooter", "fusion_lon": 0.0, "is_reserved": 0, "bike_id": "56ace98784a1585396afff33fdf97a61", "fusion_lat": 0.0, "is_disabled": 0, "rental_uris": {"ios": "https://dc.lft.to/lastmile_qr_scan", "android": "https://dc.lft.to/lastmile_qr_scan"}}, {"name": "987e450547fcc222d425a432ed1f06b2", "lon": -77.007437, "lat": 38.871137, "type": "electric_scooter", "fusion_lon": 0.0, "is_reserved": 0, "bike_id": "987e450547fcc222d425a432ed1f06b2", "fusion_lat": 0.0, "is_disabled": 0, "rental_uris": {"ios": "https://dc.lft.to/lastmile_qr_scan", "android": "https://dc.lft.to/lastmile_qr_scan"}}, {"name": "7a680b45e758ace9f0d3fb4f72106e8d", "lon": -77.02691333333334, "lat": 38.91136083333333, "type": "electric_scooter", "fusion_lon": 0.0, "is_reserved": 0, "bike_id": "7a680b45e758ace9f0d3fb4f72106e8d", "fusion_lat": 0.0, "is_disabled": 0, "rental_uris": {"ios": "https://dc.lft.to/lastmile_qr_scan", "android": "https://dc.lft.to/lastmile_qr_scan"}}, {"name": "70259b1e261ae8a073a034a99d7de56c", "lon": -76.96491316666666, "lat": 38.8754875, "type": "electric_bike", "fusion_lon": 0.0, "is_reserved": 0, "bike_id": "70259b1e261ae8a073a034a99d7de56c", "fusion_lat": 0.0, "is_disabled": 0, "rental_uris": {"ios": "https://dc.lft.to/lastmile_qr_scan", "android": "https://dc.lft.to/lastmile_qr_scan"}}, {"name": "465d0304dbdb0e7c98ef86fba06fbcf6", "lon": -77.041978, "lat": 38.91876583333333, "type": "electric_scooter", "fusion_lon": 0.0, "is_reserved": 0, "bike_id": "465d0304dbdb0e7c98ef86fba06fbcf6", "fusion_lat": 0.0, "is_disabled": 0, "rental_uris": {"ios": "https://dc.lft.to/lastmile_qr_scan", "android": "https://dc.lft.to/lastmile_qr_scan"}}, {"name": "20ea1c84d617847d36b4d7c64f537669", "lon": -77.00444433333334, "lat": 38.8767605, "type": "electric_scooter", "fusion_lon": 0.0, "is_reserved": 0, "bike_id": "20ea1c84d617847d36b4d7c64f537669", "fusion_lat": 0.0, "is_disabled": 0, "rental_uris": {"ios": "https://dc.lft.to/lastmile_qr_scan", "android": "https://dc.lft.to/lastmile_qr_scan"}}, {"name": "e4a39f9945652bb2acbb91d083e47c6c", "lon": -77.0351375, "lat": 38.92158233333333, "type": "electric_scooter", "fusion_lon": 0.0, "is_reserved": 0, "bike_id": "e4a39f9945652bb2acbb91d083e47c6c", "fusion_lat": 0.0, "is_disabled": 0, "rental_uris": {"ios": "https://dc.lft.to/lastmile_qr_scan", "android": "https://dc.lft.to/lastmile_qr_scan"}}, {"name": "67f77690afbcb9012feb0af256089d82", "lon": -77.0447945, "lat": 38.921324166666665, "type": "electric_scooter", "fusion_lon": 0.0, "is_reserved": 0, "bike_id": "67f77690afbcb9012feb0af256089d82", "fusion_lat": 0.0, "is_disabled": 0, "rental_uris": {"ios": "https://dc.lft.to/lastmile_qr_scan", "android": "https://dc.lft.to/lastmile_qr_scan"}}, {"name": "f9f7a741782044ebf6a3069755ea39e2", "lon": -76.98764533333333, "lat": 38.85770133333333, "type": "electric_bike", "fusion_lon": 0.0, "is_reserved": 0, "bike_id": "f9f7a741782044ebf6a3069755ea39e2", "fusion_lat": 0.0, "is_disabled": 0, "rental_uris": {"ios": "https://dc.lft.to/lastmile_qr_scan", "android": "https://dc.lft.to/lastmile_qr_scan"}}, {"name": "dffa07413b3d8e8f766f8ccee6e624af", "lon": -77.02694616666666, "lat": 38.90980833333333, "type": "electric_scooter", "fusion_lon": 0.0, "is_reserved": 0, "bike_id": "dffa07413b3d8e8f766f8ccee6e624af", "fusion_lat": 0.0, "is_disabled": 0, "rental_uris": {"ios": "https://dc.lft.to/lastmile_qr_scan", "android": "https://dc.lft.to/lastmile_qr_scan"}}, {"name": "f7e1109595a34eb3389f1509353d0a53", "lon": -77.03641666666667, "lat": 38.924677333333335, "type": "electric_scooter", "fusion_lon": 0.0, "is_reserved": 0, "bike_id": "f7e1109595a34eb3389f1509353d0a53", "fusion_lat": 0.0, "is_disabled": 0, "rental_uris": {"ios": "https://dc.lft.to/lastmile_qr_scan", "android": "https://dc.lft.to/lastmile_qr_scan"}}, {"name": "f59c35cee6f3b9ef5142bab71edd3ce3", "lon": -77.03956533333333, "lat": 38.93154033333333, "type": "electric_scooter", "fusion_lon": 0.0, "is_reserved": 0, "bike_id": "f59c35cee6f3b9ef5142bab71edd3ce3", "fusion_lat": 0.0, "is_disabled": 0, "rental_uris": {"ios": "https://dc.lft.to/lastmile_qr_scan", "android": "https://dc.lft.to/lastmile_qr_scan"}}, {"name": "cb6cd18c81a264c1181bb6e28c0a8cff", "lon": -76.99940233333334, "lat": 38.905748833333334, "type": "electric_scooter", "fusion_lon": 0.0, "is_reserved": 0, "bike_id": "cb6cd18c81a264c1181bb6e28c0a8cff", "fusion_lat": 0.0, "is_disabled": 0, "rental_uris": {"ios": "https://dc.lft.to/lastmile_qr_scan", "android": "https://dc.lft.to/lastmile_qr_scan"}}, {"name": "5c6c3d84c42ed8836cbcf01b18874445", "lon": -77.01186566666667, "lat": 38.917117166666664, "type": "electric_scooter", "fusion_lon": 0.0, "is_reserved": 0, "bike_id": "5c6c3d84c42ed8836cbcf01b18874445", "fusion_lat": 0.0, "is_disabled": 0, "rental_uris": {"ios": "https://dc.lft.to/lastmile_qr_scan", "android": "https://dc.lft.to/lastmile_qr_scan"}}, {"name": "96d8c2f00cd0f2488b55618f75489475", "lon": -77.03229166666667, "lat": 38.914165833333335, "type": "electric_scooter", "fusion_lon": 0.0, "is_reserved": 0, "bike_id": "96d8c2f00cd0f2488b55618f75489475", "fusion_lat": 0.0, "is_disabled": 0, "rental_uris": {"ios": "https://dc.lft.to/lastmile_qr_scan", "android": "https://dc.lft.to/lastmile_qr_scan"}}, {"name": "83a0e8936d6c3e2e262d05e57114a7ac", "lon": -77.016061, "lat": 38.89969116666666, "type": "electric_scooter", "fusion_lon": 0.0, "is_reserved": 0, "bike_id": "83a0e8936d6c3e2e262d05e57114a7ac", "fusion_lat": 0.0, "is_disabled": 0, "rental_uris": {"ios": "https://dc.lft.to/lastmile_qr_scan", "android": "https://dc.lft.to/lastmile_qr_scan"}}, {"name": "e12b4f381cc890322cee53b8598877b4", "lon": -76.97972366666667, "lat": 38.953748166666664, "type": "electric_bike", "fusion_lon": 0.0, "is_reserved": 0, "bike_id": "e12b4f381cc890322cee53b8598877b4", "fusion_lat": 0.0, "is_disabled": 0, "rental_uris": {"ios": "https://dc.lft.to/lastmile_qr_scan", "android": "https://dc.lft.to/lastmile_qr_scan"}}, {"name": "2f4559afa26dc34ca69e4bae9a516530", "lon": -77.026315, "lat": 38.962256333333336, "type": "electric_bike", "fusion_lon": 0.0, "is_reserved": 0, "bike_id": "2f4559afa26dc34ca69e4bae9a516530", "fusion_lat": 0.0, "is_disabled": 0, "rental_uris": {"ios": "https://dc.lft.to/lastmile_qr_scan", "android": "https://dc.lft.to/lastmile_qr_scan"}}, {"name": "55db53b2212b3ef8c1b09b057154386f", "lon": -77.07731983333333, "lat": 38.922678, "type": "electric_bike", "fusion_lon": 0.0, "is_reserved": 0, "bike_id": "55db53b2212b3ef8c1b09b057154386f", "fusion_lat": 0.0, "is_disabled": 0, "rental_uris": {"ios": "https://dc.lft.to/lastmile_qr_scan", "android": "https://dc.lft.to/lastmile_qr_scan"}}, {"name": "8a173fc7afedc6a7a8b964e3556c5165", "lon": -77.03263216666667, "lat": 38.93526816666667, "type": "electric_scooter", "fusion_lon": 0.0, "is_reserved": 0, "bike_id": "8a173fc7afedc6a7a8b964e3556c5165", "fusion_lat": 0.0, "is_disabled": 0, "rental_uris": {"ios": "https://dc.lft.to/lastmile_qr_scan", "android": "https://dc.lft.to/lastmile_qr_scan"}}, {"name": "b9d4c007e6c797c64a22d27b42b6d670", "lon": -77.04405833333334, "lat": 38.91422433333334, "type": "electric_scooter", "fusion_lon": 0.0, "is_reserved": 0, "bike_id": "b9d4c007e6c797c64a22d27b42b6d670", "fusion_lat": 0.0, "is_disabled": 0, "rental_uris": {"ios": "https://dc.lft.to/lastmile_qr_scan", "android": "https://dc.lft.to/lastmile_qr_scan"}}, {"name": "4489b1907586c1ee0d828d083863f50a", "lon": -77.017522, "lat": 38.9027015, "type": "electric_scooter", "fusion_lon": 0.0, "is_reserved": 0, "bike_id": "4489b1907586c1ee0d828d083863f50a", "fusion_lat": 0.0, "is_disabled": 0, "rental_uris": {"ios": "https://dc.lft.to/lastmile_qr_scan", "android": "https://dc.lft.to/lastmile_qr_scan"}}, {"name": "cf5b8d369d764af9cd8b5ebe939f723e", "lon": -77.02296066666666, "lat": 38.916852666666664, "type": "electric_scooter", "fusion_lon": 0.0, "is_reserved": 0, "bike_id": "cf5b8d369d764af9cd8b5ebe939f723e", "fusion_lat": 0.0, "is_disabled": 0, "rental_uris": {"ios": "https://dc.lft.to/lastmile_qr_scan", "android": "https://dc.lft.to/lastmile_qr_scan"}}, {"name": "9945be9d49734f6e83a2da8ba5f5ba06", "lon": -77.03269466666667, "lat": 38.9275395, "type": "electric_scooter", "fusion_lon": 0.0, "is_reserved": 0, "bike_id": "9945be9d49734f6e83a2da8ba5f5ba06", "fusion_lat": 0.0, "is_disabled": 0, "rental_uris": {"ios": "https://dc.lft.to/lastmile_qr_scan", "android": "https://dc.lft.to/lastmile_qr_scan"}}, {"name": "1e809890a61696479fc5d93be68ac9bf", "lon": -76.96527, "lat": 38.87629283333333, "type": "electric_scooter", "fusion_lon": 0.0, "is_reserved": 0, "bike_id": "1e809890a61696479fc5d93be68ac9bf", "fusion_lat": 0.0, "is_disabled": 0, "rental_uris": {"ios": "https://dc.lft.to/lastmile_qr_scan", "android": "https://dc.lft.to/lastmile_qr_scan"}}, {"name": "97a5f6ef9c1a0e79fbaaa9ed804e3346", "lon": -76.93141483333333, "lat": 38.893382333333335, "type": "electric_scooter", "fusion_lon": 0.0, "is_reserved": 0, "bike_id": "97a5f6ef9c1a0e79fbaaa9ed804e3346", "fusion_lat": 0.0, "is_disabled": 0, "rental_uris": {"ios": "https://dc.lft.to/lastmile_qr_scan", "android": "https://dc.lft.to/lastmile_qr_scan"}}, {"name": "b9172c1935e0a117e1131ce7566a75db", "lon": -77.0268705, "lat": 38.904071333333334, "type": "electric_scooter", "fusion_lon": 0.0, "is_reserved": 0, "bike_id": "b9172c1935e0a117e1131ce7566a75db", "fusion_lat": 0.0, "is_disabled": 0, "rental_uris": {"ios": "https://dc.lft.to/lastmile_qr_scan", "android": "https://dc.lft.to/lastmile_qr_scan"}}, {"name": "28f476e943b8257abbbec1ec857555cf", "lon": -77.0276755, "lat": 38.95431216666667, "type": "electric_scooter", "fusion_lon": 0.0, "is_reserved": 0, "bike_id": "28f476e943b8257abbbec1ec857555cf", "fusion_lat": 0.0, "is_disabled": 0, "rental_uris": {"ios": "https://dc.lft.to/lastmile_qr_scan", "android": "https://dc.lft.to/lastmile_qr_scan"}}, {"name": "344b45f156be28425c8bd17cdb3367d1", "lon": -77.03442316666667, "lat": 38.918085833333336, "type": "electric_scooter", "fusion_lon": 0.0, "is_reserved": 0, "bike_id": "344b45f156be28425c8bd17cdb3367d1", "fusion_lat": 0.0, "is_disabled": 0, "rental_uris": {"ios": "https://dc.lft.to/lastmile_qr_scan", "android": "https://dc.lft.to/lastmile_qr_scan"}}, {"name": "97556c05c6eecb1c8cc675e64b951027", "lon": -77.0278715, "lat": 38.8992985, "type": "electric_scooter", "fusion_lon": 0.0, "is_reserved": 0, "bike_id": "97556c05c6eecb1c8cc675e64b951027", "fusion_lat": 0.0, "is_disabled": 0, "rental_uris": {"ios": "https://dc.lft.to/lastmile_qr_scan", "android": "https://dc.lft.to/lastmile_qr_scan"}}, {"name": "006c0f371d3cb5c5cbbc2df38ace03e6", "lon": -77.04785183333334, "lat": 38.89372683333333, "type": "electric_scooter", "fusion_lon": 0.0, "is_reserved": 0, "bike_id": "006c0f371d3cb5c5cbbc2df38ace03e6", "fusion_lat": 0.0, "is_disabled": 0, "rental_uris": {"ios": "https://dc.lft.to/lastmile_qr_scan", "android": "https://dc.lft.to/lastmile_qr_scan"}}, {"name": "75e0dfb1d235b2655c2f4d59b2afcf09", "lon": -77.07147466666666, "lat": 38.9456285, "type": "electric_scooter", "fusion_lon": 0.0, "is_reserved": 0, "bike_id": "75e0dfb1d235b2655c2f4d59b2afcf09", "fusion_lat": 0.0, "is_disabled": 0, "rental_uris": {"ios": "https://dc.lft.to/lastmile_qr_scan", "android": "https://dc.lft.to/lastmile_qr_scan"}}, {"name": "143f7d0fef370cf670d5768f34907b7c", "lon": -77.02173466666666, "lat": 38.9429235, "type": "electric_scooter", "fusion_lon": 0.0, "is_reserved": 0, "bike_id": "143f7d0fef370cf670d5768f34907b7c", "fusion_lat": 0.0, "is_disabled": 0, "rental_uris": {"ios": "https://dc.lft.to/lastmile_qr_scan", "android": "https://dc.lft.to/lastmile_qr_scan"}}, {"name": "1f33b9686c46e6526333eb1441da4663", "lon": -77.07704666666666, "lat": 38.84092583333333, "type": "electric_bike", "fusion_lon": 0.0, "is_reserved": 0, "bike_id": "1f33b9686c46e6526333eb1441da4663", "fusion_lat": 0.0, "is_disabled": 0, "rental_uris": {"ios": "https://dc.lft.to/lastmile_qr_scan", "android": "https://dc.lft.to/lastmile_qr_scan"}}, {"name": "078cb1179fdfd10740a220bda0414c83", "lon": -77.0296145, "lat": 38.9233505, "type": "electric_scooter", "fusion_lon": 0.0, "is_reserved": 0, "bike_id": "078cb1179fdfd10740a220bda0414c83", "fusion_lat": 0.0, "is_disabled": 0, "rental_uris": {"ios": "https://dc.lft.to/lastmile_qr_scan", "android": "https://dc.lft.to/lastmile_qr_scan"}}, {"name": "3df6c5364f2e579ab92346a5d1aae2c4", "lon": -77.04604, "lat": 38.917233, "type": "electric_scooter", "fusion_lon": 0.0, "is_reserved": 0, "bike_id": "3df6c5364f2e579ab92346a5d1aae2c4", "fusion_lat": 0.0, "is_disabled": 0, "rental_uris": {"ios": "https://dc.lft.to/lastmile_qr_scan", "android": "https://dc.lft.to/lastmile_qr_scan"}}, {"name": "a35a13d5ff09f0f6630f1cfcefd5c62d", "lon": -77.01193483333333, "lat": 38.900309166666666, "type": "electric_scooter", "fusion_lon": 0.0, "is_reserved": 0, "bike_id": "a35a13d5ff09f0f6630f1cfcefd5c62d", "fusion_lat": 0.0, "is_disabled": 0, "rental_uris": {"ios": "https://dc.lft.to/lastmile_qr_scan", "android": "https://dc.lft.to/lastmile_qr_scan"}}, {"name": "baa0e4a0a84c514f5845a65e21f8ed3d", "lon": -77.04326333333333, "lat": 38.8922845, "type": "electric_scooter", "fusion_lon": 0.0, "is_reserved": 0, "bike_id": "baa0e4a0a84c514f5845a65e21f8ed3d", "fusion_lat": 0.0, "is_disabled": 0, "rental_uris": {"ios": "https://dc.lft.to/lastmile_qr_scan", "android": "https://dc.lft.to/lastmile_qr_scan"}}, {"name": "94f18c11eca5eb8d4ae96df79f4a1b58", "lon": -77.00067933333334, "lat": 38.9160425, "type": "electric_scooter", "fusion_lon": 0.0, "is_reserved": 0, "bike_id": "94f18c11eca5eb8d4ae96df79f4a1b58", "fusion_lat": 0.0, "is_disabled": 0, "rental_uris": {"ios": "https://dc.lft.to/lastmile_qr_scan", "android": "https://dc.lft.to/lastmile_qr_scan"}}, {"name": "2c8537400d2c027fec35d8d311f3f5fe", "lon": -77.01531716666666, "lat": 38.88420416666666, "type": "electric_scooter", "fusion_lon": 0.0, "is_reserved": 0, "bike_id": "2c8537400d2c027fec35d8d311f3f5fe", "fusion_lat": 0.0, "is_disabled": 0, "rental_uris": {"ios": "https://dc.lft.to/lastmile_qr_scan", "android": "https://dc.lft.to/lastmile_qr_scan"}}, {"name": "ca18e7dd7193cfc9094e50201e761eca", "lon": -77.02036683333333, "lat": 38.892782, "type": "electric_scooter", "fusion_lon": 0.0, "is_reserved": 0, "bike_id": "ca18e7dd7193cfc9094e50201e761eca", "fusion_lat": 0.0, "is_disabled": 0, "rental_uris": {"ios": "https://dc.lft.to/lastmile_qr_scan", "android": "https://dc.lft.to/lastmile_qr_scan"}}, {"name": "cc5230034737e6c79c25fa95d2510d9f", "lon": -77.0297465, "lat": 38.905195, "type": "electric_scooter", "fusion_lon": 0.0, "is_reserved": 0, "bike_id": "cc5230034737e6c79c25fa95d2510d9f", "fusion_lat": 0.0, "is_disabled": 0, "rental_uris": {"ios": "https://dc.lft.to/lastmile_qr_scan", "android": "https://dc.lft.to/lastmile_qr_scan"}}, {"name": "3cecdfb04f3969617a4ad18317dedd8d", "lon": -77.02157566666666, "lat": 38.90203183333333, "type": "electric_scooter", "fusion_lon": 0.0, "is_reserved": 0, "bike_id": "3cecdfb04f3969617a4ad18317dedd8d", "fusion_lat": 0.0, "is_disabled": 0, "rental_uris": {"ios": "https://dc.lft.to/lastmile_qr_scan", "android": "https://dc.lft.to/lastmile_qr_scan"}}, {"name": "14e39d2e1ae0f197405576b443caccd5", "lon": -77.01598783333333, "lat": 38.917158, "type": "electric_scooter", "fusion_lon": 0.0, "is_reserved": 0, "bike_id": "14e39d2e1ae0f197405576b443caccd5", "fusion_lat": 0.0, "is_disabled": 0, "rental_uris": {"ios": "https://dc.lft.to/lastmile_qr_scan", "android": "https://dc.lft.to/lastmile_qr_scan"}}, {"name": "d98fca4b93d5a4720f9506e64a0a968f", "lon": -77.00456016666666, "lat": 38.9208205, "type": "electric_scooter", "fusion_lon": 0.0, "is_reserved": 0, "bike_id": "d98fca4b93d5a4720f9506e64a0a968f", "fusion_lat": 0.0, "is_disabled": 0, "rental_uris": {"ios": "https://dc.lft.to/lastmile_qr_scan", "android": "https://dc.lft.to/lastmile_qr_scan"}}, {"name": "49368a681347067af85c8d1ab7c2a137", "lon": -77.04180616666666, "lat": 38.9173495, "type": "electric_scooter", "fusion_lon": 0.0, "is_reserved": 0, "bike_id": "49368a681347067af85c8d1ab7c2a137", "fusion_lat": 0.0, "is_disabled": 0, "rental_uris": {"ios": "https://dc.lft.to/lastmile_qr_scan", "android": "https://dc.lft.to/lastmile_qr_scan"}}, {"name": "bce0446da24eab95fde8b54f90800b00", "lon": -76.99447033333334, "lat": 38.9082615, "type": "electric_scooter", "fusion_lon": 0.0, "is_reserved": 0, "bike_id": "bce0446da24eab95fde8b54f90800b00", "fusion_lat": 0.0, "is_disabled": 0, "rental_uris": {"ios": "https://dc.lft.to/lastmile_qr_scan", "android": "https://dc.lft.to/lastmile_qr_scan"}}, {"name": "23b430bb3c81ac24c263a24a8b621635", "lon": -77.03025583333333, "lat": 38.93112966666666, "type": "electric_scooter", "fusion_lon": 0.0, "is_reserved": 0, "bike_id": "23b430bb3c81ac24c263a24a8b621635", "fusion_lat": 0.0, "is_disabled": 0, "rental_uris": {"ios": "https://dc.lft.to/lastmile_qr_scan", "android": "https://dc.lft.to/lastmile_qr_scan"}}, {"name": "4b112571320a254e297a27b0e6152d01", "lon": -76.99802116666666, "lat": 38.9085575, "type": "electric_scooter", "fusion_lon": 0.0, "is_reserved": 0, "bike_id": "4b112571320a254e297a27b0e6152d01", "fusion_lat": 0.0, "is_disabled": 0, "rental_uris": {"ios": "https://dc.lft.to/lastmile_qr_scan", "android": "https://dc.lft.to/lastmile_qr_scan"}}, {"name": "3563b3215ab12417e28b280686b9f95b", "lon": -77.0399555, "lat": 38.91417833333333, "type": "electric_scooter", "fusion_lon": 0.0, "is_reserved": 0, "bike_id": "3563b3215ab12417e28b280686b9f95b", "fusion_lat": 0.0, "is_disabled": 0, "rental_uris": {"ios": "https://dc.lft.to/lastmile_qr_scan", "android": "https://dc.lft.to/lastmile_qr_scan"}}, {"name": "9ecb69ebe844d3f29b1f691e57bf30ea", "lon": -76.981543, "lat": 38.92264216666667, "type": "electric_bike", "fusion_lon": 0.0, "is_reserved": 0, "bike_id": "9ecb69ebe844d3f29b1f691e57bf30ea", "fusion_lat": 0.0, "is_disabled": 0, "rental_uris": {"ios": "https://dc.lft.to/lastmile_qr_scan", "android": "https://dc.lft.to/lastmile_qr_scan"}}, {"name": "feae31a91552d40fb27ad3619b436553", "lon": -77.03015866666667, "lat": 38.90507483333333, "type": "electric_scooter", "fusion_lon": 0.0, "is_reserved": 0, "bike_id": "feae31a91552d40fb27ad3619b436553", "fusion_lat": 0.0, "is_disabled": 0, "rental_uris": {"ios": "https://dc.lft.to/lastmile_qr_scan", "android": "https://dc.lft.to/lastmile_qr_scan"}}, {"name": "56a7a1e921790cf7ff9ed0a21c82f7fa", "lon": -77.04336316666667, "lat": 38.89529683333333, "type": "electric_scooter", "fusion_lon": 0.0, "is_reserved": 0, "bike_id": "56a7a1e921790cf7ff9ed0a21c82f7fa", "fusion_lat": 0.0, "is_disabled": 0, "rental_uris": {"ios": "https://dc.lft.to/lastmile_qr_scan", "android": "https://dc.lft.to/lastmile_qr_scan"}}, {"name": "58afc81d2fa845312eb54b5a663c3664", "lon": -76.9941165, "lat": 38.921091833333335, "type": "electric_scooter", "fusion_lon": 0.0, "is_reserved": 0, "bike_id": "58afc81d2fa845312eb54b5a663c3664", "fusion_lat": 0.0, "is_disabled": 0, "rental_uris": {"ios": "https://dc.lft.to/lastmile_qr_scan", "android": "https://dc.lft.to/lastmile_qr_scan"}}, {"name": "49104fd98ccebb47d09a3ebfda9003b9", "lon": -77.04931833333333, "lat": 39.029327333333335, "type": "electric_bike", "fusion_lon": 0.0, "is_reserved": 0, "bike_id": "49104fd98ccebb47d09a3ebfda9003b9", "fusion_lat": 0.0, "is_disabled": 0, "rental_uris": {"ios": "https://dc.lft.to/lastmile_qr_scan", "android": "https://dc.lft.to/lastmile_qr_scan"}}, {"name": "b0d347f6572fffafdc5294484d0fa77b", "lon": -77.04419583333333, "lat": 38.92132266666667, "type": "electric_scooter", "fusion_lon": 0.0, "is_reserved": 0, "bike_id": "b0d347f6572fffafdc5294484d0fa77b", "fusion_lat": 0.0, "is_disabled": 0, "rental_uris": {"ios": "https://dc.lft.to/lastmile_qr_scan", "android": "https://dc.lft.to/lastmile_qr_scan"}}, {"name": "17d81f42cc5aa4cb88f2f2489fcb9a15", "lon": -77.02724233333333, "lat": 38.91565266666667, "type": "electric_scooter", "fusion_lon": 0.0, "is_reserved": 0, "bike_id": "17d81f42cc5aa4cb88f2f2489fcb9a15", "fusion_lat": 0.0, "is_disabled": 0, "rental_uris": {"ios": "https://dc.lft.to/lastmile_qr_scan", "android": "https://dc.lft.to/lastmile_qr_scan"}}, {"name": "19f82be40c0915dc1fbe8439a1bc144c", "lon": -77.06332566666667, "lat": 38.944221, "type": "electric_scooter", "fusion_lon": 0.0, "is_reserved": 0, "bike_id": "19f82be40c0915dc1fbe8439a1bc144c", "fusion_lat": 0.0, "is_disabled": 0, "rental_uris": {"ios": "https://dc.lft.to/lastmile_qr_scan", "android": "https://dc.lft.to/lastmile_qr_scan"}}, {"name": "d39e12e5e0d03487ab956dded7a4843c", "lon": -77.0181865, "lat": 38.92221683333333, "type": "electric_scooter", "fusion_lon": 0.0, "is_reserved": 0, "bike_id": "d39e12e5e0d03487ab956dded7a4843c", "fusion_lat": 0.0, "is_disabled": 0, "rental_uris": {"ios": "https://dc.lft.to/lastmile_qr_scan", "android": "https://dc.lft.to/lastmile_qr_scan"}}, {"name": "845e3bd6ed08c8d50c56fcc85b451b13", "lon": -77.03858833333334, "lat": 38.9155575, "type": "electric_scooter", "fusion_lon": 0.0, "is_reserved": 0, "bike_id": "845e3bd6ed08c8d50c56fcc85b451b13", "fusion_lat": 0.0, "is_disabled": 0, "rental_uris": {"ios": "https://dc.lft.to/lastmile_qr_scan", "android": "https://dc.lft.to/lastmile_qr_scan"}}, {"name": "9793cc5f4b7aa216a6c25e4805b06998", "lon": -77.0268825, "lat": 38.89614266666667, "type": "electric_scooter", "fusion_lon": 0.0, "is_reserved": 0, "bike_id": "9793cc5f4b7aa216a6c25e4805b06998", "fusion_lat": 0.0, "is_disabled": 0, "rental_uris": {"ios": "https://dc.lft.to/lastmile_qr_scan", "android": "https://dc.lft.to/lastmile_qr_scan"}}, {"name": "84ce57fe9713198ed5faa01956cdf34f", "lon": -77.02523066666667, "lat": 38.91487716666666, "type": "electric_scooter", "fusion_lon": 0.0, "is_reserved": 0, "bike_id": "84ce57fe9713198ed5faa01956cdf34f", "fusion_lat": 0.0, "is_disabled": 0, "rental_uris": {"ios": "https://dc.lft.to/lastmile_qr_scan", "android": "https://dc.lft.to/lastmile_qr_scan"}}, {"name": "98f65fafdd580ee41fc27e2a5e5e883e", "lon": -76.9903315, "lat": 38.902931833333334, "type": "electric_scooter", "fusion_lon": 0.0, "is_reserved": 0, "bike_id": "98f65fafdd580ee41fc27e2a5e5e883e", "fusion_lat": 0.0, "is_disabled": 0, "rental_uris": {"ios": "https://dc.lft.to/lastmile_qr_scan", "android": "https://dc.lft.to/lastmile_qr_scan"}}, {"name": "4ef0b7aae6e670210519101bfe944509", "lon": -77.028325, "lat": 38.886263166666666, "type": "electric_scooter", "fusion_lon": 0.0, "is_reserved": 0, "bike_id": "4ef0b7aae6e670210519101bfe944509", "fusion_lat": 0.0, "is_disabled": 0, "rental_uris": {"ios": "https://dc.lft.to/lastmile_qr_scan", "android": "https://dc.lft.to/lastmile_qr_scan"}}, {"name": "bff63a156021efcd63ac2f55e7abfae5", "lon": -77.12074666666666, "lat": 38.854198833333335, "type": "electric_bike", "fusion_lon": 0.0, "is_reserved": 0, "bike_id": "bff63a156021efcd63ac2f55e7abfae5", "fusion_lat": 0.0, "is_disabled": 0, "rental_uris": {"ios": "https://dc.lft.to/lastmile_qr_scan", "android": "https://dc.lft.to/lastmile_qr_scan"}}, {"name": "92ae2ba6dc0748ddbe34df7d02745c76", "lon": -76.98251083333334, "lat": 38.904533666666666, "type": "electric_scooter", "fusion_lon": 0.0, "is_reserved": 0, "bike_id": "92ae2ba6dc0748ddbe34df7d02745c76", "fusion_lat": 0.0, "is_disabled": 0, "rental_uris": {"ios": "https://dc.lft.to/lastmile_qr_scan", "android": "https://dc.lft.to/lastmile_qr_scan"}}, {"name": "21336932658b5260da5c849441831b9e", "lon": -77.07257933333334, "lat": 38.935216, "type": "electric_scooter", "fusion_lon": 0.0, "is_reserved": 0, "bike_id": "21336932658b5260da5c849441831b9e", "fusion_lat": 0.0, "is_disabled": 0, "rental_uris": {"ios": "https://dc.lft.to/lastmile_qr_scan", "android": "https://dc.lft.to/lastmile_qr_scan"}}, {"name": "fef1bd8652a6b745538e9110d1a178e2", "lon": -77.00648116666666, "lat": 38.911601166666664, "type": "electric_scooter", "fusion_lon": 0.0, "is_reserved": 0, "bike_id": "fef1bd8652a6b745538e9110d1a178e2", "fusion_lat": 0.0, "is_disabled": 0, "rental_uris": {"ios": "https://dc.lft.to/lastmile_qr_scan", "android": "https://dc.lft.to/lastmile_qr_scan"}}, {"name": "2df6cb82d95ecbd8ea3b64c0c71f904d", "lon": -76.93733383333333, "lat": 38.89018316666667, "type": "electric_scooter", "fusion_lon": 0.0, "is_reserved": 0, "bike_id": "2df6cb82d95ecbd8ea3b64c0c71f904d", "fusion_lat": 0.0, "is_disabled": 0, "rental_uris": {"ios": "https://dc.lft.to/lastmile_qr_scan", "android": "https://dc.lft.to/lastmile_qr_scan"}}, {"name": "387a9c30b0a2dfdac47b15120e61f69a", "lon": -77.03551783333333, "lat": 38.907874666666665, "type": "electric_scooter", "fusion_lon": 0.0, "is_reserved": 0, "bike_id": "387a9c30b0a2dfdac47b15120e61f69a", "fusion_lat": 0.0, "is_disabled": 0, "rental_uris": {"ios": "https://dc.lft.to/lastmile_qr_scan", "android": "https://dc.lft.to/lastmile_qr_scan"}}, {"name": "307fd68caf89fbd2e295bdbd7e292f28", "lon": -77.028949, "lat": 38.887511333333336, "type": "electric_scooter", "fusion_lon": 0.0, "is_reserved": 0, "bike_id": "307fd68caf89fbd2e295bdbd7e292f28", "fusion_lat": 0.0, "is_disabled": 0, "rental_uris": {"ios": "https://dc.lft.to/lastmile_qr_scan", "android": "https://dc.lft.to/lastmile_qr_scan"}}, {"name": "81935d64668b3ae8730dbe32971b1b0e", "lon": -77.04142033333333, "lat": 38.92173316666667, "type": "electric_scooter", "fusion_lon": 0.0, "is_reserved": 0, "bike_id": "81935d64668b3ae8730dbe32971b1b0e", "fusion_lat": 0.0, "is_disabled": 0, "rental_uris": {"ios": "https://dc.lft.to/lastmile_qr_scan", "android": "https://dc.lft.to/lastmile_qr_scan"}}, {"name": "65faf5c0a59b0250229104aaea59f43f", "lon": -77.032625, "lat": 38.92762116666667, "type": "electric_scooter", "fusion_lon": 0.0, "is_reserved": 0, "bike_id": "65faf5c0a59b0250229104aaea59f43f", "fusion_lat": 0.0, "is_disabled": 0, "rental_uris": {"ios": "https://dc.lft.to/lastmile_qr_scan", "android": "https://dc.lft.to/lastmile_qr_scan"}}, {"name": "ba7824f052c8c0b62b75ae63b3a8de28", "lon": -77.003298, "lat": 38.889875333333336, "type": "electric_scooter", "fusion_lon": 0.0, "is_reserved": 0, "bike_id": "ba7824f052c8c0b62b75ae63b3a8de28", "fusion_lat": 0.0, "is_disabled": 0, "rental_uris": {"ios": "https://dc.lft.to/lastmile_qr_scan", "android": "https://dc.lft.to/lastmile_qr_scan"}}, {"name": "a40580c3611d4084b70602aa7d2e0139", "lon": -77.02201183333334, "lat": 38.9112715, "type": "electric_scooter", "fusion_lon": 0.0, "is_reserved": 0, "bike_id": "a40580c3611d4084b70602aa7d2e0139", "fusion_lat": 0.0, "is_disabled": 0, "rental_uris": {"ios": "https://dc.lft.to/lastmile_qr_scan", "android": "https://dc.lft.to/lastmile_qr_scan"}}, {"name": "c49fbcb6c5095fedb897e66235c7a232", "lon": -76.98836933333334, "lat": 38.900352833333336, "type": "electric_scooter", "fusion_lon": 0.0, "is_reserved": 0, "bike_id": "c49fbcb6c5095fedb897e66235c7a232", "fusion_lat": 0.0, "is_disabled": 0, "rental_uris": {"ios": "https://dc.lft.to/lastmile_qr_scan", "android": "https://dc.lft.to/lastmile_qr_scan"}}, {"name": "fe6f37ba0a92e4b11bb455539a01f7b3", "lon": -77.0465035, "lat": 38.90555916666667, "type": "electric_scooter", "fusion_lon": 0.0, "is_reserved": 0, "bike_id": "fe6f37ba0a92e4b11bb455539a01f7b3", "fusion_lat": 0.0, "is_disabled": 0, "rental_uris": {"ios": "https://dc.lft.to/lastmile_qr_scan", "android": "https://dc.lft.to/lastmile_qr_scan"}}, {"name": "7a59e6fc6ed0cae094a4a5a8a97cfe43", "lon": -77.04181133333333, "lat": 38.892235, "type": "electric_scooter", "fusion_lon": 0.0, "is_reserved": 0, "bike_id": "7a59e6fc6ed0cae094a4a5a8a97cfe43", "fusion_lat": 0.0, "is_disabled": 0, "rental_uris": {"ios": "https://dc.lft.to/lastmile_qr_scan", "android": "https://dc.lft.to/lastmile_qr_scan"}}, {"name": "655c61b4f101409b6d85f6bdced6e5fa", "lon": -77.02375616666667, "lat": 38.90225516666667, "type": "electric_scooter", "fusion_lon": 0.0, "is_reserved": 0, "bike_id": "655c61b4f101409b6d85f6bdced6e5fa", "fusion_lat": 0.0, "is_disabled": 0, "rental_uris": {"ios": "https://dc.lft.to/lastmile_qr_scan", "android": "https://dc.lft.to/lastmile_qr_scan"}}, {"name": "f61c91496d734af4262a67d529a9d5e0", "lon": -77.03839633333334, "lat": 38.921693166666664, "type": "electric_scooter", "fusion_lon": 0.0, "is_reserved": 0, "bike_id": "f61c91496d734af4262a67d529a9d5e0", "fusion_lat": 0.0, "is_disabled": 0, "rental_uris": {"ios": "https://dc.lft.to/lastmile_qr_scan", "android": "https://dc.lft.to/lastmile_qr_scan"}}, {"name": "6c0dea5ee0ef00858cb0121197c3ea53", "lon": -77.032573, "lat": 38.92957533333333, "type": "electric_scooter", "fusion_lon": 0.0, "is_reserved": 0, "bike_id": "6c0dea5ee0ef00858cb0121197c3ea53", "fusion_lat": 0.0, "is_disabled": 0, "rental_uris": {"ios": "https://dc.lft.to/lastmile_qr_scan", "android": "https://dc.lft.to/lastmile_qr_scan"}}, {"name": "e8530be61966c53db6fe638866b0e672", "lon": -77.03122916666666, "lat": 38.91565833333333, "type": "electric_scooter", "fusion_lon": 0.0, "is_reserved": 0, "bike_id": "e8530be61966c53db6fe638866b0e672", "fusion_lat": 0.0, "is_disabled": 0, "rental_uris": {"ios": "https://dc.lft.to/lastmile_qr_scan", "android": "https://dc.lft.to/lastmile_qr_scan"}}, {"name": "15e755f9fdf940655ca27c289f10d0ca", "lon": -77.05001433333334, "lat": 38.89237033333333, "type": "electric_scooter", "fusion_lon": 0.0, "is_reserved": 0, "bike_id": "15e755f9fdf940655ca27c289f10d0ca", "fusion_lat": 0.0, "is_disabled": 0, "rental_uris": {"ios": "https://dc.lft.to/lastmile_qr_scan", "android": "https://dc.lft.to/lastmile_qr_scan"}}, {"name": "c0e0456c5427207058454f99d1e4a4f8", "lon": -77.01758366666667, "lat": 38.87688166666667, "type": "electric_scooter", "fusion_lon": 0.0, "is_reserved": 0, "bike_id": "c0e0456c5427207058454f99d1e4a4f8", "fusion_lat": 0.0, "is_disabled": 0, "rental_uris": {"ios": "https://dc.lft.to/lastmile_qr_scan", "android": "https://dc.lft.to/lastmile_qr_scan"}}, {"name": "b73e20794d89a26fa5bb5aebaf85de59", "lon": -77.03838183333333, "lat": 38.914533666666664, "type": "electric_scooter", "fusion_lon": 0.0, "is_reserved": 0, "bike_id": "b73e20794d89a26fa5bb5aebaf85de59", "fusion_lat": 0.0, "is_disabled": 0, "rental_uris": {"ios": "https://dc.lft.to/lastmile_qr_scan", "android": "https://dc.lft.to/lastmile_qr_scan"}}, {"name": "11aabd79ac7f6415dc97b8afdbf28a4f", "lon": -77.0140915, "lat": 38.88749083333333, "type": "electric_scooter", "fusion_lon": 0.0, "is_reserved": 0, "bike_id": "11aabd79ac7f6415dc97b8afdbf28a4f", "fusion_lat": 0.0, "is_disabled": 0, "rental_uris": {"ios": "https://dc.lft.to/lastmile_qr_scan", "android": "https://dc.lft.to/lastmile_qr_scan"}}, {"name": "988b0a0ab5e083b1018cdd7e5f22aba9", "lon": -77.0945675, "lat": 38.88616433333333, "type": "electric_bike", "fusion_lon": 0.0, "is_reserved": 0, "bike_id": "988b0a0ab5e083b1018cdd7e5f22aba9", "fusion_lat": 0.0, "is_disabled": 0, "rental_uris": {"ios": "https://dc.lft.to/lastmile_qr_scan", "android": "https://dc.lft.to/lastmile_qr_scan"}}, {"name": "89af6a9fbfd641cff0933a1c1b62479f", "lon": -76.9931295, "lat": 38.9002805, "type": "electric_scooter", "fusion_lon": 0.0, "is_reserved": 0, "bike_id": "89af6a9fbfd641cff0933a1c1b62479f", "fusion_lat": 0.0, "is_disabled": 0, "rental_uris": {"ios": "https://dc.lft.to/lastmile_qr_scan", "android": "https://dc.lft.to/lastmile_qr_scan"}}, {"name": "dae0bca73538c12e3ebad7f7dd2c2f66", "lon": -77.036417, "lat": 38.903888, "type": "electric_scooter", "fusion_lon": 0.0, "is_reserved": 0, "bike_id": "dae0bca73538c12e3ebad7f7dd2c2f66", "fusion_lat": 0.0, "is_disabled": 0, "rental_uris": {"ios": "https://dc.lft.to/lastmile_qr_scan", "android": "https://dc.lft.to/lastmile_qr_scan"}}, {"name": "63645ba62e601a8a1f81782875be7d0a", "lon": -77.02678133333333, "lat": 38.9023565, "type": "electric_scooter", "fusion_lon": 0.0, "is_reserved": 0, "bike_id": "63645ba62e601a8a1f81782875be7d0a", "fusion_lat": 0.0, "is_disabled": 0, "rental_uris": {"ios": "https://dc.lft.to/lastmile_qr_scan", "android": "https://dc.lft.to/lastmile_qr_scan"}}, {"name": "700ef014e6bb63bc713313987a8c2b0b", "lon": -77.0448025, "lat": 38.9224675, "type": "electric_scooter", "fusion_lon": 0.0, "is_reserved": 0, "bike_id": "700ef014e6bb63bc713313987a8c2b0b", "fusion_lat": 0.0, "is_disabled": 0, "rental_uris": {"ios": "https://dc.lft.to/lastmile_qr_scan", "android": "https://dc.lft.to/lastmile_qr_scan"}}, {"name": "4b0900f5a5db486b010487a9059d6397", "lon": -77.05037116666666, "lat": 38.923587166666664, "type": "electric_scooter", "fusion_lon": 0.0, "is_reserved": 0, "bike_id": "4b0900f5a5db486b010487a9059d6397", "fusion_lat": 0.0, "is_disabled": 0, "rental_uris": {"ios": "https://dc.lft.to/lastmile_qr_scan", "android": "https://dc.lft.to/lastmile_qr_scan"}}, {"name": "3aeff2d843c62e65c9275e6cd3f6236c", "lon": -77.0173935, "lat": 38.917186, "type": "electric_scooter", "fusion_lon": 0.0, "is_reserved": 0, "bike_id": "3aeff2d843c62e65c9275e6cd3f6236c", "fusion_lat": 0.0, "is_disabled": 0, "rental_uris": {"ios": "https://dc.lft.to/lastmile_qr_scan", "android": "https://dc.lft.to/lastmile_qr_scan"}}, {"name": "751922c9af175215a517f77121eb882f", "lon": -77.02489866666667, "lat": 38.92077533333333, "type": "electric_scooter", "fusion_lon": 0.0, "is_reserved": 0, "bike_id": "751922c9af175215a517f77121eb882f", "fusion_lat": 0.0, "is_disabled": 0, "rental_uris": {"ios": "https://dc.lft.to/lastmile_qr_scan", "android": "https://dc.lft.to/lastmile_qr_scan"}}, {"name": "fc25020ca611daea5dd4033e9deb3fd3", "lon": -77.05235833333333, "lat": 38.92469616666666, "type": "electric_scooter", "fusion_lon": 0.0, "is_reserved": 0, "bike_id": "fc25020ca611daea5dd4033e9deb3fd3", "fusion_lat": 0.0, "is_disabled": 0, "rental_uris": {"ios": "https://dc.lft.to/lastmile_qr_scan", "android": "https://dc.lft.to/lastmile_qr_scan"}}, {"name": "7b04c4976b9c682183b5cf10c0c39b15", "lon": -76.99876966666666, "lat": 38.901282, "type": "electric_scooter", "fusion_lon": 0.0, "is_reserved": 0, "bike_id": "7b04c4976b9c682183b5cf10c0c39b15", "fusion_lat": 0.0, "is_disabled": 0, "rental_uris": {"ios": "https://dc.lft.to/lastmile_qr_scan", "android": "https://dc.lft.to/lastmile_qr_scan"}}, {"name": "f592fa044b08a3f31453e55c0320a2de", "lon": -77.02505666666667, "lat": 38.90421666666667, "type": "electric_scooter", "fusion_lon": 0.0, "is_reserved": 0, "bike_id": "f592fa044b08a3f31453e55c0320a2de", "fusion_lat": 0.0, "is_disabled": 0, "rental_uris": {"ios": "https://dc.lft.to/lastmile_qr_scan", "android": "https://dc.lft.to/lastmile_qr_scan"}}, {"name": "e477bf74f14410cfc1662884a26a628b", "lon": -77.03393416666667, "lat": 38.9192125, "type": "electric_scooter", "fusion_lon": 0.0, "is_reserved": 0, "bike_id": "e477bf74f14410cfc1662884a26a628b", "fusion_lat": 0.0, "is_disabled": 0, "rental_uris": {"ios": "https://dc.lft.to/lastmile_qr_scan", "android": "https://dc.lft.to/lastmile_qr_scan"}}, {"name": "bced6c5fec66eabce870aca4f19ec4fc", "lon": -77.03842433333334, "lat": 38.91212866666667, "type": "electric_scooter", "fusion_lon": 0.0, "is_reserved": 0, "bike_id": "bced6c5fec66eabce870aca4f19ec4fc", "fusion_lat": 0.0, "is_disabled": 0, "rental_uris": {"ios": "https://dc.lft.to/lastmile_qr_scan", "android": "https://dc.lft.to/lastmile_qr_scan"}}, {"name": "fa7a8f393041b51114d87fff8eb1026f", "lon": -77.038619, "lat": 38.9104305, "type": "electric_scooter", "fusion_lon": 0.0, "is_reserved": 0, "bike_id": "fa7a8f393041b51114d87fff8eb1026f", "fusion_lat": 0.0, "is_disabled": 0, "rental_uris": {"ios": "https://dc.lft.to/lastmile_qr_scan", "android": "https://dc.lft.to/lastmile_qr_scan"}}, {"name": "be8e772b9eee5fb4638acc6f79620062", "lon": -76.99601783333334, "lat": 38.85688916666667, "type": "electric_scooter", "fusion_lon": 0.0, "is_reserved": 0, "bike_id": "be8e772b9eee5fb4638acc6f79620062", "fusion_lat": 0.0, "is_disabled": 0, "rental_uris": {"ios": "https://dc.lft.to/lastmile_qr_scan", "android": "https://dc.lft.to/lastmile_qr_scan"}}, {"name": "45a936a4662ce3c5be0683e99e8b574a", "lon": -77.03183966666667, "lat": 38.91350883333333, "type": "electric_scooter", "fusion_lon": 0.0, "is_reserved": 0, "bike_id": "45a936a4662ce3c5be0683e99e8b574a", "fusion_lat": 0.0, "is_disabled": 0, "rental_uris": {"ios": "https://dc.lft.to/lastmile_qr_scan", "android": "https://dc.lft.to/lastmile_qr_scan"}}, {"name": "627cc3bed496074d26a9e3c84276d2f6", "lon": -77.00833133333333, "lat": 38.82909516666667, "type": "electric_bike", "fusion_lon": 0.0, "is_reserved": 0, "bike_id": "627cc3bed496074d26a9e3c84276d2f6", "fusion_lat": 0.0, "is_disabled": 0, "rental_uris": {"ios": "https://dc.lft.to/lastmile_qr_scan", "android": "https://dc.lft.to/lastmile_qr_scan"}}, {"name": "2ef0c1768ab6f5815759ef207fb3d5c5", "lon": -77.03440866666666, "lat": 38.909664, "type": "electric_scooter", "fusion_lon": 0.0, "is_reserved": 0, "bike_id": "2ef0c1768ab6f5815759ef207fb3d5c5", "fusion_lat": 0.0, "is_disabled": 0, "rental_uris": {"ios": "https://dc.lft.to/lastmile_qr_scan", "android": "https://dc.lft.to/lastmile_qr_scan"}}, {"name": "c35e8fd9adc1c2ba774db300292217c2", "lon": -77.03800283333334, "lat": 38.915457833333335, "type": "electric_scooter", "fusion_lon": 0.0, "is_reserved": 0, "bike_id": "c35e8fd9adc1c2ba774db300292217c2", "fusion_lat": 0.0, "is_disabled": 0, "rental_uris": {"ios": "https://dc.lft.to/lastmile_qr_scan", "android": "https://dc.lft.to/lastmile_qr_scan"}}, {"name": "51a6632ebb6011295875b486fc814cdd", "lon": -77.00048983333333, "lat": 38.876612333333334, "type": "electric_scooter", "fusion_lon": 0.0, "is_reserved": 0, "bike_id": "51a6632ebb6011295875b486fc814cdd", "fusion_lat": 0.0, "is_disabled": 0, "rental_uris": {"ios": "https://dc.lft.to/lastmile_qr_scan", "android": "https://dc.lft.to/lastmile_qr_scan"}}, {"name": "8114f5c60e115f34a8763f5266004955", "lon": -76.94938633333334, "lat": 38.895068333333334, "type": "electric_scooter", "fusion_lon": 0.0, "is_reserved": 0, "bike_id": "8114f5c60e115f34a8763f5266004955", "fusion_lat": 0.0, "is_disabled": 0, "rental_uris": {"ios": "https://dc.lft.to/lastmile_qr_scan", "android": "https://dc.lft.to/lastmile_qr_scan"}}, {"name": "912feaad37f3cdfab20461f99c22b9ed", "lon": -77.07192616666667, "lat": 38.95952466666667, "type": "electric_scooter", "fusion_lon": 0.0, "is_reserved": 0, "bike_id": "912feaad37f3cdfab20461f99c22b9ed", "fusion_lat": 0.0, "is_disabled": 0, "rental_uris": {"ios": "https://dc.lft.to/lastmile_qr_scan", "android": "https://dc.lft.to/lastmile_qr_scan"}}, {"name": "e95fb36206e988e7756a3ed630ea9336", "lon": -77.01512033333333, "lat": 38.91050166666667, "type": "electric_scooter", "fusion_lon": 0.0, "is_reserved": 0, "bike_id": "e95fb36206e988e7756a3ed630ea9336", "fusion_lat": 0.0, "is_disabled": 0, "rental_uris": {"ios": "https://dc.lft.to/lastmile_qr_scan", "android": "https://dc.lft.to/lastmile_qr_scan"}}, {"name": "44d6bd2937620bbb0c68be9d905fc4fd", "lon": -77.03864966666667, "lat": 38.917158666666666, "type": "electric_scooter", "fusion_lon": 0.0, "is_reserved": 0, "bike_id": "44d6bd2937620bbb0c68be9d905fc4fd", "fusion_lat": 0.0, "is_disabled": 0, "rental_uris": {"ios": "https://dc.lft.to/lastmile_qr_scan", "android": "https://dc.lft.to/lastmile_qr_scan"}}, {"name": "7a4ca1a834844fe846c2db0856025090", "lon": -77.0413685, "lat": 38.92264566666667, "type": "electric_scooter", "fusion_lon": 0.0, "is_reserved": 0, "bike_id": "7a4ca1a834844fe846c2db0856025090", "fusion_lat": 0.0, "is_disabled": 0, "rental_uris": {"ios": "https://dc.lft.to/lastmile_qr_scan", "android": "https://dc.lft.to/lastmile_qr_scan"}}, {"name": "e281827ffd7a696dedca6371ea316944", "lon": -77.02619866666667, "lat": 38.90569816666667, "type": "electric_scooter", "fusion_lon": 0.0, "is_reserved": 0, "bike_id": "e281827ffd7a696dedca6371ea316944", "fusion_lat": 0.0, "is_disabled": 0, "rental_uris": {"ios": "https://dc.lft.to/lastmile_qr_scan", "android": "https://dc.lft.to/lastmile_qr_scan"}}, {"name": "2ffce062e19e5e296f9ffcbb9272940c", "lon": -77.00890933333334, "lat": 38.903524, "type": "electric_scooter", "fusion_lon": 0.0, "is_reserved": 0, "bike_id": "2ffce062e19e5e296f9ffcbb9272940c", "fusion_lat": 0.0, "is_disabled": 0, "rental_uris": {"ios": "https://dc.lft.to/lastmile_qr_scan", "android": "https://dc.lft.to/lastmile_qr_scan"}}, {"name": "13f344df3afd48338c7b453b8045863d", "lon": -77.03897733333334, "lat": 38.90827633333333, "type": "electric_scooter", "fusion_lon": 0.0, "is_reserved": 0, "bike_id": "13f344df3afd48338c7b453b8045863d", "fusion_lat": 0.0, "is_disabled": 0, "rental_uris": {"ios": "https://dc.lft.to/lastmile_qr_scan", "android": "https://dc.lft.to/lastmile_qr_scan"}}, {"name": "ed6f6e7a165087d0f3a9bf75d84b5c3e", "lon": -77.03205833333334, "lat": 38.9097175, "type": "electric_scooter", "fusion_lon": 0.0, "is_reserved": 0, "bike_id": "ed6f6e7a165087d0f3a9bf75d84b5c3e", "fusion_lat": 0.0, "is_disabled": 0, "rental_uris": {"ios": "https://dc.lft.to/lastmile_qr_scan", "android": "https://dc.lft.to/lastmile_qr_scan"}}, {"name": "89522d5417179722db313ff350c143d2", "lon": -76.95974133333333, "lat": 38.870112, "type": "electric_bike", "fusion_lon": 0.0, "is_reserved": 0, "bike_id": "89522d5417179722db313ff350c143d2", "fusion_lat": 0.0, "is_disabled": 0, "rental_uris": {"ios": "https://dc.lft.to/lastmile_qr_scan", "android": "https://dc.lft.to/lastmile_qr_scan"}}, {"name": "29df81a2d5be1d9db57a892d5cbd78a2", "lon": -77.00724516666666, "lat": 38.898445, "type": "electric_scooter", "fusion_lon": 0.0, "is_reserved": 0, "bike_id": "29df81a2d5be1d9db57a892d5cbd78a2", "fusion_lat": 0.0, "is_disabled": 0, "rental_uris": {"ios": "https://dc.lft.to/lastmile_qr_scan", "android": "https://dc.lft.to/lastmile_qr_scan"}}, {"name": "aa3f532af346e1744373850a8e0e87c5", "lon": -77.0500685, "lat": 38.904295833333336, "type": "electric_scooter", "fusion_lon": 0.0, "is_reserved": 0, "bike_id": "aa3f532af346e1744373850a8e0e87c5", "fusion_lat": 0.0, "is_disabled": 0, "rental_uris": {"ios": "https://dc.lft.to/lastmile_qr_scan", "android": "https://dc.lft.to/lastmile_qr_scan"}}, {"name": "388dd6bc7b68cfbe6578d1d3f895cc41", "lon": -77.0253195, "lat": 38.942585333333334, "type": "electric_scooter", "fusion_lon": 0.0, "is_reserved": 0, "bike_id": "388dd6bc7b68cfbe6578d1d3f895cc41", "fusion_lat": 0.0, "is_disabled": 0, "rental_uris": {"ios": "https://dc.lft.to/lastmile_qr_scan", "android": "https://dc.lft.to/lastmile_qr_scan"}}, {"name": "b1767faf55f9c9be476032b07f135a1a", "lon": -77.042773, "lat": 38.913439, "type": "electric_scooter", "fusion_lon": 0.0, "is_reserved": 0, "bike_id": "b1767faf55f9c9be476032b07f135a1a", "fusion_lat": 0.0, "is_disabled": 0, "rental_uris": {"ios": "https://dc.lft.to/lastmile_qr_scan", "android": "https://dc.lft.to/lastmile_qr_scan"}}, {"name": "a294ba1ed6fc4b451af6acf225aa6645", "lon": -77.04617133333333, "lat": 38.909577666666664, "type": "electric_scooter", "fusion_lon": 0.0, "is_reserved": 0, "bike_id": "a294ba1ed6fc4b451af6acf225aa6645", "fusion_lat": 0.0, "is_disabled": 0, "rental_uris": {"ios": "https://dc.lft.to/lastmile_qr_scan", "android": "https://dc.lft.to/lastmile_qr_scan"}}, {"name": "518242c67f1228aca87bcef7ae620f3b", "lon": -77.014873, "lat": 38.881352166666666, "type": "electric_scooter", "fusion_lon": 0.0, "is_reserved": 0, "bike_id": "518242c67f1228aca87bcef7ae620f3b", "fusion_lat": 0.0, "is_disabled": 0, "rental_uris": {"ios": "https://dc.lft.to/lastmile_qr_scan", "android": "https://dc.lft.to/lastmile_qr_scan"}}, {"name": "46199653c7d95a7351294d94b06905b3", "lon": -76.97836883333333, "lat": 38.872075, "type": "electric_scooter", "fusion_lon": 0.0, "is_reserved": 0, "bike_id": "46199653c7d95a7351294d94b06905b3", "fusion_lat": 0.0, "is_disabled": 0, "rental_uris": {"ios": "https://dc.lft.to/lastmile_qr_scan", "android": "https://dc.lft.to/lastmile_qr_scan"}}, {"name": "c7499e22f6dff96c3aeb00266ee498d1", "lon": -76.98880433333333, "lat": 38.86659683333333, "type": "electric_scooter", "fusion_lon": 0.0, "is_reserved": 0, "bike_id": "c7499e22f6dff96c3aeb00266ee498d1", "fusion_lat": 0.0, "is_disabled": 0, "rental_uris": {"ios": "https://dc.lft.to/lastmile_qr_scan", "android": "https://dc.lft.to/lastmile_qr_scan"}}, {"name": "63173c0b82a5974342230805139dfb92", "lon": -77.03776316666666, "lat": 38.916929833333334, "type": "electric_scooter", "fusion_lon": 0.0, "is_reserved": 0, "bike_id": "63173c0b82a5974342230805139dfb92", "fusion_lat": 0.0, "is_disabled": 0, "rental_uris": {"ios": "https://dc.lft.to/lastmile_qr_scan", "android": "https://dc.lft.to/lastmile_qr_scan"}}, {"name": "e7ff440446a3a7f7a08e1c0b1ae5238b", "lon": -77.041894, "lat": 38.91983416666667, "type": "electric_scooter", "fusion_lon": 0.0, "is_reserved": 0, "bike_id": "e7ff440446a3a7f7a08e1c0b1ae5238b", "fusion_lat": 0.0, "is_disabled": 0, "rental_uris": {"ios": "https://dc.lft.to/lastmile_qr_scan", "android": "https://dc.lft.to/lastmile_qr_scan"}}, {"name": "152194af684b09f661c3b6703b0eac12", "lon": -77.029915, "lat": 38.907468333333334, "type": "electric_scooter", "fusion_lon": 0.0, "is_reserved": 0, "bike_id": "152194af684b09f661c3b6703b0eac12", "fusion_lat": 0.0, "is_disabled": 0, "rental_uris": {"ios": "https://dc.lft.to/lastmile_qr_scan", "android": "https://dc.lft.to/lastmile_qr_scan"}}, {"name": "0ead141a593b1b93e4f549de6f72f6c0", "lon": -77.04143983333333, "lat": 38.9158705, "type": "electric_scooter", "fusion_lon": 0.0, "is_reserved": 0, "bike_id": "0ead141a593b1b93e4f549de6f72f6c0", "fusion_lat": 0.0, "is_disabled": 0, "rental_uris": {"ios": "https://dc.lft.to/lastmile_qr_scan", "android": "https://dc.lft.to/lastmile_qr_scan"}}, {"name": "40603b333ab4c971fc6ddf15b0d5bd52", "lon": -77.02482533333334, "lat": 38.938826, "type": "electric_scooter", "fusion_lon": 0.0, "is_reserved": 0, "bike_id": "40603b333ab4c971fc6ddf15b0d5bd52", "fusion_lat": 0.0, "is_disabled": 0, "rental_uris": {"ios": "https://dc.lft.to/lastmile_qr_scan", "android": "https://dc.lft.to/lastmile_qr_scan"}}, {"name": "06e4fbc4f9b8ac13f6c74c6cb85e75d9", "lon": -77.055848, "lat": 38.89327333333333, "type": "electric_scooter", "fusion_lon": 0.0, "is_reserved": 0, "bike_id": "06e4fbc4f9b8ac13f6c74c6cb85e75d9", "fusion_lat": 0.0, "is_disabled": 0, "rental_uris": {"ios": "https://dc.lft.to/lastmile_qr_scan", "android": "https://dc.lft.to/lastmile_qr_scan"}}, {"name": "704a6dbd079ee5bff5eae372d92990df", "lon": -77.01167733333334, "lat": 38.872333166666664, "type": "electric_bike", "fusion_lon": 0.0, "is_reserved": 0, "bike_id": "704a6dbd079ee5bff5eae372d92990df", "fusion_lat": 0.0, "is_disabled": 0, "rental_uris": {"ios": "https://dc.lft.to/lastmile_qr_scan", "android": "https://dc.lft.to/lastmile_qr_scan"}}, {"name": "b1df2516636d58c58e8f2bf56e7b1539", "lon": -77.01036866666666, "lat": 38.86669583333333, "type": "electric_scooter", "fusion_lon": 0.0, "is_reserved": 0, "bike_id": "b1df2516636d58c58e8f2bf56e7b1539", "fusion_lat": 0.0, "is_disabled": 0, "rental_uris": {"ios": "https://dc.lft.to/lastmile_qr_scan", "android": "https://dc.lft.to/lastmile_qr_scan"}}, {"name": "b99be959f635cddda29d5379cbeb46d2", "lon": -76.98548383333333, "lat": 38.904181, "type": "electric_scooter", "fusion_lon": 0.0, "is_reserved": 0, "bike_id": "b99be959f635cddda29d5379cbeb46d2", "fusion_lat": 0.0, "is_disabled": 0, "rental_uris": {"ios": "https://dc.lft.to/lastmile_qr_scan", "android": "https://dc.lft.to/lastmile_qr_scan"}}, {"name": "8efbfeece1a81c58147cd52050b15a75", "lon": -77.08397733333334, "lat": 38.9080895, "type": "electric_scooter", "fusion_lon": 0.0, "is_reserved": 0, "bike_id": "8efbfeece1a81c58147cd52050b15a75", "fusion_lat": 0.0, "is_disabled": 0, "rental_uris": {"ios": "https://dc.lft.to/lastmile_qr_scan", "android": "https://dc.lft.to/lastmile_qr_scan"}}, {"name": "ed34a4a12a15a7e136a3370b1a0e4d18", "lon": -76.96912533333334, "lat": 38.84614533333333, "type": "electric_bike", "fusion_lon": 0.0, "is_reserved": 0, "bike_id": "ed34a4a12a15a7e136a3370b1a0e4d18", "fusion_lat": 0.0, "is_disabled": 0, "rental_uris": {"ios": "https://dc.lft.to/lastmile_qr_scan", "android": "https://dc.lft.to/lastmile_qr_scan"}}, {"name": "fbdd6b93fd4a6d6d164c7d38fa390d6c", "lon": -77.0450185, "lat": 38.842839, "type": "electric_bike", "fusion_lon": 0.0, "is_reserved": 0, "bike_id": "fbdd6b93fd4a6d6d164c7d38fa390d6c", "fusion_lat": 0.0, "is_disabled": 0, "rental_uris": {"ios": "https://dc.lft.to/lastmile_qr_scan", "android": "https://dc.lft.to/lastmile_qr_scan"}}, {"name": "e2e135375398b9d08b4ccbee2f6cc3e2", "lon": -77.00546983333334, "lat": 38.8788665, "type": "electric_scooter", "fusion_lon": 0.0, "is_reserved": 0, "bike_id": "e2e135375398b9d08b4ccbee2f6cc3e2", "fusion_lat": 0.0, "is_disabled": 0, "rental_uris": {"ios": "https://dc.lft.to/lastmile_qr_scan", "android": "https://dc.lft.to/lastmile_qr_scan"}}, {"name": "b869989445e81f57b88835fc8bca0752", "lon": -77.0344, "lat": 38.9058435, "type": "electric_scooter", "fusion_lon": 0.0, "is_reserved": 0, "bike_id": "b869989445e81f57b88835fc8bca0752", "fusion_lat": 0.0, "is_disabled": 0, "rental_uris": {"ios": "https://dc.lft.to/lastmile_qr_scan", "android": "https://dc.lft.to/lastmile_qr_scan"}}, {"name": "2661f0ffa5be08e7054bc41aa561767d", "lon": -77.044969, "lat": 38.911932666666665, "type": "electric_scooter", "fusion_lon": 0.0, "is_reserved": 0, "bike_id": "2661f0ffa5be08e7054bc41aa561767d", "fusion_lat": 0.0, "is_disabled": 0, "rental_uris": {"ios": "https://dc.lft.to/lastmile_qr_scan", "android": "https://dc.lft.to/lastmile_qr_scan"}}, {"name": "a27ee9539e1443ee5e669c920b7900dd", "lon": -76.94931483333333, "lat": 38.89347983333333, "type": "electric_scooter", "fusion_lon": 0.0, "is_reserved": 0, "bike_id": "a27ee9539e1443ee5e669c920b7900dd", "fusion_lat": 0.0, "is_disabled": 0, "rental_uris": {"ios": "https://dc.lft.to/lastmile_qr_scan", "android": "https://dc.lft.to/lastmile_qr_scan"}}, {"name": "6ca6e1026d8f0ae27f592794381ccf8b", "lon": -76.99836633333334, "lat": 38.8847465, "type": "electric_scooter", "fusion_lon": 0.0, "is_reserved": 0, "bike_id": "6ca6e1026d8f0ae27f592794381ccf8b", "fusion_lat": 0.0, "is_disabled": 0, "rental_uris": {"ios": "https://dc.lft.to/lastmile_qr_scan", "android": "https://dc.lft.to/lastmile_qr_scan"}}, {"name": "a7fe88f4cc59b8a0d5151c5d2d4e1d29", "lon": -77.0277785, "lat": 38.897073166666665, "type": "electric_scooter", "fusion_lon": 0.0, "is_reserved": 0, "bike_id": "a7fe88f4cc59b8a0d5151c5d2d4e1d29", "fusion_lat": 0.0, "is_disabled": 0, "rental_uris": {"ios": "https://dc.lft.to/lastmile_qr_scan", "android": "https://dc.lft.to/lastmile_qr_scan"}}, {"name": "83bd5b5184def9fbbeaaa58536e549ba", "lon": -77.02090716666666, "lat": 38.937189333333336, "type": "electric_bike", "fusion_lon": 0.0, "is_reserved": 0, "bike_id": "83bd5b5184def9fbbeaaa58536e549ba", "fusion_lat": 0.0, "is_disabled": 0, "rental_uris": {"ios": "https://dc.lft.to/lastmile_qr_scan", "android": "https://dc.lft.to/lastmile_qr_scan"}}, {"name": "26e353f92151e922e45b5c29f5a740b1", "lon": -77.04254983333334, "lat": 38.90858633333333, "type": "electric_scooter", "fusion_lon": 0.0, "is_reserved": 0, "bike_id": "26e353f92151e922e45b5c29f5a740b1", "fusion_lat": 0.0, "is_disabled": 0, "rental_uris": {"ios": "https://dc.lft.to/lastmile_qr_scan", "android": "https://dc.lft.to/lastmile_qr_scan"}}, {"name": "7e1541f3404d611c206193494e20af6c", "lon": -77.002151, "lat": 38.9145035, "type": "electric_scooter", "fusion_lon": 0.0, "is_reserved": 0, "bike_id": "7e1541f3404d611c206193494e20af6c", "fusion_lat": 0.0, "is_disabled": 0, "rental_uris": {"ios": "https://dc.lft.to/lastmile_qr_scan", "android": "https://dc.lft.to/lastmile_qr_scan"}}, {"name": "fcd1dc8e3f8e729d12bcae47cfc602ec", "lon": -77.02690683333333, "lat": 38.90982116666667, "type": "electric_scooter", "fusion_lon": 0.0, "is_reserved": 0, "bike_id": "fcd1dc8e3f8e729d12bcae47cfc602ec", "fusion_lat": 0.0, "is_disabled": 0, "rental_uris": {"ios": "https://dc.lft.to/lastmile_qr_scan", "android": "https://dc.lft.to/lastmile_qr_scan"}}, {"name": "0d7fe132f49b0764a9876dd48195ca50", "lon": -77.0453195, "lat": 38.93464616666667, "type": "electric_bike", "fusion_lon": 0.0, "is_reserved": 0, "bike_id": "0d7fe132f49b0764a9876dd48195ca50", "fusion_lat": 0.0, "is_disabled": 0, "rental_uris": {"ios": "https://dc.lft.to/lastmile_qr_scan", "android": "https://dc.lft.to/lastmile_qr_scan"}}, {"name": "cb8d644b985d431f692a1e02976db282", "lon": -77.03102533333333, "lat": 38.95075533333333, "type": "electric_scooter", "fusion_lon": 0.0, "is_reserved": 0, "bike_id": "cb8d644b985d431f692a1e02976db282", "fusion_lat": 0.0, "is_disabled": 0, "rental_uris": {"ios": "https://dc.lft.to/lastmile_qr_scan", "android": "https://dc.lft.to/lastmile_qr_scan"}}, {"name": "690798cec49c8f25e6cfd69c3a0475ad", "lon": -76.99777566666667, "lat": 38.8621215, "type": "electric_bike", "fusion_lon": 0.0, "is_reserved": 0, "bike_id": "690798cec49c8f25e6cfd69c3a0475ad", "fusion_lat": 0.0, "is_disabled": 0, "rental_uris": {"ios": "https://dc.lft.to/lastmile_qr_scan", "android": "https://dc.lft.to/lastmile_qr_scan"}}, {"name": "dde67eee8a414d13405491f6ffe726dd", "lon": -77.072621, "lat": 38.933462666666664, "type": "electric_bike", "fusion_lon": 0.0, "is_reserved": 0, "bike_id": "dde67eee8a414d13405491f6ffe726dd", "fusion_lat": 0.0, "is_disabled": 0, "rental_uris": {"ios": "https://dc.lft.to/lastmile_qr_scan", "android": "https://dc.lft.to/lastmile_qr_scan"}}, {"name": "3c6e0492aea1158f0b9834fd6556048c", "lon": -76.9954475, "lat": 38.87940666666667, "type": "electric_scooter", "fusion_lon": 0.0, "is_reserved": 0, "bike_id": "3c6e0492aea1158f0b9834fd6556048c", "fusion_lat": 0.0, "is_disabled": 0, "rental_uris": {"ios": "https://dc.lft.to/lastmile_qr_scan", "android": "https://dc.lft.to/lastmile_qr_scan"}}, {"name": "094a7501dbd391a7637313ab34faa774", "lon": -77.06354283333333, "lat": 38.94457716666667, "type": "electric_scooter", "fusion_lon": 0.0, "is_reserved": 0, "bike_id": "094a7501dbd391a7637313ab34faa774", "fusion_lat": 0.0, "is_disabled": 0, "rental_uris": {"ios": "https://dc.lft.to/lastmile_qr_scan", "android": "https://dc.lft.to/lastmile_qr_scan"}}, {"name": "c0b7e1a895ca1ca620716a683330f3fa", "lon": -77.03258733333334, "lat": 38.93975833333333, "type": "electric_scooter", "fusion_lon": 0.0, "is_reserved": 0, "bike_id": "c0b7e1a895ca1ca620716a683330f3fa", "fusion_lat": 0.0, "is_disabled": 0, "rental_uris": {"ios": "https://dc.lft.to/lastmile_qr_scan", "android": "https://dc.lft.to/lastmile_qr_scan"}}, {"name": "39ab1410b45410fe0601ed91fd2317d5", "lon": -77.01673033333333, "lat": 38.8812465, "type": "electric_scooter", "fusion_lon": 0.0, "is_reserved": 0, "bike_id": "39ab1410b45410fe0601ed91fd2317d5", "fusion_lat": 0.0, "is_disabled": 0, "rental_uris": {"ios": "https://dc.lft.to/lastmile_qr_scan", "android": "https://dc.lft.to/lastmile_qr_scan"}}, {"name": "fc5d2fb8e4828e45aa8b67894df4ebcd", "lon": -77.02809316666666, "lat": 38.92364583333333, "type": "electric_scooter", "fusion_lon": 0.0, "is_reserved": 0, "bike_id": "fc5d2fb8e4828e45aa8b67894df4ebcd", "fusion_lat": 0.0, "is_disabled": 0, "rental_uris": {"ios": "https://dc.lft.to/lastmile_qr_scan", "android": "https://dc.lft.to/lastmile_qr_scan"}}, {"name": "e77b52dc8e6627e195eb52a705fc1d0c", "lon": -77.03351233333333, "lat": 38.898371833333336, "type": "electric_scooter", "fusion_lon": 0.0, "is_reserved": 0, "bike_id": "e77b52dc8e6627e195eb52a705fc1d0c", "fusion_lat": 0.0, "is_disabled": 0, "rental_uris": {"ios": "https://dc.lft.to/lastmile_qr_scan", "android": "https://dc.lft.to/lastmile_qr_scan"}}, {"name": "bcf5cc01ee8b64d1a5d606706486a820", "lon": -77.02398883333333, "lat": 38.9162765, "type": "electric_scooter", "fusion_lon": 0.0, "is_reserved": 0, "bike_id": "bcf5cc01ee8b64d1a5d606706486a820", "fusion_lat": 0.0, "is_disabled": 0, "rental_uris": {"ios": "https://dc.lft.to/lastmile_qr_scan", "android": "https://dc.lft.to/lastmile_qr_scan"}}, {"name": "7c0fa262715333e469304637e786a1ba", "lon": -77.01752283333333, "lat": 38.877249666666664, "type": "electric_scooter", "fusion_lon": 0.0, "is_reserved": 0, "bike_id": "7c0fa262715333e469304637e786a1ba", "fusion_lat": 0.0, "is_disabled": 0, "rental_uris": {"ios": "https://dc.lft.to/lastmile_qr_scan", "android": "https://dc.lft.to/lastmile_qr_scan"}}, {"name": "f9e814ff4d3a6fedfdd1c82bfbfa7350", "lon": -77.03372833333333, "lat": 38.89920983333333, "type": "electric_scooter", "fusion_lon": 0.0, "is_reserved": 0, "bike_id": "f9e814ff4d3a6fedfdd1c82bfbfa7350", "fusion_lat": 0.0, "is_disabled": 0, "rental_uris": {"ios": "https://dc.lft.to/lastmile_qr_scan", "android": "https://dc.lft.to/lastmile_qr_scan"}}, {"name": "b9b6580c548a72063cd2475ac6f29900", "lon": -77.04633633333333, "lat": 38.91940616666667, "type": "electric_scooter", "fusion_lon": 0.0, "is_reserved": 0, "bike_id": "b9b6580c548a72063cd2475ac6f29900", "fusion_lat": 0.0, "is_disabled": 0, "rental_uris": {"ios": "https://dc.lft.to/lastmile_qr_scan", "android": "https://dc.lft.to/lastmile_qr_scan"}}, {"name": "e383def6e08fa8f45fb2309cb8cd3f38", "lon": -77.04527183333333, "lat": 38.90287166666667, "type": "electric_scooter", "fusion_lon": 0.0, "is_reserved": 0, "bike_id": "e383def6e08fa8f45fb2309cb8cd3f38", "fusion_lat": 0.0, "is_disabled": 0, "rental_uris": {"ios": "https://dc.lft.to/lastmile_qr_scan", "android": "https://dc.lft.to/lastmile_qr_scan"}}, {"name": "91b3aecb50f290aa23fb259dd506a5ae", "lon": -77.09452633333333, "lat": 38.807561, "type": "electric_bike", "fusion_lon": 0.0, "is_reserved": 0, "bike_id": "91b3aecb50f290aa23fb259dd506a5ae", "fusion_lat": 0.0, "is_disabled": 0, "rental_uris": {"ios": "https://dc.lft.to/lastmile_qr_scan", "android": "https://dc.lft.to/lastmile_qr_scan"}}, {"name": "e767f5a8900f7fc61d0d0c96f927d389", "lon": -76.99267616666667, "lat": 38.86252066666667, "type": "electric_scooter", "fusion_lon": 0.0, "is_reserved": 0, "bike_id": "e767f5a8900f7fc61d0d0c96f927d389", "fusion_lat": 0.0, "is_disabled": 0, "rental_uris": {"ios": "https://dc.lft.to/lastmile_qr_scan", "android": "https://dc.lft.to/lastmile_qr_scan"}}, {"name": "db44ed8ab5f69eda9854cc7a5bbe2f90", "lon": -77.04479416666666, "lat": 38.92424483333333, "type": "electric_scooter", "fusion_lon": 0.0, "is_reserved": 0, "bike_id": "db44ed8ab5f69eda9854cc7a5bbe2f90", "fusion_lat": 0.0, "is_disabled": 0, "rental_uris": {"ios": "https://dc.lft.to/lastmile_qr_scan", "android": "https://dc.lft.to/lastmile_qr_scan"}}, {"name": "4637e628b2da8ba9ec4c5e253bb413cf", "lon": -77.06328116666667, "lat": 38.944220333333334, "type": "electric_scooter", "fusion_lon": 0.0, "is_reserved": 0, "bike_id": "4637e628b2da8ba9ec4c5e253bb413cf", "fusion_lat": 0.0, "is_disabled": 0, "rental_uris": {"ios": "https://dc.lft.to/lastmile_qr_scan", "android": "https://dc.lft.to/lastmile_qr_scan"}}, {"name": "bb4b620755e6237573c51baf427cba03", "lon": -76.89538733333333, "lat": 38.94554483333334, "type": "electric_bike", "fusion_lon": 0.0, "is_reserved": 0, "bike_id": "bb4b620755e6237573c51baf427cba03", "fusion_lat": 0.0, "is_disabled": 0, "rental_uris": {"ios": "https://dc.lft.to/lastmile_qr_scan", "android": "https://dc.lft.to/lastmile_qr_scan"}}, {"name": "10644ba37928bcdc073837fab1f58f1b", "lon": -77.02176083333333, "lat": 38.9056445, "type": "electric_scooter", "fusion_lon": 0.0, "is_reserved": 0, "bike_id": "10644ba37928bcdc073837fab1f58f1b", "fusion_lat": 0.0, "is_disabled": 0, "rental_uris": {"ios": "https://dc.lft.to/lastmile_qr_scan", "android": "https://dc.lft.to/lastmile_qr_scan"}}, {"name": "6339a349fe1278767bf189c8c32970ea", "lon": -77.027336, "lat": 38.94094466666667, "type": "electric_scooter", "fusion_lon": 0.0, "is_reserved": 0, "bike_id": "6339a349fe1278767bf189c8c32970ea", "fusion_lat": 0.0, "is_disabled": 0, "rental_uris": {"ios": "https://dc.lft.to/lastmile_qr_scan", "android": "https://dc.lft.to/lastmile_qr_scan"}}, {"name": "ca63e5f93ed4b6f10929edb30db75eda", "lon": -77.04140266666667, "lat": 38.8935445, "type": "electric_scooter", "fusion_lon": 0.0, "is_reserved": 0, "bike_id": "ca63e5f93ed4b6f10929edb30db75eda", "fusion_lat": 0.0, "is_disabled": 0, "rental_uris": {"ios": "https://dc.lft.to/lastmile_qr_scan", "android": "https://dc.lft.to/lastmile_qr_scan"}}, {"name": "f22eea70233eed259434b5522457652c", "lon": -77.04304483333334, "lat": 38.928855, "type": "electric_bike", "fusion_lon": 0.0, "is_reserved": 0, "bike_id": "f22eea70233eed259434b5522457652c", "fusion_lat": 0.0, "is_disabled": 0, "rental_uris": {"ios": "https://dc.lft.to/lastmile_qr_scan", "android": "https://dc.lft.to/lastmile_qr_scan"}}, {"name": "4db9dafa15239b13a73f52cdafa93d61", "lon": -76.98247116666667, "lat": 38.8645855, "type": "electric_scooter", "fusion_lon": 0.0, "is_reserved": 0, "bike_id": "4db9dafa15239b13a73f52cdafa93d61", "fusion_lat": 0.0, "is_disabled": 0, "rental_uris": {"ios": "https://dc.lft.to/lastmile_qr_scan", "android": "https://dc.lft.to/lastmile_qr_scan"}}, {"name": "6abc543a52df5c52018405d46568491c", "lon": -77.04408366666667, "lat": 38.92134866666667, "type": "electric_scooter", "fusion_lon": 0.0, "is_reserved": 0, "bike_id": "6abc543a52df5c52018405d46568491c", "fusion_lat": 0.0, "is_disabled": 0, "rental_uris": {"ios": "https://dc.lft.to/lastmile_qr_scan", "android": "https://dc.lft.to/lastmile_qr_scan"}}, {"name": "6af44138a901195a59a5ff06091e3aad", "lon": -77.04085216666667, "lat": 38.925474, "type": "electric_scooter", "fusion_lon": 0.0, "is_reserved": 0, "bike_id": "6af44138a901195a59a5ff06091e3aad", "fusion_lat": 0.0, "is_disabled": 0, "rental_uris": {"ios": "https://dc.lft.to/lastmile_qr_scan", "android": "https://dc.lft.to/lastmile_qr_scan"}}, {"name": "79604100fa5ae5ffcf3edd9f48da4965", "lon": -77.0487535, "lat": 38.892716666666665, "type": "electric_scooter", "fusion_lon": 0.0, "is_reserved": 0, "bike_id": "79604100fa5ae5ffcf3edd9f48da4965", "fusion_lat": 0.0, "is_disabled": 0, "rental_uris": {"ios": "https://dc.lft.to/lastmile_qr_scan", "android": "https://dc.lft.to/lastmile_qr_scan"}}, {"name": "49531440a519ceef1c52312718f620c4", "lon": -77.0352735, "lat": 38.9181505, "type": "electric_scooter", "fusion_lon": 0.0, "is_reserved": 0, "bike_id": "49531440a519ceef1c52312718f620c4", "fusion_lat": 0.0, "is_disabled": 0, "rental_uris": {"ios": "https://dc.lft.to/lastmile_qr_scan", "android": "https://dc.lft.to/lastmile_qr_scan"}}, {"name": "92bc4fdcdd5df0d2305f6fd7bd21e87f", "lon": -77.04612183333333, "lat": 38.923260166666665, "type": "electric_scooter", "fusion_lon": 0.0, "is_reserved": 0, "bike_id": "92bc4fdcdd5df0d2305f6fd7bd21e87f", "fusion_lat": 0.0, "is_disabled": 0, "rental_uris": {"ios": "https://dc.lft.to/lastmile_qr_scan", "android": "https://dc.lft.to/lastmile_qr_scan"}}, {"name": "b05b101f3008eacc6768d2a01e7c78c6", "lon": -77.02814583333334, "lat": 38.965066666666665, "type": "electric_bike", "fusion_lon": 0.0, "is_reserved": 0, "bike_id": "b05b101f3008eacc6768d2a01e7c78c6", "fusion_lat": 0.0, "is_disabled": 0, "rental_uris": {"ios": "https://dc.lft.to/lastmile_qr_scan", "android": "https://dc.lft.to/lastmile_qr_scan"}}, {"name": "cca27044638ced0772ca4382481e315d", "lon": -76.98882716666667, "lat": 38.866614, "type": "electric_scooter", "fusion_lon": 0.0, "is_reserved": 0, "bike_id": "cca27044638ced0772ca4382481e315d", "fusion_lat": 0.0, "is_disabled": 0, "rental_uris": {"ios": "https://dc.lft.to/lastmile_qr_scan", "android": "https://dc.lft.to/lastmile_qr_scan"}}, {"name": "b311570a9ae98871c14d7543fa8eb01d", "lon": -77.04928266666667, "lat": 38.909971, "type": "electric_scooter", "fusion_lon": 0.0, "is_reserved": 0, "bike_id": "b311570a9ae98871c14d7543fa8eb01d", "fusion_lat": 0.0, "is_disabled": 0, "rental_uris": {"ios": "https://dc.lft.to/lastmile_qr_scan", "android": "https://dc.lft.to/lastmile_qr_scan"}}, {"name": "7ac39c5995cfb963d5ed10fe2a10d85d", "lon": -77.04655216666667, "lat": 38.91369816666667, "type": "electric_scooter", "fusion_lon": 0.0, "is_reserved": 0, "bike_id": "7ac39c5995cfb963d5ed10fe2a10d85d", "fusion_lat": 0.0, "is_disabled": 0, "rental_uris": {"ios": "https://dc.lft.to/lastmile_qr_scan", "android": "https://dc.lft.to/lastmile_qr_scan"}},