{"data": {"bikes": [{"rental_uris": {"android": "https://dc.lft.to/lastmile_qr_scan", "ios": "https://dc.lft.to/lastmile_qr_scan"}, "fusion_lat": 0.0, "is_reserved": 0, "lat": 38.89691216666667, "name": "f7ea39735519a7d6e2b21a2cf4f9ac8d", "bike_id": "f7ea39735519a7d6e2b21a2cf4f9ac8d", "is_disabled": 0, "fusion_lon": 0.0, "type": "electric_scooter", "lon": -77.00493733333333}, {"rental_uris": {"android": "https://dc.lft.to/lastmile_qr_scan", "ios": "https://dc.lft.to/lastmile_qr_scan"}, "fusion_lat": 0.0, "is_reserved": 0, "lat": 38.916533333333334, "name": "e5bd840cd4830191036bfd6cc6ceeee2", "bike_id": "e5bd840cd4830191036bfd6cc6ceeee2", "is_disabled": 0, "fusion_lon": 0.0, "type": "electric_scooter", "lon": -77.01068616666667}, {"rental_uris": {"android": "https://dc.lft.to/lastmile_qr_scan", "ios": "https://dc.lft.to/lastmile_qr_scan"}, "fusion_lat": 0.0, "is_reserved": 0, "lat": 38.91265683333334, "name": "28f87e33c54b488730b759e44aed1a1e", "bike_id": "28f87e33c54b488730b759e44aed1a1e", "is_disabled": 0, "fusion_lon": 0.0, "type": "electric_scooter", "lon": -77.00798183333333}, {"rental_uris": {"android": "https://dc.lft.to/lastmile_qr_scan", "ios": "https://dc.lft.to/lastmile_qr_scan"}, "fusion_lat": 0.0, "is_reserved": 0, "lat": 38.94450333333333, "name": "b613d3e528ae02a051c45a57e2c07dba", "bike_id": "b613d3e528ae02a051c45a57e2c07dba", "is_disabled": 0, "fusion_lon": 0.0, "type": "electric_scooter", "lon": -77.02801216666667}, {"rental_uris": {"android": "https://dc.lft.to/lastmile_qr_scan", "ios": "https://dc.lft.to/lastmile_qr_scan"}, "fusion_lat": 0.0, "is_reserved": 0, "lat": 38.85783966666666, "name": "ce6b6f3d39698ae478ea9a98009a5116", "bike_id": "ce6b6f3d39698ae478ea9a98009a5116", "is_disabled": 0, "fusion_lon": 0.0, "type": "electric_bike", "lon": -76.98769183333333}, {"rental_uris": {"android": "https://dc.lft.to/lastmile_qr_scan", "ios": "https://dc.lft.to/lastmile_qr_scan"}, "fusion_lat": 0.0, "is_reserved": 0, "lat": 38.923681333333334, "name": "f6e88823d57636990130c3218ebebbf6", "bike_id": "f6e88823d57636990130c3218ebebbf6", "is_disabled": 0, "fusion_lon": 0.0, "type": "electric_scooter", "lon": -77.02060483333334}, {"rental_uris": {"android": "https://dc.lft.to/lastmile_qr_scan", "ios": "https://dc.lft.to/lastmile_qr_scan"}, "fusion_lat": 0.0, "is_reserved": 0, "lat": 38.830310833333336, "name": "16955e712b3db7e174498b27f5a186a9", "bike_id": "16955e712b3db7e174498b27f5a186a9", "is_disabled": 0, "fusion_lon": 0.0, "type": "electric_bike", "lon": -77.0837915}, {"rental_uris": {"android": "https://dc.lft.to/lastmile_qr_scan", "ios": "https://dc.lft.to/lastmile_qr_scan"}, "fusion_lat": 0.0, "is_reserved": 0, "lat": 38.924743666666664, "name": "ef23028004a9bb0912e2af6ba1a495f4", "bike_id": "ef23028004a9bb0912e2af6ba1a495f4", "is_disabled": 0, "fusion_lon": 0.0, "type": "electric_scooter", "lon": -77.02113616666666}, {"rental_uris": {"android": "https://dc.lft.to/lastmile_qr_scan", "ios": "https://dc.lft.to/lastmile_qr_scan"}, "fusion_lat": 0.0, "is_reserved": 0, "lat": 38.92608383333334, "name": "843737161b2f707f94ec9ebcd0bb49dd", "bike_id": "843737161b2f707f94ec9ebcd0bb49dd", "is_disabled": 0, "fusion_lon": 0.0, "type": "electric_scooter", "lon": -77.02162683333333}, {"rental_uris": {"android": "https://dc.lft.to/lastmile_qr_scan", "ios": "https://dc.lft.to/lastmile_qr_scan"}, "fusion_lat": 0.0, "is_reserved": 0, "lat": 38.91704716666667, "name": "7f760bad0186dc87105f36e4cbb64c1e", "bike_id": "7f760bad0186dc87105f36e4cbb64c1e", "is_disabled": 0, "fusion_lon": 0.0, "type": "electric_scooter", "lon": -77.01071983333334}, {"rental_uris": {"android": "https://dc.lft.to/lastmile_qr_scan", "ios": "https://dc.lft.to/lastmile_qr_scan"}, "fusion_lat": 0.0, "is_reserved": 0, "lat": 38.89833183333333, "name": "5bdb0bc5350899991f059e50e083550c", "bike_id": "5bdb0bc5350899991f059e50e083550c", "is_disabled": 0, "fusion_lon": 0.0, "type": "electric_scooter", "lon": -77.03238133333333}, {"rental_uris": {"android": "https://dc.lft.to/lastmile_qr_scan", "ios": "https://dc.lft.to/lastmile_qr_scan"}, "fusion_lat": 0.0, "is_reserved": 0, "lat": 38.92334483333333, "name": "61db87efc7317def96fef08eb14e4ac1", "bike_id": "61db87efc7317def96fef08eb14e4ac1", "is_disabled": 0, "fusion_lon": 0.0, "type": "electric_scooter", "lon": -77.05684766666667}, {"rental_uris": {"android": "https://dc.lft.to/lastmile_qr_scan", "ios": "https://dc.lft.to/lastmile_qr_scan"}, "fusion_lat": 0.0, "is_reserved": 0, "lat": 38.900402666666665, "name": "56b6e446c3907547f0a3453700e198ec", "bike_id": "56b6e446c3907547f0a3453700e198ec", "is_disabled": 0, "fusion_lon": 0.0, "type": "electric_scooter", "lon": -76.98828066666667}, {"rental_uris": {"android": "https://dc.lft.to/lastmile_qr_scan", "ios": "https://dc.lft.to/lastmile_qr_scan"}, "fusion_lat": 0.0, "is_reserved": 0, "lat": 38.919736, "name": "427a7c7bd5f9675ec6502b3316499f5d", "bike_id": "427a7c7bd5f9675ec6502b3316499f5d", "is_disabled": 0, "fusion_lon": 0.0, "type": "electric_scooter", "lon": -77.07113966666667}, {"rental_uris": {"android": "https://dc.lft.to/lastmile_qr_scan", "ios": "https://dc.lft.to/lastmile_qr_scan"}, "fusion_lat": 0.0, "is_reserved": 0, "lat": 38.9068085, "name": "697e2db398a5463df26ec813b0f9b819", "bike_id": "697e2db398a5463df26ec813b0f9b819", "is_disabled": 0, "fusion_lon": 0.0, "type": "electric_scooter", "lon": -77.02711666666667}, {"rental_uris": {"android": "https://dc.lft.to/lastmile_qr_scan", "ios": "https://dc.lft.to/lastmile_qr_scan"}, "fusion_lat": 0.0, "is_reserved": 0, "lat": 38.90388866666667, "name": "e0cc5e8c47f92d15505c21200809184a", "bike_id": "e0cc5e8c47f92d15505c21200809184a", "is_disabled": 0, "fusion_lon": 0.0, "type": "electric_scooter", "lon": -77.06852033333334}, {"rental_uris": {"android": "https://dc.lft.to/lastmile_qr_scan", "ios": "https://dc.lft.to/lastmile_qr_scan"}, "fusion_lat": 0.0, "is_reserved": 0, "lat": 38.9090165, "name": "14159332237730c120ee717c5c92ecf0", "bike_id": "14159332237730c120ee717c5c92ecf0", "is_disabled": 0, "fusion_lon": 0.0, "type": "electric_scooter", "lon": -77.04400016666666}, {"rental_uris": {"android": "https://dc.lft.to/lastmile_qr_scan", "ios": "https://dc.lft.to/lastmile_qr_scan"}, "fusion_lat": 0.0, "is_reserved": 0, "lat": 38.895660166666666, "name": "043494d68125ec80320a03bcee5e16d2", "bike_id": "043494d68125ec80320a03bcee5e16d2", "is_disabled": 0, "fusion_lon": 0.0, "type": "electric_scooter", "lon": -77.01108866666667}, {"rental_uris": {"android": "https://dc.lft.to/lastmile_qr_scan", "ios": "https://dc.lft.to/lastmile_qr_scan"}, "fusion_lat": 0.0, "is_reserved": 0, "lat": 38.89504766666667, "name": "723537e4b6da03c0545400c01f2a15ce", "bike_id": "723537e4b6da03c0545400c01f2a15ce", "is_disabled": 0, "fusion_lon": 0.0, "type": "electric_scooter", "lon": -77.04637783333334}, {"rental_uris": {"android": "https://dc.lft.to/lastmile_qr_scan", "ios": "https://dc.lft.to/lastmile_qr_scan"}, "fusion_lat": 0.0, "is_reserved": 0, "lat": 38.9272275, "name": "a948564d278eaa33fdbdde0c5c2a01f7", "bike_id": "a948564d278eaa33fdbdde0c5c2a01f7", "is_disabled": 0, "fusion_lon": 0.0, "type": "electric_scooter", "lon": -77.016346}, {"rental_uris": {"android": "https://dc.lft.to/lastmile_qr_scan", "ios": "https://dc.lft.to/lastmile_qr_scan"}, "fusion_lat": 0.0, "is_reserved": 0, "lat": 38.90589333333333, "name": "85f5190c1ca8fa5e7bc90486b4a0855c", "bike_id": "85f5190c1ca8fa5e7bc90486b4a0855c", "is_disabled": 0, "fusion_lon": 0.0, "type": "electric_scooter", "lon": -77.0069915}, {"rental_uris": {"android": "https://dc.lft.to/lastmile_qr_scan", "ios": "https://dc.lft.to/lastmile_qr_scan"}, "fusion_lat": 0.0, "is_reserved": 0, "lat": 38.900412333333335, "name": "bac9237103ca62c249ade6f1209858e8", "bike_id": "bac9237103ca62c249ade6f1209858e8", "is_disabled": 0, "fusion_lon": 0.0, "type": "electric_scooter", "lon": -77.02932533333333}, {"rental_uris": {"android": "https://dc.lft.to/lastmile_qr_scan", "ios": "https://dc.lft.to/lastmile_qr_scan"}, "fusion_lat": 0.0, "is_reserved": 0, "lat": 38.921415833333334, "name": "cb2b01d8ad8f705d1cfeac15d3bc8a98", "bike_id": "cb2b01d8ad8f705d1cfeac15d3bc8a98", "is_disabled": 0, "fusion_lon": 0.0, "type": "electric_scooter", "lon": -77.01812166666667}, {"rental_uris": {"android": "https://dc.lft.to/lastmile_qr_scan", "ios": "https://dc.lft.to/lastmile_qr_scan"}, "fusion_lat": 0.0, "is_reserved": 0, "lat": 38.884408, "name": "a88ec1241e4b0802d1bdda69a0ef7b48", "bike_id": "a88ec1241e4b0802d1bdda69a0ef7b48", "is_disabled": 0, "fusion_lon": 0.0, "type": "electric_scooter", "lon": -77.003463}, {"rental_uris": {"android": "https://dc.lft.to/lastmile_qr_scan", "ios": "https://dc.lft.to/lastmile_qr_scan"}, "fusion_lat": 0.0, "is_reserved": 0, "lat": 38.9332235, "name": "9428ff7cdf92ed36862b08864d9fa7c3", "bike_id": "9428ff7cdf92ed36862b08864d9fa7c3", "is_disabled": 0, "fusion_lon": 0.0, "type": "electric_scooter", "lon": -77.03076866666666}, {"rental_uris": {"android": "https://dc.lft.to/lastmile_qr_scan", "ios": "https://dc.lft.to/lastmile_qr_scan"}, "fusion_lat": 0.0, "is_reserved": 0, "lat": 38.91977516666667, "name": "e6d2ec559b6852b8e42654cc506f65d2", "bike_id": "e6d2ec559b6852b8e42654cc506f65d2", "is_disabled": 0, "fusion_lon": 0.0, "type": "electric_scooter", "lon": -77.04228683333334}, {"rental_uris": {"android": "https://dc.lft.to/lastmile_qr_scan", "ios": "https://dc.lft.to/lastmile_qr_scan"}, "fusion_lat": 0.0, "is_reserved": 0, "lat": 38.89807116666667, "name": "e9ea0308ec4030abdf61fb2da9dd2947", "bike_id": "e9ea0308ec4030abdf61fb2da9dd2947", "is_disabled": 0, "fusion_lon": 0.0, "type": "electric_bike", "lon": -76.99065783333333}, {"rental_uris": {"android": "https://dc.lft.to/lastmile_qr_scan", "ios": "https://dc.lft.to/lastmile_qr_scan"}, "fusion_lat": 0.0, "is_reserved": 0, "lat": 38.9138755, "name": "010a6ef10e7f08acfd34365765f55c3d", "bike_id": "010a6ef10e7f08acfd34365765f55c3d", "is_disabled": 0, "fusion_lon": 0.0, "type": "electric_scooter", "lon": -76.98421133333333}, {"rental_uris": {"android": "https://dc.lft.to/lastmile_qr_scan", "ios": "https://dc.lft.to/lastmile_qr_scan"}, "fusion_lat": 0.0, "is_reserved": 0, "lat": 38.888806833333334, "name": "781a928416de45108e4bb9d75fe88c35", "bike_id": "781a928416de45108e4bb9d75fe88c35", "is_disabled": 0, "fusion_lon": 0.0, "type": "electric_scooter", "lon": -76.99036533333333}, {"rental_uris": {"android": "https://dc.lft.to/lastmile_qr_scan", "ios": "https://dc.lft.to/lastmile_qr_scan"}, "fusion_lat": 0.0, "is_reserved": 0, "lat": 38.9087075, "name": "5d9fff276f94ffc78b960a841e35cfda", "bike_id": "5d9fff276f94ffc78b960a841e35cfda", "is_disabled": 0, "fusion_lon": 0.0, "type": "electric_scooter", "lon": -77.00374716666667}, {"rental_uris": {"android": "https://dc.lft.to/lastmile_qr_scan", "ios": "https://dc.lft.to/lastmile_qr_scan"}, "fusion_lat": 0.0, "is_reserved": 0, "lat": 38.91583516666667, "name": "fa96e9de7691f60a01d5e1d22320b47c", "bike_id": "fa96e9de7691f60a01d5e1d22320b47c", "is_disabled": 0, "fusion_lon": 0.0, "type": "electric_scooter", "lon": -77.01244516666667}, {"rental_uris": {"android": "https://dc.lft.to/lastmile_qr_scan", "ios": "https://dc.lft.to/lastmile_qr_scan"}, "fusion_lat": 0.0, "is_reserved": 0, "lat": 38.98434816666666, "name": "362f543f1dc0811ca1b48c3861d67c21", "bike_id": "362f543f1dc0811ca1b48c3861d67c21", "is_disabled": 0, "fusion_lon": 0.0, "type": "electric_scooter", "lon": -77.0267575}, {"rental_uris": {"android": "https://dc.lft.to/lastmile_qr_scan", "ios": "https://dc.lft.to/lastmile_qr_scan"}, "fusion_lat": 0.0, "is_reserved": 0, "lat": 38.924602166666666, "name": "bd78ab50214e1227551ec779d6c71819", "bike_id": "bd78ab50214e1227551ec779d6c71819", "is_disabled": 0, "fusion_lon": 0.0, "type": "electric_scooter", "lon": -77.02164033333334}, {"rental_uris": {"android": "https://dc.lft.to/lastmile_qr_scan", "ios": "https://dc.lft.to/lastmile_qr_scan"}, "fusion_lat": 0.0, "is_reserved": 0, "lat": 38.90872516666667, "name": "7747f6013aeb58f855b932f46169913b", "bike_id": "7747f6013aeb58f855b932f46169913b", "is_disabled": 0, "fusion_lon": 0.0, "type": "electric_bike", "lon": -77.0716625}, {"rental_uris": {"android": "https://dc.lft.to/lastmile_qr_scan", "ios": "https://dc.lft.to/lastmile_qr_scan"}, "fusion_lat": 0.0, "is_reserved": 0, "lat": 38.92975633333333, "name": "f4d4ccb4e4b9e68a61a4af8d732b9d8e", "bike_id": "f4d4ccb4e4b9e68a61a4af8d732b9d8e", "is_disabled": 0, "fusion_lon": 0.0, "type": "electric_scooter", "lon": -77.0279805}, {"rental_uris": {"android": "https://dc.lft.to/lastmile_qr_scan", "ios": "https://dc.lft.to/lastmile_qr_scan"}, "fusion_lat": 0.0, "is_reserved": 0, "lat": 38.88732616666667, "name": "9d6fac95d61e5c280ca094310c9c4f01", "bike_id": "9d6fac95d61e5c280ca094310c9c4f01", "is_disabled": 0, "fusion_lon": 0.0, "type": "electric_scooter", "lon": -77.03192883333334}, {"rental_uris": {"android": "https://dc.lft.to/lastmile_qr_scan", "ios": "https://dc.lft.to/lastmile_qr_scan"}, "fusion_lat": 0.0, "is_reserved": 0, "lat": 38.91750366666667, "name": "ac6790355a6af17f9286d05b5ba6a902", "bike_id": "ac6790355a6af17f9286d05b5ba6a902", "is_disabled": 0, "fusion_lon": 0.0, "type": "electric_scooter", "lon": -77.04156983333333}, {"rental_uris": {"android": "https://dc.lft.to/lastmile_qr_scan", "ios": "https://dc.lft.to/lastmile_qr_scan"}, "fusion_lat": 0.0, "is_reserved": 0, "lat": 38.9223365, "name": "d6b5c552814ad5d0a11c11094469bb76", "bike_id": "d6b5c552814ad5d0a11c11094469bb76", "is_disabled": 0, "fusion_lon": 0.0, "type": "electric_scooter", "lon": -77.02117}, {"rental_uris": {"android": "https://dc.lft.to/lastmile_qr_scan", "ios": "https://dc.lft.to/lastmile_qr_scan"}, "fusion_lat": 0.0, "is_reserved": 0, "lat": 38.945405666666666, "name": "72d13fdc55eaed0b2ce1105d98f4257e", "bike_id": "72d13fdc55eaed0b2ce1105d98f4257e", "is_disabled": 0, "fusion_lon": 0.0, "type": "electric_bike", "lon": -77.34459083333333}, {"rental_uris": {"android": "https://dc.lft.to/lastmile_qr_scan", "ios": "https://dc.lft.to/lastmile_qr_scan"}, "fusion_lat": 0.0, "is_reserved": 0, "lat": 38.905137333333336, "name": "6997b6a9d241df5c289a8e8de70eaaad", "bike_id": "6997b6a9d241df5c289a8e8de70eaaad", "is_disabled": 0, "fusion_lon": 0.0, "type": "electric_scooter", "lon": -77.04032616666667}, {"rental_uris": {"android": "https://dc.lft.to/lastmile_qr_scan", "ios": "https://dc.lft.to/lastmile_qr_scan"}, "fusion_lat": 0.0, "is_reserved": 0, "lat": 38.89355583333333, "name": "2749498901c4faa1108d5b74f43a64e1", "bike_id": "2749498901c4faa1108d5b74f43a64e1", "is_disabled": 0, "fusion_lon": 0.0, "type": "electric_scooter", "lon": -77.003415}, {"rental_uris": {"android": "https://dc.lft.to/lastmile_qr_scan", "ios": "https://dc.lft.to/lastmile_qr_scan"}, "fusion_lat": 0.0, "is_reserved": 0, "lat": 38.86513516666667, "name": "a57b202c603eb22a007ee633b35150c6", "bike_id": "a57b202c603eb22a007ee633b35150c6", "is_disabled": 0, "fusion_lon": 0.0, "type": "electric_scooter", "lon": -76.98067866666666}, {"rental_uris": {"android": "https://dc.lft.to/lastmile_qr_scan", "ios": "https://dc.lft.to/lastmile_qr_scan"}, "fusion_lat": 0.0, "is_reserved": 0, "lat": 38.886602, "name": "f608237b6bf5e7fb20fd35c03702b896", "bike_id": "f608237b6bf5e7fb20fd35c03702b896", "is_disabled": 0, "fusion_lon": 0.0, "type": "electric_scooter", "lon": -76.9367375}, {"rental_uris": {"android": "https://dc.lft.to/lastmile_qr_scan", "ios": "https://dc.lft.to/lastmile_qr_scan"}, "fusion_lat": 0.0, "is_reserved": 0, "lat": 39.084343833333335, "name": "d6ef114dbcdcebbc39eca00b03f7476c", "bike_id": "d6ef114dbcdcebbc39eca00b03f7476c", "is_disabled": 0, "fusion_lon": 0.0, "type": "electric_bike", "lon": -76.951463}, {"rental_uris": {"android": "https://dc.lft.to/lastmile_qr_scan", "ios": "https://dc.lft.to/lastmile_qr_scan"}, "fusion_lat": 0.0, "is_reserved": 0, "lat": 38.90987166666667, "name": "d6a0638824cd49a18ea126f7654d1a29", "bike_id": "d6a0638824cd49a18ea126f7654d1a29", "is_disabled": 0, "fusion_lon": 0.0, "type": "electric_scooter", "lon": -77.02403516666666}, {"rental_uris": {"android": "https://dc.lft.to/lastmile_qr_scan", "ios": "https://dc.lft.to/lastmile_qr_scan"}, "fusion_lat": 0.0, "is_reserved": 0, "lat": 38.92484416666667, "name": "d6b0f78bdf0429f144d48e3c8c51e220", "bike_id": "d6b0f78bdf0429f144d48e3c8c51e220", "is_disabled": 0, "fusion_lon": 0.0, "type": "electric_scooter", "lon": -77.02718583333333}, {"rental_uris": {"android": "https://dc.lft.to/lastmile_qr_scan", "ios": "https://dc.lft.to/lastmile_qr_scan"}, "fusion_lat": 0.0, "is_reserved": 0, "lat": 38.92687316666667, "name": "f9dd2e6557c79e003c86c16ebb7701af", "bike_id": "f9dd2e6557c79e003c86c16ebb7701af", "is_disabled": 0, "fusion_lon": 0.0, "type": "electric_scooter", "lon": -77.02964233333333}, {"rental_uris": {"android": "https://dc.lft.to/lastmile_qr_scan", "ios": "https://dc.lft.to/lastmile_qr_scan"}, "fusion_lat": 0.0, "is_reserved": 0, "lat": 38.904417, "name": "a57f00e2fb1dbf681fc343cb65c7784e", "bike_id": "a57f00e2fb1dbf681fc343cb65c7784e", "is_disabled": 0, "fusion_lon": 0.0, "type": "electric_scooter", "lon": -77.03867783333334}, {"rental_uris": {"android": "https://dc.lft.to/lastmile_qr_scan", "ios": "https://dc.lft.to/lastmile_qr_scan"}, "fusion_lat": 0.0, "is_reserved": 0, "lat": 38.920506, "name": "854eb404d27ffef50da7317e2291b1c0", "bike_id": "854eb404d27ffef50da7317e2291b1c0", "is_disabled": 0, "fusion_lon": 0.0, "type": "electric_scooter", "lon": -77.0347415}, {"rental_uris": {"android": "https://dc.lft.to/lastmile_qr_scan", "ios": "https://dc.lft.to/lastmile_qr_scan"}, "fusion_lat": 0.0, "is_reserved": 0, "lat": 38.8879595, "name": "d64467fbddd647be5c24053f3b4695fa", "bike_id": "d64467fbddd647be5c24053f3b4695fa", "is_disabled": 0, "fusion_lon": 0.0, "type": "electric_scooter", "lon": -76.97714383333333}, {"rental_uris": {"android": "https://dc.lft.to/lastmile_qr_scan", "ios": "https://dc.lft.to/lastmile_qr_scan"}, "fusion_lat": 0.0, "is_reserved": 0, "lat": 38.90481966666667, "name": "de222f4cee6ef0b5d611e57d73257ab1", "bike_id": "de222f4cee6ef0b5d611e57d73257ab1", "is_disabled": 0, "fusion_lon": 0.0, "type": "electric_scooter", "lon": -77.0420195}, {"rental_uris": {"android": "https://dc.lft.to/lastmile_qr_scan", "ios": "https://dc.lft.to/lastmile_qr_scan"}, "fusion_lat": 0.0, "is_reserved": 0, "lat": 38.919627166666665, "name": "5b2aa74766eb962f684dc3f79e59d68f", "bike_id": "5b2aa74766eb962f684dc3f79e59d68f", "is_disabled": 0, "fusion_lon": 0.0, "type": "electric_scooter", "lon": -77.02394966666667}, {"rental_uris": {"android": "https://dc.lft.to/lastmile_qr_scan", "ios": "https://dc.lft.to/lastmile_qr_scan"}, "fusion_lat": 0.0, "is_reserved": 0, "lat": 38.90614383333333, "name": "cb973ab307fc4d04fa53d3a5ad0f151d", "bike_id": "cb973ab307fc4d04fa53d3a5ad0f151d", "is_disabled": 0, "fusion_lon": 0.0, "type": "electric_scooter", "lon": -77.05041433333334}, {"rental_uris": {"android": "https://dc.lft.to/lastmile_qr_scan", "ios": "https://dc.lft.to/lastmile_qr_scan"}, "fusion_lat": 0.0, "is_reserved": 0, "lat": 38.872995833333334, "name": "a67004d12a1abf2c8181abe232d9a284", "bike_id": "a67004d12a1abf2c8181abe232d9a284", "is_disabled": 0, "fusion_lon": 0.0, "type": "electric_scooter", "lon": -77.01560583333334}, {"rental_uris": {"android": "https://dc.lft.to/lastmile_qr_scan", "ios": "https://dc.lft.to/lastmile_qr_scan"}, "fusion_lat": 0.0, "is_reserved": 0, "lat": 38.937405166666665, "name": "560f42d8a5acabf8b00c24e4245f6ece", "bike_id": "560f42d8a5acabf8b00c24e4245f6ece", "is_disabled": 0, "fusion_lon": 0.0, "type": "electric_scooter", "lon": -77.08502}, {"rental_uris": {"android": "https://dc.lft.to/lastmile_qr_scan", "ios": "https://dc.lft.to/lastmile_qr_scan"}, "fusion_lat": 0.0, "is_reserved": 0, "lat": 38.92424116666667, "name": "0bfb4b2c35fd8cf4d43d11d1bedb7e6c", "bike_id": "0bfb4b2c35fd8cf4d43d11d1bedb7e6c", "is_disabled": 0, "fusion_lon": 0.0, "type": "electric_scooter", "lon": -77.019505}, {"rental_uris": {"android": "https://dc.lft.to/lastmile_qr_scan", "ios": "https://dc.lft.to/lastmile_qr_scan"}, "fusion_lat": 0.0, "is_reserved": 0, "lat": 38.88286933333333, "name": "2529f02fd652b9d186aa5b03528b7673", "bike_id": "2529f02fd652b9d186aa5b03528b7673", "is_disabled": 0, "fusion_lon": 0.0, "type": "electric_bike", "lon": -77.111685}, {"rental_uris": {"android": "https://dc.lft.to/lastmile_qr_scan", "ios": "https://dc.lft.to/lastmile_qr_scan"}, "fusion_lat": 0.0, "is_reserved": 0, "lat": 38.90252233333333, "name": "adc542134b28d4e327bf0c521426caf9", "bike_id": "adc542134b28d4e327bf0c521426caf9", "is_disabled": 0, "fusion_lon": 0.0, "type": "electric_scooter", "lon": -77.03339616666666}, {"rental_uris": {"android": "https://dc.lft.to/lastmile_qr_scan", "ios": "https://dc.lft.to/lastmile_qr_scan"}, "fusion_lat": 0.0, "is_reserved": 0, "lat": 38.905912, "name": "a24a4968fe7182ecf4dd569c13a276ad", "bike_id": "a24a4968fe7182ecf4dd569c13a276ad", "is_disabled": 0, "fusion_lon": 0.0, "type": "electric_scooter", "lon": -77.01610416666666}, {"rental_uris": {"android": "https://dc.lft.to/lastmile_qr_scan", "ios": "https://dc.lft.to/lastmile_qr_scan"}, "fusion_lat": 0.0, "is_reserved": 0, "lat": 38.84625966666667, "name": "28c14201bee94540bc815cde2883b778", "bike_id": "28c14201bee94540bc815cde2883b778", "is_disabled": 0, "fusion_lon": 0.0, "type": "electric_scooter", "lon": -76.98122583333334}, {"rental_uris": {"android": "https://dc.lft.to/lastmile_qr_scan", "ios": "https://dc.lft.to/lastmile_qr_scan"}, "fusion_lat": 0.0, "is_reserved": 0, "lat": 38.83611633333334, "name": "5aa915818cbe3e861c24660b81542f90", "bike_id": "5aa915818cbe3e861c24660b81542f90", "is_disabled": 0, "fusion_lon": 0.0, "type": "electric_bike", "lon": -77.00384616666666}, {"rental_uris": {"android": "https://dc.lft.to/lastmile_qr_scan", "ios": "https://dc.lft.to/lastmile_qr_scan"}, "fusion_lat": 0.0, "is_reserved": 0, "lat": 38.9952045, "name": "9495b54f23e4dfb8b372c2cc79032609", "bike_id": "9495b54f23e4dfb8b372c2cc79032609", "is_disabled": 0, "fusion_lon": 0.0, "type": "electric_bike", "lon": -76.99951683333333}, {"rental_uris": {"android": "https://dc.lft.to/lastmile_qr_scan", "ios": "https://dc.lft.to/lastmile_qr_scan"}, "fusion_lat": 0.0, "is_reserved": 0, "lat": 38.916374, "name": "473480474b521a2093ee876e9804e088", "bike_id": "473480474b521a2093ee876e9804e088", "is_disabled": 0, "fusion_lon": 0.0, "type": "electric_bike", "lon": -77.04264816666667}, {"rental_uris": {"android": "https://dc.lft.to/lastmile_qr_scan", "ios": "https://dc.lft.to/lastmile_qr_scan"}, "fusion_lat": 0.0, "is_reserved": 0, "lat": 38.933156, "name": "e9b61fd6cff59bc64159afc1a113f996", "bike_id": "e9b61fd6cff59bc64159afc1a113f996", "is_disabled": 0, "fusion_lon": 0.0, "type": "electric_scooter", "lon": -77.02909833333334}, {"rental_uris": {"android": "https://dc.lft.to/lastmile_qr_scan", "ios": "https://dc.lft.to/lastmile_qr_scan"}, "fusion_lat": 0.0, "is_reserved": 0, "lat": 38.92331566666667, "name": "f8c9745b72b48c6806bc04ef69cbc1cb", "bike_id": "f8c9745b72b48c6806bc04ef69cbc1cb", "is_disabled": 0, "fusion_lon": 0.0, "type": "electric_scooter", "lon": -77.000508}, {"rental_uris": {"android": "https://dc.lft.to/lastmile_qr_scan", "ios": "https://dc.lft.to/lastmile_qr_scan"}, "fusion_lat": 0.0, "is_reserved": 0, "lat": 38.8986795, "name": "5cd500b2023057e5a638fd3356bda8f6", "bike_id": "5cd500b2023057e5a638fd3356bda8f6", "is_disabled": 0, "fusion_lon": 0.0, "type": "electric_scooter", "lon": -77.050028}, {"rental_uris": {"android": "https://dc.lft.to/lastmile_qr_scan", "ios": "https://dc.lft.to/lastmile_qr_scan"}, "fusion_lat": 0.0, "is_reserved": 0, "lat": 38.90838866666667, "name": "a39c7ad933b3ec1c9315f5678e5f0d5d", "bike_id": "a39c7ad933b3ec1c9315f5678e5f0d5d", "is_disabled": 0, "fusion_lon": 0.0, "type": "electric_scooter", "lon": -76.99706266666666}, {"rental_uris": {"android": "https://dc.lft.to/lastmile_qr_scan", "ios": "https://dc.lft.to/lastmile_qr_scan"}, "fusion_lat": 0.0, "is_reserved": 0, "lat": 38.9181545, "name": "ad380cb695d2317a4f81c64d514ebdda", "bike_id": "ad380cb695d2317a4f81c64d514ebdda", "is_disabled": 0, "fusion_lon": 0.0, "type": "electric_scooter", "lon": -77.03185066666667}, {"rental_uris": {"android": "https://dc.lft.to/lastmile_qr_scan", "ios": "https://dc.lft.to/lastmile_qr_scan"}, "fusion_lat": 0.0, "is_reserved": 0, "lat": 38.8961275, "name": "2ac58b7c8ef0792c3486000188ad071c", "bike_id": "2ac58b7c8ef0792c3486000188ad071c", "is_disabled": 0, "fusion_lon": 0.0, "type": "electric_scooter", "lon": -77.04411166666667}, {"rental_uris": {"android": "https://dc.lft.to/lastmile_qr_scan", "ios": "https://dc.lft.to/lastmile_qr_scan"}, "fusion_lat": 0.0, "is_reserved": 0, "lat": 38.92213433333333, "name": "9f503746b1508bc1a341f4b5814f42c6", "bike_id": "9f503746b1508bc1a341f4b5814f42c6", "is_disabled": 0, "fusion_lon": 0.0, "type": "electric_scooter", "lon": -77.02661916666666}, {"rental_uris": {"android": "https://dc.lft.to/lastmile_qr_scan", "ios": "https://dc.lft.to/lastmile_qr_scan"}, "fusion_lat": 0.0, "is_reserved": 0, "lat": 38.917987333333336, "name": "979ee39d4371fbe8ccfacfc715d2eb1f", "bike_id": "979ee39d4371fbe8ccfacfc715d2eb1f", "is_disabled": 0, "fusion_lon": 0.0, "type": "electric_scooter", "lon": -77.03205633333333}, {"rental_uris": {"android": "https://dc.lft.to/lastmile_qr_scan", "ios": "https://dc.lft.to/lastmile_qr_scan"}, "fusion_lat": 0.0, "is_reserved": 0, "lat": 38.915517333333334, "name": "7f47fe38e8ad5054d7a98de1a7c59e45", "bike_id": "7f47fe38e8ad5054d7a98de1a7c59e45", "is_disabled": 0, "fusion_lon": 0.0, "type": "electric_scooter", "lon": -77.02206283333334}, {"rental_uris": {"android": "https://dc.lft.to/lastmile_qr_scan", "ios": "https://dc.lft.to/lastmile_qr_scan"}, "fusion_lat": 0.0, "is_reserved": 0, "lat": 38.924361833333336, "name": "766a653861cd30dd5883086bb0d90b16", "bike_id": "766a653861cd30dd5883086bb0d90b16", "is_disabled": 0, "fusion_lon": 0.0, "type": "electric_scooter", "lon": -77.042476}, {"rental_uris": {"android": "https://dc.lft.to/lastmile_qr_scan", "ios": "https://dc.lft.to/lastmile_qr_scan"}, "fusion_lat": 0.0, "is_reserved": 0, "lat": 38.91815, "name": "9b94437f2f153de9497d7a0fedf464e3", "bike_id": "9b94437f2f153de9497d7a0fedf464e3", "is_disabled": 0, "fusion_lon": 0.0, "type": "electric_scooter", "lon": -77.030261}, {"rental_uris": {"android": "https://dc.lft.to/lastmile_qr_scan", "ios": "https://dc.lft.to/lastmile_qr_scan"}, "fusion_lat": 0.0, "is_reserved": 0, "lat": 38.89222733333333, "name": "9c8970061ab51e349ccdefd2a2b8fb3b", "bike_id": "9c8970061ab51e349ccdefd2a2b8fb3b", "is_disabled": 0, "fusion_lon": 0.0, "type": "electric_scooter", "lon": -77.02231516666667}, {"rental_uris": {"android": "https://dc.lft.to/lastmile_qr_scan", "ios": "https://dc.lft.to/lastmile_qr_scan"}, "fusion_lat": 0.0, "is_reserved": 0, "lat": 38.92285366666667, "name": "a1d06fcfee17b100114d56daf8568e4b", "bike_id": "a1d06fcfee17b100114d56daf8568e4b", "is_disabled": 0, "fusion_lon": 0.0, "type": "electric_scooter", "lon": -77.036598}, {"rental_uris": {"android": "https://dc.lft.to/lastmile_qr_scan", "ios": "https://dc.lft.to/lastmile_qr_scan"}, "fusion_lat": 0.0, "is_reserved": 0, "lat": 38.88509666666667, "name": "4cb65e2a750f706ba81dd486828784ea", "bike_id": "4cb65e2a750f706ba81dd486828784ea", "is_disabled": 0, "fusion_lon": 0.0, "type": "electric_scooter", "lon": -77.0157965}, {"rental_uris": {"android": "https://dc.lft.to/lastmile_qr_scan", "ios": "https://dc.lft.to/lastmile_qr_scan"}, "fusion_lat": 0.0, "is_reserved": 0, "lat": 38.9097345, "name": "ab276a6df036d3ee4efbaef53f20348f", "bike_id": "ab276a6df036d3ee4efbaef53f20348f", "is_disabled": 0, "fusion_lon": 0.0, "type": "electric_scooter", "lon": -77.02585216666667}, {"rental_uris": {"android": "https://dc.lft.to/lastmile_qr_scan", "ios": "https://dc.lft.to/lastmile_qr_scan"}, "fusion_lat": 0.0, "is_reserved": 0, "lat": 38.9068195, "name": "79b0ba1e4e048b1b3f92181ea3a8d9a8", "bike_id": "79b0ba1e4e048b1b3f92181ea3a8d9a8", "is_disabled": 0, "fusion_lon": 0.0, "type": "electric_scooter", "lon": -77.0271365}, {"rental_uris": {"android": "https://dc.lft.to/lastmile_qr_scan", "ios": "https://dc.lft.to/lastmile_qr_scan"}, "fusion_lat": 0.0, "is_reserved": 0, "lat": 38.88725783333334, "name": "04b6b4611cf0cf756717083ff724abd6", "bike_id": "04b6b4611cf0cf756717083ff724abd6", "is_disabled": 0, "fusion_lon": 0.0, "type": "electric_scooter", "lon": -76.98358666666667}, {"rental_uris": {"android": "https://dc.lft.to/lastmile_qr_scan", "ios": "https://dc.lft.to/lastmile_qr_scan"}, "fusion_lat": 0.0, "is_reserved": 0, "lat": 38.92948766666667, "name": "61ad90b0692739054428a116eb48e571", "bike_id": "61ad90b0692739054428a116eb48e571", "is_disabled": 0, "fusion_lon": 0.0, "type": "electric_scooter", "lon": -77.00409033333334}, {"rental_uris": {"android": "https://dc.lft.to/lastmile_qr_scan", "ios": "https://dc.lft.to/lastmile_qr_scan"}, "fusion_lat": 0.0, "is_reserved": 0, "lat": 38.914937333333334, "name": "cec2cd0e541e4ecd24f13f8cf8080e2c", "bike_id": "cec2cd0e541e4ecd24f13f8cf8080e2c", "is_disabled": 0, "fusion_lon": 0.0, "type": "electric_scooter", "lon": -77.018571}, {"rental_uris": {"android": "https://dc.lft.to/lastmile_qr_scan", "ios": "https://dc.lft.to/lastmile_qr_scan"}, "fusion_lat": 0.0, "is_reserved": 0, "lat": 38.90067366666667, "name": "fb6562078b1260e21a5fe0c5d0695e2e", "bike_id": "fb6562078b1260e21a5fe0c5d0695e2e", "is_disabled": 0, "fusion_lon": 0.0, "type": "electric_scooter", "lon": -76.92747383333334}, {"rental_uris": {"android": "https://dc.lft.to/lastmile_qr_scan", "ios": "https://dc.lft.to/lastmile_qr_scan"}, "fusion_lat": 0.0, "is_reserved": 0, "lat": 38.91800883333333, "name": "7316de6ec557560327e0f32b1c7597eb", "bike_id": "7316de6ec557560327e0f32b1c7597eb", "is_disabled": 0, "fusion_lon": 0.0, "type": "electric_scooter", "lon": -77.03195233333334}, {"rental_uris": {"android": "https://dc.lft.to/lastmile_qr_scan", "ios": "https://dc.lft.to/lastmile_qr_scan"}, "fusion_lat": 0.0, "is_reserved": 0, "lat": 38.91992666666667, "name": "503e7818c139156d4bd7cfddcb62ee8d", "bike_id": "503e7818c139156d4bd7cfddcb62ee8d", "is_disabled": 0, "fusion_lon": 0.0, "type": "electric_scooter", "lon": -77.0331525}, {"rental_uris": {"android": "https://dc.lft.to/lastmile_qr_scan", "ios": "https://dc.lft.to/lastmile_qr_scan"}, "fusion_lat": 0.0, "is_reserved": 0, "lat": 38.8992885, "name": "611ced6b57af75231b9595b39d199f90", "bike_id": "611ced6b57af75231b9595b39d199f90", "is_disabled": 0, "fusion_lon": 0.0, "type": "electric_scooter", "lon": -77.03992466666666}, {"rental_uris": {"android": "https://dc.lft.to/lastmile_qr_scan", "ios": "https://dc.lft.to/lastmile_qr_scan"}, "fusion_lat": 0.0, "is_reserved": 0, "lat": 38.95096216666666, "name": "c165f5e811186684840d81ef03cea8d2", "bike_id": "c165f5e811186684840d81ef03cea8d2", "is_disabled": 0, "fusion_lon": 0.0, "type": "electric_scooter", "lon": -77.02961116666667}, {"rental_uris": {"android": "https://dc.lft.to/lastmile_qr_scan", "ios": "https://dc.lft.to/lastmile_qr_scan"}, "fusion_lat": 0.0, "is_reserved": 0, "lat": 38.88366883333333, "name": "89f177732f6ade0c4f1d473ecbd934ca", "bike_id": "89f177732f6ade0c4f1d473ecbd934ca", "is_disabled": 0, "fusion_lon": 0.0, "type": "electric_scooter", "lon": -76.9882895}, {"rental_uris": {"android": "https://dc.lft.to/lastmile_qr_scan", "ios": "https://dc.lft.to/lastmile_qr_scan"}, "fusion_lat": 0.0, "is_reserved": 0, "lat": 38.928702333333334, "name": "0b7b534b609cdc1c9a6f0ca373b22165", "bike_id": "0b7b534b609cdc1c9a6f0ca373b22165", "is_disabled": 0, "fusion_lon": 0.0, "type": "electric_scooter", "lon": -77.02178916666666}, {"rental_uris": {"android": "https://dc.lft.to/lastmile_qr_scan", "ios": "https://dc.lft.to/lastmile_qr_scan"}, "fusion_lat": 0.0, "is_reserved": 0, "lat": 38.903687166666664, "name": "d81a5f9650ba6ecc3a4c840c1efa441b", "bike_id": "d81a5f9650ba6ecc3a4c840c1efa441b", "is_disabled": 0, "fusion_lon": 0.0, "type": "electric_scooter", "lon": -76.98486383333334}, {"rental_uris": {"android": "https://dc.lft.to/lastmile_qr_scan", "ios": "https://dc.lft.to/lastmile_qr_scan"}, "fusion_lat": 0.0, "is_reserved": 0, "lat": 38.937728666666665, "name": "5992a43d585f64f19f14b984a33f4464", "bike_id": "5992a43d585f64f19f14b984a33f4464", "is_disabled": 0, "fusion_lon": 0.0, "type": "electric_scooter", "lon": -77.024701}, {"rental_uris": {"android": "https://dc.lft.to/lastmile_qr_scan", "ios": "https://dc.lft.to/lastmile_qr_scan"}, "fusion_lat": 0.0, "is_reserved": 0, "lat": 38.893557, "name": "694bfa2c02aba7886c2ab8696cecac47", "bike_id": "694bfa2c02aba7886c2ab8696cecac47", "is_disabled": 0, "fusion_lon": 0.0, "type": "electric_scooter", "lon": -77.0033925}, {"rental_uris": {"android": "https://dc.lft.to/lastmile_qr_scan", "ios": "https://dc.lft.to/lastmile_qr_scan"}, "fusion_lat": 0.0, "is_reserved": 0, "lat": 38.91221133333333, "name": "aa0a46fcf07f6f5b628652c663f6e7d1", "bike_id": "aa0a46fcf07f6f5b628652c663f6e7d1", "is_disabled": 0, "fusion_lon": 0.0, "type": "electric_scooter", "lon": -77.06409033333334}, {"rental_uris": {"android": "https://dc.lft.to/lastmile_qr_scan", "ios": "https://dc.lft.to/lastmile_qr_scan"}, "fusion_lat": 0.0, "is_reserved": 0, "lat": 38.93378883333333, "name": "be21aaf3ec438f51e476380f535b8e05", "bike_id": "be21aaf3ec438f51e476380f535b8e05", "is_disabled": 0, "fusion_lon": 0.0, "type": "electric_scooter", "lon": -77.0237415}, {"rental_uris": {"android": "https://dc.lft.to/lastmile_qr_scan", "ios": "https://dc.lft.to/lastmile_qr_scan"}, "fusion_lat": 0.0, "is_reserved": 0, "lat": 38.905682166666665, "name": "b906dc898272b827db5d6779b173dd15", "bike_id": "b906dc898272b827db5d6779b173dd15", "is_disabled": 0, "fusion_lon": 0.0, "type": "electric_scooter", "lon": -77.0078675}, {"rental_uris": {"android": "https://dc.lft.to/lastmile_qr_scan", "ios": "https://dc.lft.to/lastmile_qr_scan"}, "fusion_lat": 0.0, "is_reserved": 0, "lat": 38.894694333333334, "name": "ab7685d3c5f8366bf68fc29677e117f5", "bike_id": "ab7685d3c5f8366bf68fc29677e117f5", "is_disabled": 0, "fusion_lon": 0.0, "type": "electric_scooter", "lon": -76.99711}, {"rental_uris": {"android": "https://dc.lft.to/lastmile_qr_scan", "ios": "https://dc.lft.to/lastmile_qr_scan"}, "fusion_lat": 0.0, "is_reserved": 0, "lat": 38.92156816666667, "name": "a58f1068b5620e1e9e647017ee6dd4f5", "bike_id": "a58f1068b5620e1e9e647017ee6dd4f5", "is_disabled": 0, "fusion_lon": 0.0, "type": "electric_scooter", "lon": -77.02428566666667}, {"rental_uris": {"android": "https://dc.lft.to/lastmile_qr_scan", "ios": "https://dc.lft.to/lastmile_qr_scan"}, "fusion_lat": 0.0, "is_reserved": 0, "lat": 38.930138, "name": "7071a9ac11599716f095c79c4b434aa4", "bike_id": "7071a9ac11599716f095c79c4b434aa4", "is_disabled": 0, "fusion_lon": 0.0, "type": "electric_scooter", "lon": -77.0325215}, {"rental_uris": {"android": "https://dc.lft.to/lastmile_qr_scan", "ios": "https://dc.lft.to/lastmile_qr_scan"}, "fusion_lat": 0.0, "is_reserved": 0, "lat": 38.959140833333336, "name": "557c5ef0d5236735a5fd8b916fcdb526", "bike_id": "557c5ef0d5236735a5fd8b916fcdb526", "is_disabled": 0, "fusion_lon": 0.0, "type": "electric_scooter", "lon": -77.000212}, {"rental_uris": {"android": "https://dc.lft.to/lastmile_qr_scan", "ios": "https://dc.lft.to/lastmile_qr_scan"}, "fusion_lat": 0.0, "is_reserved": 0, "lat": 38.894125, "name": "ff540b60b792391f4952568009b9dfcf", "bike_id": "ff540b60b792391f4952568009b9dfcf", "is_disabled": 0, "fusion_lon": 0.0, "type": "electric_scooter", "lon": -77.02151983333333}, {"rental_uris": {"android": "https://dc.lft.to/lastmile_qr_scan", "ios": "https://dc.lft.to/lastmile_qr_scan"}, "fusion_lat": 0.0, "is_reserved": 0, "lat": 38.901929333333335, "name": "ecf4955ed77c653d6f3c9a976777ecae", "bike_id": "ecf4955ed77c653d6f3c9a976777ecae", "is_disabled": 0, "fusion_lon": 0.0, "type": "electric_scooter", "lon": -76.97873333333334}, {"rental_uris": {"android": "https://dc.lft.to/lastmile_qr_scan", "ios": "https://dc.lft.to/lastmile_qr_scan"}, "fusion_lat": 0.0, "is_reserved": 0, "lat": 38.879989, "name": "d8624152cbc17e97575e0fb32e641471", "bike_id": "d8624152cbc17e97575e0fb32e641471", "is_disabled": 0, "fusion_lon": 0.0, "type": "electric_scooter", "lon": -76.98402483333334}, {"rental_uris": {"android": "https://dc.lft.to/lastmile_qr_scan", "ios": "https://dc.lft.to/lastmile_qr_scan"}, "fusion_lat": 0.0, "is_reserved": 0, "lat": 38.942651166666664, "name": "f5943078c223c1590c1ae012311bfd4a", "bike_id": "f5943078c223c1590c1ae012311bfd4a", "is_disabled": 0, "fusion_lon": 0.0, "type": "electric_bike", "lon": -76.99070833333333}, {"rental_uris": {"android": "https://dc.lft.to/lastmile_qr_scan", "ios": "https://dc.lft.to/lastmile_qr_scan"}, "fusion_lat": 0.0, "is_reserved": 0, "lat": 38.90180983333333, "name": "485697c8dd8803f1502138f9bc9b89b6", "bike_id": "485697c8dd8803f1502138f9bc9b89b6", "is_disabled": 0, "fusion_lon": 0.0, "type": "electric_scooter", "lon": -77.0247305}, {"rental_uris": {"android": "https://dc.lft.to/lastmile_qr_scan", "ios": "https://dc.lft.to/lastmile_qr_scan"}, "fusion_lat": 0.0, "is_reserved": 0, "lat": 38.90613916666667, "name": "08a959a1196ce702088fc051661886ec", "bike_id": "08a959a1196ce702088fc051661886ec", "is_disabled": 0, "fusion_lon": 0.0, "type": "electric_bike", "lon": -77.07627}, {"rental_uris": {"android": "https://dc.lft.to/lastmile_qr_scan", "ios": "https://dc.lft.to/lastmile_qr_scan"}, "fusion_lat": 0.0, "is_reserved": 0, "lat": 38.89620383333333, "name": "02ab62ac2bd6373b5c5c32a83217f1a7", "bike_id": "02ab62ac2bd6373b5c5c32a83217f1a7", "is_disabled": 0, "fusion_lon": 0.0, "type": "electric_scooter", "lon": -77.04620166666666}, {"rental_uris": {"android": "https://dc.lft.to/lastmile_qr_scan", "ios": "https://dc.lft.to/lastmile_qr_scan"}, "fusion_lat": 0.0, "is_reserved": 0, "lat": 38.866275333333334, "name": "9fae11f98b9217bc00e796e178b3f750", "bike_id": "9fae11f98b9217bc00e796e178b3f750", "is_disabled": 0, "fusion_lon": 0.0, "type": "electric_bike", "lon": -76.94575016666667}, {"rental_uris": {"android": "https://dc.lft.to/lastmile_qr_scan", "ios": "https://dc.lft.to/lastmile_qr_scan"}, "fusion_lat": 0.0, "is_reserved": 0, "lat": 38.916964166666666, "name": "206108b30d5b000b3327ee661451107d", "bike_id": "206108b30d5b000b3327ee661451107d", "is_disabled": 0, "fusion_lon": 0.0, "type": "electric_scooter", "lon": -77.03218683333333}, {"rental_uris": {"android": "https://dc.lft.to/lastmile_qr_scan", "ios": "https://dc.lft.to/lastmile_qr_scan"}, "fusion_lat": 0.0, "is_reserved": 0, "lat": 38.917008, "name": "895af93793066e610744cece649c3fb3", "bike_id": "895af93793066e610744cece649c3fb3", "is_disabled": 0, "fusion_lon": 0.0, "type": "electric_scooter", "lon": -77.02280616666667}, {"rental_uris": {"android": "https://dc.lft.to/lastmile_qr_scan", "ios": "https://dc.lft.to/lastmile_qr_scan"}, "fusion_lat": 0.0, "is_reserved": 0, "lat": 38.900513333333336, "name": "9c137f10c1fde12f733521a8fa42e2db", "bike_id": "9c137f10c1fde12f733521a8fa42e2db", "is_disabled": 0, "fusion_lon": 0.0, "type": "electric_scooter", "lon": -76.98820466666666}, {"rental_uris": {"android": "https://dc.lft.to/lastmile_qr_scan", "ios": "https://dc.lft.to/lastmile_qr_scan"}, "fusion_lat": 0.0, "is_reserved": 0, "lat": 38.887395833333336, "name": "ff86b5c66232e511df528e9d2b85dc92", "bike_id": "ff86b5c66232e511df528e9d2b85dc92", "is_disabled": 0, "fusion_lon": 0.0, "type": "electric_scooter", "lon": -77.00349466666667}, {"rental_uris": {"android": "https://dc.lft.to/lastmile_qr_scan", "ios": "https://dc.lft.to/lastmile_qr_scan"}, "fusion_lat": 0.0, "is_reserved": 0, "lat": 38.8766305, "name": "1260140ab187af0ea137d5bb518755cb", "bike_id": "1260140ab187af0ea137d5bb518755cb", "is_disabled": 0, "fusion_lon": 0.0, "type": "electric_scooter", "lon": -76.993255}, {"rental_uris": {"android": "https://dc.lft.to/lastmile_qr_scan", "ios": "https://dc.lft.to/lastmile_qr_scan"}, "fusion_lat": 0.0, "is_reserved": 0, "lat": 38.9217665, "name": "e09fc6979a0a24ce87eef948b80b421d", "bike_id": "e09fc6979a0a24ce87eef948b80b421d", "is_disabled": 0, "fusion_lon": 0.0, "type": "electric_scooter", "lon": -77.02671616666667}, {"rental_uris": {"android": "https://dc.lft.to/lastmile_qr_scan", "ios": "https://dc.lft.to/lastmile_qr_scan"}, "fusion_lat": 0.0, "is_reserved": 0, "lat": 38.95752783333333, "name": "3076385744a5540caebd1cfd455075c6", "bike_id": "3076385744a5540caebd1cfd455075c6", "is_disabled": 0, "fusion_lon": 0.0, "type": "electric_scooter", "lon": -77.00913883333334}, {"rental_uris": {"android": "https://dc.lft.to/lastmile_qr_scan", "ios": "https://dc.lft.to/lastmile_qr_scan"}, "fusion_lat": 0.0, "is_reserved": 0, "lat": 38.911715666666666, "name": "3de4daf6a41d092155f5bcbea1d6f566", "bike_id": "3de4daf6a41d092155f5bcbea1d6f566", "is_disabled": 0, "fusion_lon": 0.0, "type": "electric_scooter", "lon": -77.06641116666667}, {"rental_uris": {"android": "https://dc.lft.to/lastmile_qr_scan", "ios": "https://dc.lft.to/lastmile_qr_scan"}, "fusion_lat": 0.0, "is_reserved": 0, "lat": 38.9822415, "name": "6958b07d76adc4445484692bfe9d5657", "bike_id": "6958b07d76adc4445484692bfe9d5657", "is_disabled": 0, "fusion_lon": 0.0, "type": "electric_scooter", "lon": -77.02638716666667}, {"rental_uris": {"android": "https://dc.lft.to/lastmile_qr_scan", "ios": "https://dc.lft.to/lastmile_qr_scan"}, "fusion_lat": 0.0, "is_reserved": 0, "lat": 38.902446166666664, "name": "f3f195e52bb2b30ce4da02f559d7dc53", "bike_id": "f3f195e52bb2b30ce4da02f559d7dc53", "is_disabled": 0, "fusion_lon": 0.0, "type": "electric_scooter", "lon": -77.00205733333334}, {"rental_uris": {"android": "https://dc.lft.to/lastmile_qr_scan", "ios": "https://dc.lft.to/lastmile_qr_scan"}, "fusion_lat": 0.0, "is_reserved": 0, "lat": 38.885180166666665, "name": "a20dd9f3c864776c0891fe24df21e660", "bike_id": "a20dd9f3c864776c0891fe24df21e660", "is_disabled": 0, "fusion_lon": 0.0, "type": "electric_scooter", "lon": -76.99677}, {"rental_uris": {"android": "https://dc.lft.to/lastmile_qr_scan", "ios": "https://dc.lft.to/lastmile_qr_scan"}, "fusion_lat": 0.0, "is_reserved": 0, "lat": 38.944135833333334, "name": "e611a7934a8ca8f07573037bfa22a6f9", "bike_id": "e611a7934a8ca8f07573037bfa22a6f9", "is_disabled": 0, "fusion_lon": 0.0, "type": "electric_scooter", "lon": -77.063245}, {"rental_uris": {"android": "https://dc.lft.to/lastmile_qr_scan", "ios": "https://dc.lft.to/lastmile_qr_scan"}, "fusion_lat": 0.0, "is_reserved": 0, "lat": 38.916906166666664, "name": "63cf067ab0f81839a49d6ed9c01b4b95", "bike_id": "63cf067ab0f81839a49d6ed9c01b4b95", "is_disabled": 0, "fusion_lon": 0.0, "type": "electric_scooter", "lon": -77.03184816666666}, {"rental_uris": {"android": "https://dc.lft.to/lastmile_qr_scan", "ios": "https://dc.lft.to/lastmile_qr_scan"}, "fusion_lat": 0.0, "is_reserved": 0, "lat": 38.892340833333336, "name": "2da57b8c1a7769dea8044e018f4efa18", "bike_id": "2da57b8c1a7769dea8044e018f4efa18", "is_disabled": 0, "fusion_lon": 0.0, "type": "electric_scooter", "lon": -77.0238205}, {"rental_uris": {"android": "https://dc.lft.to/lastmile_qr_scan", "ios": "https://dc.lft.to/lastmile_qr_scan"}, "fusion_lat": 0.0, "is_reserved": 0, "lat": 38.925094333333334, "name": "16644fb5b2bcf6eec4565fccbb2fec99", "bike_id": "16644fb5b2bcf6eec4565fccbb2fec99", "is_disabled": 0, "fusion_lon": 0.0, "type": "electric_scooter", "lon": -77.02167816666666}, {"rental_uris": {"android": "https://dc.lft.to/lastmile_qr_scan", "ios": "https://dc.lft.to/lastmile_qr_scan"}, "fusion_lat": 0.0, "is_reserved": 0, "lat": 38.90732466666667, "name": "bb10dcf72deebbc0fb83e4443478716c", "bike_id": "bb10dcf72deebbc0fb83e4443478716c", "is_disabled": 0, "fusion_lon": 0.0, "type": "electric_scooter", "lon": -77.04542116666667}, {"rental_uris": {"android": "https://dc.lft.to/lastmile_qr_scan", "ios": "https://dc.lft.to/lastmile_qr_scan"}, "fusion_lat": 0.0, "is_reserved": 0, "lat": 38.92284883333333, "name": "3d909bf20d383f6ad5579a296bdcec71", "bike_id": "3d909bf20d383f6ad5579a296bdcec71", "is_disabled": 0, "fusion_lon": 0.0, "type": "electric_scooter", "lon": -77.02971233333334}, {"rental_uris": {"android": "https://dc.lft.to/lastmile_qr_scan", "ios": "https://dc.lft.to/lastmile_qr_scan"}, "fusion_lat": 0.0, "is_reserved": 0, "lat": 38.90731683333333, "name": "f0ec43a0332a8e9b00704163c479cf30", "bike_id": "f0ec43a0332a8e9b00704163c479cf30", "is_disabled": 0, "fusion_lon": 0.0, "type": "electric_scooter", "lon": -77.00806}, {"rental_uris": {"android": "https://dc.lft.to/lastmile_qr_scan", "ios": "https://dc.lft.to/lastmile_qr_scan"}, "fusion_lat": 0.0, "is_reserved": 0, "lat": 38.91806283333333, "name": "ba77d4e4fad768e24c367aa027b733db", "bike_id": "ba77d4e4fad768e24c367aa027b733db", "is_disabled": 0, "fusion_lon": 0.0, "type": "electric_scooter", "lon": -77.04021483333334}, {"rental_uris": {"android": "https://dc.lft.to/lastmile_qr_scan", "ios": "https://dc.lft.to/lastmile_qr_scan"}, "fusion_lat": 0.0, "is_reserved": 0, "lat": 38.905829833333335, "name": "4cf1b8c851b4e44b0512b9e70d3148e0", "bike_id": "4cf1b8c851b4e44b0512b9e70d3148e0", "is_disabled": 0, "fusion_lon": 0.0, "type": "electric_scooter", "lon": -77.00554566666666}, {"rental_uris": {"android": "https://dc.lft.to/lastmile_qr_scan", "ios": "https://dc.lft.to/lastmile_qr_scan"}, "fusion_lat": 0.0, "is_reserved": 0, "lat": 38.92074066666667, "name": "9690b6246cdfece630b2670148e8fc82", "bike_id": "9690b6246cdfece630b2670148e8fc82", "is_disabled": 0, "fusion_lon": 0.0, "type": "electric_scooter", "lon": -77.02321766666667}, {"rental_uris": {"android": "https://dc.lft.to/lastmile_qr_scan", "ios": "https://dc.lft.to/lastmile_qr_scan"}, "fusion_lat": 0.0, "is_reserved": 0, "lat": 38.9353335, "name": "961981bc9477eaaa82937ede4826771b", "bike_id": "961981bc9477eaaa82937ede4826771b", "is_disabled": 0, "fusion_lon": 0.0, "type": "electric_scooter", "lon": -77.0284465}, {"rental_uris": {"android": "https://dc.lft.to/lastmile_qr_scan", "ios": "https://dc.lft.to/lastmile_qr_scan"}, "fusion_lat": 0.0, "is_reserved": 0, "lat": 38.911081, "name": "6c55fc11a6aa8eea8a08a80c4ddfec9a", "bike_id": "6c55fc11a6aa8eea8a08a80c4ddfec9a", "is_disabled": 0, "fusion_lon": 0.0, "type": "electric_scooter", "lon": -77.01721533333334}, {"rental_uris": {"android": "https://dc.lft.to/lastmile_qr_scan", "ios": "https://dc.lft.to/lastmile_qr_scan"}, "fusion_lat": 0.0, "is_reserved": 0, "lat": 39.035615166666666, "name": "b1ffb132e208690d98406de7ab63a446", "bike_id": "b1ffb132e208690d98406de7ab63a446", "is_disabled": 0, "fusion_lon": 0.0, "type": "electric_bike", "lon": -77.03916016666666}, {"rental_uris": {"android": "https://dc.lft.to/lastmile_qr_scan", "ios": "https://dc.lft.to/lastmile_qr_scan"}, "fusion_lat": 0.0, "is_reserved": 0, "lat": 38.90059133333333, "name": "4fd7c68686ab659e306af63ee390657e", "bike_id": "4fd7c68686ab659e306af63ee390657e", "is_disabled": 0, "fusion_lon": 0.0, "type": "electric_scooter", "lon": -77.03365216666667}, {"rental_uris": {"android": "https://dc.lft.to/lastmile_qr_scan", "ios": "https://dc.lft.to/lastmile_qr_scan"}, "fusion_lat": 0.0, "is_reserved": 0, "lat": 38.885276166666664, "name": "e7224e3b0e7ecffe6d53c29749ce262b", "bike_id": "e7224e3b0e7ecffe6d53c29749ce262b", "is_disabled": 0, "fusion_lon": 0.0, "type": "electric_scooter", "lon": -76.98537783333333}, {"rental_uris": {"android": "https://dc.lft.to/lastmile_qr_scan", "ios": "https://dc.lft.to/lastmile_qr_scan"}, "fusion_lat": 0.0, "is_reserved": 0, "lat": 38.96049983333333, "name": "a71d20852710491753bfab8b619e1d36", "bike_id": "a71d20852710491753bfab8b619e1d36", "is_disabled": 0, "fusion_lon": 0.0, "type": "electric_bike", "lon": -77.00303816666667}, {"rental_uris": {"android": "https://dc.lft.to/lastmile_qr_scan", "ios": "https://dc.lft.to/lastmile_qr_scan"}, "fusion_lat": 0.0, "is_reserved": 0, "lat": 38.87582483333333, "name": "f0df4d407dc941eddfb9834afe3c8a15", "bike_id": "f0df4d407dc941eddfb9834afe3c8a15", "is_disabled": 0, "fusion_lon": 0.0, "type": "electric_scooter", "lon": -77.005863}, {"rental_uris": {"android": "https://dc.lft.to/lastmile_qr_scan", "ios": "https://dc.lft.to/lastmile_qr_scan"}, "fusion_lat": 0.0, "is_reserved": 0, "lat": 38.96234366666667, "name": "8832d69fe4a69c17f10fddf18bf3d803", "bike_id": "8832d69fe4a69c17f10fddf18bf3d803", "is_disabled": 0, "fusion_lon": 0.0, "type": "electric_bike", "lon": -77.02628116666666}, {"rental_uris": {"android": "https://dc.lft.to/lastmile_qr_scan", "ios": "https://dc.lft.to/lastmile_qr_scan"}, "fusion_lat": 0.0, "is_reserved": 0, "lat": 38.89324966666667, "name": "4f6c2797e2763277c69f11bb988cafa3", "bike_id": "4f6c2797e2763277c69f11bb988cafa3", "is_disabled": 0, "fusion_lon": 0.0, "type": "electric_scooter", "lon": -77.03179966666667}, {"rental_uris": {"android": "https://dc.lft.to/lastmile_qr_scan", "ios": "https://dc.lft.to/lastmile_qr_scan"}, "fusion_lat": 0.0, "is_reserved": 0, "lat": 38.899983166666665, "name": "12ad715aa01ab84f88b1c121a957a4b7", "bike_id": "12ad715aa01ab84f88b1c121a957a4b7", "is_disabled": 0, "fusion_lon": 0.0, "type": "electric_scooter", "lon": -77.03189216666667}, {"rental_uris": {"android": "https://dc.lft.to/lastmile_qr_scan", "ios": "https://dc.lft.to/lastmile_qr_scan"}, "fusion_lat": 0.0, "is_reserved": 0, "lat": 38.907764, "name": "efa51cda67794d695cc659384f438171", "bike_id": "efa51cda67794d695cc659384f438171", "is_disabled": 0, "fusion_lon": 0.0, "type": "electric_scooter", "lon": -77.069272}, {"rental_uris": {"android": "https://dc.lft.to/lastmile_qr_scan", "ios": "https://dc.lft.to/lastmile_qr_scan"}, "fusion_lat": 0.0, "is_reserved": 0, "lat": 38.89782833333334, "name": "7cf9c9ab41b81f9202e6456b0b7fa48e", "bike_id": "7cf9c9ab41b81f9202e6456b0b7fa48e", "is_disabled": 0, "fusion_lon": 0.0, "type": "electric_scooter", "lon": -77.0321535}, {"rental_uris": {"android": "https://dc.lft.to/lastmile_qr_scan", "ios": "https://dc.lft.to/lastmile_qr_scan"}, "fusion_lat": 0.0, "is_reserved": 0, "lat": 38.939697833333334, "name": "c867e3c7535da3bf5108947400d26028", "bike_id": "c867e3c7535da3bf5108947400d26028", "is_disabled": 0, "fusion_lon": 0.0, "type": "electric_scooter", "lon": -77.032876}, {"rental_uris": {"android": "https://dc.lft.to/lastmile_qr_scan", "ios": "https://dc.lft.to/lastmile_qr_scan"}, "fusion_lat": 0.0, "is_reserved": 0, "lat": 38.926899666666664, "name": "6c14d858baffefdc9d785b1b55f5ed42", "bike_id": "6c14d858baffefdc9d785b1b55f5ed42", "is_disabled": 0, "fusion_lon": 0.0, "type": "electric_scooter", "lon": -77.03240616666666}, {"rental_uris": {"android": "https://dc.lft.to/lastmile_qr_scan", "ios": "https://dc.lft.to/lastmile_qr_scan"}, "fusion_lat": 0.0, "is_reserved": 0, "lat": 38.923618166666664, "name": "8443a278758ae79054ce8308a34964ac", "bike_id": "8443a278758ae79054ce8308a34964ac", "is_disabled": 0, "fusion_lon": 0.0, "type": "electric_scooter", "lon": -77.033685}, {"rental_uris": {"android": "https://dc.lft.to/lastmile_qr_scan", "ios": "https://dc.lft.to/lastmile_qr_scan"}, "fusion_lat": 0.0, "is_reserved": 0, "lat": 38.93087716666667, "name": "71e18626d4b25580fb3e0c667a251162", "bike_id": "71e18626d4b25580fb3e0c667a251162", "is_disabled": 0, "fusion_lon": 0.0, "type": "electric_scooter", "lon": -77.03748083333333}, {"rental_uris": {"android": "https://dc.lft.to/lastmile_qr_scan", "ios": "https://dc.lft.to/lastmile_qr_scan"}, "fusion_lat": 0.0, "is_reserved": 0, "lat": 38.87178983333333, "name": "7afb33ee430a9c6f9b90fe59c8a557fe", "bike_id": "7afb33ee430a9c6f9b90fe59c8a557fe", "is_disabled": 0, "fusion_lon": 0.0, "type": "electric_scooter", "lon": -76.97480433333334}, {"rental_uris": {"android": "https://dc.lft.to/lastmile_qr_scan", "ios": "https://dc.lft.to/lastmile_qr_scan"}, "fusion_lat": 0.0, "is_reserved": 0, "lat": 38.9020865, "name": "6479c142d1b4d93f9090a13a0b0f57d0", "bike_id": "6479c142d1b4d93f9090a13a0b0f57d0", "is_disabled": 0, "fusion_lon": 0.0, "type": "electric_bike", "lon": -77.0227225}, {"rental_uris": {"android": "https://dc.lft.to/lastmile_qr_scan", "ios": "https://dc.lft.to/lastmile_qr_scan"}, "fusion_lat": 0.0, "is_reserved": 0, "lat": 38.87484766666667, "name": "be5632d32168d8d0dead9ab4f3d5335f", "bike_id": "be5632d32168d8d0dead9ab4f3d5335f", "is_disabled": 0, "fusion_lon": 0.0, "type": "electric_bike", "lon": -76.96530716666666}, {"rental_uris": {"android": "https://dc.lft.to/lastmile_qr_scan", "ios": "https://dc.lft.to/lastmile_qr_scan"}, "fusion_lat": 0.0, "is_reserved": 0, "lat": 38.889926333333335, "name": "6f091dd53ca682ecc8af2dec3a2f16da", "bike_id": "6f091dd53ca682ecc8af2dec3a2f16da", "is_disabled": 0, "fusion_lon": 0.0, "type": "electric_scooter", "lon": -77.00334583333333}, {"rental_uris": {"android": "https://dc.lft.to/lastmile_qr_scan", "ios": "https://dc.lft.to/lastmile_qr_scan"}, "fusion_lat": 0.0, "is_reserved": 0, "lat": 38.91818933333333, "name": "bb92c441afb7199ae6adcf561da01fa7", "bike_id": "bb92c441afb7199ae6adcf561da01fa7", "is_disabled": 0, "fusion_lon": 0.0, "type": "electric_scooter", "lon": -77.03638833333333}, {"rental_uris": {"android": "https://dc.lft.to/lastmile_qr_scan", "ios": "https://dc.lft.to/lastmile_qr_scan"}, "fusion_lat": 0.0, "is_reserved": 0, "lat": 38.93276683333333, "name": "06577e7028449d346b7c4c926d0fa33a", "bike_id": "06577e7028449d346b7c4c926d0fa33a", "is_disabled": 0, "fusion_lon": 0.0, "type": "electric_scooter", "lon": -77.02832016666666}, {"rental_uris": {"android": "https://dc.lft.to/lastmile_qr_scan", "ios": "https://dc.lft.to/lastmile_qr_scan"}, "fusion_lat": 0.0, "is_reserved": 0, "lat": 38.89965183333333, "name": "04325bfef5c4a5e8b44dadce00c2bc60", "bike_id": "04325bfef5c4a5e8b44dadce00c2bc60", "is_disabled": 0, "fusion_lon": 0.0, "type": "electric_scooter", "lon": -77.01604766666667}, {"rental_uris": {"android": "https://dc.lft.to/lastmile_qr_scan", "ios": "https://dc.lft.to/lastmile_qr_scan"}, "fusion_lat": 0.0, "is_reserved": 0, "lat": 38.9170845, "name": "a192bb2297838b0a28b6f681763b0ea8", "bike_id": "a192bb2297838b0a28b6f681763b0ea8", "is_disabled": 0, "fusion_lon": 0.0, "type": "electric_scooter", "lon": -77.03497716666666}, {"rental_uris": {"android": "https://dc.lft.to/lastmile_qr_scan", "ios": "https://dc.lft.to/lastmile_qr_scan"}, "fusion_lat": 0.0, "is_reserved": 0, "lat": 38.924033, "name": "43890981f09343ca5c9e5f052bca89e9", "bike_id": "43890981f09343ca5c9e5f052bca89e9", "is_disabled": 0, "fusion_lon": 0.0, "type": "electric_scooter", "lon": -77.0269245}, {"rental_uris": {"android": "https://dc.lft.to/lastmile_qr_scan", "ios": "https://dc.lft.to/lastmile_qr_scan"}, "fusion_lat": 0.0, "is_reserved": 0, "lat": 38.8481245, "name": "4d5b2656569670a72765b67da71b049b", "bike_id": "4d5b2656569670a72765b67da71b049b", "is_disabled": 0, "fusion_lon": 0.0, "type": "electric_bike", "lon": -76.952379}, {"rental_uris": {"android": "https://dc.lft.to/lastmile_qr_scan", "ios": "https://dc.lft.to/lastmile_qr_scan"}, "fusion_lat": 0.0, "is_reserved": 0, "lat": 38.9131055, "name": "f686b0f539a30180ded4972c24f91000", "bike_id": "f686b0f539a30180ded4972c24f91000", "is_disabled": 0, "fusion_lon": 0.0, "type": "electric_scooter", "lon": -77.02335466666666}, {"rental_uris": {"android": "https://dc.lft.to/lastmile_qr_scan", "ios": "https://dc.lft.to/lastmile_qr_scan"}, "fusion_lat": 0.0, "is_reserved": 0, "lat": 38.928429, "name": "b9f522e688ef47c03f17523160a32813", "bike_id": "b9f522e688ef47c03f17523160a32813", "is_disabled": 0, "fusion_lon": 0.0, "type": "electric_scooter", "lon": -76.99909866666667}, {"rental_uris": {"android": "https://dc.lft.to/lastmile_qr_scan", "ios": "https://dc.lft.to/lastmile_qr_scan"}, "fusion_lat": 0.0, "is_reserved": 0, "lat": 38.89649516666667, "name": "fa0760915408e3e12af103f6c9447b64", "bike_id": "fa0760915408e3e12af103f6c9447b64", "is_disabled": 0, "fusion_lon": 0.0, "type": "electric_scooter", "lon": -77.0092495}, {"rental_uris": {"android": "https://dc.lft.to/lastmile_qr_scan", "ios": "https://dc.lft.to/lastmile_qr_scan"}, "fusion_lat": 0.0, "is_reserved": 0, "lat": 38.918017, "name": "5adc7578d2f0209b2eceb9880ffb91cf", "bike_id": "5adc7578d2f0209b2eceb9880ffb91cf", "is_disabled": 0, "fusion_lon": 0.0, "type": "electric_scooter", "lon": -77.04017083333333}, {"rental_uris": {"android": "https://dc.lft.to/lastmile_qr_scan", "ios": "https://dc.lft.to/lastmile_qr_scan"}, "fusion_lat": 0.0, "is_reserved": 0, "lat": 38.93386316666667, "name": "d397b04bac4794a855d7647484346e51", "bike_id": "d397b04bac4794a855d7647484346e51", "is_disabled": 0, "fusion_lon": 0.0, "type": "electric_scooter", "lon": -77.02389216666667}, {"rental_uris": {"android": "https://dc.lft.to/lastmile_qr_scan", "ios": "https://dc.lft.to/lastmile_qr_scan"}, "fusion_lat": 0.0, "is_reserved": 0, "lat": 38.910170666666666, "name": "1d395c3131c24b93893d8e3698e1c52d", "bike_id": "1d395c3131c24b93893d8e3698e1c52d", "is_disabled": 0, "fusion_lon": 0.0, "type": "electric_scooter", "lon": -77.04454366666667}, {"rental_uris": {"android": "https://dc.lft.to/lastmile_qr_scan", "ios": "https://dc.lft.to/lastmile_qr_scan"}, "fusion_lat": 0.0, "is_reserved": 0, "lat": 38.8973745, "name": "6d25f6a664fa9c7f5b72315bc4b30406", "bike_id": "6d25f6a664fa9c7f5b72315bc4b30406", "is_disabled": 0, "fusion_lon": 0.0, "type": "electric_scooter", "lon": -77.007786}, {"rental_uris": {"android": "https://dc.lft.to/lastmile_qr_scan", "ios": "https://dc.lft.to/lastmile_qr_scan"}, "fusion_lat": 0.0, "is_reserved": 0, "lat": 38.9024145, "name": "e38ac59cd1393f33f5ae79e868ca5edb", "bike_id": "e38ac59cd1393f33f5ae79e868ca5edb", "is_disabled": 0, "fusion_lon": 0.0, "type": "electric_scooter", "lon": -77.0151415}, {"rental_uris": {"android": "https://dc.lft.to/lastmile_qr_scan", "ios": "https://dc.lft.to/lastmile_qr_scan"}, "fusion_lat": 0.0, "is_reserved": 0, "lat": 38.917083166666664, "name": "cee7885695526d48c1cade54a1ccb4f1", "bike_id": "cee7885695526d48c1cade54a1ccb4f1", "is_disabled": 0, "fusion_lon": 0.0, "type": "electric_scooter", "lon": -77.0107565}, {"rental_uris": {"android": "https://dc.lft.to/lastmile_qr_scan", "ios": "https://dc.lft.to/lastmile_qr_scan"}, "fusion_lat": 0.0, "is_reserved": 0, "lat": 38.90719816666667, "name": "0b83d1b71a821bd179c06295b0ea0362", "bike_id": "0b83d1b71a821bd179c06295b0ea0362", "is_disabled": 0, "fusion_lon": 0.0, "type": "electric_scooter", "lon": -77.02793383333334}, {"rental_uris": {"android": "https://dc.lft.to/lastmile_qr_scan", "ios": "https://dc.lft.to/lastmile_qr_scan"}, "fusion_lat": 0.0, "is_reserved": 0, "lat": 38.90258433333333, "name": "92dc06bfef29d8b186a13b2a0376660c", "bike_id": "92dc06bfef29d8b186a13b2a0376660c", "is_disabled": 0, "fusion_lon": 0.0, "type": "electric_scooter", "lon": -77.02640683333334}, {"rental_uris": {"android": "https://dc.lft.to/lastmile_qr_scan", "ios": "https://dc.lft.to/lastmile_qr_scan"}, "fusion_lat": 0.0, "is_reserved": 0, "lat": 38.900824666666665, "name": "61dc5be50c4b6a6f5a43c0ea24e44453", "bike_id": "61dc5be50c4b6a6f5a43c0ea24e44453", "is_disabled": 0, "fusion_lon": 0.0, "type": "electric_scooter", "lon": -77.02714583333334}, {"rental_uris": {"android": "https://dc.lft.to/lastmile_qr_scan", "ios": "https://dc.lft.to/lastmile_qr_scan"}, "fusion_lat": 0.0, "is_reserved": 0, "lat": 38.9497005, "name": "89927c20fe8319798d2310ac6310ccd5", "bike_id": "89927c20fe8319798d2310ac6310ccd5", "is_disabled": 0, "fusion_lon": 0.0, "type": "electric_scooter", "lon": -77.023452}, {"rental_uris": {"android": "https://dc.lft.to/lastmile_qr_scan", "ios": "https://dc.lft.to/lastmile_qr_scan"}, "fusion_lat": 0.0, "is_reserved": 0, "lat": 38.9078685, "name": "f0dd98a0a5ee3433a2fa42b155e6a7fe", "bike_id": "f0dd98a0a5ee3433a2fa42b155e6a7fe", "is_disabled": 0, "fusion_lon": 0.0, "type": "electric_scooter", "lon": -77.07263766666667}, {"rental_uris": {"android": "https://dc.lft.to/lastmile_qr_scan", "ios": "https://dc.lft.to/lastmile_qr_scan"}, "fusion_lat": 0.0, "is_reserved": 0, "lat": 38.9057445, "name": "b91fc46549c3ecc02d19b4cc3f041121", "bike_id": "b91fc46549c3ecc02d19b4cc3f041121", "is_disabled": 0, "fusion_lon": 0.0, "type": "electric_scooter", "lon": -77.0419765}, {"rental_uris": {"android": "https://dc.lft.to/lastmile_qr_scan", "ios": "https://dc.lft.to/lastmile_qr_scan"}, "fusion_lat": 0.0, "is_reserved": 0, "lat": 38.943121833333336, "name": "e5cc47ffdff217641cfe5010876de94b", "bike_id": "e5cc47ffdff217641cfe5010876de94b", "is_disabled": 0, "fusion_lon": 0.0, "type": "electric_scooter", "lon": -77.02179783333334}, {"rental_uris": {"android": "https://dc.lft.to/lastmile_qr_scan", "ios": "https://dc.lft.to/lastmile_qr_scan"}, "fusion_lat": 0.0, "is_reserved": 0, "lat": 38.923174833333334, "name": "e2b2ba6498ac23922bd1b5a47439117f", "bike_id": "e2b2ba6498ac23922bd1b5a47439117f", "is_disabled": 0, "fusion_lon": 0.0, "type": "electric_scooter", "lon": -77.02908133333334}, {"rental_uris": {"android": "https://dc.lft.to/lastmile_qr_scan", "ios": "https://dc.lft.to/lastmile_qr_scan"}, "fusion_lat": 0.0, "is_reserved": 0, "lat": 38.907091, "name": "172a029ace741605fda70f548ea56f4c", "bike_id": "172a029ace741605fda70f548ea56f4c", "is_disabled": 0, "fusion_lon": 0.0, "type": "electric_scooter", "lon": -77.02398383333333}, {"rental_uris": {"android": "https://dc.lft.to/lastmile_qr_scan", "ios": "https://dc.lft.to/lastmile_qr_scan"}, "fusion_lat": 0.0, "is_reserved": 0, "lat": 38.912761833333334, "name": "3ef0ab068103f31127d11c7481226f0d", "bike_id": "3ef0ab068103f31127d11c7481226f0d", "is_disabled": 0, "fusion_lon": 0.0, "type": "electric_scooter", "lon": -77.02216316666667}, {"rental_uris": {"android": "https://dc.lft.to/lastmile_qr_scan", "ios": "https://dc.lft.to/lastmile_qr_scan"}, "fusion_lat": 0.0, "is_reserved": 0, "lat": 38.900944333333335, "name": "4151ce3baf3cdff51422b5bf982a3383", "bike_id": "4151ce3baf3cdff51422b5bf982a3383", "is_disabled": 0, "fusion_lon": 0.0, "type": "electric_scooter", "lon": -77.02485483333334}, {"rental_uris": {"android": "https://dc.lft.to/lastmile_qr_scan", "ios": "https://dc.lft.to/lastmile_qr_scan"}, "fusion_lat": 0.0, "is_reserved": 0, "lat": 38.92880666666667, "name": "4cebf2750a4cf6e426ab3ce563ab5a29", "bike_id": "4cebf2750a4cf6e426ab3ce563ab5a29", "is_disabled": 0, "fusion_lon": 0.0, "type": "electric_scooter", "lon": -77.03419783333334}, {"rental_uris": {"android": "https://dc.lft.to/lastmile_qr_scan", "ios": "https://dc.lft.to/lastmile_qr_scan"}, "fusion_lat": 0.0, "is_reserved": 0, "lat": 38.899619, "name": "233013016f1569b5964903e1e6323758", "bike_id": "233013016f1569b5964903e1e6323758", "is_disabled": 0, "fusion_lon": 0.0, "type": "electric_scooter", "lon": -77.01604466666667}, {"rental_uris": {"android": "https://dc.lft.to/lastmile_qr_scan", "ios": "https://dc.lft.to/lastmile_qr_scan"}, "fusion_lat": 0.0, "is_reserved": 0, "lat": 38.922334666666664, "name": "6fc7fe722cd23997ea3aa205310d8baf", "bike_id": "6fc7fe722cd23997ea3aa205310d8baf", "is_disabled": 0, "fusion_lon": 0.0, "type": "electric_scooter", "lon": -77.0377195}, {"rental_uris": {"android": "https://dc.lft.to/lastmile_qr_scan", "ios": "https://dc.lft.to/lastmile_qr_scan"}, "fusion_lat": 0.0, "is_reserved": 0, "lat": 38.97370466666667, "name": "656944814275ae5b761f866b9718c551", "bike_id": "656944814275ae5b761f866b9718c551", "is_disabled": 0, "fusion_lon": 0.0, "type": "electric_scooter", "lon": -77.02671266666667}, {"rental_uris": {"android": "https://dc.lft.to/lastmile_qr_scan", "ios": "https://dc.lft.to/lastmile_qr_scan"}, "fusion_lat": 0.0, "is_reserved": 0, "lat": 38.87534, "name": "9bb6239619448c35262074516b1befa9", "bike_id": "9bb6239619448c35262074516b1befa9", "is_disabled": 0, "fusion_lon": 0.0, "type": "electric_scooter", "lon": -77.01752016666667}, {"rental_uris": {"android": "https://dc.lft.to/lastmile_qr_scan", "ios": "https://dc.lft.to/lastmile_qr_scan"}, "fusion_lat": 0.0, "is_reserved": 0, "lat": 38.9023015, "name": "60dbfcf7141f36e7048af1ec2b6c0d5b", "bike_id": "60dbfcf7141f36e7048af1ec2b6c0d5b", "is_disabled": 0, "fusion_lon": 0.0, "type": "electric_scooter", "lon": -77.03786666666667}, {"rental_uris": {"android": "https://dc.lft.to/lastmile_qr_scan", "ios": "https://dc.lft.to/lastmile_qr_scan"}, "fusion_lat": 0.0, "is_reserved": 0, "lat": 38.893089833333335, "name": "8b4fbd4fd79d3784fc18641131c04ca3", "bike_id": "8b4fbd4fd79d3784fc18641131c04ca3", "is_disabled": 0, "fusion_lon": 0.0, "type": "electric_scooter", "lon": -76.93972133333334}, {"rental_uris": {"android": "https://dc.lft.to/lastmile_qr_scan", "ios": "https://dc.lft.to/lastmile_qr_scan"}, "fusion_lat": 0.0, "is_reserved": 0, "lat": 38.90393533333334, "name": "a57b9d45983853a6b9364640350472d1", "bike_id": "a57b9d45983853a6b9364640350472d1", "is_disabled": 0, "fusion_lon": 0.0, "type": "electric_scooter", "lon": -77.04032033333333}, {"rental_uris": {"android": "https://dc.lft.to/lastmile_qr_scan", "ios": "https://dc.lft.to/lastmile_qr_scan"}, "fusion_lat": 0.0, "is_reserved": 0, "lat": 38.90270966666667, "name": "a6884bd96c91b4b3887046f47595fc69", "bike_id": "a6884bd96c91b4b3887046f47595fc69", "is_disabled": 0, "fusion_lon": 0.0, "type": "electric_scooter", "lon": -77.01666883333333}, {"rental_uris": {"android": "https://dc.lft.to/lastmile_qr_scan", "ios": "https://dc.lft.to/lastmile_qr_scan"}, "fusion_lat": 0.0, "is_reserved": 0, "lat": 38.91763683333333, "name": "1ccc433cc53ea9c8c5262e06517225ed", "bike_id": "1ccc433cc53ea9c8c5262e06517225ed", "is_disabled": 0, "fusion_lon": 0.0, "type": "electric_scooter", "lon": -77.0474345}, {"rental_uris": {"android": "https://dc.lft.to/lastmile_qr_scan", "ios": "https://dc.lft.to/lastmile_qr_scan"}, "fusion_lat": 0.0, "is_reserved": 0, "lat": 38.903477333333335, "name": "3b16a5da1bda6fa02b50084104cada0c", "bike_id": "3b16a5da1bda6fa02b50084104cada0c", "is_disabled": 0, "fusion_lon": 0.0, "type": "electric_scooter", "lon": -76.98614333333333}, {"rental_uris": {"android": "https://dc.lft.to/lastmile_qr_scan", "ios": "https://dc.lft.to/lastmile_qr_scan"}, "fusion_lat": 0.0, "is_reserved": 0, "lat": 38.87692366666667, "name": "0686f171211b2ca761611dcba706abe7", "bike_id": "0686f171211b2ca761611dcba706abe7", "is_disabled": 0, "fusion_lon": 0.0, "type": "electric_scooter", "lon": -77.007526}, {"rental_uris": {"android": "https://dc.lft.to/lastmile_qr_scan", "ios": "https://dc.lft.to/lastmile_qr_scan"}, "fusion_lat": 0.0, "is_reserved": 0, "lat": 38.951018, "name": "5bebbaf184613ed536573b812ff85be1", "bike_id": "5bebbaf184613ed536573b812ff85be1", "is_disabled": 0, "fusion_lon": 0.0, "type": "electric_scooter", "lon": -77.01878333333333}, {"rental_uris": {"android": "https://dc.lft.to/lastmile_qr_scan", "ios": "https://dc.lft.to/lastmile_qr_scan"}, "fusion_lat": 0.0, "is_reserved": 0, "lat": 38.898168, "name": "47f0234ef75a4c334ddd77355dae20d9", "bike_id": "47f0234ef75a4c334ddd77355dae20d9", "is_disabled": 0, "fusion_lon": 0.0, "type": "electric_scooter", "lon": -77.02680633333334}, {"rental_uris": {"android": "https://dc.lft.to/lastmile_qr_scan", "ios": "https://dc.lft.to/lastmile_qr_scan"}, "fusion_lat": 0.0, "is_reserved": 0, "lat": 38.90868783333333, "name": "c43c773b84f157ea54ee489823b26b6b", "bike_id": "c43c773b84f157ea54ee489823b26b6b", "is_disabled": 0, "fusion_lon": 0.0, "type": "electric_scooter", "lon": -77.02352133333333}, {"rental_uris": {"android": "https://dc.lft.to/lastmile_qr_scan", "ios": "https://dc.lft.to/lastmile_qr_scan"}, "fusion_lat": 0.0, "is_reserved": 0, "lat": 38.875697333333335, "name": "445a1e2103c82ecdbcb979d3736d77d3", "bike_id": "445a1e2103c82ecdbcb979d3736d77d3", "is_disabled": 0, "fusion_lon": 0.0, "type": "electric_scooter", "lon": -77.0060775}, {"rental_uris": {"android": "https://dc.lft.to/lastmile_qr_scan", "ios": "https://dc.lft.to/lastmile_qr_scan"}, "fusion_lat": 0.0, "is_reserved": 0, "lat": 38.902797666666665, "name": "4e40b96e3bdb5557b50b9601a2a5c054", "bike_id": "4e40b96e3bdb5557b50b9601a2a5c054", "is_disabled": 0, "fusion_lon": 0.0, "type": "electric_scooter", "lon": -77.04200416666667}, {"rental_uris": {"android": "https://dc.lft.to/lastmile_qr_scan", "ios": "https://dc.lft.to/lastmile_qr_scan"}, "fusion_lat": 0.0, "is_reserved": 0, "lat": 38.924779666666666, "name": "935e4cf11c92c94f35a2872813806030", "bike_id": "935e4cf11c92c94f35a2872813806030", "is_disabled": 0, "fusion_lon": 0.0, "type": "electric_scooter", "lon": -77.03196783333334}, {"rental_uris": {"android": "https://dc.lft.to/lastmile_qr_scan", "ios": "https://dc.lft.to/lastmile_qr_scan"}, "fusion_lat": 0.0, "is_reserved": 0, "lat": 38.92518783333333, "name": "f1b9390452244777df33ffb6ecc9b5bc", "bike_id": "f1b9390452244777df33ffb6ecc9b5bc", "is_disabled": 0, "fusion_lon": 0.0, "type": "electric_scooter", "lon": -77.02315966666667}, {"rental_uris": {"android": "https://dc.lft.to/lastmile_qr_scan", "ios": "https://dc.lft.to/lastmile_qr_scan"}, "fusion_lat": 0.0, "is_reserved": 0, "lat": 38.917857833333336, "name": "f267cda0e9981f00c43a1d3dd45df617", "bike_id": "f267cda0e9981f00c43a1d3dd45df617", "is_disabled": 0, "fusion_lon": 0.0, "type": "electric_scooter", "lon": -77.02197183333334}, {"rental_uris": {"android": "https://dc.lft.to/lastmile_qr_scan", "ios": "https://dc.lft.to/lastmile_qr_scan"}, "fusion_lat": 0.0, "is_reserved": 0, "lat": 38.918726, "name": "5b00793f215c370c2df4daf3148ea985", "bike_id": "5b00793f215c370c2df4daf3148ea985", "is_disabled": 0, "fusion_lon": 0.0, "type": "electric_scooter", "lon": -77.04840583333333}, {"rental_uris": {"android": "https://dc.lft.to/lastmile_qr_scan", "ios": "https://dc.lft.to/lastmile_qr_scan"}, "fusion_lat": 0.0, "is_reserved": 0, "lat": 38.893083833333336, "name": "07e4a4be872d976c1a0a045fbdf7d45a", "bike_id": "07e4a4be872d976c1a0a045fbdf7d45a", "is_disabled": 0, "fusion_lon": 0.0, "type": "electric_scooter", "lon": -76.92127916666666}, {"rental_uris": {"android": "https://dc.lft.to/lastmile_qr_scan", "ios": "https://dc.lft.to/lastmile_qr_scan"}, "fusion_lat": 0.0, "is_reserved": 0, "lat": 38.902197666666666, "name": "55c6f8ca37a46eb8057e8778bdae4b78", "bike_id": "55c6f8ca37a46eb8057e8778bdae4b78", "is_disabled": 0, "fusion_lon": 0.0, "type": "electric_scooter", "lon": -77.02441316666666}, {"rental_uris": {"android": "https://dc.lft.to/lastmile_qr_scan", "ios": "https://dc.lft.to/lastmile_qr_scan"}, "fusion_lat": 0.0, "is_reserved": 0, "lat": 38.93984016666667, "name": "17bf1871ce4d05b7a938bee13844ed37", "bike_id": "17bf1871ce4d05b7a938bee13844ed37", "is_disabled": 0, "fusion_lon": 0.0, "type": "electric_scooter", "lon": -77.03563816666667}, {"rental_uris": {"android": "https://dc.lft.to/lastmile_qr_scan", "ios": "https://dc.lft.to/lastmile_qr_scan"}, "fusion_lat": 0.0, "is_reserved": 0, "lat": 38.793359833333334, "name": "22c2a8d4055d124f20806768b28ac7bb", "bike_id": "22c2a8d4055d124f20806768b28ac7bb", "is_disabled": 0, "fusion_lon": 0.0, "type": "electric_bike", "lon": -77.00062066666666}, {"rental_uris": {"android": "https://dc.lft.to/lastmile_qr_scan", "ios": "https://dc.lft.to/lastmile_qr_scan"}, "fusion_lat": 0.0, "is_reserved": 0, "lat": 38.90582716666667, "name": "48006615a41754b7765e3b3ea198b7bf", "bike_id": "48006615a41754b7765e3b3ea198b7bf", "is_disabled": 0, "fusion_lon": 0.0, "type": "electric_scooter", "lon": -76.9904495}, {"rental_uris": {"android": "https://dc.lft.to/lastmile_qr_scan", "ios": "https://dc.lft.to/lastmile_qr_scan"}, "fusion_lat": 0.0, "is_reserved": 0, "lat": 38.906861, "name": "1b1752643152295d04b6b7fce54bf2fd", "bike_id": "1b1752643152295d04b6b7fce54bf2fd", "is_disabled": 0, "fusion_lon": 0.0, "type": "electric_scooter", "lon": -77.03761683333333}, {"rental_uris": {"android": "https://dc.lft.to/lastmile_qr_scan", "ios": "https://dc.lft.to/lastmile_qr_scan"}, "fusion_lat": 0.0, "is_reserved": 0, "lat": 38.902485666666664, "name": "16732a42f47e94c645917445312851ff", "bike_id": "16732a42f47e94c645917445312851ff", "is_disabled": 0, "fusion_lon": 0.0, "type": "electric_scooter", "lon": -77.033351}, {"rental_uris": {"android": "https://dc.lft.to/lastmile_qr_scan", "ios": "https://dc.lft.to/lastmile_qr_scan"}, "fusion_lat": 0.0, "is_reserved": 0, "lat": 38.9208185, "name": "d10027b533f1e9938011978ebe31e848", "bike_id": "d10027b533f1e9938011978ebe31e848", "is_disabled": 0, "fusion_lon": 0.0, "type": "electric_scooter", "lon": -77.02307083333334}, {"rental_uris": {"android": "https://dc.lft.to/lastmile_qr_scan", "ios": "https://dc.lft.to/lastmile_qr_scan"}, "fusion_lat": 0.0, "is_reserved": 0, "lat": 38.92483216666667, "name": "323f8451b1b3cff82beffdfde15adba7", "bike_id": "323f8451b1b3cff82beffdfde15adba7", "is_disabled": 0, "fusion_lon": 0.0, "type": "electric_scooter", "lon": -77.0305455}, {"rental_uris": {"android": "https://dc.lft.to/lastmile_qr_scan", "ios": "https://dc.lft.to/lastmile_qr_scan"}, "fusion_lat": 0.0, "is_reserved": 0, "lat": 38.90268, "name": "f13447032cd8d2afba6c04e949e0666f", "bike_id": "f13447032cd8d2afba6c04e949e0666f", "is_disabled": 0, "fusion_lon": 0.0, "type": "electric_scooter", "lon": -77.01759833333334}, {"rental_uris": {"android": "https://dc.lft.to/lastmile_qr_scan", "ios": "https://dc.lft.to/lastmile_qr_scan"}, "fusion_lat": 0.0, "is_reserved": 0, "lat": 38.892239833333335, "name": "3ded4960eaf08381c800ea8fda44942b", "bike_id": "3ded4960eaf08381c800ea8fda44942b", "is_disabled": 0, "fusion_lon": 0.0, "type": "electric_scooter", "lon": -77.0398745}, {"rental_uris": {"android": "https://dc.lft.to/lastmile_qr_scan", "ios": "https://dc.lft.to/lastmile_qr_scan"}, "fusion_lat": 0.0, "is_reserved": 0, "lat": 38.957638833333334, "name": "4994e3e89f1960077a3fb77b76f51424", "bike_id": "4994e3e89f1960077a3fb77b76f51424", "is_disabled": 0, "fusion_lon": 0.0, "type": "electric_scooter", "lon": -77.01495616666666}, {"rental_uris": {"android": "https://dc.lft.to/lastmile_qr_scan", "ios": "https://dc.lft.to/lastmile_qr_scan"}, "fusion_lat": 0.0, "is_reserved": 0, "lat": 38.905848666666664, "name": "f202ac0be123bda7fb2ba5ac801406ed", "bike_id": "f202ac0be123bda7fb2ba5ac801406ed", "is_disabled": 0, "fusion_lon": 0.0, "type": "electric_scooter", "lon": -76.98415933333334}, {"rental_uris": {"android": "https://dc.lft.to/lastmile_qr_scan", "ios": "https://dc.lft.to/lastmile_qr_scan"}, "fusion_lat": 0.0, "is_reserved": 0, "lat": 38.893852, "name": "22f34aff38b14e639f80f9ad78ec4c89", "bike_id": "22f34aff38b14e639f80f9ad78ec4c89", "is_disabled": 0, "fusion_lon": 0.0, "type": "electric_bike", "lon": -76.86848783333333}, {"rental_uris": {"android": "https://dc.lft.to/lastmile_qr_scan", "ios": "https://dc.lft.to/lastmile_qr_scan"}, "fusion_lat": 0.0, "is_reserved": 0, "lat": 38.92762533333333, "name": "0328724980b4cc033187b76b6de208d3", "bike_id": "0328724980b4cc033187b76b6de208d3", "is_disabled": 0, "fusion_lon": 0.0, "type": "electric_scooter", "lon": -77.068869}, {"rental_uris": {"android": "https://dc.lft.to/lastmile_qr_scan", "ios": "https://dc.lft.to/lastmile_qr_scan"}, "fusion_lat": 0.0, "is_reserved": 0, "lat": 38.898867833333334, "name": "dbae5b4f1b71cc48d364acb491a96f70", "bike_id": "dbae5b4f1b71cc48d364acb491a96f70", "is_disabled": 0, "fusion_lon": 0.0, "type": "electric_scooter", "lon": -76.93177666666666}, {"rental_uris": {"android": "https://dc.lft.to/lastmile_qr_scan", "ios": "https://dc.lft.to/lastmile_qr_scan"}, "fusion_lat": 0.0, "is_reserved": 0, "lat": 38.893458333333335, "name": "7df0352864e43d08b0a463fbd8bbf798", "bike_id": "7df0352864e43d08b0a463fbd8bbf798", "is_disabled": 0, "fusion_lon": 0.0, "type": "electric_scooter", "lon": -76.99382766666666}, {"rental_uris": {"android": "https://dc.lft.to/lastmile_qr_scan", "ios": "https://dc.lft.to/lastmile_qr_scan"}, "fusion_lat": 0.0, "is_reserved": 0, "lat": 38.912598333333335, "name": "0a0bba52cb32c9ef782604366ffbe304", "bike_id": "0a0bba52cb32c9ef782604366ffbe304", "is_disabled": 0, "fusion_lon": 0.0, "type": "electric_scooter", "lon": -77.03872183333333}, {"rental_uris": {"android": "https://dc.lft.to/lastmile_qr_scan", "ios": "https://dc.lft.to/lastmile_qr_scan"}, "fusion_lat": 0.0, "is_reserved": 0, "lat": 38.916103, "name": "7aac030eb0c74b934c8703606f5aede7", "bike_id": "7aac030eb0c74b934c8703606f5aede7", "is_disabled": 0, "fusion_lon": 0.0, "type": "electric_scooter", "lon": -77.02383616666667}, {"rental_uris": {"android": "https://dc.lft.to/lastmile_qr_scan", "ios": "https://dc.lft.to/lastmile_qr_scan"}, "fusion_lat": 0.0, "is_reserved": 0, "lat": 38.932555666666666, "name": "f517e138222cf3ae38670f15fde9bf62", "bike_id": "f517e138222cf3ae38670f15fde9bf62", "is_disabled": 0, "fusion_lon": 0.0, "type": "electric_scooter", "lon": -77.03100516666667}, {"rental_uris": {"android": "https://dc.lft.to/lastmile_qr_scan", "ios": "https://dc.lft.to/lastmile_qr_scan"}, "fusion_lat": 0.0, "is_reserved": 0, "lat": 38.93598933333333, "name": "c6e2c6b241a61850a106cd1567b14e02", "bike_id": "c6e2c6b241a61850a106cd1567b14e02", "is_disabled": 0, "fusion_lon": 0.0, "type": "electric_scooter", "lon": -77.03521133333334}, {"rental_uris": {"android": "https://dc.lft.to/lastmile_qr_scan", "ios": "https://dc.lft.to/lastmile_qr_scan"}, "fusion_lat": 0.0, "is_reserved": 0, "lat": 38.90052883333333, "name": "5964be2145b5edaed991067251238bc6", "bike_id": "5964be2145b5edaed991067251238bc6", "is_disabled": 0, "fusion_lon": 0.0, "type": "electric_scooter", "lon": -77.04857033333333}, {"rental_uris": {"android": "https://dc.lft.to/lastmile_qr_scan", "ios": "https://dc.lft.to/lastmile_qr_scan"}, "fusion_lat": 0.0, "is_reserved": 0, "lat": 38.8974465, "name": "d36f3232addef74c18638319fac4cd28", "bike_id": "d36f3232addef74c18638319fac4cd28", "is_disabled": 0, "fusion_lon": 0.0, "type": "electric_scooter", "lon": -77.01674333333334}, {"rental_uris": {"android": "https://dc.lft.to/lastmile_qr_scan", "ios": "https://dc.lft.to/lastmile_qr_scan"}, "fusion_lat": 0.0, "is_reserved": 0, "lat": 38.89999566666667, "name": "d353d0cabfa0e67d3e168b5b2aca127c", "bike_id": "d353d0cabfa0e67d3e168b5b2aca127c", "is_disabled": 0, "fusion_lon": 0.0, "type": "electric_scooter", "lon": -77.02938716666667}, {"rental_uris": {"android": "https://dc.lft.to/lastmile_qr_scan", "ios": "https://dc.lft.to/lastmile_qr_scan"}, "fusion_lat": 0.0, "is_reserved": 0, "lat": 38.88866566666667, "name": "dfe9365077be25177962a867dc9ab69e", "bike_id": "dfe9365077be25177962a867dc9ab69e", "is_disabled": 0, "fusion_lon": 0.0, "type": "electric_scooter", "lon": -77.0400905}, {"rental_uris": {"android": "https://dc.lft.to/lastmile_qr_scan", "ios": "https://dc.lft.to/lastmile_qr_scan"}, "fusion_lat": 0.0, "is_reserved": 0, "lat": 38.887285166666665, "name": "e46f1bdc358dca969d4990d60473f93e", "bike_id": "e46f1bdc358dca969d4990d60473f93e", "is_disabled": 0, "fusion_lon": 0.0, "type": "electric_scooter", "lon": -76.98382416666666}, {"rental_uris": {"android": "https://dc.lft.to/lastmile_qr_scan", "ios": "https://dc.lft.to/lastmile_qr_scan"}, "fusion_lat": 0.0, "is_reserved": 0, "lat": 38.899583, "name": "ffdec5422690f58404d3f08198d7df37", "bike_id": "ffdec5422690f58404d3f08198d7df37", "is_disabled": 0, "fusion_lon": 0.0, "type": "electric_scooter", "lon": -77.04843}, {"rental_uris": {"android": "https://dc.lft.to/lastmile_qr_scan", "ios": "https://dc.lft.to/lastmile_qr_scan"}, "fusion_lat": 0.0, "is_reserved": 0, "lat": 38.90575416666667, "name": "a605d5a162cf48557762046e22829906", "bike_id": "a605d5a162cf48557762046e22829906", "is_disabled": 0, "fusion_lon": 0.0, "type": "electric_scooter", "lon": -77.005641}, {"rental_uris": {"android": "https://dc.lft.to/lastmile_qr_scan", "ios": "https://dc.lft.to/lastmile_qr_scan"}, "fusion_lat": 0.0, "is_reserved": 0, "lat": 38.914157333333335, "name": "f840cbc107c1f840d81bb6605e9c926d", "bike_id": "f840cbc107c1f840d81bb6605e9c926d", "is_disabled": 0, "fusion_lon": 0.0, "type": "electric_scooter", "lon": -77.03173983333333}, {"rental_uris": {"android": "https://dc.lft.to/lastmile_qr_scan", "ios": "https://dc.lft.to/lastmile_qr_scan"}, "fusion_lat": 0.0, "is_reserved": 0, "lat": 38.89578366666667, "name": "bf012e665e51bbb1d1562dfeddcccc78", "bike_id": "bf012e665e51bbb1d1562dfeddcccc78", "is_disabled": 0, "fusion_lon": 0.0, "type": "electric_scooter", "lon": -77.04141016666667}, {"rental_uris": {"android": "https://dc.lft.to/lastmile_qr_scan", "ios": "https://dc.lft.to/lastmile_qr_scan"}, "fusion_lat": 0.0, "is_reserved": 0, "lat": 38.9156195, "name": "648e030236678ff39dad77e14c0b6ebd", "bike_id": "648e030236678ff39dad77e14c0b6ebd", "is_disabled": 0, "fusion_lon": 0.0, "type": "electric_scooter", "lon": -77.02351083333333}, {"rental_uris": {"android": "https://dc.lft.to/lastmile_qr_scan", "ios": "https://dc.lft.to/lastmile_qr_scan"}, "fusion_lat": 0.0, "is_reserved": 0, "lat": 38.915076166666665, "name": "9a96f9b084f5d07d52e184158799acf7", "bike_id": "9a96f9b084f5d07d52e184158799acf7", "is_disabled": 0, "fusion_lon": 0.0, "type": "electric_scooter", "lon": -77.03216683333333}, {"rental_uris": {"android": "https://dc.lft.to/lastmile_qr_scan", "ios": "https://dc.lft.to/lastmile_qr_scan"}, "fusion_lat": 0.0, "is_reserved": 0, "lat": 38.92755283333334, "name": "8e17efe3530839eb6758700a2ce5a2c6", "bike_id": "8e17efe3530839eb6758700a2ce5a2c6", "is_disabled": 0, "fusion_lon": 0.0, "type": "electric_scooter", "lon": -77.0211145}, {"rental_uris": {"android": "https://dc.lft.to/lastmile_qr_scan", "ios": "https://dc.lft.to/lastmile_qr_scan"}, "fusion_lat": 0.0, "is_reserved": 0, "lat": 38.918901, "name": "3537bfe3f226af07438ff1cc4fb285d8", "bike_id": "3537bfe3f226af07438ff1cc4fb285d8", "is_disabled": 0, "fusion_lon": 0.0, "type": "electric_scooter", "lon": -77.03498633333334}, {"rental_uris": {"android": "https://dc.lft.to/lastmile_qr_scan", "ios": "https://dc.lft.to/lastmile_qr_scan"}, "fusion_lat": 0.0, "is_reserved": 0, "lat": 38.894455, "name": "8e6592b4fab6d692551d04402fc1f7cb", "bike_id": "8e6592b4fab6d692551d04402fc1f7cb", "is_disabled": 0, "fusion_lon": 0.0, "type": "electric_scooter", "lon": -77.04535883333334}, {"rental_uris": {"android": "https://dc.lft.to/lastmile_qr_scan", "ios": "https://dc.lft.to/lastmile_qr_scan"}, "fusion_lat": 0.0, "is_reserved": 0, "lat": 38.92126016666667, "name": "ad07e93e567baa2b4601e97452ca7463", "bike_id": "ad07e93e567baa2b4601e97452ca7463", "is_disabled": 0, "fusion_lon": 0.0, "type": "electric_scooter", "lon": -77.044326}, {"rental_uris": {"android": "https://dc.lft.to/lastmile_qr_scan", "ios": "https://dc.lft.to/lastmile_qr_scan"}, "fusion_lat": 0.0, "is_reserved": 0, "lat": 38.90600666666667, "name": "faee86fb979900cad95d9b036efc34cf", "bike_id": "faee86fb979900cad95d9b036efc34cf", "is_disabled": 0, "fusion_lon": 0.0, "type": "electric_scooter", "lon": -77.02695966666667}, {"rental_uris": {"android": "https://dc.lft.to/lastmile_qr_scan", "ios": "https://dc.lft.to/lastmile_qr_scan"}, "fusion_lat": 0.0, "is_reserved": 0, "lat": 38.899685833333336, "name": "2c212e853c2379d52e99c8606fe644f5", "bike_id": "2c212e853c2379d52e99c8606fe644f5", "is_disabled": 0, "fusion_lon": 0.0, "type": "electric_scooter", "lon": -76.93853683333333}, {"rental_uris": {"android": "https://dc.lft.to/lastmile_qr_scan", "ios": "https://dc.lft.to/lastmile_qr_scan"}, "fusion_lat": 0.0, "is_reserved": 0, "lat": 38.93537283333333, "name": "2670733048837874be16c07711009ace", "bike_id": "2670733048837874be16c07711009ace", "is_disabled": 0, "fusion_lon": 0.0, "type": "electric_scooter", "lon": -77.07273833333333}, {"rental_uris": {"android": "https://dc.lft.to/lastmile_qr_scan", "ios": "https://dc.lft.to/lastmile_qr_scan"}, "fusion_lat": 0.0, "is_reserved": 0, "lat": 38.915526666666665, "name": "cbdf48a2435b13283cd1dccbf290d3da", "bike_id": "cbdf48a2435b13283cd1dccbf290d3da", "is_disabled": 0, "fusion_lon": 0.0, "type": "electric_scooter", "lon": -77.02098166666667}, {"rental_uris": {"android": "https://dc.lft.to/lastmile_qr_scan", "ios": "https://dc.lft.to/lastmile_qr_scan"}, "fusion_lat": 0.0, "is_reserved": 0, "lat": 38.930201833333335, "name": "30ba84c5034e6fe08dd5f250fd565e73", "bike_id": "30ba84c5034e6fe08dd5f250fd565e73", "is_disabled": 0, "fusion_lon": 0.0, "type": "electric_scooter", "lon": -77.03660666666667}, {"rental_uris": {"android": "https://dc.lft.to/lastmile_qr_scan", "ios": "https://dc.lft.to/lastmile_qr_scan"}, "fusion_lat": 0.0, "is_reserved": 0, "lat": 38.92264333333333, "name": "26fe69b2384499682e38831c937e337d", "bike_id": "26fe69b2384499682e38831c937e337d", "is_disabled": 0, "fusion_lon": 0.0, "type": "electric_scooter", "lon": -77.04694666666667}, {"rental_uris": {"android": "https://dc.lft.to/lastmile_qr_scan", "ios": "https://dc.lft.to/lastmile_qr_scan"}, "fusion_lat": 0.0, "is_reserved": 0, "lat": 38.878561166666664, "name": "fe64d440d8d0702ef6a1e9160368a899", "bike_id": "fe64d440d8d0702ef6a1e9160368a899", "is_disabled": 0, "fusion_lon": 0.0, "type": "electric_scooter", "lon": -76.9875555}, {"rental_uris": {"android": "https://dc.lft.to/lastmile_qr_scan", "ios": "https://dc.lft.to/lastmile_qr_scan"}, "fusion_lat": 0.0, "is_reserved": 0, "lat": 38.900174166666666, "name": "161b95a389811b83c834a66c3266f57d", "bike_id": "161b95a389811b83c834a66c3266f57d", "is_disabled": 0, "fusion_lon": 0.0, "type": "electric_scooter", "lon": -77.04653933333333}, {"rental_uris": {"android": "https://dc.lft.to/lastmile_qr_scan", "ios": "https://dc.lft.to/lastmile_qr_scan"}, "fusion_lat": 0.0, "is_reserved": 0, "lat": 38.9148645, "name": "26c6356af16a31445999c8d03a1d3e49", "bike_id": "26c6356af16a31445999c8d03a1d3e49", "is_disabled": 0, "fusion_lon": 0.0, "type": "electric_scooter", "lon": -77.0184065}, {"rental_uris": {"android": "https://dc.lft.to/lastmile_qr_scan", "ios": "https://dc.lft.to/lastmile_qr_scan"}, "fusion_lat": 0.0, "is_reserved": 0, "lat": 38.917078333333336, "name": "73839a643c6672d2ad54faed429ed894", "bike_id": "73839a643c6672d2ad54faed429ed894", "is_disabled": 0, "fusion_lon": 0.0, "type": "electric_scooter", "lon": -77.02885033333334}, {"rental_uris": {"android": "https://dc.lft.to/lastmile_qr_scan", "ios": "https://dc.lft.to/lastmile_qr_scan"}, "fusion_lat": 0.0, "is_reserved": 0, "lat": 38.883753166666665, "name": "88d236f62533e288475435643f9bb99d", "bike_id": "88d236f62533e288475435643f9bb99d", "is_disabled": 0, "fusion_lon": 0.0, "type": "electric_scooter", "lon": -76.92421066666667}, {"rental_uris": {"android": "https://dc.lft.to/lastmile_qr_scan", "ios": "https://dc.lft.to/lastmile_qr_scan"}, "fusion_lat": 0.0, "is_reserved": 0, "lat": 38.917171333333336, "name": "613c0e9f2ff3032cccd4b4cbc73a05b2", "bike_id": "613c0e9f2ff3032cccd4b4cbc73a05b2", "is_disabled": 0, "fusion_lon": 0.0, "type": "electric_scooter", "lon": -77.02994433333333}, {"rental_uris": {"android": "https://dc.lft.to/lastmile_qr_scan", "ios": "https://dc.lft.to/lastmile_qr_scan"}, "fusion_lat": 0.0, "is_reserved": 0, "lat": 38.90566366666667, "name": "0f6601cebf3cc76c61c11890af749b81", "bike_id": "0f6601cebf3cc76c61c11890af749b81", "is_disabled": 0, "fusion_lon": 0.0, "type": "electric_scooter", "lon": -76.9821235}, {"rental_uris": {"android": "https://dc.lft.to/lastmile_qr_scan", "ios": "https://dc.lft.to/lastmile_qr_scan"}, "fusion_lat": 0.0, "is_reserved": 0, "lat": 38.90717516666667, "name": "9869ec18972d97e187ceb713eb390df8", "bike_id": "9869ec18972d97e187ceb713eb390df8", "is_disabled": 0, "fusion_lon": 0.0, "type": "electric_scooter", "lon": -77.00196633333333}, {"rental_uris": {"android": "https://dc.lft.to/lastmile_qr_scan", "ios": "https://dc.lft.to/lastmile_qr_scan"}, "fusion_lat": 0.0, "is_reserved": 0, "lat": 38.93401033333333, "name": "8416b08006127c44379f9686ad91fe4e", "bike_id": "8416b08006127c44379f9686ad91fe4e", "is_disabled": 0, "fusion_lon": 0.0, "type": "electric_scooter", "lon": -77.02224366666667}, {"rental_uris": {"android": "https://dc.lft.to/lastmile_qr_scan", "ios": "https://dc.lft.to/lastmile_qr_scan"}, "fusion_lat": 0.0, "is_reserved": 0, "lat": 38.887071666666664, "name": "50d129b26ad6f1ff618c4d16a8270c36", "bike_id": "50d129b26ad6f1ff618c4d16a8270c36", "is_disabled": 0, "fusion_lon": 0.0, "type": "electric_scooter", "lon": -77.013658}, {"rental_uris": {"android": "https://dc.lft.to/lastmile_qr_scan", "ios": "https://dc.lft.to/lastmile_qr_scan"}, "fusion_lat": 0.0, "is_reserved": 0, "lat": 38.92181716666666, "name": "ce7576d1a6e83e09e473ef80d7bdc914", "bike_id": "ce7576d1a6e83e09e473ef80d7bdc914", "is_disabled": 0, "fusion_lon": 0.0, "type": "electric_scooter", "lon": -77.04228016666667}, {"rental_uris": {"android": "https://dc.lft.to/lastmile_qr_scan", "ios": "https://dc.lft.to/lastmile_qr_scan"}, "fusion_lat": 0.0, "is_reserved": 0, "lat": 38.897979166666666, "name": "92d11f8ffb3545ac92b6cf3908bc331e", "bike_id": "92d11f8ffb3545ac92b6cf3908bc331e", "is_disabled": 0, "fusion_lon": 0.0, "type": "electric_scooter", "lon": -77.011906}, {"rental_uris": {"android": "https://dc.lft.to/lastmile_qr_scan", "ios": "https://dc.lft.to/lastmile_qr_scan"}, "fusion_lat": 0.0, "is_reserved": 0, "lat": 38.840526833333335, "name": "6429fbe965515e6cbe1fcdc1c122be1c", "bike_id": "6429fbe965515e6cbe1fcdc1c122be1c", "is_disabled": 0, "fusion_lon": 0.0, "type": "electric_bike", "lon": -76.97624466666667}, {"rental_uris": {"android": "https://dc.lft.to/lastmile_qr_scan", "ios": "https://dc.lft.to/lastmile_qr_scan"}, "fusion_lat": 0.0, "is_reserved": 0, "lat": 38.91421416666667, "name": "63840e72d4f8eed98931ecf09da1b6b5", "bike_id": "63840e72d4f8eed98931ecf09da1b6b5", "is_disabled": 0, "fusion_lon": 0.0, "type": "electric_scooter", "lon": -77.0190955}, {"rental_uris": {"android": "https://dc.lft.to/lastmile_qr_scan", "ios": "https://dc.lft.to/lastmile_qr_scan"}, "fusion_lat": 0.0, "is_reserved": 0, "lat": 38.902707, "name": "7726d0cbe9f7f9bae8ee05bd13df2991", "bike_id": "7726d0cbe9f7f9bae8ee05bd13df2991", "is_disabled": 0, "fusion_lon": 0.0, "type": "electric_scooter", "lon": -77.0385915}, {"rental_uris": {"android": "https://dc.lft.to/lastmile_qr_scan", "ios": "https://dc.lft.to/lastmile_qr_scan"}, "fusion_lat": 0.0, "is_reserved": 0, "lat": 38.884894333333335, "name": "2022e847ee4b919488161e0a86ad2bb4", "bike_id": "2022e847ee4b919488161e0a86ad2bb4", "is_disabled": 0, "fusion_lon": 0.0, "type": "electric_scooter", "lon": -77.015351}, {"rental_uris": {"android": "https://dc.lft.to/lastmile_qr_scan", "ios": "https://dc.lft.to/lastmile_qr_scan"}, "fusion_lat": 0.0, "is_reserved": 0, "lat": 38.913268, "name": "7295d1748d5df5116537c76751a8adcc", "bike_id": "7295d1748d5df5116537c76751a8adcc", "is_disabled": 0, "fusion_lon": 0.0, "type": "electric_scooter", "lon": -77.01670833333333}, {"rental_uris": {"android": "https://dc.lft.to/lastmile_qr_scan", "ios": "https://dc.lft.to/lastmile_qr_scan"}, "fusion_lat": 0.0, "is_reserved": 0, "lat": 38.898041, "name": "f8f08f2969beeeb8a849687bf37c1350", "bike_id": "f8f08f2969beeeb8a849687bf37c1350", "is_disabled": 0, "fusion_lon": 0.0, "type": "electric_scooter", "lon": -77.01902183333333}, {"rental_uris": {"android": "https://dc.lft.to/lastmile_qr_scan", "ios": "https://dc.lft.to/lastmile_qr_scan"}, "fusion_lat": 0.0, "is_reserved": 0, "lat": 38.928027666666665, "name": "fcc752b9c160cd59cd0b17c45ba77917", "bike_id": "fcc752b9c160cd59cd0b17c45ba77917", "is_disabled": 0, "fusion_lon": 0.0, "type": "electric_scooter", "lon": -77.02601216666666}, {"rental_uris": {"android": "https://dc.lft.to/lastmile_qr_scan", "ios": "https://dc.lft.to/lastmile_qr_scan"}, "fusion_lat": 0.0, "is_reserved": 0, "lat": 38.93531616666667, "name": "15cbc1c9cb18ce687c08e31ca3aa5aa5", "bike_id": "15cbc1c9cb18ce687c08e31ca3aa5aa5", "is_disabled": 0, "fusion_lon": 0.0, "type": "electric_scooter", "lon": -77.02343733333333}, {"rental_uris": {"android": "https://dc.lft.to/lastmile_qr_scan", "ios": "https://dc.lft.to/lastmile_qr_scan"}, "fusion_lat": 0.0, "is_reserved": 0, "lat": 38.783979, "name": "10ca395a6c561aae20866a9d7a2bfe1d", "bike_id": "10ca395a6c561aae20866a9d7a2bfe1d", "is_disabled": 0, "fusion_lon": 0.0, "type": "electric_bike", "lon": -77.12062483333334}, {"rental_uris": {"android": "https://dc.lft.to/lastmile_qr_scan", "ios": "https://dc.lft.to/lastmile_qr_scan"}, "fusion_lat": 0.0, "is_reserved": 0, "lat": 38.90091533333333, "name": "ed545c3255924cf03d3ae597423a5016", "bike_id": "ed545c3255924cf03d3ae597423a5016", "is_disabled": 0, "fusion_lon": 0.0, "type": "electric_scooter", "lon": -77.01861716666667}, {"rental_uris": {"android": "https://dc.lft.to/lastmile_qr_scan", "ios": "https://dc.lft.to/lastmile_qr_scan"}, "fusion_lat": 0.0, "is_reserved": 0, "lat": 38.883252, "name": "f27d24905b0f30b10f16b1d366b9cb24", "bike_id": "f27d24905b0f30b10f16b1d366b9cb24", "is_disabled": 0, "fusion_lon": 0.0, "type": "electric_scooter", "lon": -77.00957283333334}, {"rental_uris": {"android": "https://dc.lft.to/lastmile_qr_scan", "ios": "https://dc.lft.to/lastmile_qr_scan"}, "fusion_lat": 0.0, "is_reserved": 0, "lat": 38.9192685, "name": "82e26c802254a29cc90e1fc09f8eda8b", "bike_id": "82e26c802254a29cc90e1fc09f8eda8b", "is_disabled": 0, "fusion_lon": 0.0, "type": "electric_scooter", "lon": -77.03418433333333}, {"rental_uris": {"android": "https://dc.lft.to/lastmile_qr_scan", "ios": "https://dc.lft.to/lastmile_qr_scan"}, "fusion_lat": 0.0, "is_reserved": 0, "lat": 38.92789116666667, "name": "bd78ba7d85dca98dd7b99292d7ccd0c9", "bike_id": "bd78ba7d85dca98dd7b99292d7ccd0c9", "is_disabled": 0, "fusion_lon": 0.0, "type": "electric_scooter", "lon": -77.031503}, {"rental_uris": {"android": "https://dc.lft.to/lastmile_qr_scan", "ios": "https://dc.lft.to/lastmile_qr_scan"}, "fusion_lat": 0.0, "is_reserved": 0, "lat": 38.885049, "name": "2ef48136a47df86848f85351647b47f7", "bike_id": "2ef48136a47df86848f85351647b47f7", "is_disabled": 0, "fusion_lon": 0.0, "type": "electric_bike", "lon": -76.95669183333334}, {"rental_uris": {"android": "https://dc.lft.to/lastmile_qr_scan", "ios": "https://dc.lft.to/lastmile_qr_scan"}, "fusion_lat": 0.0, "is_reserved": 0, "lat": 38.906941833333335, "name": "58d13a0065d63078e9d82d3f124c58aa", "bike_id": "58d13a0065d63078e9d82d3f124c58aa", "is_disabled": 0, "fusion_lon": 0.0, "type": "electric_scooter", "lon": -77.0239675}, {"rental_uris": {"android": "https://dc.lft.to/lastmile_qr_scan", "ios": "https://dc.lft.to/lastmile_qr_scan"}, "fusion_lat": 0.0, "is_reserved": 0, "lat": 38.90905466666667, "name": "0bc232414af16c5743ea9f18e1ae65d5", "bike_id": "0bc232414af16c5743ea9f18e1ae65d5", "is_disabled": 0, "fusion_lon": 0.0, "type": "electric_scooter", "lon": -76.983962}, {"rental_uris": {"android": "https://dc.lft.to/lastmile_qr_scan", "ios": "https://dc.lft.to/lastmile_qr_scan"}, "fusion_lat": 0.0, "is_reserved": 0, "lat": 38.886246666666665, "name": "cf8a5b472841daef9895bd1cc5e8f62c", "bike_id": "cf8a5b472841daef9895bd1cc5e8f62c", "is_disabled": 0, "fusion_lon": 0.0, "type": "electric_scooter", "lon": -77.0317105}, {"rental_uris": {"android": "https://dc.lft.to/lastmile_qr_scan", "ios": "https://dc.lft.to/lastmile_qr_scan"}, "fusion_lat": 0.0, "is_reserved": 0, "lat": 38.936286333333335, "name": "33e8cf91a90a79ca45abb16010dbf57d", "bike_id": "33e8cf91a90a79ca45abb16010dbf57d", "is_disabled": 0, "fusion_lon": 0.0, "type": "electric_scooter", "lon": -77.05908683333334}, {"rental_uris": {"android": "https://dc.lft.to/lastmile_qr_scan", "ios": "https://dc.lft.to/lastmile_qr_scan"}, "fusion_lat": 0.0, "is_reserved": 0, "lat": 38.900113833333336, "name": "8c30af32c1b9f1af7ec414086f83b664", "bike_id": "8c30af32c1b9f1af7ec414086f83b664", "is_disabled": 0, "fusion_lon": 0.0, "type": "electric_scooter", "lon": -77.00710933333333}, {"rental_uris": {"android": "https://dc.lft.to/lastmile_qr_scan", "ios": "https://dc.lft.to/lastmile_qr_scan"}, "fusion_lat": 0.0, "is_reserved": 0, "lat": 38.90092883333333, "name": "f8c040c79fc7c58117b29c0558652898", "bike_id": "f8c040c79fc7c58117b29c0558652898", "is_disabled": 0, "fusion_lon": 0.0, "type": "electric_scooter", "lon": -77.0186175}, {"rental_uris": {"android": "https://dc.lft.to/lastmile_qr_scan", "ios": "https://dc.lft.to/lastmile_qr_scan"}, "fusion_lat": 0.0, "is_reserved": 0, "lat": 38.900227666666666, "name": "536adb6260f1b3ba609dcc20a7f30de1", "bike_id": "536adb6260f1b3ba609dcc20a7f30de1", "is_disabled": 0, "fusion_lon": 0.0, "type": "electric_scooter", "lon": -77.0447115}, {"rental_uris": {"android": "https://dc.lft.to/lastmile_qr_scan", "ios": "https://dc.lft.to/lastmile_qr_scan"}, "fusion_lat": 0.0, "is_reserved": 0, "lat": 38.90593833333333, "name": "02986a0e60f317a8c9d772faf1f38778", "bike_id": "02986a0e60f317a8c9d772faf1f38778", "is_disabled": 0, "fusion_lon": 0.0, "type": "electric_scooter", "lon": -77.0423075}, {"rental_uris": {"android": "https://dc.lft.to/lastmile_qr_scan", "ios": "https://dc.lft.to/lastmile_qr_scan"}, "fusion_lat": 0.0, "is_reserved": 0, "lat": 38.88532, "name": "75e42b8434ea1454c2f833945b533521", "bike_id": "75e42b8434ea1454c2f833945b533521", "is_disabled": 0, "fusion_lon": 0.0, "type": "electric_scooter", "lon": -77.02173}, {"rental_uris": {"android": "https://dc.lft.to/lastmile_qr_scan", "ios": "https://dc.lft.to/lastmile_qr_scan"}, "fusion_lat": 0.0, "is_reserved": 0, "lat": 38.89731466666667, "name": "7e58bab788e3e5b14ef95f7b04b89d7e", "bike_id": "7e58bab788e3e5b14ef95f7b04b89d7e", "is_disabled": 0, "fusion_lon": 0.0, "type": "electric_bike", "lon": -77.022373}, {"rental_uris": {"android": "https://dc.lft.to/lastmile_qr_scan", "ios": "https://dc.lft.to/lastmile_qr_scan"}, "fusion_lat": 0.0, "is_reserved": 0, "lat": 38.874893666666665, "name": "12af63fbd10bf1671ae55f464c250782", "bike_id": "12af63fbd10bf1671ae55f464c250782", "is_disabled": 0, "fusion_lon": 0.0, "type": "electric_scooter", "lon": -76.99979816666666}, {"rental_uris": {"android": "https://dc.lft.to/lastmile_qr_scan", "ios": "https://dc.lft.to/lastmile_qr_scan"}, "fusion_lat": 0.0, "is_reserved": 0, "lat": 38.9043295, "name": "683dffd260b12b69d0ddd3f0605de067", "bike_id": "683dffd260b12b69d0ddd3f0605de067", "is_disabled": 0, "fusion_lon": 0.0, "type": "electric_scooter", "lon": -77.02590983333333}, {"rental_uris": {"android": "https://dc.lft.to/lastmile_qr_scan", "ios": "https://dc.lft.to/lastmile_qr_scan"}, "fusion_lat": 0.0, "is_reserved": 0, "lat": 38.909168333333334, "name": "d0c546401911857b8f666ee0aa3336b5", "bike_id": "d0c546401911857b8f666ee0aa3336b5", "is_disabled": 0, "fusion_lon": 0.0, "type": "electric_scooter", "lon": -77.03100566666667}, {"rental_uris": {"android": "https://dc.lft.to/lastmile_qr_scan", "ios": "https://dc.lft.to/lastmile_qr_scan"}, "fusion_lat": 0.0, "is_reserved": 0, "lat": 38.934572833333334, "name": "83be3d62e03d538e50386e5e87bc4468", "bike_id": "83be3d62e03d538e50386e5e87bc4468", "is_disabled": 0, "fusion_lon": 0.0, "type": "electric_scooter", "lon": -77.02738183333334}, {"rental_uris": {"android": "https://dc.lft.to/lastmile_qr_scan", "ios": "https://dc.lft.to/lastmile_qr_scan"}, "fusion_lat": 0.0, "is_reserved": 0, "lat": 38.89911333333333, "name": "dad4c6d09ac2b684abfcc9976f6dcfde", "bike_id": "dad4c6d09ac2b684abfcc9976f6dcfde", "is_disabled": 0, "fusion_lon": 0.0, "type": "electric_scooter", "lon": -76.93371766666667}, {"rental_uris": {"android": "https://dc.lft.to/lastmile_qr_scan", "ios": "https://dc.lft.to/lastmile_qr_scan"}, "fusion_lat": 0.0, "is_reserved": 0, "lat": 38.922444166666665, "name": "d11400002c28054dbabbc7f5527a373e", "bike_id": "d11400002c28054dbabbc7f5527a373e", "is_disabled": 0, "fusion_lon": 0.0, "type": "electric_scooter", "lon": -77.036719}, {"rental_uris": {"android": "https://dc.lft.to/lastmile_qr_scan", "ios": "https://dc.lft.to/lastmile_qr_scan"}, "fusion_lat": 0.0, "is_reserved": 0, "lat": 38.913273333333336, "name": "a63ce83bfa8cbffbd0a9055859fee571", "bike_id": "a63ce83bfa8cbffbd0a9055859fee571", "is_disabled": 0, "fusion_lon": 0.0, "type": "electric_scooter", "lon": -77.04727533333333}, {"rental_uris": {"android": "https://dc.lft.to/lastmile_qr_scan", "ios": "https://dc.lft.to/lastmile_qr_scan"}, "fusion_lat": 0.0, "is_reserved": 0, "lat": 38.929294166666665, "name": "cfa51c65381ac6a30e337866054636b9", "bike_id": "cfa51c65381ac6a30e337866054636b9", "is_disabled": 0, "fusion_lon": 0.0, "type": "electric_scooter", "lon": -77.029647}, {"rental_uris": {"android": "https://dc.lft.to/lastmile_qr_scan", "ios": "https://dc.lft.to/lastmile_qr_scan"},