{"data": {"bikes": [{"is_reserved": 0, "is_disabled": 0, "lon": -77.03852066666667, "lat": 38.931322, "fusion_lat": 0.0, "name": "5c8ad5bb4d2e839787c66970daf1af9a", "bike_id": "5c8ad5bb4d2e839787c66970daf1af9a", "type": "electric_scooter", "rental_uris": {"android": "https://dc.lft.to/lastmile_qr_scan", "ios": "https://dc.lft.to/lastmile_qr_scan"}, "fusion_lon": 0.0}, {"is_reserved": 0, "is_disabled": 0, "lon": -77.00469316666667, "lat": 38.91067666666667, "fusion_lat": 0.0, "name": "b6fd56d4fe0c3db2c011b501d51cf000", "bike_id": "b6fd56d4fe0c3db2c011b501d51cf000", "type": "electric_scooter", "rental_uris": {"android": "https://dc.lft.to/lastmile_qr_scan", "ios": "https://dc.lft.to/lastmile_qr_scan"}, "fusion_lon": 0.0}, {"is_reserved": 0, "is_disabled": 0, "lon": -77.003356, "lat": 38.89351766666667, "fusion_lat": 0.0, "name": "4726f4892545c3d1c59196c0cd2e7aa9", "bike_id": "4726f4892545c3d1c59196c0cd2e7aa9", "type": "electric_scooter", "rental_uris": {"android": "https://dc.lft.to/lastmile_qr_scan", "ios": "https://dc.lft.to/lastmile_qr_scan"}, "fusion_lon": 0.0}, {"is_reserved": 0, "is_disabled": 0, "lon": -77.03863866666667, "lat": 38.9014265, "fusion_lat": 0.0, "name": "7e6d8351a66412290ac866c93b41e601", "bike_id": "7e6d8351a66412290ac866c93b41e601", "type": "electric_scooter", "rental_uris": {"android": "https://dc.lft.to/lastmile_qr_scan", "ios": "https://dc.lft.to/lastmile_qr_scan"}, "fusion_lon": 0.0}, {"is_reserved": 0, "is_disabled": 0, "lon": -77.03251216666666, "lat": 38.90249416666666, "fusion_lat": 0.0, "name": "ba7c7fb098c309feebee78b5c98ed927", "bike_id": "ba7c7fb098c309feebee78b5c98ed927", "type": "electric_scooter", "rental_uris": {"android": "https://dc.lft.to/lastmile_qr_scan", "ios": "https://dc.lft.to/lastmile_qr_scan"}, "fusion_lon": 0.0}, {"is_reserved": 0, "is_disabled": 0, "lon": -77.05028866666666, "lat": 38.8925885, "fusion_lat": 0.0, "name": "7cf4d48358927ecbdc794e5defffe106", "bike_id": "7cf4d48358927ecbdc794e5defffe106", "type": "electric_scooter", "rental_uris": {"android": "https://dc.lft.to/lastmile_qr_scan", "ios": "https://dc.lft.to/lastmile_qr_scan"}, "fusion_lon": 0.0}, {"is_reserved": 0, "is_disabled": 0, "lon": -77.0195795, "lat": 38.92316116666667, "fusion_lat": 0.0, "name": "5d5557a7f714d2b18e9746badd84461c", "bike_id": "5d5557a7f714d2b18e9746badd84461c", "type": "electric_scooter", "rental_uris": {"android": "https://dc.lft.to/lastmile_qr_scan", "ios": "https://dc.lft.to/lastmile_qr_scan"}, "fusion_lon": 0.0}, {"is_reserved": 0, "is_disabled": 0, "lon": -77.03208283333333, "lat": 38.90172483333333, "fusion_lat": 0.0, "name": "1f36d58fa6a99f5569bfa0d77d455187", "bike_id": "1f36d58fa6a99f5569bfa0d77d455187", "type": "electric_scooter", "rental_uris": {"android": "https://dc.lft.to/lastmile_qr_scan", "ios": "https://dc.lft.to/lastmile_qr_scan"}, "fusion_lon": 0.0}, {"is_reserved": 0, "is_disabled": 0, "lon": -77.02135033333333, "lat": 38.93654816666667, "fusion_lat": 0.0, "name": "9ff119efc99769508ac6b1ee366ada9d", "bike_id": "9ff119efc99769508ac6b1ee366ada9d", "type": "electric_scooter", "rental_uris": {"android": "https://dc.lft.to/lastmile_qr_scan", "ios": "https://dc.lft.to/lastmile_qr_scan"}, "fusion_lon": 0.0}, {"is_reserved": 0, "is_disabled": 0, "lon": -77.03555216666666, "lat": 38.9274705, "fusion_lat": 0.0, "name": "6f58f4a29d6728a8004c54592bd53f2f", "bike_id": "6f58f4a29d6728a8004c54592bd53f2f", "type": "electric_scooter", "rental_uris": {"android": "https://dc.lft.to/lastmile_qr_scan", "ios": "https://dc.lft.to/lastmile_qr_scan"}, "fusion_lon": 0.0}, {"is_reserved": 0, "is_disabled": 0, "lon": -77.02533883333334, "lat": 38.918171666666666, "fusion_lat": 0.0, "name": "d52fa0c4e9ce0be55b153a3d0708c464", "bike_id": "d52fa0c4e9ce0be55b153a3d0708c464", "type": "electric_scooter", "rental_uris": {"android": "https://dc.lft.to/lastmile_qr_scan", "ios": "https://dc.lft.to/lastmile_qr_scan"}, "fusion_lon": 0.0}, {"is_reserved": 0, "is_disabled": 0, "lon": -77.061241, "lat": 38.90206, "fusion_lat": 0.0, "name": "0ffeb654a3feccc7642e3a179e9add97", "bike_id": "0ffeb654a3feccc7642e3a179e9add97", "type": "electric_scooter", "rental_uris": {"android": "https://dc.lft.to/lastmile_qr_scan", "ios": "https://dc.lft.to/lastmile_qr_scan"}, "fusion_lon": 0.0}, {"is_reserved": 0, "is_disabled": 0, "lon": -77.05705083333334, "lat": 38.9054285, "fusion_lat": 0.0, "name": "166c4ab80e44bb2692dbda7131b699c7", "bike_id": "166c4ab80e44bb2692dbda7131b699c7", "type": "electric_scooter", "rental_uris": {"android": "https://dc.lft.to/lastmile_qr_scan", "ios": "https://dc.lft.to/lastmile_qr_scan"}, "fusion_lon": 0.0}, {"is_reserved": 0, "is_disabled": 0, "lon": -76.93210366666666, "lat": 38.89848883333333, "fusion_lat": 0.0, "name": "d572b64d2e26a6677c71f4a67a7fe2ed", "bike_id": "d572b64d2e26a6677c71f4a67a7fe2ed", "type": "electric_scooter", "rental_uris": {"android": "https://dc.lft.to/lastmile_qr_scan", "ios": "https://dc.lft.to/lastmile_qr_scan"}, "fusion_lon": 0.0}, {"is_reserved": 0, "is_disabled": 0, "lon": -76.990774, "lat": 38.855641166666665, "fusion_lat": 0.0, "name": "99bbb0867615602b86a36743613c4a1d", "bike_id": "99bbb0867615602b86a36743613c4a1d", "type": "electric_scooter", "rental_uris": {"android": "https://dc.lft.to/lastmile_qr_scan", "ios": "https://dc.lft.to/lastmile_qr_scan"}, "fusion_lon": 0.0}, {"is_reserved": 0, "is_disabled": 0, "lon": -77.02598383333333, "lat": 38.920882666666664, "fusion_lat": 0.0, "name": "77cd291281e823f78e1187c4b11b340c", "bike_id": "77cd291281e823f78e1187c4b11b340c", "type": "electric_scooter", "rental_uris": {"android": "https://dc.lft.to/lastmile_qr_scan", "ios": "https://dc.lft.to/lastmile_qr_scan"}, "fusion_lon": 0.0}, {"is_reserved": 0, "is_disabled": 0, "lon": -77.02058616666666, "lat": 38.8936445, "fusion_lat": 0.0, "name": "46b73faace43b189aec5b1a6d8c4209f", "bike_id": "46b73faace43b189aec5b1a6d8c4209f", "type": "electric_scooter", "rental_uris": {"android": "https://dc.lft.to/lastmile_qr_scan", "ios": "https://dc.lft.to/lastmile_qr_scan"}, "fusion_lon": 0.0}, {"is_reserved": 0, "is_disabled": 0, "lon": -77.01534633333333, "lat": 38.92682333333333, "fusion_lat": 0.0, "name": "75ddaa38959a5a20f5d8c07c9ce79103", "bike_id": "75ddaa38959a5a20f5d8c07c9ce79103", "type": "electric_scooter", "rental_uris": {"android": "https://dc.lft.to/lastmile_qr_scan", "ios": "https://dc.lft.to/lastmile_qr_scan"}, "fusion_lon": 0.0}, {"is_reserved": 0, "is_disabled": 0, "lon": -77.02101216666667, "lat": 38.931149, "fusion_lat": 0.0, "name": "fe77c7e1d27b9cd9204b100881587915", "bike_id": "fe77c7e1d27b9cd9204b100881587915", "type": "electric_scooter", "rental_uris": {"android": "https://dc.lft.to/lastmile_qr_scan", "ios": "https://dc.lft.to/lastmile_qr_scan"}, "fusion_lon": 0.0}, {"is_reserved": 0, "is_disabled": 0, "lon": -76.93328216666667, "lat": 38.882445, "fusion_lat": 0.0, "name": "9f0affa783d2dfd54a5582322c785418", "bike_id": "9f0affa783d2dfd54a5582322c785418", "type": "electric_scooter", "rental_uris": {"android": "https://dc.lft.to/lastmile_qr_scan", "ios": "https://dc.lft.to/lastmile_qr_scan"}, "fusion_lon": 0.0}, {"is_reserved": 0, "is_disabled": 0, "lon": -77.04325416666667, "lat": 38.90549383333333, "fusion_lat": 0.0, "name": "d08b42c1e7000636a146dc794675a57f", "bike_id": "d08b42c1e7000636a146dc794675a57f", "type": "electric_scooter", "rental_uris": {"android": "https://dc.lft.to/lastmile_qr_scan", "ios": "https://dc.lft.to/lastmile_qr_scan"}, "fusion_lon": 0.0}, {"is_reserved": 0, "is_disabled": 0, "lon": -77.02606133333333, "lat": 38.90342783333333, "fusion_lat": 0.0, "name": "9ced99165cf807332b01c929196131ec", "bike_id": "9ced99165cf807332b01c929196131ec", "type": "electric_scooter", "rental_uris": {"android": "https://dc.lft.to/lastmile_qr_scan", "ios": "https://dc.lft.to/lastmile_qr_scan"}, "fusion_lon": 0.0}, {"is_reserved": 0, "is_disabled": 0, "lon": -77.02580633333334, "lat": 38.913365666666664, "fusion_lat": 0.0, "name": "7bf41372ab9f74f17a73a1137415bd0f", "bike_id": "7bf41372ab9f74f17a73a1137415bd0f", "type": "electric_scooter", "rental_uris": {"android": "https://dc.lft.to/lastmile_qr_scan", "ios": "https://dc.lft.to/lastmile_qr_scan"}, "fusion_lon": 0.0}, {"is_reserved": 0, "is_disabled": 0, "lon": -77.01094933333333, "lat": 38.89484483333333, "fusion_lat": 0.0, "name": "dfebbd43b354052bd8630d5a0b84e921", "bike_id": "dfebbd43b354052bd8630d5a0b84e921", "type": "electric_scooter", "rental_uris": {"android": "https://dc.lft.to/lastmile_qr_scan", "ios": "https://dc.lft.to/lastmile_qr_scan"}, "fusion_lon": 0.0}, {"is_reserved": 0, "is_disabled": 0, "lon": -77.00389816666667, "lat": 38.99861533333333, "fusion_lat": 0.0, "name": "a79694b10495aa7cb819f65de4ffa60a", "bike_id": "a79694b10495aa7cb819f65de4ffa60a", "type": "electric_bike", "rental_uris": {"android": "https://dc.lft.to/lastmile_qr_scan", "ios": "https://dc.lft.to/lastmile_qr_scan"}, "fusion_lon": 0.0}, {"is_reserved": 0, "is_disabled": 0, "lon": -77.04342833333334, "lat": 38.92495383333333, "fusion_lat": 0.0, "name": "299780eae3e86ccfef2c2bae4b38ce3f", "bike_id": "299780eae3e86ccfef2c2bae4b38ce3f", "type": "electric_scooter", "rental_uris": {"android": "https://dc.lft.to/lastmile_qr_scan", "ios": "https://dc.lft.to/lastmile_qr_scan"}, "fusion_lon": 0.0}, {"is_reserved": 0, "is_disabled": 0, "lon": -77.01265683333334, "lat": 38.9095325, "fusion_lat": 0.0, "name": "f51138e7235e7db5c0b9c0fb4d88aa7f", "bike_id": "f51138e7235e7db5c0b9c0fb4d88aa7f", "type": "electric_scooter", "rental_uris": {"android": "https://dc.lft.to/lastmile_qr_scan", "ios": "https://dc.lft.to/lastmile_qr_scan"}, "fusion_lon": 0.0}, {"is_reserved": 0, "is_disabled": 0, "lon": -77.02538433333334, "lat": 38.89222983333333, "fusion_lat": 0.0, "name": "d7ac68c8f47a0565421ec0247d20b994", "bike_id": "d7ac68c8f47a0565421ec0247d20b994", "type": "electric_scooter", "rental_uris": {"android": "https://dc.lft.to/lastmile_qr_scan", "ios": "https://dc.lft.to/lastmile_qr_scan"}, "fusion_lon": 0.0}, {"is_reserved": 0, "is_disabled": 0, "lon": -77.072465, "lat": 38.9077515, "fusion_lat": 0.0, "name": "a7dce7520e12791a46a90c99edfb34d5", "bike_id": "a7dce7520e12791a46a90c99edfb34d5", "type": "electric_scooter", "rental_uris": {"android": "https://dc.lft.to/lastmile_qr_scan", "ios": "https://dc.lft.to/lastmile_qr_scan"}, "fusion_lon": 0.0}, {"is_reserved": 0, "is_disabled": 0, "lon": -77.02669966666667, "lat": 38.92175316666667, "fusion_lat": 0.0, "name": "9487b27c791c2aa44b7bdf1642be314c", "bike_id": "9487b27c791c2aa44b7bdf1642be314c", "type": "electric_scooter", "rental_uris": {"android": "https://dc.lft.to/lastmile_qr_scan", "ios": "https://dc.lft.to/lastmile_qr_scan"}, "fusion_lon": 0.0}, {"is_reserved": 0, "is_disabled": 0, "lon": -76.98345816666667, "lat": 38.88712533333333, "fusion_lat": 0.0, "name": "5bd80b2b71ef6ab4151eb852d72c1278", "bike_id": "5bd80b2b71ef6ab4151eb852d72c1278", "type": "electric_scooter", "rental_uris": {"android": "https://dc.lft.to/lastmile_qr_scan", "ios": "https://dc.lft.to/lastmile_qr_scan"}, "fusion_lon": 0.0}, {"is_reserved": 0, "is_disabled": 0, "lon": -77.04476816666667, "lat": 38.898376999999996, "fusion_lat": 0.0, "name": "8b9c167aedb511c51b563487b15035b3", "bike_id": "8b9c167aedb511c51b563487b15035b3", "type": "electric_scooter", "rental_uris": {"android": "https://dc.lft.to/lastmile_qr_scan", "ios": "https://dc.lft.to/lastmile_qr_scan"}, "fusion_lon": 0.0}, {"is_reserved": 0, "is_disabled": 0, "lon": -76.99848833333333, "lat": 38.89620683333333, "fusion_lat": 0.0, "name": "cfee97db2c632d5a27c3b6764b664b8e", "bike_id": "cfee97db2c632d5a27c3b6764b664b8e", "type": "electric_scooter", "rental_uris": {"android": "https://dc.lft.to/lastmile_qr_scan", "ios": "https://dc.lft.to/lastmile_qr_scan"}, "fusion_lon": 0.0}, {"is_reserved": 0, "is_disabled": 0, "lon": -77.02287616666666, "lat": 38.9118045, "fusion_lat": 0.0, "name": "50cad63d7a89e4d1747b79752cc51e43", "bike_id": "50cad63d7a89e4d1747b79752cc51e43", "type": "electric_scooter", "rental_uris": {"android": "https://dc.lft.to/lastmile_qr_scan", "ios": "https://dc.lft.to/lastmile_qr_scan"}, "fusion_lon": 0.0}, {"is_reserved": 0, "is_disabled": 0, "lon": -77.04198466666666, "lat": 38.920438, "fusion_lat": 0.0, "name": "032de0c7915ad41f9751531418f0dff6", "bike_id": "032de0c7915ad41f9751531418f0dff6", "type": "electric_scooter", "rental_uris": {"android": "https://dc.lft.to/lastmile_qr_scan", "ios": "https://dc.lft.to/lastmile_qr_scan"}, "fusion_lon": 0.0}, {"is_reserved": 0, "is_disabled": 0, "lon": -77.0200545, "lat": 38.924172166666665, "fusion_lat": 0.0, "name": "e29ac658a47e5475f658152309c7f767", "bike_id": "e29ac658a47e5475f658152309c7f767", "type": "electric_scooter", "rental_uris": {"android": "https://dc.lft.to/lastmile_qr_scan", "ios": "https://dc.lft.to/lastmile_qr_scan"}, "fusion_lon": 0.0}, {"is_reserved": 0, "is_disabled": 0, "lon": -77.03864333333334, "lat": 38.912539, "fusion_lat": 0.0, "name": "54d1749baf61b5121101e642cd6eb049", "bike_id": "54d1749baf61b5121101e642cd6eb049", "type": "electric_scooter", "rental_uris": {"android": "https://dc.lft.to/lastmile_qr_scan", "ios": "https://dc.lft.to/lastmile_qr_scan"}, "fusion_lon": 0.0}, {"is_reserved": 0, "is_disabled": 0, "lon": -77.04334066666667, "lat": 38.9215485, "fusion_lat": 0.0, "name": "ccb3f64b18031e290c6dc36dc2953fa4", "bike_id": "ccb3f64b18031e290c6dc36dc2953fa4", "type": "electric_scooter", "rental_uris": {"android": "https://dc.lft.to/lastmile_qr_scan", "ios": "https://dc.lft.to/lastmile_qr_scan"}, "fusion_lon": 0.0}, {"is_reserved": 0, "is_disabled": 0, "lon": -76.923345, "lat": 38.9102775, "fusion_lat": 0.0, "name": "7ca059407ba5e48629e15bc80a426d36", "bike_id": "7ca059407ba5e48629e15bc80a426d36", "type": "electric_bike", "rental_uris": {"android": "https://dc.lft.to/lastmile_qr_scan", "ios": "https://dc.lft.to/lastmile_qr_scan"}, "fusion_lon": 0.0}, {"is_reserved": 0, "is_disabled": 0, "lon": -77.00656783333334, "lat": 38.94456266666667, "fusion_lat": 0.0, "name": "322849e4390638b2824b09408926096a", "bike_id": "322849e4390638b2824b09408926096a", "type": "electric_scooter", "rental_uris": {"android": "https://dc.lft.to/lastmile_qr_scan", "ios": "https://dc.lft.to/lastmile_qr_scan"}, "fusion_lon": 0.0}, {"is_reserved": 0, "is_disabled": 0, "lon": -77.00128116666667, "lat": 38.8779245, "fusion_lat": 0.0, "name": "754feeed5e29cf9d91cd6f979ac00a85", "bike_id": "754feeed5e29cf9d91cd6f979ac00a85", "type": "electric_scooter", "rental_uris": {"android": "https://dc.lft.to/lastmile_qr_scan", "ios": "https://dc.lft.to/lastmile_qr_scan"}, "fusion_lon": 0.0}, {"is_reserved": 0, "is_disabled": 0, "lon": -77.04641183333334, "lat": 38.92319033333333, "fusion_lat": 0.0, "name": "11e4b588fb274fd1ff76acad66074d58", "bike_id": "11e4b588fb274fd1ff76acad66074d58", "type": "electric_scooter", "rental_uris": {"android": "https://dc.lft.to/lastmile_qr_scan", "ios": "https://dc.lft.to/lastmile_qr_scan"}, "fusion_lon": 0.0}, {"is_reserved": 0, "is_disabled": 0, "lon": -77.0392525, "lat": 38.9192615, "fusion_lat": 0.0, "name": "c09685fec24916b05d3440f8b85cdc51", "bike_id": "c09685fec24916b05d3440f8b85cdc51", "type": "electric_scooter", "rental_uris": {"android": "https://dc.lft.to/lastmile_qr_scan", "ios": "https://dc.lft.to/lastmile_qr_scan"}, "fusion_lon": 0.0}, {"is_reserved": 0, "is_disabled": 0, "lon": -77.02625216666667, "lat": 38.892385, "fusion_lat": 0.0, "name": "37ae537f66ea9593386d8692b0ea6de0", "bike_id": "37ae537f66ea9593386d8692b0ea6de0", "type": "electric_scooter", "rental_uris": {"android": "https://dc.lft.to/lastmile_qr_scan", "ios": "https://dc.lft.to/lastmile_qr_scan"}, "fusion_lon": 0.0}, {"is_reserved": 0, "is_disabled": 0, "lon": -77.04555566666667, "lat": 38.9340345, "fusion_lat": 0.0, "name": "6a6707055dba2986c980ad47c3008ec4", "bike_id": "6a6707055dba2986c980ad47c3008ec4", "type": "electric_scooter", "rental_uris": {"android": "https://dc.lft.to/lastmile_qr_scan", "ios": "https://dc.lft.to/lastmile_qr_scan"}, "fusion_lon": 0.0}, {"is_reserved": 0, "is_disabled": 0, "lon": -76.971394, "lat": 38.913514666666664, "fusion_lat": 0.0, "name": "f705f015219b92423445a153598c4b38", "bike_id": "f705f015219b92423445a153598c4b38", "type": "electric_scooter", "rental_uris": {"android": "https://dc.lft.to/lastmile_qr_scan", "ios": "https://dc.lft.to/lastmile_qr_scan"}, "fusion_lon": 0.0}, {"is_reserved": 0, "is_disabled": 0, "lon": -77.23411266666666, "lat": 38.87576933333333, "fusion_lat": 0.0, "name": "f59cb409e1fcb6a6f331e45750a3e48b", "bike_id": "f59cb409e1fcb6a6f331e45750a3e48b", "type": "electric_bike", "rental_uris": {"android": "https://dc.lft.to/lastmile_qr_scan", "ios": "https://dc.lft.to/lastmile_qr_scan"}, "fusion_lon": 0.0}, {"is_reserved": 0, "is_disabled": 0, "lon": -77.0324395, "lat": 38.92864733333333, "fusion_lat": 0.0, "name": "69a2663b6d0f5a2cae4f7362b6345db7", "bike_id": "69a2663b6d0f5a2cae4f7362b6345db7", "type": "electric_scooter", "rental_uris": {"android": "https://dc.lft.to/lastmile_qr_scan", "ios": "https://dc.lft.to/lastmile_qr_scan"}, "fusion_lon": 0.0}, {"is_reserved": 0, "is_disabled": 0, "lon": -77.00456483333333, "lat": 38.9176035, "fusion_lat": 0.0, "name": "3fc2d7b5d601026b48a3978e6f77ac2c", "bike_id": "3fc2d7b5d601026b48a3978e6f77ac2c", "type": "electric_scooter", "rental_uris": {"android": "https://dc.lft.to/lastmile_qr_scan", "ios": "https://dc.lft.to/lastmile_qr_scan"}, "fusion_lon": 0.0}, {"is_reserved": 0, "is_disabled": 0, "lon": -77.02977383333334, "lat": 38.916766, "fusion_lat": 0.0, "name": "9c976ba01964ed4d781a31525971208b", "bike_id": "9c976ba01964ed4d781a31525971208b", "type": "electric_scooter", "rental_uris": {"android": "https://dc.lft.to/lastmile_qr_scan", "ios": "https://dc.lft.to/lastmile_qr_scan"}, "fusion_lon": 0.0}, {"is_reserved": 0, "is_disabled": 0, "lon": -77.042476, "lat": 38.9243905, "fusion_lat": 0.0, "name": "248e491a74061f790153077fcd3e0a5c", "bike_id": "248e491a74061f790153077fcd3e0a5c", "type": "electric_scooter", "rental_uris": {"android": "https://dc.lft.to/lastmile_qr_scan", "ios": "https://dc.lft.to/lastmile_qr_scan"}, "fusion_lon": 0.0}, {"is_reserved": 0, "is_disabled": 0, "lon": -77.02583766666666, "lat": 38.885047666666665, "fusion_lat": 0.0, "name": "b947dcb4e563bc11f94a1fdc92f804b5", "bike_id": "b947dcb4e563bc11f94a1fdc92f804b5", "type": "electric_scooter", "rental_uris": {"android": "https://dc.lft.to/lastmile_qr_scan", "ios": "https://dc.lft.to/lastmile_qr_scan"}, "fusion_lon": 0.0}, {"is_reserved": 0, "is_disabled": 0, "lon": -76.93925, "lat": 38.89327766666667, "fusion_lat": 0.0, "name": "0fddf826c08d75d04d0fc5e397102bc4", "bike_id": "0fddf826c08d75d04d0fc5e397102bc4", "type": "electric_scooter", "rental_uris": {"android": "https://dc.lft.to/lastmile_qr_scan", "ios": "https://dc.lft.to/lastmile_qr_scan"}, "fusion_lon": 0.0}, {"is_reserved": 0, "is_disabled": 0, "lon": -77.005369, "lat": 38.875437, "fusion_lat": 0.0, "name": "b199445d2474b1367c0ea772f29bc193", "bike_id": "b199445d2474b1367c0ea772f29bc193", "type": "electric_scooter", "rental_uris": {"android": "https://dc.lft.to/lastmile_qr_scan", "ios": "https://dc.lft.to/lastmile_qr_scan"}, "fusion_lon": 0.0}, {"is_reserved": 0, "is_disabled": 0, "lon": -77.00933033333334, "lat": 38.905589, "fusion_lat": 0.0, "name": "1cb23a99bc2f332a1650d73c05446af6", "bike_id": "1cb23a99bc2f332a1650d73c05446af6", "type": "electric_scooter", "rental_uris": {"android": "https://dc.lft.to/lastmile_qr_scan", "ios": "https://dc.lft.to/lastmile_qr_scan"}, "fusion_lon": 0.0}, {"is_reserved": 0, "is_disabled": 0, "lon": -77.01737966666667, "lat": 38.89225316666667, "fusion_lat": 0.0, "name": "55cab055d07659c9f8cc59c9b40d956a", "bike_id": "55cab055d07659c9f8cc59c9b40d956a", "type": "electric_scooter", "rental_uris": {"android": "https://dc.lft.to/lastmile_qr_scan", "ios": "https://dc.lft.to/lastmile_qr_scan"}, "fusion_lon": 0.0}, {"is_reserved": 0, "is_disabled": 0, "lon": -77.02097833333333, "lat": 38.9100895, "fusion_lat": 0.0, "name": "02ac3282a96f892490f3917162ae15a1", "bike_id": "02ac3282a96f892490f3917162ae15a1", "type": "electric_scooter", "rental_uris": {"android": "https://dc.lft.to/lastmile_qr_scan", "ios": "https://dc.lft.to/lastmile_qr_scan"}, "fusion_lon": 0.0}, {"is_reserved": 0, "is_disabled": 0, "lon": -77.0503285, "lat": 38.90095933333333, "fusion_lat": 0.0, "name": "93b163bdcbe6f4e9964278ca2be44a45", "bike_id": "93b163bdcbe6f4e9964278ca2be44a45", "type": "electric_scooter", "rental_uris": {"android": "https://dc.lft.to/lastmile_qr_scan", "ios": "https://dc.lft.to/lastmile_qr_scan"}, "fusion_lon": 0.0}, {"is_reserved": 0, "is_disabled": 0, "lon": -77.003634, "lat": 38.89916783333334, "fusion_lat": 0.0, "name": "309749adb9d5a542cad5a5775fc2a13e", "bike_id": "309749adb9d5a542cad5a5775fc2a13e", "type": "electric_scooter", "rental_uris": {"android": "https://dc.lft.to/lastmile_qr_scan", "ios": "https://dc.lft.to/lastmile_qr_scan"}, "fusion_lon": 0.0}, {"is_reserved": 0, "is_disabled": 0, "lon": -77.090208, "lat": 38.92649266666667, "fusion_lat": 0.0, "name": "71ddbabd50c8b845e509a9e881a5aea5", "bike_id": "71ddbabd50c8b845e509a9e881a5aea5", "type": "electric_bike", "rental_uris": {"android": "https://dc.lft.to/lastmile_qr_scan", "ios": "https://dc.lft.to/lastmile_qr_scan"}, "fusion_lon": 0.0}, {"is_reserved": 0, "is_disabled": 0, "lon": -76.97492333333334, "lat": 38.903446, "fusion_lat": 0.0, "name": "2d684b2d9ebe7a6bfac77dfc77d95b17", "bike_id": "2d684b2d9ebe7a6bfac77dfc77d95b17", "type": "electric_scooter", "rental_uris": {"android": "https://dc.lft.to/lastmile_qr_scan", "ios": "https://dc.lft.to/lastmile_qr_scan"}, "fusion_lon": 0.0}, {"is_reserved": 0, "is_disabled": 0, "lon": -77.03981283333333, "lat": 38.89916566666667, "fusion_lat": 0.0, "name": "efafa5f70841a85b94e08a7b846ad623", "bike_id": "efafa5f70841a85b94e08a7b846ad623", "type": "electric_scooter", "rental_uris": {"android": "https://dc.lft.to/lastmile_qr_scan", "ios": "https://dc.lft.to/lastmile_qr_scan"}, "fusion_lon": 0.0}, {"is_reserved": 0, "is_disabled": 0, "lon": -77.02206466666667, "lat": 38.92466, "fusion_lat": 0.0, "name": "09278dc676a27281576bd7ba8c7a5412", "bike_id": "09278dc676a27281576bd7ba8c7a5412", "type": "electric_scooter", "rental_uris": {"android": "https://dc.lft.to/lastmile_qr_scan", "ios": "https://dc.lft.to/lastmile_qr_scan"}, "fusion_lon": 0.0}, {"is_reserved": 0, "is_disabled": 0, "lon": -77.02813433333333, "lat": 38.92329983333333, "fusion_lat": 0.0, "name": "3edf02d917e939173d56151c89377a7c", "bike_id": "3edf02d917e939173d56151c89377a7c", "type": "electric_scooter", "rental_uris": {"android": "https://dc.lft.to/lastmile_qr_scan", "ios": "https://dc.lft.to/lastmile_qr_scan"}, "fusion_lon": 0.0}, {"is_reserved": 0, "is_disabled": 0, "lon": -77.05339166666667, "lat": 38.904590166666665, "fusion_lat": 0.0, "name": "586b007d5d7ddb0be64dbd7b2b41eac7", "bike_id": "586b007d5d7ddb0be64dbd7b2b41eac7", "type": "electric_scooter", "rental_uris": {"android": "https://dc.lft.to/lastmile_qr_scan", "ios": "https://dc.lft.to/lastmile_qr_scan"}, "fusion_lon": 0.0}, {"is_reserved": 0, "is_disabled": 0, "lon": -77.02195483333334, "lat": 38.91518466666667, "fusion_lat": 0.0, "name": "a9c38898a85eaf2c79b28460ce5f26cf", "bike_id": "a9c38898a85eaf2c79b28460ce5f26cf", "type": "electric_scooter", "rental_uris": {"android": "https://dc.lft.to/lastmile_qr_scan", "ios": "https://dc.lft.to/lastmile_qr_scan"}, "fusion_lon": 0.0}, {"is_reserved": 0, "is_disabled": 0, "lon": -77.00499283333333, "lat": 38.91624, "fusion_lat": 0.0, "name": "12ee787d47397e680afbed71cfdfbfc9", "bike_id": "12ee787d47397e680afbed71cfdfbfc9", "type": "electric_scooter", "rental_uris": {"android": "https://dc.lft.to/lastmile_qr_scan", "ios": "https://dc.lft.to/lastmile_qr_scan"}, "fusion_lon": 0.0}, {"is_reserved": 0, "is_disabled": 0, "lon": -77.01937283333334, "lat": 38.94731266666667, "fusion_lat": 0.0, "name": "bf6a17363afbf008328141c48436034c", "bike_id": "bf6a17363afbf008328141c48436034c", "type": "electric_scooter", "rental_uris": {"android": "https://dc.lft.to/lastmile_qr_scan", "ios": "https://dc.lft.to/lastmile_qr_scan"}, "fusion_lon": 0.0}, {"is_reserved": 0, "is_disabled": 0, "lon": -77.04676183333333, "lat": 38.89854366666667, "fusion_lat": 0.0, "name": "7acd24a7a3cd66ecd3e19da7fc1d0d14", "bike_id": "7acd24a7a3cd66ecd3e19da7fc1d0d14", "type": "electric_scooter", "rental_uris": {"android": "https://dc.lft.to/lastmile_qr_scan", "ios": "https://dc.lft.to/lastmile_qr_scan"}, "fusion_lon": 0.0}, {"is_reserved": 0, "is_disabled": 0, "lon": -77.03866216666667, "lat": 38.917073, "fusion_lat": 0.0, "name": "f7cf4a5017f70afb7b831df16567acf1", "bike_id": "f7cf4a5017f70afb7b831df16567acf1", "type": "electric_scooter", "rental_uris": {"android": "https://dc.lft.to/lastmile_qr_scan", "ios": "https://dc.lft.to/lastmile_qr_scan"}, "fusion_lon": 0.0}, {"is_reserved": 0, "is_disabled": 0, "lon": -77.0320645, "lat": 38.902478333333335, "fusion_lat": 0.0, "name": "0da669b5578b80f6cc7bcef4ca351111", "bike_id": "0da669b5578b80f6cc7bcef4ca351111", "type": "electric_scooter", "rental_uris": {"android": "https://dc.lft.to/lastmile_qr_scan", "ios": "https://dc.lft.to/lastmile_qr_scan"}, "fusion_lon": 0.0}, {"is_reserved": 0, "is_disabled": 0, "lon": -77.017407, "lat": 38.90237783333333, "fusion_lat": 0.0, "name": "599cbac16579ffd5924976ee51a188aa", "bike_id": "599cbac16579ffd5924976ee51a188aa", "type": "electric_scooter", "rental_uris": {"android": "https://dc.lft.to/lastmile_qr_scan", "ios": "https://dc.lft.to/lastmile_qr_scan"}, "fusion_lon": 0.0}, {"is_reserved": 0, "is_disabled": 0, "lon": -77.0269345, "lat": 38.9035615, "fusion_lat": 0.0, "name": "743967c67da98f12cb3aca29e6bd7904", "bike_id": "743967c67da98f12cb3aca29e6bd7904", "type": "electric_scooter", "rental_uris": {"android": "https://dc.lft.to/lastmile_qr_scan", "ios": "https://dc.lft.to/lastmile_qr_scan"}, "fusion_lon": 0.0}, {"is_reserved": 0, "is_disabled": 0, "lon": -77.04179, "lat": 38.899879, "fusion_lat": 0.0, "name": "120920095ac24de76f006d093eded930", "bike_id": "120920095ac24de76f006d093eded930", "type": "electric_scooter", "rental_uris": {"android": "https://dc.lft.to/lastmile_qr_scan", "ios": "https://dc.lft.to/lastmile_qr_scan"}, "fusion_lon": 0.0}, {"is_reserved": 0, "is_disabled": 0, "lon": -77.03206866666666, "lat": 38.91533, "fusion_lat": 0.0, "name": "a45b4be6bf1f12dc01fd6bc1d5ff0286", "bike_id": "a45b4be6bf1f12dc01fd6bc1d5ff0286", "type": "electric_scooter", "rental_uris": {"android": "https://dc.lft.to/lastmile_qr_scan", "ios": "https://dc.lft.to/lastmile_qr_scan"}, "fusion_lon": 0.0}, {"is_reserved": 0, "is_disabled": 0, "lon": -77.01679616666667, "lat": 38.92039616666667, "fusion_lat": 0.0, "name": "5595d6cd79787da08bf7a24b077286ce", "bike_id": "5595d6cd79787da08bf7a24b077286ce", "type": "electric_scooter", "rental_uris": {"android": "https://dc.lft.to/lastmile_qr_scan", "ios": "https://dc.lft.to/lastmile_qr_scan"}, "fusion_lon": 0.0}, {"is_reserved": 0, "is_disabled": 0, "lon": -76.99769133333334, "lat": 38.922829, "fusion_lat": 0.0, "name": "decd89233a4dd5f19e12850e34182d82", "bike_id": "decd89233a4dd5f19e12850e34182d82", "type": "electric_bike", "rental_uris": {"android": "https://dc.lft.to/lastmile_qr_scan", "ios": "https://dc.lft.to/lastmile_qr_scan"}, "fusion_lon": 0.0}, {"is_reserved": 0, "is_disabled": 0, "lon": -77.1004725, "lat": 38.859154333333336, "fusion_lat": 0.0, "name": "a61f2a94b1dbebe7545aaa300fb09eff", "bike_id": "a61f2a94b1dbebe7545aaa300fb09eff", "type": "electric_bike", "rental_uris": {"android": "https://dc.lft.to/lastmile_qr_scan", "ios": "https://dc.lft.to/lastmile_qr_scan"}, "fusion_lon": 0.0}, {"is_reserved": 0, "is_disabled": 0, "lon": -77.02412366666667, "lat": 38.90961266666667, "fusion_lat": 0.0, "name": "30da57e11a5b6cc779df2e0307c56403", "bike_id": "30da57e11a5b6cc779df2e0307c56403", "type": "electric_scooter", "rental_uris": {"android": "https://dc.lft.to/lastmile_qr_scan", "ios": "https://dc.lft.to/lastmile_qr_scan"}, "fusion_lon": 0.0}, {"is_reserved": 0, "is_disabled": 0, "lon": -77.00798366666666, "lat": 38.897199666666666, "fusion_lat": 0.0, "name": "0dd51cbe6a415673f878e5de8fa6e083", "bike_id": "0dd51cbe6a415673f878e5de8fa6e083", "type": "electric_scooter", "rental_uris": {"android": "https://dc.lft.to/lastmile_qr_scan", "ios": "https://dc.lft.to/lastmile_qr_scan"}, "fusion_lon": 0.0}, {"is_reserved": 0, "is_disabled": 0, "lon": -76.98336666666667, "lat": 38.895432166666666, "fusion_lat": 0.0, "name": "ef4632abc6766addf32804d3206c45a7", "bike_id": "ef4632abc6766addf32804d3206c45a7", "type": "electric_scooter", "rental_uris": {"android": "https://dc.lft.to/lastmile_qr_scan", "ios": "https://dc.lft.to/lastmile_qr_scan"}, "fusion_lon": 0.0}, {"is_reserved": 0, "is_disabled": 0, "lon": -77.00572616666666, "lat": 38.8762435, "fusion_lat": 0.0, "name": "6aa15c290ba47b17a2aa2f834bd6b55e", "bike_id": "6aa15c290ba47b17a2aa2f834bd6b55e", "type": "electric_scooter", "rental_uris": {"android": "https://dc.lft.to/lastmile_qr_scan", "ios": "https://dc.lft.to/lastmile_qr_scan"}, "fusion_lon": 0.0}, {"is_reserved": 0, "is_disabled": 0, "lon": -77.0349965, "lat": 38.92334366666667, "fusion_lat": 0.0, "name": "d681b895cba44b72c5597f3248a30e8b", "bike_id": "d681b895cba44b72c5597f3248a30e8b", "type": "electric_scooter", "rental_uris": {"android": "https://dc.lft.to/lastmile_qr_scan", "ios": "https://dc.lft.to/lastmile_qr_scan"}, "fusion_lon": 0.0}, {"is_reserved": 0, "is_disabled": 0, "lon": -76.9728325, "lat": 38.8559225, "fusion_lat": 0.0, "name": "2c8df00ded7ccb36134be01804a1feee", "bike_id": "2c8df00ded7ccb36134be01804a1feee", "type": "electric_bike", "rental_uris": {"android": "https://dc.lft.to/lastmile_qr_scan", "ios": "https://dc.lft.to/lastmile_qr_scan"}, "fusion_lon": 0.0}, {"is_reserved": 0, "is_disabled": 0, "lon": -77.05612166666667, "lat": 38.82316183333333, "fusion_lat": 0.0, "name": "ce2f3f22a548729ed3dfc9b9a1385410", "bike_id": "ce2f3f22a548729ed3dfc9b9a1385410", "type": "electric_bike", "rental_uris": {"android": "https://dc.lft.to/lastmile_qr_scan", "ios": "https://dc.lft.to/lastmile_qr_scan"}, "fusion_lon": 0.0}, {"is_reserved": 0, "is_disabled": 0, "lon": -77.0101395, "lat": 38.90685216666667, "fusion_lat": 0.0, "name": "034e79ec74fc7f070b88b7a407c4a674", "bike_id": "034e79ec74fc7f070b88b7a407c4a674", "type": "electric_scooter", "rental_uris": {"android": "https://dc.lft.to/lastmile_qr_scan", "ios": "https://dc.lft.to/lastmile_qr_scan"}, "fusion_lon": 0.0}, {"is_reserved": 0, "is_disabled": 0, "lon": -77.02124083333334, "lat": 38.92366533333333, "fusion_lat": 0.0, "name": "0dc7fab32328e69c1e198073d862a2ef", "bike_id": "0dc7fab32328e69c1e198073d862a2ef", "type": "electric_scooter", "rental_uris": {"android": "https://dc.lft.to/lastmile_qr_scan", "ios": "https://dc.lft.to/lastmile_qr_scan"}, "fusion_lon": 0.0}, {"is_reserved": 0, "is_disabled": 0, "lon": -77.1133275, "lat": 38.80403966666667, "fusion_lat": 0.0, "name": "941f9011ca14ce35a9ede7e62e0135c9", "bike_id": "941f9011ca14ce35a9ede7e62e0135c9", "type": "electric_bike", "rental_uris": {"android": "https://dc.lft.to/lastmile_qr_scan", "ios": "https://dc.lft.to/lastmile_qr_scan"}, "fusion_lon": 0.0}, {"is_reserved": 0, "is_disabled": 0, "lon": -77.02167583333333, "lat": 38.92906883333333, "fusion_lat": 0.0, "name": "1e97d44ed863b2e3193510cd3e78efcb", "bike_id": "1e97d44ed863b2e3193510cd3e78efcb", "type": "electric_scooter", "rental_uris": {"android": "https://dc.lft.to/lastmile_qr_scan", "ios": "https://dc.lft.to/lastmile_qr_scan"}, "fusion_lon": 0.0}, {"is_reserved": 0, "is_disabled": 0, "lon": -77.04675383333333, "lat": 38.90208333333333, "fusion_lat": 0.0, "name": "98501227a4028246f4c06051041122f4", "bike_id": "98501227a4028246f4c06051041122f4", "type": "electric_scooter", "rental_uris": {"android": "https://dc.lft.to/lastmile_qr_scan", "ios": "https://dc.lft.to/lastmile_qr_scan"}, "fusion_lon": 0.0}, {"is_reserved": 0, "is_disabled": 0, "lon": -77.0056785, "lat": 38.8763065, "fusion_lat": 0.0, "name": "88b3e784a8428958bee88fb492fa576e", "bike_id": "88b3e784a8428958bee88fb492fa576e", "type": "electric_scooter", "rental_uris": {"android": "https://dc.lft.to/lastmile_qr_scan", "ios": "https://dc.lft.to/lastmile_qr_scan"}, "fusion_lon": 0.0}, {"is_reserved": 0, "is_disabled": 0, "lon": -77.007423, "lat": 38.876583333333336, "fusion_lat": 0.0, "name": "c5c9ab120ba4a0eb7f9228698e3b6885", "bike_id": "c5c9ab120ba4a0eb7f9228698e3b6885", "type": "electric_scooter", "rental_uris": {"android": "https://dc.lft.to/lastmile_qr_scan", "ios": "https://dc.lft.to/lastmile_qr_scan"}, "fusion_lon": 0.0}, {"is_reserved": 0, "is_disabled": 0, "lon": -77.03547933333333, "lat": 38.9187775, "fusion_lat": 0.0, "name": "bd7061dfa6bd23216557e932c1519c9a", "bike_id": "bd7061dfa6bd23216557e932c1519c9a", "type": "electric_scooter", "rental_uris": {"android": "https://dc.lft.to/lastmile_qr_scan", "ios": "https://dc.lft.to/lastmile_qr_scan"}, "fusion_lon": 0.0}, {"is_reserved": 0, "is_disabled": 0, "lon": -76.99612183333333, "lat": 38.8872285, "fusion_lat": 0.0, "name": "e89dfb99aa407edc37e760e67333994a", "bike_id": "e89dfb99aa407edc37e760e67333994a", "type": "electric_scooter", "rental_uris": {"android": "https://dc.lft.to/lastmile_qr_scan", "ios": "https://dc.lft.to/lastmile_qr_scan"}, "fusion_lon": 0.0}, {"is_reserved": 0, "is_disabled": 0, "lon": -77.0019915, "lat": 38.90236683333333, "fusion_lat": 0.0, "name": "6d5c8f8278752c863a5efa46210c5cf8", "bike_id": "6d5c8f8278752c863a5efa46210c5cf8", "type": "electric_scooter", "rental_uris": {"android": "https://dc.lft.to/lastmile_qr_scan", "ios": "https://dc.lft.to/lastmile_qr_scan"}, "fusion_lon": 0.0}, {"is_reserved": 0, "is_disabled": 0, "lon": -77.07433733333333, "lat": 38.93586233333333, "fusion_lat": 0.0, "name": "7ea03b237ddc4b5af809f67eba3c5310", "bike_id": "7ea03b237ddc4b5af809f67eba3c5310", "type": "electric_scooter", "rental_uris": {"android": "https://dc.lft.to/lastmile_qr_scan", "ios": "https://dc.lft.to/lastmile_qr_scan"}, "fusion_lon": 0.0}, {"is_reserved": 0, "is_disabled": 0, "lon": -77.02567633333334, "lat": 38.924788166666666, "fusion_lat": 0.0, "name": "ddc1cb7c6e4965112f86bdb01fcd7751", "bike_id": "ddc1cb7c6e4965112f86bdb01fcd7751", "type": "electric_scooter", "rental_uris": {"android": "https://dc.lft.to/lastmile_qr_scan", "ios": "https://dc.lft.to/lastmile_qr_scan"}, "fusion_lon": 0.0}, {"is_reserved": 0, "is_disabled": 0, "lon": -77.0452685, "lat": 38.907515333333336, "fusion_lat": 0.0, "name": "b224fb650848a1161ccc4905132083ba", "bike_id": "b224fb650848a1161ccc4905132083ba", "type": "electric_scooter", "rental_uris": {"android": "https://dc.lft.to/lastmile_qr_scan", "ios": "https://dc.lft.to/lastmile_qr_scan"}, "fusion_lon": 0.0}, {"is_reserved": 0, "is_disabled": 0, "lon": -76.917217, "lat": 38.8802745, "fusion_lat": 0.0, "name": "72206a9287c603dc4d0f38956f9dea67", "bike_id": "72206a9287c603dc4d0f38956f9dea67", "type": "electric_bike", "rental_uris": {"android": "https://dc.lft.to/lastmile_qr_scan", "ios": "https://dc.lft.to/lastmile_qr_scan"}, "fusion_lon": 0.0}, {"is_reserved": 0, "is_disabled": 0, "lon": -76.94962333333334, "lat": 38.904864, "fusion_lat": 0.0, "name": "f12b0996d427803881735df8674a776a", "bike_id": "f12b0996d427803881735df8674a776a", "type": "electric_scooter", "rental_uris": {"android": "https://dc.lft.to/lastmile_qr_scan", "ios": "https://dc.lft.to/lastmile_qr_scan"}, "fusion_lon": 0.0}, {"is_reserved": 0, "is_disabled": 0, "lon": -77.03874566666667, "lat": 38.90132883333333, "fusion_lat": 0.0, "name": "7de8b3a956a41d97388e91a1760c543f", "bike_id": "7de8b3a956a41d97388e91a1760c543f", "type": "electric_scooter", "rental_uris": {"android": "https://dc.lft.to/lastmile_qr_scan", "ios": "https://dc.lft.to/lastmile_qr_scan"}, "fusion_lon": 0.0}, {"is_reserved": 0, "is_disabled": 0, "lon": -77.0218965, "lat": 38.91524616666667, "fusion_lat": 0.0, "name": "af7589888b71f56ecea7470c0f66657d", "bike_id": "af7589888b71f56ecea7470c0f66657d", "type": "electric_scooter", "rental_uris": {"android": "https://dc.lft.to/lastmile_qr_scan", "ios": "https://dc.lft.to/lastmile_qr_scan"}, "fusion_lon": 0.0}, {"is_reserved": 0, "is_disabled": 0, "lon": -77.03858216666667, "lat": 38.90393433333333, "fusion_lat": 0.0, "name": "ccb906dddb3493129b9d7dfe4cf5ed71", "bike_id": "ccb906dddb3493129b9d7dfe4cf5ed71", "type": "electric_scooter", "rental_uris": {"android": "https://dc.lft.to/lastmile_qr_scan", "ios": "https://dc.lft.to/lastmile_qr_scan"}, "fusion_lon": 0.0}, {"is_reserved": 0, "is_disabled": 0, "lon": -77.041883, "lat": 38.920518, "fusion_lat": 0.0, "name": "e8f4768b7aec3064ee7285356e9e5880", "bike_id": "e8f4768b7aec3064ee7285356e9e5880", "type": "electric_scooter", "rental_uris": {"android": "https://dc.lft.to/lastmile_qr_scan", "ios": "https://dc.lft.to/lastmile_qr_scan"}, "fusion_lon": 0.0}, {"is_reserved": 0, "is_disabled": 0, "lon": -77.01940916666666, "lat": 38.876524333333336, "fusion_lat": 0.0, "name": "f0fd35827c819fd58add1b2573700d59", "bike_id": "f0fd35827c819fd58add1b2573700d59", "type": "electric_scooter", "rental_uris": {"android": "https://dc.lft.to/lastmile_qr_scan", "ios": "https://dc.lft.to/lastmile_qr_scan"}, "fusion_lon": 0.0}, {"is_reserved": 0, "is_disabled": 0, "lon": -76.99460333333333, "lat": 38.897248, "fusion_lat": 0.0, "name": "48409eb0474787f2a6eceeabdafb3703", "bike_id": "48409eb0474787f2a6eceeabdafb3703", "type": "electric_scooter", "rental_uris": {"android": "https://dc.lft.to/lastmile_qr_scan", "ios": "https://dc.lft.to/lastmile_qr_scan"}, "fusion_lon": 0.0}, {"is_reserved": 0, "is_disabled": 0, "lon": -77.0049045, "lat": 38.89700466666667, "fusion_lat": 0.0, "name": "50dd85dead0c0c0dc9adf14ba9158da1", "bike_id": "50dd85dead0c0c0dc9adf14ba9158da1", "type": "electric_bike", "rental_uris": {"android": "https://dc.lft.to/lastmile_qr_scan", "ios": "https://dc.lft.to/lastmile_qr_scan"}, "fusion_lon": 0.0}, {"is_reserved": 0, "is_disabled": 0, "lon": -77.0450155, "lat": 38.892588833333335, "fusion_lat": 0.0, "name": "8bfe64918d481de1bc50f53690b945e9", "bike_id": "8bfe64918d481de1bc50f53690b945e9", "type": "electric_scooter", "rental_uris": {"android": "https://dc.lft.to/lastmile_qr_scan", "ios": "https://dc.lft.to/lastmile_qr_scan"}, "fusion_lon": 0.0}, {"is_reserved": 0, "is_disabled": 0, "lon": -77.00203416666666, "lat": 38.902381166666665, "fusion_lat": 0.0, "name": "ae31880c78b41d9a6c371cf16841941d", "bike_id": "ae31880c78b41d9a6c371cf16841941d", "type": "electric_scooter", "rental_uris": {"android": "https://dc.lft.to/lastmile_qr_scan", "ios": "https://dc.lft.to/lastmile_qr_scan"}, "fusion_lon": 0.0}, {"is_reserved": 0, "is_disabled": 0, "lon": -77.02057883333333, "lat": 38.91362933333333, "fusion_lat": 0.0, "name": "7a09c09e14392691f6622bb9b9f5ec1e", "bike_id": "7a09c09e14392691f6622bb9b9f5ec1e", "type": "electric_scooter", "rental_uris": {"android": "https://dc.lft.to/lastmile_qr_scan", "ios": "https://dc.lft.to/lastmile_qr_scan"}, "fusion_lon": 0.0}, {"is_reserved": 0, "is_disabled": 0, "lon": -77.038608, "lat": 38.91808433333333, "fusion_lat": 0.0, "name": "f136b8e18e61df94e7c002d7a9b66ecd", "bike_id": "f136b8e18e61df94e7c002d7a9b66ecd", "type": "electric_scooter", "rental_uris": {"android": "https://dc.lft.to/lastmile_qr_scan", "ios": "https://dc.lft.to/lastmile_qr_scan"}, "fusion_lon": 0.0}, {"is_reserved": 0, "is_disabled": 0, "lon": -77.06090666666667, "lat": 38.804290333333334, "fusion_lat": 0.0, "name": "6b0194af480f8abd16df30949d9d7bf5", "bike_id": "6b0194af480f8abd16df30949d9d7bf5", "type": "electric_bike", "rental_uris": {"android": "https://dc.lft.to/lastmile_qr_scan", "ios": "https://dc.lft.to/lastmile_qr_scan"}, "fusion_lon": 0.0}, {"is_reserved": 0, "is_disabled": 0, "lon": -77.01084, "lat": 38.89413233333333, "fusion_lat": 0.0, "name": "8847827ec8d31d8c5512d152bcec62fe", "bike_id": "8847827ec8d31d8c5512d152bcec62fe", "type": "electric_scooter", "rental_uris": {"android": "https://dc.lft.to/lastmile_qr_scan", "ios": "https://dc.lft.to/lastmile_qr_scan"}, "fusion_lon": 0.0}, {"is_reserved": 0, "is_disabled": 0, "lon": -77.02082816666666, "lat": 38.924806, "fusion_lat": 0.0, "name": "8d1aa0dc574eb47807d9fc619f42591b", "bike_id": "8d1aa0dc574eb47807d9fc619f42591b", "type": "electric_scooter", "rental_uris": {"android": "https://dc.lft.to/lastmile_qr_scan", "ios": "https://dc.lft.to/lastmile_qr_scan"}, "fusion_lon": 0.0}, {"is_reserved": 0, "is_disabled": 0, "lon": -77.02118766666666, "lat": 38.917354, "fusion_lat": 0.0, "name": "567404697147ebb21dc773e371b7dfbc", "bike_id": "567404697147ebb21dc773e371b7dfbc", "type": "electric_scooter", "rental_uris": {"android": "https://dc.lft.to/lastmile_qr_scan", "ios": "https://dc.lft.to/lastmile_qr_scan"}, "fusion_lon": 0.0}, {"is_reserved": 0, "is_disabled": 0, "lon": -77.01760083333333, "lat": 38.9211505, "fusion_lat": 0.0, "name": "68b571614ff22eca361596d143b8e027", "bike_id": "68b571614ff22eca361596d143b8e027", "type": "electric_scooter", "rental_uris": {"android": "https://dc.lft.to/lastmile_qr_scan", "ios": "https://dc.lft.to/lastmile_qr_scan"}, "fusion_lon": 0.0}, {"is_reserved": 0, "is_disabled": 0, "lon": -77.0475445, "lat": 38.91765983333333, "fusion_lat": 0.0, "name": "f433b6c3ee82f6ec71e8be684937fb7f", "bike_id": "f433b6c3ee82f6ec71e8be684937fb7f", "type": "electric_scooter", "rental_uris": {"android": "https://dc.lft.to/lastmile_qr_scan", "ios": "https://dc.lft.to/lastmile_qr_scan"}, "fusion_lon": 0.0}, {"is_reserved": 0, "is_disabled": 0, "lon": -77.02131633333333, "lat": 38.92335833333333, "fusion_lat": 0.0, "name": "55f576e8dfbda771f2b91fa71da74803", "bike_id": "55f576e8dfbda771f2b91fa71da74803", "type": "electric_scooter", "rental_uris": {"android": "https://dc.lft.to/lastmile_qr_scan", "ios": "https://dc.lft.to/lastmile_qr_scan"}, "fusion_lon": 0.0}, {"is_reserved": 0, "is_disabled": 0, "lon": -77.02941283333334, "lat": 38.895158333333335, "fusion_lat": 0.0, "name": "27f609bfdc8bbef890912a787c645d49", "bike_id": "27f609bfdc8bbef890912a787c645d49", "type": "electric_scooter", "rental_uris": {"android": "https://dc.lft.to/lastmile_qr_scan", "ios": "https://dc.lft.to/lastmile_qr_scan"}, "fusion_lon": 0.0}, {"is_reserved": 0, "is_disabled": 0, "lon": -77.029446, "lat": 38.939717333333334, "fusion_lat": 0.0, "name": "eed531aaa20ffdaef2444be0ab787c3c", "bike_id": "eed531aaa20ffdaef2444be0ab787c3c", "type": "electric_scooter", "rental_uris": {"android": "https://dc.lft.to/lastmile_qr_scan", "ios": "https://dc.lft.to/lastmile_qr_scan"}, "fusion_lon": 0.0}, {"is_reserved": 0, "is_disabled": 0, "lon": -76.99847933333334, "lat": 38.900491333333335, "fusion_lat": 0.0, "name": "fbca2498045f155237cc705a72060204", "bike_id": "fbca2498045f155237cc705a72060204", "type": "electric_scooter", "rental_uris": {"android": "https://dc.lft.to/lastmile_qr_scan", "ios": "https://dc.lft.to/lastmile_qr_scan"}, "fusion_lon": 0.0}, {"is_reserved": 0, "is_disabled": 0, "lon": -77.02158483333334, "lat": 38.92824816666667, "fusion_lat": 0.0, "name": "4da37b5570d5de9e88a844a89c1588c6", "bike_id": "4da37b5570d5de9e88a844a89c1588c6", "type": "electric_scooter", "rental_uris": {"android": "https://dc.lft.to/lastmile_qr_scan", "ios": "https://dc.lft.to/lastmile_qr_scan"}, "fusion_lon": 0.0}, {"is_reserved": 0, "is_disabled": 0, "lon": -77.02600083333333, "lat": 38.904099, "fusion_lat": 0.0, "name": "e87d6f4911e55a7a28eed488f245a3f7", "bike_id": "e87d6f4911e55a7a28eed488f245a3f7", "type": "electric_scooter", "rental_uris": {"android": "https://dc.lft.to/lastmile_qr_scan", "ios": "https://dc.lft.to/lastmile_qr_scan"}, "fusion_lon": 0.0}, {"is_reserved": 0, "is_disabled": 0, "lon": -77.0709005, "lat": 38.919883666666664, "fusion_lat": 0.0, "name": "344bc3f84f7e7b19e014c5d4299d525a", "bike_id": "344bc3f84f7e7b19e014c5d4299d525a", "type": "electric_scooter", "rental_uris": {"android": "https://dc.lft.to/lastmile_qr_scan", "ios": "https://dc.lft.to/lastmile_qr_scan"}, "fusion_lon": 0.0}, {"is_reserved": 0, "is_disabled": 0, "lon": -77.04669783333334, "lat": 38.8984395, "fusion_lat": 0.0, "name": "49e6140268e242714c2bd89554ca3ff1", "bike_id": "49e6140268e242714c2bd89554ca3ff1", "type": "electric_scooter", "rental_uris": {"android": "https://dc.lft.to/lastmile_qr_scan", "ios": "https://dc.lft.to/lastmile_qr_scan"}, "fusion_lon": 0.0}, {"is_reserved": 0, "is_disabled": 0, "lon": -77.03497766666666, "lat": 38.92478, "fusion_lat": 0.0, "name": "03e5aded181ae695cdaa6525f6273e41", "bike_id": "03e5aded181ae695cdaa6525f6273e41", "type": "electric_scooter", "rental_uris": {"android": "https://dc.lft.to/lastmile_qr_scan", "ios": "https://dc.lft.to/lastmile_qr_scan"}, "fusion_lon": 0.0}, {"is_reserved": 0, "is_disabled": 0, "lon": -77.02600983333333, "lat": 38.89868233333333, "fusion_lat": 0.0, "name": "a66bf6d174c9d472e097be894f7bde07", "bike_id": "a66bf6d174c9d472e097be894f7bde07", "type": "electric_scooter", "rental_uris": {"android": "https://dc.lft.to/lastmile_qr_scan", "ios": "https://dc.lft.to/lastmile_qr_scan"}, "fusion_lon": 0.0}, {"is_reserved": 0, "is_disabled": 0, "lon": -76.92306633333334, "lat": 38.89380233333333, "fusion_lat": 0.0, "name": "c8d82a1c2cc954dbb2b771fa017a6968", "bike_id": "c8d82a1c2cc954dbb2b771fa017a6968", "type": "electric_scooter", "rental_uris": {"android": "https://dc.lft.to/lastmile_qr_scan", "ios": "https://dc.lft.to/lastmile_qr_scan"}, "fusion_lon": 0.0}, {"is_reserved": 0, "is_disabled": 0, "lon": -77.02716533333333, "lat": 38.90682616666667, "fusion_lat": 0.0, "name": "96bbd5327756d581cba7b1718df5daa1", "bike_id": "96bbd5327756d581cba7b1718df5daa1", "type": "electric_scooter", "rental_uris": {"android": "https://dc.lft.to/lastmile_qr_scan", "ios": "https://dc.lft.to/lastmile_qr_scan"}, "fusion_lon": 0.0}, {"is_reserved": 0, "is_disabled": 0, "lon": -77.06024416666666, "lat": 38.90475716666667, "fusion_lat": 0.0, "name": "fba26f4d6a3777d322ed11d7aaaef8f5", "bike_id": "fba26f4d6a3777d322ed11d7aaaef8f5", "type": "electric_scooter", "rental_uris": {"android": "https://dc.lft.to/lastmile_qr_scan", "ios": "https://dc.lft.to/lastmile_qr_scan"}, "fusion_lon": 0.0}, {"is_reserved": 0, "is_disabled": 0, "lon": -77.04517316666667, "lat": 38.89962333333333, "fusion_lat": 0.0, "name": "e811e280bfb6b23f0506a470ccb36acf", "bike_id": "e811e280bfb6b23f0506a470ccb36acf", "type": "electric_scooter", "rental_uris": {"android": "https://dc.lft.to/lastmile_qr_scan", "ios": "https://dc.lft.to/lastmile_qr_scan"}, "fusion_lon": 0.0}, {"is_reserved": 0, "is_disabled": 0, "lon": -76.93211016666666, "lat": 38.896649833333335, "fusion_lat": 0.0, "name": "63c30dbafe53f10ef8f1524322b00bf6", "bike_id": "63c30dbafe53f10ef8f1524322b00bf6", "type": "electric_scooter", "rental_uris": {"android": "https://dc.lft.to/lastmile_qr_scan", "ios": "https://dc.lft.to/lastmile_qr_scan"}, "fusion_lon": 0.0}, {"is_reserved": 0, "is_disabled": 0, "lon": -77.06998516666667, "lat": 38.95502233333333, "fusion_lat": 0.0, "name": "207022533fa59c2be1f058c23bacd524", "bike_id": "207022533fa59c2be1f058c23bacd524", "type": "electric_scooter", "rental_uris": {"android": "https://dc.lft.to/lastmile_qr_scan", "ios": "https://dc.lft.to/lastmile_qr_scan"}, "fusion_lon": 0.0}, {"is_reserved": 0, "is_disabled": 0, "lon": -77.0092495, "lat": 38.8988145, "fusion_lat": 0.0, "name": "06db619ebe864c3dbc41018dd9b4d7a2", "bike_id": "06db619ebe864c3dbc41018dd9b4d7a2", "type": "electric_scooter", "rental_uris": {"android": "https://dc.lft.to/lastmile_qr_scan", "ios": "https://dc.lft.to/lastmile_qr_scan"}, "fusion_lon": 0.0}, {"is_reserved": 0, "is_disabled": 0, "lon": -76.98023566666667, "lat": 38.868216, "fusion_lat": 0.0, "name": "0d88fe58b28f71fb7d689a448ae73be2", "bike_id": "0d88fe58b28f71fb7d689a448ae73be2", "type": "electric_bike", "rental_uris": {"android": "https://dc.lft.to/lastmile_qr_scan", "ios": "https://dc.lft.to/lastmile_qr_scan"}, "fusion_lon": 0.0}, {"is_reserved": 0, "is_disabled": 0, "lon": -77.04160933333333, "lat": 38.91950333333333, "fusion_lat": 0.0, "name": "f70963e6aa3f7c94ffe673477f6340e2", "bike_id": "f70963e6aa3f7c94ffe673477f6340e2", "type": "electric_scooter", "rental_uris": {"android": "https://dc.lft.to/lastmile_qr_scan", "ios": "https://dc.lft.to/lastmile_qr_scan"}, "fusion_lon": 0.0}, {"is_reserved": 0, "is_disabled": 0, "lon": -77.0448235, "lat": 38.91156983333333, "fusion_lat": 0.0, "name": "47b1cfbd6dbb9fefcdfeec079bd525bc", "bike_id": "47b1cfbd6dbb9fefcdfeec079bd525bc", "type": "electric_scooter", "rental_uris": {"android": "https://dc.lft.to/lastmile_qr_scan", "ios": "https://dc.lft.to/lastmile_qr_scan"}, "fusion_lon": 0.0}, {"is_reserved": 0, "is_disabled": 0, "lon": -77.04860533333333, "lat": 38.90725533333333, "fusion_lat": 0.0, "name": "b5ee32fb898542f70d89c5aebb851df2", "bike_id": "b5ee32fb898542f70d89c5aebb851df2", "type": "electric_scooter", "rental_uris": {"android": "https://dc.lft.to/lastmile_qr_scan", "ios": "https://dc.lft.to/lastmile_qr_scan"}, "fusion_lon": 0.0}, {"is_reserved": 0, "is_disabled": 0, "lon": -77.023203, "lat": 38.901994, "fusion_lat": 0.0, "name": "685e27ee3a471a61e584cc8b924e2fdb", "bike_id": "685e27ee3a471a61e584cc8b924e2fdb", "type": "electric_scooter", "rental_uris": {"android": "https://dc.lft.to/lastmile_qr_scan", "ios": "https://dc.lft.to/lastmile_qr_scan"}, "fusion_lon": 0.0}, {"is_reserved": 0, "is_disabled": 0, "lon": -77.00795766666667, "lat": 38.905901166666666, "fusion_lat": 0.0, "name": "56682dba147d741169badb8ba74e4bae", "bike_id": "56682dba147d741169badb8ba74e4bae", "type": "electric_scooter", "rental_uris": {"android": "https://dc.lft.to/lastmile_qr_scan", "ios": "https://dc.lft.to/lastmile_qr_scan"}, "fusion_lon": 0.0}, {"is_reserved": 0, "is_disabled": 0, "lon": -77.12812183333334, "lat": 38.886716, "fusion_lat": 0.0, "name": "b06f9bbb9670260e1947bac13395e306", "bike_id": "b06f9bbb9670260e1947bac13395e306", "type": "electric_bike", "rental_uris": {"android": "https://dc.lft.to/lastmile_qr_scan", "ios": "https://dc.lft.to/lastmile_qr_scan"}, "fusion_lon": 0.0}, {"is_reserved": 0, "is_disabled": 0, "lon": -77.04194283333334, "lat": 38.92058, "fusion_lat": 0.0, "name": "3b7d9a3654f916d48a838ff0722b0e1b", "bike_id": "3b7d9a3654f916d48a838ff0722b0e1b", "type": "electric_scooter", "rental_uris": {"android": "https://dc.lft.to/lastmile_qr_scan", "ios": "https://dc.lft.to/lastmile_qr_scan"}, "fusion_lon": 0.0}, {"is_reserved": 0, "is_disabled": 0, "lon": -77.02159766666666, "lat": 38.92599033333333, "fusion_lat": 0.0, "name": "9a903c02a03dd995c97e9da3622ba568", "bike_id": "9a903c02a03dd995c97e9da3622ba568", "type": "electric_scooter", "rental_uris": {"android": "https://dc.lft.to/lastmile_qr_scan", "ios": "https://dc.lft.to/lastmile_qr_scan"}, "fusion_lon": 0.0}, {"is_reserved": 0, "is_disabled": 0, "lon": -77.05230633333333, "lat": 38.923545, "fusion_lat": 0.0, "name": "652413c29fb34529a68531518728ad3a", "bike_id": "652413c29fb34529a68531518728ad3a", "type": "electric_scooter", "rental_uris": {"android": "https://dc.lft.to/lastmile_qr_scan", "ios": "https://dc.lft.to/lastmile_qr_scan"}, "fusion_lon": 0.0}, {"is_reserved": 0, "is_disabled": 0, "lon": -77.01215733333333, "lat": 38.9159905, "fusion_lat": 0.0, "name": "51e84f07589f43b2bf0e7958b4dacb25", "bike_id": "51e84f07589f43b2bf0e7958b4dacb25", "type": "electric_scooter", "rental_uris": {"android": "https://dc.lft.to/lastmile_qr_scan", "ios": "https://dc.lft.to/lastmile_qr_scan"}, "fusion_lon": 0.0}, {"is_reserved": 0, "is_disabled": 0, "lon": -77.04046466666667, "lat": 38.908818, "fusion_lat": 0.0, "name": "b9de79f76d03737588387a6404ddfdde", "bike_id": "b9de79f76d03737588387a6404ddfdde", "type": "electric_scooter", "rental_uris": {"android": "https://dc.lft.to/lastmile_qr_scan", "ios": "https://dc.lft.to/lastmile_qr_scan"}, "fusion_lon": 0.0}, {"is_reserved": 0, "is_disabled": 0, "lon": -77.08367533333333, "lat": 38.8326795, "fusion_lat": 0.0, "name": "dc2d44acb7f38dcff36b71af913732ad", "bike_id": "dc2d44acb7f38dcff36b71af913732ad", "type": "electric_bike", "rental_uris": {"android": "https://dc.lft.to/lastmile_qr_scan", "ios": "https://dc.lft.to/lastmile_qr_scan"}, "fusion_lon": 0.0}, {"is_reserved": 0, "is_disabled": 0, "lon": -77.02803683333333, "lat": 38.91101166666667, "fusion_lat": 0.0, "name": "4618d10c528a0925e8f3c6531204b6d1", "bike_id": "4618d10c528a0925e8f3c6531204b6d1", "type": "electric_scooter", "rental_uris": {"android": "https://dc.lft.to/lastmile_qr_scan", "ios": "https://dc.lft.to/lastmile_qr_scan"}, "fusion_lon": 0.0}, {"is_reserved": 0, "is_disabled": 0, "lon": -77.008821, "lat": 38.87533066666667, "fusion_lat": 0.0, "name": "1bde78aa931e4bd427c249a447324812", "bike_id": "1bde78aa931e4bd427c249a447324812", "type": "electric_scooter", "rental_uris": {"android": "https://dc.lft.to/lastmile_qr_scan", "ios": "https://dc.lft.to/lastmile_qr_scan"}, "fusion_lon": 0.0}, {"is_reserved": 0, "is_disabled": 0, "lon": -77.03937633333334, "lat": 38.92106666666667, "fusion_lat": 0.0, "name": "499f0f90d7c20fc5280d0f3fb8a5f4f3", "bike_id": "499f0f90d7c20fc5280d0f3fb8a5f4f3", "type": "electric_scooter", "rental_uris": {"android": "https://dc.lft.to/lastmile_qr_scan", "ios": "https://dc.lft.to/lastmile_qr_scan"}, "fusion_lon": 0.0}, {"is_reserved": 0, "is_disabled": 0, "lon": -77.01952266666666, "lat": 38.92424616666667, "fusion_lat": 0.0, "name": "9c85d4c76e9f476df3478ea59c55b19d", "bike_id": "9c85d4c76e9f476df3478ea59c55b19d", "type": "electric_scooter", "rental_uris": {"android": "https://dc.lft.to/lastmile_qr_scan", "ios": "https://dc.lft.to/lastmile_qr_scan"}, "fusion_lon": 0.0}, {"is_reserved": 0, "is_disabled": 0, "lon": -77.02204533333334, "lat": 38.89992683333333, "fusion_lat": 0.0, "name": "a454c320b58c0db854fa14be040d4139", "bike_id": "a454c320b58c0db854fa14be040d4139", "type": "electric_scooter", "rental_uris": {"android": "https://dc.lft.to/lastmile_qr_scan", "ios": "https://dc.lft.to/lastmile_qr_scan"}, "fusion_lon": 0.0}, {"is_reserved": 0, "is_disabled": 0, "lon": -77.038127, "lat": 38.93030533333334, "fusion_lat": 0.0, "name": "24a87808d62ba657048696fbdb96bde9", "bike_id": "24a87808d62ba657048696fbdb96bde9", "type": "electric_scooter", "rental_uris": {"android": "https://dc.lft.to/lastmile_qr_scan", "ios": "https://dc.lft.to/lastmile_qr_scan"}, "fusion_lon": 0.0}, {"is_reserved": 0, "is_disabled": 0, "lon": -77.02201216666667, "lat": 38.91098983333333, "fusion_lat": 0.0, "name": "33a94e91541d577e6de51bd2aae1bba8", "bike_id": "33a94e91541d577e6de51bd2aae1bba8", "type": "electric_scooter", "rental_uris": {"android": "https://dc.lft.to/lastmile_qr_scan", "ios": "https://dc.lft.to/lastmile_qr_scan"}, "fusion_lon": 0.0}, {"is_reserved": 0, "is_disabled": 0, "lon": -77.02156883333333, "lat": 38.8929465, "fusion_lat": 0.0, "name": "58184f633dedcd87cc1de9b779cebdba", "bike_id": "58184f633dedcd87cc1de9b779cebdba", "type": "electric_scooter", "rental_uris": {"android": "https://dc.lft.to/lastmile_qr_scan", "ios": "https://dc.lft.to/lastmile_qr_scan"}, "fusion_lon": 0.0}, {"is_reserved": 0, "is_disabled": 0, "lon": -77.02492166666667, "lat": 38.91805633333333, "fusion_lat": 0.0, "name": "4bd623da44e12ecf77c3b7cf0ec7bc8d", "bike_id": "4bd623da44e12ecf77c3b7cf0ec7bc8d", "type": "electric_scooter", "rental_uris": {"android": "https://dc.lft.to/lastmile_qr_scan", "ios": "https://dc.lft.to/lastmile_qr_scan"}, "fusion_lon": 0.0}, {"is_reserved": 0, "is_disabled": 0, "lon": -77.01702516666667, "lat": 38.920184166666665, "fusion_lat": 0.0, "name": "1f00d6f510339dfeb3725a2d8699e02f", "bike_id": "1f00d6f510339dfeb3725a2d8699e02f", "type": "electric_scooter", "rental_uris": {"android": "https://dc.lft.to/lastmile_qr_scan", "ios": "https://dc.lft.to/lastmile_qr_scan"}, "fusion_lon": 0.0}, {"is_reserved": 0, "is_disabled": 0, "lon": -77.00296516666667, "lat": 38.8766085, "fusion_lat": 0.0, "name": "736f63e5cf9a1299f8f23bdc6be98ddb", "bike_id": "736f63e5cf9a1299f8f23bdc6be98ddb", "type": "electric_scooter", "rental_uris": {"android": "https://dc.lft.to/lastmile_qr_scan", "ios": "https://dc.lft.to/lastmile_qr_scan"}, "fusion_lon": 0.0}, {"is_reserved": 0, "is_disabled": 0, "lon": -76.981634, "lat": 38.904395, "fusion_lat": 0.0, "name": "3365f70fcec1af9cf9882826e7fe1604", "bike_id": "3365f70fcec1af9cf9882826e7fe1604", "type": "electric_scooter", "rental_uris": {"android": "https://dc.lft.to/lastmile_qr_scan", "ios": "https://dc.lft.to/lastmile_qr_scan"}, "fusion_lon": 0.0}, {"is_reserved": 0, "is_disabled": 0, "lon": -77.0723655, "lat": 38.938654, "fusion_lat": 0.0, "name": "79ce8b6c2a83b2c3432faf1cf15280f8", "bike_id": "79ce8b6c2a83b2c3432faf1cf15280f8", "type": "electric_scooter", "rental_uris": {"android": "https://dc.lft.to/lastmile_qr_scan", "ios": "https://dc.lft.to/lastmile_qr_scan"}, "fusion_lon": 0.0}, {"is_reserved": 0, "is_disabled": 0, "lon": -77.07125533333334, "lat": 38.92011516666667, "fusion_lat": 0.0, "name": "2b4971f874c206c5576e618b051c43cc", "bike_id": "2b4971f874c206c5576e618b051c43cc", "type": "electric_scooter", "rental_uris": {"android": "https://dc.lft.to/lastmile_qr_scan", "ios": "https://dc.lft.to/lastmile_qr_scan"}, "fusion_lon": 0.0}, {"is_reserved": 0, "is_disabled": 0, "lon": -77.0454415, "lat": 38.933390833333334, "fusion_lat": 0.0, "name": "c2d3dc34f563588fee0d5fc03a6b6f0d", "bike_id": "c2d3dc34f563588fee0d5fc03a6b6f0d", "type": "electric_scooter", "rental_uris": {"android": "https://dc.lft.to/lastmile_qr_scan", "ios": "https://dc.lft.to/lastmile_qr_scan"}, "fusion_lon": 0.0}, {"is_reserved": 0, "is_disabled": 0, "lon": -77.0031145, "lat": 38.8764935, "fusion_lat": 0.0, "name": "a3fcbe303092eb72acd8092a39f72688", "bike_id": "a3fcbe303092eb72acd8092a39f72688", "type": "electric_scooter", "rental_uris": {"android": "https://dc.lft.to/lastmile_qr_scan", "ios": "https://dc.lft.to/lastmile_qr_scan"}, "fusion_lon": 0.0}, {"is_reserved": 0, "is_disabled": 0, "lon": -77.0268845, "lat": 38.90235633333333, "fusion_lat": 0.0, "name": "579db0501de1b8b32ce4893bbbe26dbc", "bike_id": "579db0501de1b8b32ce4893bbbe26dbc", "type": "electric_scooter", "rental_uris": {"android": "https://dc.lft.to/lastmile_qr_scan", "ios": "https://dc.lft.to/lastmile_qr_scan"}, "fusion_lon": 0.0}, {"is_reserved": 0, "is_disabled": 0, "lon": -77.02827133333334, "lat": 38.892458, "fusion_lat": 0.0, "name": "e05fae9e4eaad98bb52c130a9fc20bbf", "bike_id": "e05fae9e4eaad98bb52c130a9fc20bbf", "type": "electric_scooter", "rental_uris": {"android": "https://dc.lft.to/lastmile_qr_scan", "ios": "https://dc.lft.to/lastmile_qr_scan"}, "fusion_lon": 0.0}, {"is_reserved": 0, "is_disabled": 0, "lon": -77.00795666666667, "lat": 38.897187833333334, "fusion_lat": 0.0, "name": "daa9119f7ee9d9f4f0bbd56894aaac31", "bike_id": "daa9119f7ee9d9f4f0bbd56894aaac31", "type": "electric_scooter", "rental_uris": {"android": "https://dc.lft.to/lastmile_qr_scan", "ios": "https://dc.lft.to/lastmile_qr_scan"}, "fusion_lon": 0.0}, {"is_reserved": 0, "is_disabled": 0, "lon": -76.99056883333333, "lat": 38.92613433333333, "fusion_lat": 0.0, "name": "5bbd7dca061560a82669eface244e917", "bike_id": "5bbd7dca061560a82669eface244e917", "type": "electric_scooter", "rental_uris": {"android": "https://dc.lft.to/lastmile_qr_scan", "ios": "https://dc.lft.to/lastmile_qr_scan"}, "fusion_lon": 0.0}, {"is_reserved": 0, "is_disabled": 0, "lon": -77.0401935, "lat": 38.92167166666667, "fusion_lat": 0.0, "name": "ea0d9d30c8244f33be3bc9b7c2a2872d", "bike_id": "ea0d9d30c8244f33be3bc9b7c2a2872d", "type": "electric_scooter", "rental_uris": {"android": "https://dc.lft.to/lastmile_qr_scan", "ios": "https://dc.lft.to/lastmile_qr_scan"}, "fusion_lon": 0.0}, {"is_reserved": 0, "is_disabled": 0, "lon": -77.004929, "lat": 38.896882, "fusion_lat": 0.0, "name": "bbbd641e4cc6d78099866a17af93e6a9", "bike_id": "bbbd641e4cc6d78099866a17af93e6a9", "type": "electric_scooter", "rental_uris": {"android": "https://dc.lft.to/lastmile_qr_scan", "ios": "https://dc.lft.to/lastmile_qr_scan"}, "fusion_lon": 0.0}, {"is_reserved": 0, "is_disabled": 0, "lon": -77.00534666666667, "lat": 38.87468666666667, "fusion_lat": 0.0, "name": "ed299743071f2c033c6b690dd1894067", "bike_id": "ed299743071f2c033c6b690dd1894067", "type": "electric_scooter", "rental_uris": {"android": "https://dc.lft.to/lastmile_qr_scan", "ios": "https://dc.lft.to/lastmile_qr_scan"}, "fusion_lon": 0.0}, {"is_reserved": 0, "is_disabled": 0, "lon": -77.0263575, "lat": 38.944604166666664, "fusion_lat": 0.0, "name": "567634ffdacf2284502fadc8c1bb7a36", "bike_id": "567634ffdacf2284502fadc8c1bb7a36", "type": "electric_scooter", "rental_uris": {"android": "https://dc.lft.to/lastmile_qr_scan", "ios": "https://dc.lft.to/lastmile_qr_scan"}, "fusion_lon": 0.0}, {"is_reserved": 0, "is_disabled": 0, "lon": -76.99165433333333, "lat": 38.900392, "fusion_lat": 0.0, "name": "cd0cf2ccfd80e33ae36329447becce51", "bike_id": "cd0cf2ccfd80e33ae36329447becce51", "type": "electric_scooter", "rental_uris": {"android": "https://dc.lft.to/lastmile_qr_scan", "ios": "https://dc.lft.to/lastmile_qr_scan"}, "fusion_lon": 0.0}, {"is_reserved": 0, "is_disabled": 0, "lon": -77.02117683333333, "lat": 38.89993583333333, "fusion_lat": 0.0, "name": "a3c1a1daab501b254e6e03c16e4cb479", "bike_id": "a3c1a1daab501b254e6e03c16e4cb479", "type": "electric_bike", "rental_uris": {"android": "https://dc.lft.to/lastmile_qr_scan", "ios": "https://dc.lft.to/lastmile_qr_scan"}, "fusion_lon": 0.0}, {"is_reserved": 0, "is_disabled": 0, "lon": -77.01855933333333, "lat": 38.949210666666666, "fusion_lat": 0.0, "name": "61d92d98b25e9e4029d722cc6c61d440", "bike_id": "61d92d98b25e9e4029d722cc6c61d440", "type": "electric_scooter", "rental_uris": {"android": "https://dc.lft.to/lastmile_qr_scan", "ios": "https://dc.lft.to/lastmile_qr_scan"}, "fusion_lon": 0.0}, {"is_reserved": 0, "is_disabled": 0, "lon": -77.05343783333333, "lat": 38.902335, "fusion_lat": 0.0, "name": "4e028ae1949e180c5e4ea58afeda7ad1", "bike_id": "4e028ae1949e180c5e4ea58afeda7ad1", "type": "electric_scooter", "rental_uris": {"android": "https://dc.lft.to/lastmile_qr_scan", "ios": "https://dc.lft.to/lastmile_qr_scan"}, "fusion_lon": 0.0}, {"is_reserved": 0, "is_disabled": 0, "lon": -77.04655283333334, "lat": 38.919007, "fusion_lat": 0.0, "name": "14fbdc8e074c217a6c98d31055771920", "bike_id": "14fbdc8e074c217a6c98d31055771920", "type": "electric_scooter", "rental_uris": {"android": "https://dc.lft.to/lastmile_qr_scan", "ios": "https://dc.lft.to/lastmile_qr_scan"}, "fusion_lon": 0.0}, {"is_reserved": 0, "is_disabled": 0, "lon": -77.03502666666667, "lat": 38.9215225, "fusion_lat": 0.0, "name": "0b5cc890ff8fa74e165694a3b84a1bf6", "bike_id": "0b5cc890ff8fa74e165694a3b84a1bf6", "type": "electric_scooter", "rental_uris": {"android": "https://dc.lft.to/lastmile_qr_scan", "ios": "https://dc.lft.to/lastmile_qr_scan"}, "fusion_lon": 0.0}, {"is_reserved": 0, "is_disabled": 0, "lon": -76.99844333333333, "lat": 38.902997666666664, "fusion_lat": 0.0, "name": "fb0e88b1401756418966f078ad1dd8bb", "bike_id": "fb0e88b1401756418966f078ad1dd8bb", "type": "electric_scooter", "rental_uris": {"android": "https://dc.lft.to/lastmile_qr_scan", "ios": "https://dc.lft.to/lastmile_qr_scan"}, "fusion_lon": 0.0}, {"is_reserved": 0, "is_disabled": 0, "lon": -76.949098, "lat": 38.8966805, "fusion_lat": 0.0, "name": "f50297e108ab3baabafd1a22a5bfaa59", "bike_id": "f50297e108ab3baabafd1a22a5bfaa59", "type": "electric_scooter", "rental_uris": {"android": "https://dc.lft.to/lastmile_qr_scan", "ios": "https://dc.lft.to/lastmile_qr_scan"}, "fusion_lon": 0.0}, {"is_reserved": 0, "is_disabled": 0, "lon": -77.0007805, "lat": 38.90729233333333, "fusion_lat": 0.0, "name": "340c7dbc53c201b849d3387b77631a17", "bike_id": "340c7dbc53c201b849d3387b77631a17", "type": "electric_scooter", "rental_uris": {"android": "https://dc.lft.to/lastmile_qr_scan", "ios": "https://dc.lft.to/lastmile_qr_scan"}, "fusion_lon": 0.0}, {"is_reserved": 0, "is_disabled": 0, "lon": -77.02929466666667, "lat": 38.895206333333334, "fusion_lat": 0.0, "name": "b451e45c2c5a655f1d79732fcf15622f", "bike_id": "b451e45c2c5a655f1d79732fcf15622f", "type": "electric_scooter", "rental_uris": {"android": "https://dc.lft.to/lastmile_qr_scan", "ios": "https://dc.lft.to/lastmile_qr_scan"}, "fusion_lon": 0.0}, {"is_reserved": 0, "is_disabled": 0, "lon": -77.041849, "lat": 38.920527, "fusion_lat": 0.0, "name": "713cc27061d8fed3a318fcdd7b52d7aa", "bike_id": "713cc27061d8fed3a318fcdd7b52d7aa", "type": "electric_scooter", "rental_uris": {"android": "https://dc.lft.to/lastmile_qr_scan", "ios": "https://dc.lft.to/lastmile_qr_scan"}, "fusion_lon": 0.0}, {"is_reserved": 0, "is_disabled": 0, "lon": -77.04407966666666, "lat": 38.90138533333333, "fusion_lat": 0.0, "name": "fb2365a9ce90126962b64e5a249491de", "bike_id": "fb2365a9ce90126962b64e5a249491de", "type": "electric_scooter", "rental_uris": {"android": "https://dc.lft.to/lastmile_qr_scan", "ios": "https://dc.lft.to/lastmile_qr_scan"}, "fusion_lon": 0.0}, {"is_reserved": 0, "is_disabled": 0, "lon": -77.02314383333334, "lat": 38.908653, "fusion_lat": 0.0, "name": "b75457b9225286842011d73975085f0b", "bike_id": "b75457b9225286842011d73975085f0b", "type": "electric_scooter", "rental_uris": {"android": "https://dc.lft.to/lastmile_qr_scan", "ios": "https://dc.lft.to/lastmile_qr_scan"}, "fusion_lon": 0.0}, {"is_reserved": 0, "is_disabled": 0, "lon": -77.01810183333333, "lat": 38.93017, "fusion_lat": 0.0, "name": "531e906f58d33f5e002656fee6fbedf3", "bike_id": "531e906f58d33f5e002656fee6fbedf3", "type": "electric_bike", "rental_uris": {"android": "https://dc.lft.to/lastmile_qr_scan", "ios": "https://dc.lft.to/lastmile_qr_scan"}, "fusion_lon": 0.0}, {"is_reserved": 0, "is_disabled": 0, "lon": -77.0742825, "lat": 38.96427416666667, "fusion_lat": 0.0, "name": "ccb745c089657f5ff8fab70637f38f1f", "bike_id": "ccb745c089657f5ff8fab70637f38f1f", "type": "electric_scooter", "rental_uris": {"android": "https://dc.lft.to/lastmile_qr_scan", "ios": "https://dc.lft.to/lastmile_qr_scan"}, "fusion_lon": 0.0}, {"is_reserved": 0, "is_disabled": 0, "lon": -77.06416083333333, "lat": 38.94550433333333, "fusion_lat": 0.0, "name": "f9fc93d8180135b4c16294078bc2de8a", "bike_id": "f9fc93d8180135b4c16294078bc2de8a", "type": "electric_scooter", "rental_uris": {"android": "https://dc.lft.to/lastmile_qr_scan", "ios": "https://dc.lft.to/lastmile_qr_scan"}, "fusion_lon": 0.0}, {"is_reserved": 0, "is_disabled": 0, "lon": -76.991467, "lat": 38.900333833333335, "fusion_lat": 0.0, "name": "d4b1f101b063c3f2aeb1ac8fdcb1e661", "bike_id": "d4b1f101b063c3f2aeb1ac8fdcb1e661", "type": "electric_scooter", "rental_uris": {"android": "https://dc.lft.to/lastmile_qr_scan", "ios": "https://dc.lft.to/lastmile_qr_scan"}, "fusion_lon": 0.0}, {"is_reserved": 0, "is_disabled": 0, "lon": -76.9855825, "lat": 38.884278333333334, "fusion_lat": 0.0, "name": "49fe69d9639d527bbb7f88b0b493f2cc", "bike_id": "49fe69d9639d527bbb7f88b0b493f2cc", "type": "electric_scooter", "rental_uris": {"android": "https://dc.lft.to/lastmile_qr_scan", "ios": "https://dc.lft.to/lastmile_qr_scan"}, "fusion_lon": 0.0}, {"is_reserved": 0, "is_disabled": 0, "lon": -77.014543, "lat": 38.9581065, "fusion_lat": 0.0, "name": "ad98c441fc85e6543e024588b8187d8e", "bike_id": "ad98c441fc85e6543e024588b8187d8e", "type": "electric_scooter", "rental_uris": {"android": "https://dc.lft.to/lastmile_qr_scan", "ios": "https://dc.lft.to/lastmile_qr_scan"}, "fusion_lon": 0.0}, {"is_reserved": 0, "is_disabled": 0, "lon": -77.04498633333333, "lat": 38.88487283333333, "fusion_lat": 0.0, "name": "e0d4a299166483652ed44ba386b2da0f", "bike_id": "e0d4a299166483652ed44ba386b2da0f", "type": "electric_scooter", "rental_uris": {"android": "https://dc.lft.to/lastmile_qr_scan", "ios": "https://dc.lft.to/lastmile_qr_scan"}, "fusion_lon": 0.0}, {"is_reserved": 0, "is_disabled": 0, "lon": -77.04357916666666, "lat": 38.89219383333333, "fusion_lat": 0.0, "name": "e89efd606b3d5035bbabbd147ea9bd5d", "bike_id": "e89efd606b3d5035bbabbd147ea9bd5d", "type": "electric_scooter", "rental_uris": {"android": "https://dc.lft.to/lastmile_qr_scan", "ios": "https://dc.lft.to/lastmile_qr_scan"}, "fusion_lon": 0.0}, {"is_reserved": 0, "is_disabled": 0, "lon": -77.02439033333333, "lat": 38.92267833333333, "fusion_lat": 0.0, "name": "fbd2eb5c26296102b46215dfc7c18380", "bike_id": "fbd2eb5c26296102b46215dfc7c18380", "type": "electric_scooter", "rental_uris": {"android": "https://dc.lft.to/lastmile_qr_scan", "ios": "https://dc.lft.to/lastmile_qr_scan"}, "fusion_lon": 0.0}, {"is_reserved": 0, "is_disabled": 0, "lon": -77.04358916666666, "lat": 38.90014983333333, "fusion_lat": 0.0, "name": "0a204c044f2ecc7e6cdda2ce2a92fc31", "bike_id": "0a204c044f2ecc7e6cdda2ce2a92fc31", "type": "electric_scooter", "rental_uris": {"android": "https://dc.lft.to/lastmile_qr_scan", "ios": "https://dc.lft.to/lastmile_qr_scan"}, "fusion_lon": 0.0}, {"is_reserved": 0, "is_disabled": 0, "lon": -76.99692166666667, "lat": 38.90827783333334, "fusion_lat": 0.0, "name": "7f4c55912a1aae01031440b4c923a256", "bike_id": "7f4c55912a1aae01031440b4c923a256", "type": "electric_scooter", "rental_uris": {"android": "https://dc.lft.to/lastmile_qr_scan", "ios": "https://dc.lft.to/lastmile_qr_scan"}, "fusion_lon": 0.0}, {"is_reserved": 0, "is_disabled": 0, "lon": -76.9317565, "lat": 38.89884083333333, "fusion_lat": 0.0, "name": "2965e2212525af14751953e2f75cf646", "bike_id": "2965e2212525af14751953e2f75cf646", "type": "electric_scooter", "rental_uris": {"android": "https://dc.lft.to/lastmile_qr_scan", "ios": "https://dc.lft.to/lastmile_qr_scan"}, "fusion_lon": 0.0}, {"is_reserved": 0, "is_disabled": 0, "lon": -77.01430716666667, "lat": 38.95015333333333, "fusion_lat": 0.0, "name": "dcf53f6fea9a2079f1e3e76a1cdd41df", "bike_id": "dcf53f6fea9a2079f1e3e76a1cdd41df", "type": "electric_scooter", "rental_uris": {"android": "https://dc.lft.to/lastmile_qr_scan", "ios": "https://dc.lft.to/lastmile_qr_scan"}, "fusion_lon": 0.0}, {"is_reserved": 0, "is_disabled": 0, "lon": -77.04190583333333, "lat": 38.920458333333336, "fusion_lat": 0.0, "name": "a0e701aa5578372a51558abb9d5719c9", "bike_id": "a0e701aa5578372a51558abb9d5719c9", "type": "electric_scooter", "rental_uris": {"android": "https://dc.lft.to/lastmile_qr_scan", "ios": "https://dc.lft.to/lastmile_qr_scan"}, "fusion_lon": 0.0}, {"is_reserved": 0, "is_disabled": 0, "lon": -77.229391, "lat": 38.9279525, "fusion_lat": 0.0, "name": "01146c332bccce39f1ca7e9a9804a26d", "bike_id": "01146c332bccce39f1ca7e9a9804a26d", "type": "electric_bike", "rental_uris": {"android": "https://dc.lft.to/lastmile_qr_scan", "ios": "https://dc.lft.to/lastmile_qr_scan"}, "fusion_lon": 0.0}, {"is_reserved": 0, "is_disabled": 0, "lon": -77.03182666666666, "lat": 38.9116845, "fusion_lat": 0.0, "name": "0baf8a038c65b70def246e145d3eeb68", "bike_id": "0baf8a038c65b70def246e145d3eeb68", "type": "electric_scooter", "rental_uris": {"android": "https://dc.lft.to/lastmile_qr_scan", "ios": "https://dc.lft.to/lastmile_qr_scan"}, "fusion_lon": 0.0}, {"is_reserved": 0, "is_disabled": 0, "lon": -77.02506733333334, "lat": 38.926409166666666, "fusion_lat": 0.0, "name": "b3554db2a6b2409f4705b03829863cd8", "bike_id": "b3554db2a6b2409f4705b03829863cd8", "type": "electric_scooter", "rental_uris": {"android": "https://dc.lft.to/lastmile_qr_scan", "ios": "https://dc.lft.to/lastmile_qr_scan"}, "fusion_lon": 0.0}, {"is_reserved": 0, "is_disabled": 0, "lon": -77.0305965, "lat": 38.897500666666666, "fusion_lat": 0.0, "name": "48db4ca619be52ada1f20bb1edeb93f9", "bike_id": "48db4ca619be52ada1f20bb1edeb93f9", "type": "electric_scooter", "rental_uris": {"android": "https://dc.lft.to/lastmile_qr_scan", "ios": "https://dc.lft.to/lastmile_qr_scan"}, "fusion_lon": 0.0}, {"is_reserved": 0, "is_disabled": 0, "lon": -77.02278483333333, "lat": 38.898396, "fusion_lat": 0.0, "name": "3205674162c7e59ad883a57d864f6d41", "bike_id": "3205674162c7e59ad883a57d864f6d41", "type": "electric_scooter", "rental_uris": {"android": "https://dc.lft.to/lastmile_qr_scan", "ios": "https://dc.lft.to/lastmile_qr_scan"}, "fusion_lon": 0.0}, {"is_reserved": 0, "is_disabled": 0, "lon": -77.01629233333334, "lat": 38.910773666666664, "fusion_lat": 0.0, "name": "d1adc0c998db35557088ff0b7beb4720", "bike_id": "d1adc0c998db35557088ff0b7beb4720", "type": "electric_scooter", "rental_uris": {"android": "https://dc.lft.to/lastmile_qr_scan", "ios": "https://dc.lft.to/lastmile_qr_scan"}, "fusion_lon": 0.0}, {"is_reserved": 0, "is_disabled": 0, "lon": -77.01864916666666, "lat": 38.973635333333334, "fusion_lat": 0.0, "name": "046bf0700f45c95981d4c1080c433fda", "bike_id": "046bf0700f45c95981d4c1080c433fda", "type": "electric_scooter", "rental_uris": {"android": "https://dc.lft.to/lastmile_qr_scan", "ios": "https://dc.lft.to/lastmile_qr_scan"}, "fusion_lon": 0.0}, {"is_reserved": 0, "is_disabled": 0, "lon": -76.95576183333333, "lat": 38.968975, "fusion_lat": 0.0, "name": "8ea16118666facfa74379541355326a1", "bike_id": "8ea16118666facfa74379541355326a1", "type": "electric_bike", "rental_uris": {"android": "https://dc.lft.to/lastmile_qr_scan", "ios": "https://dc.lft.to/lastmile_qr_scan"}, "fusion_lon": 0.0}, {"is_reserved": 0, "is_disabled": 0, "lon": -77.00281566666666, "lat": 38.95708883333333, "fusion_lat": 0.0, "name": "be9a31f0743279d72c14bd5abf45283f", "bike_id": "be9a31f0743279d72c14bd5abf45283f", "type": "electric_scooter", "rental_uris": {"android": "https://dc.lft.to/lastmile_qr_scan", "ios": "https://dc.lft.to/lastmile_qr_scan"}, "fusion_lon": 0.0}, {"is_reserved": 0, "is_disabled": 0, "lon": -77.08043133333334, "lat": 38.95601083333333, "fusion_lat": 0.0, "name": "b62e3e34557c9ed4ccdbfbedec905445", "bike_id": "b62e3e34557c9ed4ccdbfbedec905445", "type": "electric_scooter", "rental_uris": {"android": "https://dc.lft.to/lastmile_qr_scan", "ios": "https://dc.lft.to/lastmile_qr_scan"}, "fusion_lon": 0.0}, {"is_reserved": 0, "is_disabled": 0, "lon": -77.02020016666667, "lat": 38.894492666666665, "fusion_lat": 0.0, "name": "473598bd2fd4c539488faecf2f8621cd", "bike_id": "473598bd2fd4c539488faecf2f8621cd", "type": "electric_scooter", "rental_uris": {"android": "https://dc.lft.to/lastmile_qr_scan", "ios": "https://dc.lft.to/lastmile_qr_scan"}, "fusion_lon": 0.0}, {"is_reserved": 0, "is_disabled": 0, "lon": -77.03277166666666, "lat": 38.934423333333335, "fusion_lat": 0.0, "name": "d8cc155befcc4dca9de3eb3bc0bf8173", "bike_id": "d8cc155befcc4dca9de3eb3bc0bf8173", "type": "electric_scooter", "rental_uris": {"android": "https://dc.lft.to/lastmile_qr_scan", "ios": "https://dc.lft.to/lastmile_qr_scan"}, "fusion_lon": 0.0}, {"is_reserved": 0, "is_disabled": 0, "lon": -77.050132, "lat": 38.89776633333334, "fusion_lat": 0.0, "name": "b57e8724f5f5577174a12589ec833779", "bike_id": "b57e8724f5f5577174a12589ec833779", "type": "electric_scooter", "rental_uris": {"android": "https://dc.lft.to/lastmile_qr_scan", "ios": "https://dc.lft.to/lastmile_qr_scan"}, "fusion_lon": 0.0}, {"is_reserved": 0, "is_disabled": 0, "lon": -77.028075, "lat": 38.9024075, "fusion_lat": 0.0, "name": "048cf99a7c4b264117a1bb98efe85c23", "bike_id": "048cf99a7c4b264117a1bb98efe85c23", "type": "electric_scooter", "rental_uris": {"android": "https://dc.lft.to/lastmile_qr_scan", "ios": "https://dc.lft.to/lastmile_qr_scan"}, "fusion_lon": 0.0}, {"is_reserved": 0, "is_disabled": 0, "lon": -76.93176216666667, "lat": 38.8988705, "fusion_lat": 0.0, "name": "2c663182fdf5fd8ad1ac3fc12327763c", "bike_id": "2c663182fdf5fd8ad1ac3fc12327763c", "type": "electric_scooter", "rental_uris": {"android": "https://dc.lft.to/lastmile_qr_scan", "ios": "https://dc.lft.to/lastmile_qr_scan"}, "fusion_lon": 0.0}, {"is_reserved": 0, "is_disabled": 0, "lon": -77.03762933333333, "lat": 38.91687916666667, "fusion_lat": 0.0, "name": "30346bffc92d43163dcabf300f397a90", "bike_id": "30346bffc92d43163dcabf300f397a90", "type": "electric_scooter", "rental_uris": {"android": "https://dc.lft.to/lastmile_qr_scan", "ios": "https://dc.lft.to/lastmile_qr_scan"}, "fusion_lon": 0.0}, {"is_reserved": 0, "is_disabled": 0, "lon": -77.0150515, "lat": 38.90718533333333, "fusion_lat": 0.0, "name": "821054d7e7768ece3bc27a408cfbf5fe", "bike_id": "821054d7e7768ece3bc27a408cfbf5fe", "type": "electric_scooter", "rental_uris": {"android": "https://dc.lft.to/lastmile_qr_scan", "ios": "https://dc.lft.to/lastmile_qr_scan"}, "fusion_lon": 0.0}, {"is_reserved": 0, "is_disabled": 0, "lon": -77.01114183333334, "lat": 38.9034105, "fusion_lat": 0.0, "name": "d13f60e939739c99bbfc5c47d677a3a7", "bike_id": "d13f60e939739c99bbfc5c47d677a3a7", "type": "electric_scooter", "rental_uris": {"android": "https://dc.lft.to/lastmile_qr_scan", "ios": "https://dc.lft.to/lastmile_qr_scan"}, "fusion_lon": 0.0}, {"is_reserved": 0, "is_disabled": 0, "lon": -77.03185266666667, "lat": 38.901458833333336, "fusion_lat": 0.0, "name": "5757850feaed5de0002510e83e78aeca", "bike_id": "5757850feaed5de0002510e83e78aeca", "type": "electric_scooter", "rental_uris": {"android": "https://dc.lft.to/lastmile_qr_scan", "ios": "https://dc.lft.to/lastmile_qr_scan"}, "fusion_lon": 0.0}, {"is_reserved": 0, "is_disabled": 0, "lon": -77.06933116666667, "lat": 38.84627066666667, "fusion_lat": 0.0, "name": "fc15d9086a398ac787d2d5409941fbe9", "bike_id": "fc15d9086a398ac787d2d5409941fbe9", "type": "electric_bike", "rental_uris": {"android": "https://dc.lft.to/lastmile_qr_scan", "ios": "https://dc.lft.to/lastmile_qr_scan"}, "fusion_lon": 0.0}, {"is_reserved": 0, "is_disabled": 0, "lon": -77.008294, "lat": 38.83040333333334, "fusion_lat": 0.0, "name": "51119f5f445f6726c1e9aadcd58e03e3", "bike_id": "51119f5f445f6726c1e9aadcd58e03e3", "type": "electric_bike", "rental_uris": {"android": "https://dc.lft.to/lastmile_qr_scan", "ios": "https://dc.lft.to/lastmile_qr_scan"}, "fusion_lon": 0.0}, {"is_reserved": 0, "is_disabled": 0, "lon": -77.03955766666667, "lat": 38.892453333333336, "fusion_lat": 0.0, "name": "f0103701846806b37b3949eda1fdff70", "bike_id": "f0103701846806b37b3949eda1fdff70", "type": "electric_scooter", "rental_uris": {"android": "https://dc.lft.to/lastmile_qr_scan", "ios": "https://dc.lft.to/lastmile_qr_scan"}, "fusion_lon": 0.0}, {"is_reserved": 0, "is_disabled": 0, "lon": -77.03803683333334, "lat": 38.918035833333334, "fusion_lat": 0.0, "name": "891caf7893f09c35f2124179a24cb96f", "bike_id": "891caf7893f09c35f2124179a24cb96f", "type": "electric_scooter", "rental_uris": {"android": "https://dc.lft.to/lastmile_qr_scan", "ios": "https://dc.lft.to/lastmile_qr_scan"}, "fusion_lon": 0.0}, {"is_reserved": 0, "is_disabled": 0, "lon": -77.03813466666666, "lat": 38.9142355, "fusion_lat": 0.0, "name": "cb56b56a9825eaf28e65bccf27bcbd18", "bike_id": "cb56b56a9825eaf28e65bccf27bcbd18", "type": "electric_scooter", "rental_uris": {"android": "https://dc.lft.to/lastmile_qr_scan", "ios": "https://dc.lft.to/lastmile_qr_scan"}, "fusion_lon": 0.0}, {"is_reserved": 0, "is_disabled": 0, "lon": -77.03791483333333, "lat": 38.92564083333333, "fusion_lat": 0.0, "name": "3f6f15b6f46fbea9b69e8deb6b72faec", "bike_id": "3f6f15b6f46fbea9b69e8deb6b72faec", "type": "electric_scooter", "rental_uris": {"android": "https://dc.lft.to/lastmile_qr_scan", "ios": "https://dc.lft.to/lastmile_qr_scan"}, "fusion_lon": 0.0}, {"is_reserved": 0, "is_disabled": 0, "lon": -77.032455, "lat": 38.91706166666667, "fusion_lat": 0.0, "name": "83f733de22256581fd7248458182b125", "bike_id": "83f733de22256581fd7248458182b125", "type": "electric_scooter", "rental_uris": {"android": "https://dc.lft.to/lastmile_qr_scan", "ios": "https://dc.lft.to/lastmile_qr_scan"}, "fusion_lon": 0.0}, {"is_reserved": 0, "is_disabled": 0, "lon": -77.04815066666667, "lat": 38.89832233333333, "fusion_lat": 0.0, "name": "dce0430f82730d1ad8743c333beea254", "bike_id": "dce0430f82730d1ad8743c333beea254", "type": "electric_scooter", "rental_uris": {"android": "https://dc.lft.to/lastmile_qr_scan", "ios": "https://dc.lft.to/lastmile_qr_scan"}, "fusion_lon": 0.0}, {"is_reserved": 0, "is_disabled": 0, "lon": -77.04711433333334, "lat": 38.899527166666665, "fusion_lat": 0.0, "name": "39e63d9c8f586c0a1bcde67eeb7e38ca", "bike_id": "39e63d9c8f586c0a1bcde67eeb7e38ca", "type": "electric_scooter", "rental_uris": {"android": "https://dc.lft.to/lastmile_qr_scan", "ios": "https://dc.lft.to/lastmile_qr_scan"}, "fusion_lon": 0.0}, {"is_reserved": 0, "is_disabled": 0, "lon": -77.04510366666666, "lat": 38.905817, "fusion_lat": 0.0, "name": "b550c21bd2f9082d3f55de15d7d83099", "bike_id": "b550c21bd2f9082d3f55de15d7d83099", "type": "electric_scooter", "rental_uris": {"android": "https://dc.lft.to/lastmile_qr_scan", "ios": "https://dc.lft.to/lastmile_qr_scan"}, "fusion_lon": 0.0}, {"is_reserved": 0, "is_disabled": 0, "lon": -76.93763116666666, "lat": 38.8997035, "fusion_lat": 0.0, "name": "bbed038a12fce689ab6cb1b90fe09a54", "bike_id": "bbed038a12fce689ab6cb1b90fe09a54", "type": "electric_scooter", "rental_uris": {"android": "https://dc.lft.to/lastmile_qr_scan", "ios": "https://dc.lft.to/lastmile_qr_scan"}, "fusion_lon": 0.0}, {"is_reserved": 0, "is_disabled": 0, "lon": -77.00352683333334, "lat": 38.896161166666666, "fusion_lat": 0.0, "name": "e506b107eea7af077eae430f41ccd27b", "bike_id": "e506b107eea7af077eae430f41ccd27b", "type": "electric_scooter", "rental_uris": {"android": "https://dc.lft.to/lastmile_qr_scan", "ios": "https://dc.lft.to/lastmile_qr_scan"}, "fusion_lon": 0.0}, {"is_reserved": 0, "is_disabled": 0, "lon": -77.058524, "lat": 38.9239345, "fusion_lat": 0.0, "name": "c9da97cc3d664ac9f7729aa427dc432b", "bike_id": "c9da97cc3d664ac9f7729aa427dc432b", "type": "electric_bike", "rental_uris": {"android": "https://dc.lft.to/lastmile_qr_scan", "ios": "https://dc.lft.to/lastmile_qr_scan"}, "fusion_lon": 0.0}, {"is_reserved": 0, "is_disabled": 0, "lon": -76.9970415, "lat": 38.884813333333334, "fusion_lat": 0.0, "name": "fa1c53275d24bd2ce38f504b4291e7d3", "bike_id": "fa1c53275d24bd2ce38f504b4291e7d3", "type": "electric_scooter", "rental_uris": {"android": "https://dc.lft.to/lastmile_qr_scan", "ios": "https://dc.lft.to/lastmile_qr_scan"}, "fusion_lon": 0.0}, {"is_reserved": 0, "is_disabled": 0, "lon": -77.031208, "lat": 38.91810916666667, "fusion_lat": 0.0, "name": "fabd46ef4fcc71f2cd6365a01df37568", "bike_id": "fabd46ef4fcc71f2cd6365a01df37568", "type": "electric_scooter", "rental_uris": {"android": "https://dc.lft.to/lastmile_qr_scan", "ios": "https://dc.lft.to/lastmile_qr_scan"}, "fusion_lon": 0.0}, {"is_reserved": 0, "is_disabled": 0, "lon": -77.04162783333334, "lat": 38.8957705, "fusion_lat": 0.0, "name": "c411c3b1975df7b676d01a8c987b1df1", "bike_id": "c411c3b1975df7b676d01a8c987b1df1", "type": "electric_scooter", "rental_uris": {"android": "https://dc.lft.to/lastmile_qr_scan", "ios": "https://dc.lft.to/lastmile_qr_scan"}, "fusion_lon": 0.0}, {"is_reserved": 0, "is_disabled": 0, "lon": -77.01779083333334, "lat": 38.921457833333335, "fusion_lat": 0.0, "name": "491886ac0f2638a93de731505c7bffea", "bike_id": "491886ac0f2638a93de731505c7bffea", "type": "electric_scooter", "rental_uris": {"android": "https://dc.lft.to/lastmile_qr_scan", "ios": "https://dc.lft.to/lastmile_qr_scan"}, "fusion_lon": 0.0}, {"is_reserved": 0, "is_disabled": 0, "lon": -77.02726333333334, "lat": 38.904196166666665, "fusion_lat": 0.0, "name": "7ed83896d88d113dc1e7ba42ef6e7943", "bike_id": "7ed83896d88d113dc1e7ba42ef6e7943", "type": "electric_scooter", "rental_uris": {"android": "https://dc.lft.to/lastmile_qr_scan", "ios": "https://dc.lft.to/lastmile_qr_scan"}, "fusion_lon": 0.0}, {"is_reserved": 0, "is_disabled": 0, "lon": -76.99492766666667, "lat": 38.9062245, "fusion_lat": 0.0, "name": "0eb821e968280aac90c5cee0174934cd", "bike_id": "0eb821e968280aac90c5cee0174934cd", "type": "electric_scooter", "rental_uris": {"android": "https://dc.lft.to/lastmile_qr_scan", "ios": "https://dc.lft.to/lastmile_qr_scan"}, "fusion_lon": 0.0}, {"is_reserved": 0, "is_disabled": 0, "lon": -77.078392, "lat": 38.93148733333334, "fusion_lat": 0.0, "name": "20994ff70380b9eca0aa7b9c6364cd2e", "bike_id": "20994ff70380b9eca0aa7b9c6364cd2e", "type": "electric_scooter", "rental_uris": {"android": "https://dc.lft.to/lastmile_qr_scan", "ios": "https://dc.lft.to/lastmile_qr_scan"}, "fusion_lon": 0.0}, {"is_reserved": 0, "is_disabled": 0, "lon": -77.06383933333333, "lat": 38.90819666666667, "fusion_lat": 0.0, "name": "86a800fd481c7cb47a8fbac67cd07370", "bike_id": "86a800fd481c7cb47a8fbac67cd07370", "type": "electric_scooter", "rental_uris": {"android": "https://dc.lft.to/lastmile_qr_scan", "ios": "https://dc.lft.to/lastmile_qr_scan"}, "fusion_lon": 0.0}, {"is_reserved": 0, "is_disabled": 0, "lon": -77.023064, "lat": 38.916668, "fusion_lat": 0.0, "name": "4114ce54f484a50842cd20ea691cf0fa", "bike_id": "4114ce54f484a50842cd20ea691cf0fa", "type": "electric_scooter", "rental_uris": {"android": "https://dc.lft.to/lastmile_qr_scan", "ios": "https://dc.lft.to/lastmile_qr_scan"}, "fusion_lon": 0.0}, {"is_reserved": 0, "is_disabled": 0, "lon": -77.02022683333334, "lat": 38.924131833333334, "fusion_lat": 0.0, "name": "92c0fc73eb16dfd708f026cd6d99b09e", "bike_id": "92c0fc73eb16dfd708f026cd6d99b09e", "type": "electric_scooter", "rental_uris": {"android": "https://dc.lft.to/lastmile_qr_scan", "ios": "https://dc.lft.to/lastmile_qr_scan"}, "fusion_lon": 0.0}, {"is_reserved": 0, "is_disabled": 0, "lon": -76.99370166666667, "lat": 38.92732633333333, "fusion_lat": 0.0, "name": "4253ab94a8bafcb36c39c5e0121e7d61", "bike_id": "4253ab94a8bafcb36c39c5e0121e7d61", "type": "electric_bike", "rental_uris": {"android": "https://dc.lft.to/lastmile_qr_scan", "ios": "https://dc.lft.to/lastmile_qr_scan"}, "fusion_lon": 0.0}, {"is_reserved": 0, "is_disabled": 0, "lon": -77.0221985, "lat": 38.92468566666667, "fusion_lat": 0.0, "name": "aa8f9cee13b9a44800283732798570f4", "bike_id": "aa8f9cee13b9a44800283732798570f4", "type": "electric_scooter", "rental_uris": {"android": "https://dc.lft.to/lastmile_qr_scan", "ios": "https://dc.lft.to/lastmile_qr_scan"}, "fusion_lon": 0.0}, {"is_reserved": 0, "is_disabled": 0, "lon": -77.07354966666666, "lat": 38.937363, "fusion_lat": 0.0, "name": "aad172ca86c7d91ba2395643dd99d519", "bike_id": "aad172ca86c7d91ba2395643dd99d519", "type": "electric_scooter", "rental_uris": {"android": "https://dc.lft.to/lastmile_qr_scan", "ios": "https://dc.lft.to/lastmile_qr_scan"}, "fusion_lon": 0.0}, {"is_reserved": 0, "is_disabled": 0, "lon": -77.00296933333334, "lat": 38.891939, "fusion_lat": 0.0, "name": "21ed8e1d16668cb820523764221afe38", "bike_id": "21ed8e1d16668cb820523764221afe38", "type": "electric_scooter", "rental_uris": {"android": "https://dc.lft.to/lastmile_qr_scan", "ios": "https://dc.lft.to/lastmile_qr_scan"}, "fusion_lon": 0.0}, {"is_reserved": 0, "is_disabled": 0, "lon": -76.99620383333334, "lat": 38.883982833333334, "fusion_lat": 0.0, "name": "a87ce3684ca370b527f8998b2391cdab", "bike_id": "a87ce3684ca370b527f8998b2391cdab", "type": "electric_scooter", "rental_uris": {"android": "https://dc.lft.to/lastmile_qr_scan", "ios": "https://dc.lft.to/lastmile_qr_scan"}, "fusion_lon": 0.0}, {"is_reserved": 0, "is_disabled": 0, "lon": -77.045003, "lat": 38.91361216666667, "fusion_lat": 0.0, "name": "abb95c394d486cab230fb76344ed2d9d", "bike_id": "abb95c394d486cab230fb76344ed2d9d", "type": "electric_scooter", "rental_uris": {"android": "https://dc.lft.to/lastmile_qr_scan", "ios": "https://dc.lft.to/lastmile_qr_scan"}, "fusion_lon": 0.0}, {"is_reserved": 0, "is_disabled": 0, "lon": -77.04354, "lat": 38.921734666666666, "fusion_lat": 0.0, "name": "71c909c7686add3f77283058b1ce737d", "bike_id": "71c909c7686add3f77283058b1ce737d", "type": "electric_scooter", "rental_uris": {"android": "https://dc.lft.to/lastmile_qr_scan", "ios": "https://dc.lft.to/lastmile_qr_scan"}, "fusion_lon": 0.0}, {"is_reserved": 0, "is_disabled": 0, "lon": -77.09688266666667, "lat": 38.807388333333336, "fusion_lat": 0.0, "name": "38e4836bef000b14f93c63311207cc55", "bike_id": "38e4836bef000b14f93c63311207cc55", "type": "electric_bike", "rental_uris": {"android": "https://dc.lft.to/lastmile_qr_scan", "ios": "https://dc.lft.to/lastmile_qr_scan"}, "fusion_lon": 0.0}, {"is_reserved": 0, "is_disabled": 0, "lon": -77.0272605, "lat": 38.97149733333333, "fusion_lat": 0.0, "name": "7e5ec6c70f0e189d10e89aea381a0b6b", "bike_id": "7e5ec6c70f0e189d10e89aea381a0b6b", "type": "electric_bike", "rental_uris": {"android": "https://dc.lft.to/lastmile_qr_scan", "ios": "https://dc.lft.to/lastmile_qr_scan"}, "fusion_lon": 0.0}, {"is_reserved": 0, "is_disabled": 0, "lon": -77.23390433333333, "lat": 38.87172316666667, "fusion_lat": 0.0, "name": "5d2d53ae991b6433716aaece6d682ba5", "bike_id": "5d2d53ae991b6433716aaece6d682ba5", "type": "electric_bike", "rental_uris": {"android": "https://dc.lft.to/lastmile_qr_scan", "ios": "https://dc.lft.to/lastmile_qr_scan"}, "fusion_lon": 0.0}, {"is_reserved": 0, "is_disabled": 0, "lon": -77.044994, "lat": 38.907536, "fusion_lat": 0.0, "name": "e755de4eecf582aecb6f7f7491257d11", "bike_id": "e755de4eecf582aecb6f7f7491257d11", "type": "electric_scooter", "rental_uris": {"android": "https://dc.lft.to/lastmile_qr_scan", "ios": "https://dc.lft.to/lastmile_qr_scan"}, "fusion_lon": 0.0}, {"is_reserved": 0, "is_disabled": 0, "lon": -76.98338783333334, "lat": 38.895481, "fusion_lat": 0.0, "name": "a953caf45e6879d1c6cc5a896b8c7488", "bike_id": "a953caf45e6879d1c6cc5a896b8c7488", "type": "electric_scooter", "rental_uris": {"android": "https://dc.lft.to/lastmile_qr_scan", "ios": "https://dc.lft.to/lastmile_qr_scan"}, "fusion_lon": 0.0}, {"is_reserved": 0, "is_disabled": 0, "lon": -77.02372366666667, "lat": 38.923983, "fusion_lat": 0.0, "name": "a41950614b90fd4143c445a8c1f62611", "bike_id": "a41950614b90fd4143c445a8c1f62611", "type": "electric_scooter", "rental_uris": {"android": "https://dc.lft.to/lastmile_qr_scan", "ios": "https://dc.lft.to/lastmile_qr_scan"}, "fusion_lon": 0.0}, {"is_reserved": 0, "is_disabled": 0, "lon": -77.00032616666667, "lat": 38.87397633333333, "fusion_lat": 0.0, "name": "c00a1abc5a203841e10bab0124847463", "bike_id": "c00a1abc5a203841e10bab0124847463", "type": "electric_scooter", "rental_uris": {"android": "https://dc.lft.to/lastmile_qr_scan", "ios": "https://dc.lft.to/lastmile_qr_scan"}, "fusion_lon": 0.0}, {"is_reserved": 0, "is_disabled": 0, "lon": -77.00607366666667, "lat": 38.9111, "fusion_lat": 0.0, "name": "3aeb66c62987f819b0cb9894c6f8ccfb", "bike_id": "3aeb66c62987f819b0cb9894c6f8ccfb", "type": "electric_scooter", "rental_uris": {"android": "https://dc.lft.to/lastmile_qr_scan", "ios": "https://dc.lft.to/lastmile_qr_scan"}, "fusion_lon": 0.0}, {"is_reserved": 0, "is_disabled": 0, "lon": -77.05932283333334, "lat": 38.909311333333335, "fusion_lat": 0.0, "name": "89d6f3ee47e7b03ccac7bae404edf62d", "bike_id": "89d6f3ee47e7b03ccac7bae404edf62d", "type": "electric_scooter", "rental_uris": {"android": "https://dc.lft.to/lastmile_qr_scan", "ios": "https://dc.lft.to/lastmile_qr_scan"}, "fusion_lon": 0.0}, {"is_reserved": 0, "is_disabled": 0, "lon": -77.03186983333333, "lat": 38.913279833333334, "fusion_lat": 0.0, "name": "f1e606fcceb63b3098805a27d17e570c", "bike_id": "f1e606fcceb63b3098805a27d17e570c", "type": "electric_scooter", "rental_uris": {"android": "https://dc.lft.to/lastmile_qr_scan", "ios": "https://dc.lft.to/lastmile_qr_scan"}, "fusion_lon": 0.0}, {"is_reserved": 0, "is_disabled": 0, "lon": -77.03865183333333, "lat": 38.917084333333335, "fusion_lat": 0.0, "name": "67485e60c4253bfca2028d0b68ec211f", "bike_id": "67485e60c4253bfca2028d0b68ec211f", "type": "electric_scooter", "rental_uris": {"android": "https://dc.lft.to/lastmile_qr_scan", "ios": "https://dc.lft.to/lastmile_qr_scan"}, "fusion_lon": 0.0}, {"is_reserved": 0, "is_disabled": 0, "lon": -77.048222, "lat": 38.89968233333333, "fusion_lat": 0.0, "name": "b95d8f30d14da0ad06c3341d12272b38", "bike_id": "b95d8f30d14da0ad06c3341d12272b38", "type": "electric_scooter", "rental_uris": {"android": "https://dc.lft.to/lastmile_qr_scan", "ios": "https://dc.lft.to/lastmile_qr_scan"}, "fusion_lon": 0.0}, {"is_reserved": 0, "is_disabled": 0, "lon": -77.08137266666667, "lat": 38.91938533333333, "fusion_lat": 0.0, "name": "41695947f652e7f34e2ea9e964fab59f", "bike_id": "41695947f652e7f34e2ea9e964fab59f", "type": "electric_scooter", "rental_uris": {"android": "https://dc.lft.to/lastmile_qr_scan", "ios": "https://dc.lft.to/lastmile_qr_scan"}, "fusion_lon": 0.0}, {"is_reserved": 0, "is_disabled": 0, "lon": -77.0281905, "lat": 38.92235383333333, "fusion_lat": 0.0, "name": "325d8b5c5222bb82a1c43ec4c8510f26", "bike_id": "325d8b5c5222bb82a1c43ec4c8510f26", "type": "electric_scooter", "rental_uris": {"android": "https://dc.lft.to/lastmile_qr_scan", "ios": "https://dc.lft.to/lastmile_qr_scan"}, "fusion_lon": 0.0}, {"is_reserved": 0, "is_disabled": 0, "lon": -77.0196475, "lat": 38.89319483333333, "fusion_lat": 0.0, "name": "c83d8b479b77d1e8118c8b411b8bbf57", "bike_id": "c83d8b479b77d1e8118c8b411b8bbf57", "type": "electric_scooter", "rental_uris": {"android": "https://dc.lft.to/lastmile_qr_scan", "ios": "https://dc.lft.to/lastmile_qr_scan"}, "fusion_lon": 0.0}, {"is_reserved": 0, "is_disabled": 0, "lon": -77.02165483333333, "lat": 38.93071966666667, "fusion_lat": 0.0, "name": "5fb4b32465643850c5d4ac15c8921f49", "bike_id": "5fb4b32465643850c5d4ac15c8921f49", "type": "electric_scooter", "rental_uris": {"android": "https://dc.lft.to/lastmile_qr_scan", "ios": "https://dc.lft.to/lastmile_qr_scan"}, "fusion_lon": 0.0}, {"is_reserved": 0, "is_disabled": 0, "lon": -77.02976383333333, "lat": 38.90561366666667, "fusion_lat": 0.0, "name": "a1f46ef2d813a7e666728d7413c331e6", "bike_id": "a1f46ef2d813a7e666728d7413c331e6", "type": "electric_scooter", "rental_uris": {"android": "https://dc.lft.to/lastmile_qr_scan", "ios": "https://dc.lft.to/lastmile_qr_scan"}, "fusion_lon": 0.0}, {"is_reserved": 0, "is_disabled": 0, "lon": -77.01853416666667, "lat": 38.90562033333333, "fusion_lat": 0.0, "name": "939065cc56e25e3d1bc4f0567200608d", "bike_id": "939065cc56e25e3d1bc4f0567200608d", "type": "electric_scooter", "rental_uris": {"android": "https://dc.lft.to/lastmile_qr_scan", "ios": "https://dc.lft.to/lastmile_qr_scan"}, "fusion_lon": 0.0}, {"is_reserved": 0, "is_disabled": 0, "lon": -77.02191916666666, "lat": 38.91482083333333, "fusion_lat": 0.0, "name": "6f0eb9a11f61c59a32a498f4ce0991b4", "bike_id": "6f0eb9a11f61c59a32a498f4ce0991b4", "type": "electric_scooter", "rental_uris": {"android": "https://dc.lft.to/lastmile_qr_scan", "ios": "https://dc.lft.to/lastmile_qr_scan"}, "fusion_lon": 0.0}, {"is_reserved": 0, "is_disabled": 0, "lon": -77.02169333333333, "lat": 38.899081, "fusion_lat": 0.0, "name": "14a2728db587f62a9193844621715bf2", "bike_id": "14a2728db587f62a9193844621715bf2", "type": "electric_scooter", "rental_uris": {"android": "https://dc.lft.to/lastmile_qr_scan", "ios": "https://dc.lft.to/lastmile_qr_scan"}, "fusion_lon": 0.0}, {"is_reserved": 0, "is_disabled": 0, "lon": -77.01762583333333, "lat": 38.916877166666666, "fusion_lat": 0.0, "name": "d66e036d1c8616a51c33ca072ad80ad3", "bike_id": "d66e036d1c8616a51c33ca072ad80ad3", "type": "electric_scooter", "rental_uris": {"android": "https://dc.lft.to/lastmile_qr_scan", "ios": "https://dc.lft.to/lastmile_qr_scan"}, "fusion_lon": 0.0}, {"is_reserved": 0, "is_disabled": 0, "lon": -77.0403, "lat": 38.923406666666665, "fusion_lat": 0.0, "name": "e6a29c10527858d372f4fe3fd12e493e", "bike_id": "e6a29c10527858d372f4fe3fd12e493e", "type": "electric_scooter", "rental_uris": {"android": "https://dc.lft.to/lastmile_qr_scan", "ios": "https://dc.lft.to/lastmile_qr_scan"}, "fusion_lon": 0.0}, {"is_reserved": 0, "is_disabled": 0, "lon": -77.03019216666667, "lat": 38.89223716666667, "fusion_lat": 0.0, "name": "1d814974576edaac3489ce300c41f24f", "bike_id": "1d814974576edaac3489ce300c41f24f", "type": "electric_scooter", "rental_uris": {"android": "https://dc.lft.to/lastmile_qr_scan", "ios": "https://dc.lft.to/lastmile_qr_scan"}, "fusion_lon": 0.0}, {"is_reserved": 0, "is_disabled": 0, "lon": -77.04110483333334, "lat": 38.91691616666667, "fusion_lat": 0.0, "name": "60502bb47f393f513256e2bf2cfa1e2e", "bike_id": "60502bb47f393f513256e2bf2cfa1e2e", "type": "electric_scooter", "rental_uris": {"android": "https://dc.lft.to/lastmile_qr_scan", "ios": "https://dc.lft.to/lastmile_qr_scan"}, "fusion_lon": 0.0}, {"is_reserved": 0, "is_disabled": 0, "lon": -77.0805965, "lat": 38.923733, "fusion_lat": 0.0, "name": "ffc738d1fa358b4ddc140b4662b3739c", "bike_id": "ffc738d1fa358b4ddc140b4662b3739c", "type": "electric_scooter", "rental_uris": {"android": "https://dc.lft.to/lastmile_qr_scan", "ios": "https://dc.lft.to/lastmile_qr_scan"}, "fusion_lon": 0.0}, {"is_reserved": 0, "is_disabled": 0, "lon": -77.01406833333333, "lat": 38.928246, "fusion_lat": 0.0, "name": "6ae66e6832786bb44db72ba10bc1c7a1", "bike_id": "6ae66e6832786bb44db72ba10bc1c7a1", "type": "electric_scooter", "rental_uris": {"android": "https://dc.lft.to/lastmile_qr_scan", "ios": "https://dc.lft.to/lastmile_qr_scan"}, "fusion_lon": 0.0}, {"is_reserved": 0, "is_disabled": 0, "lon": -77.02297933333334, "lat": 38.9149505, "fusion_lat": 0.0, "name": "821e99371aed86a9d02e4b331fef0fb6", "bike_id": "821e99371aed86a9d02e4b331fef0fb6", "type": "electric_scooter", "rental_uris": {"android": "https://dc.lft.to/lastmile_qr_scan", "ios": "https://dc.lft.to/lastmile_qr_scan"}, "fusion_lon": 0.0}, {"is_reserved": 0, "is_disabled": 0, "lon": -77.01115383333334, "lat": 38.8851055, "fusion_lat": 0.0, "name": "6efc266f7f80b1cd5bc3307bc451f7da", "bike_id": "6efc266f7f80b1cd5bc3307bc451f7da", "type": "electric_scooter", "rental_uris": {"android": "https://dc.lft.to/lastmile_qr_scan", "ios": "https://dc.lft.to/lastmile_qr_scan"}, "fusion_lon": 0.0}, {"is_reserved": 0, "is_disabled": 0, "lon": -76.93546916666666, "lat": 38.951842666666664, "fusion_lat": 0.0, "name": "1995595dad8e191a275c6ba1bfb41064", "bike_id": "1995595dad8e191a275c6ba1bfb41064", "type": "electric_bike", "rental_uris": {"android": "https://dc.lft.to/lastmile_qr_scan", "ios": "https://dc.lft.to/lastmile_qr_scan"}, "fusion_lon": 0.0}, {"is_reserved": 0, "is_disabled": 0, "lon": -77.03659016666667, "lat": 38.9185945, "fusion_lat": 0.0, "name": "53beef9d01b68e5e46db7dddc11ce849", "bike_id": "53beef9d01b68e5e46db7dddc11ce849", "type": "electric_scooter", "rental_uris": {"android": "https://dc.lft.to/lastmile_qr_scan", "ios": "https://dc.lft.to/lastmile_qr_scan"}, "fusion_lon": 0.0}, {"is_reserved": 0, "is_disabled": 0, "lon": -76.98339833333333, "lat": 38.89545733333333, "fusion_lat": 0.0, "name": "810ae51b95b79f520fa5773d36ca4dbd", "bike_id": "810ae51b95b79f520fa5773d36ca4dbd", "type": "electric_scooter", "rental_uris": {"android": "https://dc.lft.to/lastmile_qr_scan", "ios": "https://dc.lft.to/lastmile_qr_scan"}, "fusion_lon": 0.0}, {"is_reserved": 0, "is_disabled": 0, "lon": -77.028073, "lat": 38.91617866666667, "fusion_lat": 0.0, "name": "8c4afcb35950ec3b18942bdc69ab24f3", "bike_id": "8c4afcb35950ec3b18942bdc69ab24f3", "type": "electric_scooter", "rental_uris": {"android": "https://dc.lft.to/lastmile_qr_scan", "ios": "https://dc.lft.to/lastmile_qr_scan"}, "fusion_lon": 0.0}, {"is_reserved": 0, "is_disabled": 0, "lon": -76.954324, "lat": 38.885727, "fusion_lat": 0.0, "name": "9a70457da8edbc8d37be1bb8fdce5167", "bike_id": "9a70457da8edbc8d37be1bb8fdce5167", "type": "electric_scooter", "rental_uris": {"android": "https://dc.lft.to/lastmile_qr_scan", "ios": "https://dc.lft.to/lastmile_qr_scan"}, "fusion_lon": 0.0}, {"is_reserved": 0, "is_disabled": 0, "lon": -77.02247983333334, "lat": 38.924642, "fusion_lat": 0.0, "name": "d9571c105a912d7a944e229eb356355e", "bike_id": "d9571c105a912d7a944e229eb356355e", "type": "electric_scooter", "rental_uris": {"android": "https://dc.lft.to/lastmile_qr_scan", "ios": "https://dc.lft.to/lastmile_qr_scan"}, "fusion_lon": 0.0}, {"is_reserved": 0, "is_disabled": 0, "lon": -76.996207, "lat": 38.88520366666667, "fusion_lat": 0.0, "name": "0ed44dc29ec353a2806c517ea923edbc", "bike_id": "0ed44dc29ec353a2806c517ea923edbc", "type": "electric_scooter", "rental_uris": {"android": "https://dc.lft.to/lastmile_qr_scan", "ios": "https://dc.lft.to/lastmile_qr_scan"}, "fusion_lon": 0.0},