{"data": {"bikes": [{"name": "662d358e0afcab6860818c4822cde462", "fusion_lat": 0.0, "type": "electric_scooter", "lat": 38.9129575, "is_reserved": 0, "is_disabled": 0, "fusion_lon": 0.0, "bike_id": "662d358e0afcab6860818c4822cde462", "lon": -76.9373755, "rental_uris": {"ios": "https://dc.lft.to/lastmile_qr_scan", "android": "https://dc.lft.to/lastmile_qr_scan"}}, {"name": "61571ed44b5af686cee62e26fe51277e", "fusion_lat": 0.0, "type": "electric_scooter", "lat": 38.9251875, "is_reserved": 0, "is_disabled": 0, "fusion_lon": 0.0, "bike_id": "61571ed44b5af686cee62e26fe51277e", "lon": -77.00175833333333, "rental_uris": {"ios": "https://dc.lft.to/lastmile_qr_scan", "android": "https://dc.lft.to/lastmile_qr_scan"}}, {"name": "960bd888d56f72eaa807396b64d7e12e", "fusion_lat": 0.0, "type": "electric_scooter", "lat": 38.91696916666667, "is_reserved": 0, "is_disabled": 0, "fusion_lon": 0.0, "bike_id": "960bd888d56f72eaa807396b64d7e12e", "lon": -77.01876933333334, "rental_uris": {"ios": "https://dc.lft.to/lastmile_qr_scan", "android": "https://dc.lft.to/lastmile_qr_scan"}}, {"name": "55cf7eef896a55dc7b91c58a8cae7d24", "fusion_lat": 0.0, "type": "electric_scooter", "lat": 38.90797966666667, "is_reserved": 0, "is_disabled": 0, "fusion_lon": 0.0, "bike_id": "55cf7eef896a55dc7b91c58a8cae7d24", "lon": -77.01814166666666, "rental_uris": {"ios": "https://dc.lft.to/lastmile_qr_scan", "android": "https://dc.lft.to/lastmile_qr_scan"}}, {"name": "32937223469035ec214079d64d803766", "fusion_lat": 0.0, "type": "electric_scooter", "lat": 38.924929166666665, "is_reserved": 0, "is_disabled": 0, "fusion_lon": 0.0, "bike_id": "32937223469035ec214079d64d803766", "lon": -77.02711366666666, "rental_uris": {"ios": "https://dc.lft.to/lastmile_qr_scan", "android": "https://dc.lft.to/lastmile_qr_scan"}}, {"name": "73dd708ff697de1e221b1542df4ac0e6", "fusion_lat": 0.0, "type": "electric_scooter", "lat": 38.929703333333336, "is_reserved": 0, "is_disabled": 0, "fusion_lon": 0.0, "bike_id": "73dd708ff697de1e221b1542df4ac0e6", "lon": -77.04114633333333, "rental_uris": {"ios": "https://dc.lft.to/lastmile_qr_scan", "android": "https://dc.lft.to/lastmile_qr_scan"}}, {"name": "180d1cc76e95b7346496ebb7d8fff11f", "fusion_lat": 0.0, "type": "electric_scooter", "lat": 38.91764333333333, "is_reserved": 0, "is_disabled": 0, "fusion_lon": 0.0, "bike_id": "180d1cc76e95b7346496ebb7d8fff11f", "lon": -77.09669166666667, "rental_uris": {"ios": "https://dc.lft.to/lastmile_qr_scan", "android": "https://dc.lft.to/lastmile_qr_scan"}}, {"name": "1d912305f784f260875aeb2d4ec0fc3e", "fusion_lat": 0.0, "type": "electric_scooter", "lat": 38.932424166666664, "is_reserved": 0, "is_disabled": 0, "fusion_lon": 0.0, "bike_id": "1d912305f784f260875aeb2d4ec0fc3e", "lon": -77.03848116666667, "rental_uris": {"ios": "https://dc.lft.to/lastmile_qr_scan", "android": "https://dc.lft.to/lastmile_qr_scan"}}, {"name": "9360aec9a423173a708afca7d8a2629a", "fusion_lat": 0.0, "type": "electric_scooter", "lat": 38.89552183333333, "is_reserved": 0, "is_disabled": 0, "fusion_lon": 0.0, "bike_id": "9360aec9a423173a708afca7d8a2629a", "lon": -76.948757, "rental_uris": {"ios": "https://dc.lft.to/lastmile_qr_scan", "android": "https://dc.lft.to/lastmile_qr_scan"}}, {"name": "71887e3394aa91ab46262bdb2705f631", "fusion_lat": 0.0, "type": "electric_scooter", "lat": 38.866589, "is_reserved": 0, "is_disabled": 0, "fusion_lon": 0.0, "bike_id": "71887e3394aa91ab46262bdb2705f631", "lon": -76.98883733333334, "rental_uris": {"ios": "https://dc.lft.to/lastmile_qr_scan", "android": "https://dc.lft.to/lastmile_qr_scan"}}, {"name": "33a33648f8905c60ea97fe2751524f29", "fusion_lat": 0.0, "type": "electric_scooter", "lat": 38.919825833333334, "is_reserved": 0, "is_disabled": 0, "fusion_lon": 0.0, "bike_id": "33a33648f8905c60ea97fe2751524f29", "lon": -77.025001, "rental_uris": {"ios": "https://dc.lft.to/lastmile_qr_scan", "android": "https://dc.lft.to/lastmile_qr_scan"}}, {"name": "71a40d6fec5c9918acf2ef9cd47adbb1", "fusion_lat": 0.0, "type": "electric_scooter", "lat": 38.911098, "is_reserved": 0, "is_disabled": 0, "fusion_lon": 0.0, "bike_id": "71a40d6fec5c9918acf2ef9cd47adbb1", "lon": -77.02458083333333, "rental_uris": {"ios": "https://dc.lft.to/lastmile_qr_scan", "android": "https://dc.lft.to/lastmile_qr_scan"}}, {"name": "51086929d5e2d4063b3556db7ee1216f", "fusion_lat": 0.0, "type": "electric_scooter", "lat": 38.90748583333333, "is_reserved": 0, "is_disabled": 0, "fusion_lon": 0.0, "bike_id": "51086929d5e2d4063b3556db7ee1216f", "lon": -77.04667416666666, "rental_uris": {"ios": "https://dc.lft.to/lastmile_qr_scan", "android": "https://dc.lft.to/lastmile_qr_scan"}}, {"name": "5fce7004d9700917d6f31f36dd6dc5a3", "fusion_lat": 0.0, "type": "electric_scooter", "lat": 38.896095333333335, "is_reserved": 0, "is_disabled": 0, "fusion_lon": 0.0, "bike_id": "5fce7004d9700917d6f31f36dd6dc5a3", "lon": -77.0446535, "rental_uris": {"ios": "https://dc.lft.to/lastmile_qr_scan", "android": "https://dc.lft.to/lastmile_qr_scan"}}, {"name": "fc4ef5714c5f6e20a062e33c8f648dd3", "fusion_lat": 0.0, "type": "electric_scooter", "lat": 38.87580166666667, "is_reserved": 0, "is_disabled": 0, "fusion_lon": 0.0, "bike_id": "fc4ef5714c5f6e20a062e33c8f648dd3", "lon": -77.010594, "rental_uris": {"ios": "https://dc.lft.to/lastmile_qr_scan", "android": "https://dc.lft.to/lastmile_qr_scan"}}, {"name": "598190ef169bb096b03e360bd9b44691", "fusion_lat": 0.0, "type": "electric_scooter", "lat": 38.9098775, "is_reserved": 0, "is_disabled": 0, "fusion_lon": 0.0, "bike_id": "598190ef169bb096b03e360bd9b44691", "lon": -77.0426345, "rental_uris": {"ios": "https://dc.lft.to/lastmile_qr_scan", "android": "https://dc.lft.to/lastmile_qr_scan"}}, {"name": "0467d61718dd76486c4233c3910ae9a5", "fusion_lat": 0.0, "type": "electric_scooter", "lat": 38.89221416666667, "is_reserved": 0, "is_disabled": 0, "fusion_lon": 0.0, "bike_id": "0467d61718dd76486c4233c3910ae9a5", "lon": -77.03166383333334, "rental_uris": {"ios": "https://dc.lft.to/lastmile_qr_scan", "android": "https://dc.lft.to/lastmile_qr_scan"}}, {"name": "241c096aa146892f9f49cb83c22b2abc", "fusion_lat": 0.0, "type": "electric_scooter", "lat": 38.90255066666667, "is_reserved": 0, "is_disabled": 0, "fusion_lon": 0.0, "bike_id": "241c096aa146892f9f49cb83c22b2abc", "lon": -76.97707066666666, "rental_uris": {"ios": "https://dc.lft.to/lastmile_qr_scan", "android": "https://dc.lft.to/lastmile_qr_scan"}}, {"name": "22a5f908806d730626722eac1cb1b120", "fusion_lat": 0.0, "type": "electric_scooter", "lat": 38.865098, "is_reserved": 0, "is_disabled": 0, "fusion_lon": 0.0, "bike_id": "22a5f908806d730626722eac1cb1b120", "lon": -76.99004266666667, "rental_uris": {"ios": "https://dc.lft.to/lastmile_qr_scan", "android": "https://dc.lft.to/lastmile_qr_scan"}}, {"name": "e4014dcb5208cfb74a4b01a9e3f8789e", "fusion_lat": 0.0, "type": "electric_scooter", "lat": 38.93101516666667, "is_reserved": 0, "is_disabled": 0, "fusion_lon": 0.0, "bike_id": "e4014dcb5208cfb74a4b01a9e3f8789e", "lon": -77.02475866666667, "rental_uris": {"ios": "https://dc.lft.to/lastmile_qr_scan", "android": "https://dc.lft.to/lastmile_qr_scan"}}, {"name": "d77fbc71013d8d2bf6f29bc8987930ec", "fusion_lat": 0.0, "type": "electric_scooter", "lat": 38.902667666666666, "is_reserved": 0, "is_disabled": 0, "fusion_lon": 0.0, "bike_id": "d77fbc71013d8d2bf6f29bc8987930ec", "lon": -77.009255, "rental_uris": {"ios": "https://dc.lft.to/lastmile_qr_scan", "android": "https://dc.lft.to/lastmile_qr_scan"}}, {"name": "a7ec91707a0721dbf1e108f8857c2f40", "fusion_lat": 0.0, "type": "electric_scooter", "lat": 38.91128833333333, "is_reserved": 0, "is_disabled": 0, "fusion_lon": 0.0, "bike_id": "a7ec91707a0721dbf1e108f8857c2f40", "lon": -77.02198683333333, "rental_uris": {"ios": "https://dc.lft.to/lastmile_qr_scan", "android": "https://dc.lft.to/lastmile_qr_scan"}}, {"name": "38046e029bd00e0b5406388fb9baa4cd", "fusion_lat": 0.0, "type": "electric_scooter", "lat": 38.9021125, "is_reserved": 0, "is_disabled": 0, "fusion_lon": 0.0, "bike_id": "38046e029bd00e0b5406388fb9baa4cd", "lon": -77.05029333333333, "rental_uris": {"ios": "https://dc.lft.to/lastmile_qr_scan", "android": "https://dc.lft.to/lastmile_qr_scan"}}, {"name": "3001f4d58986398e524c6eb959216356", "fusion_lat": 0.0, "type": "electric_scooter", "lat": 38.87642266666667, "is_reserved": 0, "is_disabled": 0, "fusion_lon": 0.0, "bike_id": "3001f4d58986398e524c6eb959216356", "lon": -77.01568083333333, "rental_uris": {"ios": "https://dc.lft.to/lastmile_qr_scan", "android": "https://dc.lft.to/lastmile_qr_scan"}}, {"name": "5fc8d7b1c1ca9abf78e198963e741783", "fusion_lat": 0.0, "type": "electric_scooter", "lat": 38.89757566666667, "is_reserved": 0, "is_disabled": 0, "fusion_lon": 0.0, "bike_id": "5fc8d7b1c1ca9abf78e198963e741783", "lon": -77.01992633333333, "rental_uris": {"ios": "https://dc.lft.to/lastmile_qr_scan", "android": "https://dc.lft.to/lastmile_qr_scan"}}, {"name": "2369d6030c9716619f7897699b43fb7e", "fusion_lat": 0.0, "type": "electric_scooter", "lat": 38.86960883333333, "is_reserved": 0, "is_disabled": 0, "fusion_lon": 0.0, "bike_id": "2369d6030c9716619f7897699b43fb7e", "lon": -77.013729, "rental_uris": {"ios": "https://dc.lft.to/lastmile_qr_scan", "android": "https://dc.lft.to/lastmile_qr_scan"}}, {"name": "753a1220aa007351e505514c36280f98", "fusion_lat": 0.0, "type": "electric_scooter", "lat": 38.894816, "is_reserved": 0, "is_disabled": 0, "fusion_lon": 0.0, "bike_id": "753a1220aa007351e505514c36280f98", "lon": -77.0308465, "rental_uris": {"ios": "https://dc.lft.to/lastmile_qr_scan", "android": "https://dc.lft.to/lastmile_qr_scan"}}, {"name": "978b50ec1785fb51d5b8df90007fe773", "fusion_lat": 0.0, "type": "electric_scooter", "lat": 38.923441, "is_reserved": 0, "is_disabled": 0, "fusion_lon": 0.0, "bike_id": "978b50ec1785fb51d5b8df90007fe773", "lon": -77.05009516666667, "rental_uris": {"ios": "https://dc.lft.to/lastmile_qr_scan", "android": "https://dc.lft.to/lastmile_qr_scan"}}, {"name": "e355950c9c69190635f320c64ab199ea", "fusion_lat": 0.0, "type": "electric_scooter", "lat": 38.921261666666666, "is_reserved": 0, "is_disabled": 0, "fusion_lon": 0.0, "bike_id": "e355950c9c69190635f320c64ab199ea", "lon": -77.04117916666667, "rental_uris": {"ios": "https://dc.lft.to/lastmile_qr_scan", "android": "https://dc.lft.to/lastmile_qr_scan"}}, {"name": "a776285f2f7f51350ed043b515004727", "fusion_lat": 0.0, "type": "electric_scooter", "lat": 38.9185495, "is_reserved": 0, "is_disabled": 0, "fusion_lon": 0.0, "bike_id": "a776285f2f7f51350ed043b515004727", "lon": -77.024571, "rental_uris": {"ios": "https://dc.lft.to/lastmile_qr_scan", "android": "https://dc.lft.to/lastmile_qr_scan"}}, {"name": "eff8a8b31e44808eb98b47e1b8c59967", "fusion_lat": 0.0, "type": "electric_scooter", "lat": 38.899893166666665, "is_reserved": 0, "is_disabled": 0, "fusion_lon": 0.0, "bike_id": "eff8a8b31e44808eb98b47e1b8c59967", "lon": -77.02947016666667, "rental_uris": {"ios": "https://dc.lft.to/lastmile_qr_scan", "android": "https://dc.lft.to/lastmile_qr_scan"}}, {"name": "4d9d527c35f333eab13e87fc46d0b6b9", "fusion_lat": 0.0, "type": "electric_scooter", "lat": 38.92573733333333, "is_reserved": 0, "is_disabled": 0, "fusion_lon": 0.0, "bike_id": "4d9d527c35f333eab13e87fc46d0b6b9", "lon": -77.028399, "rental_uris": {"ios": "https://dc.lft.to/lastmile_qr_scan", "android": "https://dc.lft.to/lastmile_qr_scan"}}, {"name": "fe1c14327e9f28e1a0d27342853bd455", "fusion_lat": 0.0, "type": "electric_bike", "lat": 38.964953333333334, "is_reserved": 0, "is_disabled": 0, "fusion_lon": 0.0, "bike_id": "fe1c14327e9f28e1a0d27342853bd455", "lon": -77.06494166666667, "rental_uris": {"ios": "https://dc.lft.to/lastmile_qr_scan", "android": "https://dc.lft.to/lastmile_qr_scan"}}, {"name": "cae474bff5c3bf414b228def7acc6199", "fusion_lat": 0.0, "type": "electric_scooter", "lat": 38.90368083333333, "is_reserved": 0, "is_disabled": 0, "fusion_lon": 0.0, "bike_id": "cae474bff5c3bf414b228def7acc6199", "lon": -77.03661266666667, "rental_uris": {"ios": "https://dc.lft.to/lastmile_qr_scan", "android": "https://dc.lft.to/lastmile_qr_scan"}}, {"name": "85188f02c331f84951f581e26ef95f28", "fusion_lat": 0.0, "type": "electric_scooter", "lat": 38.90704183333333, "is_reserved": 0, "is_disabled": 0, "fusion_lon": 0.0, "bike_id": "85188f02c331f84951f581e26ef95f28", "lon": -77.04161266666667, "rental_uris": {"ios": "https://dc.lft.to/lastmile_qr_scan", "android": "https://dc.lft.to/lastmile_qr_scan"}}, {"name": "4cdda3b8826e7d6dfb56fd73e7036ef9", "fusion_lat": 0.0, "type": "electric_scooter", "lat": 38.902694333333336, "is_reserved": 0, "is_disabled": 0, "fusion_lon": 0.0, "bike_id": "4cdda3b8826e7d6dfb56fd73e7036ef9", "lon": -76.99851766666667, "rental_uris": {"ios": "https://dc.lft.to/lastmile_qr_scan", "android": "https://dc.lft.to/lastmile_qr_scan"}}, {"name": "91791473050be24ffe105c8302c9e48b", "fusion_lat": 0.0, "type": "electric_scooter", "lat": 38.905749666666665, "is_reserved": 0, "is_disabled": 0, "fusion_lon": 0.0, "bike_id": "91791473050be24ffe105c8302c9e48b", "lon": -77.0443345, "rental_uris": {"ios": "https://dc.lft.to/lastmile_qr_scan", "android": "https://dc.lft.to/lastmile_qr_scan"}}, {"name": "3bb35384d4922620689d9cb53e9cdaad", "fusion_lat": 0.0, "type": "electric_scooter", "lat": 38.932935, "is_reserved": 0, "is_disabled": 0, "fusion_lon": 0.0, "bike_id": "3bb35384d4922620689d9cb53e9cdaad", "lon": -77.02329233333333, "rental_uris": {"ios": "https://dc.lft.to/lastmile_qr_scan", "android": "https://dc.lft.to/lastmile_qr_scan"}}, {"name": "2cbabc16a0503c24f4a476eae70cb397", "fusion_lat": 0.0, "type": "electric_scooter", "lat": 38.897997833333335, "is_reserved": 0, "is_disabled": 0, "fusion_lon": 0.0, "bike_id": "2cbabc16a0503c24f4a476eae70cb397", "lon": -76.94418516666667, "rental_uris": {"ios": "https://dc.lft.to/lastmile_qr_scan", "android": "https://dc.lft.to/lastmile_qr_scan"}}, {"name": "9fc5fc872eff7e28b981cc0df05aa4bb", "fusion_lat": 0.0, "type": "electric_scooter", "lat": 38.924925333333334, "is_reserved": 0, "is_disabled": 0, "fusion_lon": 0.0, "bike_id": "9fc5fc872eff7e28b981cc0df05aa4bb", "lon": -77.039376, "rental_uris": {"ios": "https://dc.lft.to/lastmile_qr_scan", "android": "https://dc.lft.to/lastmile_qr_scan"}}, {"name": "03a8b6fdf70684d83f6e0a7efbba3d62", "fusion_lat": 0.0, "type": "electric_scooter", "lat": 38.91241516666667, "is_reserved": 0, "is_disabled": 0, "fusion_lon": 0.0, "bike_id": "03a8b6fdf70684d83f6e0a7efbba3d62", "lon": -77.00918283333333, "rental_uris": {"ios": "https://dc.lft.to/lastmile_qr_scan", "android": "https://dc.lft.to/lastmile_qr_scan"}}, {"name": "9a5d9c0d1ff064aeb13e15c12e53eec7", "fusion_lat": 0.0, "type": "electric_scooter", "lat": 38.9050065, "is_reserved": 0, "is_disabled": 0, "fusion_lon": 0.0, "bike_id": "9a5d9c0d1ff064aeb13e15c12e53eec7", "lon": -77.06113883333333, "rental_uris": {"ios": "https://dc.lft.to/lastmile_qr_scan", "android": "https://dc.lft.to/lastmile_qr_scan"}}, {"name": "1b9f21236d86ba446e0a9099ddbac51a", "fusion_lat": 0.0, "type": "electric_bike", "lat": 38.97096, "is_reserved": 0, "is_disabled": 0, "fusion_lon": 0.0, "bike_id": "1b9f21236d86ba446e0a9099ddbac51a", "lon": -77.06963466666667, "rental_uris": {"ios": "https://dc.lft.to/lastmile_qr_scan", "android": "https://dc.lft.to/lastmile_qr_scan"}}, {"name": "eb76becc5c8b2a40d62bc5d344e0b5fb", "fusion_lat": 0.0, "type": "electric_scooter", "lat": 38.91026766666667, "is_reserved": 0, "is_disabled": 0, "fusion_lon": 0.0, "bike_id": "eb76becc5c8b2a40d62bc5d344e0b5fb", "lon": -77.00757733333333, "rental_uris": {"ios": "https://dc.lft.to/lastmile_qr_scan", "android": "https://dc.lft.to/lastmile_qr_scan"}}, {"name": "24220b58d13ccb68cefc0f20e3f01390", "fusion_lat": 0.0, "type": "electric_scooter", "lat": 38.92021183333333, "is_reserved": 0, "is_disabled": 0, "fusion_lon": 0.0, "bike_id": "24220b58d13ccb68cefc0f20e3f01390", "lon": -77.03119233333334, "rental_uris": {"ios": "https://dc.lft.to/lastmile_qr_scan", "android": "https://dc.lft.to/lastmile_qr_scan"}}, {"name": "1e0acb99c4c0dc6203a91a74c6446c5d", "fusion_lat": 0.0, "type": "electric_scooter", "lat": 38.926328166666664, "is_reserved": 0, "is_disabled": 0, "fusion_lon": 0.0, "bike_id": "1e0acb99c4c0dc6203a91a74c6446c5d", "lon": -77.03784033333334, "rental_uris": {"ios": "https://dc.lft.to/lastmile_qr_scan", "android": "https://dc.lft.to/lastmile_qr_scan"}}, {"name": "666307a097b294072809ab5e339853cb", "fusion_lat": 0.0, "type": "electric_scooter", "lat": 38.911924666666664, "is_reserved": 0, "is_disabled": 0, "fusion_lon": 0.0, "bike_id": "666307a097b294072809ab5e339853cb", "lon": -77.0454085, "rental_uris": {"ios": "https://dc.lft.to/lastmile_qr_scan", "android": "https://dc.lft.to/lastmile_qr_scan"}}, {"name": "3c267bf92e5a299bb690f70235360ac2", "fusion_lat": 0.0, "type": "electric_scooter", "lat": 38.9156855, "is_reserved": 0, "is_disabled": 0, "fusion_lon": 0.0, "bike_id": "3c267bf92e5a299bb690f70235360ac2", "lon": -77.01198233333334, "rental_uris": {"ios": "https://dc.lft.to/lastmile_qr_scan", "android": "https://dc.lft.to/lastmile_qr_scan"}}, {"name": "1e17e988c5b1b998ef536746d6b378ef", "fusion_lat": 0.0, "type": "electric_scooter", "lat": 38.87669666666667, "is_reserved": 0, "is_disabled": 0, "fusion_lon": 0.0, "bike_id": "1e17e988c5b1b998ef536746d6b378ef", "lon": -77.00428966666666, "rental_uris": {"ios": "https://dc.lft.to/lastmile_qr_scan", "android": "https://dc.lft.to/lastmile_qr_scan"}}, {"name": "944ec5936071c837a0133489d6ff9091", "fusion_lat": 0.0, "type": "electric_scooter", "lat": 38.8924915, "is_reserved": 0, "is_disabled": 0, "fusion_lon": 0.0, "bike_id": "944ec5936071c837a0133489d6ff9091", "lon": -77.01507316666667, "rental_uris": {"ios": "https://dc.lft.to/lastmile_qr_scan", "android": "https://dc.lft.to/lastmile_qr_scan"}}, {"name": "2884a469ccbd27b3357a102aced2e6b3", "fusion_lat": 0.0, "type": "electric_scooter", "lat": 38.9057485, "is_reserved": 0, "is_disabled": 0, "fusion_lon": 0.0, "bike_id": "2884a469ccbd27b3357a102aced2e6b3", "lon": -77.00551933333334, "rental_uris": {"ios": "https://dc.lft.to/lastmile_qr_scan", "android": "https://dc.lft.to/lastmile_qr_scan"}}, {"name": "3845d4e0fe2fa542270832d27ef81bd4", "fusion_lat": 0.0, "type": "electric_scooter", "lat": 38.90625283333333, "is_reserved": 0, "is_disabled": 0, "fusion_lon": 0.0, "bike_id": "3845d4e0fe2fa542270832d27ef81bd4", "lon": -76.97667616666666, "rental_uris": {"ios": "https://dc.lft.to/lastmile_qr_scan", "android": "https://dc.lft.to/lastmile_qr_scan"}}, {"name": "6eada52736621604f2ce8859de26d19e", "fusion_lat": 0.0, "type": "electric_bike", "lat": 38.863778, "is_reserved": 0, "is_disabled": 0, "fusion_lon": 0.0, "bike_id": "6eada52736621604f2ce8859de26d19e", "lon": -77.129032, "rental_uris": {"ios": "https://dc.lft.to/lastmile_qr_scan", "android": "https://dc.lft.to/lastmile_qr_scan"}}, {"name": "bdb3d874039a9a64e0f32d478636dc7f", "fusion_lat": 0.0, "type": "electric_scooter", "lat": 38.901175, "is_reserved": 0, "is_disabled": 0, "fusion_lon": 0.0, "bike_id": "bdb3d874039a9a64e0f32d478636dc7f", "lon": -77.046312, "rental_uris": {"ios": "https://dc.lft.to/lastmile_qr_scan", "android": "https://dc.lft.to/lastmile_qr_scan"}}, {"name": "59bb7b5bc915b6680496b05d45e06e2f", "fusion_lat": 0.0, "type": "electric_scooter", "lat": 38.89225016666666, "is_reserved": 0, "is_disabled": 0, "fusion_lon": 0.0, "bike_id": "59bb7b5bc915b6680496b05d45e06e2f", "lon": -77.0334045, "rental_uris": {"ios": "https://dc.lft.to/lastmile_qr_scan", "android": "https://dc.lft.to/lastmile_qr_scan"}}, {"name": "b1517553a915a4ac4d9075b93511e0c8", "fusion_lat": 0.0, "type": "electric_scooter", "lat": 38.913358333333335, "is_reserved": 0, "is_disabled": 0, "fusion_lon": 0.0, "bike_id": "b1517553a915a4ac4d9075b93511e0c8", "lon": -77.04867566666667, "rental_uris": {"ios": "https://dc.lft.to/lastmile_qr_scan", "android": "https://dc.lft.to/lastmile_qr_scan"}}, {"name": "65919935a22948ad1fd51a92d455f739", "fusion_lat": 0.0, "type": "electric_scooter", "lat": 38.8982675, "is_reserved": 0, "is_disabled": 0, "fusion_lon": 0.0, "bike_id": "65919935a22948ad1fd51a92d455f739", "lon": -77.028125, "rental_uris": {"ios": "https://dc.lft.to/lastmile_qr_scan", "android": "https://dc.lft.to/lastmile_qr_scan"}}, {"name": "da6fdb84b700d7e3b727396000f481df", "fusion_lat": 0.0, "type": "electric_scooter", "lat": 38.8983615, "is_reserved": 0, "is_disabled": 0, "fusion_lon": 0.0, "bike_id": "da6fdb84b700d7e3b727396000f481df", "lon": -76.94568666666666, "rental_uris": {"ios": "https://dc.lft.to/lastmile_qr_scan", "android": "https://dc.lft.to/lastmile_qr_scan"}}, {"name": "dc241a40d6a13b7903bb90a6052f4a2d", "fusion_lat": 0.0, "type": "electric_scooter", "lat": 38.931943, "is_reserved": 0, "is_disabled": 0, "fusion_lon": 0.0, "bike_id": "dc241a40d6a13b7903bb90a6052f4a2d", "lon": -77.027805, "rental_uris": {"ios": "https://dc.lft.to/lastmile_qr_scan", "android": "https://dc.lft.to/lastmile_qr_scan"}}, {"name": "cb7d7c602ea0849ca5c035e7fc3a0b83", "fusion_lat": 0.0, "type": "electric_bike", "lat": 38.802301166666666, "is_reserved": 0, "is_disabled": 0, "fusion_lon": 0.0, "bike_id": "cb7d7c602ea0849ca5c035e7fc3a0b83", "lon": -77.079137, "rental_uris": {"ios": "https://dc.lft.to/lastmile_qr_scan", "android": "https://dc.lft.to/lastmile_qr_scan"}}, {"name": "2f9946385f923a84aa1b08343c845526", "fusion_lat": 0.0, "type": "electric_scooter", "lat": 38.92034266666667, "is_reserved": 0, "is_disabled": 0, "fusion_lon": 0.0, "bike_id": "2f9946385f923a84aa1b08343c845526", "lon": -76.97801283333334, "rental_uris": {"ios": "https://dc.lft.to/lastmile_qr_scan", "android": "https://dc.lft.to/lastmile_qr_scan"}}, {"name": "e5d6252fcd5e1a9d3f4c82366dbb2388", "fusion_lat": 0.0, "type": "electric_scooter", "lat": 38.8953295, "is_reserved": 0, "is_disabled": 0, "fusion_lon": 0.0, "bike_id": "e5d6252fcd5e1a9d3f4c82366dbb2388", "lon": -77.042882, "rental_uris": {"ios": "https://dc.lft.to/lastmile_qr_scan", "android": "https://dc.lft.to/lastmile_qr_scan"}}, {"name": "9a1c398bc3ddac76d21ecd871e897ac6", "fusion_lat": 0.0, "type": "electric_scooter", "lat": 38.886600666666666, "is_reserved": 0, "is_disabled": 0, "fusion_lon": 0.0, "bike_id": "9a1c398bc3ddac76d21ecd871e897ac6", "lon": -77.01366366666667, "rental_uris": {"ios": "https://dc.lft.to/lastmile_qr_scan", "android": "https://dc.lft.to/lastmile_qr_scan"}}, {"name": "5b7bf6caf78482abcc7a78d3c4b2d46a", "fusion_lat": 0.0, "type": "electric_scooter", "lat": 38.91253283333333, "is_reserved": 0, "is_disabled": 0, "fusion_lon": 0.0, "bike_id": "5b7bf6caf78482abcc7a78d3c4b2d46a", "lon": -77.03843616666667, "rental_uris": {"ios": "https://dc.lft.to/lastmile_qr_scan", "android": "https://dc.lft.to/lastmile_qr_scan"}}, {"name": "e4c1cf1286f664f8bc5401f35b416528", "fusion_lat": 0.0, "type": "electric_scooter", "lat": 38.929945333333336, "is_reserved": 0, "is_disabled": 0, "fusion_lon": 0.0, "bike_id": "e4c1cf1286f664f8bc5401f35b416528", "lon": -77.024842, "rental_uris": {"ios": "https://dc.lft.to/lastmile_qr_scan", "android": "https://dc.lft.to/lastmile_qr_scan"}}, {"name": "4aaa938a7618f34f3a35eedc017ad287", "fusion_lat": 0.0, "type": "electric_bike", "lat": 38.906883, "is_reserved": 0, "is_disabled": 0, "fusion_lon": 0.0, "bike_id": "4aaa938a7618f34f3a35eedc017ad287", "lon": -76.95182766666667, "rental_uris": {"ios": "https://dc.lft.to/lastmile_qr_scan", "android": "https://dc.lft.to/lastmile_qr_scan"}}, {"name": "97cecd0523c1a09a84107506882068b2", "fusion_lat": 0.0, "type": "electric_scooter", "lat": 38.9061565, "is_reserved": 0, "is_disabled": 0, "fusion_lon": 0.0, "bike_id": "97cecd0523c1a09a84107506882068b2", "lon": -77.0240505, "rental_uris": {"ios": "https://dc.lft.to/lastmile_qr_scan", "android": "https://dc.lft.to/lastmile_qr_scan"}}, {"name": "720804886f4c134a3fba01450b571c99", "fusion_lat": 0.0, "type": "electric_scooter", "lat": 38.90379983333333, "is_reserved": 0, "is_disabled": 0, "fusion_lon": 0.0, "bike_id": "720804886f4c134a3fba01450b571c99", "lon": -77.01100683333334, "rental_uris": {"ios": "https://dc.lft.to/lastmile_qr_scan", "android": "https://dc.lft.to/lastmile_qr_scan"}}, {"name": "7a6076e6ee27ba27916f92e42fcfe04e", "fusion_lat": 0.0, "type": "electric_scooter", "lat": 38.916921, "is_reserved": 0, "is_disabled": 0, "fusion_lon": 0.0, "bike_id": "7a6076e6ee27ba27916f92e42fcfe04e", "lon": -77.03147833333334, "rental_uris": {"ios": "https://dc.lft.to/lastmile_qr_scan", "android": "https://dc.lft.to/lastmile_qr_scan"}}, {"name": "ddb7ee2cf5d17517e1002eea95865537", "fusion_lat": 0.0, "type": "electric_scooter", "lat": 38.898538, "is_reserved": 0, "is_disabled": 0, "fusion_lon": 0.0, "bike_id": "ddb7ee2cf5d17517e1002eea95865537", "lon": -76.99032166666667, "rental_uris": {"ios": "https://dc.lft.to/lastmile_qr_scan", "android": "https://dc.lft.to/lastmile_qr_scan"}}, {"name": "cff5943c6fb2ffeba806f7e14ca4796a", "fusion_lat": 0.0, "type": "electric_scooter", "lat": 38.921538, "is_reserved": 0, "is_disabled": 0, "fusion_lon": 0.0, "bike_id": "cff5943c6fb2ffeba806f7e14ca4796a", "lon": -77.03506016666667, "rental_uris": {"ios": "https://dc.lft.to/lastmile_qr_scan", "android": "https://dc.lft.to/lastmile_qr_scan"}}, {"name": "9208ee6fefd65a1c0784f4e5fd3cdfe8", "fusion_lat": 0.0, "type": "electric_scooter", "lat": 38.94126683333333, "is_reserved": 0, "is_disabled": 0, "fusion_lon": 0.0, "bike_id": "9208ee6fefd65a1c0784f4e5fd3cdfe8", "lon": -77.02052466666666, "rental_uris": {"ios": "https://dc.lft.to/lastmile_qr_scan", "android": "https://dc.lft.to/lastmile_qr_scan"}}, {"name": "3d8d3d8b11e4b39f716aee1c2dbe0367", "fusion_lat": 0.0, "type": "electric_scooter", "lat": 38.9022075, "is_reserved": 0, "is_disabled": 0, "fusion_lon": 0.0, "bike_id": "3d8d3d8b11e4b39f716aee1c2dbe0367", "lon": -77.02331766666667, "rental_uris": {"ios": "https://dc.lft.to/lastmile_qr_scan", "android": "https://dc.lft.to/lastmile_qr_scan"}}, {"name": "9f7d3de20753dadecbf722a58e7c35f6", "fusion_lat": 0.0, "type": "electric_scooter", "lat": 38.91233233333333, "is_reserved": 0, "is_disabled": 0, "fusion_lon": 0.0, "bike_id": "9f7d3de20753dadecbf722a58e7c35f6", "lon": -77.0383425, "rental_uris": {"ios": "https://dc.lft.to/lastmile_qr_scan", "android": "https://dc.lft.to/lastmile_qr_scan"}}, {"name": "1ebc40d1c8c56765a7d6a94a63c43ed5", "fusion_lat": 0.0, "type": "electric_bike", "lat": 38.9156455, "is_reserved": 0, "is_disabled": 0, "fusion_lon": 0.0, "bike_id": "1ebc40d1c8c56765a7d6a94a63c43ed5", "lon": -77.022772, "rental_uris": {"ios": "https://dc.lft.to/lastmile_qr_scan", "android": "https://dc.lft.to/lastmile_qr_scan"}}, {"name": "f67869accda6a642da21e7757ea2a684", "fusion_lat": 0.0, "type": "electric_scooter", "lat": 38.8635545, "is_reserved": 0, "is_disabled": 0, "fusion_lon": 0.0, "bike_id": "f67869accda6a642da21e7757ea2a684", "lon": -76.99065383333334, "rental_uris": {"ios": "https://dc.lft.to/lastmile_qr_scan", "android": "https://dc.lft.to/lastmile_qr_scan"}}, {"name": "80443144d10568efa1e93c36140fa9a4", "fusion_lat": 0.0, "type": "electric_scooter", "lat": 38.9025905, "is_reserved": 0, "is_disabled": 0, "fusion_lon": 0.0, "bike_id": "80443144d10568efa1e93c36140fa9a4", "lon": -77.04610533333333, "rental_uris": {"ios": "https://dc.lft.to/lastmile_qr_scan", "android": "https://dc.lft.to/lastmile_qr_scan"}}, {"name": "b11a8c2d932d8d66c91d9044eda46443", "fusion_lat": 0.0, "type": "electric_scooter", "lat": 38.910468, "is_reserved": 0, "is_disabled": 0, "fusion_lon": 0.0, "bike_id": "b11a8c2d932d8d66c91d9044eda46443", "lon": -77.04832283333333, "rental_uris": {"ios": "https://dc.lft.to/lastmile_qr_scan", "android": "https://dc.lft.to/lastmile_qr_scan"}}, {"name": "1a7e4396056e919ac2f966ed8f0c389f", "fusion_lat": 0.0, "type": "electric_scooter", "lat": 38.895198, "is_reserved": 0, "is_disabled": 0, "fusion_lon": 0.0, "bike_id": "1a7e4396056e919ac2f966ed8f0c389f", "lon": -76.99207233333334, "rental_uris": {"ios": "https://dc.lft.to/lastmile_qr_scan", "android": "https://dc.lft.to/lastmile_qr_scan"}}, {"name": "9b8c3fe1d33b75259725876bd70955de", "fusion_lat": 0.0, "type": "electric_scooter", "lat": 38.899102, "is_reserved": 0, "is_disabled": 0, "fusion_lon": 0.0, "bike_id": "9b8c3fe1d33b75259725876bd70955de", "lon": -77.03301816666666, "rental_uris": {"ios": "https://dc.lft.to/lastmile_qr_scan", "android": "https://dc.lft.to/lastmile_qr_scan"}}, {"name": "2534d02a176d8a1262572a23db23597a", "fusion_lat": 0.0, "type": "electric_scooter", "lat": 38.900423833333335, "is_reserved": 0, "is_disabled": 0, "fusion_lon": 0.0, "bike_id": "2534d02a176d8a1262572a23db23597a", "lon": -77.04671166666667, "rental_uris": {"ios": "https://dc.lft.to/lastmile_qr_scan", "android": "https://dc.lft.to/lastmile_qr_scan"}}, {"name": "baa13f0c7ac7f8323f0a12052baa5f20", "fusion_lat": 0.0, "type": "electric_scooter", "lat": 38.92269816666666, "is_reserved": 0, "is_disabled": 0, "fusion_lon": 0.0, "bike_id": "baa13f0c7ac7f8323f0a12052baa5f20", "lon": -77.041248, "rental_uris": {"ios": "https://dc.lft.to/lastmile_qr_scan", "android": "https://dc.lft.to/lastmile_qr_scan"}}, {"name": "24854b56eb0e7aacc59a33ad0b00eb53", "fusion_lat": 0.0, "type": "electric_scooter", "lat": 38.90224966666667, "is_reserved": 0, "is_disabled": 0, "fusion_lon": 0.0, "bike_id": "24854b56eb0e7aacc59a33ad0b00eb53", "lon": -77.02212433333334, "rental_uris": {"ios": "https://dc.lft.to/lastmile_qr_scan", "android": "https://dc.lft.to/lastmile_qr_scan"}}, {"name": "d9f609da0bd26a672de382ab56c11deb", "fusion_lat": 0.0, "type": "electric_scooter", "lat": 38.900248833333336, "is_reserved": 0, "is_disabled": 0, "fusion_lon": 0.0, "bike_id": "d9f609da0bd26a672de382ab56c11deb", "lon": -76.996464, "rental_uris": {"ios": "https://dc.lft.to/lastmile_qr_scan", "android": "https://dc.lft.to/lastmile_qr_scan"}}, {"name": "7e3621723df78d8745b8da40ae8ab916", "fusion_lat": 0.0, "type": "electric_scooter", "lat": 38.8980125, "is_reserved": 0, "is_disabled": 0, "fusion_lon": 0.0, "bike_id": "7e3621723df78d8745b8da40ae8ab916", "lon": -76.991646, "rental_uris": {"ios": "https://dc.lft.to/lastmile_qr_scan", "android": "https://dc.lft.to/lastmile_qr_scan"}}, {"name": "e9e2e05ee0d52d835940a9e8df00222c", "fusion_lat": 0.0, "type": "electric_scooter", "lat": 38.91127383333333, "is_reserved": 0, "is_disabled": 0, "fusion_lon": 0.0, "bike_id": "e9e2e05ee0d52d835940a9e8df00222c", "lon": -77.021996, "rental_uris": {"ios": "https://dc.lft.to/lastmile_qr_scan", "android": "https://dc.lft.to/lastmile_qr_scan"}}, {"name": "67d6765752553910fe5a688b7e534586", "fusion_lat": 0.0, "type": "electric_scooter", "lat": 38.912023166666664, "is_reserved": 0, "is_disabled": 0, "fusion_lon": 0.0, "bike_id": "67d6765752553910fe5a688b7e534586", "lon": -77.03839883333333, "rental_uris": {"ios": "https://dc.lft.to/lastmile_qr_scan", "android": "https://dc.lft.to/lastmile_qr_scan"}}, {"name": "fba878b75a63fe2e416b103d6274c8aa", "fusion_lat": 0.0, "type": "electric_scooter", "lat": 38.878725333333335, "is_reserved": 0, "is_disabled": 0, "fusion_lon": 0.0, "bike_id": "fba878b75a63fe2e416b103d6274c8aa", "lon": -76.96523083333334, "rental_uris": {"ios": "https://dc.lft.to/lastmile_qr_scan", "android": "https://dc.lft.to/lastmile_qr_scan"}}, {"name": "4fe0e4adc35dc9f7670b6c84eef53b4a", "fusion_lat": 0.0, "type": "electric_scooter", "lat": 38.9181, "is_reserved": 0, "is_disabled": 0, "fusion_lon": 0.0, "bike_id": "4fe0e4adc35dc9f7670b6c84eef53b4a", "lon": -77.02492466666666, "rental_uris": {"ios": "https://dc.lft.to/lastmile_qr_scan", "android": "https://dc.lft.to/lastmile_qr_scan"}}, {"name": "430c68193ea6cf65f1a45d6c77c2b1c6", "fusion_lat": 0.0, "type": "electric_scooter", "lat": 38.903388, "is_reserved": 0, "is_disabled": 0, "fusion_lon": 0.0, "bike_id": "430c68193ea6cf65f1a45d6c77c2b1c6", "lon": -77.054367, "rental_uris": {"ios": "https://dc.lft.to/lastmile_qr_scan", "android": "https://dc.lft.to/lastmile_qr_scan"}}, {"name": "c06dd6a8c69d5ae075b8a6a0b290d500", "fusion_lat": 0.0, "type": "electric_scooter", "lat": 38.90879183333333, "is_reserved": 0, "is_disabled": 0, "fusion_lon": 0.0, "bike_id": "c06dd6a8c69d5ae075b8a6a0b290d500", "lon": -77.076019, "rental_uris": {"ios": "https://dc.lft.to/lastmile_qr_scan", "android": "https://dc.lft.to/lastmile_qr_scan"}}, {"name": "36da57e2485e9127bd89501206dd97e2", "fusion_lat": 0.0, "type": "electric_scooter", "lat": 38.90332133333333, "is_reserved": 0, "is_disabled": 0, "fusion_lon": 0.0, "bike_id": "36da57e2485e9127bd89501206dd97e2", "lon": -77.0363895, "rental_uris": {"ios": "https://dc.lft.to/lastmile_qr_scan", "android": "https://dc.lft.to/lastmile_qr_scan"}}, {"name": "68b6c0b330d623d24e27a67ec76be677", "fusion_lat": 0.0, "type": "electric_scooter", "lat": 38.931280666666666, "is_reserved": 0, "is_disabled": 0, "fusion_lon": 0.0, "bike_id": "68b6c0b330d623d24e27a67ec76be677", "lon": -77.03601816666666, "rental_uris": {"ios": "https://dc.lft.to/lastmile_qr_scan", "android": "https://dc.lft.to/lastmile_qr_scan"}}, {"name": "4df1e365cd8dd3f1d0adc0f1aed3e47b", "fusion_lat": 0.0, "type": "electric_bike", "lat": 38.856225333333335, "is_reserved": 0, "is_disabled": 0, "fusion_lon": 0.0, "bike_id": "4df1e365cd8dd3f1d0adc0f1aed3e47b", "lon": -77.08540616666667, "rental_uris": {"ios": "https://dc.lft.to/lastmile_qr_scan", "android": "https://dc.lft.to/lastmile_qr_scan"}}, {"name": "0cf8a350d0509efdc00d502ded1e7253", "fusion_lat": 0.0, "type": "electric_scooter", "lat": 38.86664116666667, "is_reserved": 0, "is_disabled": 0, "fusion_lon": 0.0, "bike_id": "0cf8a350d0509efdc00d502ded1e7253", "lon": -76.98879933333333, "rental_uris": {"ios": "https://dc.lft.to/lastmile_qr_scan", "android": "https://dc.lft.to/lastmile_qr_scan"}}, {"name": "73ced472f7010635b71653cc3876874c", "fusion_lat": 0.0, "type": "electric_scooter", "lat": 38.89716466666667, "is_reserved": 0, "is_disabled": 0, "fusion_lon": 0.0, "bike_id": "73ced472f7010635b71653cc3876874c", "lon": -77.00796083333333, "rental_uris": {"ios": "https://dc.lft.to/lastmile_qr_scan", "android": "https://dc.lft.to/lastmile_qr_scan"}}, {"name": "a334374fbd5f7021a95fd2ac37168919", "fusion_lat": 0.0, "type": "electric_scooter", "lat": 38.91258466666667, "is_reserved": 0, "is_disabled": 0, "fusion_lon": 0.0, "bike_id": "a334374fbd5f7021a95fd2ac37168919", "lon": -77.03864416666667, "rental_uris": {"ios": "https://dc.lft.to/lastmile_qr_scan", "android": "https://dc.lft.to/lastmile_qr_scan"}}, {"name": "d95af452b109b3e87096b29308d96bf3", "fusion_lat": 0.0, "type": "electric_scooter", "lat": 38.902377666666666, "is_reserved": 0, "is_disabled": 0, "fusion_lon": 0.0, "bike_id": "d95af452b109b3e87096b29308d96bf3", "lon": -77.01511783333333, "rental_uris": {"ios": "https://dc.lft.to/lastmile_qr_scan", "android": "https://dc.lft.to/lastmile_qr_scan"}}, {"name": "63becde887a14d5b2c42f288eb371782", "fusion_lat": 0.0, "type": "electric_scooter", "lat": 38.896065666666665, "is_reserved": 0, "is_disabled": 0, "fusion_lon": 0.0, "bike_id": "63becde887a14d5b2c42f288eb371782", "lon": -77.0476045, "rental_uris": {"ios": "https://dc.lft.to/lastmile_qr_scan", "android": "https://dc.lft.to/lastmile_qr_scan"}}, {"name": "10b757dd47acd0693ffa0ce34bac382b", "fusion_lat": 0.0, "type": "electric_scooter", "lat": 38.91430416666667, "is_reserved": 0, "is_disabled": 0, "fusion_lon": 0.0, "bike_id": "10b757dd47acd0693ffa0ce34bac382b", "lon": -77.04493383333333, "rental_uris": {"ios": "https://dc.lft.to/lastmile_qr_scan", "android": "https://dc.lft.to/lastmile_qr_scan"}}, {"name": "b5749c3dea938a9d2e4029b819d458f8", "fusion_lat": 0.0, "type": "electric_scooter", "lat": 38.9307915, "is_reserved": 0, "is_disabled": 0, "fusion_lon": 0.0, "bike_id": "b5749c3dea938a9d2e4029b819d458f8", "lon": -77.0279265, "rental_uris": {"ios": "https://dc.lft.to/lastmile_qr_scan", "android": "https://dc.lft.to/lastmile_qr_scan"}}, {"name": "ca98ce9a6ec5e99ea268f5f18000cc8f", "fusion_lat": 0.0, "type": "electric_scooter", "lat": 38.90909966666667, "is_reserved": 0, "is_disabled": 0, "fusion_lon": 0.0, "bike_id": "ca98ce9a6ec5e99ea268f5f18000cc8f", "lon": -77.04210066666667, "rental_uris": {"ios": "https://dc.lft.to/lastmile_qr_scan", "android": "https://dc.lft.to/lastmile_qr_scan"}}, {"name": "5c6b468670ab1c04ef8672a557c18c67", "fusion_lat": 0.0, "type": "electric_scooter", "lat": 38.93892566666667, "is_reserved": 0, "is_disabled": 0, "fusion_lon": 0.0, "bike_id": "5c6b468670ab1c04ef8672a557c18c67", "lon": -77.02462216666666, "rental_uris": {"ios": "https://dc.lft.to/lastmile_qr_scan", "android": "https://dc.lft.to/lastmile_qr_scan"}}, {"name": "f69124be2dba346f7e160f7dff6e9ac6", "fusion_lat": 0.0, "type": "electric_scooter", "lat": 38.897601, "is_reserved": 0, "is_disabled": 0, "fusion_lon": 0.0, "bike_id": "f69124be2dba346f7e160f7dff6e9ac6", "lon": -77.020148, "rental_uris": {"ios": "https://dc.lft.to/lastmile_qr_scan", "android": "https://dc.lft.to/lastmile_qr_scan"}}, {"name": "35b2ed8decdde333b812dc5fcaeb308f", "fusion_lat": 0.0, "type": "electric_bike", "lat": 39.0388455, "is_reserved": 0, "is_disabled": 0, "fusion_lon": 0.0, "bike_id": "35b2ed8decdde333b812dc5fcaeb308f", "lon": -76.99041833333334, "rental_uris": {"ios": "https://dc.lft.to/lastmile_qr_scan", "android": "https://dc.lft.to/lastmile_qr_scan"}}, {"name": "54e99b05c61d8d7c3f69c3d3d646dced", "fusion_lat": 0.0, "type": "electric_scooter", "lat": 38.91610266666667, "is_reserved": 0, "is_disabled": 0, "fusion_lon": 0.0, "bike_id": "54e99b05c61d8d7c3f69c3d3d646dced", "lon": -77.03212233333333, "rental_uris": {"ios": "https://dc.lft.to/lastmile_qr_scan", "android": "https://dc.lft.to/lastmile_qr_scan"}}, {"name": "15fdd75ea8d50b309d616ea1ce714db1", "fusion_lat": 0.0, "type": "electric_scooter", "lat": 38.94403583333333, "is_reserved": 0, "is_disabled": 0, "fusion_lon": 0.0, "bike_id": "15fdd75ea8d50b309d616ea1ce714db1", "lon": -77.06328216666667, "rental_uris": {"ios": "https://dc.lft.to/lastmile_qr_scan", "android": "https://dc.lft.to/lastmile_qr_scan"}}, {"name": "9c113cacaa6786166e950e3ce7d69866", "fusion_lat": 0.0, "type": "electric_scooter", "lat": 38.89757933333333, "is_reserved": 0, "is_disabled": 0, "fusion_lon": 0.0, "bike_id": "9c113cacaa6786166e950e3ce7d69866", "lon": -77.031382, "rental_uris": {"ios": "https://dc.lft.to/lastmile_qr_scan", "android": "https://dc.lft.to/lastmile_qr_scan"}}, {"name": "bf83ed852ca79ab28b1134d25d9075e0", "fusion_lat": 0.0, "type": "electric_scooter", "lat": 38.90453466666666, "is_reserved": 0, "is_disabled": 0, "fusion_lon": 0.0, "bike_id": "bf83ed852ca79ab28b1134d25d9075e0", "lon": -77.03464166666667, "rental_uris": {"ios": "https://dc.lft.to/lastmile_qr_scan", "android": "https://dc.lft.to/lastmile_qr_scan"}}, {"name": "3b69c6946e4808e140eae2c7e3181cbf", "fusion_lat": 0.0, "type": "electric_scooter", "lat": 38.889168166666664, "is_reserved": 0, "is_disabled": 0, "fusion_lon": 0.0, "bike_id": "3b69c6946e4808e140eae2c7e3181cbf", "lon": -76.9537485, "rental_uris": {"ios": "https://dc.lft.to/lastmile_qr_scan", "android": "https://dc.lft.to/lastmile_qr_scan"}}, {"name": "f19f3c214dca906ee27988442ad00b6f", "fusion_lat": 0.0, "type": "electric_scooter", "lat": 38.92891766666666, "is_reserved": 0, "is_disabled": 0, "fusion_lon": 0.0, "bike_id": "f19f3c214dca906ee27988442ad00b6f", "lon": -77.02310333333334, "rental_uris": {"ios": "https://dc.lft.to/lastmile_qr_scan", "android": "https://dc.lft.to/lastmile_qr_scan"}}, {"name": "75e7bd21e517759aed21997a8cfd2ec6", "fusion_lat": 0.0, "type": "electric_scooter", "lat": 38.92642266666667, "is_reserved": 0, "is_disabled": 0, "fusion_lon": 0.0, "bike_id": "75e7bd21e517759aed21997a8cfd2ec6", "lon": -77.0369595, "rental_uris": {"ios": "https://dc.lft.to/lastmile_qr_scan", "android": "https://dc.lft.to/lastmile_qr_scan"}}, {"name": "b33d2c5b510be0d36967dc23101093d9", "fusion_lat": 0.0, "type": "electric_scooter", "lat": 38.905705166666664, "is_reserved": 0, "is_disabled": 0, "fusion_lon": 0.0, "bike_id": "b33d2c5b510be0d36967dc23101093d9", "lon": -77.0221455, "rental_uris": {"ios": "https://dc.lft.to/lastmile_qr_scan", "android": "https://dc.lft.to/lastmile_qr_scan"}}, {"name": "42b69dbbf091236a39d375d48b1b58e1", "fusion_lat": 0.0, "type": "electric_scooter", "lat": 38.90547183333334, "is_reserved": 0, "is_disabled": 0, "fusion_lon": 0.0, "bike_id": "42b69dbbf091236a39d375d48b1b58e1", "lon": -77.04748633333334, "rental_uris": {"ios": "https://dc.lft.to/lastmile_qr_scan", "android": "https://dc.lft.to/lastmile_qr_scan"}}, {"name": "214dce65f373fb81a4a43d6953b3e093", "fusion_lat": 0.0, "type": "electric_scooter", "lat": 38.89225783333333, "is_reserved": 0, "is_disabled": 0, "fusion_lon": 0.0, "bike_id": "214dce65f373fb81a4a43d6953b3e093", "lon": -77.02138566666666, "rental_uris": {"ios": "https://dc.lft.to/lastmile_qr_scan", "android": "https://dc.lft.to/lastmile_qr_scan"}}, {"name": "d8a669f45999b1f21efa4a4f5bab663e", "fusion_lat": 0.0, "type": "electric_scooter", "lat": 38.899136, "is_reserved": 0, "is_disabled": 0, "fusion_lon": 0.0, "bike_id": "d8a669f45999b1f21efa4a4f5bab663e", "lon": -77.02187316666667, "rental_uris": {"ios": "https://dc.lft.to/lastmile_qr_scan", "android": "https://dc.lft.to/lastmile_qr_scan"}}, {"name": "31c3d687d48aae9e981bbdde5bfde771", "fusion_lat": 0.0, "type": "electric_scooter", "lat": 38.9119215, "is_reserved": 0, "is_disabled": 0, "fusion_lon": 0.0, "bike_id": "31c3d687d48aae9e981bbdde5bfde771", "lon": -77.0178395, "rental_uris": {"ios": "https://dc.lft.to/lastmile_qr_scan", "android": "https://dc.lft.to/lastmile_qr_scan"}}, {"name": "692567cb28c57171654edfd86ecff0a0", "fusion_lat": 0.0, "type": "electric_scooter", "lat": 38.9096625, "is_reserved": 0, "is_disabled": 0, "fusion_lon": 0.0, "bike_id": "692567cb28c57171654edfd86ecff0a0", "lon": -77.0388745, "rental_uris": {"ios": "https://dc.lft.to/lastmile_qr_scan", "android": "https://dc.lft.to/lastmile_qr_scan"}}, {"name": "3c608d437aab8607ba84f0833dacb7a0", "fusion_lat": 0.0, "type": "electric_scooter", "lat": 38.92115966666667, "is_reserved": 0, "is_disabled": 0, "fusion_lon": 0.0, "bike_id": "3c608d437aab8607ba84f0833dacb7a0", "lon": -77.04385216666667, "rental_uris": {"ios": "https://dc.lft.to/lastmile_qr_scan", "android": "https://dc.lft.to/lastmile_qr_scan"}}, {"name": "dafefc6859d1da4dfaca8b3ac76a3f93", "fusion_lat": 0.0, "type": "electric_scooter", "lat": 38.935013, "is_reserved": 0, "is_disabled": 0, "fusion_lon": 0.0, "bike_id": "dafefc6859d1da4dfaca8b3ac76a3f93", "lon": -77.02543016666667, "rental_uris": {"ios": "https://dc.lft.to/lastmile_qr_scan", "android": "https://dc.lft.to/lastmile_qr_scan"}}, {"name": "74100d6998953f00cf33bcf63310077a", "fusion_lat": 0.0, "type": "electric_scooter", "lat": 38.90557066666667, "is_reserved": 0, "is_disabled": 0, "fusion_lon": 0.0, "bike_id": "74100d6998953f00cf33bcf63310077a", "lon": -77.04561683333333, "rental_uris": {"ios": "https://dc.lft.to/lastmile_qr_scan", "android": "https://dc.lft.to/lastmile_qr_scan"}}, {"name": "dded7cded815acc42f3a1beb3b613f9b", "fusion_lat": 0.0, "type": "electric_scooter", "lat": 38.9218655, "is_reserved": 0, "is_disabled": 0, "fusion_lon": 0.0, "bike_id": "dded7cded815acc42f3a1beb3b613f9b", "lon": -77.0429635, "rental_uris": {"ios": "https://dc.lft.to/lastmile_qr_scan", "android": "https://dc.lft.to/lastmile_qr_scan"}}, {"name": "07df69a86a3e04ad13397cb04fa31f9d", "fusion_lat": 0.0, "type": "electric_scooter", "lat": 38.9128595, "is_reserved": 0, "is_disabled": 0, "fusion_lon": 0.0, "bike_id": "07df69a86a3e04ad13397cb04fa31f9d", "lon": -77.044999, "rental_uris": {"ios": "https://dc.lft.to/lastmile_qr_scan", "android": "https://dc.lft.to/lastmile_qr_scan"}}, {"name": "91e0b3645e2aeea524ed049246c24526", "fusion_lat": 0.0, "type": "electric_scooter", "lat": 38.93191316666667, "is_reserved": 0, "is_disabled": 0, "fusion_lon": 0.0, "bike_id": "91e0b3645e2aeea524ed049246c24526", "lon": -77.0344755, "rental_uris": {"ios": "https://dc.lft.to/lastmile_qr_scan", "android": "https://dc.lft.to/lastmile_qr_scan"}}, {"name": "7ae405e63ec32ded43fa415305dc3616", "fusion_lat": 0.0, "type": "electric_scooter", "lat": 38.902185, "is_reserved": 0, "is_disabled": 0, "fusion_lon": 0.0, "bike_id": "7ae405e63ec32ded43fa415305dc3616", "lon": -77.023303, "rental_uris": {"ios": "https://dc.lft.to/lastmile_qr_scan", "android": "https://dc.lft.to/lastmile_qr_scan"}}, {"name": "b69f40f51be4ce0bc09d643464d972de", "fusion_lat": 0.0, "type": "electric_bike", "lat": 38.91650833333333, "is_reserved": 0, "is_disabled": 0, "fusion_lon": 0.0, "bike_id": "b69f40f51be4ce0bc09d643464d972de", "lon": -76.98224866666666, "rental_uris": {"ios": "https://dc.lft.to/lastmile_qr_scan", "android": "https://dc.lft.to/lastmile_qr_scan"}}, {"name": "e237bf19db4d3969d15901b85c9abbb1", "fusion_lat": 0.0, "type": "electric_scooter", "lat": 38.89231, "is_reserved": 0, "is_disabled": 0, "fusion_lon": 0.0, "bike_id": "e237bf19db4d3969d15901b85c9abbb1", "lon": -77.03374716666667, "rental_uris": {"ios": "https://dc.lft.to/lastmile_qr_scan", "android": "https://dc.lft.to/lastmile_qr_scan"}}, {"name": "283518032bb9ee57df26b62bf52aad6d", "fusion_lat": 0.0, "type": "electric_scooter", "lat": 38.9194545, "is_reserved": 0, "is_disabled": 0, "fusion_lon": 0.0, "bike_id": "283518032bb9ee57df26b62bf52aad6d", "lon": -77.0234915, "rental_uris": {"ios": "https://dc.lft.to/lastmile_qr_scan", "android": "https://dc.lft.to/lastmile_qr_scan"}}, {"name": "44ea4af5a38ab674f88be7b25f05ee0b", "fusion_lat": 0.0, "type": "electric_scooter", "lat": 38.9073785, "is_reserved": 0, "is_disabled": 0, "fusion_lon": 0.0, "bike_id": "44ea4af5a38ab674f88be7b25f05ee0b", "lon": -77.0269125, "rental_uris": {"ios": "https://dc.lft.to/lastmile_qr_scan", "android": "https://dc.lft.to/lastmile_qr_scan"}}, {"name": "32060ee0deaa7d5ee648a0c803e270b1", "fusion_lat": 0.0, "type": "electric_scooter", "lat": 38.929515333333335, "is_reserved": 0, "is_disabled": 0, "fusion_lon": 0.0, "bike_id": "32060ee0deaa7d5ee648a0c803e270b1", "lon": -77.0329915, "rental_uris": {"ios": "https://dc.lft.to/lastmile_qr_scan", "android": "https://dc.lft.to/lastmile_qr_scan"}}, {"name": "85e143938745d7bccf6855f650623af5", "fusion_lat": 0.0, "type": "electric_scooter", "lat": 38.906064666666666, "is_reserved": 0, "is_disabled": 0, "fusion_lon": 0.0, "bike_id": "85e143938745d7bccf6855f650623af5", "lon": -77.04679683333333, "rental_uris": {"ios": "https://dc.lft.to/lastmile_qr_scan", "android": "https://dc.lft.to/lastmile_qr_scan"}}, {"name": "45d990602ac737ee9e07cb6d3b54a671", "fusion_lat": 0.0, "type": "electric_scooter", "lat": 38.9154345, "is_reserved": 0, "is_disabled": 0, "fusion_lon": 0.0, "bike_id": "45d990602ac737ee9e07cb6d3b54a671", "lon": -77.03205383333334, "rental_uris": {"ios": "https://dc.lft.to/lastmile_qr_scan", "android": "https://dc.lft.to/lastmile_qr_scan"}}, {"name": "657edc88697b0129a176b350df40ef21", "fusion_lat": 0.0, "type": "electric_scooter", "lat": 38.89543166666667, "is_reserved": 0, "is_disabled": 0, "fusion_lon": 0.0, "bike_id": "657edc88697b0129a176b350df40ef21", "lon": -77.04051316666667, "rental_uris": {"ios": "https://dc.lft.to/lastmile_qr_scan", "android": "https://dc.lft.to/lastmile_qr_scan"}}, {"name": "625fde5d4132b810562cbc2a1f22f677", "fusion_lat": 0.0, "type": "electric_scooter", "lat": 38.918158166666664, "is_reserved": 0, "is_disabled": 0, "fusion_lon": 0.0, "bike_id": "625fde5d4132b810562cbc2a1f22f677", "lon": -77.04619516666666, "rental_uris": {"ios": "https://dc.lft.to/lastmile_qr_scan", "android": "https://dc.lft.to/lastmile_qr_scan"}}, {"name": "fe1f62b1a05a4aebef79d9dbab2ecf9b", "fusion_lat": 0.0, "type": "electric_scooter", "lat": 38.92303716666667, "is_reserved": 0, "is_disabled": 0, "fusion_lon": 0.0, "bike_id": "fe1f62b1a05a4aebef79d9dbab2ecf9b", "lon": -77.0429455, "rental_uris": {"ios": "https://dc.lft.to/lastmile_qr_scan", "android": "https://dc.lft.to/lastmile_qr_scan"}}, {"name": "4c1846c852221f3a08c3581f1082f761", "fusion_lat": 0.0, "type": "electric_scooter", "lat": 38.8749925, "is_reserved": 0, "is_disabled": 0, "fusion_lon": 0.0, "bike_id": "4c1846c852221f3a08c3581f1082f761", "lon": -76.99792766666667, "rental_uris": {"ios": "https://dc.lft.to/lastmile_qr_scan", "android": "https://dc.lft.to/lastmile_qr_scan"}}, {"name": "0e957133dd95ad93871ce8b94552bca9", "fusion_lat": 0.0, "type": "electric_scooter", "lat": 38.8763145, "is_reserved": 0, "is_disabled": 0, "fusion_lon": 0.0, "bike_id": "0e957133dd95ad93871ce8b94552bca9", "lon": -76.96526233333333, "rental_uris": {"ios": "https://dc.lft.to/lastmile_qr_scan", "android": "https://dc.lft.to/lastmile_qr_scan"}}, {"name": "2b72cf6ce1460f49ec66385ddad2b26c", "fusion_lat": 0.0, "type": "electric_scooter", "lat": 38.90642883333334, "is_reserved": 0, "is_disabled": 0, "fusion_lon": 0.0, "bike_id": "2b72cf6ce1460f49ec66385ddad2b26c", "lon": -77.005947, "rental_uris": {"ios": "https://dc.lft.to/lastmile_qr_scan", "android": "https://dc.lft.to/lastmile_qr_scan"}}, {"name": "2697628d1189e47ae839f14faedeee2d", "fusion_lat": 0.0, "type": "electric_scooter", "lat": 38.89231616666667, "is_reserved": 0, "is_disabled": 0, "fusion_lon": 0.0, "bike_id": "2697628d1189e47ae839f14faedeee2d", "lon": -77.03369816666667, "rental_uris": {"ios": "https://dc.lft.to/lastmile_qr_scan", "android": "https://dc.lft.to/lastmile_qr_scan"}}, {"name": "89af8df5292b315f11ded992cf0770e2", "fusion_lat": 0.0, "type": "electric_scooter", "lat": 38.92291933333333, "is_reserved": 0, "is_disabled": 0, "fusion_lon": 0.0, "bike_id": "89af8df5292b315f11ded992cf0770e2", "lon": -77.02962133333334, "rental_uris": {"ios": "https://dc.lft.to/lastmile_qr_scan", "android": "https://dc.lft.to/lastmile_qr_scan"}}, {"name": "8b3fe127f0020458851ef40a9823ee3e", "fusion_lat": 0.0, "type": "electric_scooter", "lat": 38.92333166666667, "is_reserved": 0, "is_disabled": 0, "fusion_lon": 0.0, "bike_id": "8b3fe127f0020458851ef40a9823ee3e", "lon": -77.03782566666666, "rental_uris": {"ios": "https://dc.lft.to/lastmile_qr_scan", "android": "https://dc.lft.to/lastmile_qr_scan"}}, {"name": "dae28c66f14bdd1ce101109fb48414a7", "fusion_lat": 0.0, "type": "electric_scooter", "lat": 38.90677516666667, "is_reserved": 0, "is_disabled": 0, "fusion_lon": 0.0, "bike_id": "dae28c66f14bdd1ce101109fb48414a7", "lon": -77.027096, "rental_uris": {"ios": "https://dc.lft.to/lastmile_qr_scan", "android": "https://dc.lft.to/lastmile_qr_scan"}}, {"name": "678ff1064f6baa6d303b5442bef9fac8", "fusion_lat": 0.0, "type": "electric_scooter", "lat": 38.90507266666667, "is_reserved": 0, "is_disabled": 0, "fusion_lon": 0.0, "bike_id": "678ff1064f6baa6d303b5442bef9fac8", "lon": -76.99446233333333, "rental_uris": {"ios": "https://dc.lft.to/lastmile_qr_scan", "android": "https://dc.lft.to/lastmile_qr_scan"}}, {"name": "c3916f5308635d23e4943215fca527ac", "fusion_lat": 0.0, "type": "electric_bike", "lat": 38.92805333333333, "is_reserved": 0, "is_disabled": 0, "fusion_lon": 0.0, "bike_id": "c3916f5308635d23e4943215fca527ac", "lon": -77.04367366666666, "rental_uris": {"ios": "https://dc.lft.to/lastmile_qr_scan", "android": "https://dc.lft.to/lastmile_qr_scan"}}, {"name": "87956d30448cc126d2f072dde6478014", "fusion_lat": 0.0, "type": "electric_scooter", "lat": 38.86660233333333, "is_reserved": 0, "is_disabled": 0, "fusion_lon": 0.0, "bike_id": "87956d30448cc126d2f072dde6478014", "lon": -76.98884433333333, "rental_uris": {"ios": "https://dc.lft.to/lastmile_qr_scan", "android": "https://dc.lft.to/lastmile_qr_scan"}}, {"name": "8f6b4bf4a29fabc605380d548820de5a", "fusion_lat": 0.0, "type": "electric_scooter", "lat": 38.881069, "is_reserved": 0, "is_disabled": 0, "fusion_lon": 0.0, "bike_id": "8f6b4bf4a29fabc605380d548820de5a", "lon": -77.0120875, "rental_uris": {"ios": "https://dc.lft.to/lastmile_qr_scan", "android": "https://dc.lft.to/lastmile_qr_scan"}}, {"name": "1f3465520f70f9f82eabfdd965edeb57", "fusion_lat": 0.0, "type": "electric_scooter", "lat": 38.90037133333333, "is_reserved": 0, "is_disabled": 0, "fusion_lon": 0.0, "bike_id": "1f3465520f70f9f82eabfdd965edeb57", "lon": -77.00631483333333, "rental_uris": {"ios": "https://dc.lft.to/lastmile_qr_scan", "android": "https://dc.lft.to/lastmile_qr_scan"}}, {"name": "0a0eaf6a837d16ff1e95ee71a914649d", "fusion_lat": 0.0, "type": "electric_bike", "lat": 38.94975816666667, "is_reserved": 0, "is_disabled": 0, "fusion_lon": 0.0, "bike_id": "0a0eaf6a837d16ff1e95ee71a914649d", "lon": -76.97281, "rental_uris": {"ios": "https://dc.lft.to/lastmile_qr_scan", "android": "https://dc.lft.to/lastmile_qr_scan"}}, {"name": "76d779a6a47edafac56c067896b96d48", "fusion_lat": 0.0, "type": "electric_scooter", "lat": 38.907464166666664, "is_reserved": 0, "is_disabled": 0, "fusion_lon": 0.0, "bike_id": "76d779a6a47edafac56c067896b96d48", "lon": -77.04668833333334, "rental_uris": {"ios": "https://dc.lft.to/lastmile_qr_scan", "android": "https://dc.lft.to/lastmile_qr_scan"}}, {"name": "0cc108b437fcde3b30eae124919e45e6", "fusion_lat": 0.0, "type": "electric_bike", "lat": 38.8755195, "is_reserved": 0, "is_disabled": 0, "fusion_lon": 0.0, "bike_id": "0cc108b437fcde3b30eae124919e45e6", "lon": -76.96755216666666, "rental_uris": {"ios": "https://dc.lft.to/lastmile_qr_scan", "android": "https://dc.lft.to/lastmile_qr_scan"}}, {"name": "1429c3c617c5c995bb1c05cbc26d94d6", "fusion_lat": 0.0, "type": "electric_scooter", "lat": 38.925082333333336, "is_reserved": 0, "is_disabled": 0, "fusion_lon": 0.0, "bike_id": "1429c3c617c5c995bb1c05cbc26d94d6", "lon": -77.00224933333334, "rental_uris": {"ios": "https://dc.lft.to/lastmile_qr_scan", "android": "https://dc.lft.to/lastmile_qr_scan"}}, {"name": "75eec3d0feef2d85e847998a89534efe", "fusion_lat": 0.0, "type": "electric_scooter", "lat": 38.917346333333334, "is_reserved": 0, "is_disabled": 0, "fusion_lon": 0.0, "bike_id": "75eec3d0feef2d85e847998a89534efe", "lon": -77.0320515, "rental_uris": {"ios": "https://dc.lft.to/lastmile_qr_scan", "android": "https://dc.lft.to/lastmile_qr_scan"}}, {"name": "107b7c38d8e196008cf8455fa37ad8f6", "fusion_lat": 0.0, "type": "electric_scooter", "lat": 38.93258383333333, "is_reserved": 0, "is_disabled": 0, "fusion_lon": 0.0, "bike_id": "107b7c38d8e196008cf8455fa37ad8f6", "lon": -77.0400175, "rental_uris": {"ios": "https://dc.lft.to/lastmile_qr_scan", "android": "https://dc.lft.to/lastmile_qr_scan"}}, {"name": "afa572a44aaa85d2975f8ba15e462195", "fusion_lat": 0.0, "type": "electric_bike", "lat": 38.894722, "is_reserved": 0, "is_disabled": 0, "fusion_lon": 0.0, "bike_id": "afa572a44aaa85d2975f8ba15e462195", "lon": -77.0466055, "rental_uris": {"ios": "https://dc.lft.to/lastmile_qr_scan", "android": "https://dc.lft.to/lastmile_qr_scan"}}, {"name": "69ae0fcb922b79a56a66544206b5327d", "fusion_lat": 0.0, "type": "electric_scooter", "lat": 38.901481, "is_reserved": 0, "is_disabled": 0, "fusion_lon": 0.0, "bike_id": "69ae0fcb922b79a56a66544206b5327d", "lon": -77.04359983333333, "rental_uris": {"ios": "https://dc.lft.to/lastmile_qr_scan", "android": "https://dc.lft.to/lastmile_qr_scan"}}, {"name": "5257b3bb457803702e01b30282ad76cf", "fusion_lat": 0.0, "type": "electric_scooter", "lat": 38.90021383333333, "is_reserved": 0, "is_disabled": 0, "fusion_lon": 0.0, "bike_id": "5257b3bb457803702e01b30282ad76cf", "lon": -77.00666716666667, "rental_uris": {"ios": "https://dc.lft.to/lastmile_qr_scan", "android": "https://dc.lft.to/lastmile_qr_scan"}}, {"name": "d5ef3988acf13fa8f46b1cff057c68ce", "fusion_lat": 0.0, "type": "electric_scooter", "lat": 38.900422166666665, "is_reserved": 0, "is_disabled": 0, "fusion_lon": 0.0, "bike_id": "d5ef3988acf13fa8f46b1cff057c68ce", "lon": -77.025895, "rental_uris": {"ios": "https://dc.lft.to/lastmile_qr_scan", "android": "https://dc.lft.to/lastmile_qr_scan"}}, {"name": "4bf30f4c4fc428e8ae0d7c1cdf5cf29f", "fusion_lat": 0.0, "type": "electric_scooter", "lat": 38.90001266666667, "is_reserved": 0, "is_disabled": 0, "fusion_lon": 0.0, "bike_id": "4bf30f4c4fc428e8ae0d7c1cdf5cf29f", "lon": -76.9884315, "rental_uris": {"ios": "https://dc.lft.to/lastmile_qr_scan", "android": "https://dc.lft.to/lastmile_qr_scan"}}, {"name": "826d1b6dcce9c388fcc57234842b18b0", "fusion_lat": 0.0, "type": "electric_bike", "lat": 38.887557666666666, "is_reserved": 0, "is_disabled": 0, "fusion_lon": 0.0, "bike_id": "826d1b6dcce9c388fcc57234842b18b0", "lon": -76.90078566666666, "rental_uris": {"ios": "https://dc.lft.to/lastmile_qr_scan", "android": "https://dc.lft.to/lastmile_qr_scan"}}, {"name": "b6f3911db8396252cd47b9ddc486ebf8", "fusion_lat": 0.0, "type": "electric_scooter", "lat": 38.900808833333336, "is_reserved": 0, "is_disabled": 0, "fusion_lon": 0.0, "bike_id": "b6f3911db8396252cd47b9ddc486ebf8", "lon": -77.0500695, "rental_uris": {"ios": "https://dc.lft.to/lastmile_qr_scan", "android": "https://dc.lft.to/lastmile_qr_scan"}}, {"name": "30a0378c1a073561907a277279822473", "fusion_lat": 0.0, "type": "electric_scooter", "lat": 38.912578, "is_reserved": 0, "is_disabled": 0, "fusion_lon": 0.0, "bike_id": "30a0378c1a073561907a277279822473", "lon": -77.03836783333334, "rental_uris": {"ios": "https://dc.lft.to/lastmile_qr_scan", "android": "https://dc.lft.to/lastmile_qr_scan"}}, {"name": "4fe2731fe168a75fb5de7ef943670818", "fusion_lat": 0.0, "type": "electric_scooter", "lat": 38.88601666666667, "is_reserved": 0, "is_disabled": 0, "fusion_lon": 0.0, "bike_id": "4fe2731fe168a75fb5de7ef943670818", "lon": -77.02196416666666, "rental_uris": {"ios": "https://dc.lft.to/lastmile_qr_scan", "android": "https://dc.lft.to/lastmile_qr_scan"}}, {"name": "6eaffa12502897fc48dc4acf7f820b13", "fusion_lat": 0.0, "type": "electric_scooter", "lat": 38.862492833333334, "is_reserved": 0, "is_disabled": 0, "fusion_lon": 0.0, "bike_id": "6eaffa12502897fc48dc4acf7f820b13", "lon": -76.99531083333333, "rental_uris": {"ios": "https://dc.lft.to/lastmile_qr_scan", "android": "https://dc.lft.to/lastmile_qr_scan"}}, {"name": "0cac260e57d1a3988cf72553e2ae7c19", "fusion_lat": 0.0, "type": "electric_bike", "lat": 38.9999185, "is_reserved": 0, "is_disabled": 0, "fusion_lon": 0.0, "bike_id": "0cac260e57d1a3988cf72553e2ae7c19", "lon": -77.08006583333334, "rental_uris": {"ios": "https://dc.lft.to/lastmile_qr_scan", "android": "https://dc.lft.to/lastmile_qr_scan"}}, {"name": "5b268d40727720fe0afa1ce916c2ec11", "fusion_lat": 0.0, "type": "electric_scooter", "lat": 38.9245595, "is_reserved": 0, "is_disabled": 0, "fusion_lon": 0.0, "bike_id": "5b268d40727720fe0afa1ce916c2ec11", "lon": -77.03969983333333, "rental_uris": {"ios": "https://dc.lft.to/lastmile_qr_scan", "android": "https://dc.lft.to/lastmile_qr_scan"}}, {"name": "4a53a9a47d8c9b6dda6be9aefa80a1f3", "fusion_lat": 0.0, "type": "electric_bike", "lat": 38.86281433333333, "is_reserved": 0, "is_disabled": 0, "fusion_lon": 0.0, "bike_id": "4a53a9a47d8c9b6dda6be9aefa80a1f3", "lon": -77.05986033333333, "rental_uris": {"ios": "https://dc.lft.to/lastmile_qr_scan", "android": "https://dc.lft.to/lastmile_qr_scan"}}, {"name": "fe70a6b7061d0dce876faab020817857", "fusion_lat": 0.0, "type": "electric_scooter", "lat": 38.8850735, "is_reserved": 0, "is_disabled": 0, "fusion_lon": 0.0, "bike_id": "fe70a6b7061d0dce876faab020817857", "lon": -77.0056595, "rental_uris": {"ios": "https://dc.lft.to/lastmile_qr_scan", "android": "https://dc.lft.to/lastmile_qr_scan"}}, {"name": "56a7470daf390f3fbe9d1c4792e82af1", "fusion_lat": 0.0, "type": "electric_scooter", "lat": 38.9432045, "is_reserved": 0, "is_disabled": 0, "fusion_lon": 0.0, "bike_id": "56a7470daf390f3fbe9d1c4792e82af1", "lon": -77.024804, "rental_uris": {"ios": "https://dc.lft.to/lastmile_qr_scan", "android": "https://dc.lft.to/lastmile_qr_scan"}}, {"name": "6a7491b3d9aaf4a5a8df2b70cee6b901", "fusion_lat": 0.0, "type": "electric_scooter", "lat": 38.862478333333335, "is_reserved": 0, "is_disabled": 0, "fusion_lon": 0.0, "bike_id": "6a7491b3d9aaf4a5a8df2b70cee6b901", "lon": -76.99496, "rental_uris": {"ios": "https://dc.lft.to/lastmile_qr_scan", "android": "https://dc.lft.to/lastmile_qr_scan"}}, {"name": "b3b6daf599892b735e59a281afcfc2e6", "fusion_lat": 0.0, "type": "electric_scooter", "lat": 38.929777, "is_reserved": 0, "is_disabled": 0, "fusion_lon": 0.0, "bike_id": "b3b6daf599892b735e59a281afcfc2e6", "lon": -77.01449733333334, "rental_uris": {"ios": "https://dc.lft.to/lastmile_qr_scan", "android": "https://dc.lft.to/lastmile_qr_scan"}}, {"name": "ad1a9d606004bdce4cac30bba436ce65", "fusion_lat": 0.0, "type": "electric_bike", "lat": 38.8398945, "is_reserved": 0, "is_disabled": 0, "fusion_lon": 0.0, "bike_id": "ad1a9d606004bdce4cac30bba436ce65", "lon": -77.00568666666666, "rental_uris": {"ios": "https://dc.lft.to/lastmile_qr_scan", "android": "https://dc.lft.to/lastmile_qr_scan"}}, {"name": "4b181a2f2f198ea2ed2f23758f39ff71", "fusion_lat": 0.0, "type": "electric_scooter", "lat": 38.89172716666667, "is_reserved": 0, "is_disabled": 0, "fusion_lon": 0.0, "bike_id": "4b181a2f2f198ea2ed2f23758f39ff71", "lon": -77.01568866666666, "rental_uris": {"ios": "https://dc.lft.to/lastmile_qr_scan", "android": "https://dc.lft.to/lastmile_qr_scan"}}, {"name": "d388299acbfc425e715ee7b615a0ff90", "fusion_lat": 0.0, "type": "electric_scooter", "lat": 38.87669966666667, "is_reserved": 0, "is_disabled": 0, "fusion_lon": 0.0, "bike_id": "d388299acbfc425e715ee7b615a0ff90", "lon": -77.00749366666666, "rental_uris": {"ios": "https://dc.lft.to/lastmile_qr_scan", "android": "https://dc.lft.to/lastmile_qr_scan"}}, {"name": "0f546e771d49727654580ba7e25143cb", "fusion_lat": 0.0, "type": "electric_scooter", "lat": 38.9346295, "is_reserved": 0, "is_disabled": 0, "fusion_lon": 0.0, "bike_id": "0f546e771d49727654580ba7e25143cb", "lon": -77.08631783333334, "rental_uris": {"ios": "https://dc.lft.to/lastmile_qr_scan", "android": "https://dc.lft.to/lastmile_qr_scan"}}, {"name": "a8a027b18a336e335e343e89038d4151", "fusion_lat": 0.0, "type": "electric_scooter", "lat": 38.8986335, "is_reserved": 0, "is_disabled": 0, "fusion_lon": 0.0, "bike_id": "a8a027b18a336e335e343e89038d4151", "lon": -77.04238166666667, "rental_uris": {"ios": "https://dc.lft.to/lastmile_qr_scan", "android": "https://dc.lft.to/lastmile_qr_scan"}}, {"name": "60ffbb723c2967ef332ca130d035590d", "fusion_lat": 0.0, "type": "electric_scooter", "lat": 38.88506133333333, "is_reserved": 0, "is_disabled": 0, "fusion_lon": 0.0, "bike_id": "60ffbb723c2967ef332ca130d035590d", "lon": -77.02182083333334, "rental_uris": {"ios": "https://dc.lft.to/lastmile_qr_scan", "android": "https://dc.lft.to/lastmile_qr_scan"}}, {"name": "ae5854424f5b79e82eb7eb96e73cd2b3", "fusion_lat": 0.0, "type": "electric_scooter", "lat": 38.9057355, "is_reserved": 0, "is_disabled": 0, "fusion_lon": 0.0, "bike_id": "ae5854424f5b79e82eb7eb96e73cd2b3", "lon": -77.05691616666667, "rental_uris": {"ios": "https://dc.lft.to/lastmile_qr_scan", "android": "https://dc.lft.to/lastmile_qr_scan"}}, {"name": "8f6b2441241524bac96b2dbb215d8d3c", "fusion_lat": 0.0, "type": "electric_scooter", "lat": 38.869216333333334, "is_reserved": 0, "is_disabled": 0, "fusion_lon": 0.0, "bike_id": "8f6b2441241524bac96b2dbb215d8d3c", "lon": -76.97500683333334, "rental_uris": {"ios": "https://dc.lft.to/lastmile_qr_scan", "android": "https://dc.lft.to/lastmile_qr_scan"}}, {"name": "5f888c301f2f8190b7f2d6484e93ec3b", "fusion_lat": 0.0, "type": "electric_scooter", "lat": 38.88784033333334, "is_reserved": 0, "is_disabled": 0, "fusion_lon": 0.0, "bike_id": "5f888c301f2f8190b7f2d6484e93ec3b", "lon": -76.95530566666666, "rental_uris": {"ios": "https://dc.lft.to/lastmile_qr_scan", "android": "https://dc.lft.to/lastmile_qr_scan"}}, {"name": "a30787ddb81da9a4a7e5eed1a8e2d81e", "fusion_lat": 0.0, "type": "electric_scooter", "lat": 38.9343, "is_reserved": 0, "is_disabled": 0, "fusion_lon": 0.0, "bike_id": "a30787ddb81da9a4a7e5eed1a8e2d81e", "lon": -77.05750966666666, "rental_uris": {"ios": "https://dc.lft.to/lastmile_qr_scan", "android": "https://dc.lft.to/lastmile_qr_scan"}}, {"name": "3c3cad43d9538145c161238bbafb68d4", "fusion_lat": 0.0, "type": "electric_scooter", "lat": 38.89963566666667, "is_reserved": 0, "is_disabled": 0, "fusion_lon": 0.0, "bike_id": "3c3cad43d9538145c161238bbafb68d4", "lon": -76.99501483333333, "rental_uris": {"ios": "https://dc.lft.to/lastmile_qr_scan", "android": "https://dc.lft.to/lastmile_qr_scan"}}, {"name": "e21ac038e125b43c2633b59e18ff8b77", "fusion_lat": 0.0, "type": "electric_bike", "lat": 38.84615866666667, "is_reserved": 0, "is_disabled": 0, "fusion_lon": 0.0, "bike_id": "e21ac038e125b43c2633b59e18ff8b77", "lon": -76.97820016666667, "rental_uris": {"ios": "https://dc.lft.to/lastmile_qr_scan", "android": "https://dc.lft.to/lastmile_qr_scan"}}, {"name": "8c4fe0a403af816e8bf53e7ab7a96eb7", "fusion_lat": 0.0, "type": "electric_scooter", "lat": 38.899238833333335, "is_reserved": 0, "is_disabled": 0, "fusion_lon": 0.0, "bike_id": "8c4fe0a403af816e8bf53e7ab7a96eb7", "lon": -77.03219333333334, "rental_uris": {"ios": "https://dc.lft.to/lastmile_qr_scan", "android": "https://dc.lft.to/lastmile_qr_scan"}}, {"name": "9a2806a11c59c2fe547cf386f4cdf003", "fusion_lat": 0.0, "type": "electric_scooter", "lat": 38.886582, "is_reserved": 0, "is_disabled": 0, "fusion_lon": 0.0, "bike_id": "9a2806a11c59c2fe547cf386f4cdf003", "lon": -77.03388583333333, "rental_uris": {"ios": "https://dc.lft.to/lastmile_qr_scan", "android": "https://dc.lft.to/lastmile_qr_scan"}}, {"name": "43a441ab088d6d3e3b8f31e27d424100", "fusion_lat": 0.0, "type": "electric_scooter", "lat": 38.91109316666667, "is_reserved": 0, "is_disabled": 0, "fusion_lon": 0.0, "bike_id": "43a441ab088d6d3e3b8f31e27d424100", "lon": -77.04291016666667, "rental_uris": {"ios": "https://dc.lft.to/lastmile_qr_scan", "android": "https://dc.lft.to/lastmile_qr_scan"}}, {"name": "695baf93e6f1e2ece5b8350d0d276fe4", "fusion_lat": 0.0, "type": "electric_bike", "lat": 39.058155, "is_reserved": 0, "is_disabled": 0, "fusion_lon": 0.0, "bike_id": "695baf93e6f1e2ece5b8350d0d276fe4", "lon": -77.12627733333333, "rental_uris": {"ios": "https://dc.lft.to/lastmile_qr_scan", "android": "https://dc.lft.to/lastmile_qr_scan"}}, {"name": "f5d74d4af9284bb699c90b86c1c7a8d9", "fusion_lat": 0.0, "type": "electric_scooter", "lat": 38.90761233333333, "is_reserved": 0, "is_disabled": 0, "fusion_lon": 0.0, "bike_id": "f5d74d4af9284bb699c90b86c1c7a8d9", "lon": -77.04530333333334, "rental_uris": {"ios": "https://dc.lft.to/lastmile_qr_scan", "android": "https://dc.lft.to/lastmile_qr_scan"}}, {"name": "6c331acecff2ebd736af459e6b7fe96a", "fusion_lat": 0.0, "type": "electric_scooter", "lat": 38.902135333333334, "is_reserved": 0, "is_disabled": 0, "fusion_lon": 0.0, "bike_id": "6c331acecff2ebd736af459e6b7fe96a", "lon": -77.0503525, "rental_uris": {"ios": "https://dc.lft.to/lastmile_qr_scan", "android": "https://dc.lft.to/lastmile_qr_scan"}}, {"name": "ef623732287607eec2a4a7769afa5f9f", "fusion_lat": 0.0, "type": "electric_bike", "lat": 38.949675666666664, "is_reserved": 0, "is_disabled": 0, "fusion_lon": 0.0, "bike_id": "ef623732287607eec2a4a7769afa5f9f", "lon": -76.96092233333333, "rental_uris": {"ios": "https://dc.lft.to/lastmile_qr_scan", "android": "https://dc.lft.to/lastmile_qr_scan"}}, {"name": "e75d47e4084be33e9a5d8bba3855fb17", "fusion_lat": 0.0, "type": "electric_bike", "lat": 39.089037, "is_reserved": 0, "is_disabled": 0, "fusion_lon": 0.0, "bike_id": "e75d47e4084be33e9a5d8bba3855fb17", "lon": -77.17846066666667, "rental_uris": {"ios": "https://dc.lft.to/lastmile_qr_scan", "android": "https://dc.lft.to/lastmile_qr_scan"}}, {"name": "7b0efdd6405010a3f1d18cfc70658c0b", "fusion_lat": 0.0, "type": "electric_scooter", "lat": 38.90736916666667, "is_reserved": 0, "is_disabled": 0, "fusion_lon": 0.0, "bike_id": "7b0efdd6405010a3f1d18cfc70658c0b", "lon": -77.03071066666666, "rental_uris": {"ios": "https://dc.lft.to/lastmile_qr_scan", "android": "https://dc.lft.to/lastmile_qr_scan"}}, {"name": "8d789510bb551aac8ab815bb9ce8c01f", "fusion_lat": 0.0, "type": "electric_scooter", "lat": 38.905744, "is_reserved": 0, "is_disabled": 0, "fusion_lon": 0.0, "bike_id": "8d789510bb551aac8ab815bb9ce8c01f", "lon": -77.00528116666666, "rental_uris": {"ios": "https://dc.lft.to/lastmile_qr_scan", "android": "https://dc.lft.to/lastmile_qr_scan"}}, {"name": "b657d53d1d7fbfde3acf3cfd9d8ae87b", "fusion_lat": 0.0, "type": "electric_scooter", "lat": 38.9192135, "is_reserved": 0, "is_disabled": 0, "fusion_lon": 0.0, "bike_id": "b657d53d1d7fbfde3acf3cfd9d8ae87b", "lon": -77.03268233333333, "rental_uris": {"ios": "https://dc.lft.to/lastmile_qr_scan", "android": "https://dc.lft.to/lastmile_qr_scan"}}, {"name": "992da5890c26f8f94672db77ff4dd3e7", "fusion_lat": 0.0, "type": "electric_scooter", "lat": 38.928534166666665, "is_reserved": 0, "is_disabled": 0, "fusion_lon": 0.0, "bike_id": "992da5890c26f8f94672db77ff4dd3e7", "lon": -77.01391066666666, "rental_uris": {"ios": "https://dc.lft.to/lastmile_qr_scan", "android": "https://dc.lft.to/lastmile_qr_scan"}}, {"name": "7c0cdc23bfe3b747ddff2b7079c5a0c3", "fusion_lat": 0.0, "type": "electric_scooter", "lat": 38.91811, "is_reserved": 0, "is_disabled": 0, "fusion_lon": 0.0, "bike_id": "7c0cdc23bfe3b747ddff2b7079c5a0c3", "lon": -77.04002266666667, "rental_uris": {"ios": "https://dc.lft.to/lastmile_qr_scan", "android": "https://dc.lft.to/lastmile_qr_scan"}}, {"name": "8ad8e3e513a919d0aa57c7691df6f612", "fusion_lat": 0.0, "type": "electric_scooter", "lat": 38.916976, "is_reserved": 0, "is_disabled": 0, "fusion_lon": 0.0, "bike_id": "8ad8e3e513a919d0aa57c7691df6f612", "lon": -77.01257183333334, "rental_uris": {"ios": "https://dc.lft.to/lastmile_qr_scan", "android": "https://dc.lft.to/lastmile_qr_scan"}}, {"name": "990c96842a0d8688015e6cd28d29cbd5", "fusion_lat": 0.0, "type": "electric_scooter", "lat": 38.945616333333334, "is_reserved": 0, "is_disabled": 0, "fusion_lon": 0.0, "bike_id": "990c96842a0d8688015e6cd28d29cbd5", "lon": -77.07772666666666, "rental_uris": {"ios": "https://dc.lft.to/lastmile_qr_scan", "android": "https://dc.lft.to/lastmile_qr_scan"}}, {"name": "ea87037a7102d29f64502bf862feb851", "fusion_lat": 0.0, "type": "electric_scooter", "lat": 38.91602566666667, "is_reserved": 0, "is_disabled": 0, "fusion_lon": 0.0, "bike_id": "ea87037a7102d29f64502bf862feb851", "lon": -77.031954, "rental_uris": {"ios": "https://dc.lft.to/lastmile_qr_scan", "android": "https://dc.lft.to/lastmile_qr_scan"}}, {"name": "6ae389fd7632dd096d62db74845220b3", "fusion_lat": 0.0, "type": "electric_scooter", "lat": 38.902820166666665, "is_reserved": 0, "is_disabled": 0, "fusion_lon": 0.0, "bike_id": "6ae389fd7632dd096d62db74845220b3", "lon": -77.06278216666666, "rental_uris": {"ios": "https://dc.lft.to/lastmile_qr_scan", "android": "https://dc.lft.to/lastmile_qr_scan"}}, {"name": "2a97848bb11da3405a92bb68cda7aaa1", "fusion_lat": 0.0, "type": "electric_scooter", "lat": 38.923850333333334, "is_reserved": 0, "is_disabled": 0, "fusion_lon": 0.0, "bike_id": "2a97848bb11da3405a92bb68cda7aaa1", "lon": -77.04108016666666, "rental_uris": {"ios": "https://dc.lft.to/lastmile_qr_scan", "android": "https://dc.lft.to/lastmile_qr_scan"}}, {"name": "748467d0563bdc1aa1fb845ca87b06c3", "fusion_lat": 0.0, "type": "electric_scooter", "lat": 38.89360533333333, "is_reserved": 0, "is_disabled": 0, "fusion_lon": 0.0, "bike_id": "748467d0563bdc1aa1fb845ca87b06c3", "lon": -77.00329033333334, "rental_uris": {"ios": "https://dc.lft.to/lastmile_qr_scan", "android": "https://dc.lft.to/lastmile_qr_scan"}}, {"name": "4360dd7cc28c62f1271acc1da4d52876", "fusion_lat": 0.0, "type": "electric_scooter", "lat": 38.900372, "is_reserved": 0, "is_disabled": 0, "fusion_lon": 0.0, "bike_id": "4360dd7cc28c62f1271acc1da4d52876", "lon": -77.00193583333333, "rental_uris": {"ios": "https://dc.lft.to/lastmile_qr_scan", "android": "https://dc.lft.to/lastmile_qr_scan"}}, {"name": "317f004ff1c07cd33eb9c8e512b83934", "fusion_lat": 0.0, "type": "electric_scooter", "lat": 38.935651166666666, "is_reserved": 0, "is_disabled": 0, "fusion_lon": 0.0, "bike_id": "317f004ff1c07cd33eb9c8e512b83934", "lon": -77.03257816666667, "rental_uris": {"ios": "https://dc.lft.to/lastmile_qr_scan", "android": "https://dc.lft.to/lastmile_qr_scan"}}, {"name": "032affb8b993566e8df655607c120046", "fusion_lat": 0.0, "type": "electric_scooter", "lat": 38.89227416666667, "is_reserved": 0, "is_disabled": 0, "fusion_lon": 0.0, "bike_id": "032affb8b993566e8df655607c120046", "lon": -77.0500885, "rental_uris": {"ios": "https://dc.lft.to/lastmile_qr_scan", "android": "https://dc.lft.to/lastmile_qr_scan"}}, {"name": "8014a5367a9683b6101371d51206545f", "fusion_lat": 0.0, "type": "electric_scooter", "lat": 38.8775685, "is_reserved": 0, "is_disabled": 0, "fusion_lon": 0.0, "bike_id": "8014a5367a9683b6101371d51206545f", "lon": -77.0199795, "rental_uris": {"ios": "https://dc.lft.to/lastmile_qr_scan", "android": "https://dc.lft.to/lastmile_qr_scan"}}, {"name": "039ea7046b7f5b59e761aa5b845050cb", "fusion_lat": 0.0, "type": "electric_scooter", "lat": 38.934003833333335, "is_reserved": 0, "is_disabled": 0, "fusion_lon": 0.0, "bike_id": "039ea7046b7f5b59e761aa5b845050cb", "lon": -77.03518183333334, "rental_uris": {"ios": "https://dc.lft.to/lastmile_qr_scan", "android": "https://dc.lft.to/lastmile_qr_scan"}}, {"name": "333380532d0dbd67c4675c9b44ce7fc2", "fusion_lat": 0.0, "type": "electric_scooter", "lat": 38.88052666666667, "is_reserved": 0, "is_disabled": 0, "fusion_lon": 0.0, "bike_id": "333380532d0dbd67c4675c9b44ce7fc2", "lon": -77.00467983333333, "rental_uris": {"ios": "https://dc.lft.to/lastmile_qr_scan", "android": "https://dc.lft.to/lastmile_qr_scan"}}, {"name": "60c441b5996c39d5f37fcab01478e2c0", "fusion_lat": 0.0, "type": "electric_scooter", "lat": 38.9033625, "is_reserved": 0, "is_disabled": 0, "fusion_lon": 0.0, "bike_id": "60c441b5996c39d5f37fcab01478e2c0", "lon": -77.04168, "rental_uris": {"ios": "https://dc.lft.to/lastmile_qr_scan", "android": "https://dc.lft.to/lastmile_qr_scan"}}, {"name": "8c01cc3bafa21b7a128e9f23e458f229", "fusion_lat": 0.0, "type": "electric_scooter", "lat": 38.912501666666664, "is_reserved": 0, "is_disabled": 0, "fusion_lon": 0.0, "bike_id": "8c01cc3bafa21b7a128e9f23e458f229", "lon": -77.0487435, "rental_uris": {"ios": "https://dc.lft.to/lastmile_qr_scan", "android": "https://dc.lft.to/lastmile_qr_scan"}}, {"name": "f97a840ff83b01c34019afc3f17ca4a1", "fusion_lat": 0.0, "type": "electric_scooter", "lat": 38.9306535, "is_reserved": 0, "is_disabled": 0, "fusion_lon": 0.0, "bike_id": "f97a840ff83b01c34019afc3f17ca4a1", "lon": -77.03950866666666, "rental_uris": {"ios": "https://dc.lft.to/lastmile_qr_scan", "android": "https://dc.lft.to/lastmile_qr_scan"}}, {"name": "c7a2c517bdf035ea39bb81fbfa9ea6a3", "fusion_lat": 0.0, "type": "electric_scooter", "lat": 38.875009, "is_reserved": 0, "is_disabled": 0, "fusion_lon": 0.0, "bike_id": "c7a2c517bdf035ea39bb81fbfa9ea6a3", "lon": -77.00173083333334, "rental_uris": {"ios": "https://dc.lft.to/lastmile_qr_scan", "android": "https://dc.lft.to/lastmile_qr_scan"}}, {"name": "fc0abdb3f68c1c550077b32da7c5379c", "fusion_lat": 0.0, "type": "electric_bike", "lat": 38.9685005, "is_reserved": 0, "is_disabled": 0, "fusion_lon": 0.0, "bike_id": "fc0abdb3f68c1c550077b32da7c5379c", "lon": -77.03329433333333, "rental_uris": {"ios": "https://dc.lft.to/lastmile_qr_scan", "android": "https://dc.lft.to/lastmile_qr_scan"}}, {"name": "18606f47563a23aaf6c0937745eed13a", "fusion_lat": 0.0, "type": "electric_scooter", "lat": 38.8953795, "is_reserved": 0, "is_disabled": 0, "fusion_lon": 0.0, "bike_id": "18606f47563a23aaf6c0937745eed13a", "lon": -77.0111345, "rental_uris": {"ios": "https://dc.lft.to/lastmile_qr_scan", "android": "https://dc.lft.to/lastmile_qr_scan"}}, {"name": "90ed778dac644b485d5a448c8dd29453", "fusion_lat": 0.0, "type": "electric_scooter", "lat": 38.89975183333333, "is_reserved": 0, "is_disabled": 0, "fusion_lon": 0.0, "bike_id": "90ed778dac644b485d5a448c8dd29453", "lon": -77.0312675, "rental_uris": {"ios": "https://dc.lft.to/lastmile_qr_scan", "android": "https://dc.lft.to/lastmile_qr_scan"}}, {"name": "ce5c9946331aafcf8d29e5adbebdde9b", "fusion_lat": 0.0, "type": "electric_scooter", "lat": 38.932122, "is_reserved": 0, "is_disabled": 0, "fusion_lon": 0.0, "bike_id": "ce5c9946331aafcf8d29e5adbebdde9b", "lon": -77.0273135, "rental_uris": {"ios": "https://dc.lft.to/lastmile_qr_scan", "android": "https://dc.lft.to/lastmile_qr_scan"}}, {"name": "49cb27f9063165e7b5a860045f4ad732", "fusion_lat": 0.0, "type": "electric_scooter", "lat": 38.89607933333333, "is_reserved": 0, "is_disabled": 0, "fusion_lon": 0.0, "bike_id": "49cb27f9063165e7b5a860045f4ad732", "lon": -77.0468905, "rental_uris": {"ios": "https://dc.lft.to/lastmile_qr_scan", "android": "https://dc.lft.to/lastmile_qr_scan"}}, {"name": "a8bf7904f6911da9d497fcd20efc6742", "fusion_lat": 0.0, "type": "electric_scooter", "lat": 38.89925916666667, "is_reserved": 0, "is_disabled": 0, "fusion_lon": 0.0, "bike_id": "a8bf7904f6911da9d497fcd20efc6742", "lon": -77.03927516666667, "rental_uris": {"ios": "https://dc.lft.to/lastmile_qr_scan", "android": "https://dc.lft.to/lastmile_qr_scan"}}, {"name": "b1b642b1e0d9edf6851a9591a33640ba", "fusion_lat": 0.0, "type": "electric_scooter", "lat": 38.915012, "is_reserved": 0, "is_disabled": 0, "fusion_lon": 0.0, "bike_id": "b1b642b1e0d9edf6851a9591a33640ba", "lon": -77.032521, "rental_uris": {"ios": "https://dc.lft.to/lastmile_qr_scan", "android": "https://dc.lft.to/lastmile_qr_scan"}}, {"name": "ba1ba080fc2c2e188d9e95f3df9a4fe9", "fusion_lat": 0.0, "type": "electric_scooter", "lat": 38.91919016666667, "is_reserved": 0, "is_disabled": 0, "fusion_lon": 0.0, "bike_id": "ba1ba080fc2c2e188d9e95f3df9a4fe9", "lon": -77.03092966666667, "rental_uris": {"ios": "https://dc.lft.to/lastmile_qr_scan", "android": "https://dc.lft.to/lastmile_qr_scan"}}, {"name": "18585e4086386f22f3d99cc3e031b2cc", "fusion_lat": 0.0, "type": "electric_scooter", "lat": 38.91340833333334, "is_reserved": 0, "is_disabled": 0, "fusion_lon": 0.0, "bike_id": "18585e4086386f22f3d99cc3e031b2cc", "lon": -77.03115866666667, "rental_uris": {"ios": "https://dc.lft.to/lastmile_qr_scan", "android": "https://dc.lft.to/lastmile_qr_scan"}}, {"name": "57b997a64df2b4ce85a1158ece468a08", "fusion_lat": 0.0, "type": "electric_scooter", "lat": 38.907047666666664, "is_reserved": 0, "is_disabled": 0, "fusion_lon": 0.0, "bike_id": "57b997a64df2b4ce85a1158ece468a08", "lon": -77.023837, "rental_uris": {"ios": "https://dc.lft.to/lastmile_qr_scan", "android": "https://dc.lft.to/lastmile_qr_scan"}}, {"name": "411959e2bd00d104f07f9300bc94c905", "fusion_lat": 0.0, "type": "electric_scooter", "lat": 38.93884166666667, "is_reserved": 0, "is_disabled": 0, "fusion_lon": 0.0, "bike_id": "411959e2bd00d104f07f9300bc94c905", "lon": -77.02463533333334, "rental_uris": {"ios": "https://dc.lft.to/lastmile_qr_scan", "android": "https://dc.lft.to/lastmile_qr_scan"}}, {"name": "1c9b80b858d5c12fefc58a71c4ab4cff", "fusion_lat": 0.0, "type": "electric_scooter", "lat": 38.918093666666664, "is_reserved": 0, "is_disabled": 0, "fusion_lon": 0.0, "bike_id": "1c9b80b858d5c12fefc58a71c4ab4cff", "lon": -77.0281935, "rental_uris": {"ios": "https://dc.lft.to/lastmile_qr_scan", "android": "https://dc.lft.to/lastmile_qr_scan"}}, {"name": "73819b56825229eec22af6606a2a76d0", "fusion_lat": 0.0, "type": "electric_scooter", "lat": 38.90041383333333, "is_reserved": 0, "is_disabled": 0, "fusion_lon": 0.0, "bike_id": "73819b56825229eec22af6606a2a76d0", "lon": -77.006189, "rental_uris": {"ios": "https://dc.lft.to/lastmile_qr_scan", "android": "https://dc.lft.to/lastmile_qr_scan"}}, {"name": "173e765ce9afb92b3d3b7c608b23e0f9", "fusion_lat": 0.0, "type": "electric_scooter", "lat": 38.9177945, "is_reserved": 0, "is_disabled": 0, "fusion_lon": 0.0, "bike_id": "173e765ce9afb92b3d3b7c608b23e0f9", "lon": -77.0233095, "rental_uris": {"ios": "https://dc.lft.to/lastmile_qr_scan", "android": "https://dc.lft.to/lastmile_qr_scan"}}, {"name": "98f9b40cbca2dba0c5c2610379609811", "fusion_lat": 0.0, "type": "electric_scooter", "lat": 38.900490833333336, "is_reserved": 0, "is_disabled": 0, "fusion_lon": 0.0, "bike_id": "98f9b40cbca2dba0c5c2610379609811", "lon": -76.98837316666666, "rental_uris": {"ios": "https://dc.lft.to/lastmile_qr_scan", "android": "https://dc.lft.to/lastmile_qr_scan"}}, {"name": "50631b85df8ae3ce2c996c88687ac1c4", "fusion_lat": 0.0, "type": "electric_scooter", "lat": 38.9266995, "is_reserved": 0, "is_disabled": 0, "fusion_lon": 0.0, "bike_id": "50631b85df8ae3ce2c996c88687ac1c4", "lon": -77.04291616666667, "rental_uris": {"ios": "https://dc.lft.to/lastmile_qr_scan", "android": "https://dc.lft.to/lastmile_qr_scan"}}, {"name": "cde0e45d3e2c59f8fd09c09f635c16fb", "fusion_lat": 0.0, "type": "electric_scooter", "lat": 38.90074383333334, "is_reserved": 0, "is_disabled": 0, "fusion_lon": 0.0, "bike_id": "cde0e45d3e2c59f8fd09c09f635c16fb", "lon": -77.0258065, "rental_uris": {"ios": "https://dc.lft.to/lastmile_qr_scan", "android": "https://dc.lft.to/lastmile_qr_scan"}}, {"name": "a22ea3953f3f99b15d6de288fe51e7fd", "fusion_lat": 0.0, "type": "electric_scooter", "lat": 38.87580616666666, "is_reserved": 0, "is_disabled": 0, "fusion_lon": 0.0, "bike_id": "a22ea3953f3f99b15d6de288fe51e7fd", "lon": -77.01051433333333, "rental_uris": {"ios": "https://dc.lft.to/lastmile_qr_scan", "android": "https://dc.lft.to/lastmile_qr_scan"}}, {"name": "a80d1435da233b3a3183cc4ae826f2dc", "fusion_lat": 0.0, "type": "electric_bike", "lat": 38.874820166666666, "is_reserved": 0, "is_disabled": 0, "fusion_lon": 0.0, "bike_id": "a80d1435da233b3a3183cc4ae826f2dc", "lon": -76.96520633333333, "rental_uris": {"ios": "https://dc.lft.to/lastmile_qr_scan", "android": "https://dc.lft.to/lastmile_qr_scan"}}, {"name": "e8445661669926b0a285580ce8ec9ee0", "fusion_lat": 0.0, "type": "electric_scooter", "lat": 38.91014466666667, "is_reserved": 0, "is_disabled": 0, "fusion_lon": 0.0, "bike_id": "e8445661669926b0a285580ce8ec9ee0", "lon": -76.99386833333334, "rental_uris": {"ios": "https://dc.lft.to/lastmile_qr_scan", "android": "https://dc.lft.to/lastmile_qr_scan"}}, {"name": "57e8a0d8ad4d9ebd9c61e0e9b47a1993", "fusion_lat": 0.0, "type": "electric_scooter", "lat": 38.91614583333333, "is_reserved": 0, "is_disabled": 0, "fusion_lon": 0.0, "bike_id": "57e8a0d8ad4d9ebd9c61e0e9b47a1993", "lon": -77.03852583333334, "rental_uris": {"ios": "https://dc.lft.to/lastmile_qr_scan", "android": "https://dc.lft.to/lastmile_qr_scan"}}, {"name": "ff6000d18731bad22d51853d07246cbf", "fusion_lat": 0.0, "type": "electric_scooter", "lat": 38.92180033333333, "is_reserved": 0, "is_disabled": 0, "fusion_lon": 0.0, "bike_id": "ff6000d18731bad22d51853d07246cbf", "lon": -77.02663, "rental_uris": {"ios": "https://dc.lft.to/lastmile_qr_scan", "android": "https://dc.lft.to/lastmile_qr_scan"}}, {"name": "8cdb2118a1ccbc1e143da9eb98c02a62", "fusion_lat": 0.0, "type": "electric_scooter", "lat": 38.886247166666664, "is_reserved": 0, "is_disabled": 0, "fusion_lon": 0.0, "bike_id": "8cdb2118a1ccbc1e143da9eb98c02a62", "lon": -77.01965733333333, "rental_uris": {"ios": "https://dc.lft.to/lastmile_qr_scan", "android": "https://dc.lft.to/lastmile_qr_scan"}}, {"name": "c0ea0167e1c5ffbe26ea745637297c06", "fusion_lat": 0.0, "type": "electric_bike", "lat": 38.94279233333334, "is_reserved": 0, "is_disabled": 0, "fusion_lon": 0.0, "bike_id": "c0ea0167e1c5ffbe26ea745637297c06", "lon": -76.98066216666666, "rental_uris": {"ios": "https://dc.lft.to/lastmile_qr_scan", "android": "https://dc.lft.to/lastmile_qr_scan"}}, {"name": "77a6c87f32f937a2ad7da3619c1cc39d", "fusion_lat": 0.0, "type": "electric_scooter", "lat": 38.906699333333336, "is_reserved": 0, "is_disabled": 0, "fusion_lon": 0.0, "bike_id": "77a6c87f32f937a2ad7da3619c1cc39d", "lon": -77.02714833333333, "rental_uris": {"ios": "https://dc.lft.to/lastmile_qr_scan", "android": "https://dc.lft.to/lastmile_qr_scan"}}, {"name": "a59792cc97893acee3ff70a3c18e516d", "fusion_lat": 0.0, "type": "electric_scooter", "lat": 38.920672833333334, "is_reserved": 0, "is_disabled": 0, "fusion_lon": 0.0, "bike_id": "a59792cc97893acee3ff70a3c18e516d", "lon": -77.042512, "rental_uris": {"ios": "https://dc.lft.to/lastmile_qr_scan", "android": "https://dc.lft.to/lastmile_qr_scan"}}, {"name": "adf20f5f034950ee04d57074dcfc8642", "fusion_lat": 0.0, "type": "electric_scooter", "lat": 38.8666235, "is_reserved": 0, "is_disabled": 0, "fusion_lon": 0.0, "bike_id": "adf20f5f034950ee04d57074dcfc8642", "lon": -76.98884516666666, "rental_uris": {"ios": "https://dc.lft.to/lastmile_qr_scan", "android": "https://dc.lft.to/lastmile_qr_scan"}}, {"name": "4d1fff47a567a9b386e0c526f04aecfd", "fusion_lat": 0.0, "type": "electric_scooter", "lat": 38.927442, "is_reserved": 0, "is_disabled": 0, "fusion_lon": 0.0, "bike_id": "4d1fff47a567a9b386e0c526f04aecfd", "lon": -77.03471033333334, "rental_uris": {"ios": "https://dc.lft.to/lastmile_qr_scan", "android": "https://dc.lft.to/lastmile_qr_scan"}}, {"name": "4c34b8356fbfce7c690b9132b41a08bc", "fusion_lat": 0.0, "type": "electric_scooter", "lat": 38.898510333333334, "is_reserved": 0, "is_disabled": 0, "fusion_lon": 0.0, "bike_id": "4c34b8356fbfce7c690b9132b41a08bc", "lon": -77.007583, "rental_uris": {"ios": "https://dc.lft.to/lastmile_qr_scan", "android": "https://dc.lft.to/lastmile_qr_scan"}}, {"name": "696bab5da2344a4770bdb889d2a258e6", "fusion_lat": 0.0, "type": "electric_scooter", "lat": 38.892233833333336, "is_reserved": 0, "is_disabled": 0, "fusion_lon": 0.0, "bike_id": "696bab5da2344a4770bdb889d2a258e6", "lon": -77.02277266666667, "rental_uris": {"ios": "https://dc.lft.to/lastmile_qr_scan", "android": "https://dc.lft.to/lastmile_qr_scan"}}, {"name": "027419237710937152c159f6a49fe72d", "fusion_lat": 0.0, "type": "electric_scooter", "lat": 38.924289, "is_reserved": 0, "is_disabled": 0, "fusion_lon": 0.0, "bike_id": "027419237710937152c159f6a49fe72d", "lon": -77.0447655, "rental_uris": {"ios": "https://dc.lft.to/lastmile_qr_scan", "android": "https://dc.lft.to/lastmile_qr_scan"}}, {"name": "c7ed0ae27fdc840e00f6b7d3e6dce003", "fusion_lat": 0.0, "type": "electric_bike", "lat": 39.000165, "is_reserved": 0, "is_disabled": 0, "fusion_lon": 0.0, "bike_id": "c7ed0ae27fdc840e00f6b7d3e6dce003", "lon": -77.0174265, "rental_uris": {"ios": "https://dc.lft.to/lastmile_qr_scan", "android": "https://dc.lft.to/lastmile_qr_scan"}}, {"name": "9ec4f5164e75f66d21336e957d59bec1", "fusion_lat": 0.0, "type": "electric_scooter", "lat": 38.93065766666667, "is_reserved": 0, "is_disabled": 0, "fusion_lon": 0.0, "bike_id": "9ec4f5164e75f66d21336e957d59bec1", "lon": -77.0298095, "rental_uris": {"ios": "https://dc.lft.to/lastmile_qr_scan", "android": "https://dc.lft.to/lastmile_qr_scan"}}, {"name": "5490f667d77916865dadd7be62942535", "fusion_lat": 0.0, "type": "electric_scooter", "lat": 38.9184525, "is_reserved": 0, "is_disabled": 0, "fusion_lon": 0.0, "bike_id": "5490f667d77916865dadd7be62942535", "lon": -77.0226755, "rental_uris": {"ios": "https://dc.lft.to/lastmile_qr_scan", "android": "https://dc.lft.to/lastmile_qr_scan"}}, {"name": "b95bdf066980e38febfb06b068004cb9", "fusion_lat": 0.0, "type": "electric_bike", "lat": 38.81250983333334, "is_reserved": 0, "is_disabled": 0, "fusion_lon": 0.0, "bike_id": "b95bdf066980e38febfb06b068004cb9", "lon": -77.117647, "rental_uris": {"ios": "https://dc.lft.to/lastmile_qr_scan", "android": "https://dc.lft.to/lastmile_qr_scan"}}, {"name": "0378ca348b3c85c46dc261e6ac3fb8f0", "fusion_lat": 0.0, "type": "electric_scooter", "lat": 38.91637133333333, "is_reserved": 0, "is_disabled": 0, "fusion_lon": 0.0, "bike_id": "0378ca348b3c85c46dc261e6ac3fb8f0", "lon": -77.00096933333333, "rental_uris": {"ios": "https://dc.lft.to/lastmile_qr_scan", "android": "https://dc.lft.to/lastmile_qr_scan"}}, {"name": "5bb51de63b7179528597ce29d5d1447a", "fusion_lat": 0.0, "type": "electric_scooter", "lat": 38.90398183333333, "is_reserved": 0, "is_disabled": 0, "fusion_lon": 0.0, "bike_id": "5bb51de63b7179528597ce29d5d1447a", "lon": -77.03432566666666, "rental_uris": {"ios": "https://dc.lft.to/lastmile_qr_scan", "android": "https://dc.lft.to/lastmile_qr_scan"}}, {"name": "c1eb9059dbd1ea0ec15c56efea7df064", "fusion_lat": 0.0, "type": "electric_scooter", "lat": 38.88519483333334, "is_reserved": 0, "is_disabled": 0, "fusion_lon": 0.0, "bike_id": "c1eb9059dbd1ea0ec15c56efea7df064", "lon": -77.02186766666667, "rental_uris": {"ios": "https://dc.lft.to/lastmile_qr_scan", "android": "https://dc.lft.to/lastmile_qr_scan"}}, {"name": "09353bfc1609ec68bdb08aa1183bd024", "fusion_lat": 0.0, "type": "electric_bike", "lat": 38.94921733333334, "is_reserved": 0, "is_disabled": 0, "fusion_lon": 0.0, "bike_id": "09353bfc1609ec68bdb08aa1183bd024", "lon": -77.00794766666667, "rental_uris": {"ios": "https://dc.lft.to/lastmile_qr_scan", "android": "https://dc.lft.to/lastmile_qr_scan"}}, {"name": "d5ca17468a08a03ddc164c15e034c892", "fusion_lat": 0.0, "type": "electric_scooter", "lat": 38.93965883333333, "is_reserved": 0, "is_disabled": 0, "fusion_lon": 0.0, "bike_id": "d5ca17468a08a03ddc164c15e034c892", "lon": -77.027473, "rental_uris": {"ios": "https://dc.lft.to/lastmile_qr_scan", "android": "https://dc.lft.to/lastmile_qr_scan"}}, {"name": "5cfec981e0ebf033dcf2810d9f69c576", "fusion_lat": 0.0, "type": "electric_scooter", "lat": 38.920762833333335, "is_reserved": 0, "is_disabled": 0, "fusion_lon": 0.0, "bike_id": "5cfec981e0ebf033dcf2810d9f69c576", "lon": -77.023163, "rental_uris": {"ios": "https://dc.lft.to/lastmile_qr_scan", "android": "https://dc.lft.to/lastmile_qr_scan"}}, {"name": "54b36d14a75dac2e5015015bb5604616", "fusion_lat": 0.0, "type": "electric_bike", "lat": 38.856883333333336, "is_reserved": 0, "is_disabled": 0, "fusion_lon": 0.0, "bike_id": "54b36d14a75dac2e5015015bb5604616", "lon": -77.08538283333333, "rental_uris": {"ios": "https://dc.lft.to/lastmile_qr_scan", "android": "https://dc.lft.to/lastmile_qr_scan"}}, {"name": "90deb0bf6b81ee8c72fd3801a98b2b35", "fusion_lat": 0.0, "type": "electric_scooter", "lat": 38.9183515, "is_reserved": 0, "is_disabled": 0, "fusion_lon": 0.0, "bike_id": "90deb0bf6b81ee8c72fd3801a98b2b35", "lon": -77.02395, "rental_uris": {"ios": "https://dc.lft.to/lastmile_qr_scan", "android": "https://dc.lft.to/lastmile_qr_scan"}}, {"name": "f490bd26db6f341d3b737039f4676355", "fusion_lat": 0.0, "type": "electric_scooter", "lat": 38.89858616666667, "is_reserved": 0, "is_disabled": 0, "fusion_lon": 0.0, "bike_id": "f490bd26db6f341d3b737039f4676355", "lon": -77.02004333333333, "rental_uris": {"ios": "https://dc.lft.to/lastmile_qr_scan", "android": "https://dc.lft.to/lastmile_qr_scan"}}, {"name": "a125bbb96e1fe451f5b6b43b6e8a8aab", "fusion_lat": 0.0, "type": "electric_scooter", "lat": 38.90587466666667, "is_reserved": 0, "is_disabled": 0, "fusion_lon": 0.0, "bike_id": "a125bbb96e1fe451f5b6b43b6e8a8aab", "lon": -77.04872283333333, "rental_uris": {"ios": "https://dc.lft.to/lastmile_qr_scan", "android": "https://dc.lft.to/lastmile_qr_scan"}}, {"name": "be7e01415f8e37fb1def5a84c9025261", "fusion_lat": 0.0, "type": "electric_scooter", "lat": 38.906498666666664, "is_reserved": 0, "is_disabled": 0, "fusion_lon": 0.0, "bike_id": "be7e01415f8e37fb1def5a84c9025261", "lon": -77.03908133333333, "rental_uris": {"ios": "https://dc.lft.to/lastmile_qr_scan", "android": "https://dc.lft.to/lastmile_qr_scan"}}, {"name": "c3bee8ca63c203017b45ff61082ef0de", "fusion_lat": 0.0, "type": "electric_scooter", "lat": 38.923193833333336, "is_reserved": 0, "is_disabled": 0, "fusion_lon": 0.0, "bike_id": "c3bee8ca63c203017b45ff61082ef0de", "lon": -77.0546605, "rental_uris": {"ios": "https://dc.lft.to/lastmile_qr_scan", "android": "https://dc.lft.to/lastmile_qr_scan"}}, {"name": "a8b8271133f7a7e632083605f2a1a17b", "fusion_lat": 0.0, "type": "electric_bike", "lat": 38.9286815, "is_reserved": 0, "is_disabled": 0, "fusion_lon": 0.0, "bike_id": "a8b8271133f7a7e632083605f2a1a17b", "lon": -76.961075, "rental_uris": {"ios": "https://dc.lft.to/lastmile_qr_scan", "android": "https://dc.lft.to/lastmile_qr_scan"}}, {"name": "82bb876063a583a9898f72e2c93e4a11", "fusion_lat": 0.0, "type": "electric_scooter", "lat": 38.900212, "is_reserved": 0, "is_disabled": 0, "fusion_lon": 0.0, "bike_id": "82bb876063a583a9898f72e2c93e4a11", "lon": -77.04257133333333, "rental_uris": {"ios": "https://dc.lft.to/lastmile_qr_scan", "android": "https://dc.lft.to/lastmile_qr_scan"}}, {"name": "8b26265a36e14e5836fdf6455f01336e", "fusion_lat": 0.0, "type": "electric_scooter", "lat": 38.930251, "is_reserved": 0, "is_disabled": 0, "fusion_lon": 0.0, "bike_id": "8b26265a36e14e5836fdf6455f01336e", "lon": -77.03771116666667, "rental_uris": {"ios": "https://dc.lft.to/lastmile_qr_scan", "android": "https://dc.lft.to/lastmile_qr_scan"}}, {"name": "fa54df849ec4f057e05819be4a1fcb9f", "fusion_lat": 0.0, "type": "electric_scooter", "lat": 38.9086195, "is_reserved": 0, "is_disabled": 0, "fusion_lon": 0.0, "bike_id": "fa54df849ec4f057e05819be4a1fcb9f", "lon": -77.04347766666666, "rental_uris": {"ios": "https://dc.lft.to/lastmile_qr_scan", "android": "https://dc.lft.to/lastmile_qr_scan"}}, {"name": "92a7fbba7c069a11ab8ddc3bd5f249df", "fusion_lat": 0.0, "type": "electric_scooter", "lat": 38.90573, "is_reserved": 0, "is_disabled": 0, "fusion_lon": 0.0, "bike_id": "92a7fbba7c069a11ab8ddc3bd5f249df", "lon": -77.02100616666667, "rental_uris": {"ios": "https://dc.lft.to/lastmile_qr_scan", "android": "https://dc.lft.to/lastmile_qr_scan"}}, {"name": "a4d5c26ea51f9541c384b3243fc93abd", "fusion_lat": 0.0, "type": "electric_scooter", "lat": 38.96561066666666, "is_reserved": 0, "is_disabled": 0, "fusion_lon": 0.0, "bike_id": "a4d5c26ea51f9541c384b3243fc93abd", "lon": -77.01625033333333, "rental_uris": {"ios": "https://dc.lft.to/lastmile_qr_scan", "android": "https://dc.lft.to/lastmile_qr_scan"}}, {"name": "77dab1fe9165377e4902e7be5096b088", "fusion_lat": 0.0, "type": "electric_scooter", "lat": 38.9404765, "is_reserved": 0, "is_disabled": 0, "fusion_lon": 0.0, "bike_id": "77dab1fe9165377e4902e7be5096b088", "lon": -77.0297985, "rental_uris": {"ios": "https://dc.lft.to/lastmile_qr_scan", "android": "https://dc.lft.to/lastmile_qr_scan"}}, {"name": "857d77688556919efa01db0e056a6436", "fusion_lat": 0.0, "type": "electric_scooter", "lat": 38.931078, "is_reserved": 0, "is_disabled": 0, "fusion_lon": 0.0, "bike_id": "857d77688556919efa01db0e056a6436", "lon": -77.03739116666667, "rental_uris": {"ios": "https://dc.lft.to/lastmile_qr_scan", "android": "https://dc.lft.to/lastmile_qr_scan"}}, {"name": "56252729020914189fe771f11a3957f0", "fusion_lat": 0.0, "type": "electric_scooter", "lat": 38.878369166666666, "is_reserved": 0, "is_disabled": 0, "fusion_lon": 0.0, "bike_id": "56252729020914189fe771f11a3957f0", "lon": -77.01754783333334, "rental_uris": {"ios": "https://dc.lft.to/lastmile_qr_scan", "android": "https://dc.lft.to/lastmile_qr_scan"}}, {"name": "3218d2d932e21b60b0c60ea5f29e9198", "fusion_lat": 0.0, "type": "electric_scooter", "lat": 38.880523333333336, "is_reserved": 0, "is_disabled": 0, "fusion_lon": 0.0, "bike_id": "3218d2d932e21b60b0c60ea5f29e9198", "lon": -76.95984716666666, "rental_uris": {"ios": "https://dc.lft.to/lastmile_qr_scan", "android": "https://dc.lft.to/lastmile_qr_scan"}}, {"name": "cd140dc592ad81d6071deb6e27674f9c", "fusion_lat": 0.0, "type": "electric_scooter", "lat": 38.90059983333333, "is_reserved": 0, "is_disabled": 0, "fusion_lon": 0.0, "bike_id": "cd140dc592ad81d6071deb6e27674f9c", "lon": -76.947564, "rental_uris": {"ios": "https://dc.lft.to/lastmile_qr_scan", "android": "https://dc.lft.to/lastmile_qr_scan"}}, {"name": "1ff6c2ee835e8aeb9cff9dcef135b527", "fusion_lat": 0.0, "type": "electric_bike", "lat": 38.86596616666667, "is_reserved": 0, "is_disabled": 0, "fusion_lon": 0.0, "bike_id": "1ff6c2ee835e8aeb9cff9dcef135b527", "lon": -76.93225183333334, "rental_uris": {"ios": "https://dc.lft.to/lastmile_qr_scan", "android": "https://dc.lft.to/lastmile_qr_scan"}}, {"name": "0f05d91d4386191be8cd3589c513c9bf", "fusion_lat": 0.0, "type": "electric_bike", "lat": 38.852155333333336, "is_reserved": 0, "is_disabled": 0, "fusion_lon": 0.0, "bike_id": "0f05d91d4386191be8cd3589c513c9bf", "lon": -77.129618, "rental_uris": {"ios": "https://dc.lft.to/lastmile_qr_scan", "android": "https://dc.lft.to/lastmile_qr_scan"}}, {"name": "083e7bb2a5058c47e40fc1d362e0e1e9", "fusion_lat": 0.0, "type": "electric_scooter", "lat": 38.930606833333336, "is_reserved": 0, "is_disabled": 0, "fusion_lon": 0.0, "bike_id": "083e7bb2a5058c47e40fc1d362e0e1e9", "lon": -77.0231775, "rental_uris": {"ios": "https://dc.lft.to/lastmile_qr_scan", "android": "https://dc.lft.to/lastmile_qr_scan"}}, {"name": "b65b4a4cf61a733386e42e9027563c9f", "fusion_lat": 0.0, "type": "electric_scooter", "lat": 38.89391483333333, "is_reserved": 0, "is_disabled": 0, "fusion_lon": 0.0, "bike_id": "b65b4a4cf61a733386e42e9027563c9f", "lon": -77.05476783333333, "rental_uris": {"ios": "https://dc.lft.to/lastmile_qr_scan", "android": "https://dc.lft.to/lastmile_qr_scan"}}, {"name": "a2207724223bd2cc4be6cc78ec7e6b81", "fusion_lat": 0.0, "type": "electric_scooter", "lat": 38.87672083333333, "is_reserved": 0, "is_disabled": 0, "fusion_lon": 0.0, "bike_id": "a2207724223bd2cc4be6cc78ec7e6b81", "lon": -77.00344366666667, "rental_uris": {"ios": "https://dc.lft.to/lastmile_qr_scan", "android": "https://dc.lft.to/lastmile_qr_scan"}}, {"name": "71ca99806ba2d0399d03fd550bd94955", "fusion_lat": 0.0, "type": "electric_scooter", "lat": 38.901321333333335, "is_reserved": 0, "is_disabled": 0, "fusion_lon": 0.0, "bike_id": "71ca99806ba2d0399d03fd550bd94955", "lon": -77.03932366666666, "rental_uris": {"ios": "https://dc.lft.to/lastmile_qr_scan", "android": "https://dc.lft.to/lastmile_qr_scan"}}, {"name": "08200e546a8fe55e2de1a47b0982c9f7", "fusion_lat": 0.0, "type": "electric_scooter", "lat": 38.8852245, "is_reserved": 0, "is_disabled": 0, "fusion_lon": 0.0, "bike_id": "08200e546a8fe55e2de1a47b0982c9f7", "lon": -77.03354483333334, "rental_uris": {"ios": "https://dc.lft.to/lastmile_qr_scan", "android": "https://dc.lft.to/lastmile_qr_scan"}}, {"name": "56b0a2f43ab5f29a470e564cdbaa9dd9", "fusion_lat": 0.0, "type": "electric_bike", "lat": 38.984566666666666, "is_reserved": 0, "is_disabled": 0, "fusion_lon": 0.0, "bike_id": "56b0a2f43ab5f29a470e564cdbaa9dd9", "lon": -76.9552545, "rental_uris": {"ios": "https://dc.lft.to/lastmile_qr_scan", "android": "https://dc.lft.to/lastmile_qr_scan"}}, {"name": "ff37ba7109c3fe99dfd76d2716bbaf98", "fusion_lat": 0.0, "type": "electric_scooter", "lat": 38.9391835, "is_reserved": 0, "is_disabled": 0, "fusion_lon": 0.0, "bike_id": "ff37ba7109c3fe99dfd76d2716bbaf98", "lon": -77.03656933333333, "rental_uris": {"ios": "https://dc.lft.to/lastmile_qr_scan", "android": "https://dc.lft.to/lastmile_qr_scan"}}, {"name": "15d818d8e1402122c754e65acb996235", "fusion_lat": 0.0, "type": "electric_scooter", "lat": 38.895529, "is_reserved": 0, "is_disabled": 0, "fusion_lon": 0.0, "bike_id": "15d818d8e1402122c754e65acb996235", "lon": -76.98372466666666, "rental_uris": {"ios": "https://dc.lft.to/lastmile_qr_scan", "android": "https://dc.lft.to/lastmile_qr_scan"}}, {"name": "8253a2713e6d72d03986688c89117268", "fusion_lat": 0.0, "type": "electric_scooter", "lat": 38.89222866666667, "is_reserved": 0, "is_disabled": 0, "fusion_lon": 0.0, "bike_id": "8253a2713e6d72d03986688c89117268", "lon": -77.03020316666667, "rental_uris": {"ios": "https://dc.lft.to/lastmile_qr_scan", "android": "https://dc.lft.to/lastmile_qr_scan"}}, {"name": "a0ca45d1d50ade6d405d2520a9e343cc", "fusion_lat": 0.0, "type": "electric_scooter", "lat": 38.856603166666666, "is_reserved": 0, "is_disabled": 0, "fusion_lon": 0.0, "bike_id": "a0ca45d1d50ade6d405d2520a9e343cc", "lon": -76.99087183333333, "rental_uris": {"ios": "https://dc.lft.to/lastmile_qr_scan", "android": "https://dc.lft.to/lastmile_qr_scan"}}, {"name": "fad08d8b25939addeccf5914dc6fb4fb", "fusion_lat": 0.0, "type": "electric_scooter", "lat": 38.90983133333334, "is_reserved": 0, "is_disabled": 0, "fusion_lon": 0.0, "bike_id": "fad08d8b25939addeccf5914dc6fb4fb", "lon": -77.06715766666667, "rental_uris": {"ios": "https://dc.lft.to/lastmile_qr_scan", "android": "https://dc.lft.to/lastmile_qr_scan"}},