{"data": {"bikes": [{"is_reserved": 0, "type": "electric_scooter", "bike_id": "324f5da35ce83e22cad70b0ff36092d2", "lat": 38.906399666666665, "lon": -77.07556616666666, "rental_uris": {"android": "https://dc.lft.to/lastmile_qr_scan", "ios": "https://dc.lft.to/lastmile_qr_scan"}, "is_disabled": 0, "fusion_lat": 0.0, "name": "324f5da35ce83e22cad70b0ff36092d2", "fusion_lon": 0.0}, {"is_reserved": 0, "type": "electric_scooter", "bike_id": "7b89d0e68fcad1b53c1f050f0e8df9cb", "lat": 38.860224, "lon": -76.97001116666667, "rental_uris": {"android": "https://dc.lft.to/lastmile_qr_scan", "ios": "https://dc.lft.to/lastmile_qr_scan"}, "is_disabled": 0, "fusion_lat": 0.0, "name": "7b89d0e68fcad1b53c1f050f0e8df9cb", "fusion_lon": 0.0}, {"is_reserved": 0, "type": "electric_scooter", "bike_id": "aad9a390250d9b71a7c98633534c50d3", "lat": 38.92451533333333, "lon": -77.03292466666667, "rental_uris": {"android": "https://dc.lft.to/lastmile_qr_scan", "ios": "https://dc.lft.to/lastmile_qr_scan"}, "is_disabled": 0, "fusion_lat": 0.0, "name": "aad9a390250d9b71a7c98633534c50d3", "fusion_lon": 0.0}, {"is_reserved": 0, "type": "electric_bike", "bike_id": "61008bc31fb190eeec62c1c4d209312c", "lat": 38.927815333333335, "lon": -76.9990915, "rental_uris": {"android": "https://dc.lft.to/lastmile_qr_scan", "ios": "https://dc.lft.to/lastmile_qr_scan"}, "is_disabled": 0, "fusion_lat": 0.0, "name": "61008bc31fb190eeec62c1c4d209312c", "fusion_lon": 0.0}, {"is_reserved": 0, "type": "electric_scooter", "bike_id": "5f6c920d07155a2d77e6579a22b7475b", "lat": 38.911005, "lon": -77.0271965, "rental_uris": {"android": "https://dc.lft.to/lastmile_qr_scan", "ios": "https://dc.lft.to/lastmile_qr_scan"}, "is_disabled": 0, "fusion_lat": 0.0, "name": "5f6c920d07155a2d77e6579a22b7475b", "fusion_lon": 0.0}, {"is_reserved": 0, "type": "electric_scooter", "bike_id": "cab7204935c7be81aabedbce2f6ff9b9", "lat": 38.907204, "lon": -77.03303983333333, "rental_uris": {"android": "https://dc.lft.to/lastmile_qr_scan", "ios": "https://dc.lft.to/lastmile_qr_scan"}, "is_disabled": 0, "fusion_lat": 0.0, "name": "cab7204935c7be81aabedbce2f6ff9b9", "fusion_lon": 0.0}, {"is_reserved": 0, "type": "electric_scooter", "bike_id": "4af30baee9fb4efb59c7c01922b37603", "lat": 38.94437116666667, "lon": -77.06351183333334, "rental_uris": {"android": "https://dc.lft.to/lastmile_qr_scan", "ios": "https://dc.lft.to/lastmile_qr_scan"}, "is_disabled": 0, "fusion_lat": 0.0, "name": "4af30baee9fb4efb59c7c01922b37603", "fusion_lon": 0.0}, {"is_reserved": 0, "type": "electric_scooter", "bike_id": "f76c699162d50f22c869e2b720953869", "lat": 38.92772683333333, "lon": -77.02811733333333, "rental_uris": {"android": "https://dc.lft.to/lastmile_qr_scan", "ios": "https://dc.lft.to/lastmile_qr_scan"}, "is_disabled": 0, "fusion_lat": 0.0, "name": "f76c699162d50f22c869e2b720953869", "fusion_lon": 0.0}, {"is_reserved": 0, "type": "electric_scooter", "bike_id": "04d4372a1f7b7f98e3684e308daa26f2", "lat": 38.92127216666667, "lon": -77.01792016666667, "rental_uris": {"android": "https://dc.lft.to/lastmile_qr_scan", "ios": "https://dc.lft.to/lastmile_qr_scan"}, "is_disabled": 0, "fusion_lat": 0.0, "name": "04d4372a1f7b7f98e3684e308daa26f2", "fusion_lon": 0.0}, {"is_reserved": 0, "type": "electric_scooter", "bike_id": "485cab43e5e9ac92ae977a1fd1986bb1", "lat": 38.904019, "lon": -77.02003683333334, "rental_uris": {"android": "https://dc.lft.to/lastmile_qr_scan", "ios": "https://dc.lft.to/lastmile_qr_scan"}, "is_disabled": 0, "fusion_lat": 0.0, "name": "485cab43e5e9ac92ae977a1fd1986bb1", "fusion_lon": 0.0}, {"is_reserved": 0, "type": "electric_scooter", "bike_id": "4cff552cbf8181a42e40a0ffad0381f2", "lat": 38.920709, "lon": -77.0231575, "rental_uris": {"android": "https://dc.lft.to/lastmile_qr_scan", "ios": "https://dc.lft.to/lastmile_qr_scan"}, "is_disabled": 0, "fusion_lat": 0.0, "name": "4cff552cbf8181a42e40a0ffad0381f2", "fusion_lon": 0.0}, {"is_reserved": 0, "type": "electric_scooter", "bike_id": "c3387f5a95c672bcb814c7c18e28ae58", "lat": 38.930877333333335, "lon": -77.02555183333334, "rental_uris": {"android": "https://dc.lft.to/lastmile_qr_scan", "ios": "https://dc.lft.to/lastmile_qr_scan"}, "is_disabled": 0, "fusion_lat": 0.0, "name": "c3387f5a95c672bcb814c7c18e28ae58", "fusion_lon": 0.0}, {"is_reserved": 0, "type": "electric_scooter", "bike_id": "11ac8e786a5431650d979f69798e8eb1", "lat": 38.9173435, "lon": -77.01603533333333, "rental_uris": {"android": "https://dc.lft.to/lastmile_qr_scan", "ios": "https://dc.lft.to/lastmile_qr_scan"}, "is_disabled": 0, "fusion_lat": 0.0, "name": "11ac8e786a5431650d979f69798e8eb1", "fusion_lon": 0.0}, {"is_reserved": 0, "type": "electric_scooter", "bike_id": "02d1baa16d3926d8ea44c980fcd78e24", "lat": 38.9350515, "lon": -77.04288433333333, "rental_uris": {"android": "https://dc.lft.to/lastmile_qr_scan", "ios": "https://dc.lft.to/lastmile_qr_scan"}, "is_disabled": 0, "fusion_lat": 0.0, "name": "02d1baa16d3926d8ea44c980fcd78e24", "fusion_lon": 0.0}, {"is_reserved": 0, "type": "electric_scooter", "bike_id": "9401e4abf9e62dbb672ee71c035f85eb", "lat": 38.92390866666667, "lon": -77.0505995, "rental_uris": {"android": "https://dc.lft.to/lastmile_qr_scan", "ios": "https://dc.lft.to/lastmile_qr_scan"}, "is_disabled": 0, "fusion_lat": 0.0, "name": "9401e4abf9e62dbb672ee71c035f85eb", "fusion_lon": 0.0}, {"is_reserved": 0, "type": "electric_scooter", "bike_id": "e016416a695dbb4ec8519aedfe690a16", "lat": 38.92391033333333, "lon": -77.05047133333333, "rental_uris": {"android": "https://dc.lft.to/lastmile_qr_scan", "ios": "https://dc.lft.to/lastmile_qr_scan"}, "is_disabled": 0, "fusion_lat": 0.0, "name": "e016416a695dbb4ec8519aedfe690a16", "fusion_lon": 0.0}, {"is_reserved": 0, "type": "electric_scooter", "bike_id": "c761d1e6296e14a0839a27274d4a9ba3", "lat": 38.927637833333335, "lon": -77.02776433333334, "rental_uris": {"android": "https://dc.lft.to/lastmile_qr_scan", "ios": "https://dc.lft.to/lastmile_qr_scan"}, "is_disabled": 0, "fusion_lat": 0.0, "name": "c761d1e6296e14a0839a27274d4a9ba3", "fusion_lon": 0.0}, {"is_reserved": 0, "type": "electric_scooter", "bike_id": "ee61feb7e0875e5e9f2775d0039a741e", "lat": 38.94747266666667, "lon": -77.01936866666667, "rental_uris": {"android": "https://dc.lft.to/lastmile_qr_scan", "ios": "https://dc.lft.to/lastmile_qr_scan"}, "is_disabled": 0, "fusion_lat": 0.0, "name": "ee61feb7e0875e5e9f2775d0039a741e", "fusion_lon": 0.0}, {"is_reserved": 0, "type": "electric_scooter", "bike_id": "473315ee99dd4e7f28d218248d224eb6", "lat": 38.897896833333334, "lon": -77.01197483333333, "rental_uris": {"android": "https://dc.lft.to/lastmile_qr_scan", "ios": "https://dc.lft.to/lastmile_qr_scan"}, "is_disabled": 0, "fusion_lat": 0.0, "name": "473315ee99dd4e7f28d218248d224eb6", "fusion_lon": 0.0}, {"is_reserved": 0, "type": "electric_scooter", "bike_id": "10d8aa969660d01721d9b292be682d25", "lat": 38.87270266666667, "lon": -77.0171675, "rental_uris": {"android": "https://dc.lft.to/lastmile_qr_scan", "ios": "https://dc.lft.to/lastmile_qr_scan"}, "is_disabled": 0, "fusion_lat": 0.0, "name": "10d8aa969660d01721d9b292be682d25", "fusion_lon": 0.0}, {"is_reserved": 0, "type": "electric_scooter", "bike_id": "edacacfb64674f43046c70c9a0913dbf", "lat": 38.87151633333333, "lon": -77.01326366666666, "rental_uris": {"android": "https://dc.lft.to/lastmile_qr_scan", "ios": "https://dc.lft.to/lastmile_qr_scan"}, "is_disabled": 0, "fusion_lat": 0.0, "name": "edacacfb64674f43046c70c9a0913dbf", "fusion_lon": 0.0}, {"is_reserved": 0, "type": "electric_scooter", "bike_id": "275b8cb8a6543e52a91f247465c923d1", "lat": 38.91269066666667, "lon": -77.03037333333333, "rental_uris": {"android": "https://dc.lft.to/lastmile_qr_scan", "ios": "https://dc.lft.to/lastmile_qr_scan"}, "is_disabled": 0, "fusion_lat": 0.0, "name": "275b8cb8a6543e52a91f247465c923d1", "fusion_lon": 0.0}, {"is_reserved": 0, "type": "electric_scooter", "bike_id": "a9ffb245bda8787828618c817e6d3cf6", "lat": 38.93093116666667, "lon": -77.02379766666667, "rental_uris": {"android": "https://dc.lft.to/lastmile_qr_scan", "ios": "https://dc.lft.to/lastmile_qr_scan"}, "is_disabled": 0, "fusion_lat": 0.0, "name": "a9ffb245bda8787828618c817e6d3cf6", "fusion_lon": 0.0}, {"is_reserved": 0, "type": "electric_scooter", "bike_id": "58a04701e96e5707e299b6170cc9310d", "lat": 38.91416366666667, "lon": -77.0221275, "rental_uris": {"android": "https://dc.lft.to/lastmile_qr_scan", "ios": "https://dc.lft.to/lastmile_qr_scan"}, "is_disabled": 0, "fusion_lat": 0.0, "name": "58a04701e96e5707e299b6170cc9310d", "fusion_lon": 0.0}, {"is_reserved": 0, "type": "electric_scooter", "bike_id": "ee571245b04d6db986e3b45a8bf08f0f", "lat": 38.9211115, "lon": -77.042159, "rental_uris": {"android": "https://dc.lft.to/lastmile_qr_scan", "ios": "https://dc.lft.to/lastmile_qr_scan"}, "is_disabled": 0, "fusion_lat": 0.0, "name": "ee571245b04d6db986e3b45a8bf08f0f", "fusion_lon": 0.0}, {"is_reserved": 0, "type": "electric_scooter", "bike_id": "c23f0ec8750990daa877f0f7b0b59b78", "lat": 38.892074, "lon": -76.92926866666667, "rental_uris": {"android": "https://dc.lft.to/lastmile_qr_scan", "ios": "https://dc.lft.to/lastmile_qr_scan"}, "is_disabled": 0, "fusion_lat": 0.0, "name": "c23f0ec8750990daa877f0f7b0b59b78", "fusion_lon": 0.0}, {"is_reserved": 0, "type": "electric_bike", "bike_id": "7a00a57e6570ba897787e1e0bd2e0f9d", "lat": 38.957559333333336, "lon": -76.9676375, "rental_uris": {"android": "https://dc.lft.to/lastmile_qr_scan", "ios": "https://dc.lft.to/lastmile_qr_scan"}, "is_disabled": 0, "fusion_lat": 0.0, "name": "7a00a57e6570ba897787e1e0bd2e0f9d", "fusion_lon": 0.0}, {"is_reserved": 0, "type": "electric_scooter", "bike_id": "898c85c21a819958e809742934ec4d2a", "lat": 38.923353166666665, "lon": -77.04666666666667, "rental_uris": {"android": "https://dc.lft.to/lastmile_qr_scan", "ios": "https://dc.lft.to/lastmile_qr_scan"}, "is_disabled": 0, "fusion_lat": 0.0, "name": "898c85c21a819958e809742934ec4d2a", "fusion_lon": 0.0}, {"is_reserved": 0, "type": "electric_scooter", "bike_id": "b45c5b61b454269c87f8813c81cbb01b", "lat": 38.897332, "lon": -77.05526683333333, "rental_uris": {"android": "https://dc.lft.to/lastmile_qr_scan", "ios": "https://dc.lft.to/lastmile_qr_scan"}, "is_disabled": 0, "fusion_lat": 0.0, "name": "b45c5b61b454269c87f8813c81cbb01b", "fusion_lon": 0.0}, {"is_reserved": 0, "type": "electric_bike", "bike_id": "b08db85ff8f202d3f4ee04d1dbd7694b", "lat": 38.80866316666667, "lon": -77.1125645, "rental_uris": {"android": "https://dc.lft.to/lastmile_qr_scan", "ios": "https://dc.lft.to/lastmile_qr_scan"}, "is_disabled": 0, "fusion_lat": 0.0, "name": "b08db85ff8f202d3f4ee04d1dbd7694b", "fusion_lon": 0.0}, {"is_reserved": 0, "type": "electric_scooter", "bike_id": "99dda35fc67eb23cb76ae7d567ca7174", "lat": 38.9255665, "lon": -77.0366205, "rental_uris": {"android": "https://dc.lft.to/lastmile_qr_scan", "ios": "https://dc.lft.to/lastmile_qr_scan"}, "is_disabled": 0, "fusion_lat": 0.0, "name": "99dda35fc67eb23cb76ae7d567ca7174", "fusion_lon": 0.0}, {"is_reserved": 0, "type": "electric_scooter", "bike_id": "3e2fd422e1ee6101cde4480043af784c", "lat": 38.892201, "lon": -77.02420266666667, "rental_uris": {"android": "https://dc.lft.to/lastmile_qr_scan", "ios": "https://dc.lft.to/lastmile_qr_scan"}, "is_disabled": 0, "fusion_lat": 0.0, "name": "3e2fd422e1ee6101cde4480043af784c", "fusion_lon": 0.0}, {"is_reserved": 0, "type": "electric_scooter", "bike_id": "227aff5b2a58b74fd67a1327c709b9bc", "lat": 38.92361266666666, "lon": -77.01913883333333, "rental_uris": {"android": "https://dc.lft.to/lastmile_qr_scan", "ios": "https://dc.lft.to/lastmile_qr_scan"}, "is_disabled": 0, "fusion_lat": 0.0, "name": "227aff5b2a58b74fd67a1327c709b9bc", "fusion_lon": 0.0}, {"is_reserved": 0, "type": "electric_scooter", "bike_id": "614bd73048fa762620cb915b0c2af5dd", "lat": 38.925185666666664, "lon": -77.0257295, "rental_uris": {"android": "https://dc.lft.to/lastmile_qr_scan", "ios": "https://dc.lft.to/lastmile_qr_scan"}, "is_disabled": 0, "fusion_lat": 0.0, "name": "614bd73048fa762620cb915b0c2af5dd", "fusion_lon": 0.0}, {"is_reserved": 0, "type": "electric_scooter", "bike_id": "3dcbe73073e1561772128ffc3dec8137", "lat": 38.92012416666667, "lon": -77.038947, "rental_uris": {"android": "https://dc.lft.to/lastmile_qr_scan", "ios": "https://dc.lft.to/lastmile_qr_scan"}, "is_disabled": 0, "fusion_lat": 0.0, "name": "3dcbe73073e1561772128ffc3dec8137", "fusion_lon": 0.0}, {"is_reserved": 0, "type": "electric_bike", "bike_id": "a3c5837fdaf5751c4338697c777523ce", "lat": 38.90050516666667, "lon": -76.977899, "rental_uris": {"android": "https://dc.lft.to/lastmile_qr_scan", "ios": "https://dc.lft.to/lastmile_qr_scan"}, "is_disabled": 0, "fusion_lat": 0.0, "name": "a3c5837fdaf5751c4338697c777523ce", "fusion_lon": 0.0}, {"is_reserved": 0, "type": "electric_scooter", "bike_id": "d3c966f86050f8392e41494daecec90b", "lat": 38.936013833333334, "lon": -77.05867583333334, "rental_uris": {"android": "https://dc.lft.to/lastmile_qr_scan", "ios": "https://dc.lft.to/lastmile_qr_scan"}, "is_disabled": 0, "fusion_lat": 0.0, "name": "d3c966f86050f8392e41494daecec90b", "fusion_lon": 0.0}, {"is_reserved": 0, "type": "electric_scooter", "bike_id": "5b1f7ea595c127430b222de9fd966937", "lat": 38.96643133333333, "lon": -77.008931, "rental_uris": {"android": "https://dc.lft.to/lastmile_qr_scan", "ios": "https://dc.lft.to/lastmile_qr_scan"}, "is_disabled": 0, "fusion_lat": 0.0, "name": "5b1f7ea595c127430b222de9fd966937", "fusion_lon": 0.0}, {"is_reserved": 0, "type": "electric_bike", "bike_id": "f0e5f4b9e6aa0e7e46f01575c84aaac9", "lat": 38.995459333333336, "lon": -77.074481, "rental_uris": {"android": "https://dc.lft.to/lastmile_qr_scan", "ios": "https://dc.lft.to/lastmile_qr_scan"}, "is_disabled": 0, "fusion_lat": 0.0, "name": "f0e5f4b9e6aa0e7e46f01575c84aaac9", "fusion_lon": 0.0}, {"is_reserved": 0, "type": "electric_scooter", "bike_id": "d71c1dde2765ee9ec8c6d9aa335fe06f", "lat": 38.926174833333334, "lon": -77.02163066666667, "rental_uris": {"android": "https://dc.lft.to/lastmile_qr_scan", "ios": "https://dc.lft.to/lastmile_qr_scan"}, "is_disabled": 0, "fusion_lat": 0.0, "name": "d71c1dde2765ee9ec8c6d9aa335fe06f", "fusion_lon": 0.0}, {"is_reserved": 0, "type": "electric_scooter", "bike_id": "33d131797cc841b7d067516c0409be46", "lat": 38.90548, "lon": -77.00598433333333, "rental_uris": {"android": "https://dc.lft.to/lastmile_qr_scan", "ios": "https://dc.lft.to/lastmile_qr_scan"}, "is_disabled": 0, "fusion_lat": 0.0, "name": "33d131797cc841b7d067516c0409be46", "fusion_lon": 0.0}, {"is_reserved": 0, "type": "electric_scooter", "bike_id": "8381048a6a4bb0fc22ccf90d37273a09", "lat": 38.900136333333336, "lon": -77.04496066666667, "rental_uris": {"android": "https://dc.lft.to/lastmile_qr_scan", "ios": "https://dc.lft.to/lastmile_qr_scan"}, "is_disabled": 0, "fusion_lat": 0.0, "name": "8381048a6a4bb0fc22ccf90d37273a09", "fusion_lon": 0.0}, {"is_reserved": 0, "type": "electric_scooter", "bike_id": "1eef3af25514bc3db7d5ed6787ac0ea1", "lat": 38.926588333333335, "lon": -77.02426333333334, "rental_uris": {"android": "https://dc.lft.to/lastmile_qr_scan", "ios": "https://dc.lft.to/lastmile_qr_scan"}, "is_disabled": 0, "fusion_lat": 0.0, "name": "1eef3af25514bc3db7d5ed6787ac0ea1", "fusion_lon": 0.0}, {"is_reserved": 0, "type": "electric_scooter", "bike_id": "a081db92836d80116fd6ee92ebfef67f", "lat": 38.952460333333335, "lon": -77.02394516666666, "rental_uris": {"android": "https://dc.lft.to/lastmile_qr_scan", "ios": "https://dc.lft.to/lastmile_qr_scan"}, "is_disabled": 0, "fusion_lat": 0.0, "name": "a081db92836d80116fd6ee92ebfef67f", "fusion_lon": 0.0}, {"is_reserved": 0, "type": "electric_scooter", "bike_id": "228c5679cf3289cab81bf5e2a2f722a8", "lat": 38.9171005, "lon": -77.03221683333334, "rental_uris": {"android": "https://dc.lft.to/lastmile_qr_scan", "ios": "https://dc.lft.to/lastmile_qr_scan"}, "is_disabled": 0, "fusion_lat": 0.0, "name": "228c5679cf3289cab81bf5e2a2f722a8", "fusion_lon": 0.0}, {"is_reserved": 0, "type": "electric_scooter", "bike_id": "8588cfccf363540e3829f289006b5f12", "lat": 38.905907, "lon": -77.03641716666667, "rental_uris": {"android": "https://dc.lft.to/lastmile_qr_scan", "ios": "https://dc.lft.to/lastmile_qr_scan"}, "is_disabled": 0, "fusion_lat": 0.0, "name": "8588cfccf363540e3829f289006b5f12", "fusion_lon": 0.0}, {"is_reserved": 0, "type": "electric_scooter", "bike_id": "0d41c72dab0dff59441af97be2b1d92e", "lat": 38.9186345, "lon": -77.01355833333334, "rental_uris": {"android": "https://dc.lft.to/lastmile_qr_scan", "ios": "https://dc.lft.to/lastmile_qr_scan"}, "is_disabled": 0, "fusion_lat": 0.0, "name": "0d41c72dab0dff59441af97be2b1d92e", "fusion_lon": 0.0}, {"is_reserved": 0, "type": "electric_scooter", "bike_id": "8d0366393b3e3cb856ab7dc353bdbb5e", "lat": 38.93868833333333, "lon": -77.02561283333333, "rental_uris": {"android": "https://dc.lft.to/lastmile_qr_scan", "ios": "https://dc.lft.to/lastmile_qr_scan"}, "is_disabled": 0, "fusion_lat": 0.0, "name": "8d0366393b3e3cb856ab7dc353bdbb5e", "fusion_lon": 0.0}, {"is_reserved": 0, "type": "electric_scooter", "bike_id": "fbf608f9a0393a237cf75325b34b4811", "lat": 38.9027265, "lon": -77.00327266666666, "rental_uris": {"android": "https://dc.lft.to/lastmile_qr_scan", "ios": "https://dc.lft.to/lastmile_qr_scan"}, "is_disabled": 0, "fusion_lat": 0.0, "name": "fbf608f9a0393a237cf75325b34b4811", "fusion_lon": 0.0}, {"is_reserved": 0, "type": "electric_scooter", "bike_id": "469d53d9d40492a2f04c3f919d92e799", "lat": 38.917976, "lon": -77.031812, "rental_uris": {"android": "https://dc.lft.to/lastmile_qr_scan", "ios": "https://dc.lft.to/lastmile_qr_scan"}, "is_disabled": 0, "fusion_lat": 0.0, "name": "469d53d9d40492a2f04c3f919d92e799", "fusion_lon": 0.0}, {"is_reserved": 0, "type": "electric_scooter", "bike_id": "5d331e35ea6afe8cdce8efafad75f12f", "lat": 38.927507, "lon": -77.03274066666667, "rental_uris": {"android": "https://dc.lft.to/lastmile_qr_scan", "ios": "https://dc.lft.to/lastmile_qr_scan"}, "is_disabled": 0, "fusion_lat": 0.0, "name": "5d331e35ea6afe8cdce8efafad75f12f", "fusion_lon": 0.0}, {"is_reserved": 0, "type": "electric_scooter", "bike_id": "6d4641da8733aaba001eb54c3599cc18", "lat": 38.899302666666664, "lon": -76.9458425, "rental_uris": {"android": "https://dc.lft.to/lastmile_qr_scan", "ios": "https://dc.lft.to/lastmile_qr_scan"}, "is_disabled": 0, "fusion_lat": 0.0, "name": "6d4641da8733aaba001eb54c3599cc18", "fusion_lon": 0.0}, {"is_reserved": 0, "type": "electric_scooter", "bike_id": "228df76dc9735efdc23c7afb9034eb64", "lat": 38.90469216666666, "lon": -77.05862516666667, "rental_uris": {"android": "https://dc.lft.to/lastmile_qr_scan", "ios": "https://dc.lft.to/lastmile_qr_scan"}, "is_disabled": 0, "fusion_lat": 0.0, "name": "228df76dc9735efdc23c7afb9034eb64", "fusion_lon": 0.0}, {"is_reserved": 0, "type": "electric_scooter", "bike_id": "902b048690de3b251f648e85c8c0d784", "lat": 38.9231155, "lon": -77.02908366666666, "rental_uris": {"android": "https://dc.lft.to/lastmile_qr_scan", "ios": "https://dc.lft.to/lastmile_qr_scan"}, "is_disabled": 0, "fusion_lat": 0.0, "name": "902b048690de3b251f648e85c8c0d784", "fusion_lon": 0.0}, {"is_reserved": 0, "type": "electric_scooter", "bike_id": "47ad2a00b3490f4b1a34942d7ac4db47", "lat": 38.94010266666667, "lon": -77.02744033333333, "rental_uris": {"android": "https://dc.lft.to/lastmile_qr_scan", "ios": "https://dc.lft.to/lastmile_qr_scan"}, "is_disabled": 0, "fusion_lat": 0.0, "name": "47ad2a00b3490f4b1a34942d7ac4db47", "fusion_lon": 0.0}, {"is_reserved": 0, "type": "electric_scooter", "bike_id": "de14c190307ad1423356096bcf4af769", "lat": 38.920541166666666, "lon": -76.998848, "rental_uris": {"android": "https://dc.lft.to/lastmile_qr_scan", "ios": "https://dc.lft.to/lastmile_qr_scan"}, "is_disabled": 0, "fusion_lat": 0.0, "name": "de14c190307ad1423356096bcf4af769", "fusion_lon": 0.0}, {"is_reserved": 0, "type": "electric_scooter", "bike_id": "0d7c744e63f87b1b5877fbcc2e7454ac", "lat": 38.916510833333334, "lon": -77.02185483333334, "rental_uris": {"android": "https://dc.lft.to/lastmile_qr_scan", "ios": "https://dc.lft.to/lastmile_qr_scan"}, "is_disabled": 0, "fusion_lat": 0.0, "name": "0d7c744e63f87b1b5877fbcc2e7454ac", "fusion_lon": 0.0}, {"is_reserved": 0, "type": "electric_scooter", "bike_id": "79babf6825c6df48e04940844a08f74f", "lat": 38.902969, "lon": -77.024061, "rental_uris": {"android": "https://dc.lft.to/lastmile_qr_scan", "ios": "https://dc.lft.to/lastmile_qr_scan"}, "is_disabled": 0, "fusion_lat": 0.0, "name": "79babf6825c6df48e04940844a08f74f", "fusion_lon": 0.0}, {"is_reserved": 0, "type": "electric_scooter", "bike_id": "7ab0a480b9e4acca8b721e742e438436", "lat": 38.92023916666667, "lon": -76.99552766666666, "rental_uris": {"android": "https://dc.lft.to/lastmile_qr_scan", "ios": "https://dc.lft.to/lastmile_qr_scan"}, "is_disabled": 0, "fusion_lat": 0.0, "name": "7ab0a480b9e4acca8b721e742e438436", "fusion_lon": 0.0}, {"is_reserved": 0, "type": "electric_scooter", "bike_id": "aeadc2ac2663616c071f71f52d99f22b", "lat": 38.9518005, "lon": -77.01271716666666, "rental_uris": {"android": "https://dc.lft.to/lastmile_qr_scan", "ios": "https://dc.lft.to/lastmile_qr_scan"}, "is_disabled": 0, "fusion_lat": 0.0, "name": "aeadc2ac2663616c071f71f52d99f22b", "fusion_lon": 0.0}, {"is_reserved": 0, "type": "electric_scooter", "bike_id": "c1ae2b3313105f84966ebbee92d119dc", "lat": 38.89546333333333, "lon": -76.9833805, "rental_uris": {"android": "https://dc.lft.to/lastmile_qr_scan", "ios": "https://dc.lft.to/lastmile_qr_scan"}, "is_disabled": 0, "fusion_lat": 0.0, "name": "c1ae2b3313105f84966ebbee92d119dc", "fusion_lon": 0.0}, {"is_reserved": 0, "type": "electric_scooter", "bike_id": "42266ca868e20514d6c2c766d5705379", "lat": 38.909715166666665, "lon": -77.011049, "rental_uris": {"android": "https://dc.lft.to/lastmile_qr_scan", "ios": "https://dc.lft.to/lastmile_qr_scan"}, "is_disabled": 0, "fusion_lat": 0.0, "name": "42266ca868e20514d6c2c766d5705379", "fusion_lon": 0.0}, {"is_reserved": 0, "type": "electric_scooter", "bike_id": "1e098c6f593bc650703a0a618904d146", "lat": 38.860187833333335, "lon": -76.970047, "rental_uris": {"android": "https://dc.lft.to/lastmile_qr_scan", "ios": "https://dc.lft.to/lastmile_qr_scan"}, "is_disabled": 0, "fusion_lat": 0.0, "name": "1e098c6f593bc650703a0a618904d146", "fusion_lon": 0.0}, {"is_reserved": 0, "type": "electric_scooter", "bike_id": "c157e8ef677e1a54f6def18074a977c8", "lat": 38.930716833333335, "lon": -77.028151, "rental_uris": {"android": "https://dc.lft.to/lastmile_qr_scan", "ios": "https://dc.lft.to/lastmile_qr_scan"}, "is_disabled": 0, "fusion_lat": 0.0, "name": "c157e8ef677e1a54f6def18074a977c8", "fusion_lon": 0.0}, {"is_reserved": 0, "type": "electric_scooter", "bike_id": "6a0da14766b3afaa1fd552c53d4c9749", "lat": 38.90552483333333, "lon": -77.00606133333334, "rental_uris": {"android": "https://dc.lft.to/lastmile_qr_scan", "ios": "https://dc.lft.to/lastmile_qr_scan"}, "is_disabled": 0, "fusion_lat": 0.0, "name": "6a0da14766b3afaa1fd552c53d4c9749", "fusion_lon": 0.0}, {"is_reserved": 0, "type": "electric_scooter", "bike_id": "5775c093ef7a8de1d44ba0cd7931531a", "lat": 38.93589716666666, "lon": -77.05713633333333, "rental_uris": {"android": "https://dc.lft.to/lastmile_qr_scan", "ios": "https://dc.lft.to/lastmile_qr_scan"}, "is_disabled": 0, "fusion_lat": 0.0, "name": "5775c093ef7a8de1d44ba0cd7931531a", "fusion_lon": 0.0}, {"is_reserved": 0, "type": "electric_scooter", "bike_id": "a84e90ef874315fd67e27800fa8e72a2", "lat": 38.93258983333333, "lon": -77.032691, "rental_uris": {"android": "https://dc.lft.to/lastmile_qr_scan", "ios": "https://dc.lft.to/lastmile_qr_scan"}, "is_disabled": 0, "fusion_lat": 0.0, "name": "a84e90ef874315fd67e27800fa8e72a2", "fusion_lon": 0.0}, {"is_reserved": 0, "type": "electric_scooter", "bike_id": "d18cc874c90f0adab03ab9ad6776a47d", "lat": 38.906162, "lon": -77.02597366666667, "rental_uris": {"android": "https://dc.lft.to/lastmile_qr_scan", "ios": "https://dc.lft.to/lastmile_qr_scan"}, "is_disabled": 0, "fusion_lat": 0.0, "name": "d18cc874c90f0adab03ab9ad6776a47d", "fusion_lon": 0.0}, {"is_reserved": 0, "type": "electric_scooter", "bike_id": "0d3e8aa1f600fe003e71d18e6b4ef720", "lat": 38.92354866666667, "lon": -77.02014683333333, "rental_uris": {"android": "https://dc.lft.to/lastmile_qr_scan", "ios": "https://dc.lft.to/lastmile_qr_scan"}, "is_disabled": 0, "fusion_lat": 0.0, "name": "0d3e8aa1f600fe003e71d18e6b4ef720", "fusion_lon": 0.0}, {"is_reserved": 0, "type": "electric_scooter", "bike_id": "c9aa5be9f2fb0865dc0019aec8ba3e75", "lat": 38.90502, "lon": -77.06741583333333, "rental_uris": {"android": "https://dc.lft.to/lastmile_qr_scan", "ios": "https://dc.lft.to/lastmile_qr_scan"}, "is_disabled": 0, "fusion_lat": 0.0, "name": "c9aa5be9f2fb0865dc0019aec8ba3e75", "fusion_lon": 0.0}, {"is_reserved": 0, "type": "electric_scooter", "bike_id": "4d9912ad00999c343816a74c0f02a265", "lat": 38.94820266666667, "lon": -77.0257985, "rental_uris": {"android": "https://dc.lft.to/lastmile_qr_scan", "ios": "https://dc.lft.to/lastmile_qr_scan"}, "is_disabled": 0, "fusion_lat": 0.0, "name": "4d9912ad00999c343816a74c0f02a265", "fusion_lon": 0.0}, {"is_reserved": 0, "type": "electric_scooter", "bike_id": "0105b64395662fe91b1d71d6a1af7252", "lat": 38.89521333333333, "lon": -76.9922175, "rental_uris": {"android": "https://dc.lft.to/lastmile_qr_scan", "ios": "https://dc.lft.to/lastmile_qr_scan"}, "is_disabled": 0, "fusion_lat": 0.0, "name": "0105b64395662fe91b1d71d6a1af7252", "fusion_lon": 0.0}, {"is_reserved": 0, "type": "electric_scooter", "bike_id": "cd38e8756df11ce10d797be1611cc01f", "lat": 38.905801333333336, "lon": -76.9843385, "rental_uris": {"android": "https://dc.lft.to/lastmile_qr_scan", "ios": "https://dc.lft.to/lastmile_qr_scan"}, "is_disabled": 0, "fusion_lat": 0.0, "name": "cd38e8756df11ce10d797be1611cc01f", "fusion_lon": 0.0}, {"is_reserved": 0, "type": "electric_scooter", "bike_id": "c5f61530ae4b76feb9d14d2daced44bb", "lat": 38.927576333333334, "lon": -77.02431783333333, "rental_uris": {"android": "https://dc.lft.to/lastmile_qr_scan", "ios": "https://dc.lft.to/lastmile_qr_scan"}, "is_disabled": 0, "fusion_lat": 0.0, "name": "c5f61530ae4b76feb9d14d2daced44bb", "fusion_lon": 0.0}, {"is_reserved": 0, "type": "electric_scooter", "bike_id": "b59d4d87fb65ed57d17d9e6f37d5c105", "lat": 38.923697833333335, "lon": -77.043251, "rental_uris": {"android": "https://dc.lft.to/lastmile_qr_scan", "ios": "https://dc.lft.to/lastmile_qr_scan"}, "is_disabled": 0, "fusion_lat": 0.0, "name": "b59d4d87fb65ed57d17d9e6f37d5c105", "fusion_lon": 0.0}, {"is_reserved": 0, "type": "electric_scooter", "bike_id": "f0fbf93f477aec97259c8c6b5e71a588", "lat": 38.88744916666667, "lon": -76.98359883333333, "rental_uris": {"android": "https://dc.lft.to/lastmile_qr_scan", "ios": "https://dc.lft.to/lastmile_qr_scan"}, "is_disabled": 0, "fusion_lat": 0.0, "name": "f0fbf93f477aec97259c8c6b5e71a588", "fusion_lon": 0.0}, {"is_reserved": 0, "type": "electric_scooter", "bike_id": "8babf41d842afc6f77c7b93c5c01cfe3", "lat": 38.8923365, "lon": -77.01767666666667, "rental_uris": {"android": "https://dc.lft.to/lastmile_qr_scan", "ios": "https://dc.lft.to/lastmile_qr_scan"}, "is_disabled": 0, "fusion_lat": 0.0, "name": "8babf41d842afc6f77c7b93c5c01cfe3", "fusion_lon": 0.0}, {"is_reserved": 0, "type": "electric_scooter", "bike_id": "31ecd287309562d114b42f2cc8905d2d", "lat": 38.8924155, "lon": -77.05040016666666, "rental_uris": {"android": "https://dc.lft.to/lastmile_qr_scan", "ios": "https://dc.lft.to/lastmile_qr_scan"}, "is_disabled": 0, "fusion_lat": 0.0, "name": "31ecd287309562d114b42f2cc8905d2d", "fusion_lon": 0.0}, {"is_reserved": 0, "type": "electric_scooter", "bike_id": "d618b603478bc1010470c37679635116", "lat": 38.906402, "lon": -77.07555033333334, "rental_uris": {"android": "https://dc.lft.to/lastmile_qr_scan", "ios": "https://dc.lft.to/lastmile_qr_scan"}, "is_disabled": 0, "fusion_lat": 0.0, "name": "d618b603478bc1010470c37679635116", "fusion_lon": 0.0}, {"is_reserved": 0, "type": "electric_scooter", "bike_id": "75ae901c0db921a5c899e5ef1105ed75", "lat": 38.95184583333333, "lon": -77.0261845, "rental_uris": {"android": "https://dc.lft.to/lastmile_qr_scan", "ios": "https://dc.lft.to/lastmile_qr_scan"}, "is_disabled": 0, "fusion_lat": 0.0, "name": "75ae901c0db921a5c899e5ef1105ed75", "fusion_lon": 0.0}, {"is_reserved": 0, "type": "electric_scooter", "bike_id": "bb28892331c457ed832f7d66d241c97d", "lat": 38.924258, "lon": -77.0354945, "rental_uris": {"android": "https://dc.lft.to/lastmile_qr_scan", "ios": "https://dc.lft.to/lastmile_qr_scan"}, "is_disabled": 0, "fusion_lat": 0.0, "name": "bb28892331c457ed832f7d66d241c97d", "fusion_lon": 0.0}, {"is_reserved": 0, "type": "electric_scooter", "bike_id": "86e6a2d30eabc9f1759dc183fbe4dfc9", "lat": 38.937007, "lon": -77.05601016666667, "rental_uris": {"android": "https://dc.lft.to/lastmile_qr_scan", "ios": "https://dc.lft.to/lastmile_qr_scan"}, "is_disabled": 0, "fusion_lat": 0.0, "name": "86e6a2d30eabc9f1759dc183fbe4dfc9", "fusion_lon": 0.0}, {"is_reserved": 0, "type": "electric_scooter", "bike_id": "d5f275a120b2b68678a056e90f0bf091", "lat": 38.899652333333336, "lon": -77.023254, "rental_uris": {"android": "https://dc.lft.to/lastmile_qr_scan", "ios": "https://dc.lft.to/lastmile_qr_scan"}, "is_disabled": 0, "fusion_lat": 0.0, "name": "d5f275a120b2b68678a056e90f0bf091", "fusion_lon": 0.0}, {"is_reserved": 0, "type": "electric_scooter", "bike_id": "c9afd6fd67e7e54e237246d7a451657e", "lat": 38.90026733333333, "lon": -77.02609583333333, "rental_uris": {"android": "https://dc.lft.to/lastmile_qr_scan", "ios": "https://dc.lft.to/lastmile_qr_scan"}, "is_disabled": 0, "fusion_lat": 0.0, "name": "c9afd6fd67e7e54e237246d7a451657e", "fusion_lon": 0.0}, {"is_reserved": 0, "type": "electric_scooter", "bike_id": "400c0962b53eafdba0ab3be2a0d44a41", "lat": 38.90905016666667, "lon": -77.0029445, "rental_uris": {"android": "https://dc.lft.to/lastmile_qr_scan", "ios": "https://dc.lft.to/lastmile_qr_scan"}, "is_disabled": 0, "fusion_lat": 0.0, "name": "400c0962b53eafdba0ab3be2a0d44a41", "fusion_lon": 0.0}, {"is_reserved": 0, "type": "electric_scooter", "bike_id": "c3175be6b4e7a1731e3f46673d6d5c67", "lat": 38.93615966666667, "lon": -77.0242325, "rental_uris": {"android": "https://dc.lft.to/lastmile_qr_scan", "ios": "https://dc.lft.to/lastmile_qr_scan"}, "is_disabled": 0, "fusion_lat": 0.0, "name": "c3175be6b4e7a1731e3f46673d6d5c67", "fusion_lon": 0.0}, {"is_reserved": 0, "type": "electric_bike", "bike_id": "86808af26752d2c946fcb860fecd72e8", "lat": 38.85435433333333, "lon": -77.08323166666666, "rental_uris": {"android": "https://dc.lft.to/lastmile_qr_scan", "ios": "https://dc.lft.to/lastmile_qr_scan"}, "is_disabled": 0, "fusion_lat": 0.0, "name": "86808af26752d2c946fcb860fecd72e8", "fusion_lon": 0.0}, {"is_reserved": 0, "type": "electric_scooter", "bike_id": "6370a85e8e6aec7ae3e19dd1b69b0c06", "lat": 38.89898516666667, "lon": -77.03369183333334, "rental_uris": {"android": "https://dc.lft.to/lastmile_qr_scan", "ios": "https://dc.lft.to/lastmile_qr_scan"}, "is_disabled": 0, "fusion_lat": 0.0, "name": "6370a85e8e6aec7ae3e19dd1b69b0c06", "fusion_lon": 0.0}, {"is_reserved": 0, "type": "electric_scooter", "bike_id": "1246ed684e3382861c486cc3a9821b3d", "lat": 38.91793083333334, "lon": -77.03433633333333, "rental_uris": {"android": "https://dc.lft.to/lastmile_qr_scan", "ios": "https://dc.lft.to/lastmile_qr_scan"}, "is_disabled": 0, "fusion_lat": 0.0, "name": "1246ed684e3382861c486cc3a9821b3d", "fusion_lon": 0.0}, {"is_reserved": 0, "type": "electric_scooter", "bike_id": "97e0e95a867db06ff069e444711ba5d0", "lat": 38.866345, "lon": -76.98288616666666, "rental_uris": {"android": "https://dc.lft.to/lastmile_qr_scan", "ios": "https://dc.lft.to/lastmile_qr_scan"}, "is_disabled": 0, "fusion_lat": 0.0, "name": "97e0e95a867db06ff069e444711ba5d0", "fusion_lon": 0.0}, {"is_reserved": 0, "type": "electric_scooter", "bike_id": "31714dbbe10013d014cfe33482a659b6", "lat": 38.88633133333333, "lon": -77.022262, "rental_uris": {"android": "https://dc.lft.to/lastmile_qr_scan", "ios": "https://dc.lft.to/lastmile_qr_scan"}, "is_disabled": 0, "fusion_lat": 0.0, "name": "31714dbbe10013d014cfe33482a659b6", "fusion_lon": 0.0}, {"is_reserved": 0, "type": "electric_scooter", "bike_id": "65d51346b7e6d703cbde95cd6b778fb5", "lat": 38.909542333333334, "lon": -77.0452885, "rental_uris": {"android": "https://dc.lft.to/lastmile_qr_scan", "ios": "https://dc.lft.to/lastmile_qr_scan"}, "is_disabled": 0, "fusion_lat": 0.0, "name": "65d51346b7e6d703cbde95cd6b778fb5", "fusion_lon": 0.0}, {"is_reserved": 0, "type": "electric_bike", "bike_id": "e8e29c9c96df5826e54daa85d693d854", "lat": 38.9271965, "lon": -76.9936665, "rental_uris": {"android": "https://dc.lft.to/lastmile_qr_scan", "ios": "https://dc.lft.to/lastmile_qr_scan"}, "is_disabled": 0, "fusion_lat": 0.0, "name": "e8e29c9c96df5826e54daa85d693d854", "fusion_lon": 0.0}, {"is_reserved": 0, "type": "electric_scooter", "bike_id": "ff8e94ffd020caee07ecedaba6041e46", "lat": 38.894649666666666, "lon": -77.02295966666667, "rental_uris": {"android": "https://dc.lft.to/lastmile_qr_scan", "ios": "https://dc.lft.to/lastmile_qr_scan"}, "is_disabled": 0, "fusion_lat": 0.0, "name": "ff8e94ffd020caee07ecedaba6041e46", "fusion_lon": 0.0}, {"is_reserved": 0, "type": "electric_scooter", "bike_id": "af3219a58f81f2250a44a3fa181bb449", "lat": 38.885356333333334, "lon": -76.98121616666667, "rental_uris": {"android": "https://dc.lft.to/lastmile_qr_scan", "ios": "https://dc.lft.to/lastmile_qr_scan"}, "is_disabled": 0, "fusion_lat": 0.0, "name": "af3219a58f81f2250a44a3fa181bb449", "fusion_lon": 0.0}, {"is_reserved": 0, "type": "electric_bike", "bike_id": "5afcd6b13d0d5b602a173c74e37254e8", "lat": 38.870006000000004, "lon": -77.2299455, "rental_uris": {"android": "https://dc.lft.to/lastmile_qr_scan", "ios": "https://dc.lft.to/lastmile_qr_scan"}, "is_disabled": 0, "fusion_lat": 0.0, "name": "5afcd6b13d0d5b602a173c74e37254e8", "fusion_lon": 0.0}, {"is_reserved": 0, "type": "electric_scooter", "bike_id": "bd2648fb208af07dde7aa1dbd26ce2a2", "lat": 38.925189833333334, "lon": -77.05059, "rental_uris": {"android": "https://dc.lft.to/lastmile_qr_scan", "ios": "https://dc.lft.to/lastmile_qr_scan"}, "is_disabled": 0, "fusion_lat": 0.0, "name": "bd2648fb208af07dde7aa1dbd26ce2a2", "fusion_lon": 0.0}, {"is_reserved": 0, "type": "electric_scooter", "bike_id": "a30b2287972bd173430c71020ad27839", "lat": 38.89359866666667, "lon": -77.0033705, "rental_uris": {"android": "https://dc.lft.to/lastmile_qr_scan", "ios": "https://dc.lft.to/lastmile_qr_scan"}, "is_disabled": 0, "fusion_lat": 0.0, "name": "a30b2287972bd173430c71020ad27839", "fusion_lon": 0.0}, {"is_reserved": 0, "type": "electric_scooter", "bike_id": "adf62324db3dcfa97b4471317c9c9e77", "lat": 38.91744, "lon": -77.0319325, "rental_uris": {"android": "https://dc.lft.to/lastmile_qr_scan", "ios": "https://dc.lft.to/lastmile_qr_scan"}, "is_disabled": 0, "fusion_lat": 0.0, "name": "adf62324db3dcfa97b4471317c9c9e77", "fusion_lon": 0.0}, {"is_reserved": 0, "type": "electric_scooter", "bike_id": "16eeedb67ac9214305e15c96f7f285b8", "lat": 38.886242333333335, "lon": -77.03352833333334, "rental_uris": {"android": "https://dc.lft.to/lastmile_qr_scan", "ios": "https://dc.lft.to/lastmile_qr_scan"}, "is_disabled": 0, "fusion_lat": 0.0, "name": "16eeedb67ac9214305e15c96f7f285b8", "fusion_lon": 0.0}, {"is_reserved": 0, "type": "electric_scooter", "bike_id": "255de909623b28ea3bb3567db8e0e5c8", "lat": 38.86580816666667, "lon": -76.99037916666667, "rental_uris": {"android": "https://dc.lft.to/lastmile_qr_scan", "ios": "https://dc.lft.to/lastmile_qr_scan"}, "is_disabled": 0, "fusion_lat": 0.0, "name": "255de909623b28ea3bb3567db8e0e5c8", "fusion_lon": 0.0}, {"is_reserved": 0, "type": "electric_scooter", "bike_id": "45d5de3ec90b520892f8e3bcfd7b1789", "lat": 38.919247166666665, "lon": -77.00972866666666, "rental_uris": {"android": "https://dc.lft.to/lastmile_qr_scan", "ios": "https://dc.lft.to/lastmile_qr_scan"}, "is_disabled": 0, "fusion_lat": 0.0, "name": "45d5de3ec90b520892f8e3bcfd7b1789", "fusion_lon": 0.0}, {"is_reserved": 0, "type": "electric_scooter", "bike_id": "dabe38fc418f3adcd91dd049d79fee65", "lat": 38.9058585, "lon": -77.0468775, "rental_uris": {"android": "https://dc.lft.to/lastmile_qr_scan", "ios": "https://dc.lft.to/lastmile_qr_scan"}, "is_disabled": 0, "fusion_lat": 0.0, "name": "dabe38fc418f3adcd91dd049d79fee65", "fusion_lon": 0.0}, {"is_reserved": 0, "type": "electric_scooter", "bike_id": "b22a1285840dc9d9ad599313f746b4db", "lat": 38.924016333333334, "lon": -77.0297335, "rental_uris": {"android": "https://dc.lft.to/lastmile_qr_scan", "ios": "https://dc.lft.to/lastmile_qr_scan"}, "is_disabled": 0, "fusion_lat": 0.0, "name": "b22a1285840dc9d9ad599313f746b4db", "fusion_lon": 0.0}, {"is_reserved": 0, "type": "electric_scooter", "bike_id": "2db3a4dacdd58a09bd1a81165a23d6aa", "lat": 38.912912166666665, "lon": -76.98544133333333, "rental_uris": {"android": "https://dc.lft.to/lastmile_qr_scan", "ios": "https://dc.lft.to/lastmile_qr_scan"}, "is_disabled": 0, "fusion_lat": 0.0, "name": "2db3a4dacdd58a09bd1a81165a23d6aa", "fusion_lon": 0.0}, {"is_reserved": 0, "type": "electric_scooter", "bike_id": "e6293499372a63f656105ca31ce30876", "lat": 38.928740833333336, "lon": -77.02710533333334, "rental_uris": {"android": "https://dc.lft.to/lastmile_qr_scan", "ios": "https://dc.lft.to/lastmile_qr_scan"}, "is_disabled": 0, "fusion_lat": 0.0, "name": "e6293499372a63f656105ca31ce30876", "fusion_lon": 0.0}, {"is_reserved": 0, "type": "electric_scooter", "bike_id": "01ecde91c7a4018b8ca96134905bb45a", "lat": 38.9111665, "lon": -77.03758583333334, "rental_uris": {"android": "https://dc.lft.to/lastmile_qr_scan", "ios": "https://dc.lft.to/lastmile_qr_scan"}, "is_disabled": 0, "fusion_lat": 0.0, "name": "01ecde91c7a4018b8ca96134905bb45a", "fusion_lon": 0.0}, {"is_reserved": 0, "type": "electric_scooter", "bike_id": "7e18b7a914303e157ba1039238fee4fb", "lat": 38.893616, "lon": -77.00336383333334, "rental_uris": {"android": "https://dc.lft.to/lastmile_qr_scan", "ios": "https://dc.lft.to/lastmile_qr_scan"}, "is_disabled": 0, "fusion_lat": 0.0, "name": "7e18b7a914303e157ba1039238fee4fb", "fusion_lon": 0.0}, {"is_reserved": 0, "type": "electric_scooter", "bike_id": "b0707f6773673a3f45411796f4172251", "lat": 38.914171333333336, "lon": -77.02610983333334, "rental_uris": {"android": "https://dc.lft.to/lastmile_qr_scan", "ios": "https://dc.lft.to/lastmile_qr_scan"}, "is_disabled": 0, "fusion_lat": 0.0, "name": "b0707f6773673a3f45411796f4172251", "fusion_lon": 0.0}, {"is_reserved": 0, "type": "electric_scooter", "bike_id": "aa8b2f76f3c0581c87c673f54c0361ae", "lat": 38.944381, "lon": -77.06357316666667, "rental_uris": {"android": "https://dc.lft.to/lastmile_qr_scan", "ios": "https://dc.lft.to/lastmile_qr_scan"}, "is_disabled": 0, "fusion_lat": 0.0, "name": "aa8b2f76f3c0581c87c673f54c0361ae", "fusion_lon": 0.0}, {"is_reserved": 0, "type": "electric_scooter", "bike_id": "08742a1b47aeb52002d7051044064118", "lat": 38.90646066666667, "lon": -77.04873166666667, "rental_uris": {"android": "https://dc.lft.to/lastmile_qr_scan", "ios": "https://dc.lft.to/lastmile_qr_scan"}, "is_disabled": 0, "fusion_lat": 0.0, "name": "08742a1b47aeb52002d7051044064118", "fusion_lon": 0.0}, {"is_reserved": 0, "type": "electric_scooter", "bike_id": "e9266be3d50a2e1b08d343e75169f571", "lat": 38.932369666666666, "lon": -77.02962566666666, "rental_uris": {"android": "https://dc.lft.to/lastmile_qr_scan", "ios": "https://dc.lft.to/lastmile_qr_scan"}, "is_disabled": 0, "fusion_lat": 0.0, "name": "e9266be3d50a2e1b08d343e75169f571", "fusion_lon": 0.0}, {"is_reserved": 0, "type": "electric_bike", "bike_id": "aaece6012fc64532a9ada3f0230670a7", "lat": 38.894553, "lon": -77.19132883333333, "rental_uris": {"android": "https://dc.lft.to/lastmile_qr_scan", "ios": "https://dc.lft.to/lastmile_qr_scan"}, "is_disabled": 0, "fusion_lat": 0.0, "name": "aaece6012fc64532a9ada3f0230670a7", "fusion_lon": 0.0}, {"is_reserved": 0, "type": "electric_scooter", "bike_id": "d76603a3499f72adad28c1fc55d9fcf8", "lat": 38.90581183333333, "lon": -76.95051533333333, "rental_uris": {"android": "https://dc.lft.to/lastmile_qr_scan", "ios": "https://dc.lft.to/lastmile_qr_scan"}, "is_disabled": 0, "fusion_lat": 0.0, "name": "d76603a3499f72adad28c1fc55d9fcf8", "fusion_lon": 0.0}, {"is_reserved": 0, "type": "electric_scooter", "bike_id": "e8a97855bb5c6634fe8a83779f1a12c6", "lat": 38.88394266666667, "lon": -76.9304315, "rental_uris": {"android": "https://dc.lft.to/lastmile_qr_scan", "ios": "https://dc.lft.to/lastmile_qr_scan"}, "is_disabled": 0, "fusion_lat": 0.0, "name": "e8a97855bb5c6634fe8a83779f1a12c6", "fusion_lon": 0.0}, {"is_reserved": 0, "type": "electric_scooter", "bike_id": "19a921601b661420b000f710c3b18e15", "lat": 38.9232155, "lon": -77.03674483333333, "rental_uris": {"android": "https://dc.lft.to/lastmile_qr_scan", "ios": "https://dc.lft.to/lastmile_qr_scan"}, "is_disabled": 0, "fusion_lat": 0.0, "name": "19a921601b661420b000f710c3b18e15", "fusion_lon": 0.0}, {"is_reserved": 0, "type": "electric_scooter", "bike_id": "0357638b246efacf6d53593680dacd8d", "lat": 38.90644533333333, "lon": -77.01138916666666, "rental_uris": {"android": "https://dc.lft.to/lastmile_qr_scan", "ios": "https://dc.lft.to/lastmile_qr_scan"}, "is_disabled": 0, "fusion_lat": 0.0, "name": "0357638b246efacf6d53593680dacd8d", "fusion_lon": 0.0}, {"is_reserved": 0, "type": "electric_bike", "bike_id": "6332e5efee63b7e4b2093dabac2edb57", "lat": 38.94495083333333, "lon": -77.00682, "rental_uris": {"android": "https://dc.lft.to/lastmile_qr_scan", "ios": "https://dc.lft.to/lastmile_qr_scan"}, "is_disabled": 0, "fusion_lat": 0.0, "name": "6332e5efee63b7e4b2093dabac2edb57", "fusion_lon": 0.0}, {"is_reserved": 0, "type": "electric_scooter", "bike_id": "ca6675932c25ff38cc0134f4541ed3df", "lat": 38.92704666666667, "lon": -77.02087683333333, "rental_uris": {"android": "https://dc.lft.to/lastmile_qr_scan", "ios": "https://dc.lft.to/lastmile_qr_scan"}, "is_disabled": 0, "fusion_lat": 0.0, "name": "ca6675932c25ff38cc0134f4541ed3df", "fusion_lon": 0.0}, {"is_reserved": 0, "type": "electric_bike", "bike_id": "f9e47ee7b4d55dac6b43f1c375b90e46", "lat": 38.82339366666667, "lon": -77.05821983333334, "rental_uris": {"android": "https://dc.lft.to/lastmile_qr_scan", "ios": "https://dc.lft.to/lastmile_qr_scan"}, "is_disabled": 0, "fusion_lat": 0.0, "name": "f9e47ee7b4d55dac6b43f1c375b90e46", "fusion_lon": 0.0}, {"is_reserved": 0, "type": "electric_bike", "bike_id": "a1638dca0916719c777e55670a6f406f", "lat": 38.883893666666665, "lon": -76.95450183333334, "rental_uris": {"android": "https://dc.lft.to/lastmile_qr_scan", "ios": "https://dc.lft.to/lastmile_qr_scan"}, "is_disabled": 0, "fusion_lat": 0.0, "name": "a1638dca0916719c777e55670a6f406f", "fusion_lon": 0.0}, {"is_reserved": 0, "type": "electric_scooter", "bike_id": "b6800ab7f9dc16397e31e656a82eac45", "lat": 38.911172, "lon": -77.02196666666667, "rental_uris": {"android": "https://dc.lft.to/lastmile_qr_scan", "ios": "https://dc.lft.to/lastmile_qr_scan"}, "is_disabled": 0, "fusion_lat": 0.0, "name": "b6800ab7f9dc16397e31e656a82eac45", "fusion_lon": 0.0}, {"is_reserved": 0, "type": "electric_scooter", "bike_id": "124e11f9863c9a44233ed249d082a1c9", "lat": 38.898665666666666, "lon": -77.0395635, "rental_uris": {"android": "https://dc.lft.to/lastmile_qr_scan", "ios": "https://dc.lft.to/lastmile_qr_scan"}, "is_disabled": 0, "fusion_lat": 0.0, "name": "124e11f9863c9a44233ed249d082a1c9", "fusion_lon": 0.0}, {"is_reserved": 0, "type": "electric_scooter", "bike_id": "8c33b31293dca384442841f855303323", "lat": 38.905154333333336, "lon": -77.02606083333333, "rental_uris": {"android": "https://dc.lft.to/lastmile_qr_scan", "ios": "https://dc.lft.to/lastmile_qr_scan"}, "is_disabled": 0, "fusion_lat": 0.0, "name": "8c33b31293dca384442841f855303323", "fusion_lon": 0.0}, {"is_reserved": 0, "type": "electric_scooter", "bike_id": "aff7e591c1bb0f68f873710e3e8b3ca0", "lat": 38.9182995, "lon": -77.02287733333333, "rental_uris": {"android": "https://dc.lft.to/lastmile_qr_scan", "ios": "https://dc.lft.to/lastmile_qr_scan"}, "is_disabled": 0, "fusion_lat": 0.0, "name": "aff7e591c1bb0f68f873710e3e8b3ca0", "fusion_lon": 0.0}, {"is_reserved": 0, "type": "electric_bike", "bike_id": "6587e116cb8292b14cbc471d14fd0d9c", "lat": 38.83234816666667, "lon": -76.946232, "rental_uris": {"android": "https://dc.lft.to/lastmile_qr_scan", "ios": "https://dc.lft.to/lastmile_qr_scan"}, "is_disabled": 0, "fusion_lat": 0.0, "name": "6587e116cb8292b14cbc471d14fd0d9c", "fusion_lon": 0.0}, {"is_reserved": 0, "type": "electric_scooter", "bike_id": "907dae0ee092f158472947edd51c57e1", "lat": 38.9449115, "lon": -77.00738666666666, "rental_uris": {"android": "https://dc.lft.to/lastmile_qr_scan", "ios": "https://dc.lft.to/lastmile_qr_scan"}, "is_disabled": 0, "fusion_lat": 0.0, "name": "907dae0ee092f158472947edd51c57e1", "fusion_lon": 0.0}, {"is_reserved": 0, "type": "electric_scooter", "bike_id": "36ed45d9a9070fd59efa933c0d8968a6", "lat": 38.9048095, "lon": -77.041694, "rental_uris": {"android": "https://dc.lft.to/lastmile_qr_scan", "ios": "https://dc.lft.to/lastmile_qr_scan"}, "is_disabled": 0, "fusion_lat": 0.0, "name": "36ed45d9a9070fd59efa933c0d8968a6", "fusion_lon": 0.0}, {"is_reserved": 0, "type": "electric_scooter", "bike_id": "93158f072158f5b023f2d4676a9f208d", "lat": 38.933598833333335, "lon": -77.0241885, "rental_uris": {"android": "https://dc.lft.to/lastmile_qr_scan", "ios": "https://dc.lft.to/lastmile_qr_scan"}, "is_disabled": 0, "fusion_lat": 0.0, "name": "93158f072158f5b023f2d4676a9f208d", "fusion_lon": 0.0}, {"is_reserved": 0, "type": "electric_scooter", "bike_id": "1f6208bd7a83dc7fae1e40dadc26e40a", "lat": 38.9418145, "lon": -77.02566333333333, "rental_uris": {"android": "https://dc.lft.to/lastmile_qr_scan", "ios": "https://dc.lft.to/lastmile_qr_scan"}, "is_disabled": 0, "fusion_lat": 0.0, "name": "1f6208bd7a83dc7fae1e40dadc26e40a", "fusion_lon": 0.0}, {"is_reserved": 0, "type": "electric_scooter", "bike_id": "f836cf640c9de25498b4df1165000638", "lat": 38.91468416666667, "lon": -77.02606383333334, "rental_uris": {"android": "https://dc.lft.to/lastmile_qr_scan", "ios": "https://dc.lft.to/lastmile_qr_scan"}, "is_disabled": 0, "fusion_lat": 0.0, "name": "f836cf640c9de25498b4df1165000638", "fusion_lon": 0.0}, {"is_reserved": 0, "type": "electric_scooter", "bike_id": "c77b10a4605bb0f92b403a891ccbc2ce", "lat": 38.878696, "lon": -76.96258033333334, "rental_uris": {"android": "https://dc.lft.to/lastmile_qr_scan", "ios": "https://dc.lft.to/lastmile_qr_scan"}, "is_disabled": 0, "fusion_lat": 0.0, "name": "c77b10a4605bb0f92b403a891ccbc2ce", "fusion_lon": 0.0}, {"is_reserved": 0, "type": "electric_scooter", "bike_id": "6a206418bec7d024381afd8fc9c7756c", "lat": 38.92604466666667, "lon": -77.02157866666667, "rental_uris": {"android": "https://dc.lft.to/lastmile_qr_scan", "ios": "https://dc.lft.to/lastmile_qr_scan"}, "is_disabled": 0, "fusion_lat": 0.0, "name": "6a206418bec7d024381afd8fc9c7756c", "fusion_lon": 0.0}, {"is_reserved": 0, "type": "electric_scooter", "bike_id": "d0d1fe44157e5b00b323177280379e12", "lat": 38.90067633333334, "lon": -77.00749333333333, "rental_uris": {"android": "https://dc.lft.to/lastmile_qr_scan", "ios": "https://dc.lft.to/lastmile_qr_scan"}, "is_disabled": 0, "fusion_lat": 0.0, "name": "d0d1fe44157e5b00b323177280379e12", "fusion_lon": 0.0}, {"is_reserved": 0, "type": "electric_scooter", "bike_id": "2d6f8d4d93dca0e0907d03698583c660", "lat": 38.912678166666666, "lon": -77.03876916666667, "rental_uris": {"android": "https://dc.lft.to/lastmile_qr_scan", "ios": "https://dc.lft.to/lastmile_qr_scan"}, "is_disabled": 0, "fusion_lat": 0.0, "name": "2d6f8d4d93dca0e0907d03698583c660", "fusion_lon": 0.0}, {"is_reserved": 0, "type": "electric_scooter", "bike_id": "80b3304bbc29f8cb39f6e4acd3ee5136", "lat": 38.924261, "lon": -77.01938166666666, "rental_uris": {"android": "https://dc.lft.to/lastmile_qr_scan", "ios": "https://dc.lft.to/lastmile_qr_scan"}, "is_disabled": 0, "fusion_lat": 0.0, "name": "80b3304bbc29f8cb39f6e4acd3ee5136", "fusion_lon": 0.0}, {"is_reserved": 0, "type": "electric_scooter", "bike_id": "0b8e23ba36df85b1733cdfa2d6a5192b", "lat": 38.92232933333333, "lon": -77.03518533333333, "rental_uris": {"android": "https://dc.lft.to/lastmile_qr_scan", "ios": "https://dc.lft.to/lastmile_qr_scan"}, "is_disabled": 0, "fusion_lat": 0.0, "name": "0b8e23ba36df85b1733cdfa2d6a5192b", "fusion_lon": 0.0}, {"is_reserved": 0, "type": "electric_scooter", "bike_id": "569fb6e656622491af769230b7ca48f6", "lat": 38.8978345, "lon": -77.0167775, "rental_uris": {"android": "https://dc.lft.to/lastmile_qr_scan", "ios": "https://dc.lft.to/lastmile_qr_scan"}, "is_disabled": 0, "fusion_lat": 0.0, "name": "569fb6e656622491af769230b7ca48f6", "fusion_lon": 0.0}, {"is_reserved": 0, "type": "electric_scooter", "bike_id": "9755683a22e3e75e4285a1885e909d68", "lat": 38.944436333333336, "lon": -77.0291445, "rental_uris": {"android": "https://dc.lft.to/lastmile_qr_scan", "ios": "https://dc.lft.to/lastmile_qr_scan"}, "is_disabled": 0, "fusion_lat": 0.0, "name": "9755683a22e3e75e4285a1885e909d68", "fusion_lon": 0.0}, {"is_reserved": 0, "type": "electric_scooter", "bike_id": "e9d5356bba8b8bad05270038d2e68754", "lat": 38.906686, "lon": -76.98026933333334, "rental_uris": {"android": "https://dc.lft.to/lastmile_qr_scan", "ios": "https://dc.lft.to/lastmile_qr_scan"}, "is_disabled": 0, "fusion_lat": 0.0, "name": "e9d5356bba8b8bad05270038d2e68754", "fusion_lon": 0.0}, {"is_reserved": 0, "type": "electric_scooter", "bike_id": "d357337cfd6804b085b66a64f401ec4a", "lat": 38.90718916666667, "lon": -77.02555166666667, "rental_uris": {"android": "https://dc.lft.to/lastmile_qr_scan", "ios": "https://dc.lft.to/lastmile_qr_scan"}, "is_disabled": 0, "fusion_lat": 0.0, "name": "d357337cfd6804b085b66a64f401ec4a", "fusion_lon": 0.0}, {"is_reserved": 0, "type": "electric_scooter", "bike_id": "c3d0808feb0064c67cd6759ca738c2df", "lat": 38.871588833333334, "lon": -77.01351933333333, "rental_uris": {"android": "https://dc.lft.to/lastmile_qr_scan", "ios": "https://dc.lft.to/lastmile_qr_scan"}, "is_disabled": 0, "fusion_lat": 0.0, "name": "c3d0808feb0064c67cd6759ca738c2df", "fusion_lon": 0.0}, {"is_reserved": 0, "type": "electric_scooter", "bike_id": "3a9b19c5583a7946822d6197af11a847", "lat": 38.91856383333333, "lon": -77.044773, "rental_uris": {"android": "https://dc.lft.to/lastmile_qr_scan", "ios": "https://dc.lft.to/lastmile_qr_scan"}, "is_disabled": 0, "fusion_lat": 0.0, "name": "3a9b19c5583a7946822d6197af11a847", "fusion_lon": 0.0}, {"is_reserved": 0, "type": "electric_scooter", "bike_id": "8851809c4277be7521c8833c5abe5a8f", "lat": 38.92070483333333, "lon": -77.023893, "rental_uris": {"android": "https://dc.lft.to/lastmile_qr_scan", "ios": "https://dc.lft.to/lastmile_qr_scan"}, "is_disabled": 0, "fusion_lat": 0.0, "name": "8851809c4277be7521c8833c5abe5a8f", "fusion_lon": 0.0}, {"is_reserved": 0, "type": "electric_scooter", "bike_id": "e0b5b77978c3cfb60171c9bdfcde552f", "lat": 38.93693866666667, "lon": -77.0271645, "rental_uris": {"android": "https://dc.lft.to/lastmile_qr_scan", "ios": "https://dc.lft.to/lastmile_qr_scan"}, "is_disabled": 0, "fusion_lat": 0.0, "name": "e0b5b77978c3cfb60171c9bdfcde552f", "fusion_lon": 0.0}, {"is_reserved": 0, "type": "electric_scooter", "bike_id": "65a1e3ef6429bbbbe65747994d14c9e0", "lat": 38.899651, "lon": -77.01618316666666, "rental_uris": {"android": "https://dc.lft.to/lastmile_qr_scan", "ios": "https://dc.lft.to/lastmile_qr_scan"}, "is_disabled": 0, "fusion_lat": 0.0, "name": "65a1e3ef6429bbbbe65747994d14c9e0", "fusion_lon": 0.0}, {"is_reserved": 0, "type": "electric_scooter", "bike_id": "8739cad6df0b02127841f756b946f46a", "lat": 38.9166195, "lon": -76.980668, "rental_uris": {"android": "https://dc.lft.to/lastmile_qr_scan", "ios": "https://dc.lft.to/lastmile_qr_scan"}, "is_disabled": 0, "fusion_lat": 0.0, "name": "8739cad6df0b02127841f756b946f46a", "fusion_lon": 0.0}, {"is_reserved": 0, "type": "electric_bike", "bike_id": "99f02882acb57effec3ef0492dc4162b", "lat": 38.95551483333333, "lon": -76.96907566666667, "rental_uris": {"android": "https://dc.lft.to/lastmile_qr_scan", "ios": "https://dc.lft.to/lastmile_qr_scan"}, "is_disabled": 0, "fusion_lat": 0.0, "name": "99f02882acb57effec3ef0492dc4162b", "fusion_lon": 0.0}, {"is_reserved": 0, "type": "electric_scooter", "bike_id": "957721aae2ded8dc479f2ec99121beb1", "lat": 38.89851483333333, "lon": -76.92753783333333, "rental_uris": {"android": "https://dc.lft.to/lastmile_qr_scan", "ios": "https://dc.lft.to/lastmile_qr_scan"}, "is_disabled": 0, "fusion_lat": 0.0, "name": "957721aae2ded8dc479f2ec99121beb1", "fusion_lon": 0.0}, {"is_reserved": 0, "type": "electric_scooter", "bike_id": "6a7d6e8b90180e92f98c6e7df95e8535", "lat": 38.91221483333333, "lon": -77.02715566666667, "rental_uris": {"android": "https://dc.lft.to/lastmile_qr_scan", "ios": "https://dc.lft.to/lastmile_qr_scan"}, "is_disabled": 0, "fusion_lat": 0.0, "name": "6a7d6e8b90180e92f98c6e7df95e8535", "fusion_lon": 0.0}, {"is_reserved": 0, "type": "electric_scooter", "bike_id": "4687e72a06e9f0f25b635de411facb4c", "lat": 38.92562783333333, "lon": -76.97013366666667, "rental_uris": {"android": "https://dc.lft.to/lastmile_qr_scan", "ios": "https://dc.lft.to/lastmile_qr_scan"}, "is_disabled": 0, "fusion_lat": 0.0, "name": "4687e72a06e9f0f25b635de411facb4c", "fusion_lon": 0.0}, {"is_reserved": 0, "type": "electric_scooter", "bike_id": "49365044bdb7e407c43c19437a2027ef", "lat": 38.92138333333333, "lon": -77.047165, "rental_uris": {"android": "https://dc.lft.to/lastmile_qr_scan", "ios": "https://dc.lft.to/lastmile_qr_scan"}, "is_disabled": 0, "fusion_lat": 0.0, "name": "49365044bdb7e407c43c19437a2027ef", "fusion_lon": 0.0}, {"is_reserved": 0, "type": "electric_scooter", "bike_id": "3d0b7a1362761ffbb8fcbe45c012736c", "lat": 38.90026533333333, "lon": -77.043252, "rental_uris": {"android": "https://dc.lft.to/lastmile_qr_scan", "ios": "https://dc.lft.to/lastmile_qr_scan"}, "is_disabled": 0, "fusion_lat": 0.0, "name": "3d0b7a1362761ffbb8fcbe45c012736c", "fusion_lon": 0.0}, {"is_reserved": 0, "type": "electric_scooter", "bike_id": "8ed2ca5577d1e59788ded77c22aaf6b8", "lat": 38.916696333333334, "lon": -77.02968266666667, "rental_uris": {"android": "https://dc.lft.to/lastmile_qr_scan", "ios": "https://dc.lft.to/lastmile_qr_scan"}, "is_disabled": 0, "fusion_lat": 0.0, "name": "8ed2ca5577d1e59788ded77c22aaf6b8", "fusion_lon": 0.0}, {"is_reserved": 0, "type": "electric_bike", "bike_id": "1d39379e1cfbc87d98e113171dcc1926", "lat": 38.943237833333335, "lon": -76.99014483333333, "rental_uris": {"android": "https://dc.lft.to/lastmile_qr_scan", "ios": "https://dc.lft.to/lastmile_qr_scan"}, "is_disabled": 0, "fusion_lat": 0.0, "name": "1d39379e1cfbc87d98e113171dcc1926", "fusion_lon": 0.0}, {"is_reserved": 0, "type": "electric_scooter", "bike_id": "0d5f26d12f4e419c774b51e22d5a3f69", "lat": 38.939009166666665, "lon": -77.01768766666666, "rental_uris": {"android": "https://dc.lft.to/lastmile_qr_scan", "ios": "https://dc.lft.to/lastmile_qr_scan"}, "is_disabled": 0, "fusion_lat": 0.0, "name": "0d5f26d12f4e419c774b51e22d5a3f69", "fusion_lon": 0.0}, {"is_reserved": 0, "type": "electric_bike", "bike_id": "75c29b601045424df26d42768641ed69", "lat": 38.87215533333333, "lon": -77.11747533333333, "rental_uris": {"android": "https://dc.lft.to/lastmile_qr_scan", "ios": "https://dc.lft.to/lastmile_qr_scan"}, "is_disabled": 0, "fusion_lat": 0.0, "name": "75c29b601045424df26d42768641ed69", "fusion_lon": 0.0}, {"is_reserved": 0, "type": "electric_bike", "bike_id": "fc5bdc45fcd54f2449b2e5c252c59130", "lat": 38.806752333333336, "lon": -77.087616, "rental_uris": {"android": "https://dc.lft.to/lastmile_qr_scan", "ios": "https://dc.lft.to/lastmile_qr_scan"}, "is_disabled": 0, "fusion_lat": 0.0, "name": "fc5bdc45fcd54f2449b2e5c252c59130", "fusion_lon": 0.0}, {"is_reserved": 0, "type": "electric_scooter", "bike_id": "35eb06ce8c717b69f34cf08b642bacea", "lat": 38.907153, "lon": -76.98558283333334, "rental_uris": {"android": "https://dc.lft.to/lastmile_qr_scan", "ios": "https://dc.lft.to/lastmile_qr_scan"}, "is_disabled": 0, "fusion_lat": 0.0, "name": "35eb06ce8c717b69f34cf08b642bacea", "fusion_lon": 0.0}, {"is_reserved": 0, "type": "electric_bike", "bike_id": "9d127bfa72cd77bb456321b2de0606e2", "lat": 38.85784983333333, "lon": -76.9874745, "rental_uris": {"android": "https://dc.lft.to/lastmile_qr_scan", "ios": "https://dc.lft.to/lastmile_qr_scan"}, "is_disabled": 0, "fusion_lat": 0.0, "name": "9d127bfa72cd77bb456321b2de0606e2", "fusion_lon": 0.0}, {"is_reserved": 0, "type": "electric_scooter", "bike_id": "1d773dd97c58f31ed7c943955ccc858b", "lat": 38.914557, "lon": -77.02283516666667, "rental_uris": {"android": "https://dc.lft.to/lastmile_qr_scan", "ios": "https://dc.lft.to/lastmile_qr_scan"}, "is_disabled": 0, "fusion_lat": 0.0, "name": "1d773dd97c58f31ed7c943955ccc858b", "fusion_lon": 0.0}, {"is_reserved": 0, "type": "electric_bike", "bike_id": "b93d958db8e98dd4bb25330a75e3ee67", "lat": 38.85603283333333, "lon": -76.9745785, "rental_uris": {"android": "https://dc.lft.to/lastmile_qr_scan", "ios": "https://dc.lft.to/lastmile_qr_scan"}, "is_disabled": 0, "fusion_lat": 0.0, "name": "b93d958db8e98dd4bb25330a75e3ee67", "fusion_lon": 0.0}, {"is_reserved": 0, "type": "electric_scooter", "bike_id": "2914e01b376d73b62959a214135c70dc", "lat": 38.89861966666667, "lon": -76.97762533333334, "rental_uris": {"android": "https://dc.lft.to/lastmile_qr_scan", "ios": "https://dc.lft.to/lastmile_qr_scan"}, "is_disabled": 0, "fusion_lat": 0.0, "name": "2914e01b376d73b62959a214135c70dc", "fusion_lon": 0.0}, {"is_reserved": 0, "type": "electric_scooter", "bike_id": "0a8e5327d90827ad13ca995826b94766", "lat": 38.912662166666664, "lon": -77.03873533333334, "rental_uris": {"android": "https://dc.lft.to/lastmile_qr_scan", "ios": "https://dc.lft.to/lastmile_qr_scan"}, "is_disabled": 0, "fusion_lat": 0.0, "name": "0a8e5327d90827ad13ca995826b94766", "fusion_lon": 0.0}, {"is_reserved": 0, "type": "electric_scooter", "bike_id": "30f96aa16a369d3d1512cee5de845d66", "lat": 38.90583633333333, "lon": -77.03637616666667, "rental_uris": {"android": "https://dc.lft.to/lastmile_qr_scan", "ios": "https://dc.lft.to/lastmile_qr_scan"}, "is_disabled": 0, "fusion_lat": 0.0, "name": "30f96aa16a369d3d1512cee5de845d66", "fusion_lon": 0.0}, {"is_reserved": 0, "type": "electric_scooter", "bike_id": "d53f4ab92d640a642cd684c190813d4e", "lat": 38.91844833333333, "lon": -77.03633933333333, "rental_uris": {"android": "https://dc.lft.to/lastmile_qr_scan", "ios": "https://dc.lft.to/lastmile_qr_scan"}, "is_disabled": 0, "fusion_lat": 0.0, "name": "d53f4ab92d640a642cd684c190813d4e", "fusion_lon": 0.0}, {"is_reserved": 0, "type": "electric_scooter", "bike_id": "423d99325c3eb1229be100b8ba34fa25", "lat": 38.901209, "lon": -77.03670716666667, "rental_uris": {"android": "https://dc.lft.to/lastmile_qr_scan", "ios": "https://dc.lft.to/lastmile_qr_scan"}, "is_disabled": 0, "fusion_lat": 0.0, "name": "423d99325c3eb1229be100b8ba34fa25", "fusion_lon": 0.0}, {"is_reserved": 0, "type": "electric_scooter", "bike_id": "3684cf020078e0c9fbd3f1840dfd3bd8", "lat": 38.92122483333333, "lon": -77.012147, "rental_uris": {"android": "https://dc.lft.to/lastmile_qr_scan", "ios": "https://dc.lft.to/lastmile_qr_scan"}, "is_disabled": 0, "fusion_lat": 0.0, "name": "3684cf020078e0c9fbd3f1840dfd3bd8", "fusion_lon": 0.0}, {"is_reserved": 0, "type": "electric_scooter", "bike_id": "37d3ed935e62e1c6323e53e54758e86f", "lat": 38.91727783333333, "lon": -77.03679716666667, "rental_uris": {"android": "https://dc.lft.to/lastmile_qr_scan", "ios": "https://dc.lft.to/lastmile_qr_scan"}, "is_disabled": 0, "fusion_lat": 0.0, "name": "37d3ed935e62e1c6323e53e54758e86f", "fusion_lon": 0.0}, {"is_reserved": 0, "type": "electric_scooter", "bike_id": "8912f4f1635f9ffdacdf85d28e2d9337", "lat": 38.9141705, "lon": -77.03144766666666, "rental_uris": {"android": "https://dc.lft.to/lastmile_qr_scan", "ios": "https://dc.lft.to/lastmile_qr_scan"}, "is_disabled": 0, "fusion_lat": 0.0, "name": "8912f4f1635f9ffdacdf85d28e2d9337", "fusion_lon": 0.0}, {"is_reserved": 0, "type": "electric_scooter", "bike_id": "7131fadc4d3f30015273e70b3a902d9b", "lat": 38.91964083333333, "lon": -77.01437433333334, "rental_uris": {"android": "https://dc.lft.to/lastmile_qr_scan", "ios": "https://dc.lft.to/lastmile_qr_scan"}, "is_disabled": 0, "fusion_lat": 0.0, "name": "7131fadc4d3f30015273e70b3a902d9b", "fusion_lon": 0.0}, {"is_reserved": 0, "type": "electric_bike", "bike_id": "1aec3682422c0c0aab6c6e105f3f475d", "lat": 38.7933445, "lon": -77.000539, "rental_uris": {"android": "https://dc.lft.to/lastmile_qr_scan", "ios": "https://dc.lft.to/lastmile_qr_scan"}, "is_disabled": 0, "fusion_lat": 0.0, "name": "1aec3682422c0c0aab6c6e105f3f475d", "fusion_lon": 0.0}, {"is_reserved": 0, "type": "electric_scooter", "bike_id": "d9628a0cf61073dbd84c1572dab71389", "lat": 38.92482533333333, "lon": -77.0272475, "rental_uris": {"android": "https://dc.lft.to/lastmile_qr_scan", "ios": "https://dc.lft.to/lastmile_qr_scan"}, "is_disabled": 0, "fusion_lat": 0.0, "name": "d9628a0cf61073dbd84c1572dab71389", "fusion_lon": 0.0}, {"is_reserved": 0, "type": "electric_scooter", "bike_id": "7c143a563579b007a191f6d8bf113829", "lat": 38.91283166666667, "lon": -77.02300566666666, "rental_uris": {"android": "https://dc.lft.to/lastmile_qr_scan", "ios": "https://dc.lft.to/lastmile_qr_scan"}, "is_disabled": 0, "fusion_lat": 0.0, "name": "7c143a563579b007a191f6d8bf113829", "fusion_lon": 0.0}, {"is_reserved": 0, "type": "electric_scooter", "bike_id": "718746756bde7da1e97353b51b4648a0", "lat": 38.93977183333333, "lon": -77.03567566666666, "rental_uris": {"android": "https://dc.lft.to/lastmile_qr_scan", "ios": "https://dc.lft.to/lastmile_qr_scan"}, "is_disabled": 0, "fusion_lat": 0.0, "name": "718746756bde7da1e97353b51b4648a0", "fusion_lon": 0.0}, {"is_reserved": 0, "type": "electric_scooter", "bike_id": "8aedd38e3496a1dc0aaf2aa7cde5d2e8", "lat": 38.93567216666667, "lon": -77.03266183333334, "rental_uris": {"android": "https://dc.lft.to/lastmile_qr_scan", "ios": "https://dc.lft.to/lastmile_qr_scan"}, "is_disabled": 0, "fusion_lat": 0.0, "name": "8aedd38e3496a1dc0aaf2aa7cde5d2e8", "fusion_lon": 0.0}, {"is_reserved": 0, "type": "electric_scooter", "bike_id": "f594a8b7a208cdcc13473c0f46157133", "lat": 38.92391116666667, "lon": -77.0504875, "rental_uris": {"android": "https://dc.lft.to/lastmile_qr_scan", "ios": "https://dc.lft.to/lastmile_qr_scan"}, "is_disabled": 0, "fusion_lat": 0.0, "name": "f594a8b7a208cdcc13473c0f46157133", "fusion_lon": 0.0}, {"is_reserved": 0, "type": "electric_scooter", "bike_id": "85a0e83666bbc623bc865bce297f6a22", "lat": 38.905690666666665, "lon": -77.02764716666667, "rental_uris": {"android": "https://dc.lft.to/lastmile_qr_scan", "ios": "https://dc.lft.to/lastmile_qr_scan"}, "is_disabled": 0, "fusion_lat": 0.0, "name": "85a0e83666bbc623bc865bce297f6a22", "fusion_lon": 0.0}, {"is_reserved": 0, "type": "electric_scooter", "bike_id": "a337b54a7e1729b668e8cbe700d2d48a", "lat": 38.892243666666666, "lon": -77.044887, "rental_uris": {"android": "https://dc.lft.to/lastmile_qr_scan", "ios": "https://dc.lft.to/lastmile_qr_scan"}, "is_disabled": 0, "fusion_lat": 0.0, "name": "a337b54a7e1729b668e8cbe700d2d48a", "fusion_lon": 0.0}, {"is_reserved": 0, "type": "electric_scooter", "bike_id": "da7666bc71f01d1ffb46c515710e8a9d", "lat": 38.90083816666667, "lon": -77.02355316666667, "rental_uris": {"android": "https://dc.lft.to/lastmile_qr_scan", "ios": "https://dc.lft.to/lastmile_qr_scan"}, "is_disabled": 0, "fusion_lat": 0.0, "name": "da7666bc71f01d1ffb46c515710e8a9d", "fusion_lon": 0.0}, {"is_reserved": 0, "type": "electric_scooter", "bike_id": "38efc3ddf4d233e46a834a74ba2caf76", "lat": 38.89528383333333, "lon": -77.04472666666666, "rental_uris": {"android": "https://dc.lft.to/lastmile_qr_scan", "ios": "https://dc.lft.to/lastmile_qr_scan"}, "is_disabled": 0, "fusion_lat": 0.0, "name": "38efc3ddf4d233e46a834a74ba2caf76", "fusion_lon": 0.0}, {"is_reserved": 0, "type": "electric_bike", "bike_id": "ab96a2b9bb7a20ee0b0875971bb9a5f2", "lat": 39.0849025, "lon": -76.950622, "rental_uris": {"android": "https://dc.lft.to/lastmile_qr_scan", "ios": "https://dc.lft.to/lastmile_qr_scan"}, "is_disabled": 0, "fusion_lat": 0.0, "name": "ab96a2b9bb7a20ee0b0875971bb9a5f2", "fusion_lon": 0.0}, {"is_reserved": 0, "type": "electric_scooter", "bike_id": "09548b33ff56a374619fb32b4a934464", "lat": 38.92062833333333, "lon": -77.01691516666666, "rental_uris": {"android": "https://dc.lft.to/lastmile_qr_scan", "ios": "https://dc.lft.to/lastmile_qr_scan"}, "is_disabled": 0, "fusion_lat": 0.0, "name": "09548b33ff56a374619fb32b4a934464", "fusion_lon": 0.0}, {"is_reserved": 0, "type": "electric_scooter", "bike_id": "cc62af4940816935374ff4fd5aef86c5", "lat": 38.919241166666666, "lon": -77.034292, "rental_uris": {"android": "https://dc.lft.to/lastmile_qr_scan", "ios": "https://dc.lft.to/lastmile_qr_scan"}, "is_disabled": 0, "fusion_lat": 0.0, "name": "cc62af4940816935374ff4fd5aef86c5", "fusion_lon": 0.0}, {"is_reserved": 0, "type": "electric_scooter", "bike_id": "c5dd2cd3016601d026f5ab4863fcd128", "lat": 38.926569, "lon": -77.03710666666667, "rental_uris": {"android": "https://dc.lft.to/lastmile_qr_scan", "ios": "https://dc.lft.to/lastmile_qr_scan"}, "is_disabled": 0, "fusion_lat": 0.0, "name": "c5dd2cd3016601d026f5ab4863fcd128", "fusion_lon": 0.0}, {"is_reserved": 0, "type": "electric_scooter", "bike_id": "95d5c071bf5e9d295c4e107c57d81cb7", "lat": 38.95621666666667, "lon": -77.00327733333333, "rental_uris": {"android": "https://dc.lft.to/lastmile_qr_scan", "ios": "https://dc.lft.to/lastmile_qr_scan"}, "is_disabled": 0, "fusion_lat": 0.0, "name": "95d5c071bf5e9d295c4e107c57d81cb7", "fusion_lon": 0.0}, {"is_reserved": 0, "type": "electric_scooter", "bike_id": "f28715d63ce95d73a3d18e674b677b56", "lat": 38.914926, "lon": -77.03226583333333, "rental_uris": {"android": "https://dc.lft.to/lastmile_qr_scan", "ios": "https://dc.lft.to/lastmile_qr_scan"}, "is_disabled": 0, "fusion_lat": 0.0, "name": "f28715d63ce95d73a3d18e674b677b56", "fusion_lon": 0.0}, {"is_reserved": 0, "type": "electric_scooter", "bike_id": "c87418840cf0013f90d9ecf7402be559", "lat": 38.91801783333333, "lon": -77.03445116666667, "rental_uris": {"android": "https://dc.lft.to/lastmile_qr_scan", "ios": "https://dc.lft.to/lastmile_qr_scan"}, "is_disabled": 0, "fusion_lat": 0.0, "name": "c87418840cf0013f90d9ecf7402be559", "fusion_lon": 0.0}, {"is_reserved": 0, "type": "electric_scooter", "bike_id": "a935b4d1249aae05b4578b0f92a55373", "lat": 38.91014083333334, "lon": -77.04401116666666, "rental_uris": {"android": "https://dc.lft.to/lastmile_qr_scan", "ios": "https://dc.lft.to/lastmile_qr_scan"}, "is_disabled": 0, "fusion_lat": 0.0, "name": "a935b4d1249aae05b4578b0f92a55373", "fusion_lon": 0.0}, {"is_reserved": 0, "type": "electric_scooter", "bike_id": "fd95733d134d194eeaf6a7e4bf936440", "lat": 38.9064635, "lon": -77.01195983333334, "rental_uris": {"android": "https://dc.lft.to/lastmile_qr_scan", "ios": "https://dc.lft.to/lastmile_qr_scan"}, "is_disabled": 0, "fusion_lat": 0.0, "name": "fd95733d134d194eeaf6a7e4bf936440", "fusion_lon": 0.0}, {"is_reserved": 0, "type": "electric_scooter", "bike_id": "636010c81d8b6792db2794432b341e7d", "lat": 38.957392, "lon": -77.03015916666666, "rental_uris": {"android": "https://dc.lft.to/lastmile_qr_scan", "ios": "https://dc.lft.to/lastmile_qr_scan"}, "is_disabled": 0, "fusion_lat": 0.0, "name": "636010c81d8b6792db2794432b341e7d", "fusion_lon": 0.0}, {"is_reserved": 0, "type": "electric_scooter", "bike_id": "7d4db8eec5a507b9845d87bafb30fe8f", "lat": 38.9208735, "lon": -77.0240685, "rental_uris": {"android": "https://dc.lft.to/lastmile_qr_scan", "ios": "https://dc.lft.to/lastmile_qr_scan"}, "is_disabled": 0, "fusion_lat": 0.0, "name": "7d4db8eec5a507b9845d87bafb30fe8f", "fusion_lon": 0.0}, {"is_reserved": 0, "type": "electric_scooter", "bike_id": "0092137b1f95c6da51573f477705f72b", "lat": 38.9157255, "lon": -76.983782, "rental_uris": {"android": "https://dc.lft.to/lastmile_qr_scan", "ios": "https://dc.lft.to/lastmile_qr_scan"}, "is_disabled": 0, "fusion_lat": 0.0, "name": "0092137b1f95c6da51573f477705f72b", "fusion_lon": 0.0}, {"is_reserved": 0, "type": "electric_scooter", "bike_id": "14b01be3e2b010b65dd7c9c730b0fb31", "lat": 38.892254333333334, "lon": -77.04357266666666, "rental_uris": {"android": "https://dc.lft.to/lastmile_qr_scan", "ios": "https://dc.lft.to/lastmile_qr_scan"}, "is_disabled": 0, "fusion_lat": 0.0, "name": "14b01be3e2b010b65dd7c9c730b0fb31", "fusion_lon": 0.0}, {"is_reserved": 0, "type": "electric_scooter", "bike_id": "7d7c001854ba46c2fc44ff2bff83310c", "lat": 38.89726116666667, "lon": -76.99512066666666, "rental_uris": {"android": "https://dc.lft.to/lastmile_qr_scan", "ios": "https://dc.lft.to/lastmile_qr_scan"}, "is_disabled": 0, "fusion_lat": 0.0, "name": "7d7c001854ba46c2fc44ff2bff83310c", "fusion_lon": 0.0}, {"is_reserved": 0, "type": "electric_bike", "bike_id": "3151395cfb20fc7f2691c0e4599362e5", "lat": 38.85785283333333, "lon": -76.98749616666667, "rental_uris": {"android": "https://dc.lft.to/lastmile_qr_scan", "ios": "https://dc.lft.to/lastmile_qr_scan"}, "is_disabled": 0, "fusion_lat": 0.0, "name": "3151395cfb20fc7f2691c0e4599362e5", "fusion_lon": 0.0}, {"is_reserved": 0, "type": "electric_scooter", "bike_id": "c5690d938d4d4819c0b205a260da4e99", "lat": 38.921280333333335, "lon": -77.045737, "rental_uris": {"android": "https://dc.lft.to/lastmile_qr_scan", "ios": "https://dc.lft.to/lastmile_qr_scan"}, "is_disabled": 0, "fusion_lat": 0.0, "name": "c5690d938d4d4819c0b205a260da4e99", "fusion_lon": 0.0}, {"is_reserved": 0, "type": "electric_scooter", "bike_id": "796ae0a6b5f11660e083479bafdda245", "lat": 38.9147985, "lon": -77.00216966666666, "rental_uris": {"android": "https://dc.lft.to/lastmile_qr_scan", "ios": "https://dc.lft.to/lastmile_qr_scan"}, "is_disabled": 0, "fusion_lat": 0.0, "name": "796ae0a6b5f11660e083479bafdda245", "fusion_lon": 0.0}, {"is_reserved": 0, "type": "electric_scooter", "bike_id": "5e97948c3663a55c1b5d40205ad02b22", "lat": 38.9445195, "lon": -77.0280295, "rental_uris": {"android": "https://dc.lft.to/lastmile_qr_scan", "ios": "https://dc.lft.to/lastmile_qr_scan"}, "is_disabled": 0, "fusion_lat": 0.0, "name": "5e97948c3663a55c1b5d40205ad02b22", "fusion_lon": 0.0}, {"is_reserved": 0, "type": "electric_scooter", "bike_id": "7555febe03c6149e48edf556d3dd6973", "lat": 38.92509533333333, "lon": -77.02287066666666, "rental_uris": {"android": "https://dc.lft.to/lastmile_qr_scan", "ios": "https://dc.lft.to/lastmile_qr_scan"}, "is_disabled": 0, "fusion_lat": 0.0, "name": "7555febe03c6149e48edf556d3dd6973", "fusion_lon": 0.0}, {"is_reserved": 0, "type": "electric_scooter", "bike_id": "58a1d54adf1100420e3e03d3af23baf8", "lat": 38.92898016666667, "lon": -77.02505033333334, "rental_uris": {"android": "https://dc.lft.to/lastmile_qr_scan", "ios": "https://dc.lft.to/lastmile_qr_scan"}, "is_disabled": 0, "fusion_lat": 0.0, "name": "58a1d54adf1100420e3e03d3af23baf8", "fusion_lon": 0.0}, {"is_reserved": 0, "type": "electric_bike", "bike_id": "a1dcba4af1ccff7462f9e3f2881037c2", "lat": 38.83029633333334, "lon": -77.08377816666666, "rental_uris": {"android": "https://dc.lft.to/lastmile_qr_scan", "ios": "https://dc.lft.to/lastmile_qr_scan"}, "is_disabled": 0, "fusion_lat": 0.0, "name": "a1dcba4af1ccff7462f9e3f2881037c2", "fusion_lon": 0.0}, {"is_reserved": 0, "type": "electric_bike", "bike_id": "ef13a6792a6322871c2b34c118d6c87b", "lat": 39.04238183333333, "lon": -76.9973775, "rental_uris": {"android": "https://dc.lft.to/lastmile_qr_scan", "ios": "https://dc.lft.to/lastmile_qr_scan"}, "is_disabled": 0, "fusion_lat": 0.0, "name": "ef13a6792a6322871c2b34c118d6c87b", "fusion_lon": 0.0}, {"is_reserved": 0, "type": "electric_bike", "bike_id": "ceab9d827dcee2f82ffbf80148c18f85", "lat": 38.973403, "lon": -76.9959045, "rental_uris": {"android": "https://dc.lft.to/lastmile_qr_scan", "ios": "https://dc.lft.to/lastmile_qr_scan"}, "is_disabled": 0, "fusion_lat": 0.0, "name": "ceab9d827dcee2f82ffbf80148c18f85", "fusion_lon": 0.0}, {"is_reserved": 0, "type": "electric_scooter", "bike_id": "388d44e07b303f2a92806789184435b5", "lat": 38.902665166666665, "lon": -77.02006833333333, "rental_uris": {"android": "https://dc.lft.to/lastmile_qr_scan", "ios": "https://dc.lft.to/lastmile_qr_scan"}, "is_disabled": 0, "fusion_lat": 0.0, "name": "388d44e07b303f2a92806789184435b5", "fusion_lon": 0.0}, {"is_reserved": 0, "type": "electric_scooter", "bike_id": "f06e5e97d4a420339b3f7527bdc326a6", "lat": 38.89734983333334, "lon": -77.019691, "rental_uris": {"android": "https://dc.lft.to/lastmile_qr_scan", "ios": "https://dc.lft.to/lastmile_qr_scan"}, "is_disabled": 0, "fusion_lat": 0.0, "name": "f06e5e97d4a420339b3f7527bdc326a6", "fusion_lon": 0.0}, {"is_reserved": 0, "type": "electric_scooter", "bike_id": "7af44068c8fe2da9013b27d0f3901442", "lat": 38.952154666666665, "lon": -77.01601716666667, "rental_uris": {"android": "https://dc.lft.to/lastmile_qr_scan", "ios": "https://dc.lft.to/lastmile_qr_scan"}, "is_disabled": 0, "fusion_lat": 0.0, "name": "7af44068c8fe2da9013b27d0f3901442", "fusion_lon": 0.0}, {"is_reserved": 0, "type": "electric_scooter", "bike_id": "323cfeef5ef95046b5517109cc2a4835", "lat": 38.9736745, "lon": -77.01861083333333, "rental_uris": {"android": "https://dc.lft.to/lastmile_qr_scan", "ios": "https://dc.lft.to/lastmile_qr_scan"}, "is_disabled": 0, "fusion_lat": 0.0, "name": "323cfeef5ef95046b5517109cc2a4835", "fusion_lon": 0.0}, {"is_reserved": 0, "type": "electric_scooter", "bike_id": "d6d18aa655bcdb7c047ef147be160caf", "lat": 38.90036833333333, "lon": -77.00195166666667, "rental_uris": {"android": "https://dc.lft.to/lastmile_qr_scan", "ios": "https://dc.lft.to/lastmile_qr_scan"}, "is_disabled": 0, "fusion_lat": 0.0, "name": "d6d18aa655bcdb7c047ef147be160caf", "fusion_lon": 0.0}, {"is_reserved": 0, "type": "electric_scooter", "bike_id": "085ed3f468201db98390d8fe9dee2fa6", "lat": 38.92780066666667, "lon": -77.02563783333333, "rental_uris": {"android": "https://dc.lft.to/lastmile_qr_scan", "ios": "https://dc.lft.to/lastmile_qr_scan"}, "is_disabled": 0, "fusion_lat": 0.0, "name": "085ed3f468201db98390d8fe9dee2fa6", "fusion_lon": 0.0}, {"is_reserved": 0, "type": "electric_bike", "bike_id": "18d77a8511b661040c67607b05d1e3b9", "lat": 38.84490266666667, "lon": -76.98163633333333, "rental_uris": {"android": "https://dc.lft.to/lastmile_qr_scan", "ios": "https://dc.lft.to/lastmile_qr_scan"}, "is_disabled": 0, "fusion_lat": 0.0, "name": "18d77a8511b661040c67607b05d1e3b9", "fusion_lon": 0.0}, {"is_reserved": 0, "type": "electric_scooter", "bike_id": "99300177ef1cba6f082dc484cd2ee22c", "lat": 38.913705666666665, "lon": -77.065693, "rental_uris": {"android": "https://dc.lft.to/lastmile_qr_scan", "ios": "https://dc.lft.to/lastmile_qr_scan"}, "is_disabled": 0, "fusion_lat": 0.0, "name": "99300177ef1cba6f082dc484cd2ee22c", "fusion_lon": 0.0}, {"is_reserved": 0, "type": "electric_scooter", "bike_id": "50d129b4918bb7bb96446b993e8ae53b", "lat": 38.904963, "lon": -77.01999866666667, "rental_uris": {"android": "https://dc.lft.to/lastmile_qr_scan", "ios": "https://dc.lft.to/lastmile_qr_scan"}, "is_disabled": 0, "fusion_lat": 0.0, "name": "50d129b4918bb7bb96446b993e8ae53b", "fusion_lon": 0.0}, {"is_reserved": 0, "type": "electric_scooter", "bike_id": "7d5413555b9439eeadc17e9b7fcb8285", "lat": 38.901399166666664, "lon": -77.02796283333333, "rental_uris": {"android": "https://dc.lft.to/lastmile_qr_scan", "ios": "https://dc.lft.to/lastmile_qr_scan"}, "is_disabled": 0, "fusion_lat": 0.0, "name": "7d5413555b9439eeadc17e9b7fcb8285", "fusion_lon": 0.0}, {"is_reserved": 0, "type": "electric_scooter", "bike_id": "f4bf38e45a1eb8e1d3a47bbac1c3acdd", "lat": 38.93196116666667, "lon": -77.02378216666666, "rental_uris": {"android": "https://dc.lft.to/lastmile_qr_scan", "ios": "https://dc.lft.to/lastmile_qr_scan"}, "is_disabled": 0, "fusion_lat": 0.0, "name": "f4bf38e45a1eb8e1d3a47bbac1c3acdd", "fusion_lon": 0.0}, {"is_reserved": 0, "type": "electric_scooter", "bike_id": "27e5e6147c4f11578761a80509a50512", "lat": 38.892359166666665, "lon": -77.013466, "rental_uris": {"android": "https://dc.lft.to/lastmile_qr_scan", "ios": "https://dc.lft.to/lastmile_qr_scan"}, "is_disabled": 0, "fusion_lat": 0.0, "name": "27e5e6147c4f11578761a80509a50512", "fusion_lon": 0.0}, {"is_reserved": 0, "type": "electric_scooter", "bike_id": "a5699d6914ed1fb8c3f49afafa3d2370", "lat": 38.95056683333333, "lon": -77.05418883333333, "rental_uris": {"android": "https://dc.lft.to/lastmile_qr_scan", "ios": "https://dc.lft.to/lastmile_qr_scan"}, "is_disabled": 0, "fusion_lat": 0.0, "name": "a5699d6914ed1fb8c3f49afafa3d2370", "fusion_lon": 0.0}, {"is_reserved": 0, "type": "electric_scooter", "bike_id": "8a8185cb20b86925a0b0b0e7c54634d6", "lat": 38.91115766666667, "lon": -77.04308033333334, "rental_uris": {"android": "https://dc.lft.to/lastmile_qr_scan", "ios": "https://dc.lft.to/lastmile_qr_scan"}, "is_disabled": 0, "fusion_lat": 0.0, "name": "8a8185cb20b86925a0b0b0e7c54634d6", "fusion_lon": 0.0}, {"is_reserved": 0, "type": "electric_scooter", "bike_id": "6ca2065c8bb5636f02505c6c0220efe4", "lat": 38.89222816666667, "lon": -77.04866833333334, "rental_uris": {"android": "https://dc.lft.to/lastmile_qr_scan", "ios": "https://dc.lft.to/lastmile_qr_scan"}, "is_disabled": 0, "fusion_lat": 0.0, "name": "6ca2065c8bb5636f02505c6c0220efe4", "fusion_lon": 0.0}, {"is_reserved": 0, "type": "electric_scooter", "bike_id": "85ecbb0fdb8904bb6b120c3e42c5eef0", "lat": 38.9191515, "lon": -77.04804916666667, "rental_uris": {"android": "https://dc.lft.to/lastmile_qr_scan", "ios": "https://dc.lft.to/lastmile_qr_scan"}, "is_disabled": 0, "fusion_lat": 0.0, "name": "85ecbb0fdb8904bb6b120c3e42c5eef0", "fusion_lon": 0.0}, {"is_reserved": 0, "type": "electric_scooter", "bike_id": "0faa013156ea7c9fbffda1a9d8ce02a3", "lat": 38.924337333333334, "lon": -77.00067683333333, "rental_uris": {"android": "https://dc.lft.to/lastmile_qr_scan", "ios": "https://dc.lft.to/lastmile_qr_scan"}, "is_disabled": 0, "fusion_lat": 0.0, "name": "0faa013156ea7c9fbffda1a9d8ce02a3", "fusion_lon": 0.0}, {"is_reserved": 0, "type": "electric_scooter", "bike_id": "65c9bcdc8439e475357b623d6f4029be", "lat": 38.900134333333334, "lon": -76.99869766666667, "rental_uris": {"android": "https://dc.lft.to/lastmile_qr_scan", "ios": "https://dc.lft.to/lastmile_qr_scan"}, "is_disabled": 0, "fusion_lat": 0.0, "name": "65c9bcdc8439e475357b623d6f4029be", "fusion_lon": 0.0}, {"is_reserved": 0, "type": "electric_scooter", "bike_id": "64fdea853205e21e788afee7b605b7c2", "lat": 38.91608433333333, "lon": -77.0373115, "rental_uris": {"android": "https://dc.lft.to/lastmile_qr_scan", "ios": "https://dc.lft.to/lastmile_qr_scan"}, "is_disabled": 0, "fusion_lat": 0.0, "name": "64fdea853205e21e788afee7b605b7c2", "fusion_lon": 0.0}, {"is_reserved": 0, "type": "electric_bike", "bike_id": "637cc031bf526c26df17e7dda78ace72", "lat": 38.94475666666666, "lon": -76.9869075, "rental_uris": {"android": "https://dc.lft.to/lastmile_qr_scan", "ios": "https://dc.lft.to/lastmile_qr_scan"}, "is_disabled": 0, "fusion_lat": 0.0, "name": "637cc031bf526c26df17e7dda78ace72", "fusion_lon": 0.0}, {"is_reserved": 0, "type": "electric_scooter", "bike_id": "7d23e09f3b73d5df7d0de7e4cbfb45cb", "lat": 38.8778965, "lon": -77.01747916666666, "rental_uris": {"android": "https://dc.lft.to/lastmile_qr_scan", "ios": "https://dc.lft.to/lastmile_qr_scan"}, "is_disabled": 0, "fusion_lat": 0.0, "name": "7d23e09f3b73d5df7d0de7e4cbfb45cb", "fusion_lon": 0.0}, {"is_reserved": 0, "type": "electric_scooter", "bike_id": "338e6d5347b077dd5868b276b6f22f86", "lat": 38.919622, "lon": -77.04365, "rental_uris": {"android": "https://dc.lft.to/lastmile_qr_scan", "ios": "https://dc.lft.to/lastmile_qr_scan"}, "is_disabled": 0, "fusion_lat": 0.0, "name": "338e6d5347b077dd5868b276b6f22f86", "fusion_lon": 0.0}, {"is_reserved": 0, "type": "electric_scooter", "bike_id": "7f90184125f3cd7cb7d6e9aaa3409572", "lat": 38.905475833333334, "lon": -77.00559366666667, "rental_uris": {"android": "https://dc.lft.to/lastmile_qr_scan", "ios": "https://dc.lft.to/lastmile_qr_scan"}, "is_disabled": 0, "fusion_lat": 0.0, "name": "7f90184125f3cd7cb7d6e9aaa3409572", "fusion_lon": 0.0}, {"is_reserved": 0, "type": "electric_scooter", "bike_id": "75c3e64a0c53fac64ce8c7c57546c23f", "lat": 38.93658716666667, "lon": -77.0213455, "rental_uris": {"android": "https://dc.lft.to/lastmile_qr_scan", "ios": "https://dc.lft.to/lastmile_qr_scan"}, "is_disabled": 0, "fusion_lat": 0.0, "name": "75c3e64a0c53fac64ce8c7c57546c23f", "fusion_lon": 0.0}, {"is_reserved": 0, "type": "electric_scooter", "bike_id": "16361e5d583a2f1a0c2b3473ebe3a3ec", "lat": 38.91966716666667, "lon": -77.01796916666666, "rental_uris": {"android": "https://dc.lft.to/lastmile_qr_scan", "ios": "https://dc.lft.to/lastmile_qr_scan"}, "is_disabled": 0, "fusion_lat": 0.0, "name": "16361e5d583a2f1a0c2b3473ebe3a3ec", "fusion_lon": 0.0}, {"is_reserved": 0, "type": "electric_scooter", "bike_id": "b558f2071a20af007ca9ab1c6b5a4f78", "lat": 38.916501833333335, "lon": -77.024709, "rental_uris": {"android": "https://dc.lft.to/lastmile_qr_scan", "ios": "https://dc.lft.to/lastmile_qr_scan"}, "is_disabled": 0, "fusion_lat": 0.0, "name": "b558f2071a20af007ca9ab1c6b5a4f78", "fusion_lon": 0.0}, {"is_reserved": 0, "type": "electric_scooter", "bike_id": "9dfc95a9ed4e2cd3641b0d8d424229ba", "lat": 38.89228216666667, "lon": -77.05001733333333, "rental_uris": {"android": "https://dc.lft.to/lastmile_qr_scan", "ios": "https://dc.lft.to/lastmile_qr_scan"}, "is_disabled": 0, "fusion_lat": 0.0, "name": "9dfc95a9ed4e2cd3641b0d8d424229ba", "fusion_lon": 0.0}, {"is_reserved": 0, "type": "electric_scooter", "bike_id": "b0263b1865518193ed2165df8f82e998", "lat": 38.867188666666664, "lon": -76.9807545, "rental_uris": {"android": "https://dc.lft.to/lastmile_qr_scan", "ios": "https://dc.lft.to/lastmile_qr_scan"}, "is_disabled": 0, "fusion_lat": 0.0, "name": "b0263b1865518193ed2165df8f82e998", "fusion_lon": 0.0}, {"is_reserved": 0, "type": "electric_scooter", "bike_id": "6fe249da74592276d866bccd25d1c341", "lat": 38.87652966666667, "lon": -77.0207835, "rental_uris": {"android": "https://dc.lft.to/lastmile_qr_scan", "ios": "https://dc.lft.to/lastmile_qr_scan"}, "is_disabled": 0, "fusion_lat": 0.0, "name": "6fe249da74592276d866bccd25d1c341", "fusion_lon": 0.0}, {"is_reserved": 0, "type": "electric_scooter", "bike_id": "6a7a5be6c1513d4d9f6c8afa8528ff20", "lat": 38.90034133333333, "lon": -77.00188083333333, "rental_uris": {"android": "https://dc.lft.to/lastmile_qr_scan", "ios": "https://dc.lft.to/lastmile_qr_scan"}, "is_disabled": 0, "fusion_lat": 0.0, "name": "6a7a5be6c1513d4d9f6c8afa8528ff20", "fusion_lon": 0.0}, {"is_reserved": 0, "type": "electric_scooter", "bike_id": "70fdf274ed4f73a2483635114a9ed78e", "lat": 38.88528316666667, "lon": -76.98054583333334, "rental_uris": {"android": "https://dc.lft.to/lastmile_qr_scan", "ios": "https://dc.lft.to/lastmile_qr_scan"}, "is_disabled": 0, "fusion_lat": 0.0, "name": "70fdf274ed4f73a2483635114a9ed78e", "fusion_lon": 0.0}, {"is_reserved": 0, "type": "electric_scooter", "bike_id": "519612108eb40ba08b82a5221d10aada", "lat": 38.924854333333336, "lon": -77.0304815, "rental_uris": {"android": "https://dc.lft.to/lastmile_qr_scan", "ios": "https://dc.lft.to/lastmile_qr_scan"}, "is_disabled": 0, "fusion_lat": 0.0, "name": "519612108eb40ba08b82a5221d10aada", "fusion_lon": 0.0}, {"is_reserved": 0, "type": "electric_scooter", "bike_id": "c76c7cd188dbbfc0e76ddcc0400bb907", "lat": 38.9021525, "lon": -76.98205733333333, "rental_uris": {"android": "https://dc.lft.to/lastmile_qr_scan", "ios": "https://dc.lft.to/lastmile_qr_scan"}, "is_disabled": 0, "fusion_lat": 0.0, "name": "c76c7cd188dbbfc0e76ddcc0400bb907", "fusion_lon": 0.0}, {"is_reserved": 0, "type": "electric_scooter", "bike_id": "5b0825527cb8f96dfddc586c0c1401d7", "lat": 38.924572166666664, "lon": -77.0522585, "rental_uris": {"android": "https://dc.lft.to/lastmile_qr_scan", "ios": "https://dc.lft.to/lastmile_qr_scan"}, "is_disabled": 0, "fusion_lat": 0.0, "name": "5b0825527cb8f96dfddc586c0c1401d7", "fusion_lon": 0.0}, {"is_reserved": 0, "type": "electric_scooter", "bike_id": "3f80c0f8e1f2fd4cd70dbca436188d97", "lat": 38.91800283333333, "lon": -77.03443633333333, "rental_uris": {"android": "https://dc.lft.to/lastmile_qr_scan", "ios": "https://dc.lft.to/lastmile_qr_scan"}, "is_disabled": 0, "fusion_lat": 0.0, "name": "3f80c0f8e1f2fd4cd70dbca436188d97", "fusion_lon": 0.0}, {"is_reserved": 0, "type": "electric_scooter", "bike_id": "39266675425f1213c8697d1fcc9725d7", "lat": 38.886761666666665, "lon": -77.0019885, "rental_uris": {"android": "https://dc.lft.to/lastmile_qr_scan", "ios": "https://dc.lft.to/lastmile_qr_scan"}, "is_disabled": 0, "fusion_lat": 0.0, "name": "39266675425f1213c8697d1fcc9725d7", "fusion_lon": 0.0}, {"is_reserved": 0, "type": "electric_scooter", "bike_id": "ad096766e78aa11c641499725c83c125", "lat": 38.915493, "lon": -77.0325455, "rental_uris": {"android": "https://dc.lft.to/lastmile_qr_scan", "ios": "https://dc.lft.to/lastmile_qr_scan"}, "is_disabled": 0, "fusion_lat": 0.0, "name": "ad096766e78aa11c641499725c83c125", "fusion_lon": 0.0}, {"is_reserved": 0, "type": "electric_scooter", "bike_id": "eb102efe7efbb725272f20568520cd54", "lat": 38.900221, "lon": -77.00203733333333, "rental_uris": {"android": "https://dc.lft.to/lastmile_qr_scan", "ios": "https://dc.lft.to/lastmile_qr_scan"}, "is_disabled": 0, "fusion_lat": 0.0, "name": "eb102efe7efbb725272f20568520cd54", "fusion_lon": 0.0}, {"is_reserved": 0, "type": "electric_scooter", "bike_id": "9467724386988d28213f4b25ea971f99", "lat": 38.86592516666666, "lon": -76.97456233333334, "rental_uris": {"android": "https://dc.lft.to/lastmile_qr_scan", "ios": "https://dc.lft.to/lastmile_qr_scan"}, "is_disabled": 0, "fusion_lat": 0.0, "name": "9467724386988d28213f4b25ea971f99", "fusion_lon": 0.0}, {"is_reserved": 0, "type": "electric_scooter", "bike_id": "1e7d6cadaec42055310697112e70c69b", "lat": 38.9057705, "lon": -77.00784983333334, "rental_uris": {"android": "https://dc.lft.to/lastmile_qr_scan", "ios": "https://dc.lft.to/lastmile_qr_scan"}, "is_disabled": 0, "fusion_lat": 0.0, "name": "1e7d6cadaec42055310697112e70c69b", "fusion_lon": 0.0}, {"is_reserved": 0, "type": "electric_scooter", "bike_id": "ec90d23c0c75b154470400464f781729", "lat": 38.9192135, "lon": -77.07276683333333, "rental_uris": {"android": "https://dc.lft.to/lastmile_qr_scan", "ios": "https://dc.lft.to/lastmile_qr_scan"}, "is_disabled": 0, "fusion_lat": 0.0, "name": "ec90d23c0c75b154470400464f781729", "fusion_lon": 0.0}, {"is_reserved": 0, "type": "electric_scooter", "bike_id": "4755b9f99f580b174d2bdd763a680b26", "lat": 38.892232, "lon": -77.0450655, "rental_uris": {"android": "https://dc.lft.to/lastmile_qr_scan", "ios": "https://dc.lft.to/lastmile_qr_scan"}, "is_disabled": 0, "fusion_lat": 0.0, "name": "4755b9f99f580b174d2bdd763a680b26", "fusion_lon": 0.0}, {"is_reserved": 0, "type": "electric_scooter", "bike_id": "578affb22399bba177eda128f41853b7", "lat": 38.89294016666667, "lon": -77.0123325, "rental_uris": {"android": "https://dc.lft.to/lastmile_qr_scan", "ios": "https://dc.lft.to/lastmile_qr_scan"}, "is_disabled": 0, "fusion_lat": 0.0, "name": "578affb22399bba177eda128f41853b7", "fusion_lon": 0.0}, {"is_reserved": 0, "type": "electric_scooter", "bike_id": "7e6a41b5e80a9d770a534089b9ab04ab", "lat": 38.922992, "lon": -76.99778683333334, "rental_uris": {"android": "https://dc.lft.to/lastmile_qr_scan", "ios": "https://dc.lft.to/lastmile_qr_scan"}, "is_disabled": 0, "fusion_lat": 0.0, "name": "7e6a41b5e80a9d770a534089b9ab04ab", "fusion_lon": 0.0}, {"is_reserved": 0, "type": "electric_bike", "bike_id": "5c3d5d82b90d8e6b5dcc379c0351c726", "lat": 38.9731485, "lon": -76.99484516666666, "rental_uris": {"android": "https://dc.lft.to/lastmile_qr_scan", "ios": "https://dc.lft.to/lastmile_qr_scan"}, "is_disabled": 0, "fusion_lat": 0.0, "name": "5c3d5d82b90d8e6b5dcc379c0351c726", "fusion_lon": 0.0}, {"is_reserved": 0, "type": "electric_scooter", "bike_id": "bcf0e395f86c301e779f59dd5c3c7daa", "lat": 38.89890583333333, "lon": -76.980007, "rental_uris": {"android": "https://dc.lft.to/lastmile_qr_scan", "ios": "https://dc.lft.to/lastmile_qr_scan"}, "is_disabled": 0, "fusion_lat": 0.0, "name": "bcf0e395f86c301e779f59dd5c3c7daa", "fusion_lon": 0.0}, {"is_reserved": 0, "type": "electric_scooter", "bike_id": "8d713858329c69432fd01a658450d24b", "lat": 38.91481916666667, "lon": -77.03179583333333, "rental_uris": {"android": "https://dc.lft.to/lastmile_qr_scan", "ios": "https://dc.lft.to/lastmile_qr_scan"}, "is_disabled": 0, "fusion_lat": 0.0, "name": "8d713858329c69432fd01a658450d24b", "fusion_lon": 0.0}, {"is_reserved": 0, "type": "electric_scooter", "bike_id": "f5a3e7bd6d8eb002fcc41e6b160db9e4", "lat": 38.9281565, "lon": -77.0621455, "rental_uris": {"android": "https://dc.lft.to/lastmile_qr_scan", "ios": "https://dc.lft.to/lastmile_qr_scan"}, "is_disabled": 0, "fusion_lat": 0.0, "name": "f5a3e7bd6d8eb002fcc41e6b160db9e4", "fusion_lon": 0.0}, {"is_reserved": 0, "type": "electric_scooter", "bike_id": "cbb8f04f384329d6fb05423e549afbbc", "lat": 38.9359145, "lon": -77.03368366666666, "rental_uris": {"android": "https://dc.lft.to/lastmile_qr_scan", "ios": "https://dc.lft.to/lastmile_qr_scan"}, "is_disabled": 0, "fusion_lat": 0.0, "name": "cbb8f04f384329d6fb05423e549afbbc", "fusion_lon": 0.0}, {"is_reserved": 0, "type": "electric_scooter", "bike_id": "0517127233db0654f3d4961c8759d58d", "lat": 38.887267666666666, "lon": -77.022118, "rental_uris": {"android": "https://dc.lft.to/lastmile_qr_scan", "ios": "https://dc.lft.to/lastmile_qr_scan"}, "is_disabled": 0, "fusion_lat": 0.0, "name": "0517127233db0654f3d4961c8759d58d", "fusion_lon": 0.0}, {"is_reserved": 0, "type": "electric_scooter", "bike_id": "46fddcb813286ada3001480599489532", "lat": 38.914191833333334, "lon": -77.02824883333334, "rental_uris": {"android": "https://dc.lft.to/lastmile_qr_scan", "ios": "https://dc.lft.to/lastmile_qr_scan"}, "is_disabled": 0, "fusion_lat": 0.0, "name": "46fddcb813286ada3001480599489532", "fusion_lon": 0.0}, {"is_reserved": 0, "type": "electric_scooter", "bike_id": "4a77db73b64a9a076432fcca79997526", "lat": 38.90357266666667, "lon": -77.02207166666666, "rental_uris": {"android": "https://dc.lft.to/lastmile_qr_scan", "ios": "https://dc.lft.to/lastmile_qr_scan"}, "is_disabled": 0, "fusion_lat": 0.0, "name": "4a77db73b64a9a076432fcca79997526", "fusion_lon": 0.0}, {"is_reserved": 0, "type": "electric_scooter", "bike_id": "c9d708d822afa5885206ebb276bdd1f6", "lat": 38.897114, "lon": -77.02274266666667, "rental_uris": {"android": "https://dc.lft.to/lastmile_qr_scan", "ios": "https://dc.lft.to/lastmile_qr_scan"}, "is_disabled": 0, "fusion_lat": 0.0, "name": "c9d708d822afa5885206ebb276bdd1f6", "fusion_lon": 0.0}, {"is_reserved": 0, "type": "electric_scooter", "bike_id": "3b6a93421e217457b39f644aa27b411a", "lat": 38.91385566666666, "lon": -77.01703916666666, "rental_uris": {"android": "https://dc.lft.to/lastmile_qr_scan", "ios": "https://dc.lft.to/lastmile_qr_scan"}, "is_disabled": 0, "fusion_lat": 0.0, "name": "3b6a93421e217457b39f644aa27b411a", "fusion_lon": 0.0}, {"is_reserved": 0, "type": "electric_scooter", "bike_id": "5a0fc29746a089b313cafa6e3fac205f", "lat": 38.86481283333333, "lon": -76.977483, "rental_uris": {"android": "https://dc.lft.to/lastmile_qr_scan", "ios": "https://dc.lft.to/lastmile_qr_scan"}, "is_disabled": 0, "fusion_lat": 0.0, "name": "5a0fc29746a089b313cafa6e3fac205f", "fusion_lon": 0.0}, {"is_reserved": 0, "type": "electric_bike", "bike_id": "935d57e7b6a128af3b35b71195de0d33", "lat": 38.8893215, "lon": -76.91326283333333, "rental_uris": {"android": "https://dc.lft.to/lastmile_qr_scan", "ios": "https://dc.lft.to/lastmile_qr_scan"}, "is_disabled": 0, "fusion_lat": 0.0, "name": "935d57e7b6a128af3b35b71195de0d33", "fusion_lon": 0.0}, {"is_reserved": 0, "type": "electric_scooter", "bike_id": "3275d2d7eac6800b6d7b9d1612b125c1", "lat": 38.9171275, "lon": -77.03854783333334, "rental_uris": {"android": "https://dc.lft.to/lastmile_qr_scan", "ios": "https://dc.lft.to/lastmile_qr_scan"}, "is_disabled": 0, "fusion_lat": 0.0, "name": "3275d2d7eac6800b6d7b9d1612b125c1", "fusion_lon": 0.0}, {"is_reserved": 0, "type": "electric_scooter", "bike_id": "131eef5fc9bc6b01526fac9ac74525cc", "lat": 38.924810666666666, "lon": -77.0227405, "rental_uris": {"android": "https://dc.lft.to/lastmile_qr_scan", "ios": "https://dc.lft.to/lastmile_qr_scan"}, "is_disabled": 0, "fusion_lat": 0.0, "name": "131eef5fc9bc6b01526fac9ac74525cc", "fusion_lon": 0.0}, {"is_reserved": 0, "type": "electric_scooter", "bike_id": "38862a2d14d6a99a7cdc31cf6a958759", "lat": 38.9282845, "lon": -77.05438833333334, "rental_uris": {"android": "https://dc.lft.to/lastmile_qr_scan", "ios": "https://dc.lft.to/lastmile_qr_scan"}, "is_disabled": 0, "fusion_lat": 0.0, "name": "38862a2d14d6a99a7cdc31cf6a958759", "fusion_lon": 0.0}, {"is_reserved": 0, "type": "electric_scooter", "bike_id": "a35504431a5b49c2fe2cf1c18d947c20", "lat": 38.918346666666665, "lon": -77.014725, "rental_uris": {"android": "https://dc.lft.to/lastmile_qr_scan", "ios": "https://dc.lft.to/lastmile_qr_scan"}, "is_disabled": 0, "fusion_lat": 0.0, "name": "a35504431a5b49c2fe2cf1c18d947c20", "fusion_lon": 0.0}, {"is_reserved": 0, "type": "electric_scooter", "bike_id": "2405f6e5220a1d588725933f91f5d4d2", "lat": 38.899388333333334, "lon": -76.977054, "rental_uris": {"android": "https://dc.lft.to/lastmile_qr_scan", "ios": "https://dc.lft.to/lastmile_qr_scan"}, "is_disabled": 0, "fusion_lat": 0.0, "name": "2405f6e5220a1d588725933f91f5d4d2", "fusion_lon": 0.0}, {"is_reserved": 0, "type": "electric_scooter", "bike_id": "7aa773a3ac90c6a1f69a36583549587d", "lat": 38.892288, "lon": -77.04365116666666, "rental_uris": {"android": "https://dc.lft.to/lastmile_qr_scan", "ios": "https://dc.lft.to/lastmile_qr_scan"}, "is_disabled": 0, "fusion_lat": 0.0, "name": "7aa773a3ac90c6a1f69a36583549587d", "fusion_lon": 0.0}, {"is_reserved": 0, "type": "electric_scooter", "bike_id": "91b90d7213bddf73417c9c66e087f7ec", "lat": 38.953815166666665, "lon": -77.00188616666667, "rental_uris": {"android": "https://dc.lft.to/lastmile_qr_scan", "ios": "https://dc.lft.to/lastmile_qr_scan"}, "is_disabled": 0, "fusion_lat": 0.0, "name": "91b90d7213bddf73417c9c66e087f7ec", "fusion_lon": 0.0}, {"is_reserved": 0, "type": "electric_scooter", "bike_id": "c0a4ac41eada089fc28c03de6e476acd", "lat": 38.9053735, "lon": -77.00574966666667, "rental_uris": {"android": "https://dc.lft.to/lastmile_qr_scan", "ios": "https://dc.lft.to/lastmile_qr_scan"}, "is_disabled": 0, "fusion_lat": 0.0, "name": "c0a4ac41eada089fc28c03de6e476acd", "fusion_lon": 0.0}, {"is_reserved": 0, "type": "electric_scooter", "bike_id": "3f3ee07907fe2b6f87f1ba46a81e2a4e", "lat": 38.936215, "lon": -77.02475516666667, "rental_uris": {"android": "https://dc.lft.to/lastmile_qr_scan", "ios": "https://dc.lft.to/lastmile_qr_scan"}, "is_disabled": 0, "fusion_lat": 0.0, "name": "3f3ee07907fe2b6f87f1ba46a81e2a4e", "fusion_lon": 0.0}, {"is_reserved": 0, "type": "electric_scooter", "bike_id": "f9cc735dfd269bc8b41edcc511bcedc5", "lat": 38.899568333333335, "lon": -77.047598, "rental_uris": {"android": "https://dc.lft.to/lastmile_qr_scan", "ios": "https://dc.lft.to/lastmile_qr_scan"}, "is_disabled": 0, "fusion_lat": 0.0, "name": "f9cc735dfd269bc8b41edcc511bcedc5", "fusion_lon": 0.0}, {"is_reserved": 0, "type": "electric_scooter", "bike_id": "3b6a09d2889f401c1b8ca425d5fcb752", "lat": 38.92459133333333, "lon": -77.052305, "rental_uris": {"android": "https://dc.lft.to/lastmile_qr_scan", "ios": "https://dc.lft.to/lastmile_qr_scan"}, "is_disabled": 0, "fusion_lat": 0.0, "name": "3b6a09d2889f401c1b8ca425d5fcb752", "fusion_lon": 0.0}, {"is_reserved": 0, "type": "electric_scooter", "bike_id": "140306df5ffec9a4e093409425e0691a", "lat": 38.863795, "lon": -76.99066033333334, "rental_uris": {"android": "https://dc.lft.to/lastmile_qr_scan", "ios": "https://dc.lft.to/lastmile_qr_scan"}, "is_disabled": 0, "fusion_lat": 0.0, "name": "140306df5ffec9a4e093409425e0691a", "fusion_lon": 0.0}, {"is_reserved": 0, "type": "electric_bike", "bike_id": "2ac2f44a36bab17c331d8d822b79ef44", "lat": 39.000293, "lon": -77.04743266666667, "rental_uris": {"android": "https://dc.lft.to/lastmile_qr_scan", "ios": "https://dc.lft.to/lastmile_qr_scan"}, "is_disabled": 0, "fusion_lat": 0.0, "name": "2ac2f44a36bab17c331d8d822b79ef44", "fusion_lon": 0.0}, {"is_reserved": 0, "type": "electric_scooter", "bike_id": "7cf0d5919427c6b99c0b0775d46d0e9e", "lat": 38.92826383333333, "lon": -77.05438083333334, "rental_uris": {"android": "https://dc.lft.to/lastmile_qr_scan", "ios": "https://dc.lft.to/lastmile_qr_scan"}, "is_disabled": 0, "fusion_lat": 0.0, "name": "7cf0d5919427c6b99c0b0775d46d0e9e", "fusion_lon": 0.0}, {"is_reserved": 0, "type": "electric_scooter", "bike_id": "1871a510778f08b12745ab2bc8598184", "lat": 38.9275015, "lon": -77.03308866666667, "rental_uris": {"android": "https://dc.lft.to/lastmile_qr_scan", "ios": "https://dc.lft.to/lastmile_qr_scan"}, "is_disabled": 0, "fusion_lat": 0.0, "name": "1871a510778f08b12745ab2bc8598184", "fusion_lon": 0.0}, {"is_reserved": 0, "type": "electric_scooter", "bike_id": "98088bdb73e7e74b290acc62b831a873", "lat": 38.89731583333333, "lon": -77.00373766666667, "rental_uris": {"android": "https://dc.lft.to/lastmile_qr_scan", "ios": "https://dc.lft.to/lastmile_qr_scan"}, "is_disabled": 0, "fusion_lat": 0.0, "name": "98088bdb73e7e74b290acc62b831a873", "fusion_lon": 0.0}, {"is_reserved": 0, "type": "electric_scooter", "bike_id": "f5c1b58c9cf816199d7666be9fc26764", "lat": 38.90102733333333, "lon": -77.047578, "rental_uris": {"android": "https://dc.lft.to/lastmile_qr_scan", "ios": "https://dc.lft.to/lastmile_qr_scan"}, "is_disabled": 0, "fusion_lat": 0.0, "name": "f5c1b58c9cf816199d7666be9fc26764", "fusion_lon": 0.0}, {"is_reserved": 0, "type": "electric_scooter", "bike_id": "012b14fd850234d7c5a8429a7f2a56a6", "lat": 38.92529966666667, "lon": -77.02973716666666, "rental_uris": {"android": "https://dc.lft.to/lastmile_qr_scan", "ios": "https://dc.lft.to/lastmile_qr_scan"}, "is_disabled": 0, "fusion_lat": 0.0, "name": "012b14fd850234d7c5a8429a7f2a56a6", "fusion_lon": 0.0}, {"is_reserved": 0, "type": "electric_scooter", "bike_id": "fbfdf1a635a8a8e8de53f6eb9a06efd2", "lat": 38.91345883333334, "lon": -77.06415633333333, "rental_uris": {"android": "https://dc.lft.to/lastmile_qr_scan", "ios": "https://dc.lft.to/lastmile_qr_scan"}, "is_disabled": 0, "fusion_lat": 0.0, "name": "fbfdf1a635a8a8e8de53f6eb9a06efd2", "fusion_lon": 0.0}, {"is_reserved": 0, "type": "electric_scooter", "bike_id": "ca6cfa43db5739c4c5c576353c7aa58d", "lat": 38.915633, "lon": -77.02117033333333, "rental_uris": {"android": "https://dc.lft.to/lastmile_qr_scan", "ios": "https://dc.lft.to/lastmile_qr_scan"}, "is_disabled": 0, "fusion_lat": 0.0, "name": "ca6cfa43db5739c4c5c576353c7aa58d", "fusion_lon": 0.0}, {"is_reserved": 0, "type": "electric_bike", "bike_id": "cf35fe8961c062a0356e57fcc4cd9cff", "lat": 38.97423766666667, "lon": -77.01256166666667, "rental_uris": {"android": "https://dc.lft.to/lastmile_qr_scan", "ios": "https://dc.lft.to/lastmile_qr_scan"}, "is_disabled": 0, "fusion_lat": 0.0, "name": "cf35fe8961c062a0356e57fcc4cd9cff", "fusion_lon": 0.0}, {"is_reserved": 0, "type": "electric_scooter", "bike_id": "ed715a1cb4b66c0233248b0b82cae0ec", "lat": 38.931916666666666, "lon": -77.03755983333333, "rental_uris": {"android": "https://dc.lft.to/lastmile_qr_scan", "ios": "https://dc.lft.to/lastmile_qr_scan"}, "is_disabled": 0, "fusion_lat": 0.0, "name": "ed715a1cb4b66c0233248b0b82cae0ec", "fusion_lon": 0.0},