{"data": {"bikes": [{"rental_uris": {"ios": "https://dc.lft.to/lastmile_qr_scan", "android": "https://dc.lft.to/lastmile_qr_scan"}, "type": "electric_scooter", "name": "8cf9f2b05b1bff3581cb555b3167cc45", "is_reserved": 0, "lon": -77.02976833333334, "is_disabled": 0, "fusion_lat": 0.0, "lat": 38.92446233333333, "bike_id": "8cf9f2b05b1bff3581cb555b3167cc45", "fusion_lon": 0.0}, {"rental_uris": {"ios": "https://dc.lft.to/lastmile_qr_scan", "android": "https://dc.lft.to/lastmile_qr_scan"}, "type": "electric_scooter", "name": "769ecb1c733850b1097f731d5d41b494", "is_reserved": 0, "lon": -77.03527283333334, "is_disabled": 0, "fusion_lat": 0.0, "lat": 38.92371166666667, "bike_id": "769ecb1c733850b1097f731d5d41b494", "fusion_lon": 0.0}, {"rental_uris": {"ios": "https://dc.lft.to/lastmile_qr_scan", "android": "https://dc.lft.to/lastmile_qr_scan"}, "type": "electric_scooter", "name": "2b6974bc5629c59f62cff8834ce3b4f3", "is_reserved": 0, "lon": -77.02693, "is_disabled": 0, "fusion_lat": 0.0, "lat": 38.91153383333334, "bike_id": "2b6974bc5629c59f62cff8834ce3b4f3", "fusion_lon": 0.0}, {"rental_uris": {"ios": "https://dc.lft.to/lastmile_qr_scan", "android": "https://dc.lft.to/lastmile_qr_scan"}, "type": "electric_scooter", "name": "456b759da145b8ebf7b95af4d8911f43", "is_reserved": 0, "lon": -77.01988516666667, "is_disabled": 0, "fusion_lat": 0.0, "lat": 38.90252316666667, "bike_id": "456b759da145b8ebf7b95af4d8911f43", "fusion_lon": 0.0}, {"rental_uris": {"ios": "https://dc.lft.to/lastmile_qr_scan", "android": "https://dc.lft.to/lastmile_qr_scan"}, "type": "electric_scooter", "name": "dd8d3709164ce8cdea5dbf1c33b21623", "is_reserved": 0, "lon": -77.04327616666667, "is_disabled": 0, "fusion_lat": 0.0, "lat": 38.906523666666665, "bike_id": "dd8d3709164ce8cdea5dbf1c33b21623", "fusion_lon": 0.0}, {"rental_uris": {"ios": "https://dc.lft.to/lastmile_qr_scan", "android": "https://dc.lft.to/lastmile_qr_scan"}, "type": "electric_scooter", "name": "eb0e407a9554a227d7fbd4735680a53e", "is_reserved": 0, "lon": -77.03291283333333, "is_disabled": 0, "fusion_lat": 0.0, "lat": 38.924615833333334, "bike_id": "eb0e407a9554a227d7fbd4735680a53e", "fusion_lon": 0.0}, {"rental_uris": {"ios": "https://dc.lft.to/lastmile_qr_scan", "android": "https://dc.lft.to/lastmile_qr_scan"}, "type": "electric_scooter", "name": "96540c45f2b1ae7a887eade3339a0658", "is_reserved": 0, "lon": -76.99131316666667, "is_disabled": 0, "fusion_lat": 0.0, "lat": 38.900136, "bike_id": "96540c45f2b1ae7a887eade3339a0658", "fusion_lon": 0.0}, {"rental_uris": {"ios": "https://dc.lft.to/lastmile_qr_scan", "android": "https://dc.lft.to/lastmile_qr_scan"}, "type": "electric_scooter", "name": "baa8e18a760b0ba4cebced8a32354a8a", "is_reserved": 0, "lon": -77.02146633333334, "is_disabled": 0, "fusion_lat": 0.0, "lat": 38.91327316666667, "bike_id": "baa8e18a760b0ba4cebced8a32354a8a", "fusion_lon": 0.0}, {"rental_uris": {"ios": "https://dc.lft.to/lastmile_qr_scan", "android": "https://dc.lft.to/lastmile_qr_scan"}, "type": "electric_scooter", "name": "20c0f9d7ed0b7420956eb363f4a37700", "is_reserved": 0, "lon": -76.96556583333333, "is_disabled": 0, "fusion_lat": 0.0, "lat": 38.918526, "bike_id": "20c0f9d7ed0b7420956eb363f4a37700", "fusion_lon": 0.0}, {"rental_uris": {"ios": "https://dc.lft.to/lastmile_qr_scan", "android": "https://dc.lft.to/lastmile_qr_scan"}, "type": "electric_scooter", "name": "15fe5dcf42fbd79e50355b6c3101b371", "is_reserved": 0, "lon": -77.03791483333333, "is_disabled": 0, "fusion_lat": 0.0, "lat": 38.92507616666666, "bike_id": "15fe5dcf42fbd79e50355b6c3101b371", "fusion_lon": 0.0}, {"rental_uris": {"ios": "https://dc.lft.to/lastmile_qr_scan", "android": "https://dc.lft.to/lastmile_qr_scan"}, "type": "electric_scooter", "name": "d5f54488f4cdbbfc00d5bc8c1888e9fd", "is_reserved": 0, "lon": -77.023004, "is_disabled": 0, "fusion_lat": 0.0, "lat": 38.89852283333333, "bike_id": "d5f54488f4cdbbfc00d5bc8c1888e9fd", "fusion_lon": 0.0}, {"rental_uris": {"ios": "https://dc.lft.to/lastmile_qr_scan", "android": "https://dc.lft.to/lastmile_qr_scan"}, "type": "electric_scooter", "name": "f2c0de552efd124050ba05865d4f2da4", "is_reserved": 0, "lon": -77.05600666666666, "is_disabled": 0, "fusion_lat": 0.0, "lat": 38.89427716666667, "bike_id": "f2c0de552efd124050ba05865d4f2da4", "fusion_lon": 0.0}, {"rental_uris": {"ios": "https://dc.lft.to/lastmile_qr_scan", "android": "https://dc.lft.to/lastmile_qr_scan"}, "type": "electric_scooter", "name": "8ae1383297d713976e59cb9c64a77155", "is_reserved": 0, "lon": -77.037147, "is_disabled": 0, "fusion_lat": 0.0, "lat": 38.928338833333335, "bike_id": "8ae1383297d713976e59cb9c64a77155", "fusion_lon": 0.0}, {"rental_uris": {"ios": "https://dc.lft.to/lastmile_qr_scan", "android": "https://dc.lft.to/lastmile_qr_scan"}, "type": "electric_scooter", "name": "1e8ab49b1d88f5fba82d21da35e26666", "is_reserved": 0, "lon": -77.02127333333334, "is_disabled": 0, "fusion_lat": 0.0, "lat": 38.924051666666664, "bike_id": "1e8ab49b1d88f5fba82d21da35e26666", "fusion_lon": 0.0}, {"rental_uris": {"ios": "https://dc.lft.to/lastmile_qr_scan", "android": "https://dc.lft.to/lastmile_qr_scan"}, "type": "electric_scooter", "name": "5175dec87eb945efcff99d947de555f2", "is_reserved": 0, "lon": -77.0612085, "is_disabled": 0, "fusion_lat": 0.0, "lat": 38.9043775, "bike_id": "5175dec87eb945efcff99d947de555f2", "fusion_lon": 0.0}, {"rental_uris": {"ios": "https://dc.lft.to/lastmile_qr_scan", "android": "https://dc.lft.to/lastmile_qr_scan"}, "type": "electric_scooter", "name": "bdea215b2f726eb5975eddb7ef410225", "is_reserved": 0, "lon": -77.02685933333333, "is_disabled": 0, "fusion_lat": 0.0, "lat": 38.92575633333333, "bike_id": "bdea215b2f726eb5975eddb7ef410225", "fusion_lon": 0.0}, {"rental_uris": {"ios": "https://dc.lft.to/lastmile_qr_scan", "android": "https://dc.lft.to/lastmile_qr_scan"}, "type": "electric_scooter", "name": "574154c508afa1be870c395bfc519e09", "is_reserved": 0, "lon": -76.98842233333333, "is_disabled": 0, "fusion_lat": 0.0, "lat": 38.84296766666667, "bike_id": "574154c508afa1be870c395bfc519e09", "fusion_lon": 0.0}, {"rental_uris": {"ios": "https://dc.lft.to/lastmile_qr_scan", "android": "https://dc.lft.to/lastmile_qr_scan"}, "type": "electric_scooter", "name": "e0628bf16973731f389db236eed0409f", "is_reserved": 0, "lon": -76.99032483333333, "is_disabled": 0, "fusion_lat": 0.0, "lat": 38.898544666666666, "bike_id": "e0628bf16973731f389db236eed0409f", "fusion_lon": 0.0}, {"rental_uris": {"ios": "https://dc.lft.to/lastmile_qr_scan", "android": "https://dc.lft.to/lastmile_qr_scan"}, "type": "electric_scooter", "name": "45cde8ebd252030350c57b8d90027a54", "is_reserved": 0, "lon": -77.032674, "is_disabled": 0, "fusion_lat": 0.0, "lat": 38.9049185, "bike_id": "45cde8ebd252030350c57b8d90027a54", "fusion_lon": 0.0}, {"rental_uris": {"ios": "https://dc.lft.to/lastmile_qr_scan", "android": "https://dc.lft.to/lastmile_qr_scan"}, "type": "electric_scooter", "name": "530de113188fa94845e165808310d326", "is_reserved": 0, "lon": -76.98373416666666, "is_disabled": 0, "fusion_lat": 0.0, "lat": 38.86034, "bike_id": "530de113188fa94845e165808310d326", "fusion_lon": 0.0}, {"rental_uris": {"ios": "https://dc.lft.to/lastmile_qr_scan", "android": "https://dc.lft.to/lastmile_qr_scan"}, "type": "electric_scooter", "name": "48add248c5542637326dda05e40af259", "is_reserved": 0, "lon": -77.0390635, "is_disabled": 0, "fusion_lat": 0.0, "lat": 38.9142265, "bike_id": "48add248c5542637326dda05e40af259", "fusion_lon": 0.0}, {"rental_uris": {"ios": "https://dc.lft.to/lastmile_qr_scan", "android": "https://dc.lft.to/lastmile_qr_scan"}, "type": "electric_scooter", "name": "0f3149caf433e5c924396c877da8372e", "is_reserved": 0, "lon": -77.02387083333333, "is_disabled": 0, "fusion_lat": 0.0, "lat": 38.92075766666667, "bike_id": "0f3149caf433e5c924396c877da8372e", "fusion_lon": 0.0}, {"rental_uris": {"ios": "https://dc.lft.to/lastmile_qr_scan", "android": "https://dc.lft.to/lastmile_qr_scan"}, "type": "electric_scooter", "name": "a18dbcb70f059e12a2432cfe95f15e22", "is_reserved": 0, "lon": -77.032212, "is_disabled": 0, "fusion_lat": 0.0, "lat": 38.892231333333335, "bike_id": "a18dbcb70f059e12a2432cfe95f15e22", "fusion_lon": 0.0}, {"rental_uris": {"ios": "https://dc.lft.to/lastmile_qr_scan", "android": "https://dc.lft.to/lastmile_qr_scan"}, "type": "electric_scooter", "name": "9f2b5b70825500571fbe046aeedd8a82", "is_reserved": 0, "lon": -77.0240305, "is_disabled": 0, "fusion_lat": 0.0, "lat": 38.935543333333335, "bike_id": "9f2b5b70825500571fbe046aeedd8a82", "fusion_lon": 0.0}, {"rental_uris": {"ios": "https://dc.lft.to/lastmile_qr_scan", "android": "https://dc.lft.to/lastmile_qr_scan"}, "type": "electric_scooter", "name": "c7bca1d231251e6d0e37608c57cb5b53", "is_reserved": 0, "lon": -77.02151883333333, "is_disabled": 0, "fusion_lat": 0.0, "lat": 38.88745216666667, "bike_id": "c7bca1d231251e6d0e37608c57cb5b53", "fusion_lon": 0.0}, {"rental_uris": {"ios": "https://dc.lft.to/lastmile_qr_scan", "android": "https://dc.lft.to/lastmile_qr_scan"}, "type": "electric_scooter", "name": "d170d8e28cce91aa5cf53646b5af71b9", "is_reserved": 0, "lon": -76.99628666666666, "is_disabled": 0, "fusion_lat": 0.0, "lat": 38.87736666666667, "bike_id": "d170d8e28cce91aa5cf53646b5af71b9", "fusion_lon": 0.0}, {"rental_uris": {"ios": "https://dc.lft.to/lastmile_qr_scan", "android": "https://dc.lft.to/lastmile_qr_scan"}, "type": "electric_scooter", "name": "f473d4c955706ef15db00eaa116cc0f8", "is_reserved": 0, "lon": -77.03256566666667, "is_disabled": 0, "fusion_lat": 0.0, "lat": 38.9285045, "bike_id": "f473d4c955706ef15db00eaa116cc0f8", "fusion_lon": 0.0}, {"rental_uris": {"ios": "https://dc.lft.to/lastmile_qr_scan", "android": "https://dc.lft.to/lastmile_qr_scan"}, "type": "electric_scooter", "name": "6988ea9922ec15152f13fb3ecfd8c965", "is_reserved": 0, "lon": -77.02111, "is_disabled": 0, "fusion_lat": 0.0, "lat": 38.9060285, "bike_id": "6988ea9922ec15152f13fb3ecfd8c965", "fusion_lon": 0.0}, {"rental_uris": {"ios": "https://dc.lft.to/lastmile_qr_scan", "android": "https://dc.lft.to/lastmile_qr_scan"}, "type": "electric_scooter", "name": "9c9e3f8070afb80c880e8eaae3bf71e0", "is_reserved": 0, "lon": -77.01779983333333, "is_disabled": 0, "fusion_lat": 0.0, "lat": 38.920349333333334, "bike_id": "9c9e3f8070afb80c880e8eaae3bf71e0", "fusion_lon": 0.0}, {"rental_uris": {"ios": "https://dc.lft.to/lastmile_qr_scan", "android": "https://dc.lft.to/lastmile_qr_scan"}, "type": "electric_scooter", "name": "53c2ae8032f56c0d08cf23b8a84b7ce0", "is_reserved": 0, "lon": -77.03899233333334, "is_disabled": 0, "fusion_lat": 0.0, "lat": 38.9314665, "bike_id": "53c2ae8032f56c0d08cf23b8a84b7ce0", "fusion_lon": 0.0}, {"rental_uris": {"ios": "https://dc.lft.to/lastmile_qr_scan", "android": "https://dc.lft.to/lastmile_qr_scan"}, "type": "electric_bike", "name": "cc6fe3de40c2cf561a4794308140547f", "is_reserved": 0, "lon": -76.98015316666667, "is_disabled": 0, "fusion_lat": 0.0, "lat": 38.85314, "bike_id": "cc6fe3de40c2cf561a4794308140547f", "fusion_lon": 0.0}, {"rental_uris": {"ios": "https://dc.lft.to/lastmile_qr_scan", "android": "https://dc.lft.to/lastmile_qr_scan"}, "type": "electric_scooter", "name": "395233f4696bb7d3015b8dd94ca516c5", "is_reserved": 0, "lon": -76.9815235, "is_disabled": 0, "fusion_lat": 0.0, "lat": 38.8994315, "bike_id": "395233f4696bb7d3015b8dd94ca516c5", "fusion_lon": 0.0}, {"rental_uris": {"ios": "https://dc.lft.to/lastmile_qr_scan", "android": "https://dc.lft.to/lastmile_qr_scan"}, "type": "electric_scooter", "name": "3e6410bd014d7ed18476f2fe46c57af6", "is_reserved": 0, "lon": -77.0196195, "is_disabled": 0, "fusion_lat": 0.0, "lat": 38.923285166666666, "bike_id": "3e6410bd014d7ed18476f2fe46c57af6", "fusion_lon": 0.0}, {"rental_uris": {"ios": "https://dc.lft.to/lastmile_qr_scan", "android": "https://dc.lft.to/lastmile_qr_scan"}, "type": "electric_scooter", "name": "97d84df22a1f3cb3261d7eff28928127", "is_reserved": 0, "lon": -77.0321425, "is_disabled": 0, "fusion_lat": 0.0, "lat": 38.92180416666667, "bike_id": "97d84df22a1f3cb3261d7eff28928127", "fusion_lon": 0.0}, {"rental_uris": {"ios": "https://dc.lft.to/lastmile_qr_scan", "android": "https://dc.lft.to/lastmile_qr_scan"}, "type": "electric_scooter", "name": "7cbb98de38a05743430a1e9ba975df42", "is_reserved": 0, "lon": -77.04084016666667, "is_disabled": 0, "fusion_lat": 0.0, "lat": 38.9478895, "bike_id": "7cbb98de38a05743430a1e9ba975df42", "fusion_lon": 0.0}, {"rental_uris": {"ios": "https://dc.lft.to/lastmile_qr_scan", "android": "https://dc.lft.to/lastmile_qr_scan"}, "type": "electric_bike", "name": "727985c1081def0ad2b85ddda82424d2", "is_reserved": 0, "lon": -76.98247333333333, "is_disabled": 0, "fusion_lat": 0.0, "lat": 38.952427, "bike_id": "727985c1081def0ad2b85ddda82424d2", "fusion_lon": 0.0}, {"rental_uris": {"ios": "https://dc.lft.to/lastmile_qr_scan", "android": "https://dc.lft.to/lastmile_qr_scan"}, "type": "electric_scooter", "name": "75a765c5b05e6efa9df101a8a9feb609", "is_reserved": 0, "lon": -77.00557166666667, "is_disabled": 0, "fusion_lat": 0.0, "lat": 38.878525833333335, "bike_id": "75a765c5b05e6efa9df101a8a9feb609", "fusion_lon": 0.0}, {"rental_uris": {"ios": "https://dc.lft.to/lastmile_qr_scan", "android": "https://dc.lft.to/lastmile_qr_scan"}, "type": "electric_scooter", "name": "8e5d5816743b7d4ac11205c327d457c6", "is_reserved": 0, "lon": -77.03664066666667, "is_disabled": 0, "fusion_lat": 0.0, "lat": 38.921215, "bike_id": "8e5d5816743b7d4ac11205c327d457c6", "fusion_lon": 0.0}, {"rental_uris": {"ios": "https://dc.lft.to/lastmile_qr_scan", "android": "https://dc.lft.to/lastmile_qr_scan"}, "type": "electric_scooter", "name": "6a71d6bd571c2e4750006be9048d1cff", "is_reserved": 0, "lon": -77.03814633333333, "is_disabled": 0, "fusion_lat": 0.0, "lat": 38.91416, "bike_id": "6a71d6bd571c2e4750006be9048d1cff", "fusion_lon": 0.0}, {"rental_uris": {"ios": "https://dc.lft.to/lastmile_qr_scan", "android": "https://dc.lft.to/lastmile_qr_scan"}, "type": "electric_scooter", "name": "471cc1e582a2a34b96133d28efce13cb", "is_reserved": 0, "lon": -77.0241855, "is_disabled": 0, "fusion_lat": 0.0, "lat": 38.921390333333335, "bike_id": "471cc1e582a2a34b96133d28efce13cb", "fusion_lon": 0.0}, {"rental_uris": {"ios": "https://dc.lft.to/lastmile_qr_scan", "android": "https://dc.lft.to/lastmile_qr_scan"}, "type": "electric_scooter", "name": "8b834dbd33ec703d8b737b6254a764e0", "is_reserved": 0, "lon": -77.04567983333334, "is_disabled": 0, "fusion_lat": 0.0, "lat": 38.920703, "bike_id": "8b834dbd33ec703d8b737b6254a764e0", "fusion_lon": 0.0}, {"rental_uris": {"ios": "https://dc.lft.to/lastmile_qr_scan", "android": "https://dc.lft.to/lastmile_qr_scan"}, "type": "electric_scooter", "name": "c06f565c630ea6ef557f64c4d22c52bc", "is_reserved": 0, "lon": -77.0417535, "is_disabled": 0, "fusion_lat": 0.0, "lat": 38.916170666666666, "bike_id": "c06f565c630ea6ef557f64c4d22c52bc", "fusion_lon": 0.0}, {"rental_uris": {"ios": "https://dc.lft.to/lastmile_qr_scan", "android": "https://dc.lft.to/lastmile_qr_scan"}, "type": "electric_scooter", "name": "60d7db5aa98e2a171b37b8295e80da76", "is_reserved": 0, "lon": -77.03848183333334, "is_disabled": 0, "fusion_lat": 0.0, "lat": 38.9166235, "bike_id": "60d7db5aa98e2a171b37b8295e80da76", "fusion_lon": 0.0}, {"rental_uris": {"ios": "https://dc.lft.to/lastmile_qr_scan", "android": "https://dc.lft.to/lastmile_qr_scan"}, "type": "electric_scooter", "name": "a073c50de39ca46a980ff6b8c561554c", "is_reserved": 0, "lon": -77.0386945, "is_disabled": 0, "fusion_lat": 0.0, "lat": 38.932304, "bike_id": "a073c50de39ca46a980ff6b8c561554c", "fusion_lon": 0.0}, {"rental_uris": {"ios": "https://dc.lft.to/lastmile_qr_scan", "android": "https://dc.lft.to/lastmile_qr_scan"}, "type": "electric_scooter", "name": "14cb7308d607aa7923c232b5a9dfba50", "is_reserved": 0, "lon": -77.02109483333334, "is_disabled": 0, "fusion_lat": 0.0, "lat": 38.90938583333333, "bike_id": "14cb7308d607aa7923c232b5a9dfba50", "fusion_lon": 0.0}, {"rental_uris": {"ios": "https://dc.lft.to/lastmile_qr_scan", "android": "https://dc.lft.to/lastmile_qr_scan"}, "type": "electric_scooter", "name": "3a3f493586d91367a4910ff12672ec37", "is_reserved": 0, "lon": -77.02427366666667, "is_disabled": 0, "fusion_lat": 0.0, "lat": 38.915555166666664, "bike_id": "3a3f493586d91367a4910ff12672ec37", "fusion_lon": 0.0}, {"rental_uris": {"ios": "https://dc.lft.to/lastmile_qr_scan", "android": "https://dc.lft.to/lastmile_qr_scan"}, "type": "electric_scooter", "name": "dfbc9f25e9afbfe24aece723c15f4d86", "is_reserved": 0, "lon": -77.086331, "is_disabled": 0, "fusion_lat": 0.0, "lat": 38.9382745, "bike_id": "dfbc9f25e9afbfe24aece723c15f4d86", "fusion_lon": 0.0}, {"rental_uris": {"ios": "https://dc.lft.to/lastmile_qr_scan", "android": "https://dc.lft.to/lastmile_qr_scan"}, "type": "electric_scooter", "name": "a43491a2e226b3151af2ec6fd6776eb5", "is_reserved": 0, "lon": -77.014604, "is_disabled": 0, "fusion_lat": 0.0, "lat": 38.8794235, "bike_id": "a43491a2e226b3151af2ec6fd6776eb5", "fusion_lon": 0.0}, {"rental_uris": {"ios": "https://dc.lft.to/lastmile_qr_scan", "android": "https://dc.lft.to/lastmile_qr_scan"}, "type": "electric_scooter", "name": "e00a120d097abcfb5f734f72a6366e8e", "is_reserved": 0, "lon": -76.94872016666666, "is_disabled": 0, "fusion_lat": 0.0, "lat": 38.89485033333333, "bike_id": "e00a120d097abcfb5f734f72a6366e8e", "fusion_lon": 0.0}, {"rental_uris": {"ios": "https://dc.lft.to/lastmile_qr_scan", "android": "https://dc.lft.to/lastmile_qr_scan"}, "type": "electric_bike", "name": "e34bd6aeeb0780db49fe9fb0371cef94", "is_reserved": 0, "lon": -77.09454166666667, "is_disabled": 0, "fusion_lat": 0.0, "lat": 38.80756683333333, "bike_id": "e34bd6aeeb0780db49fe9fb0371cef94", "fusion_lon": 0.0}, {"rental_uris": {"ios": "https://dc.lft.to/lastmile_qr_scan", "android": "https://dc.lft.to/lastmile_qr_scan"}, "type": "electric_bike", "name": "af2b225235167c029a5e268aa40112d2", "is_reserved": 0, "lon": -77.08568266666667, "is_disabled": 0, "fusion_lat": 0.0, "lat": 38.874198166666666, "bike_id": "af2b225235167c029a5e268aa40112d2", "fusion_lon": 0.0}, {"rental_uris": {"ios": "https://dc.lft.to/lastmile_qr_scan", "android": "https://dc.lft.to/lastmile_qr_scan"}, "type": "electric_scooter", "name": "c18dcfb22a22bcd7f85398387a4ef1b2", "is_reserved": 0, "lon": -77.04223033333334, "is_disabled": 0, "fusion_lat": 0.0, "lat": 38.921699, "bike_id": "c18dcfb22a22bcd7f85398387a4ef1b2", "fusion_lon": 0.0}, {"rental_uris": {"ios": "https://dc.lft.to/lastmile_qr_scan", "android": "https://dc.lft.to/lastmile_qr_scan"}, "type": "electric_scooter", "name": "5067e3e7680ab72c614c90eb4a4818bf", "is_reserved": 0, "lon": -77.0422815, "is_disabled": 0, "fusion_lat": 0.0, "lat": 38.92286766666667, "bike_id": "5067e3e7680ab72c614c90eb4a4818bf", "fusion_lon": 0.0}, {"rental_uris": {"ios": "https://dc.lft.to/lastmile_qr_scan", "android": "https://dc.lft.to/lastmile_qr_scan"}, "type": "electric_scooter", "name": "203bff10b520faa644fc21981b033904", "is_reserved": 0, "lon": -77.02588533333333, "is_disabled": 0, "fusion_lat": 0.0, "lat": 38.901017833333334, "bike_id": "203bff10b520faa644fc21981b033904", "fusion_lon": 0.0}, {"rental_uris": {"ios": "https://dc.lft.to/lastmile_qr_scan", "android": "https://dc.lft.to/lastmile_qr_scan"}, "type": "electric_scooter", "name": "ec8679e1aedb5b8d6dccbd6ce9763964", "is_reserved": 0, "lon": -77.01825983333333, "is_disabled": 0, "fusion_lat": 0.0, "lat": 38.922508, "bike_id": "ec8679e1aedb5b8d6dccbd6ce9763964", "fusion_lon": 0.0}, {"rental_uris": {"ios": "https://dc.lft.to/lastmile_qr_scan", "android": "https://dc.lft.to/lastmile_qr_scan"}, "type": "electric_scooter", "name": "0cc3b9905483b3ca9d14b40511ff12b0", "is_reserved": 0, "lon": -77.04406233333333, "is_disabled": 0, "fusion_lat": 0.0, "lat": 38.895919, "bike_id": "0cc3b9905483b3ca9d14b40511ff12b0", "fusion_lon": 0.0}, {"rental_uris": {"ios": "https://dc.lft.to/lastmile_qr_scan", "android": "https://dc.lft.to/lastmile_qr_scan"}, "type": "electric_scooter", "name": "8d18db8b633cf4b3f736d5f363420033", "is_reserved": 0, "lon": -77.022039, "is_disabled": 0, "fusion_lat": 0.0, "lat": 38.95155533333333, "bike_id": "8d18db8b633cf4b3f736d5f363420033", "fusion_lon": 0.0}, {"rental_uris": {"ios": "https://dc.lft.to/lastmile_qr_scan", "android": "https://dc.lft.to/lastmile_qr_scan"}, "type": "electric_scooter", "name": "74b0a30e80a9d12a20ea7a81dfcaa122", "is_reserved": 0, "lon": -77.05818066666667, "is_disabled": 0, "fusion_lat": 0.0, "lat": 38.93518133333333, "bike_id": "74b0a30e80a9d12a20ea7a81dfcaa122", "fusion_lon": 0.0}, {"rental_uris": {"ios": "https://dc.lft.to/lastmile_qr_scan", "android": "https://dc.lft.to/lastmile_qr_scan"}, "type": "electric_scooter", "name": "5efe37b15dfbb30738c603fb2fcf08b1", "is_reserved": 0, "lon": -76.99965933333333, "is_disabled": 0, "fusion_lat": 0.0, "lat": 38.89199333333333, "bike_id": "5efe37b15dfbb30738c603fb2fcf08b1", "fusion_lon": 0.0}, {"rental_uris": {"ios": "https://dc.lft.to/lastmile_qr_scan", "android": "https://dc.lft.to/lastmile_qr_scan"}, "type": "electric_scooter", "name": "b8313bf393a3696aa33da893947ec73c", "is_reserved": 0, "lon": -77.04118966666667, "is_disabled": 0, "fusion_lat": 0.0, "lat": 38.92880733333333, "bike_id": "b8313bf393a3696aa33da893947ec73c", "fusion_lon": 0.0}, {"rental_uris": {"ios": "https://dc.lft.to/lastmile_qr_scan", "android": "https://dc.lft.to/lastmile_qr_scan"}, "type": "electric_scooter", "name": "9241107ea29121bd718f16e10d8dcf76", "is_reserved": 0, "lon": -77.05507483333334, "is_disabled": 0, "fusion_lat": 0.0, "lat": 38.928376666666665, "bike_id": "9241107ea29121bd718f16e10d8dcf76", "fusion_lon": 0.0}, {"rental_uris": {"ios": "https://dc.lft.to/lastmile_qr_scan", "android": "https://dc.lft.to/lastmile_qr_scan"}, "type": "electric_scooter", "name": "02333bfd80998dca87ba74c4bcd6c67c", "is_reserved": 0, "lon": -77.04696083333333, "is_disabled": 0, "fusion_lat": 0.0, "lat": 38.920636333333334, "bike_id": "02333bfd80998dca87ba74c4bcd6c67c", "fusion_lon": 0.0}, {"rental_uris": {"ios": "https://dc.lft.to/lastmile_qr_scan", "android": "https://dc.lft.to/lastmile_qr_scan"}, "type": "electric_scooter", "name": "e6b00a7f645718c2a2e80a90c4d709d6", "is_reserved": 0, "lon": -77.02824866666667, "is_disabled": 0, "fusion_lat": 0.0, "lat": 38.9324695, "bike_id": "e6b00a7f645718c2a2e80a90c4d709d6", "fusion_lon": 0.0}, {"rental_uris": {"ios": "https://dc.lft.to/lastmile_qr_scan", "android": "https://dc.lft.to/lastmile_qr_scan"}, "type": "electric_scooter", "name": "52e41b34723cf33fd1eeeb272cc5efa4", "is_reserved": 0, "lon": -77.0506465, "is_disabled": 0, "fusion_lat": 0.0, "lat": 38.923615166666664, "bike_id": "52e41b34723cf33fd1eeeb272cc5efa4", "fusion_lon": 0.0}, {"rental_uris": {"ios": "https://dc.lft.to/lastmile_qr_scan", "android": "https://dc.lft.to/lastmile_qr_scan"}, "type": "electric_scooter", "name": "a2008e1d6a42f242d91e50e9e3062a8b", "is_reserved": 0, "lon": -77.03499566666666, "is_disabled": 0, "fusion_lat": 0.0, "lat": 38.915529, "bike_id": "a2008e1d6a42f242d91e50e9e3062a8b", "fusion_lon": 0.0}, {"rental_uris": {"ios": "https://dc.lft.to/lastmile_qr_scan", "android": "https://dc.lft.to/lastmile_qr_scan"}, "type": "electric_scooter", "name": "3f0a835b7f16d091d84e78c700175c03", "is_reserved": 0, "lon": -77.0716765, "is_disabled": 0, "fusion_lat": 0.0, "lat": 38.907833833333335, "bike_id": "3f0a835b7f16d091d84e78c700175c03", "fusion_lon": 0.0}, {"rental_uris": {"ios": "https://dc.lft.to/lastmile_qr_scan", "android": "https://dc.lft.to/lastmile_qr_scan"}, "type": "electric_scooter", "name": "1164999a9e8ee0120f685012bf9b60e4", "is_reserved": 0, "lon": -77.0176905, "is_disabled": 0, "fusion_lat": 0.0, "lat": 38.920502166666665, "bike_id": "1164999a9e8ee0120f685012bf9b60e4", "fusion_lon": 0.0}, {"rental_uris": {"ios": "https://dc.lft.to/lastmile_qr_scan", "android": "https://dc.lft.to/lastmile_qr_scan"}, "type": "electric_scooter", "name": "e5f345cf4ca4b5555ef0e436d341f8e4", "is_reserved": 0, "lon": -77.0611875, "is_disabled": 0, "fusion_lat": 0.0, "lat": 38.903769833333335, "bike_id": "e5f345cf4ca4b5555ef0e436d341f8e4", "fusion_lon": 0.0}, {"rental_uris": {"ios": "https://dc.lft.to/lastmile_qr_scan", "android": "https://dc.lft.to/lastmile_qr_scan"}, "type": "electric_scooter", "name": "2b3560718f8015a5cff1d18f94c5e2a6", "is_reserved": 0, "lon": -77.0025315, "is_disabled": 0, "fusion_lat": 0.0, "lat": 38.902629166666664, "bike_id": "2b3560718f8015a5cff1d18f94c5e2a6", "fusion_lon": 0.0}, {"rental_uris": {"ios": "https://dc.lft.to/lastmile_qr_scan", "android": "https://dc.lft.to/lastmile_qr_scan"}, "type": "electric_scooter", "name": "6a767e43cbc241289c47f380037892d6", "is_reserved": 0, "lon": -77.00309466666667, "is_disabled": 0, "fusion_lat": 0.0, "lat": 38.877142166666665, "bike_id": "6a767e43cbc241289c47f380037892d6", "fusion_lon": 0.0}, {"rental_uris": {"ios": "https://dc.lft.to/lastmile_qr_scan", "android": "https://dc.lft.to/lastmile_qr_scan"}, "type": "electric_scooter", "name": "7ec26c0ffeb6397394d24c351201bda3", "is_reserved": 0, "lon": -77.0124, "is_disabled": 0, "fusion_lat": 0.0, "lat": 38.881037, "bike_id": "7ec26c0ffeb6397394d24c351201bda3", "fusion_lon": 0.0}, {"rental_uris": {"ios": "https://dc.lft.to/lastmile_qr_scan", "android": "https://dc.lft.to/lastmile_qr_scan"}, "type": "electric_scooter", "name": "bb7884844653560e3e1feab0f167456c", "is_reserved": 0, "lon": -77.02965616666667, "is_disabled": 0, "fusion_lat": 0.0, "lat": 38.92316533333333, "bike_id": "bb7884844653560e3e1feab0f167456c", "fusion_lon": 0.0}, {"rental_uris": {"ios": "https://dc.lft.to/lastmile_qr_scan", "android": "https://dc.lft.to/lastmile_qr_scan"}, "type": "electric_scooter", "name": "f11e6987dd7ec8e7c639b20a689dc72e", "is_reserved": 0, "lon": -77.02089866666667, "is_disabled": 0, "fusion_lat": 0.0, "lat": 38.9291315, "bike_id": "f11e6987dd7ec8e7c639b20a689dc72e", "fusion_lon": 0.0}, {"rental_uris": {"ios": "https://dc.lft.to/lastmile_qr_scan", "android": "https://dc.lft.to/lastmile_qr_scan"}, "type": "electric_scooter", "name": "7abf2167dc8ee7329376e5732cc54efc", "is_reserved": 0, "lon": -77.0272785, "is_disabled": 0, "fusion_lat": 0.0, "lat": 38.910675499999996, "bike_id": "7abf2167dc8ee7329376e5732cc54efc", "fusion_lon": 0.0}, {"rental_uris": {"ios": "https://dc.lft.to/lastmile_qr_scan", "android": "https://dc.lft.to/lastmile_qr_scan"}, "type": "electric_scooter", "name": "6854c3ef02b4a51b933b5a7355f65b24", "is_reserved": 0, "lon": -77.06113383333333, "is_disabled": 0, "fusion_lat": 0.0, "lat": 38.9128835, "bike_id": "6854c3ef02b4a51b933b5a7355f65b24", "fusion_lon": 0.0}, {"rental_uris": {"ios": "https://dc.lft.to/lastmile_qr_scan", "android": "https://dc.lft.to/lastmile_qr_scan"}, "type": "electric_scooter", "name": "3b618526207a03f983979fa0b00439fa", "is_reserved": 0, "lon": -77.013274, "is_disabled": 0, "fusion_lat": 0.0, "lat": 38.9202805, "bike_id": "3b618526207a03f983979fa0b00439fa", "fusion_lon": 0.0}, {"rental_uris": {"ios": "https://dc.lft.to/lastmile_qr_scan", "android": "https://dc.lft.to/lastmile_qr_scan"}, "type": "electric_scooter", "name": "3fb283a8c7a12044dbb2fdb61f44d1d7", "is_reserved": 0, "lon": -77.04331116666667, "is_disabled": 0, "fusion_lat": 0.0, "lat": 38.92170216666667, "bike_id": "3fb283a8c7a12044dbb2fdb61f44d1d7", "fusion_lon": 0.0}, {"rental_uris": {"ios": "https://dc.lft.to/lastmile_qr_scan", "android": "https://dc.lft.to/lastmile_qr_scan"}, "type": "electric_scooter", "name": "9208a718f254cec35a5f8718ef2c059d", "is_reserved": 0, "lon": -76.99105483333334, "is_disabled": 0, "fusion_lat": 0.0, "lat": 38.85732316666667, "bike_id": "9208a718f254cec35a5f8718ef2c059d", "fusion_lon": 0.0}, {"rental_uris": {"ios": "https://dc.lft.to/lastmile_qr_scan", "android": "https://dc.lft.to/lastmile_qr_scan"}, "type": "electric_scooter", "name": "15c186510dee975110afd7edd15332a7", "is_reserved": 0, "lon": -77.04340016666667, "is_disabled": 0, "fusion_lat": 0.0, "lat": 38.903282833333336, "bike_id": "15c186510dee975110afd7edd15332a7", "fusion_lon": 0.0}, {"rental_uris": {"ios": "https://dc.lft.to/lastmile_qr_scan", "android": "https://dc.lft.to/lastmile_qr_scan"}, "type": "electric_scooter", "name": "3bfe5836e4d7673572529925190ffb49", "is_reserved": 0, "lon": -77.01560016666667, "is_disabled": 0, "fusion_lat": 0.0, "lat": 38.9027045, "bike_id": "3bfe5836e4d7673572529925190ffb49", "fusion_lon": 0.0}, {"rental_uris": {"ios": "https://dc.lft.to/lastmile_qr_scan", "android": "https://dc.lft.to/lastmile_qr_scan"}, "type": "electric_scooter", "name": "eaec7109c9fc39fe445575f6414763b5", "is_reserved": 0, "lon": -77.041637, "is_disabled": 0, "fusion_lat": 0.0, "lat": 38.919950166666666, "bike_id": "eaec7109c9fc39fe445575f6414763b5", "fusion_lon": 0.0}, {"rental_uris": {"ios": "https://dc.lft.to/lastmile_qr_scan", "android": "https://dc.lft.to/lastmile_qr_scan"}, "type": "electric_scooter", "name": "044e1a229e8541ed499b2981c07ad1d8", "is_reserved": 0, "lon": -77.07115916666666, "is_disabled": 0, "fusion_lat": 0.0, "lat": 38.90587683333333, "bike_id": "044e1a229e8541ed499b2981c07ad1d8", "fusion_lon": 0.0}, {"rental_uris": {"ios": "https://dc.lft.to/lastmile_qr_scan", "android": "https://dc.lft.to/lastmile_qr_scan"}, "type": "electric_scooter", "name": "fb8c8ea5e809a1a2c882db88ce43cf21", "is_reserved": 0, "lon": -76.98887316666666, "is_disabled": 0, "fusion_lat": 0.0, "lat": 38.899572666666664, "bike_id": "fb8c8ea5e809a1a2c882db88ce43cf21", "fusion_lon": 0.0}, {"rental_uris": {"ios": "https://dc.lft.to/lastmile_qr_scan", "android": "https://dc.lft.to/lastmile_qr_scan"}, "type": "electric_scooter", "name": "a2383611f2074221a75fde45734b91a9", "is_reserved": 0, "lon": -77.04182616666667, "is_disabled": 0, "fusion_lat": 0.0, "lat": 38.901450833333335, "bike_id": "a2383611f2074221a75fde45734b91a9", "fusion_lon": 0.0}, {"rental_uris": {"ios": "https://dc.lft.to/lastmile_qr_scan", "android": "https://dc.lft.to/lastmile_qr_scan"}, "type": "electric_scooter", "name": "250f8e533a16f00a2879bfbbee899966", "is_reserved": 0, "lon": -77.02211433333333, "is_disabled": 0, "fusion_lat": 0.0, "lat": 38.91415283333333, "bike_id": "250f8e533a16f00a2879bfbbee899966", "fusion_lon": 0.0}, {"rental_uris": {"ios": "https://dc.lft.to/lastmile_qr_scan", "android": "https://dc.lft.to/lastmile_qr_scan"}, "type": "electric_scooter", "name": "be64b5b83e79e3d900153ee14ba42d7b", "is_reserved": 0, "lon": -77.00878416666667, "is_disabled": 0, "fusion_lat": 0.0, "lat": 38.91554133333333, "bike_id": "be64b5b83e79e3d900153ee14ba42d7b", "fusion_lon": 0.0}, {"rental_uris": {"ios": "https://dc.lft.to/lastmile_qr_scan", "android": "https://dc.lft.to/lastmile_qr_scan"}, "type": "electric_scooter", "name": "381f4d863729ca341b6f4e40009887ab", "is_reserved": 0, "lon": -77.035373, "is_disabled": 0, "fusion_lat": 0.0, "lat": 38.923895, "bike_id": "381f4d863729ca341b6f4e40009887ab", "fusion_lon": 0.0}, {"rental_uris": {"ios": "https://dc.lft.to/lastmile_qr_scan", "android": "https://dc.lft.to/lastmile_qr_scan"}, "type": "electric_scooter", "name": "7698dd8e3a1c4cf8d5f7a76a698c320b", "is_reserved": 0, "lon": -77.04862433333334, "is_disabled": 0, "fusion_lat": 0.0, "lat": 38.892215, "bike_id": "7698dd8e3a1c4cf8d5f7a76a698c320b", "fusion_lon": 0.0}, {"rental_uris": {"ios": "https://dc.lft.to/lastmile_qr_scan", "android": "https://dc.lft.to/lastmile_qr_scan"}, "type": "electric_scooter", "name": "42b52400af09876ca9179c265d32163c", "is_reserved": 0, "lon": -77.038613, "is_disabled": 0, "fusion_lat": 0.0, "lat": 38.90872516666667, "bike_id": "42b52400af09876ca9179c265d32163c", "fusion_lon": 0.0}, {"rental_uris": {"ios": "https://dc.lft.to/lastmile_qr_scan", "android": "https://dc.lft.to/lastmile_qr_scan"}, "type": "electric_scooter", "name": "d658394736d0a21c8c67b2332db079b8", "is_reserved": 0, "lon": -77.0319665, "is_disabled": 0, "fusion_lat": 0.0, "lat": 38.91820116666667, "bike_id": "d658394736d0a21c8c67b2332db079b8", "fusion_lon": 0.0}, {"rental_uris": {"ios": "https://dc.lft.to/lastmile_qr_scan", "android": "https://dc.lft.to/lastmile_qr_scan"}, "type": "electric_scooter", "name": "93bafe47a217d968d6be43cb7655e181", "is_reserved": 0, "lon": -77.01871733333333, "is_disabled": 0, "fusion_lat": 0.0, "lat": 38.930506666666666, "bike_id": "93bafe47a217d968d6be43cb7655e181", "fusion_lon": 0.0}, {"rental_uris": {"ios": "https://dc.lft.to/lastmile_qr_scan", "android": "https://dc.lft.to/lastmile_qr_scan"}, "type": "electric_bike", "name": "7692cc49a78e85cf779da953a3b3533d", "is_reserved": 0, "lon": -77.06702316666667, "is_disabled": 0, "fusion_lat": 0.0, "lat": 38.83174, "bike_id": "7692cc49a78e85cf779da953a3b3533d", "fusion_lon": 0.0}, {"rental_uris": {"ios": "https://dc.lft.to/lastmile_qr_scan", "android": "https://dc.lft.to/lastmile_qr_scan"}, "type": "electric_scooter", "name": "400091cc4a656004540acc743267ea97", "is_reserved": 0, "lon": -77.01753133333334, "is_disabled": 0, "fusion_lat": 0.0, "lat": 38.8768205, "bike_id": "400091cc4a656004540acc743267ea97", "fusion_lon": 0.0}, {"rental_uris": {"ios": "https://dc.lft.to/lastmile_qr_scan", "android": "https://dc.lft.to/lastmile_qr_scan"}, "type": "electric_scooter", "name": "0097b8d6b7ae59d745a79813e7574b0c", "is_reserved": 0, "lon": -77.05342133333333, "is_disabled": 0, "fusion_lat": 0.0, "lat": 38.90232866666667, "bike_id": "0097b8d6b7ae59d745a79813e7574b0c", "fusion_lon": 0.0}, {"rental_uris": {"ios": "https://dc.lft.to/lastmile_qr_scan", "android": "https://dc.lft.to/lastmile_qr_scan"}, "type": "electric_scooter", "name": "e701fbaacdb2b430e4bbae4253679611", "is_reserved": 0, "lon": -77.02261233333333, "is_disabled": 0, "fusion_lat": 0.0, "lat": 38.924132, "bike_id": "e701fbaacdb2b430e4bbae4253679611", "fusion_lon": 0.0}, {"rental_uris": {"ios": "https://dc.lft.to/lastmile_qr_scan", "android": "https://dc.lft.to/lastmile_qr_scan"}, "type": "electric_scooter", "name": "cafc258e0ea95948c3ec1c1c4b396698", "is_reserved": 0, "lon": -77.02793633333333, "is_disabled": 0, "fusion_lat": 0.0, "lat": 38.95611616666667, "bike_id": "cafc258e0ea95948c3ec1c1c4b396698", "fusion_lon": 0.0}, {"rental_uris": {"ios": "https://dc.lft.to/lastmile_qr_scan", "android": "https://dc.lft.to/lastmile_qr_scan"}, "type": "electric_scooter", "name": "72788ab28a197820b0ac3b62ca4a8a8b", "is_reserved": 0, "lon": -77.00787166666667, "is_disabled": 0, "fusion_lat": 0.0, "lat": 38.87837733333333, "bike_id": "72788ab28a197820b0ac3b62ca4a8a8b", "fusion_lon": 0.0}, {"rental_uris": {"ios": "https://dc.lft.to/lastmile_qr_scan", "android": "https://dc.lft.to/lastmile_qr_scan"}, "type": "electric_scooter", "name": "6e29f1e5566c426277c7ccfc850181c5", "is_reserved": 0, "lon": -76.97046216666666, "is_disabled": 0, "fusion_lat": 0.0, "lat": 38.8732255, "bike_id": "6e29f1e5566c426277c7ccfc850181c5", "fusion_lon": 0.0}, {"rental_uris": {"ios": "https://dc.lft.to/lastmile_qr_scan", "android": "https://dc.lft.to/lastmile_qr_scan"}, "type": "electric_scooter", "name": "147adf425baca4d35b0844a4e2719822", "is_reserved": 0, "lon": -77.027229, "is_disabled": 0, "fusion_lat": 0.0, "lat": 38.91009416666667, "bike_id": "147adf425baca4d35b0844a4e2719822", "fusion_lon": 0.0}, {"rental_uris": {"ios": "https://dc.lft.to/lastmile_qr_scan", "android": "https://dc.lft.to/lastmile_qr_scan"}, "type": "electric_scooter", "name": "079f6e63f7bc00df70225a771702db60", "is_reserved": 0, "lon": -77.03234933333333, "is_disabled": 0, "fusion_lat": 0.0, "lat": 38.9104985, "bike_id": "079f6e63f7bc00df70225a771702db60", "fusion_lon": 0.0}, {"rental_uris": {"ios": "https://dc.lft.to/lastmile_qr_scan", "android": "https://dc.lft.to/lastmile_qr_scan"}, "type": "electric_scooter", "name": "2f2c4bcbd94004cd6c68d7e71a552b32", "is_reserved": 0, "lon": -77.02899866666667, "is_disabled": 0, "fusion_lat": 0.0, "lat": 38.940429333333334, "bike_id": "2f2c4bcbd94004cd6c68d7e71a552b32", "fusion_lon": 0.0}, {"rental_uris": {"ios": "https://dc.lft.to/lastmile_qr_scan", "android": "https://dc.lft.to/lastmile_qr_scan"}, "type": "electric_scooter", "name": "0c8ef7ceb8ed08c843e12c578745456c", "is_reserved": 0, "lon": -77.0273385, "is_disabled": 0, "fusion_lat": 0.0, "lat": 38.93464633333333, "bike_id": "0c8ef7ceb8ed08c843e12c578745456c", "fusion_lon": 0.0}, {"rental_uris": {"ios": "https://dc.lft.to/lastmile_qr_scan", "android": "https://dc.lft.to/lastmile_qr_scan"}, "type": "electric_scooter", "name": "19c8d4cdeb04f96b70c1612aca9243f9", "is_reserved": 0, "lon": -77.019959, "is_disabled": 0, "fusion_lat": 0.0, "lat": 38.876074, "bike_id": "19c8d4cdeb04f96b70c1612aca9243f9", "fusion_lon": 0.0}, {"rental_uris": {"ios": "https://dc.lft.to/lastmile_qr_scan", "android": "https://dc.lft.to/lastmile_qr_scan"}, "type": "electric_scooter", "name": "b8c99df1a8162b2990af1e6bbb21e192", "is_reserved": 0, "lon": -77.01604883333333, "is_disabled": 0, "fusion_lat": 0.0, "lat": 38.91759883333334, "bike_id": "b8c99df1a8162b2990af1e6bbb21e192", "fusion_lon": 0.0}, {"rental_uris": {"ios": "https://dc.lft.to/lastmile_qr_scan", "android": "https://dc.lft.to/lastmile_qr_scan"}, "type": "electric_scooter", "name": "c630c04f3f3ec19f04d0c883c295ce8e", "is_reserved": 0, "lon": -77.04701466666667, "is_disabled": 0, "fusion_lat": 0.0, "lat": 38.896057666666664, "bike_id": "c630c04f3f3ec19f04d0c883c295ce8e", "fusion_lon": 0.0}, {"rental_uris": {"ios": "https://dc.lft.to/lastmile_qr_scan", "android": "https://dc.lft.to/lastmile_qr_scan"}, "type": "electric_scooter", "name": "e2eb4672b1554043787addf6498fc663", "is_reserved": 0, "lon": -77.00216566666667, "is_disabled": 0, "fusion_lat": 0.0, "lat": 38.900378, "bike_id": "e2eb4672b1554043787addf6498fc663", "fusion_lon": 0.0}, {"rental_uris": {"ios": "https://dc.lft.to/lastmile_qr_scan", "android": "https://dc.lft.to/lastmile_qr_scan"}, "type": "electric_scooter", "name": "5dc5f8aea9488c9af3818e4380bb4f1e", "is_reserved": 0, "lon": -76.99129983333333, "is_disabled": 0, "fusion_lat": 0.0, "lat": 38.909019, "bike_id": "5dc5f8aea9488c9af3818e4380bb4f1e", "fusion_lon": 0.0}, {"rental_uris": {"ios": "https://dc.lft.to/lastmile_qr_scan", "android": "https://dc.lft.to/lastmile_qr_scan"}, "type": "electric_scooter", "name": "d198a9909d26f24260fad90800111018", "is_reserved": 0, "lon": -77.03864616666667, "is_disabled": 0, "fusion_lat": 0.0, "lat": 38.912679833333335, "bike_id": "d198a9909d26f24260fad90800111018", "fusion_lon": 0.0}, {"rental_uris": {"ios": "https://dc.lft.to/lastmile_qr_scan", "android": "https://dc.lft.to/lastmile_qr_scan"}, "type": "electric_bike", "name": "2b729f48925de80b748ed2a547895219", "is_reserved": 0, "lon": -77.1283935, "is_disabled": 0, "fusion_lat": 0.0, "lat": 38.80054666666667, "bike_id": "2b729f48925de80b748ed2a547895219", "fusion_lon": 0.0}, {"rental_uris": {"ios": "https://dc.lft.to/lastmile_qr_scan", "android": "https://dc.lft.to/lastmile_qr_scan"}, "type": "electric_scooter", "name": "ad3ac1ab3c6825d289d18cad2287a98e", "is_reserved": 0, "lon": -77.04380166666667, "is_disabled": 0, "fusion_lat": 0.0, "lat": 38.93421433333334, "bike_id": "ad3ac1ab3c6825d289d18cad2287a98e", "fusion_lon": 0.0}, {"rental_uris": {"ios": "https://dc.lft.to/lastmile_qr_scan", "android": "https://dc.lft.to/lastmile_qr_scan"}, "type": "electric_scooter", "name": "28d8f3267090a2430748ae2f9cede40f", "is_reserved": 0, "lon": -77.03160933333334, "is_disabled": 0, "fusion_lat": 0.0, "lat": 38.95937383333333, "bike_id": "28d8f3267090a2430748ae2f9cede40f", "fusion_lon": 0.0}, {"rental_uris": {"ios": "https://dc.lft.to/lastmile_qr_scan", "android": "https://dc.lft.to/lastmile_qr_scan"}, "type": "electric_scooter", "name": "2e854f7b701a6e409926433c718cc8f3", "is_reserved": 0, "lon": -77.03349333333334, "is_disabled": 0, "fusion_lat": 0.0, "lat": 38.8953395, "bike_id": "2e854f7b701a6e409926433c718cc8f3", "fusion_lon": 0.0}, {"rental_uris": {"ios": "https://dc.lft.to/lastmile_qr_scan", "android": "https://dc.lft.to/lastmile_qr_scan"}, "type": "electric_scooter", "name": "2e56d96d99e80c04f8066e582340a739", "is_reserved": 0, "lon": -77.03305266666666, "is_disabled": 0, "fusion_lat": 0.0, "lat": 38.9170735, "bike_id": "2e56d96d99e80c04f8066e582340a739", "fusion_lon": 0.0}, {"rental_uris": {"ios": "https://dc.lft.to/lastmile_qr_scan", "android": "https://dc.lft.to/lastmile_qr_scan"}, "type": "electric_scooter", "name": "8c468596836fae9eb1a17bdc937075d4", "is_reserved": 0, "lon": -76.99068766666667, "is_disabled": 0, "fusion_lat": 0.0, "lat": 38.904204, "bike_id": "8c468596836fae9eb1a17bdc937075d4", "fusion_lon": 0.0}, {"rental_uris": {"ios": "https://dc.lft.to/lastmile_qr_scan", "android": "https://dc.lft.to/lastmile_qr_scan"}, "type": "electric_scooter", "name": "73ffa726a7f64b4d54ac7a8747084e3a", "is_reserved": 0, "lon": -77.01230133333334, "is_disabled": 0, "fusion_lat": 0.0, "lat": 38.915797, "bike_id": "73ffa726a7f64b4d54ac7a8747084e3a", "fusion_lon": 0.0}, {"rental_uris": {"ios": "https://dc.lft.to/lastmile_qr_scan", "android": "https://dc.lft.to/lastmile_qr_scan"}, "type": "electric_scooter", "name": "0ed4f5b0f0a774583c796b886faeaff9", "is_reserved": 0, "lon": -77.03656116666667, "is_disabled": 0, "fusion_lat": 0.0, "lat": 38.92375, "bike_id": "0ed4f5b0f0a774583c796b886faeaff9", "fusion_lon": 0.0}, {"rental_uris": {"ios": "https://dc.lft.to/lastmile_qr_scan", "android": "https://dc.lft.to/lastmile_qr_scan"}, "type": "electric_scooter", "name": "bd1c1ea0d673c3f6538aef20ecd75564", "is_reserved": 0, "lon": -77.0512375, "is_disabled": 0, "fusion_lat": 0.0, "lat": 38.923486, "bike_id": "bd1c1ea0d673c3f6538aef20ecd75564", "fusion_lon": 0.0}, {"rental_uris": {"ios": "https://dc.lft.to/lastmile_qr_scan", "android": "https://dc.lft.to/lastmile_qr_scan"}, "type": "electric_bike", "name": "446cd8eee0f96e5bb3a8f783709cb900", "is_reserved": 0, "lon": -77.00772166666667, "is_disabled": 0, "fusion_lat": 0.0, "lat": 38.98136, "bike_id": "446cd8eee0f96e5bb3a8f783709cb900", "fusion_lon": 0.0}, {"rental_uris": {"ios": "https://dc.lft.to/lastmile_qr_scan", "android": "https://dc.lft.to/lastmile_qr_scan"}, "type": "electric_scooter", "name": "a02dd4db99dd182a2186dea965ff012d", "is_reserved": 0, "lon": -77.027192, "is_disabled": 0, "fusion_lat": 0.0, "lat": 38.9026755, "bike_id": "a02dd4db99dd182a2186dea965ff012d", "fusion_lon": 0.0}, {"rental_uris": {"ios": "https://dc.lft.to/lastmile_qr_scan", "android": "https://dc.lft.to/lastmile_qr_scan"}, "type": "electric_scooter", "name": "5b4bfc9ffafc9907714b5a6105b0e339", "is_reserved": 0, "lon": -77.018875, "is_disabled": 0, "fusion_lat": 0.0, "lat": 38.8974875, "bike_id": "5b4bfc9ffafc9907714b5a6105b0e339", "fusion_lon": 0.0}, {"rental_uris": {"ios": "https://dc.lft.to/lastmile_qr_scan", "android": "https://dc.lft.to/lastmile_qr_scan"}, "type": "electric_scooter", "name": "ce0fd16a9a28ff8dcdfacfb2e0f009f4", "is_reserved": 0, "lon": -76.92634733333334, "is_disabled": 0, "fusion_lat": 0.0, "lat": 38.9019115, "bike_id": "ce0fd16a9a28ff8dcdfacfb2e0f009f4", "fusion_lon": 0.0}, {"rental_uris": {"ios": "https://dc.lft.to/lastmile_qr_scan", "android": "https://dc.lft.to/lastmile_qr_scan"}, "type": "electric_bike", "name": "fc038ed8cf16ca89d377364967c59181", "is_reserved": 0, "lon": -77.00157966666667, "is_disabled": 0, "fusion_lat": 0.0, "lat": 38.9416445, "bike_id": "fc038ed8cf16ca89d377364967c59181", "fusion_lon": 0.0}, {"rental_uris": {"ios": "https://dc.lft.to/lastmile_qr_scan", "android": "https://dc.lft.to/lastmile_qr_scan"}, "type": "electric_scooter", "name": "0365a0708838b8806c45dacb77b0bd79", "is_reserved": 0, "lon": -77.0581575, "is_disabled": 0, "fusion_lat": 0.0, "lat": 38.93521116666667, "bike_id": "0365a0708838b8806c45dacb77b0bd79", "fusion_lon": 0.0}, {"rental_uris": {"ios": "https://dc.lft.to/lastmile_qr_scan", "android": "https://dc.lft.to/lastmile_qr_scan"}, "type": "electric_scooter", "name": "f9c6e4ccf3e71d8b9711a0a61b084d1c", "is_reserved": 0, "lon": -77.03388316666667, "is_disabled": 0, "fusion_lat": 0.0, "lat": 38.899797166666666, "bike_id": "f9c6e4ccf3e71d8b9711a0a61b084d1c", "fusion_lon": 0.0}, {"rental_uris": {"ios": "https://dc.lft.to/lastmile_qr_scan", "android": "https://dc.lft.to/lastmile_qr_scan"}, "type": "electric_scooter", "name": "a7e739d8ee3ddce33bbf30b98d346954", "is_reserved": 0, "lon": -76.9833595, "is_disabled": 0, "fusion_lat": 0.0, "lat": 38.900884166666664, "bike_id": "a7e739d8ee3ddce33bbf30b98d346954", "fusion_lon": 0.0}, {"rental_uris": {"ios": "https://dc.lft.to/lastmile_qr_scan", "android": "https://dc.lft.to/lastmile_qr_scan"}, "type": "electric_scooter", "name": "1af167c87063c3a7e1b04bb48d30a1ff", "is_reserved": 0, "lon": -77.02334416666666, "is_disabled": 0, "fusion_lat": 0.0, "lat": 38.92933433333334, "bike_id": "1af167c87063c3a7e1b04bb48d30a1ff", "fusion_lon": 0.0}, {"rental_uris": {"ios": "https://dc.lft.to/lastmile_qr_scan", "android": "https://dc.lft.to/lastmile_qr_scan"}, "type": "electric_scooter", "name": "53ea527784f8d4f8e42d4e1799f2b00b", "is_reserved": 0, "lon": -77.032805, "is_disabled": 0, "fusion_lat": 0.0, "lat": 38.919992, "bike_id": "53ea527784f8d4f8e42d4e1799f2b00b", "fusion_lon": 0.0}, {"rental_uris": {"ios": "https://dc.lft.to/lastmile_qr_scan", "android": "https://dc.lft.to/lastmile_qr_scan"}, "type": "electric_scooter", "name": "ba4be77709f676f0fdbe148e7b0d0348", "is_reserved": 0, "lon": -77.07167266666667, "is_disabled": 0, "fusion_lat": 0.0, "lat": 38.907753166666666, "bike_id": "ba4be77709f676f0fdbe148e7b0d0348", "fusion_lon": 0.0}, {"rental_uris": {"ios": "https://dc.lft.to/lastmile_qr_scan", "android": "https://dc.lft.to/lastmile_qr_scan"}, "type": "electric_scooter", "name": "071aebd2ba292cce9d0dce6f573ede39", "is_reserved": 0, "lon": -77.02663033333333, "is_disabled": 0, "fusion_lat": 0.0, "lat": 38.924874, "bike_id": "071aebd2ba292cce9d0dce6f573ede39", "fusion_lon": 0.0}, {"rental_uris": {"ios": "https://dc.lft.to/lastmile_qr_scan", "android": "https://dc.lft.to/lastmile_qr_scan"}, "type": "electric_scooter", "name": "6399c738c9312ed2793a44df753124ef", "is_reserved": 0, "lon": -77.01769433333334, "is_disabled": 0, "fusion_lat": 0.0, "lat": 38.920479666666665, "bike_id": "6399c738c9312ed2793a44df753124ef", "fusion_lon": 0.0}, {"rental_uris": {"ios": "https://dc.lft.to/lastmile_qr_scan", "android": "https://dc.lft.to/lastmile_qr_scan"}, "type": "electric_scooter", "name": "7af32c343638961d9187b5108c9200c6", "is_reserved": 0, "lon": -77.02682166666666, "is_disabled": 0, "fusion_lat": 0.0, "lat": 38.924746999999996, "bike_id": "7af32c343638961d9187b5108c9200c6", "fusion_lon": 0.0}, {"rental_uris": {"ios": "https://dc.lft.to/lastmile_qr_scan", "android": "https://dc.lft.to/lastmile_qr_scan"}, "type": "electric_scooter", "name": "94c896d3a944e49d2b0626d99c8f71d2", "is_reserved": 0, "lon": -77.02982, "is_disabled": 0, "fusion_lat": 0.0, "lat": 38.9220015, "bike_id": "94c896d3a944e49d2b0626d99c8f71d2", "fusion_lon": 0.0}, {"rental_uris": {"ios": "https://dc.lft.to/lastmile_qr_scan", "android": "https://dc.lft.to/lastmile_qr_scan"}, "type": "electric_scooter", "name": "7c3fdc32a621d36d48fd0d8d640c96d0", "is_reserved": 0, "lon": -77.04886816666667, "is_disabled": 0, "fusion_lat": 0.0, "lat": 38.919427, "bike_id": "7c3fdc32a621d36d48fd0d8d640c96d0", "fusion_lon": 0.0}, {"rental_uris": {"ios": "https://dc.lft.to/lastmile_qr_scan", "android": "https://dc.lft.to/lastmile_qr_scan"}, "type": "electric_scooter", "name": "2a68fa6b3b0be4f6436e8f59be949369", "is_reserved": 0, "lon": -77.02818866666667, "is_disabled": 0, "fusion_lat": 0.0, "lat": 38.90667716666667, "bike_id": "2a68fa6b3b0be4f6436e8f59be949369", "fusion_lon": 0.0}, {"rental_uris": {"ios": "https://dc.lft.to/lastmile_qr_scan", "android": "https://dc.lft.to/lastmile_qr_scan"}, "type": "electric_scooter", "name": "a9193fd20ffbf4c97c773e289ee2b34f", "is_reserved": 0, "lon": -77.02698016666666, "is_disabled": 0, "fusion_lat": 0.0, "lat": 38.9259765, "bike_id": "a9193fd20ffbf4c97c773e289ee2b34f", "fusion_lon": 0.0}, {"rental_uris": {"ios": "https://dc.lft.to/lastmile_qr_scan", "android": "https://dc.lft.to/lastmile_qr_scan"}, "type": "electric_scooter", "name": "8a924cc263c443f4c89752c12096787b", "is_reserved": 0, "lon": -77.03235583333333, "is_disabled": 0, "fusion_lat": 0.0, "lat": 38.928822833333335, "bike_id": "8a924cc263c443f4c89752c12096787b", "fusion_lon": 0.0}, {"rental_uris": {"ios": "https://dc.lft.to/lastmile_qr_scan", "android": "https://dc.lft.to/lastmile_qr_scan"}, "type": "electric_scooter", "name": "2f7de6238600cdb413a49d6966314e3c", "is_reserved": 0, "lon": -77.0415455, "is_disabled": 0, "fusion_lat": 0.0, "lat": 38.905736166666664, "bike_id": "2f7de6238600cdb413a49d6966314e3c", "fusion_lon": 0.0}, {"rental_uris": {"ios": "https://dc.lft.to/lastmile_qr_scan", "android": "https://dc.lft.to/lastmile_qr_scan"}, "type": "electric_scooter", "name": "db3865aeff055b1fe0205371590cde81", "is_reserved": 0, "lon": -77.05430133333333, "is_disabled": 0, "fusion_lat": 0.0, "lat": 38.9285015, "bike_id": "db3865aeff055b1fe0205371590cde81", "fusion_lon": 0.0}, {"rental_uris": {"ios": "https://dc.lft.to/lastmile_qr_scan", "android": "https://dc.lft.to/lastmile_qr_scan"}, "type": "electric_scooter", "name": "e0fa2dc1b83cabc572a6f9075601e9e5", "is_reserved": 0, "lon": -77.04049883333333, "is_disabled": 0, "fusion_lat": 0.0, "lat": 38.93007266666667, "bike_id": "e0fa2dc1b83cabc572a6f9075601e9e5", "fusion_lon": 0.0}, {"rental_uris": {"ios": "https://dc.lft.to/lastmile_qr_scan", "android": "https://dc.lft.to/lastmile_qr_scan"}, "type": "electric_scooter", "name": "62d321454b3fbaa7a265de5c5b3d775c", "is_reserved": 0, "lon": -77.026988, "is_disabled": 0, "fusion_lat": 0.0, "lat": 38.918016, "bike_id": "62d321454b3fbaa7a265de5c5b3d775c", "fusion_lon": 0.0}, {"rental_uris": {"ios": "https://dc.lft.to/lastmile_qr_scan", "android": "https://dc.lft.to/lastmile_qr_scan"}, "type": "electric_scooter", "name": "9c55d60d29a9550cc21f20a576922c9e", "is_reserved": 0, "lon": -77.02777066666667, "is_disabled": 0, "fusion_lat": 0.0, "lat": 38.965822, "bike_id": "9c55d60d29a9550cc21f20a576922c9e", "fusion_lon": 0.0}, {"rental_uris": {"ios": "https://dc.lft.to/lastmile_qr_scan", "android": "https://dc.lft.to/lastmile_qr_scan"}, "type": "electric_scooter", "name": "41dfef7ddb4217a25e54a2e2ab3b35cd", "is_reserved": 0, "lon": -77.03266016666667, "is_disabled": 0, "fusion_lat": 0.0, "lat": 38.92166116666667, "bike_id": "41dfef7ddb4217a25e54a2e2ab3b35cd", "fusion_lon": 0.0}, {"rental_uris": {"ios": "https://dc.lft.to/lastmile_qr_scan", "android": "https://dc.lft.to/lastmile_qr_scan"}, "type": "electric_scooter", "name": "14383274f04ade1b6ffdd25397f168c8", "is_reserved": 0, "lon": -77.02181533333334, "is_disabled": 0, "fusion_lat": 0.0, "lat": 38.91122, "bike_id": "14383274f04ade1b6ffdd25397f168c8", "fusion_lon": 0.0}, {"rental_uris": {"ios": "https://dc.lft.to/lastmile_qr_scan", "android": "https://dc.lft.to/lastmile_qr_scan"}, "type": "electric_scooter", "name": "812be56849f9378d1c1b0e04d2f66969", "is_reserved": 0, "lon": -77.00755416666667, "is_disabled": 0, "fusion_lat": 0.0, "lat": 38.871160833333334, "bike_id": "812be56849f9378d1c1b0e04d2f66969", "fusion_lon": 0.0}, {"rental_uris": {"ios": "https://dc.lft.to/lastmile_qr_scan", "android": "https://dc.lft.to/lastmile_qr_scan"}, "type": "electric_scooter", "name": "34c1b5f9e63642295c60f174a008228b", "is_reserved": 0, "lon": -77.01776583333333, "is_disabled": 0, "fusion_lat": 0.0, "lat": 38.87916833333333, "bike_id": "34c1b5f9e63642295c60f174a008228b", "fusion_lon": 0.0}, {"rental_uris": {"ios": "https://dc.lft.to/lastmile_qr_scan", "android": "https://dc.lft.to/lastmile_qr_scan"}, "type": "electric_bike", "name": "35346525832ff8cc0c78bf0fd672269c", "is_reserved": 0, "lon": -77.09962783333333, "is_disabled": 0, "fusion_lat": 0.0, "lat": 38.8579475, "bike_id": "35346525832ff8cc0c78bf0fd672269c", "fusion_lon": 0.0}, {"rental_uris": {"ios": "https://dc.lft.to/lastmile_qr_scan", "android": "https://dc.lft.to/lastmile_qr_scan"}, "type": "electric_scooter", "name": "dc57cc5be46103f4d92259469002ff06", "is_reserved": 0, "lon": -77.04269366666666, "is_disabled": 0, "fusion_lat": 0.0, "lat": 38.9230265, "bike_id": "dc57cc5be46103f4d92259469002ff06", "fusion_lon": 0.0}, {"rental_uris": {"ios": "https://dc.lft.to/lastmile_qr_scan", "android": "https://dc.lft.to/lastmile_qr_scan"}, "type": "electric_scooter", "name": "a6fae174428610477426832c8a7072f0", "is_reserved": 0, "lon": -77.04091866666667, "is_disabled": 0, "fusion_lat": 0.0, "lat": 38.92067516666667, "bike_id": "a6fae174428610477426832c8a7072f0", "fusion_lon": 0.0}, {"rental_uris": {"ios": "https://dc.lft.to/lastmile_qr_scan", "android": "https://dc.lft.to/lastmile_qr_scan"}, "type": "electric_scooter", "name": "049906537a346f1b95c3a48c0f955ed1", "is_reserved": 0, "lon": -76.94155733333334, "is_disabled": 0, "fusion_lat": 0.0, "lat": 38.901782833333336, "bike_id": "049906537a346f1b95c3a48c0f955ed1", "fusion_lon": 0.0}, {"rental_uris": {"ios": "https://dc.lft.to/lastmile_qr_scan", "android": "https://dc.lft.to/lastmile_qr_scan"}, "type": "electric_scooter", "name": "7640c92616633fdb6fee9cd630f798cd", "is_reserved": 0, "lon": -76.9765495, "is_disabled": 0, "fusion_lat": 0.0, "lat": 38.90366566666667, "bike_id": "7640c92616633fdb6fee9cd630f798cd", "fusion_lon": 0.0}, {"rental_uris": {"ios": "https://dc.lft.to/lastmile_qr_scan", "android": "https://dc.lft.to/lastmile_qr_scan"}, "type": "electric_scooter", "name": "970cd950518e4b703695e7189005ea55", "is_reserved": 0, "lon": -77.03640183333333, "is_disabled": 0, "fusion_lat": 0.0, "lat": 38.90065533333333, "bike_id": "970cd950518e4b703695e7189005ea55", "fusion_lon": 0.0}, {"rental_uris": {"ios": "https://dc.lft.to/lastmile_qr_scan", "android": "https://dc.lft.to/lastmile_qr_scan"}, "type": "electric_scooter", "name": "9e3500f42f791fea739705d7bed8d3a9", "is_reserved": 0, "lon": -77.00158416666666, "is_disabled": 0, "fusion_lat": 0.0, "lat": 38.873824166666665, "bike_id": "9e3500f42f791fea739705d7bed8d3a9", "fusion_lon": 0.0}, {"rental_uris": {"ios": "https://dc.lft.to/lastmile_qr_scan", "android": "https://dc.lft.to/lastmile_qr_scan"}, "type": "electric_scooter", "name": "b2424444f6d6d5b1b674d3af648c0ada", "is_reserved": 0, "lon": -77.0163865, "is_disabled": 0, "fusion_lat": 0.0, "lat": 38.92943133333333, "bike_id": "b2424444f6d6d5b1b674d3af648c0ada", "fusion_lon": 0.0}, {"rental_uris": {"ios": "https://dc.lft.to/lastmile_qr_scan", "android": "https://dc.lft.to/lastmile_qr_scan"}, "type": "electric_scooter", "name": "fd34decb34283e652206d70d890b97a8", "is_reserved": 0, "lon": -77.02917016666666, "is_disabled": 0, "fusion_lat": 0.0, "lat": 38.93456833333333, "bike_id": "fd34decb34283e652206d70d890b97a8", "fusion_lon": 0.0}, {"rental_uris": {"ios": "https://dc.lft.to/lastmile_qr_scan", "android": "https://dc.lft.to/lastmile_qr_scan"}, "type": "electric_scooter", "name": "072a08a0ea04ad92e3ffab8cd9ef8b4c", "is_reserved": 0, "lon": -77.036655, "is_disabled": 0, "fusion_lat": 0.0, "lat": 38.906366, "bike_id": "072a08a0ea04ad92e3ffab8cd9ef8b4c", "fusion_lon": 0.0}, {"rental_uris": {"ios": "https://dc.lft.to/lastmile_qr_scan", "android": "https://dc.lft.to/lastmile_qr_scan"}, "type": "electric_scooter", "name": "0bfcfcacf1fe2545c154c5792aabb47b", "is_reserved": 0, "lon": -76.986967, "is_disabled": 0, "fusion_lat": 0.0, "lat": 38.9129695, "bike_id": "0bfcfcacf1fe2545c154c5792aabb47b", "fusion_lon": 0.0}, {"rental_uris": {"ios": "https://dc.lft.to/lastmile_qr_scan", "android": "https://dc.lft.to/lastmile_qr_scan"}, "type": "electric_scooter", "name": "8c607df3c83298a7808dd8535c24e4db", "is_reserved": 0, "lon": -77.00284633333334, "is_disabled": 0, "fusion_lat": 0.0, "lat": 38.9013285, "bike_id": "8c607df3c83298a7808dd8535c24e4db", "fusion_lon": 0.0}, {"rental_uris": {"ios": "https://dc.lft.to/lastmile_qr_scan", "android": "https://dc.lft.to/lastmile_qr_scan"}, "type": "electric_scooter", "name": "a9bbe0d11861f56a4ef38e2ade5a5516", "is_reserved": 0, "lon": -76.92638333333333, "is_disabled": 0, "fusion_lat": 0.0, "lat": 38.88366933333333, "bike_id": "a9bbe0d11861f56a4ef38e2ade5a5516", "fusion_lon": 0.0}, {"rental_uris": {"ios": "https://dc.lft.to/lastmile_qr_scan", "android": "https://dc.lft.to/lastmile_qr_scan"}, "type": "electric_scooter", "name": "12f0e62974273bbdaa5b686fc57035e3", "is_reserved": 0, "lon": -77.0477935, "is_disabled": 0, "fusion_lat": 0.0, "lat": 38.9085945, "bike_id": "12f0e62974273bbdaa5b686fc57035e3", "fusion_lon": 0.0}, {"rental_uris": {"ios": "https://dc.lft.to/lastmile_qr_scan", "android": "https://dc.lft.to/lastmile_qr_scan"}, "type": "electric_scooter", "name": "f4b20454b533266c62013fd2cb6b4270", "is_reserved": 0, "lon": -76.98539183333334, "is_disabled": 0, "fusion_lat": 0.0, "lat": 38.91287366666667, "bike_id": "f4b20454b533266c62013fd2cb6b4270", "fusion_lon": 0.0}, {"rental_uris": {"ios": "https://dc.lft.to/lastmile_qr_scan", "android": "https://dc.lft.to/lastmile_qr_scan"}, "type": "electric_scooter", "name": "68e507cf002fccd9138db93961b41c74", "is_reserved": 0, "lon": -77.00597666666667, "is_disabled": 0, "fusion_lat": 0.0, "lat": 38.87573783333333, "bike_id": "68e507cf002fccd9138db93961b41c74", "fusion_lon": 0.0}, {"rental_uris": {"ios": "https://dc.lft.to/lastmile_qr_scan", "android": "https://dc.lft.to/lastmile_qr_scan"}, "type": "electric_scooter", "name": "216020a8e44e978b7ba44f92708dfea5", "is_reserved": 0, "lon": -77.04541783333333, "is_disabled": 0, "fusion_lat": 0.0, "lat": 38.913275, "bike_id": "216020a8e44e978b7ba44f92708dfea5", "fusion_lon": 0.0}, {"rental_uris": {"ios": "https://dc.lft.to/lastmile_qr_scan", "android": "https://dc.lft.to/lastmile_qr_scan"}, "type": "electric_scooter", "name": "18b35667cee480e50fc3e3310bc3662f", "is_reserved": 0, "lon": -77.027636, "is_disabled": 0, "fusion_lat": 0.0, "lat": 38.95781433333333, "bike_id": "18b35667cee480e50fc3e3310bc3662f", "fusion_lon": 0.0}, {"rental_uris": {"ios": "https://dc.lft.to/lastmile_qr_scan", "android": "https://dc.lft.to/lastmile_qr_scan"}, "type": "electric_scooter", "name": "89616decb888d8bd38ef92d730299682", "is_reserved": 0, "lon": -77.03325416666667, "is_disabled": 0, "fusion_lat": 0.0, "lat": 38.887800666666664, "bike_id": "89616decb888d8bd38ef92d730299682", "fusion_lon": 0.0}, {"rental_uris": {"ios": "https://dc.lft.to/lastmile_qr_scan", "android": "https://dc.lft.to/lastmile_qr_scan"}, "type": "electric_scooter", "name": "a11ea5da28d6a5f002d48b0ee55b40eb", "is_reserved": 0, "lon": -76.94871766666667, "is_disabled": 0, "fusion_lat": 0.0, "lat": 38.8948885, "bike_id": "a11ea5da28d6a5f002d48b0ee55b40eb", "fusion_lon": 0.0}, {"rental_uris": {"ios": "https://dc.lft.to/lastmile_qr_scan", "android": "https://dc.lft.to/lastmile_qr_scan"}, "type": "electric_scooter", "name": "abd69f8caf9fb3c700c5cae485ab913c", "is_reserved": 0, "lon": -77.0502915, "is_disabled": 0, "fusion_lat": 0.0, "lat": 38.89677433333333, "bike_id": "abd69f8caf9fb3c700c5cae485ab913c", "fusion_lon": 0.0}, {"rental_uris": {"ios": "https://dc.lft.to/lastmile_qr_scan", "android": "https://dc.lft.to/lastmile_qr_scan"}, "type": "electric_scooter", "name": "ae5fbb9eb5ca77a581d6dc65d3940b75", "is_reserved": 0, "lon": -76.97720733333334, "is_disabled": 0, "fusion_lat": 0.0, "lat": 38.90058883333333, "bike_id": "ae5fbb9eb5ca77a581d6dc65d3940b75", "fusion_lon": 0.0}, {"rental_uris": {"ios": "https://dc.lft.to/lastmile_qr_scan", "android": "https://dc.lft.to/lastmile_qr_scan"}, "type": "electric_bike", "name": "39ba98dd7e362ba596abb1737bb0b2b1", "is_reserved": 0, "lon": -77.019116, "is_disabled": 0, "fusion_lat": 0.0, "lat": 38.9767395, "bike_id": "39ba98dd7e362ba596abb1737bb0b2b1", "fusion_lon": 0.0}, {"rental_uris": {"ios": "https://dc.lft.to/lastmile_qr_scan", "android": "https://dc.lft.to/lastmile_qr_scan"}, "type": "electric_scooter", "name": "e13c29f7dc6baf406f969ca3134c9625", "is_reserved": 0, "lon": -76.98533833333333, "is_disabled": 0, "fusion_lat": 0.0, "lat": 38.914527166666666, "bike_id": "e13c29f7dc6baf406f969ca3134c9625", "fusion_lon": 0.0}, {"rental_uris": {"ios": "https://dc.lft.to/lastmile_qr_scan", "android": "https://dc.lft.to/lastmile_qr_scan"}, "type": "electric_scooter", "name": "54553cfb2f3fb1a234ba605834bea153", "is_reserved": 0, "lon": -77.00600816666666, "is_disabled": 0, "fusion_lat": 0.0, "lat": 38.90578816666667, "bike_id": "54553cfb2f3fb1a234ba605834bea153", "fusion_lon": 0.0}, {"rental_uris": {"ios": "https://dc.lft.to/lastmile_qr_scan", "android": "https://dc.lft.to/lastmile_qr_scan"}, "type": "electric_scooter", "name": "580680990a03d35ea531425f6b9e282e", "is_reserved": 0, "lon": -77.06095616666667, "is_disabled": 0, "fusion_lat": 0.0, "lat": 38.939954666666665, "bike_id": "580680990a03d35ea531425f6b9e282e", "fusion_lon": 0.0}, {"rental_uris": {"ios": "https://dc.lft.to/lastmile_qr_scan", "android": "https://dc.lft.to/lastmile_qr_scan"}, "type": "electric_scooter", "name": "e76a8e2c68d39f7fd9576bfb406ed529", "is_reserved": 0, "lon": -77.02104433333334, "is_disabled": 0, "fusion_lat": 0.0, "lat": 38.966761, "bike_id": "e76a8e2c68d39f7fd9576bfb406ed529", "fusion_lon": 0.0}, {"rental_uris": {"ios": "https://dc.lft.to/lastmile_qr_scan", "android": "https://dc.lft.to/lastmile_qr_scan"}, "type": "electric_bike", "name": "7a880f85fb59e13ba12def24ef2cdb3a", "is_reserved": 0, "lon": -77.07659933333333, "is_disabled": 0, "fusion_lat": 0.0, "lat": 38.8098355, "bike_id": "7a880f85fb59e13ba12def24ef2cdb3a", "fusion_lon": 0.0}, {"rental_uris": {"ios": "https://dc.lft.to/lastmile_qr_scan", "android": "https://dc.lft.to/lastmile_qr_scan"}, "type": "electric_bike", "name": "68cc2c655671febc627f1e730263033e", "is_reserved": 0, "lon": -77.02065966666666, "is_disabled": 0, "fusion_lat": 0.0, "lat": 38.9644425, "bike_id": "68cc2c655671febc627f1e730263033e", "fusion_lon": 0.0}, {"rental_uris": {"ios": "https://dc.lft.to/lastmile_qr_scan", "android": "https://dc.lft.to/lastmile_qr_scan"}, "type": "electric_scooter", "name": "f9fc9d20e2eaa60c58df60183281bc3e", "is_reserved": 0, "lon": -77.04667883333333, "is_disabled": 0, "fusion_lat": 0.0, "lat": 38.912488, "bike_id": "f9fc9d20e2eaa60c58df60183281bc3e", "fusion_lon": 0.0}, {"rental_uris": {"ios": "https://dc.lft.to/lastmile_qr_scan", "android": "https://dc.lft.to/lastmile_qr_scan"}, "type": "electric_scooter", "name": "c65cfefe4ab05f7da7fd09c901ae4a3d", "is_reserved": 0, "lon": -76.9997125, "is_disabled": 0, "fusion_lat": 0.0, "lat": 38.908568, "bike_id": "c65cfefe4ab05f7da7fd09c901ae4a3d", "fusion_lon": 0.0}, {"rental_uris": {"ios": "https://dc.lft.to/lastmile_qr_scan", "android": "https://dc.lft.to/lastmile_qr_scan"}, "type": "electric_scooter", "name": "d681eeb5fd9f34a774023aa0820c6728", "is_reserved": 0, "lon": -76.9903125, "is_disabled": 0, "fusion_lat": 0.0, "lat": 38.88885483333333, "bike_id": "d681eeb5fd9f34a774023aa0820c6728", "fusion_lon": 0.0}, {"rental_uris": {"ios": "https://dc.lft.to/lastmile_qr_scan", "android": "https://dc.lft.to/lastmile_qr_scan"}, "type": "electric_scooter", "name": "fe1755cff40b87db7b6e74733fd121c0", "is_reserved": 0, "lon": -77.00190566666667, "is_disabled": 0, "fusion_lat": 0.0, "lat": 38.889298833333335, "bike_id": "fe1755cff40b87db7b6e74733fd121c0", "fusion_lon": 0.0}, {"rental_uris": {"ios": "https://dc.lft.to/lastmile_qr_scan", "android": "https://dc.lft.to/lastmile_qr_scan"}, "type": "electric_scooter", "name": "641c26b727525915fc816bc625455aad", "is_reserved": 0, "lon": -77.032701, "is_disabled": 0, "fusion_lat": 0.0, "lat": 38.925643, "bike_id": "641c26b727525915fc816bc625455aad", "fusion_lon": 0.0}, {"rental_uris": {"ios": "https://dc.lft.to/lastmile_qr_scan", "android": "https://dc.lft.to/lastmile_qr_scan"}, "type": "electric_scooter", "name": "3c41732840a9698c9f8be6630574909c", "is_reserved": 0, "lon": -77.060262, "is_disabled": 0, "fusion_lat": 0.0, "lat": 38.93880383333333, "bike_id": "3c41732840a9698c9f8be6630574909c", "fusion_lon": 0.0}, {"rental_uris": {"ios": "https://dc.lft.to/lastmile_qr_scan", "android": "https://dc.lft.to/lastmile_qr_scan"}, "type": "electric_scooter", "name": "6a8e8489b935890cbe6a2b8990b4ea79", "is_reserved": 0, "lon": -77.04325366666667, "is_disabled": 0, "fusion_lat": 0.0, "lat": 38.9341375, "bike_id": "6a8e8489b935890cbe6a2b8990b4ea79", "fusion_lon": 0.0}, {"rental_uris": {"ios": "https://dc.lft.to/lastmile_qr_scan", "android": "https://dc.lft.to/lastmile_qr_scan"}, "type": "electric_bike", "name": "aa4c73a6b77f062467beb58001f0e490", "is_reserved": 0, "lon": -77.11413566666667, "is_disabled": 0, "fusion_lat": 0.0, "lat": 38.87319166666666, "bike_id": "aa4c73a6b77f062467beb58001f0e490", "fusion_lon": 0.0}, {"rental_uris": {"ios": "https://dc.lft.to/lastmile_qr_scan", "android": "https://dc.lft.to/lastmile_qr_scan"}, "type": "electric_scooter", "name": "1227234684cc4774b4386700cd484cba", "is_reserved": 0, "lon": -77.04867066666667, "is_disabled": 0, "fusion_lat": 0.0, "lat": 38.912650166666666, "bike_id": "1227234684cc4774b4386700cd484cba", "fusion_lon": 0.0}, {"rental_uris": {"ios": "https://dc.lft.to/lastmile_qr_scan", "android": "https://dc.lft.to/lastmile_qr_scan"}, "type": "electric_scooter", "name": "3960157d3d6c8e223d5cd017a5ad858d", "is_reserved": 0, "lon": -77.03263233333334, "is_disabled": 0, "fusion_lat": 0.0, "lat": 38.904062833333334, "bike_id": "3960157d3d6c8e223d5cd017a5ad858d", "fusion_lon": 0.0}, {"rental_uris": {"ios": "https://dc.lft.to/lastmile_qr_scan", "android": "https://dc.lft.to/lastmile_qr_scan"}, "type": "electric_scooter", "name": "a2210cf79ff08ca79d563bc2d9191065", "is_reserved": 0, "lon": -77.016243, "is_disabled": 0, "fusion_lat": 0.0, "lat": 38.898021666666665, "bike_id": "a2210cf79ff08ca79d563bc2d9191065", "fusion_lon": 0.0}, {"rental_uris": {"ios": "https://dc.lft.to/lastmile_qr_scan", "android": "https://dc.lft.to/lastmile_qr_scan"}, "type": "electric_scooter", "name": "c94bcb83873f312f0be2320c5ebc17d4", "is_reserved": 0, "lon": -77.0283475, "is_disabled": 0, "fusion_lat": 0.0, "lat": 38.957228, "bike_id": "c94bcb83873f312f0be2320c5ebc17d4", "fusion_lon": 0.0}, {"rental_uris": {"ios": "https://dc.lft.to/lastmile_qr_scan", "android": "https://dc.lft.to/lastmile_qr_scan"}, "type": "electric_scooter", "name": "72ab0fb13744b7ef312c181000db555c", "is_reserved": 0, "lon": -76.98373466666666, "is_disabled": 0, "fusion_lat": 0.0, "lat": 38.89141266666667, "bike_id": "72ab0fb13744b7ef312c181000db555c", "fusion_lon": 0.0}, {"rental_uris": {"ios": "https://dc.lft.to/lastmile_qr_scan", "android": "https://dc.lft.to/lastmile_qr_scan"}, "type": "electric_scooter", "name": "0ca1d0b6d90e978ea811fbb334a899a7", "is_reserved": 0, "lon": -77.04738366666666, "is_disabled": 0, "fusion_lat": 0.0, "lat": 38.90101716666667, "bike_id": "0ca1d0b6d90e978ea811fbb334a899a7", "fusion_lon": 0.0}, {"rental_uris": {"ios": "https://dc.lft.to/lastmile_qr_scan", "android": "https://dc.lft.to/lastmile_qr_scan"}, "type": "electric_scooter", "name": "cd0b819ec2b6574d354c2f4764cb0394", "is_reserved": 0, "lon": -77.04056333333334, "is_disabled": 0, "fusion_lat": 0.0, "lat": 38.92549066666667, "bike_id": "cd0b819ec2b6574d354c2f4764cb0394", "fusion_lon": 0.0}, {"rental_uris": {"ios": "https://dc.lft.to/lastmile_qr_scan", "android": "https://dc.lft.to/lastmile_qr_scan"}, "type": "electric_bike", "name": "82ef9f912ae3ffeddf4727aa311d4a98", "is_reserved": 0, "lon": -76.98919766666667, "is_disabled": 0, "fusion_lat": 0.0, "lat": 38.88213283333333, "bike_id": "82ef9f912ae3ffeddf4727aa311d4a98", "fusion_lon": 0.0}, {"rental_uris": {"ios": "https://dc.lft.to/lastmile_qr_scan", "android": "https://dc.lft.to/lastmile_qr_scan"}, "type": "electric_scooter", "name": "a9fb8eed1f779471e5a56753a54bbd11", "is_reserved": 0, "lon": -76.98446333333334, "is_disabled": 0, "fusion_lat": 0.0, "lat": 38.91468316666667, "bike_id": "a9fb8eed1f779471e5a56753a54bbd11", "fusion_lon": 0.0}, {"rental_uris": {"ios": "https://dc.lft.to/lastmile_qr_scan", "android": "https://dc.lft.to/lastmile_qr_scan"}, "type": "electric_scooter", "name": "ba55c6f4addb1f9c2dcb7c2de49ce8a7", "is_reserved": 0, "lon": -77.068386, "is_disabled": 0, "fusion_lat": 0.0, "lat": 38.91728633333334, "bike_id": "ba55c6f4addb1f9c2dcb7c2de49ce8a7", "fusion_lon": 0.0}, {"rental_uris": {"ios": "https://dc.lft.to/lastmile_qr_scan", "android": "https://dc.lft.to/lastmile_qr_scan"}, "type": "electric_scooter", "name": "10f75793e303ef2fa3f6ddfe2a7954d3", "is_reserved": 0, "lon": -77.0470855, "is_disabled": 0, "fusion_lat": 0.0, "lat": 38.91264133333333, "bike_id": "10f75793e303ef2fa3f6ddfe2a7954d3", "fusion_lon": 0.0}, {"rental_uris": {"ios": "https://dc.lft.to/lastmile_qr_scan", "android": "https://dc.lft.to/lastmile_qr_scan"}, "type": "electric_bike", "name": "e057544f2364a644e983a986f11af0cd", "is_reserved": 0, "lon": -77.000032, "is_disabled": 0, "fusion_lat": 0.0, "lat": 38.9238895, "bike_id": "e057544f2364a644e983a986f11af0cd", "fusion_lon": 0.0}, {"rental_uris": {"ios": "https://dc.lft.to/lastmile_qr_scan", "android": "https://dc.lft.to/lastmile_qr_scan"}, "type": "electric_scooter", "name": "5bc7b6b37c75bea5ba1ad7058dc8f29c", "is_reserved": 0, "lon": -77.0282565, "is_disabled": 0, "fusion_lat": 0.0, "lat": 38.902720333333335, "bike_id": "5bc7b6b37c75bea5ba1ad7058dc8f29c", "fusion_lon": 0.0}, {"rental_uris": {"ios": "https://dc.lft.to/lastmile_qr_scan", "android": "https://dc.lft.to/lastmile_qr_scan"}, "type": "electric_scooter", "name": "0e7b53fb5a1226ce35f4027a1eac2fc2", "is_reserved": 0, "lon": -77.023537, "is_disabled": 0, "fusion_lat": 0.0, "lat": 38.94521533333333, "bike_id": "0e7b53fb5a1226ce35f4027a1eac2fc2", "fusion_lon": 0.0}, {"rental_uris": {"ios": "https://dc.lft.to/lastmile_qr_scan", "android": "https://dc.lft.to/lastmile_qr_scan"}, "type": "electric_scooter", "name": "f243c892460b34235c93f1574e3abf1b", "is_reserved": 0, "lon": -76.98574716666667, "is_disabled": 0, "fusion_lat": 0.0, "lat": 38.85451783333333, "bike_id": "f243c892460b34235c93f1574e3abf1b", "fusion_lon": 0.0}, {"rental_uris": {"ios": "https://dc.lft.to/lastmile_qr_scan", "android": "https://dc.lft.to/lastmile_qr_scan"}, "type": "electric_scooter", "name": "fb6cff86c45289f711d3e84c03d47eef", "is_reserved": 0, "lon": -77.041219, "is_disabled": 0, "fusion_lat": 0.0, "lat": 38.93104866666667, "bike_id": "fb6cff86c45289f711d3e84c03d47eef", "fusion_lon": 0.0}, {"rental_uris": {"ios": "https://dc.lft.to/lastmile_qr_scan", "android": "https://dc.lft.to/lastmile_qr_scan"}, "type": "electric_scooter", "name": "3b5a06bb154b37e7852433ca9c85fe82", "is_reserved": 0, "lon": -77.024092, "is_disabled": 0, "fusion_lat": 0.0, "lat": 38.9056915, "bike_id": "3b5a06bb154b37e7852433ca9c85fe82", "fusion_lon": 0.0}, {"rental_uris": {"ios": "https://dc.lft.to/lastmile_qr_scan", "android": "https://dc.lft.to/lastmile_qr_scan"}, "type": "electric_scooter", "name": "b34ab0a75221ab5960ae60e63509f2b7", "is_reserved": 0, "lon": -77.03023166666667, "is_disabled": 0, "fusion_lat": 0.0, "lat": 38.9223565, "bike_id": "b34ab0a75221ab5960ae60e63509f2b7", "fusion_lon": 0.0}, {"rental_uris": {"ios": "https://dc.lft.to/lastmile_qr_scan", "android": "https://dc.lft.to/lastmile_qr_scan"}, "type": "electric_scooter", "name": "35bd106b222170f3813433ccb6b0e8e9", "is_reserved": 0, "lon": -77.02711883333333, "is_disabled": 0, "fusion_lat": 0.0, "lat": 38.906000666666664, "bike_id": "35bd106b222170f3813433ccb6b0e8e9", "fusion_lon": 0.0}, {"rental_uris": {"ios": "https://dc.lft.to/lastmile_qr_scan", "android": "https://dc.lft.to/lastmile_qr_scan"}, "type": "electric_bike", "name": "8f6bc8b2835061b3b9840edaef4b2f30", "is_reserved": 0, "lon": -77.0123465, "is_disabled": 0, "fusion_lat": 0.0, "lat": 38.9508495, "bike_id": "8f6bc8b2835061b3b9840edaef4b2f30", "fusion_lon": 0.0}, {"rental_uris": {"ios": "https://dc.lft.to/lastmile_qr_scan", "android": "https://dc.lft.to/lastmile_qr_scan"}, "type": "electric_scooter", "name": "d7a4fcdb1927da3d777506dcd2b29a8e", "is_reserved": 0, "lon": -76.99872383333333, "is_disabled": 0, "fusion_lat": 0.0, "lat": 38.900244, "bike_id": "d7a4fcdb1927da3d777506dcd2b29a8e", "fusion_lon": 0.0}, {"rental_uris": {"ios": "https://dc.lft.to/lastmile_qr_scan", "android": "https://dc.lft.to/lastmile_qr_scan"}, "type": "electric_scooter", "name": "b981f40470845488d0b221f7c0aeabb0", "is_reserved": 0, "lon": -77.0386685, "is_disabled": 0, "fusion_lat": 0.0, "lat": 38.92150433333333, "bike_id": "b981f40470845488d0b221f7c0aeabb0", "fusion_lon": 0.0}, {"rental_uris": {"ios": "https://dc.lft.to/lastmile_qr_scan", "android": "https://dc.lft.to/lastmile_qr_scan"}, "type": "electric_scooter", "name": "63e215051d824b5a862ba3b23a0e16cb", "is_reserved": 0, "lon": -77.039963, "is_disabled": 0, "fusion_lat": 0.0, "lat": 38.91414783333333, "bike_id": "63e215051d824b5a862ba3b23a0e16cb", "fusion_lon": 0.0}, {"rental_uris": {"ios": "https://dc.lft.to/lastmile_qr_scan", "android": "https://dc.lft.to/lastmile_qr_scan"}, "type": "electric_scooter", "name": "5719256fcc8b84b5df674c2237f038a8", "is_reserved": 0, "lon": -77.021809, "is_disabled": 0, "fusion_lat": 0.0, "lat": 38.918084666666665, "bike_id": "5719256fcc8b84b5df674c2237f038a8", "fusion_lon": 0.0}, {"rental_uris": {"ios": "https://dc.lft.to/lastmile_qr_scan", "android": "https://dc.lft.to/lastmile_qr_scan"}, "type": "electric_scooter", "name": "580349288febc00dfae35539e656e934", "is_reserved": 0, "lon": -77.01989683333333, "is_disabled": 0, "fusion_lat": 0.0, "lat": 38.9305295, "bike_id": "580349288febc00dfae35539e656e934", "fusion_lon": 0.0}, {"rental_uris": {"ios": "https://dc.lft.to/lastmile_qr_scan", "android": "https://dc.lft.to/lastmile_qr_scan"}, "type": "electric_scooter", "name": "31e9dcc7692c842c009c54057ca0a508", "is_reserved": 0, "lon": -77.02356033333334, "is_disabled": 0, "fusion_lat": 0.0, "lat": 38.945266833333335, "bike_id": "31e9dcc7692c842c009c54057ca0a508", "fusion_lon": 0.0}, {"rental_uris": {"ios": "https://dc.lft.to/lastmile_qr_scan", "android": "https://dc.lft.to/lastmile_qr_scan"}, "type": "electric_scooter", "name": "8733c47a9ca1889368c3450e1939ecb1", "is_reserved": 0, "lon": -77.04342766666667, "is_disabled": 0, "fusion_lat": 0.0, "lat": 38.89652266666667, "bike_id": "8733c47a9ca1889368c3450e1939ecb1", "fusion_lon": 0.0}, {"rental_uris": {"ios": "https://dc.lft.to/lastmile_qr_scan", "android": "https://dc.lft.to/lastmile_qr_scan"}, "type": "electric_scooter", "name": "9bb6183e31feecd656d0ff71573a6632", "is_reserved": 0, "lon": -77.02405316666666, "is_disabled": 0, "fusion_lat": 0.0, "lat": 38.92756216666667, "bike_id": "9bb6183e31feecd656d0ff71573a6632", "fusion_lon": 0.0}, {"rental_uris": {"ios": "https://dc.lft.to/lastmile_qr_scan", "android": "https://dc.lft.to/lastmile_qr_scan"}, "type": "electric_scooter", "name": "e4313200dd6d05d26d0c47441b42115b", "is_reserved": 0, "lon": -77.031274, "is_disabled": 0, "fusion_lat": 0.0, "lat": 38.923757, "bike_id": "e4313200dd6d05d26d0c47441b42115b", "fusion_lon": 0.0}, {"rental_uris": {"ios": "https://dc.lft.to/lastmile_qr_scan", "android": "https://dc.lft.to/lastmile_qr_scan"}, "type": "electric_scooter", "name": "d238ee60c819ebba6132bdf26ef0f6e6", "is_reserved": 0, "lon": -77.07400966666667, "is_disabled": 0, "fusion_lat": 0.0, "lat": 38.937445333333336, "bike_id": "d238ee60c819ebba6132bdf26ef0f6e6", "fusion_lon": 0.0}, {"rental_uris": {"ios": "https://dc.lft.to/lastmile_qr_scan", "android": "https://dc.lft.to/lastmile_qr_scan"}, "type": "electric_scooter", "name": "169c80b4eee76377ab33abfd4b0ec306", "is_reserved": 0, "lon": -76.99389816666667, "is_disabled": 0, "fusion_lat": 0.0, "lat": 38.910158333333335, "bike_id": "169c80b4eee76377ab33abfd4b0ec306", "fusion_lon": 0.0}, {"rental_uris": {"ios": "https://dc.lft.to/lastmile_qr_scan", "android": "https://dc.lft.to/lastmile_qr_scan"}, "type": "electric_bike", "name": "ae0baed9388cfe8ffbac7635751ce376", "is_reserved": 0, "lon": -76.9506245, "is_disabled": 0, "fusion_lat": 0.0, "lat": 39.085109333333335, "bike_id": "ae0baed9388cfe8ffbac7635751ce376", "fusion_lon": 0.0}, {"rental_uris": {"ios": "https://dc.lft.to/lastmile_qr_scan", "android": "https://dc.lft.to/lastmile_qr_scan"}, "type": "electric_scooter", "name": "c46e0e0c3244326c625a5d93217b07a5", "is_reserved": 0, "lon": -76.981854, "is_disabled": 0, "fusion_lat": 0.0, "lat": 38.90583266666667, "bike_id": "c46e0e0c3244326c625a5d93217b07a5", "fusion_lon": 0.0}, {"rental_uris": {"ios": "https://dc.lft.to/lastmile_qr_scan", "android": "https://dc.lft.to/lastmile_qr_scan"}, "type": "electric_scooter", "name": "4a557205c925e6f199a0714f301b0c02", "is_reserved": 0, "lon": -77.0501445, "is_disabled": 0, "fusion_lat": 0.0, "lat": 38.8978115, "bike_id": "4a557205c925e6f199a0714f301b0c02", "fusion_lon": 0.0}, {"rental_uris": {"ios": "https://dc.lft.to/lastmile_qr_scan", "android": "https://dc.lft.to/lastmile_qr_scan"}, "type": "electric_scooter", "name": "bb33b9521371ba024f0c26fdcee01904", "is_reserved": 0, "lon": -76.99626766666667, "is_disabled": 0, "fusion_lat": 0.0, "lat": 38.90450416666667, "bike_id": "bb33b9521371ba024f0c26fdcee01904", "fusion_lon": 0.0}, {"rental_uris": {"ios": "https://dc.lft.to/lastmile_qr_scan", "android": "https://dc.lft.to/lastmile_qr_scan"}, "type": "electric_bike", "name": "f1998eeb6ae97ae4e2d3fe6a3d933797", "is_reserved": 0, "lon": -77.113168, "is_disabled": 0, "fusion_lat": 0.0, "lat": 38.855849666666664, "bike_id": "f1998eeb6ae97ae4e2d3fe6a3d933797", "fusion_lon": 0.0}, {"rental_uris": {"ios": "https://dc.lft.to/lastmile_qr_scan", "android": "https://dc.lft.to/lastmile_qr_scan"}, "type": "electric_scooter", "name": "01d923d19aeb9814313ad907c1bacf7c", "is_reserved": 0, "lon": -77.03972166666667, "is_disabled": 0, "fusion_lat": 0.0, "lat": 38.9135185, "bike_id": "01d923d19aeb9814313ad907c1bacf7c", "fusion_lon": 0.0}, {"rental_uris": {"ios": "https://dc.lft.to/lastmile_qr_scan", "android": "https://dc.lft.to/lastmile_qr_scan"}, "type": "electric_scooter", "name": "fcaf707b848a7b34fde7b09852ed68a3", "is_reserved": 0, "lon": -77.03265716666667, "is_disabled": 0, "fusion_lat": 0.0, "lat": 38.938877166666664, "bike_id": "fcaf707b848a7b34fde7b09852ed68a3", "fusion_lon": 0.0}, {"rental_uris": {"ios": "https://dc.lft.to/lastmile_qr_scan", "android": "https://dc.lft.to/lastmile_qr_scan"}, "type": "electric_scooter", "name": "0935efa6ef6d748eb191cfecf8869fc3", "is_reserved": 0, "lon": -77.0333775, "is_disabled": 0, "fusion_lat": 0.0, "lat": 38.91913866666667, "bike_id": "0935efa6ef6d748eb191cfecf8869fc3", "fusion_lon": 0.0}, {"rental_uris": {"ios": "https://dc.lft.to/lastmile_qr_scan", "android": "https://dc.lft.to/lastmile_qr_scan"}, "type": "electric_scooter", "name": "3eb5f4b04f1fe35c0670767947093c5a", "is_reserved": 0, "lon": -77.02731, "is_disabled": 0, "fusion_lat": 0.0, "lat": 38.919151166666666, "bike_id": "3eb5f4b04f1fe35c0670767947093c5a", "fusion_lon": 0.0}, {"rental_uris": {"ios": "https://dc.lft.to/lastmile_qr_scan", "android": "https://dc.lft.to/lastmile_qr_scan"}, "type": "electric_scooter", "name": "b0a43192e37015cea775f85a2845c461", "is_reserved": 0, "lon": -77.04523033333334, "is_disabled": 0, "fusion_lat": 0.0, "lat": 38.923153666666664, "bike_id": "b0a43192e37015cea775f85a2845c461", "fusion_lon": 0.0}, {"rental_uris": {"ios": "https://dc.lft.to/lastmile_qr_scan", "android": "https://dc.lft.to/lastmile_qr_scan"}, "type": "electric_scooter", "name": "111062862817cb4dea9687c724de0ba8", "is_reserved": 0, "lon": -77.0282825, "is_disabled": 0, "fusion_lat": 0.0, "lat": 38.899137, "bike_id": "111062862817cb4dea9687c724de0ba8", "fusion_lon": 0.0}, {"rental_uris": {"ios": "https://dc.lft.to/lastmile_qr_scan", "android": "https://dc.lft.to/lastmile_qr_scan"}, "type": "electric_scooter", "name": "333a2c81e8bb5815ea8d1a28bd72e65a", "is_reserved": 0, "lon": -77.02112366666667, "is_disabled": 0, "fusion_lat": 0.0, "lat": 38.92689016666667, "bike_id": "333a2c81e8bb5815ea8d1a28bd72e65a", "fusion_lon": 0.0}, {"rental_uris": {"ios": "https://dc.lft.to/lastmile_qr_scan", "android": "https://dc.lft.to/lastmile_qr_scan"}, "type": "electric_scooter", "name": "d7a044a2a1ada3685151ff857323c042", "is_reserved": 0, "lon": -77.038677, "is_disabled": 0, "fusion_lat": 0.0, "lat": 38.92157316666667, "bike_id": "d7a044a2a1ada3685151ff857323c042", "fusion_lon": 0.0}, {"rental_uris": {"ios": "https://dc.lft.to/lastmile_qr_scan", "android": "https://dc.lft.to/lastmile_qr_scan"}, "type": "electric_scooter", "name": "c0f64321bae385738afe62bf75397de7", "is_reserved": 0, "lon": -77.06286066666667, "is_disabled": 0, "fusion_lat": 0.0, "lat": 38.912476833333336, "bike_id": "c0f64321bae385738afe62bf75397de7", "fusion_lon": 0.0}, {"rental_uris": {"ios": "https://dc.lft.to/lastmile_qr_scan", "android": "https://dc.lft.to/lastmile_qr_scan"}, "type": "electric_scooter", "name": "fee60a67cb1ea69a7fe9b9c5b6d1105a", "is_reserved": 0, "lon": -77.0155615, "is_disabled": 0, "fusion_lat": 0.0, "lat": 38.94332216666667, "bike_id": "fee60a67cb1ea69a7fe9b9c5b6d1105a", "fusion_lon": 0.0}, {"rental_uris": {"ios": "https://dc.lft.to/lastmile_qr_scan", "android": "https://dc.lft.to/lastmile_qr_scan"}, "type": "electric_scooter", "name": "059d78d4b5137f29a4efd15896f05788", "is_reserved": 0, "lon": -76.9854015, "is_disabled": 0, "fusion_lat": 0.0, "lat": 38.912895166666665, "bike_id": "059d78d4b5137f29a4efd15896f05788", "fusion_lon": 0.0}, {"rental_uris": {"ios": "https://dc.lft.to/lastmile_qr_scan", "android": "https://dc.lft.to/lastmile_qr_scan"}, "type": "electric_bike", "name": "ef812d7004420d895843dfc1113466be", "is_reserved": 0, "lon": -77.0517195, "is_disabled": 0, "fusion_lat": 0.0, "lat": 38.844694833333335, "bike_id": "ef812d7004420d895843dfc1113466be", "fusion_lon": 0.0}, {"rental_uris": {"ios": "https://dc.lft.to/lastmile_qr_scan", "android": "https://dc.lft.to/lastmile_qr_scan"}, "type": "electric_scooter", "name": "9aa5bd136e72c47d994797a7b6bbaada", "is_reserved": 0, "lon": -77.0295695, "is_disabled": 0, "fusion_lat": 0.0, "lat": 38.90417633333333, "bike_id": "9aa5bd136e72c47d994797a7b6bbaada", "fusion_lon": 0.0}, {"rental_uris": {"ios": "https://dc.lft.to/lastmile_qr_scan", "android": "https://dc.lft.to/lastmile_qr_scan"}, "type": "electric_scooter", "name": "0cbd5e4588f9d01343cfb4e1e72ea80d", "is_reserved": 0, "lon": -77.0344255, "is_disabled": 0, "fusion_lat": 0.0, "lat": 38.91802, "bike_id": "0cbd5e4588f9d01343cfb4e1e72ea80d", "fusion_lon": 0.0}, {"rental_uris": {"ios": "https://dc.lft.to/lastmile_qr_scan", "android": "https://dc.lft.to/lastmile_qr_scan"}, "type": "electric_scooter", "name": "ee4f7aeed24ba622b2a294ed4d122a58", "is_reserved": 0, "lon": -77.03365416666666, "is_disabled": 0, "fusion_lat": 0.0, "lat": 38.911085, "bike_id": "ee4f7aeed24ba622b2a294ed4d122a58", "fusion_lon": 0.0}, {"rental_uris": {"ios": "https://dc.lft.to/lastmile_qr_scan", "android": "https://dc.lft.to/lastmile_qr_scan"}, "type": "electric_scooter", "name": "f01cf236c17af30b5a8666e1a47c119d", "is_reserved": 0, "lon": -76.98161816666666, "is_disabled": 0, "fusion_lat": 0.0, "lat": 38.86180933333333, "bike_id": "f01cf236c17af30b5a8666e1a47c119d", "fusion_lon": 0.0}, {"rental_uris": {"ios": "https://dc.lft.to/lastmile_qr_scan", "android": "https://dc.lft.to/lastmile_qr_scan"}, "type": "electric_scooter", "name": "9287e3dee29d22332904173345ae3dc2", "is_reserved": 0, "lon": -76.99380916666667, "is_disabled": 0, "fusion_lat": 0.0, "lat": 38.8934, "bike_id": "9287e3dee29d22332904173345ae3dc2", "fusion_lon": 0.0}, {"rental_uris": {"ios": "https://dc.lft.to/lastmile_qr_scan", "android": "https://dc.lft.to/lastmile_qr_scan"}, "type": "electric_scooter", "name": "89b7600375dd6675482c57c2aaa0d45a", "is_reserved": 0, "lon": -77.00619, "is_disabled": 0, "fusion_lat": 0.0, "lat": 38.878477833333335, "bike_id": "89b7600375dd6675482c57c2aaa0d45a", "fusion_lon": 0.0}, {"rental_uris": {"ios": "https://dc.lft.to/lastmile_qr_scan", "android": "https://dc.lft.to/lastmile_qr_scan"}, "type": "electric_scooter", "name": "78881ebb3df215ecd79618ae6a79ee6b", "is_reserved": 0, "lon": -77.01969816666667, "is_disabled": 0, "fusion_lat": 0.0, "lat": 38.92247183333333, "bike_id": "78881ebb3df215ecd79618ae6a79ee6b", "fusion_lon": 0.0}, {"rental_uris": {"ios": "https://dc.lft.to/lastmile_qr_scan", "android": "https://dc.lft.to/lastmile_qr_scan"}, "type": "electric_scooter", "name": "c3d6ae590ffc3df7839791415005fd76", "is_reserved": 0, "lon": -76.99156416666666, "is_disabled": 0, "fusion_lat": 0.0, "lat": 38.8881965, "bike_id": "c3d6ae590ffc3df7839791415005fd76", "fusion_lon": 0.0}, {"rental_uris": {"ios": "https://dc.lft.to/lastmile_qr_scan", "android": "https://dc.lft.to/lastmile_qr_scan"}, "type": "electric_scooter", "name": "cbc6125bd79f5500ca501926f141719e", "is_reserved": 0, "lon": -77.02402883333333, "is_disabled": 0, "fusion_lat": 0.0, "lat": 38.938139666666665, "bike_id": "cbc6125bd79f5500ca501926f141719e", "fusion_lon": 0.0}, {"rental_uris": {"ios": "https://dc.lft.to/lastmile_qr_scan", "android": "https://dc.lft.to/lastmile_qr_scan"}, "type": "electric_scooter", "name": "21a6293839adf2ebe7920120004285ed", "is_reserved": 0, "lon": -77.005752, "is_disabled": 0, "fusion_lat": 0.0, "lat": 38.902477, "bike_id": "21a6293839adf2ebe7920120004285ed", "fusion_lon": 0.0}, {"rental_uris": {"ios": "https://dc.lft.to/lastmile_qr_scan", "android": "https://dc.lft.to/lastmile_qr_scan"}, "type": "electric_scooter", "name": "6e20441469d22ee69661e23cdc1ddb83", "is_reserved": 0, "lon": -77.06483533333333, "is_disabled": 0, "fusion_lat": 0.0, "lat": 38.92701, "bike_id": "6e20441469d22ee69661e23cdc1ddb83", "fusion_lon": 0.0}, {"rental_uris": {"ios": "https://dc.lft.to/lastmile_qr_scan", "android": "https://dc.lft.to/lastmile_qr_scan"}, "type": "electric_scooter", "name": "a9c0fb03adf215e99c065ea27c01db2c", "is_reserved": 0, "lon": -76.998715, "is_disabled": 0, "fusion_lat": 0.0, "lat": 38.90032733333334, "bike_id": "a9c0fb03adf215e99c065ea27c01db2c", "fusion_lon": 0.0}, {"rental_uris": {"ios": "https://dc.lft.to/lastmile_qr_scan", "android": "https://dc.lft.to/lastmile_qr_scan"}, "type": "electric_scooter", "name": "ccbd52d497f95da4e87a1cb6cee3e6bc", "is_reserved": 0, "lon": -77.02690633333333, "is_disabled": 0, "fusion_lat": 0.0, "lat": 38.92493416666667, "bike_id": "ccbd52d497f95da4e87a1cb6cee3e6bc", "fusion_lon": 0.0}, {"rental_uris": {"ios": "https://dc.lft.to/lastmile_qr_scan", "android": "https://dc.lft.to/lastmile_qr_scan"}, "type": "electric_scooter", "name": "ee81f7c70c605cfa8c566132d93a83fb", "is_reserved": 0, "lon": -77.01096166666666, "is_disabled": 0, "fusion_lat": 0.0, "lat": 38.906813666666665, "bike_id": "ee81f7c70c605cfa8c566132d93a83fb", "fusion_lon": 0.0}, {"rental_uris": {"ios": "https://dc.lft.to/lastmile_qr_scan", "android": "https://dc.lft.to/lastmile_qr_scan"}, "type": "electric_bike", "name": "f20d63640823bba61428e30a83b48556", "is_reserved": 0, "lon": -76.97324016666667, "is_disabled": 0, "fusion_lat": 0.0, "lat": 38.857809, "bike_id": "f20d63640823bba61428e30a83b48556", "fusion_lon": 0.0}, {"rental_uris": {"ios": "https://dc.lft.to/lastmile_qr_scan", "android": "https://dc.lft.to/lastmile_qr_scan"}, "type": "electric_scooter", "name": "ece2acee98a5c228ab38351459ef7825", "is_reserved": 0, "lon": -77.04471033333333, "is_disabled": 0, "fusion_lat": 0.0, "lat": 38.9153305, "bike_id": "ece2acee98a5c228ab38351459ef7825", "fusion_lon": 0.0}, {"rental_uris": {"ios": "https://dc.lft.to/lastmile_qr_scan", "android": "https://dc.lft.to/lastmile_qr_scan"}, "type": "electric_scooter", "name": "7ea17b3c27456e370e1c9b159c8c6f70", "is_reserved": 0, "lon": -77.0170495, "is_disabled": 0, "fusion_lat": 0.0, "lat": 38.904726833333335, "bike_id": "7ea17b3c27456e370e1c9b159c8c6f70", "fusion_lon": 0.0}, {"rental_uris": {"ios": "https://dc.lft.to/lastmile_qr_scan", "android": "https://dc.lft.to/lastmile_qr_scan"}, "type": "electric_scooter", "name": "41768aee050e424796097fb9883ea66e", "is_reserved": 0, "lon": -77.0515455, "is_disabled": 0, "fusion_lat": 0.0, "lat": 38.9050975, "bike_id": "41768aee050e424796097fb9883ea66e", "fusion_lon": 0.0}, {"rental_uris": {"ios": "https://dc.lft.to/lastmile_qr_scan", "android": "https://dc.lft.to/lastmile_qr_scan"}, "type": "electric_scooter", "name": "5111b6c500d5592f668cc97f34bfd4ce", "is_reserved": 0, "lon": -77.053202, "is_disabled": 0, "fusion_lat": 0.0, "lat": 38.92354183333333, "bike_id": "5111b6c500d5592f668cc97f34bfd4ce", "fusion_lon": 0.0}, {"rental_uris": {"ios": "https://dc.lft.to/lastmile_qr_scan", "android": "https://dc.lft.to/lastmile_qr_scan"}, "type": "electric_scooter", "name": "31ba39bc8a51bdef9a1c516d60313064", "is_reserved": 0, "lon": -77.03521433333333, "is_disabled": 0, "fusion_lat": 0.0, "lat": 38.933992833333335, "bike_id": "31ba39bc8a51bdef9a1c516d60313064", "fusion_lon": 0.0}, {"rental_uris": {"ios": "https://dc.lft.to/lastmile_qr_scan", "android": "https://dc.lft.to/lastmile_qr_scan"}, "type": "electric_scooter", "name": "57cebe5a7bdd1d71773480ef605c9dfa", "is_reserved": 0, "lon": -77.028951, "is_disabled": 0, "fusion_lat": 0.0, "lat": 38.925702333333334, "bike_id": "57cebe5a7bdd1d71773480ef605c9dfa", "fusion_lon": 0.0}, {"rental_uris": {"ios": "https://dc.lft.to/lastmile_qr_scan", "android": "https://dc.lft.to/lastmile_qr_scan"}, "type": "electric_scooter", "name": "1ac438e5f701e2ca4a90490e827d3fa3", "is_reserved": 0, "lon": -77.02548666666667, "is_disabled": 0, "fusion_lat": 0.0, "lat": 38.907199, "bike_id": "1ac438e5f701e2ca4a90490e827d3fa3", "fusion_lon": 0.0}, {"rental_uris": {"ios": "https://dc.lft.to/lastmile_qr_scan", "android": "https://dc.lft.to/lastmile_qr_scan"}, "type": "electric_scooter", "name": "9a691998594f8d7e0192675374afac12", "is_reserved": 0, "lon": -77.03466316666666, "is_disabled": 0, "fusion_lat": 0.0, "lat": 38.9127135, "bike_id": "9a691998594f8d7e0192675374afac12", "fusion_lon": 0.0}, {"rental_uris": {"ios": "https://dc.lft.to/lastmile_qr_scan", "android": "https://dc.lft.to/lastmile_qr_scan"}, "type": "electric_bike", "name": "1ba5a13724c81c8c79650642396fcfdf", "is_reserved": 0, "lon": -77.076507, "is_disabled": 0, "fusion_lat": 0.0, "lat": 38.88846183333333, "bike_id": "1ba5a13724c81c8c79650642396fcfdf", "fusion_lon": 0.0}, {"rental_uris": {"ios": "https://dc.lft.to/lastmile_qr_scan", "android": "https://dc.lft.to/lastmile_qr_scan"}, "type": "electric_scooter", "name": "a6a1b1a2a5032aed7c86d8fcd8a9a5b7", "is_reserved": 0, "lon": -77.0211255, "is_disabled": 0, "fusion_lat": 0.0, "lat": 38.914136666666664, "bike_id": "a6a1b1a2a5032aed7c86d8fcd8a9a5b7", "fusion_lon": 0.0}, {"rental_uris": {"ios": "https://dc.lft.to/lastmile_qr_scan", "android": "https://dc.lft.to/lastmile_qr_scan"}, "type": "electric_scooter", "name": "26c648053ca3ea16c5a6b612fa124bb0", "is_reserved": 0, "lon": -77.01866383333333, "is_disabled": 0, "fusion_lat": 0.0, "lat": 38.95153883333333, "bike_id": "26c648053ca3ea16c5a6b612fa124bb0", "fusion_lon": 0.0}, {"rental_uris": {"ios": "https://dc.lft.to/lastmile_qr_scan", "android": "https://dc.lft.to/lastmile_qr_scan"}, "type": "electric_scooter", "name": "c694a93314b0085ffebe7f2295ef9c73", "is_reserved": 0, "lon": -76.99044666666667, "is_disabled": 0, "fusion_lat": 0.0, "lat": 38.92476716666667, "bike_id": "c694a93314b0085ffebe7f2295ef9c73", "fusion_lon": 0.0}, {"rental_uris": {"ios": "https://dc.lft.to/lastmile_qr_scan", "android": "https://dc.lft.to/lastmile_qr_scan"}, "type": "electric_scooter", "name": "2a98a2ea24e585a49d73678559c14d6b", "is_reserved": 0, "lon": -77.04131516666666, "is_disabled": 0, "fusion_lat": 0.0, "lat": 38.9140615, "bike_id": "2a98a2ea24e585a49d73678559c14d6b", "fusion_lon": 0.0}, {"rental_uris": {"ios": "https://dc.lft.to/lastmile_qr_scan", "android": "https://dc.lft.to/lastmile_qr_scan"}, "type": "electric_scooter", "name": "1864b9a1d72a5b25975dc24c748d805e", "is_reserved": 0, "lon": -77.028234, "is_disabled": 0, "fusion_lat": 0.0, "lat": 38.91118633333333, "bike_id": "1864b9a1d72a5b25975dc24c748d805e", "fusion_lon": 0.0}, {"rental_uris": {"ios": "https://dc.lft.to/lastmile_qr_scan", "android": "https://dc.lft.to/lastmile_qr_scan"}, "type": "electric_scooter", "name": "32ea4ebdc3aba26a6cc30e07a85915de", "is_reserved": 0, "lon": -77.03077233333333, "is_disabled": 0, "fusion_lat": 0.0, "lat": 38.923769166666666, "bike_id": "32ea4ebdc3aba26a6cc30e07a85915de", "fusion_lon": 0.0}, {"rental_uris": {"ios": "https://dc.lft.to/lastmile_qr_scan", "android": "https://dc.lft.to/lastmile_qr_scan"}, "type": "electric_scooter", "name": "6a2d9b7f65ea09a0483658156ecd13eb", "is_reserved": 0, "lon": -77.002291, "is_disabled": 0, "fusion_lat": 0.0, "lat": 38.9003175, "bike_id": "6a2d9b7f65ea09a0483658156ecd13eb", "fusion_lon": 0.0}, {"rental_uris": {"ios": "https://dc.lft.to/lastmile_qr_scan", "android": "https://dc.lft.to/lastmile_qr_scan"}, "type": "electric_scooter", "name": "f1b7bd6f20b0848a0bce3a1afaec7bc0", "is_reserved": 0, "lon": -77.08780266666666, "is_disabled": 0, "fusion_lat": 0.0, "lat": 38.935604833333336, "bike_id": "f1b7bd6f20b0848a0bce3a1afaec7bc0", "fusion_lon": 0.0}, {"rental_uris": {"ios": "https://dc.lft.to/lastmile_qr_scan", "android": "https://dc.lft.to/lastmile_qr_scan"}, "type": "electric_bike", "name": "5ea0c7d2cd42ce3185589a1e8165cc6e", "is_reserved": 0, "lon": -77.112831, "is_disabled": 0, "fusion_lat": 0.0, "lat": 38.83107483333333, "bike_id": "5ea0c7d2cd42ce3185589a1e8165cc6e", "fusion_lon": 0.0}, {"rental_uris": {"ios": "https://dc.lft.to/lastmile_qr_scan", "android": "https://dc.lft.to/lastmile_qr_scan"}, "type": "electric_scooter", "name": "93b97ee969a65c52af12e0f121f1c010", "is_reserved": 0, "lon": -77.0632215, "is_disabled": 0, "fusion_lat": 0.0, "lat": 38.913388833333336, "bike_id": "93b97ee969a65c52af12e0f121f1c010", "fusion_lon": 0.0}, {"rental_uris": {"ios": "https://dc.lft.to/lastmile_qr_scan", "android": "https://dc.lft.to/lastmile_qr_scan"}, "type": "electric_scooter", "name": "c5ada528de58e6d29adb67517716fdf9", "is_reserved": 0, "lon": -77.00819066666666, "is_disabled": 0, "fusion_lat": 0.0, "lat": 38.91568866666667, "bike_id": "c5ada528de58e6d29adb67517716fdf9", "fusion_lon": 0.0}, {"rental_uris": {"ios": "https://dc.lft.to/lastmile_qr_scan", "android": "https://dc.lft.to/lastmile_qr_scan"}, "type": "electric_scooter", "name": "c10735970c5d84cede9ee25325fce4b6", "is_reserved": 0, "lon": -76.9869585, "is_disabled": 0, "fusion_lat": 0.0, "lat": 38.90699383333333, "bike_id": "c10735970c5d84cede9ee25325fce4b6", "fusion_lon": 0.0}, {"rental_uris": {"ios": "https://dc.lft.to/lastmile_qr_scan", "android": "https://dc.lft.to/lastmile_qr_scan"}, "type": "electric_scooter", "name": "51083eb517742ce4193e16b30dc6224d", "is_reserved": 0, "lon": -77.04025566666667, "is_disabled": 0, "fusion_lat": 0.0, "lat": 38.92169283333333, "bike_id": "51083eb517742ce4193e16b30dc6224d", "fusion_lon": 0.0}, {"rental_uris": {"ios": "https://dc.lft.to/lastmile_qr_scan", "android": "https://dc.lft.to/lastmile_qr_scan"}, "type": "electric_bike", "name": "7d5cc264715abc182e78069515dfbe35", "is_reserved": 0, "lon": -77.02285833333333, "is_disabled": 0, "fusion_lat": 0.0, "lat": 38.92700766666667, "bike_id": "7d5cc264715abc182e78069515dfbe35", "fusion_lon": 0.0}, {"rental_uris": {"ios": "https://dc.lft.to/lastmile_qr_scan", "android": "https://dc.lft.to/lastmile_qr_scan"}, "type": "electric_scooter", "name": "cadda5cbede8dd2e98b8c6edda39bad5", "is_reserved": 0, "lon": -77.02182766666667, "is_disabled": 0, "fusion_lat": 0.0, "lat": 38.929127666666666, "bike_id": "cadda5cbede8dd2e98b8c6edda39bad5", "fusion_lon": 0.0}, {"rental_uris": {"ios": "https://dc.lft.to/lastmile_qr_scan", "android": "https://dc.lft.to/lastmile_qr_scan"}, "type": "electric_scooter", "name": "29d846b959f11280aeafd0d418d2e589", "is_reserved": 0, "lon": -77.03441266666667, "is_disabled": 0, "fusion_lat": 0.0, "lat": 38.908446833333336, "bike_id": "29d846b959f11280aeafd0d418d2e589", "fusion_lon": 0.0}, {"rental_uris": {"ios": "https://dc.lft.to/lastmile_qr_scan", "android": "https://dc.lft.to/lastmile_qr_scan"}, "type": "electric_scooter", "name": "6f4613c49da16499701c3694063450b1", "is_reserved": 0, "lon": -77.04841366666666, "is_disabled": 0, "fusion_lat": 0.0, "lat": 38.90953983333333, "bike_id": "6f4613c49da16499701c3694063450b1", "fusion_lon": 0.0}, {"rental_uris": {"ios": "https://dc.lft.to/lastmile_qr_scan", "android": "https://dc.lft.to/lastmile_qr_scan"}, "type": "electric_scooter", "name": "2967f78ecdfe1e189e6309ca40749af2", "is_reserved": 0, "lon": -77.03178416666667, "is_disabled": 0, "fusion_lat": 0.0, "lat": 38.89473616666667, "bike_id": "2967f78ecdfe1e189e6309ca40749af2", "fusion_lon": 0.0}, {"rental_uris": {"ios": "https://dc.lft.to/lastmile_qr_scan", "android": "https://dc.lft.to/lastmile_qr_scan"}, "type": "electric_bike", "name": "25dc3cb759d777caf06f3eeb1a837178", "is_reserved": 0, "lon": -76.94535666666667, "is_disabled": 0, "fusion_lat": 0.0, "lat": 38.8675405, "bike_id": "25dc3cb759d777caf06f3eeb1a837178", "fusion_lon": 0.0}, {"rental_uris": {"ios": "https://dc.lft.to/lastmile_qr_scan", "android": "https://dc.lft.to/lastmile_qr_scan"}, "type": "electric_scooter", "name": "ecbb87a2b37e83011d18f1c34ae79757", "is_reserved": 0, "lon": -77.048648, "is_disabled": 0, "fusion_lat": 0.0, "lat": 38.90648383333333, "bike_id": "ecbb87a2b37e83011d18f1c34ae79757", "fusion_lon": 0.0}, {"rental_uris": {"ios": "https://dc.lft.to/lastmile_qr_scan", "android": "https://dc.lft.to/lastmile_qr_scan"}, "type": "electric_bike", "name": "19f36baeffee579ed1329025bd3985ec", "is_reserved": 0, "lon": -77.01741466666667, "is_disabled": 0, "fusion_lat": 0.0, "lat": 38.94604916666667, "bike_id": "19f36baeffee579ed1329025bd3985ec", "fusion_lon": 0.0}, {"rental_uris": {"ios": "https://dc.lft.to/lastmile_qr_scan", "android": "https://dc.lft.to/lastmile_qr_scan"}, "type": "electric_scooter", "name": "0a3030aac2105dc05d0ba794aa14276a", "is_reserved": 0, "lon": -77.023672, "is_disabled": 0, "fusion_lat": 0.0, "lat": 38.90219916666667, "bike_id": "0a3030aac2105dc05d0ba794aa14276a", "fusion_lon": 0.0}, {"rental_uris": {"ios": "https://dc.lft.to/lastmile_qr_scan", "android": "https://dc.lft.to/lastmile_qr_scan"}, "type": "electric_scooter", "name": "ebdcdf83d6f6012692b01982a8e6fbb1", "is_reserved": 0, "lon": -77.037272, "is_disabled": 0, "fusion_lat": 0.0, "lat": 38.9264465, "bike_id": "ebdcdf83d6f6012692b01982a8e6fbb1", "fusion_lon": 0.0}, {"rental_uris": {"ios": "https://dc.lft.to/lastmile_qr_scan", "android": "https://dc.lft.to/lastmile_qr_scan"}, "type": "electric_scooter", "name": "9cae46c91a5525a7151ad5051f842400", "is_reserved": 0, "lon": -77.0272815, "is_disabled": 0, "fusion_lat": 0.0, "lat": 38.89575583333333, "bike_id": "9cae46c91a5525a7151ad5051f842400", "fusion_lon": 0.0}, {"rental_uris": {"ios": "https://dc.lft.to/lastmile_qr_scan", "android": "https://dc.lft.to/lastmile_qr_scan"}, "type": "electric_scooter", "name": "4849686077dee9d89ee208930e6cc46d", "is_reserved": 0, "lon": -77.04460016666667, "is_disabled": 0, "fusion_lat": 0.0, "lat": 38.924693500000004, "bike_id": "4849686077dee9d89ee208930e6cc46d", "fusion_lon": 0.0}, {"rental_uris": {"ios": "https://dc.lft.to/lastmile_qr_scan", "android": "https://dc.lft.to/lastmile_qr_scan"}, "type": "electric_bike", "name": "365a07195798fb344ef05fd4fd4a2984", "is_reserved": 0, "lon": -76.98769683333333, "is_disabled": 0, "fusion_lat": 0.0, "lat": 38.857747, "bike_id": "365a07195798fb344ef05fd4fd4a2984", "fusion_lon": 0.0}, {"rental_uris": {"ios": "https://dc.lft.to/lastmile_qr_scan", "android": "https://dc.lft.to/lastmile_qr_scan"}, "type": "electric_scooter", "name": "d6c94682b6559a781e9807dec7c6241f", "is_reserved": 0, "lon": -77.03131166666667, "is_disabled": 0, "fusion_lat": 0.0, "lat": 38.923750166666665, "bike_id": "d6c94682b6559a781e9807dec7c6241f", "fusion_lon": 0.0}, {"rental_uris": {"ios": "https://dc.lft.to/lastmile_qr_scan", "android": "https://dc.lft.to/lastmile_qr_scan"}, "type": "electric_scooter", "name": "f6e925e69edb0b8afa776c849be31c57", "is_reserved": 0, "lon": -77.01468966666667, "is_disabled": 0, "fusion_lat": 0.0, "lat": 38.879362666666665, "bike_id": "f6e925e69edb0b8afa776c849be31c57", "fusion_lon": 0.0}, {"rental_uris": {"ios": "https://dc.lft.to/lastmile_qr_scan", "android": "https://dc.lft.to/lastmile_qr_scan"},