{"data": {"bikes": [{"lon": -77.03983683333334, "bike_id": "6f665b7e47b95a45cff06bd12490fc03", "lat": 38.90367966666667, "fusion_lon": 0.0, "fusion_lat": 0.0, "type": "electric_scooter", "name": "6f665b7e47b95a45cff06bd12490fc03", "is_disabled": 0, "rental_uris": {"ios": "https://dc.lft.to/lastmile_qr_scan", "android": "https://dc.lft.to/lastmile_qr_scan"}, "is_reserved": 0}, {"lon": -77.0177255, "bike_id": "e0b366b1a904eeb5e0860a3591cffe45", "lat": 38.9011955, "fusion_lon": 0.0, "fusion_lat": 0.0, "type": "electric_scooter", "name": "e0b366b1a904eeb5e0860a3591cffe45", "is_disabled": 0, "rental_uris": {"ios": "https://dc.lft.to/lastmile_qr_scan", "android": "https://dc.lft.to/lastmile_qr_scan"}, "is_reserved": 0}, {"lon": -76.95655233333333, "bike_id": "83508c84058188ce9bbab734b2baeb07", "lat": 38.896167166666665, "fusion_lon": 0.0, "fusion_lat": 0.0, "type": "electric_scooter", "name": "83508c84058188ce9bbab734b2baeb07", "is_disabled": 0, "rental_uris": {"ios": "https://dc.lft.to/lastmile_qr_scan", "android": "https://dc.lft.to/lastmile_qr_scan"}, "is_reserved": 0}, {"lon": -77.12735133333334, "bike_id": "24cba0d11e81d80cdb007de52698008b", "lat": 38.89560616666667, "fusion_lon": 0.0, "fusion_lat": 0.0, "type": "electric_bike", "name": "24cba0d11e81d80cdb007de52698008b", "is_disabled": 0, "rental_uris": {"ios": "https://dc.lft.to/lastmile_qr_scan", "android": "https://dc.lft.to/lastmile_qr_scan"}, "is_reserved": 0}, {"lon": -77.01808183333333, "bike_id": "630ae6d1ad457f976d3ffb66584e1f14", "lat": 38.96481083333333, "fusion_lon": 0.0, "fusion_lat": 0.0, "type": "electric_scooter", "name": "630ae6d1ad457f976d3ffb66584e1f14", "is_disabled": 0, "rental_uris": {"ios": "https://dc.lft.to/lastmile_qr_scan", "android": "https://dc.lft.to/lastmile_qr_scan"}, "is_reserved": 0}, {"lon": -76.8840145, "bike_id": "a385be68222e12953bd4849246ad6f33", "lat": 38.93167116666667, "fusion_lon": 0.0, "fusion_lat": 0.0, "type": "electric_bike", "name": "a385be68222e12953bd4849246ad6f33", "is_disabled": 0, "rental_uris": {"ios": "https://dc.lft.to/lastmile_qr_scan", "android": "https://dc.lft.to/lastmile_qr_scan"}, "is_reserved": 0}, {"lon": -77.0388265, "bike_id": "9f9728d6c21f2496c7e358f3116b3527", "lat": 38.94871033333333, "fusion_lon": 0.0, "fusion_lat": 0.0, "type": "electric_scooter", "name": "9f9728d6c21f2496c7e358f3116b3527", "is_disabled": 0, "rental_uris": {"ios": "https://dc.lft.to/lastmile_qr_scan", "android": "https://dc.lft.to/lastmile_qr_scan"}, "is_reserved": 0}, {"lon": -77.05742983333333, "bike_id": "386056d2ad6cf3b7a820d0d49168e135", "lat": 38.933919833333334, "fusion_lon": 0.0, "fusion_lat": 0.0, "type": "electric_scooter", "name": "386056d2ad6cf3b7a820d0d49168e135", "is_disabled": 0, "rental_uris": {"ios": "https://dc.lft.to/lastmile_qr_scan", "android": "https://dc.lft.to/lastmile_qr_scan"}, "is_reserved": 0}, {"lon": -77.0559545, "bike_id": "7e26bacf056159bce046bc88b0754bee", "lat": 38.93143933333333, "fusion_lon": 0.0, "fusion_lat": 0.0, "type": "electric_scooter", "name": "7e26bacf056159bce046bc88b0754bee", "is_disabled": 0, "rental_uris": {"ios": "https://dc.lft.to/lastmile_qr_scan", "android": "https://dc.lft.to/lastmile_qr_scan"}, "is_reserved": 0}, {"lon": -76.9882485, "bike_id": "988e039616850e84f01e9cc8fd5b067b", "lat": 38.890754, "fusion_lon": 0.0, "fusion_lat": 0.0, "type": "electric_scooter", "name": "988e039616850e84f01e9cc8fd5b067b", "is_disabled": 0, "rental_uris": {"ios": "https://dc.lft.to/lastmile_qr_scan", "android": "https://dc.lft.to/lastmile_qr_scan"}, "is_reserved": 0}, {"lon": -77.02750483333334, "bike_id": "ab2d502021452fd5546aadd396a8bfbb", "lat": 38.965689833333336, "fusion_lon": 0.0, "fusion_lat": 0.0, "type": "electric_bike", "name": "ab2d502021452fd5546aadd396a8bfbb", "is_disabled": 0, "rental_uris": {"ios": "https://dc.lft.to/lastmile_qr_scan", "android": "https://dc.lft.to/lastmile_qr_scan"}, "is_reserved": 0}, {"lon": -76.961318, "bike_id": "ba98a006b67dcbd6a45bfee62d559984", "lat": 38.9421175, "fusion_lon": 0.0, "fusion_lat": 0.0, "type": "electric_bike", "name": "ba98a006b67dcbd6a45bfee62d559984", "is_disabled": 0, "rental_uris": {"ios": "https://dc.lft.to/lastmile_qr_scan", "android": "https://dc.lft.to/lastmile_qr_scan"}, "is_reserved": 0}, {"lon": -77.03397733333334, "bike_id": "57b10908a3b0850c4d653a83a0cf19e6", "lat": 38.90951783333333, "fusion_lon": 0.0, "fusion_lat": 0.0, "type": "electric_scooter", "name": "57b10908a3b0850c4d653a83a0cf19e6", "is_disabled": 0, "rental_uris": {"ios": "https://dc.lft.to/lastmile_qr_scan", "android": "https://dc.lft.to/lastmile_qr_scan"}, "is_reserved": 0}, {"lon": -77.04648166666666, "bike_id": "7cbc14ace5924bf5ce2c39adcab4d299", "lat": 39.055024333333336, "fusion_lon": 0.0, "fusion_lat": 0.0, "type": "electric_bike", "name": "7cbc14ace5924bf5ce2c39adcab4d299", "is_disabled": 0, "rental_uris": {"ios": "https://dc.lft.to/lastmile_qr_scan", "android": "https://dc.lft.to/lastmile_qr_scan"}, "is_reserved": 0}, {"lon": -77.02203716666666, "bike_id": "8d9c45ccd741b9da8d7578f8559fa35b", "lat": 38.9003825, "fusion_lon": 0.0, "fusion_lat": 0.0, "type": "electric_scooter", "name": "8d9c45ccd741b9da8d7578f8559fa35b", "is_disabled": 0, "rental_uris": {"ios": "https://dc.lft.to/lastmile_qr_scan", "android": "https://dc.lft.to/lastmile_qr_scan"}, "is_reserved": 0}, {"lon": -77.04130066666667, "bike_id": "0539fdf461947f82db40c7c12d59b212", "lat": 38.90622166666667, "fusion_lon": 0.0, "fusion_lat": 0.0, "type": "electric_scooter", "name": "0539fdf461947f82db40c7c12d59b212", "is_disabled": 0, "rental_uris": {"ios": "https://dc.lft.to/lastmile_qr_scan", "android": "https://dc.lft.to/lastmile_qr_scan"}, "is_reserved": 0}, {"lon": -77.01132433333333, "bike_id": "75bf41fbedc5793d040592c970e4d204", "lat": 38.885237000000004, "fusion_lon": 0.0, "fusion_lat": 0.0, "type": "electric_scooter", "name": "75bf41fbedc5793d040592c970e4d204", "is_disabled": 0, "rental_uris": {"ios": "https://dc.lft.to/lastmile_qr_scan", "android": "https://dc.lft.to/lastmile_qr_scan"}, "is_reserved": 0}, {"lon": -77.02395533333333, "bike_id": "58d37fcc424361d840d6a68044b5c793", "lat": 38.90421666666667, "fusion_lon": 0.0, "fusion_lat": 0.0, "type": "electric_scooter", "name": "58d37fcc424361d840d6a68044b5c793", "is_disabled": 0, "rental_uris": {"ios": "https://dc.lft.to/lastmile_qr_scan", "android": "https://dc.lft.to/lastmile_qr_scan"}, "is_reserved": 0}, {"lon": -77.058656, "bike_id": "97a51c251c64e038103001a9d193c801", "lat": 38.936026, "fusion_lon": 0.0, "fusion_lat": 0.0, "type": "electric_scooter", "name": "97a51c251c64e038103001a9d193c801", "is_disabled": 0, "rental_uris": {"ios": "https://dc.lft.to/lastmile_qr_scan", "android": "https://dc.lft.to/lastmile_qr_scan"}, "is_reserved": 0}, {"lon": -77.0344605, "bike_id": "e165256cd50e6185652dc5da283675cb", "lat": 38.907198, "fusion_lon": 0.0, "fusion_lat": 0.0, "type": "electric_scooter", "name": "e165256cd50e6185652dc5da283675cb", "is_disabled": 0, "rental_uris": {"ios": "https://dc.lft.to/lastmile_qr_scan", "android": "https://dc.lft.to/lastmile_qr_scan"}, "is_reserved": 0}, {"lon": -77.0459305, "bike_id": "e4de246e2faaddf0316de74cac3fc888", "lat": 38.91924366666667, "fusion_lon": 0.0, "fusion_lat": 0.0, "type": "electric_scooter", "name": "e4de246e2faaddf0316de74cac3fc888", "is_disabled": 0, "rental_uris": {"ios": "https://dc.lft.to/lastmile_qr_scan", "android": "https://dc.lft.to/lastmile_qr_scan"}, "is_reserved": 0}, {"lon": -77.03555316666667, "bike_id": "3f23dd0817ba4f05b12d86ead7dcbfdb", "lat": 38.90841366666667, "fusion_lon": 0.0, "fusion_lat": 0.0, "type": "electric_scooter", "name": "3f23dd0817ba4f05b12d86ead7dcbfdb", "is_disabled": 0, "rental_uris": {"ios": "https://dc.lft.to/lastmile_qr_scan", "android": "https://dc.lft.to/lastmile_qr_scan"}, "is_reserved": 0}, {"lon": -77.022719, "bike_id": "96eb3c9b261b261eabdd58064c9a25f9", "lat": 38.9127535, "fusion_lon": 0.0, "fusion_lat": 0.0, "type": "electric_scooter", "name": "96eb3c9b261b261eabdd58064c9a25f9", "is_disabled": 0, "rental_uris": {"ios": "https://dc.lft.to/lastmile_qr_scan", "android": "https://dc.lft.to/lastmile_qr_scan"}, "is_reserved": 0}, {"lon": -77.0274555, "bike_id": "c273c6b9ffb32c5ab03e146fde7b26b3", "lat": 38.94390416666667, "fusion_lon": 0.0, "fusion_lat": 0.0, "type": "electric_scooter", "name": "c273c6b9ffb32c5ab03e146fde7b26b3", "is_disabled": 0, "rental_uris": {"ios": "https://dc.lft.to/lastmile_qr_scan", "android": "https://dc.lft.to/lastmile_qr_scan"}, "is_reserved": 0}, {"lon": -77.035154, "bike_id": "ce97f6529f5be5c84ddfc6d631c705ee", "lat": 38.9233815, "fusion_lon": 0.0, "fusion_lat": 0.0, "type": "electric_scooter", "name": "ce97f6529f5be5c84ddfc6d631c705ee", "is_disabled": 0, "rental_uris": {"ios": "https://dc.lft.to/lastmile_qr_scan", "android": "https://dc.lft.to/lastmile_qr_scan"}, "is_reserved": 0}, {"lon": -76.97330766666667, "bike_id": "1bbe4fe1f292c74d4dd979465fb0fe64", "lat": 38.9040885, "fusion_lon": 0.0, "fusion_lat": 0.0, "type": "electric_scooter", "name": "1bbe4fe1f292c74d4dd979465fb0fe64", "is_disabled": 0, "rental_uris": {"ios": "https://dc.lft.to/lastmile_qr_scan", "android": "https://dc.lft.to/lastmile_qr_scan"}, "is_reserved": 0}, {"lon": -77.03263183333334, "bike_id": "b33626e6bf906c98bd7a6f0b4e635401", "lat": 38.932309000000004, "fusion_lon": 0.0, "fusion_lat": 0.0, "type": "electric_scooter", "name": "b33626e6bf906c98bd7a6f0b4e635401", "is_disabled": 0, "rental_uris": {"ios": "https://dc.lft.to/lastmile_qr_scan", "android": "https://dc.lft.to/lastmile_qr_scan"}, "is_reserved": 0}, {"lon": -77.05329266666666, "bike_id": "80159a9d5f5e15ac7de267ea1561d8c5", "lat": 38.901500666666664, "fusion_lon": 0.0, "fusion_lat": 0.0, "type": "electric_scooter", "name": "80159a9d5f5e15ac7de267ea1561d8c5", "is_disabled": 0, "rental_uris": {"ios": "https://dc.lft.to/lastmile_qr_scan", "android": "https://dc.lft.to/lastmile_qr_scan"}, "is_reserved": 0}, {"lon": -77.041013, "bike_id": "65d3c52d481981d8c118defda2c5c2a0", "lat": 38.917701, "fusion_lon": 0.0, "fusion_lat": 0.0, "type": "electric_scooter", "name": "65d3c52d481981d8c118defda2c5c2a0", "is_disabled": 0, "rental_uris": {"ios": "https://dc.lft.to/lastmile_qr_scan", "android": "https://dc.lft.to/lastmile_qr_scan"}, "is_reserved": 0}, {"lon": -77.03655633333334, "bike_id": "550acfe33c811d62d405b85723e72b3f", "lat": 38.917479666666665, "fusion_lon": 0.0, "fusion_lat": 0.0, "type": "electric_scooter", "name": "550acfe33c811d62d405b85723e72b3f", "is_disabled": 0, "rental_uris": {"ios": "https://dc.lft.to/lastmile_qr_scan", "android": "https://dc.lft.to/lastmile_qr_scan"}, "is_reserved": 0}, {"lon": -77.03186366666667, "bike_id": "e8c079325263d247124aaea635183e79", "lat": 38.9168295, "fusion_lon": 0.0, "fusion_lat": 0.0, "type": "electric_scooter", "name": "e8c079325263d247124aaea635183e79", "is_disabled": 0, "rental_uris": {"ios": "https://dc.lft.to/lastmile_qr_scan", "android": "https://dc.lft.to/lastmile_qr_scan"}, "is_reserved": 0}, {"lon": -77.02601216666666, "bike_id": "dfbe46d3061baf8460aa2acea04f1654", "lat": 38.920342166666664, "fusion_lon": 0.0, "fusion_lat": 0.0, "type": "electric_scooter", "name": "dfbe46d3061baf8460aa2acea04f1654", "is_disabled": 0, "rental_uris": {"ios": "https://dc.lft.to/lastmile_qr_scan", "android": "https://dc.lft.to/lastmile_qr_scan"}, "is_reserved": 0}, {"lon": -77.1059235, "bike_id": "99a088e997c9b3e36cbc0ed3c331c30d", "lat": 38.90385216666667, "fusion_lon": 0.0, "fusion_lat": 0.0, "type": "electric_bike", "name": "99a088e997c9b3e36cbc0ed3c331c30d", "is_disabled": 0, "rental_uris": {"ios": "https://dc.lft.to/lastmile_qr_scan", "android": "https://dc.lft.to/lastmile_qr_scan"}, "is_reserved": 0}, {"lon": -77.02586233333334, "bike_id": "7fe8142f3ec2d254706f1759cee5e46c", "lat": 38.892247833333336, "fusion_lon": 0.0, "fusion_lat": 0.0, "type": "electric_scooter", "name": "7fe8142f3ec2d254706f1759cee5e46c", "is_disabled": 0, "rental_uris": {"ios": "https://dc.lft.to/lastmile_qr_scan", "android": "https://dc.lft.to/lastmile_qr_scan"}, "is_reserved": 0}, {"lon": -76.97300583333333, "bike_id": "6538da09788dbf784673bb4ea66bfa69", "lat": 38.916461166666664, "fusion_lon": 0.0, "fusion_lat": 0.0, "type": "electric_bike", "name": "6538da09788dbf784673bb4ea66bfa69", "is_disabled": 0, "rental_uris": {"ios": "https://dc.lft.to/lastmile_qr_scan", "android": "https://dc.lft.to/lastmile_qr_scan"}, "is_reserved": 0}, {"lon": -77.233287, "bike_id": "94054043715599e664d114e79c023f7e", "lat": 38.87274466666667, "fusion_lon": 0.0, "fusion_lat": 0.0, "type": "electric_bike", "name": "94054043715599e664d114e79c023f7e", "is_disabled": 0, "rental_uris": {"ios": "https://dc.lft.to/lastmile_qr_scan", "android": "https://dc.lft.to/lastmile_qr_scan"}, "is_reserved": 0}, {"lon": -76.9654725, "bike_id": "c400e9fc14fa587c53876d778e77636d", "lat": 38.918459, "fusion_lon": 0.0, "fusion_lat": 0.0, "type": "electric_scooter", "name": "c400e9fc14fa587c53876d778e77636d", "is_disabled": 0, "rental_uris": {"ios": "https://dc.lft.to/lastmile_qr_scan", "android": "https://dc.lft.to/lastmile_qr_scan"}, "is_reserved": 0}, {"lon": -77.03270633333334, "bike_id": "46275cbdc43c35d07477c9533ad5373b", "lat": 38.903927333333336, "fusion_lon": 0.0, "fusion_lat": 0.0, "type": "electric_scooter", "name": "46275cbdc43c35d07477c9533ad5373b", "is_disabled": 0, "rental_uris": {"ios": "https://dc.lft.to/lastmile_qr_scan", "android": "https://dc.lft.to/lastmile_qr_scan"}, "is_reserved": 0}, {"lon": -77.043016, "bike_id": "18f1f0563f413fc569d05a8af076a7ef", "lat": 38.90539066666667, "fusion_lon": 0.0, "fusion_lat": 0.0, "type": "electric_scooter", "name": "18f1f0563f413fc569d05a8af076a7ef", "is_disabled": 0, "rental_uris": {"ios": "https://dc.lft.to/lastmile_qr_scan", "android": "https://dc.lft.to/lastmile_qr_scan"}, "is_reserved": 0}, {"lon": -76.98879783333334, "bike_id": "f7a6219bb7f60ee39bff512d32414d8e", "lat": 38.86660666666667, "fusion_lon": 0.0, "fusion_lat": 0.0, "type": "electric_scooter", "name": "f7a6219bb7f60ee39bff512d32414d8e", "is_disabled": 0, "rental_uris": {"ios": "https://dc.lft.to/lastmile_qr_scan", "android": "https://dc.lft.to/lastmile_qr_scan"}, "is_reserved": 0}, {"lon": -77.23319533333333, "bike_id": "b658801aa74272793e4fab6a426bab8a", "lat": 38.872820833333336, "fusion_lon": 0.0, "fusion_lat": 0.0, "type": "electric_bike", "name": "b658801aa74272793e4fab6a426bab8a", "is_disabled": 0, "rental_uris": {"ios": "https://dc.lft.to/lastmile_qr_scan", "android": "https://dc.lft.to/lastmile_qr_scan"}, "is_reserved": 0}, {"lon": -77.0088885, "bike_id": "7cca31ff04938ed0171758f42c29a3d1", "lat": 38.92274366666667, "fusion_lon": 0.0, "fusion_lat": 0.0, "type": "electric_scooter", "name": "7cca31ff04938ed0171758f42c29a3d1", "is_disabled": 0, "rental_uris": {"ios": "https://dc.lft.to/lastmile_qr_scan", "android": "https://dc.lft.to/lastmile_qr_scan"}, "is_reserved": 0}, {"lon": -76.95000733333333, "bike_id": "dd3bd6202938f55289d1b0984a3ab646", "lat": 38.89383816666667, "fusion_lon": 0.0, "fusion_lat": 0.0, "type": "electric_scooter", "name": "dd3bd6202938f55289d1b0984a3ab646", "is_disabled": 0, "rental_uris": {"ios": "https://dc.lft.to/lastmile_qr_scan", "android": "https://dc.lft.to/lastmile_qr_scan"}, "is_reserved": 0}, {"lon": -77.05886133333334, "bike_id": "c920ead608f5dd081620ef77e5ba5ea1", "lat": 38.936065666666664, "fusion_lon": 0.0, "fusion_lat": 0.0, "type": "electric_scooter", "name": "c920ead608f5dd081620ef77e5ba5ea1", "is_disabled": 0, "rental_uris": {"ios": "https://dc.lft.to/lastmile_qr_scan", "android": "https://dc.lft.to/lastmile_qr_scan"}, "is_reserved": 0}, {"lon": -77.0021025, "bike_id": "a1269b450a2241df0c811462bcf4b78b", "lat": 38.924356, "fusion_lon": 0.0, "fusion_lat": 0.0, "type": "electric_scooter", "name": "a1269b450a2241df0c811462bcf4b78b", "is_disabled": 0, "rental_uris": {"ios": "https://dc.lft.to/lastmile_qr_scan", "android": "https://dc.lft.to/lastmile_qr_scan"}, "is_reserved": 0}, {"lon": -77.06821433333333, "bike_id": "253cbd3148530b66f9f1a8fcfd6796cf", "lat": 38.903885, "fusion_lon": 0.0, "fusion_lat": 0.0, "type": "electric_bike", "name": "253cbd3148530b66f9f1a8fcfd6796cf", "is_disabled": 0, "rental_uris": {"ios": "https://dc.lft.to/lastmile_qr_scan", "android": "https://dc.lft.to/lastmile_qr_scan"}, "is_reserved": 0}, {"lon": -77.03868116666666, "bike_id": "9aa24b403905c141e0257f234ce30613", "lat": 38.915503666666666, "fusion_lon": 0.0, "fusion_lat": 0.0, "type": "electric_scooter", "name": "9aa24b403905c141e0257f234ce30613", "is_disabled": 0, "rental_uris": {"ios": "https://dc.lft.to/lastmile_qr_scan", "android": "https://dc.lft.to/lastmile_qr_scan"}, "is_reserved": 0}, {"lon": -77.02887466666667, "bike_id": "f97b992f3cc2172a67038db34c9bf276", "lat": 38.904534166666664, "fusion_lon": 0.0, "fusion_lat": 0.0, "type": "electric_scooter", "name": "f97b992f3cc2172a67038db34c9bf276", "is_disabled": 0, "rental_uris": {"ios": "https://dc.lft.to/lastmile_qr_scan", "android": "https://dc.lft.to/lastmile_qr_scan"}, "is_reserved": 0}, {"lon": -77.0362805, "bike_id": "f7e8b0c62f9893e0bb4886e281c073a3", "lat": 38.948156166666664, "fusion_lon": 0.0, "fusion_lat": 0.0, "type": "electric_scooter", "name": "f7e8b0c62f9893e0bb4886e281c073a3", "is_disabled": 0, "rental_uris": {"ios": "https://dc.lft.to/lastmile_qr_scan", "android": "https://dc.lft.to/lastmile_qr_scan"}, "is_reserved": 0}, {"lon": -77.02707366666667, "bike_id": "e2216f333b1948fdf8783cd48d56ec60", "lat": 38.927786, "fusion_lon": 0.0, "fusion_lat": 0.0, "type": "electric_scooter", "name": "e2216f333b1948fdf8783cd48d56ec60", "is_disabled": 0, "rental_uris": {"ios": "https://dc.lft.to/lastmile_qr_scan", "android": "https://dc.lft.to/lastmile_qr_scan"}, "is_reserved": 0}, {"lon": -77.0240305, "bike_id": "b1a9b9ef33d87217c9dbc9f6ac91f876", "lat": 38.917486, "fusion_lon": 0.0, "fusion_lat": 0.0, "type": "electric_scooter", "name": "b1a9b9ef33d87217c9dbc9f6ac91f876", "is_disabled": 0, "rental_uris": {"ios": "https://dc.lft.to/lastmile_qr_scan", "android": "https://dc.lft.to/lastmile_qr_scan"}, "is_reserved": 0}, {"lon": -77.01853183333333, "bike_id": "e95530f9069977b02d3ece45e5e2d030", "lat": 38.920258833333335, "fusion_lon": 0.0, "fusion_lat": 0.0, "type": "electric_scooter", "name": "e95530f9069977b02d3ece45e5e2d030", "is_disabled": 0, "rental_uris": {"ios": "https://dc.lft.to/lastmile_qr_scan", "android": "https://dc.lft.to/lastmile_qr_scan"}, "is_reserved": 0}, {"lon": -77.0283765, "bike_id": "16321be9bb8197fae7c0a07a3a8a8430", "lat": 38.887716166666664, "fusion_lon": 0.0, "fusion_lat": 0.0, "type": "electric_scooter", "name": "16321be9bb8197fae7c0a07a3a8a8430", "is_disabled": 0, "rental_uris": {"ios": "https://dc.lft.to/lastmile_qr_scan", "android": "https://dc.lft.to/lastmile_qr_scan"}, "is_reserved": 0}, {"lon": -77.04619016666666, "bike_id": "77977d9f08315a29949de94cc7273b97", "lat": 38.9160405, "fusion_lon": 0.0, "fusion_lat": 0.0, "type": "electric_scooter", "name": "77977d9f08315a29949de94cc7273b97", "is_disabled": 0, "rental_uris": {"ios": "https://dc.lft.to/lastmile_qr_scan", "android": "https://dc.lft.to/lastmile_qr_scan"}, "is_reserved": 0}, {"lon": -77.07594233333333, "bike_id": "a0660206bdab179d34aa2eb7dd76e8a5", "lat": 38.91219, "fusion_lon": 0.0, "fusion_lat": 0.0, "type": "electric_scooter", "name": "a0660206bdab179d34aa2eb7dd76e8a5", "is_disabled": 0, "rental_uris": {"ios": "https://dc.lft.to/lastmile_qr_scan", "android": "https://dc.lft.to/lastmile_qr_scan"}, "is_reserved": 0}, {"lon": -77.02001633333333, "bike_id": "73ea1ab2aa845c207637d6ee334d911c", "lat": 38.89734983333334, "fusion_lon": 0.0, "fusion_lat": 0.0, "type": "electric_scooter", "name": "73ea1ab2aa845c207637d6ee334d911c", "is_disabled": 0, "rental_uris": {"ios": "https://dc.lft.to/lastmile_qr_scan", "android": "https://dc.lft.to/lastmile_qr_scan"}, "is_reserved": 0}, {"lon": -77.0408435, "bike_id": "3a99da26a61fa18d43a653a37bdce91b", "lat": 38.905871833333336, "fusion_lon": 0.0, "fusion_lat": 0.0, "type": "electric_scooter", "name": "3a99da26a61fa18d43a653a37bdce91b", "is_disabled": 0, "rental_uris": {"ios": "https://dc.lft.to/lastmile_qr_scan", "android": "https://dc.lft.to/lastmile_qr_scan"}, "is_reserved": 0}, {"lon": -77.02762183333333, "bike_id": "b30e8838cb36fe0cec790f59dbcf1ed7", "lat": 38.954253666666666, "fusion_lon": 0.0, "fusion_lat": 0.0, "type": "electric_scooter", "name": "b30e8838cb36fe0cec790f59dbcf1ed7", "is_disabled": 0, "rental_uris": {"ios": "https://dc.lft.to/lastmile_qr_scan", "android": "https://dc.lft.to/lastmile_qr_scan"}, "is_reserved": 0}, {"lon": -77.01541966666667, "bike_id": "4b12e02ecc76b8306f49b3d41db3e0ec", "lat": 38.8849795, "fusion_lon": 0.0, "fusion_lat": 0.0, "type": "electric_scooter", "name": "4b12e02ecc76b8306f49b3d41db3e0ec", "is_disabled": 0, "rental_uris": {"ios": "https://dc.lft.to/lastmile_qr_scan", "android": "https://dc.lft.to/lastmile_qr_scan"}, "is_reserved": 0}, {"lon": -77.02466583333333, "bike_id": "dd54db6b70a23fde3632a4d4d3ff31fc", "lat": 38.903959, "fusion_lon": 0.0, "fusion_lat": 0.0, "type": "electric_scooter", "name": "dd54db6b70a23fde3632a4d4d3ff31fc", "is_disabled": 0, "rental_uris": {"ios": "https://dc.lft.to/lastmile_qr_scan", "android": "https://dc.lft.to/lastmile_qr_scan"}, "is_reserved": 0}, {"lon": -77.03754866666667, "bike_id": "18a644e9e69083a8614199595b6ca3f7", "lat": 38.9118605, "fusion_lon": 0.0, "fusion_lat": 0.0, "type": "electric_scooter", "name": "18a644e9e69083a8614199595b6ca3f7", "is_disabled": 0, "rental_uris": {"ios": "https://dc.lft.to/lastmile_qr_scan", "android": "https://dc.lft.to/lastmile_qr_scan"}, "is_reserved": 0}, {"lon": -77.0073375, "bike_id": "cd632d4a656889c375d8a435a91a50ef", "lat": 38.89852966666667, "fusion_lon": 0.0, "fusion_lat": 0.0, "type": "electric_scooter", "name": "cd632d4a656889c375d8a435a91a50ef", "is_disabled": 0, "rental_uris": {"ios": "https://dc.lft.to/lastmile_qr_scan", "android": "https://dc.lft.to/lastmile_qr_scan"}, "is_reserved": 0}, {"lon": -77.0377315, "bike_id": "54fa521c1818ffa75a5209c06dadf794", "lat": 38.91689083333333, "fusion_lon": 0.0, "fusion_lat": 0.0, "type": "electric_scooter", "name": "54fa521c1818ffa75a5209c06dadf794", "is_disabled": 0, "rental_uris": {"ios": "https://dc.lft.to/lastmile_qr_scan", "android": "https://dc.lft.to/lastmile_qr_scan"}, "is_reserved": 0}, {"lon": -77.02258466666666, "bike_id": "ac727f8aa74ced1336919ff38871d2c4", "lat": 38.92528166666666, "fusion_lon": 0.0, "fusion_lat": 0.0, "type": "electric_scooter", "name": "ac727f8aa74ced1336919ff38871d2c4", "is_disabled": 0, "rental_uris": {"ios": "https://dc.lft.to/lastmile_qr_scan", "android": "https://dc.lft.to/lastmile_qr_scan"}, "is_reserved": 0}, {"lon": -76.94990183333333, "bike_id": "c4dd2c9205c32e3597aaa7b535c71583", "lat": 38.893805666666665, "fusion_lon": 0.0, "fusion_lat": 0.0, "type": "electric_scooter", "name": "c4dd2c9205c32e3597aaa7b535c71583", "is_disabled": 0, "rental_uris": {"ios": "https://dc.lft.to/lastmile_qr_scan", "android": "https://dc.lft.to/lastmile_qr_scan"}, "is_reserved": 0}, {"lon": -77.02516416666667, "bike_id": "a390f49144fcbe4d8179e90395743c68", "lat": 38.92081366666667, "fusion_lon": 0.0, "fusion_lat": 0.0, "type": "electric_scooter", "name": "a390f49144fcbe4d8179e90395743c68", "is_disabled": 0, "rental_uris": {"ios": "https://dc.lft.to/lastmile_qr_scan", "android": "https://dc.lft.to/lastmile_qr_scan"}, "is_reserved": 0}, {"lon": -77.05940333333334, "bike_id": "bfb68361d27394b698ca650aed0a6a47", "lat": 38.91193833333333, "fusion_lon": 0.0, "fusion_lat": 0.0, "type": "electric_bike", "name": "bfb68361d27394b698ca650aed0a6a47", "is_disabled": 0, "rental_uris": {"ios": "https://dc.lft.to/lastmile_qr_scan", "android": "https://dc.lft.to/lastmile_qr_scan"}, "is_reserved": 0}, {"lon": -77.03214683333333, "bike_id": "5284d3aa68eb890283f4b2d7346a121d", "lat": 38.91814683333333, "fusion_lon": 0.0, "fusion_lat": 0.0, "type": "electric_scooter", "name": "5284d3aa68eb890283f4b2d7346a121d", "is_disabled": 0, "rental_uris": {"ios": "https://dc.lft.to/lastmile_qr_scan", "android": "https://dc.lft.to/lastmile_qr_scan"}, "is_reserved": 0}, {"lon": -76.956548, "bike_id": "a6cbfa0e8b96d6ededed713c0c8d5c4d", "lat": 38.895559, "fusion_lon": 0.0, "fusion_lat": 0.0, "type": "electric_scooter", "name": "a6cbfa0e8b96d6ededed713c0c8d5c4d", "is_disabled": 0, "rental_uris": {"ios": "https://dc.lft.to/lastmile_qr_scan", "android": "https://dc.lft.to/lastmile_qr_scan"}, "is_reserved": 0}, {"lon": -76.99166266666667, "bike_id": "ecb557986918fecee78c7bcc38809c14", "lat": 38.9096725, "fusion_lon": 0.0, "fusion_lat": 0.0, "type": "electric_scooter", "name": "ecb557986918fecee78c7bcc38809c14", "is_disabled": 0, "rental_uris": {"ios": "https://dc.lft.to/lastmile_qr_scan", "android": "https://dc.lft.to/lastmile_qr_scan"}, "is_reserved": 0}, {"lon": -77.03284816666667, "bike_id": "41c71d9b8b36461d58ab38ef1041601b", "lat": 38.93639666666667, "fusion_lon": 0.0, "fusion_lat": 0.0, "type": "electric_scooter", "name": "41c71d9b8b36461d58ab38ef1041601b", "is_disabled": 0, "rental_uris": {"ios": "https://dc.lft.to/lastmile_qr_scan", "android": "https://dc.lft.to/lastmile_qr_scan"}, "is_reserved": 0}, {"lon": -77.0221755, "bike_id": "9aa2f68c078f6a87479f23864125dee0", "lat": 38.87895366666667, "fusion_lon": 0.0, "fusion_lat": 0.0, "type": "electric_bike", "name": "9aa2f68c078f6a87479f23864125dee0", "is_disabled": 0, "rental_uris": {"ios": "https://dc.lft.to/lastmile_qr_scan", "android": "https://dc.lft.to/lastmile_qr_scan"}, "is_reserved": 0}, {"lon": -77.03292416666666, "bike_id": "0cf1658ed29b8936a7bad5a2881267d3", "lat": 38.95652833333333, "fusion_lon": 0.0, "fusion_lat": 0.0, "type": "electric_scooter", "name": "0cf1658ed29b8936a7bad5a2881267d3", "is_disabled": 0, "rental_uris": {"ios": "https://dc.lft.to/lastmile_qr_scan", "android": "https://dc.lft.to/lastmile_qr_scan"}, "is_reserved": 0}, {"lon": -77.0021895, "bike_id": "2ff4b9ad106ea55f5ceef1baff7a8b04", "lat": 38.900347833333335, "fusion_lon": 0.0, "fusion_lat": 0.0, "type": "electric_scooter", "name": "2ff4b9ad106ea55f5ceef1baff7a8b04", "is_disabled": 0, "rental_uris": {"ios": "https://dc.lft.to/lastmile_qr_scan", "android": "https://dc.lft.to/lastmile_qr_scan"}, "is_reserved": 0}, {"lon": -77.07351283333334, "bike_id": "e741222b20784d41e72448783c9088e3", "lat": 38.93472766666667, "fusion_lon": 0.0, "fusion_lat": 0.0, "type": "electric_scooter", "name": "e741222b20784d41e72448783c9088e3", "is_disabled": 0, "rental_uris": {"ios": "https://dc.lft.to/lastmile_qr_scan", "android": "https://dc.lft.to/lastmile_qr_scan"}, "is_reserved": 0}, {"lon": -77.1784185, "bike_id": "740633741aa84e58b6fb0c5d155c7ae4", "lat": 39.08853966666667, "fusion_lon": 0.0, "fusion_lat": 0.0, "type": "electric_bike", "name": "740633741aa84e58b6fb0c5d155c7ae4", "is_disabled": 0, "rental_uris": {"ios": "https://dc.lft.to/lastmile_qr_scan", "android": "https://dc.lft.to/lastmile_qr_scan"}, "is_reserved": 0}, {"lon": -76.97869666666666, "bike_id": "7b629959f7610eee43836038d2700090", "lat": 38.883052166666666, "fusion_lon": 0.0, "fusion_lat": 0.0, "type": "electric_scooter", "name": "7b629959f7610eee43836038d2700090", "is_disabled": 0, "rental_uris": {"ios": "https://dc.lft.to/lastmile_qr_scan", "android": "https://dc.lft.to/lastmile_qr_scan"}, "is_reserved": 0}, {"lon": -77.0411725, "bike_id": "3fb8d918987a34d5f6b58f3a38215087", "lat": 38.934686666666664, "fusion_lon": 0.0, "fusion_lat": 0.0, "type": "electric_scooter", "name": "3fb8d918987a34d5f6b58f3a38215087", "is_disabled": 0, "rental_uris": {"ios": "https://dc.lft.to/lastmile_qr_scan", "android": "https://dc.lft.to/lastmile_qr_scan"}, "is_reserved": 0}, {"lon": -77.01360583333333, "bike_id": "1447bb8c9977913484c7d8857c3e5dd4", "lat": 38.89717066666667, "fusion_lon": 0.0, "fusion_lat": 0.0, "type": "electric_scooter", "name": "1447bb8c9977913484c7d8857c3e5dd4", "is_disabled": 0, "rental_uris": {"ios": "https://dc.lft.to/lastmile_qr_scan", "android": "https://dc.lft.to/lastmile_qr_scan"}, "is_reserved": 0}, {"lon": -77.04507983333333, "bike_id": "438742c0df7a9ebb2d822dd215120b7b", "lat": 38.903685, "fusion_lon": 0.0, "fusion_lat": 0.0, "type": "electric_scooter", "name": "438742c0df7a9ebb2d822dd215120b7b", "is_disabled": 0, "rental_uris": {"ios": "https://dc.lft.to/lastmile_qr_scan", "android": "https://dc.lft.to/lastmile_qr_scan"}, "is_reserved": 0}, {"lon": -77.0219275, "bike_id": "c63e5902724b30ef50ceb1f9f62be5af", "lat": 38.91129166666666, "fusion_lon": 0.0, "fusion_lat": 0.0, "type": "electric_scooter", "name": "c63e5902724b30ef50ceb1f9f62be5af", "is_disabled": 0, "rental_uris": {"ios": "https://dc.lft.to/lastmile_qr_scan", "android": "https://dc.lft.to/lastmile_qr_scan"}, "is_reserved": 0}, {"lon": -77.0079605, "bike_id": "e33e1296273c4756c277a3157c2685a5", "lat": 38.896445, "fusion_lon": 0.0, "fusion_lat": 0.0, "type": "electric_scooter", "name": "e33e1296273c4756c277a3157c2685a5", "is_disabled": 0, "rental_uris": {"ios": "https://dc.lft.to/lastmile_qr_scan", "android": "https://dc.lft.to/lastmile_qr_scan"}, "is_reserved": 0}, {"lon": -77.0284655, "bike_id": "297c347a7886a18cd5cbec4e5e8f42dc", "lat": 38.927621333333335, "fusion_lon": 0.0, "fusion_lat": 0.0, "type": "electric_scooter", "name": "297c347a7886a18cd5cbec4e5e8f42dc", "is_disabled": 0, "rental_uris": {"ios": "https://dc.lft.to/lastmile_qr_scan", "android": "https://dc.lft.to/lastmile_qr_scan"}, "is_reserved": 0}, {"lon": -77.03625233333334, "bike_id": "2a70dc01de7ce2575b36bfe1f22e28f6", "lat": 38.944955666666665, "fusion_lon": 0.0, "fusion_lat": 0.0, "type": "electric_scooter", "name": "2a70dc01de7ce2575b36bfe1f22e28f6", "is_disabled": 0, "rental_uris": {"ios": "https://dc.lft.to/lastmile_qr_scan", "android": "https://dc.lft.to/lastmile_qr_scan"}, "is_reserved": 0}, {"lon": -77.03361566666666, "bike_id": "5ca94f2aebfd2c3f9adb8be13945e1bf", "lat": 38.93571766666667, "fusion_lon": 0.0, "fusion_lat": 0.0, "type": "electric_scooter", "name": "5ca94f2aebfd2c3f9adb8be13945e1bf", "is_disabled": 0, "rental_uris": {"ios": "https://dc.lft.to/lastmile_qr_scan", "android": "https://dc.lft.to/lastmile_qr_scan"}, "is_reserved": 0}, {"lon": -76.98347333333334, "bike_id": "6838a85a196827c14a56b7532c62176a", "lat": 38.90453383333333, "fusion_lon": 0.0, "fusion_lat": 0.0, "type": "electric_scooter", "name": "6838a85a196827c14a56b7532c62176a", "is_disabled": 0, "rental_uris": {"ios": "https://dc.lft.to/lastmile_qr_scan", "android": "https://dc.lft.to/lastmile_qr_scan"}, "is_reserved": 0}, {"lon": -77.08773433333333, "bike_id": "858e6b8a2d90fb60aebea08790cc592d", "lat": 38.83898, "fusion_lon": 0.0, "fusion_lat": 0.0, "type": "electric_bike", "name": "858e6b8a2d90fb60aebea08790cc592d", "is_disabled": 0, "rental_uris": {"ios": "https://dc.lft.to/lastmile_qr_scan", "android": "https://dc.lft.to/lastmile_qr_scan"}, "is_reserved": 0}, {"lon": -76.99608333333333, "bike_id": "18cb26e21db9cfa4ff75b2ce2ab84960", "lat": 38.88747333333333, "fusion_lon": 0.0, "fusion_lat": 0.0, "type": "electric_scooter", "name": "18cb26e21db9cfa4ff75b2ce2ab84960", "is_disabled": 0, "rental_uris": {"ios": "https://dc.lft.to/lastmile_qr_scan", "android": "https://dc.lft.to/lastmile_qr_scan"}, "is_reserved": 0}, {"lon": -77.02654216666667, "bike_id": "cc6f6e68c01ed80bdcb3fd082ae383bd", "lat": 38.978111, "fusion_lon": 0.0, "fusion_lat": 0.0, "type": "electric_scooter", "name": "cc6f6e68c01ed80bdcb3fd082ae383bd", "is_disabled": 0, "rental_uris": {"ios": "https://dc.lft.to/lastmile_qr_scan", "android": "https://dc.lft.to/lastmile_qr_scan"}, "is_reserved": 0}, {"lon": -76.97711716666667, "bike_id": "cb9e297b8ec2f539addbc51ba583f150", "lat": 38.887737666666666, "fusion_lon": 0.0, "fusion_lat": 0.0, "type": "electric_scooter", "name": "cb9e297b8ec2f539addbc51ba583f150", "is_disabled": 0, "rental_uris": {"ios": "https://dc.lft.to/lastmile_qr_scan", "android": "https://dc.lft.to/lastmile_qr_scan"}, "is_reserved": 0}, {"lon": -77.00380866666667, "bike_id": "2aef6691febf233d0e9d58efbd3b29bc", "lat": 38.879350333333335, "fusion_lon": 0.0, "fusion_lat": 0.0, "type": "electric_scooter", "name": "2aef6691febf233d0e9d58efbd3b29bc", "is_disabled": 0, "rental_uris": {"ios": "https://dc.lft.to/lastmile_qr_scan", "android": "https://dc.lft.to/lastmile_qr_scan"}, "is_reserved": 0}, {"lon": -77.011165, "bike_id": "4edf695affe4f7418efcf126633edc09", "lat": 38.88550933333333, "fusion_lon": 0.0, "fusion_lat": 0.0, "type": "electric_scooter", "name": "4edf695affe4f7418efcf126633edc09", "is_disabled": 0, "rental_uris": {"ios": "https://dc.lft.to/lastmile_qr_scan", "android": "https://dc.lft.to/lastmile_qr_scan"}, "is_reserved": 0}, {"lon": -77.05624716666667, "bike_id": "4d0210759952585da4c0cf522ff286ff", "lat": 38.960702833333336, "fusion_lon": 0.0, "fusion_lat": 0.0, "type": "electric_scooter", "name": "4d0210759952585da4c0cf522ff286ff", "is_disabled": 0, "rental_uris": {"ios": "https://dc.lft.to/lastmile_qr_scan", "android": "https://dc.lft.to/lastmile_qr_scan"}, "is_reserved": 0}, {"lon": -77.09597233333334, "bike_id": "1670f6b12b997dee3ca0355cdd3fb427", "lat": 39.028910333333336, "fusion_lon": 0.0, "fusion_lat": 0.0, "type": "electric_bike", "name": "1670f6b12b997dee3ca0355cdd3fb427", "is_disabled": 0, "rental_uris": {"ios": "https://dc.lft.to/lastmile_qr_scan", "android": "https://dc.lft.to/lastmile_qr_scan"}, "is_reserved": 0}, {"lon": -77.13102066666667, "bike_id": "cb28d7f10862a404ce0d57c038dabcd0", "lat": 39.02436066666667, "fusion_lon": 0.0, "fusion_lat": 0.0, "type": "electric_bike", "name": "cb28d7f10862a404ce0d57c038dabcd0", "is_disabled": 0, "rental_uris": {"ios": "https://dc.lft.to/lastmile_qr_scan", "android": "https://dc.lft.to/lastmile_qr_scan"}, "is_reserved": 0}, {"lon": -77.04493, "bike_id": "a6c96a77f93a68e040207e2b6e5d4268", "lat": 38.900053, "fusion_lon": 0.0, "fusion_lat": 0.0, "type": "electric_scooter", "name": "a6c96a77f93a68e040207e2b6e5d4268", "is_disabled": 0, "rental_uris": {"ios": "https://dc.lft.to/lastmile_qr_scan", "android": "https://dc.lft.to/lastmile_qr_scan"}, "is_reserved": 0}, {"lon": -77.03464633333333, "bike_id": "5f0255bb7375746a8a45d2acafb779dd", "lat": 38.9073285, "fusion_lon": 0.0, "fusion_lat": 0.0, "type": "electric_scooter", "name": "5f0255bb7375746a8a45d2acafb779dd", "is_disabled": 0, "rental_uris": {"ios": "https://dc.lft.to/lastmile_qr_scan", "android": "https://dc.lft.to/lastmile_qr_scan"}, "is_reserved": 0}, {"lon": -77.03538966666666, "bike_id": "4e6967abd2d93abed0301af4444be18e", "lat": 38.92416766666667, "fusion_lon": 0.0, "fusion_lat": 0.0, "type": "electric_scooter", "name": "4e6967abd2d93abed0301af4444be18e", "is_disabled": 0, "rental_uris": {"ios": "https://dc.lft.to/lastmile_qr_scan", "android": "https://dc.lft.to/lastmile_qr_scan"}, "is_reserved": 0}, {"lon": -77.02943666666667, "bike_id": "a1899b319a15f304da309498a328b082", "lat": 38.920589166666666, "fusion_lon": 0.0, "fusion_lat": 0.0, "type": "electric_scooter", "name": "a1899b319a15f304da309498a328b082", "is_disabled": 0, "rental_uris": {"ios": "https://dc.lft.to/lastmile_qr_scan", "android": "https://dc.lft.to/lastmile_qr_scan"}, "is_reserved": 0}, {"lon": -77.02033066666667, "bike_id": "fa2d7656f9071b084a251d8cbab66a99", "lat": 38.924413666666666, "fusion_lon": 0.0, "fusion_lat": 0.0, "type": "electric_scooter", "name": "fa2d7656f9071b084a251d8cbab66a99", "is_disabled": 0, "rental_uris": {"ios": "https://dc.lft.to/lastmile_qr_scan", "android": "https://dc.lft.to/lastmile_qr_scan"}, "is_reserved": 0}, {"lon": -77.05864266666667, "bike_id": "67cce904e3e68b8dc271cff9be6e4733", "lat": 38.936009166666665, "fusion_lon": 0.0, "fusion_lat": 0.0, "type": "electric_scooter", "name": "67cce904e3e68b8dc271cff9be6e4733", "is_disabled": 0, "rental_uris": {"ios": "https://dc.lft.to/lastmile_qr_scan", "android": "https://dc.lft.to/lastmile_qr_scan"}, "is_reserved": 0}, {"lon": -76.95000333333333, "bike_id": "ea58f096a6ca67c185a7566f454f54b7", "lat": 38.8938285, "fusion_lon": 0.0, "fusion_lat": 0.0, "type": "electric_scooter", "name": "ea58f096a6ca67c185a7566f454f54b7", "is_disabled": 0, "rental_uris": {"ios": "https://dc.lft.to/lastmile_qr_scan", "android": "https://dc.lft.to/lastmile_qr_scan"}, "is_reserved": 0}, {"lon": -77.02429366666667, "bike_id": "dff2e6b5580a22a586cf7ed9bfa05685", "lat": 38.914031333333334, "fusion_lon": 0.0, "fusion_lat": 0.0, "type": "electric_scooter", "name": "dff2e6b5580a22a586cf7ed9bfa05685", "is_disabled": 0, "rental_uris": {"ios": "https://dc.lft.to/lastmile_qr_scan", "android": "https://dc.lft.to/lastmile_qr_scan"}, "is_reserved": 0}, {"lon": -76.98016216666667, "bike_id": "c4e74bf48b0c5cdc69c929a7a91da514", "lat": 38.898905166666665, "fusion_lon": 0.0, "fusion_lat": 0.0, "type": "electric_scooter", "name": "c4e74bf48b0c5cdc69c929a7a91da514", "is_disabled": 0, "rental_uris": {"ios": "https://dc.lft.to/lastmile_qr_scan", "android": "https://dc.lft.to/lastmile_qr_scan"}, "is_reserved": 0}, {"lon": -77.0470625, "bike_id": "33ebcbbae8ed350c87e9f29f9bcd571c", "lat": 38.90061166666667, "fusion_lon": 0.0, "fusion_lat": 0.0, "type": "electric_bike", "name": "33ebcbbae8ed350c87e9f29f9bcd571c", "is_disabled": 0, "rental_uris": {"ios": "https://dc.lft.to/lastmile_qr_scan", "android": "https://dc.lft.to/lastmile_qr_scan"}, "is_reserved": 0}, {"lon": -77.014485, "bike_id": "548e6c16fbb065f9ba289aba8c8409eb", "lat": 38.87939, "fusion_lon": 0.0, "fusion_lat": 0.0, "type": "electric_scooter", "name": "548e6c16fbb065f9ba289aba8c8409eb", "is_disabled": 0, "rental_uris": {"ios": "https://dc.lft.to/lastmile_qr_scan", "android": "https://dc.lft.to/lastmile_qr_scan"}, "is_reserved": 0}, {"lon": -77.007366, "bike_id": "4d5e24a850684596e69c71ae5724f029", "lat": 38.916243333333334, "fusion_lon": 0.0, "fusion_lat": 0.0, "type": "electric_scooter", "name": "4d5e24a850684596e69c71ae5724f029", "is_disabled": 0, "rental_uris": {"ios": "https://dc.lft.to/lastmile_qr_scan", "android": "https://dc.lft.to/lastmile_qr_scan"}, "is_reserved": 0}, {"lon": -77.07432583333333, "bike_id": "dd5462c95e6072cfc63b6bf6afee68ba", "lat": 38.999460166666665, "fusion_lon": 0.0, "fusion_lat": 0.0, "type": "electric_bike", "name": "dd5462c95e6072cfc63b6bf6afee68ba", "is_disabled": 0, "rental_uris": {"ios": "https://dc.lft.to/lastmile_qr_scan", "android": "https://dc.lft.to/lastmile_qr_scan"}, "is_reserved": 0}, {"lon": -77.014297, "bike_id": "a004cf78634a955cb6c522c86dd3d91b", "lat": 38.91459533333333, "fusion_lon": 0.0, "fusion_lat": 0.0, "type": "electric_scooter", "name": "a004cf78634a955cb6c522c86dd3d91b", "is_disabled": 0, "rental_uris": {"ios": "https://dc.lft.to/lastmile_qr_scan", "android": "https://dc.lft.to/lastmile_qr_scan"}, "is_reserved": 0}, {"lon": -76.98717316666666, "bike_id": "eb41132b9cf72af38000577cc2d8a376", "lat": 38.86625, "fusion_lon": 0.0, "fusion_lat": 0.0, "type": "electric_scooter", "name": "eb41132b9cf72af38000577cc2d8a376", "is_disabled": 0, "rental_uris": {"ios": "https://dc.lft.to/lastmile_qr_scan", "android": "https://dc.lft.to/lastmile_qr_scan"}, "is_reserved": 0}, {"lon": -77.03257216666667, "bike_id": "ddf8570c9e89b1465d7cf17a9f30414d", "lat": 38.935616333333336, "fusion_lon": 0.0, "fusion_lat": 0.0, "type": "electric_scooter", "name": "ddf8570c9e89b1465d7cf17a9f30414d", "is_disabled": 0, "rental_uris": {"ios": "https://dc.lft.to/lastmile_qr_scan", "android": "https://dc.lft.to/lastmile_qr_scan"}, "is_reserved": 0}, {"lon": -77.044948, "bike_id": "d0e4da09241173664406e8d052162ded", "lat": 38.9193235, "fusion_lon": 0.0, "fusion_lat": 0.0, "type": "electric_scooter", "name": "d0e4da09241173664406e8d052162ded", "is_disabled": 0, "rental_uris": {"ios": "https://dc.lft.to/lastmile_qr_scan", "android": "https://dc.lft.to/lastmile_qr_scan"}, "is_reserved": 0}, {"lon": -77.051327, "bike_id": "980563160f0ae58c1b24502977e16cb9", "lat": 38.89860633333333, "fusion_lon": 0.0, "fusion_lat": 0.0, "type": "electric_scooter", "name": "980563160f0ae58c1b24502977e16cb9", "is_disabled": 0, "rental_uris": {"ios": "https://dc.lft.to/lastmile_qr_scan", "android": "https://dc.lft.to/lastmile_qr_scan"}, "is_reserved": 0}, {"lon": -77.04872516666667, "bike_id": "7d8cb7c7edd165b7aac2873e19050579", "lat": 38.90974, "fusion_lon": 0.0, "fusion_lat": 0.0, "type": "electric_scooter", "name": "7d8cb7c7edd165b7aac2873e19050579", "is_disabled": 0, "rental_uris": {"ios": "https://dc.lft.to/lastmile_qr_scan", "android": "https://dc.lft.to/lastmile_qr_scan"}, "is_reserved": 0}, {"lon": -77.02146933333333, "bike_id": "a0e110ed5e626f4f8e75affc49f41746", "lat": 38.894074, "fusion_lon": 0.0, "fusion_lat": 0.0, "type": "electric_scooter", "name": "a0e110ed5e626f4f8e75affc49f41746", "is_disabled": 0, "rental_uris": {"ios": "https://dc.lft.to/lastmile_qr_scan", "android": "https://dc.lft.to/lastmile_qr_scan"}, "is_reserved": 0}, {"lon": -77.01287983333333, "bike_id": "ef95ef52c72efe3a399d6c6f93896409", "lat": 38.910352833333334, "fusion_lon": 0.0, "fusion_lat": 0.0, "type": "electric_scooter", "name": "ef95ef52c72efe3a399d6c6f93896409", "is_disabled": 0, "rental_uris": {"ios": "https://dc.lft.to/lastmile_qr_scan", "android": "https://dc.lft.to/lastmile_qr_scan"}, "is_reserved": 0}, {"lon": -77.03637366666666, "bike_id": "2f698e09362e31756fa5f0f391b246cf", "lat": 38.91871733333333, "fusion_lon": 0.0, "fusion_lat": 0.0, "type": "electric_scooter", "name": "2f698e09362e31756fa5f0f391b246cf", "is_disabled": 0, "rental_uris": {"ios": "https://dc.lft.to/lastmile_qr_scan", "android": "https://dc.lft.to/lastmile_qr_scan"}, "is_reserved": 0}, {"lon": -77.02584716666667, "bike_id": "52f1f99cd5def1cd9fe9054e63dc1b2a", "lat": 38.905024833333336, "fusion_lon": 0.0, "fusion_lat": 0.0, "type": "electric_scooter", "name": "52f1f99cd5def1cd9fe9054e63dc1b2a", "is_disabled": 0, "rental_uris": {"ios": "https://dc.lft.to/lastmile_qr_scan", "android": "https://dc.lft.to/lastmile_qr_scan"}, "is_reserved": 0}, {"lon": -77.023167, "bike_id": "acf56a2a2b3dcd69a48dc4a09fa8279f", "lat": 38.92075233333333, "fusion_lon": 0.0, "fusion_lat": 0.0, "type": "electric_scooter", "name": "acf56a2a2b3dcd69a48dc4a09fa8279f", "is_disabled": 0, "rental_uris": {"ios": "https://dc.lft.to/lastmile_qr_scan", "android": "https://dc.lft.to/lastmile_qr_scan"}, "is_reserved": 0}, {"lon": -77.0318665, "bike_id": "1e836b6dce638d4eab93721e42d059bc", "lat": 38.915654, "fusion_lon": 0.0, "fusion_lat": 0.0, "type": "electric_scooter", "name": "1e836b6dce638d4eab93721e42d059bc", "is_disabled": 0, "rental_uris": {"ios": "https://dc.lft.to/lastmile_qr_scan", "android": "https://dc.lft.to/lastmile_qr_scan"}, "is_reserved": 0}, {"lon": -76.989347, "bike_id": "8dc4596708a41a043d1bab75747cd5ea", "lat": 38.918381333333336, "fusion_lon": 0.0, "fusion_lat": 0.0, "type": "electric_scooter", "name": "8dc4596708a41a043d1bab75747cd5ea", "is_disabled": 0, "rental_uris": {"ios": "https://dc.lft.to/lastmile_qr_scan", "android": "https://dc.lft.to/lastmile_qr_scan"}, "is_reserved": 0}, {"lon": -77.05002483333334, "bike_id": "0d056c309bbe41803b91ee21d1f88e1b", "lat": 38.894678, "fusion_lon": 0.0, "fusion_lat": 0.0, "type": "electric_scooter", "name": "0d056c309bbe41803b91ee21d1f88e1b", "is_disabled": 0, "rental_uris": {"ios": "https://dc.lft.to/lastmile_qr_scan", "android": "https://dc.lft.to/lastmile_qr_scan"}, "is_reserved": 0}, {"lon": -77.02951066666667, "bike_id": "b110e35bd85de14e11cf80d87245a193", "lat": 38.89811133333333, "fusion_lon": 0.0, "fusion_lat": 0.0, "type": "electric_scooter", "name": "b110e35bd85de14e11cf80d87245a193", "is_disabled": 0, "rental_uris": {"ios": "https://dc.lft.to/lastmile_qr_scan", "android": "https://dc.lft.to/lastmile_qr_scan"}, "is_reserved": 0}, {"lon": -77.031625, "bike_id": "bbfd2cacd31ddb510e462a23be8be8c6", "lat": 38.92018633333333, "fusion_lon": 0.0, "fusion_lat": 0.0, "type": "electric_scooter", "name": "bbfd2cacd31ddb510e462a23be8be8c6", "is_disabled": 0, "rental_uris": {"ios": "https://dc.lft.to/lastmile_qr_scan", "android": "https://dc.lft.to/lastmile_qr_scan"}, "is_reserved": 0}, {"lon": -77.03176783333333, "bike_id": "b743dd28178f1319287b51e27be994cb", "lat": 38.91918066666667, "fusion_lon": 0.0, "fusion_lat": 0.0, "type": "electric_scooter", "name": "b743dd28178f1319287b51e27be994cb", "is_disabled": 0, "rental_uris": {"ios": "https://dc.lft.to/lastmile_qr_scan", "android": "https://dc.lft.to/lastmile_qr_scan"}, "is_reserved": 0}, {"lon": -77.03639616666666, "bike_id": "3ef7eeedb15701e531fa7c37b7ff161c", "lat": 38.923430333333336, "fusion_lon": 0.0, "fusion_lat": 0.0, "type": "electric_scooter", "name": "3ef7eeedb15701e531fa7c37b7ff161c", "is_disabled": 0, "rental_uris": {"ios": "https://dc.lft.to/lastmile_qr_scan", "android": "https://dc.lft.to/lastmile_qr_scan"}, "is_reserved": 0}, {"lon": -77.04368866666667, "bike_id": "2b24883ed5ba9f502ae1e871bdffb4c5", "lat": 38.8984945, "fusion_lon": 0.0, "fusion_lat": 0.0, "type": "electric_scooter", "name": "2b24883ed5ba9f502ae1e871bdffb4c5", "is_disabled": 0, "rental_uris": {"ios": "https://dc.lft.to/lastmile_qr_scan", "android": "https://dc.lft.to/lastmile_qr_scan"}, "is_reserved": 0}, {"lon": -76.9412405, "bike_id": "0e21687c4d72aaac3d0ecbb0ca2426df", "lat": 38.88607233333333, "fusion_lon": 0.0, "fusion_lat": 0.0, "type": "electric_scooter", "name": "0e21687c4d72aaac3d0ecbb0ca2426df", "is_disabled": 0, "rental_uris": {"ios": "https://dc.lft.to/lastmile_qr_scan", "android": "https://dc.lft.to/lastmile_qr_scan"}, "is_reserved": 0}, {"lon": -77.023564, "bike_id": "8af48feaffa68bae0f0d7c039570967a", "lat": 38.89212416666667, "fusion_lon": 0.0, "fusion_lat": 0.0, "type": "electric_scooter", "name": "8af48feaffa68bae0f0d7c039570967a", "is_disabled": 0, "rental_uris": {"ios": "https://dc.lft.to/lastmile_qr_scan", "android": "https://dc.lft.to/lastmile_qr_scan"}, "is_reserved": 0}, {"lon": -77.0521305, "bike_id": "82bfc1bc3b0ea3d18f3b9a712468edda", "lat": 38.9156105, "fusion_lon": 0.0, "fusion_lat": 0.0, "type": "electric_scooter", "name": "82bfc1bc3b0ea3d18f3b9a712468edda", "is_disabled": 0, "rental_uris": {"ios": "https://dc.lft.to/lastmile_qr_scan", "android": "https://dc.lft.to/lastmile_qr_scan"}, "is_reserved": 0}, {"lon": -77.05026166666667, "bike_id": "10cb165a68d5954e7297853e03f3bb0b", "lat": 38.898194, "fusion_lon": 0.0, "fusion_lat": 0.0, "type": "electric_scooter", "name": "10cb165a68d5954e7297853e03f3bb0b", "is_disabled": 0, "rental_uris": {"ios": "https://dc.lft.to/lastmile_qr_scan", "android": "https://dc.lft.to/lastmile_qr_scan"}, "is_reserved": 0}, {"lon": -77.04069616666666, "bike_id": "43518c63052f6e830d795c90b9b1a2ef", "lat": 38.91417833333333, "fusion_lon": 0.0, "fusion_lat": 0.0, "type": "electric_scooter", "name": "43518c63052f6e830d795c90b9b1a2ef", "is_disabled": 0, "rental_uris": {"ios": "https://dc.lft.to/lastmile_qr_scan", "android": "https://dc.lft.to/lastmile_qr_scan"}, "is_reserved": 0}, {"lon": -76.98492983333334, "bike_id": "5b595b0260c0e083dcf62124ffb0ab7e", "lat": 38.87837866666667, "fusion_lon": 0.0, "fusion_lat": 0.0, "type": "electric_scooter", "name": "5b595b0260c0e083dcf62124ffb0ab7e", "is_disabled": 0, "rental_uris": {"ios": "https://dc.lft.to/lastmile_qr_scan", "android": "https://dc.lft.to/lastmile_qr_scan"}, "is_reserved": 0}, {"lon": -77.03957, "bike_id": "50d792e04e9f802f6bc9e7bea816d4c2", "lat": 38.92461216666667, "fusion_lon": 0.0, "fusion_lat": 0.0, "type": "electric_scooter", "name": "50d792e04e9f802f6bc9e7bea816d4c2", "is_disabled": 0, "rental_uris": {"ios": "https://dc.lft.to/lastmile_qr_scan", "android": "https://dc.lft.to/lastmile_qr_scan"}, "is_reserved": 0}, {"lon": -77.03993866666667, "bike_id": "461289066f9b63050faaf66b82cddaab", "lat": 38.924531, "fusion_lon": 0.0, "fusion_lat": 0.0, "type": "electric_scooter", "name": "461289066f9b63050faaf66b82cddaab", "is_disabled": 0, "rental_uris": {"ios": "https://dc.lft.to/lastmile_qr_scan", "android": "https://dc.lft.to/lastmile_qr_scan"}, "is_reserved": 0}, {"lon": -77.00432183333334, "bike_id": "ad25333e5d83c438191f7ba3e06f4455", "lat": 38.913317666666664, "fusion_lon": 0.0, "fusion_lat": 0.0, "type": "electric_scooter", "name": "ad25333e5d83c438191f7ba3e06f4455", "is_disabled": 0, "rental_uris": {"ios": "https://dc.lft.to/lastmile_qr_scan", "android": "https://dc.lft.to/lastmile_qr_scan"}, "is_reserved": 0}, {"lon": -77.03967583333333, "bike_id": "dc5cd22c511346ee772e99e2b3887223", "lat": 38.931535, "fusion_lon": 0.0, "fusion_lat": 0.0, "type": "electric_scooter", "name": "dc5cd22c511346ee772e99e2b3887223", "is_disabled": 0, "rental_uris": {"ios": "https://dc.lft.to/lastmile_qr_scan", "android": "https://dc.lft.to/lastmile_qr_scan"}, "is_reserved": 0}, {"lon": -77.04943633333333, "bike_id": "517d046b24c5885b5891f5d19eaaaad7", "lat": 38.908445, "fusion_lon": 0.0, "fusion_lat": 0.0, "type": "electric_scooter", "name": "517d046b24c5885b5891f5d19eaaaad7", "is_disabled": 0, "rental_uris": {"ios": "https://dc.lft.to/lastmile_qr_scan", "android": "https://dc.lft.to/lastmile_qr_scan"}, "is_reserved": 0}, {"lon": -77.03286283333334, "bike_id": "42fd753e3aeffe0ef835ae2570fcdce5", "lat": 38.936452333333335, "fusion_lon": 0.0, "fusion_lat": 0.0, "type": "electric_scooter", "name": "42fd753e3aeffe0ef835ae2570fcdce5", "is_disabled": 0, "rental_uris": {"ios": "https://dc.lft.to/lastmile_qr_scan", "android": "https://dc.lft.to/lastmile_qr_scan"}, "is_reserved": 0}, {"lon": -76.9463285, "bike_id": "b6ec3f06645699a1b072781a4d0a1339", "lat": 38.898317666666664, "fusion_lon": 0.0, "fusion_lat": 0.0, "type": "electric_scooter", "name": "b6ec3f06645699a1b072781a4d0a1339", "is_disabled": 0, "rental_uris": {"ios": "https://dc.lft.to/lastmile_qr_scan", "android": "https://dc.lft.to/lastmile_qr_scan"}, "is_reserved": 0}, {"lon": -77.040435, "bike_id": "13310be4726ca0228eef135c57ea0d61", "lat": 38.92315933333333, "fusion_lon": 0.0, "fusion_lat": 0.0, "type": "electric_scooter", "name": "13310be4726ca0228eef135c57ea0d61", "is_disabled": 0, "rental_uris": {"ios": "https://dc.lft.to/lastmile_qr_scan", "android": "https://dc.lft.to/lastmile_qr_scan"}, "is_reserved": 0}, {"lon": -77.0223395, "bike_id": "51a9b6472da0a800f06b990ee88426ed", "lat": 38.922615666666665, "fusion_lon": 0.0, "fusion_lat": 0.0, "type": "electric_scooter", "name": "51a9b6472da0a800f06b990ee88426ed", "is_disabled": 0, "rental_uris": {"ios": "https://dc.lft.to/lastmile_qr_scan", "android": "https://dc.lft.to/lastmile_qr_scan"}, "is_reserved": 0}, {"lon": -77.03224683333333, "bike_id": "9c572098811ea124daa60d5f17444f68", "lat": 38.9315605, "fusion_lon": 0.0, "fusion_lat": 0.0, "type": "electric_scooter", "name": "9c572098811ea124daa60d5f17444f68", "is_disabled": 0, "rental_uris": {"ios": "https://dc.lft.to/lastmile_qr_scan", "android": "https://dc.lft.to/lastmile_qr_scan"}, "is_reserved": 0}, {"lon": -77.03473383333333, "bike_id": "826c55e122abb2bc4e3a2f463e98024f", "lat": 38.88486233333333, "fusion_lon": 0.0, "fusion_lat": 0.0, "type": "electric_scooter", "name": "826c55e122abb2bc4e3a2f463e98024f", "is_disabled": 0, "rental_uris": {"ios": "https://dc.lft.to/lastmile_qr_scan", "android": "https://dc.lft.to/lastmile_qr_scan"}, "is_reserved": 0}, {"lon": -76.9768725, "bike_id": "d6fe125dcf67a9e933e5fbb88c70144a", "lat": 38.89619616666667, "fusion_lon": 0.0, "fusion_lat": 0.0, "type": "electric_scooter", "name": "d6fe125dcf67a9e933e5fbb88c70144a", "is_disabled": 0, "rental_uris": {"ios": "https://dc.lft.to/lastmile_qr_scan", "android": "https://dc.lft.to/lastmile_qr_scan"}, "is_reserved": 0}, {"lon": -77.04167133333333, "bike_id": "598192c9ce227dbbbfabee6671aa276a", "lat": 38.90333116666667, "fusion_lon": 0.0, "fusion_lat": 0.0, "type": "electric_scooter", "name": "598192c9ce227dbbbfabee6671aa276a", "is_disabled": 0, "rental_uris": {"ios": "https://dc.lft.to/lastmile_qr_scan", "android": "https://dc.lft.to/lastmile_qr_scan"}, "is_reserved": 0}, {"lon": -76.99621116666667, "bike_id": "c0eadef477b342b03072f8e09bcce54c", "lat": 38.900579, "fusion_lon": 0.0, "fusion_lat": 0.0, "type": "electric_scooter", "name": "c0eadef477b342b03072f8e09bcce54c", "is_disabled": 0, "rental_uris": {"ios": "https://dc.lft.to/lastmile_qr_scan", "android": "https://dc.lft.to/lastmile_qr_scan"}, "is_reserved": 0}, {"lon": -77.02655266666666, "bike_id": "59ed69bf5f615e79468cc37ff3c97856", "lat": 38.92975066666666, "fusion_lon": 0.0, "fusion_lat": 0.0, "type": "electric_scooter", "name": "59ed69bf5f615e79468cc37ff3c97856", "is_disabled": 0, "rental_uris": {"ios": "https://dc.lft.to/lastmile_qr_scan", "android": "https://dc.lft.to/lastmile_qr_scan"}, "is_reserved": 0}, {"lon": -77.02978583333334, "bike_id": "3887f3d97cf69be22ecd5647e4e616be", "lat": 38.930649333333335, "fusion_lon": 0.0, "fusion_lat": 0.0, "type": "electric_scooter", "name": "3887f3d97cf69be22ecd5647e4e616be", "is_disabled": 0, "rental_uris": {"ios": "https://dc.lft.to/lastmile_qr_scan", "android": "https://dc.lft.to/lastmile_qr_scan"}, "is_reserved": 0}, {"lon": -77.02172666666667, "bike_id": "4b045fcd08da5e490e7dac5b6abaffa0", "lat": 38.9428915, "fusion_lon": 0.0, "fusion_lat": 0.0, "type": "electric_scooter", "name": "4b045fcd08da5e490e7dac5b6abaffa0", "is_disabled": 0, "rental_uris": {"ios": "https://dc.lft.to/lastmile_qr_scan", "android": "https://dc.lft.to/lastmile_qr_scan"}, "is_reserved": 0}, {"lon": -77.05400383333334, "bike_id": "3849938a53a94c455ef2228794d8c7bc", "lat": 38.901515333333336, "fusion_lon": 0.0, "fusion_lat": 0.0, "type": "electric_scooter", "name": "3849938a53a94c455ef2228794d8c7bc", "is_disabled": 0, "rental_uris": {"ios": "https://dc.lft.to/lastmile_qr_scan", "android": "https://dc.lft.to/lastmile_qr_scan"}, "is_reserved": 0}, {"lon": -77.04043133333333, "bike_id": "55c950ceac1ca8c59ce0463508215d8b", "lat": 38.92387766666667, "fusion_lon": 0.0, "fusion_lat": 0.0, "type": "electric_scooter", "name": "55c950ceac1ca8c59ce0463508215d8b", "is_disabled": 0, "rental_uris": {"ios": "https://dc.lft.to/lastmile_qr_scan", "android": "https://dc.lft.to/lastmile_qr_scan"}, "is_reserved": 0}, {"lon": -76.98885133333333, "bike_id": "a690d7913e7f8c9234a941bdc1549b58", "lat": 38.86656416666667, "fusion_lon": 0.0, "fusion_lat": 0.0, "type": "electric_scooter", "name": "a690d7913e7f8c9234a941bdc1549b58", "is_disabled": 0, "rental_uris": {"ios": "https://dc.lft.to/lastmile_qr_scan", "android": "https://dc.lft.to/lastmile_qr_scan"}, "is_reserved": 0}, {"lon": -77.0337705, "bike_id": "56c288083310e75227ef690317513190", "lat": 38.902866333333336, "fusion_lon": 0.0, "fusion_lat": 0.0, "type": "electric_scooter", "name": "56c288083310e75227ef690317513190", "is_disabled": 0, "rental_uris": {"ios": "https://dc.lft.to/lastmile_qr_scan", "android": "https://dc.lft.to/lastmile_qr_scan"}, "is_reserved": 0}, {"lon": -77.0207905, "bike_id": "ce3eacc732032dde5ef49802037cb615", "lat": 38.93633833333333, "fusion_lon": 0.0, "fusion_lat": 0.0, "type": "electric_scooter", "name": "ce3eacc732032dde5ef49802037cb615", "is_disabled": 0, "rental_uris": {"ios": "https://dc.lft.to/lastmile_qr_scan", "android": "https://dc.lft.to/lastmile_qr_scan"}, "is_reserved": 0}, {"lon": -77.02975133333334, "bike_id": "9265247e07f5d3a42e40221ffdf971ee", "lat": 38.907202, "fusion_lon": 0.0, "fusion_lat": 0.0, "type": "electric_scooter", "name": "9265247e07f5d3a42e40221ffdf971ee", "is_disabled": 0, "rental_uris": {"ios": "https://dc.lft.to/lastmile_qr_scan", "android": "https://dc.lft.to/lastmile_qr_scan"}, "is_reserved": 0}, {"lon": -77.02402916666666, "bike_id": "d78df0feed2ebb00e3bbb79b5b5269bb", "lat": 38.909546166666665, "fusion_lon": 0.0, "fusion_lat": 0.0, "type": "electric_scooter", "name": "d78df0feed2ebb00e3bbb79b5b5269bb", "is_disabled": 0, "rental_uris": {"ios": "https://dc.lft.to/lastmile_qr_scan", "android": "https://dc.lft.to/lastmile_qr_scan"}, "is_reserved": 0}, {"lon": -77.040078, "bike_id": "6a705f1bab8aa2c5da5b138800bc673a", "lat": 38.91000866666667, "fusion_lon": 0.0, "fusion_lat": 0.0, "type": "electric_scooter", "name": "6a705f1bab8aa2c5da5b138800bc673a", "is_disabled": 0, "rental_uris": {"ios": "https://dc.lft.to/lastmile_qr_scan", "android": "https://dc.lft.to/lastmile_qr_scan"}, "is_reserved": 0}, {"lon": -77.05595966666667, "bike_id": "c290bcf87fac60bd79b7666467a3e9b1", "lat": 38.916140166666665, "fusion_lon": 0.0, "fusion_lat": 0.0, "type": "electric_scooter", "name": "c290bcf87fac60bd79b7666467a3e9b1", "is_disabled": 0, "rental_uris": {"ios": "https://dc.lft.to/lastmile_qr_scan", "android": "https://dc.lft.to/lastmile_qr_scan"}, "is_reserved": 0}, {"lon": -77.03834333333333, "bike_id": "679c785a32a42a3741613f7fcb796323", "lat": 38.9076925, "fusion_lon": 0.0, "fusion_lat": 0.0, "type": "electric_scooter", "name": "679c785a32a42a3741613f7fcb796323", "is_disabled": 0, "rental_uris": {"ios": "https://dc.lft.to/lastmile_qr_scan", "android": "https://dc.lft.to/lastmile_qr_scan"}, "is_reserved": 0}, {"lon": -77.00114783333333, "bike_id": "15b2c4699281e93e7da0348d0216b076", "lat": 38.917055500000004, "fusion_lon": 0.0, "fusion_lat": 0.0, "type": "electric_scooter", "name": "15b2c4699281e93e7da0348d0216b076", "is_disabled": 0, "rental_uris": {"ios": "https://dc.lft.to/lastmile_qr_scan", "android": "https://dc.lft.to/lastmile_qr_scan"}, "is_reserved": 0}, {"lon": -77.05335366666667, "bike_id": "9bfde40fb5cc55694bf494aa0c9feccb", "lat": 38.9071345, "fusion_lon": 0.0, "fusion_lat": 0.0, "type": "electric_scooter", "name": "9bfde40fb5cc55694bf494aa0c9feccb", "is_disabled": 0, "rental_uris": {"ios": "https://dc.lft.to/lastmile_qr_scan", "android": "https://dc.lft.to/lastmile_qr_scan"}, "is_reserved": 0}, {"lon": -77.02837283333334, "bike_id": "473f6c99fd8ff254a9b733fef8dd468e", "lat": 38.88769583333333, "fusion_lon": 0.0, "fusion_lat": 0.0, "type": "electric_scooter", "name": "473f6c99fd8ff254a9b733fef8dd468e", "is_disabled": 0, "rental_uris": {"ios": "https://dc.lft.to/lastmile_qr_scan", "android": "https://dc.lft.to/lastmile_qr_scan"}, "is_reserved": 0}, {"lon": -76.8953345, "bike_id": "c6ad80cf3d0d105d26bcbf2e979c4d55", "lat": 38.94549933333333, "fusion_lon": 0.0, "fusion_lat": 0.0, "type": "electric_bike", "name": "c6ad80cf3d0d105d26bcbf2e979c4d55", "is_disabled": 0, "rental_uris": {"ios": "https://dc.lft.to/lastmile_qr_scan", "android": "https://dc.lft.to/lastmile_qr_scan"}, "is_reserved": 0}, {"lon": -77.038392, "bike_id": "8e8494e9386a264f27da0b945c29e10e", "lat": 38.91095266666667, "fusion_lon": 0.0, "fusion_lat": 0.0, "type": "electric_scooter", "name": "8e8494e9386a264f27da0b945c29e10e", "is_disabled": 0, "rental_uris": {"ios": "https://dc.lft.to/lastmile_qr_scan", "android": "https://dc.lft.to/lastmile_qr_scan"}, "is_reserved": 0}, {"lon": -77.02728833333333, "bike_id": "ced6c3d8d86bd5afb350b6d01fbe59c8", "lat": 38.94085833333333, "fusion_lon": 0.0, "fusion_lat": 0.0, "type": "electric_scooter", "name": "ced6c3d8d86bd5afb350b6d01fbe59c8", "is_disabled": 0, "rental_uris": {"ios": "https://dc.lft.to/lastmile_qr_scan", "android": "https://dc.lft.to/lastmile_qr_scan"}, "is_reserved": 0}, {"lon": -77.03540166666667, "bike_id": "a7d376cf5611bc6b20c6ed0f5e1a30e1", "lat": 38.9182795, "fusion_lon": 0.0, "fusion_lat": 0.0, "type": "electric_scooter", "name": "a7d376cf5611bc6b20c6ed0f5e1a30e1", "is_disabled": 0, "rental_uris": {"ios": "https://dc.lft.to/lastmile_qr_scan", "android": "https://dc.lft.to/lastmile_qr_scan"}, "is_reserved": 0}, {"lon": -77.00461633333333, "bike_id": "3a4a4b1634f53ce870ccf1be04baf9cd", "lat": 38.89715116666667, "fusion_lon": 0.0, "fusion_lat": 0.0, "type": "electric_bike", "name": "3a4a4b1634f53ce870ccf1be04baf9cd", "is_disabled": 0, "rental_uris": {"ios": "https://dc.lft.to/lastmile_qr_scan", "android": "https://dc.lft.to/lastmile_qr_scan"}, "is_reserved": 0}, {"lon": -77.01979083333333, "bike_id": "d6d16c3a3ad57d218396639ca954f246", "lat": 38.9150155, "fusion_lon": 0.0, "fusion_lat": 0.0, "type": "electric_scooter", "name": "d6d16c3a3ad57d218396639ca954f246", "is_disabled": 0, "rental_uris": {"ios": "https://dc.lft.to/lastmile_qr_scan", "android": "https://dc.lft.to/lastmile_qr_scan"}, "is_reserved": 0}, {"lon": -77.02160966666666, "bike_id": "c8913efed5bf97c11bdb5c331f697274", "lat": 38.89218233333333, "fusion_lon": 0.0, "fusion_lat": 0.0, "type": "electric_scooter", "name": "c8913efed5bf97c11bdb5c331f697274", "is_disabled": 0, "rental_uris": {"ios": "https://dc.lft.to/lastmile_qr_scan", "android": "https://dc.lft.to/lastmile_qr_scan"}, "is_reserved": 0}, {"lon": -77.00930616666666, "bike_id": "2e05b3802036cd7bd8d3fa4fedf025f0", "lat": 38.89608716666667, "fusion_lon": 0.0, "fusion_lat": 0.0, "type": "electric_scooter", "name": "2e05b3802036cd7bd8d3fa4fedf025f0", "is_disabled": 0, "rental_uris": {"ios": "https://dc.lft.to/lastmile_qr_scan", "android": "https://dc.lft.to/lastmile_qr_scan"}, "is_reserved": 0}, {"lon": -77.03479433333334, "bike_id": "4aa88851dc097bd658a09613b8e0b9ee", "lat": 38.919164333333335, "fusion_lon": 0.0, "fusion_lat": 0.0, "type": "electric_scooter", "name": "4aa88851dc097bd658a09613b8e0b9ee", "is_disabled": 0, "rental_uris": {"ios": "https://dc.lft.to/lastmile_qr_scan", "android": "https://dc.lft.to/lastmile_qr_scan"}, "is_reserved": 0}, {"lon": -77.030512, "bike_id": "1b96f7086767a46e43a418f53a5bc591", "lat": 38.88426, "fusion_lon": 0.0, "fusion_lat": 0.0, "type": "electric_scooter", "name": "1b96f7086767a46e43a418f53a5bc591", "is_disabled": 0, "rental_uris": {"ios": "https://dc.lft.to/lastmile_qr_scan", "android": "https://dc.lft.to/lastmile_qr_scan"}, "is_reserved": 0}, {"lon": -76.97812833333333, "bike_id": "317cf785124d7d02f334d61f86b970cf", "lat": 38.90670266666667, "fusion_lon": 0.0, "fusion_lat": 0.0, "type": "electric_scooter", "name": "317cf785124d7d02f334d61f86b970cf", "is_disabled": 0, "rental_uris": {"ios": "https://dc.lft.to/lastmile_qr_scan", "android": "https://dc.lft.to/lastmile_qr_scan"}, "is_reserved": 0}, {"lon": -76.96383216666666, "bike_id": "435299006a9fdee69d9637f35dd43e58", "lat": 38.951812, "fusion_lon": 0.0, "fusion_lat": 0.0, "type": "electric_bike", "name": "435299006a9fdee69d9637f35dd43e58", "is_disabled": 0, "rental_uris": {"ios": "https://dc.lft.to/lastmile_qr_scan", "android": "https://dc.lft.to/lastmile_qr_scan"}, "is_reserved": 0}, {"lon": -76.991192, "bike_id": "62c11802f6953c59dd6e77cf6b094004", "lat": 38.9226125, "fusion_lon": 0.0, "fusion_lat": 0.0, "type": "electric_scooter", "name": "62c11802f6953c59dd6e77cf6b094004", "is_disabled": 0, "rental_uris": {"ios": "https://dc.lft.to/lastmile_qr_scan", "android": "https://dc.lft.to/lastmile_qr_scan"}, "is_reserved": 0}, {"lon": -77.0480595, "bike_id": "fdfb91540baeccab2fb55bb70a3293e8", "lat": 38.91638566666666, "fusion_lon": 0.0, "fusion_lat": 0.0, "type": "electric_scooter", "name": "fdfb91540baeccab2fb55bb70a3293e8", "is_disabled": 0, "rental_uris": {"ios": "https://dc.lft.to/lastmile_qr_scan", "android": "https://dc.lft.to/lastmile_qr_scan"}, "is_reserved": 0}, {"lon": -77.026694, "bike_id": "ec0740704425e81788301e8e38106e50", "lat": 38.98453116666666, "fusion_lon": 0.0, "fusion_lat": 0.0, "type": "electric_scooter", "name": "ec0740704425e81788301e8e38106e50", "is_disabled": 0, "rental_uris": {"ios": "https://dc.lft.to/lastmile_qr_scan", "android": "https://dc.lft.to/lastmile_qr_scan"}, "is_reserved": 0}, {"lon": -77.00209, "bike_id": "ba835f8aeed9b89a835da372a6fbed0a", "lat": 38.89719633333333, "fusion_lon": 0.0, "fusion_lat": 0.0, "type": "electric_scooter", "name": "ba835f8aeed9b89a835da372a6fbed0a", "is_disabled": 0, "rental_uris": {"ios": "https://dc.lft.to/lastmile_qr_scan", "android": "https://dc.lft.to/lastmile_qr_scan"}, "is_reserved": 0}, {"lon": -77.01999866666667, "bike_id": "5e70b01249fe20c8336147a71327b316", "lat": 38.90443883333333, "fusion_lon": 0.0, "fusion_lat": 0.0, "type": "electric_scooter", "name": "5e70b01249fe20c8336147a71327b316", "is_disabled": 0, "rental_uris": {"ios": "https://dc.lft.to/lastmile_qr_scan", "android": "https://dc.lft.to/lastmile_qr_scan"}, "is_reserved": 0}, {"lon": -77.02976683333333, "bike_id": "074b0e16ad7f74e22e093d1f7c206766", "lat": 38.9219495, "fusion_lon": 0.0, "fusion_lat": 0.0, "type": "electric_scooter", "name": "074b0e16ad7f74e22e093d1f7c206766", "is_disabled": 0, "rental_uris": {"ios": "https://dc.lft.to/lastmile_qr_scan", "android": "https://dc.lft.to/lastmile_qr_scan"}, "is_reserved": 0}, {"lon": -77.0314945, "bike_id": "abc51fa29137911648915e951a1eee34", "lat": 38.920148166666664, "fusion_lon": 0.0, "fusion_lat": 0.0, "type": "electric_scooter", "name": "abc51fa29137911648915e951a1eee34", "is_disabled": 0, "rental_uris": {"ios": "https://dc.lft.to/lastmile_qr_scan", "android": "https://dc.lft.to/lastmile_qr_scan"}, "is_reserved": 0}, {"lon": -76.98724483333334, "bike_id": "24a0b090534e6454e1032729942f3a64", "lat": 38.90008483333333, "fusion_lon": 0.0, "fusion_lat": 0.0, "type": "electric_scooter", "name": "24a0b090534e6454e1032729942f3a64", "is_disabled": 0, "rental_uris": {"ios": "https://dc.lft.to/lastmile_qr_scan", "android": "https://dc.lft.to/lastmile_qr_scan"}, "is_reserved": 0}, {"lon": -77.02097766666667, "bike_id": "8a1b5377a69edf0a710ac426481e2d8c", "lat": 38.909752833333336, "fusion_lon": 0.0, "fusion_lat": 0.0, "type": "electric_scooter", "name": "8a1b5377a69edf0a710ac426481e2d8c", "is_disabled": 0, "rental_uris": {"ios": "https://dc.lft.to/lastmile_qr_scan", "android": "https://dc.lft.to/lastmile_qr_scan"}, "is_reserved": 0}, {"lon": -77.034395, "bike_id": "5e6f9ef21f8f1d6264d8390decc32222", "lat": 38.90281866666667, "fusion_lon": 0.0, "fusion_lat": 0.0, "type": "electric_scooter", "name": "5e6f9ef21f8f1d6264d8390decc32222", "is_disabled": 0, "rental_uris": {"ios": "https://dc.lft.to/lastmile_qr_scan", "android": "https://dc.lft.to/lastmile_qr_scan"}, "is_reserved": 0}, {"lon": -77.02352533333334, "bike_id": "a1a0453d8f1b214d4627331a001d564e", "lat": 38.904154, "fusion_lon": 0.0, "fusion_lat": 0.0, "type": "electric_scooter", "name": "a1a0453d8f1b214d4627331a001d564e", "is_disabled": 0, "rental_uris": {"ios": "https://dc.lft.to/lastmile_qr_scan", "android": "https://dc.lft.to/lastmile_qr_scan"}, "is_reserved": 0}, {"lon": -76.99544433333334, "bike_id": "2d1f663b073a0d167df8d8b5bb1e9939", "lat": 38.862542, "fusion_lon": 0.0, "fusion_lat": 0.0, "type": "electric_scooter", "name": "2d1f663b073a0d167df8d8b5bb1e9939", "is_disabled": 0, "rental_uris": {"ios": "https://dc.lft.to/lastmile_qr_scan", "android": "https://dc.lft.to/lastmile_qr_scan"}, "is_reserved": 0}, {"lon": -77.02440366666667, "bike_id": "0cdc57d1773ed2038e3eff8e44a23abf", "lat": 38.92491783333333, "fusion_lon": 0.0, "fusion_lat": 0.0, "type": "electric_scooter", "name": "0cdc57d1773ed2038e3eff8e44a23abf", "is_disabled": 0, "rental_uris": {"ios": "https://dc.lft.to/lastmile_qr_scan", "android": "https://dc.lft.to/lastmile_qr_scan"}, "is_reserved": 0}, {"lon": -77.03256216666666, "bike_id": "3529af489e25dae0502f1167f9024cca", "lat": 38.9426825, "fusion_lon": 0.0, "fusion_lat": 0.0, "type": "electric_scooter", "name": "3529af489e25dae0502f1167f9024cca", "is_disabled": 0, "rental_uris": {"ios": "https://dc.lft.to/lastmile_qr_scan", "android": "https://dc.lft.to/lastmile_qr_scan"}, "is_reserved": 0}, {"lon": -77.028122, "bike_id": "f5f3753b3813bfb88fd294b2ee0b8c73", "lat": 38.8817595, "fusion_lon": 0.0, "fusion_lat": 0.0, "type": "electric_scooter", "name": "f5f3753b3813bfb88fd294b2ee0b8c73", "is_disabled": 0, "rental_uris": {"ios": "https://dc.lft.to/lastmile_qr_scan", "android": "https://dc.lft.to/lastmile_qr_scan"}, "is_reserved": 0}, {"lon": -77.032007, "bike_id": "9f3bb024cfb918abbd50cdf1dc4238a0", "lat": 38.903866, "fusion_lon": 0.0, "fusion_lat": 0.0, "type": "electric_scooter", "name": "9f3bb024cfb918abbd50cdf1dc4238a0", "is_disabled": 0, "rental_uris": {"ios": "https://dc.lft.to/lastmile_qr_scan", "android": "https://dc.lft.to/lastmile_qr_scan"}, "is_reserved": 0}, {"lon": -77.0247585, "bike_id": "572aebfbc562bc3fe30deb2a8ccf5702", "lat": 38.9039975, "fusion_lon": 0.0, "fusion_lat": 0.0, "type": "electric_scooter", "name": "572aebfbc562bc3fe30deb2a8ccf5702", "is_disabled": 0, "rental_uris": {"ios": "https://dc.lft.to/lastmile_qr_scan", "android": "https://dc.lft.to/lastmile_qr_scan"}, "is_reserved": 0}, {"lon": -77.04111733333333, "bike_id": "83c823a54bbbff4663d667b2197bddc8", "lat": 38.927951, "fusion_lon": 0.0, "fusion_lat": 0.0, "type": "electric_scooter", "name": "83c823a54bbbff4663d667b2197bddc8", "is_disabled": 0, "rental_uris": {"ios": "https://dc.lft.to/lastmile_qr_scan", "android": "https://dc.lft.to/lastmile_qr_scan"}, "is_reserved": 0}, {"lon": -77.0293885, "bike_id": "03d13c66c547a85ee32c595e6db92d62", "lat": 38.916983333333334, "fusion_lon": 0.0, "fusion_lat": 0.0, "type": "electric_scooter", "name": "03d13c66c547a85ee32c595e6db92d62", "is_disabled": 0, "rental_uris": {"ios": "https://dc.lft.to/lastmile_qr_scan", "android": "https://dc.lft.to/lastmile_qr_scan"}, "is_reserved": 0}, {"lon": -77.00715133333334, "bike_id": "867a3033f70abbe1c6ae2d6f77eca755", "lat": 38.83338966666667, "fusion_lon": 0.0, "fusion_lat": 0.0, "type": "electric_bike", "name": "867a3033f70abbe1c6ae2d6f77eca755", "is_disabled": 0, "rental_uris": {"ios": "https://dc.lft.to/lastmile_qr_scan", "android": "https://dc.lft.to/lastmile_qr_scan"}, "is_reserved": 0}, {"lon": -76.99150883333333, "bike_id": "470977b49715342ac03de9dc472195d8", "lat": 38.88199616666667, "fusion_lon": 0.0, "fusion_lat": 0.0, "type": "electric_scooter", "name": "470977b49715342ac03de9dc472195d8", "is_disabled": 0, "rental_uris": {"ios": "https://dc.lft.to/lastmile_qr_scan", "android": "https://dc.lft.to/lastmile_qr_scan"}, "is_reserved": 0}, {"lon": -77.02319283333334, "bike_id": "3455e47faddfcd288fe43aff6f9ba5f5", "lat": 38.920734833333334, "fusion_lon": 0.0, "fusion_lat": 0.0, "type": "electric_scooter", "name": "3455e47faddfcd288fe43aff6f9ba5f5", "is_disabled": 0, "rental_uris": {"ios": "https://dc.lft.to/lastmile_qr_scan", "android": "https://dc.lft.to/lastmile_qr_scan"}, "is_reserved": 0}, {"lon": -77.00935966666667, "bike_id": "d47f314c0ef2cfe74d785719c3cb278f", "lat": 38.8831305, "fusion_lon": 0.0, "fusion_lat": 0.0, "type": "electric_scooter", "name": "d47f314c0ef2cfe74d785719c3cb278f", "is_disabled": 0, "rental_uris": {"ios": "https://dc.lft.to/lastmile_qr_scan", "android": "https://dc.lft.to/lastmile_qr_scan"}, "is_reserved": 0}, {"lon": -77.02598266666666, "bike_id": "89a695b67ca40527465247d4bf1aaf88", "lat": 38.92042, "fusion_lon": 0.0, "fusion_lat": 0.0, "type": "electric_scooter", "name": "89a695b67ca40527465247d4bf1aaf88", "is_disabled": 0, "rental_uris": {"ios": "https://dc.lft.to/lastmile_qr_scan", "android": "https://dc.lft.to/lastmile_qr_scan"}, "is_reserved": 0}, {"lon": -77.03760383333334, "bike_id": "341e09b558cb62b6abf6f4001105f731", "lat": 38.920103166666664, "fusion_lon": 0.0, "fusion_lat": 0.0, "type": "electric_scooter", "name": "341e09b558cb62b6abf6f4001105f731", "is_disabled": 0, "rental_uris": {"ios": "https://dc.lft.to/lastmile_qr_scan", "android": "https://dc.lft.to/lastmile_qr_scan"}, "is_reserved": 0}, {"lon": -76.99871433333334, "bike_id": "661ea43c210531faa95590c5f12fc3e1", "lat": 38.90953666666667, "fusion_lon": 0.0, "fusion_lat": 0.0, "type": "electric_scooter", "name": "661ea43c210531faa95590c5f12fc3e1", "is_disabled": 0, "rental_uris": {"ios": "https://dc.lft.to/lastmile_qr_scan", "android": "https://dc.lft.to/lastmile_qr_scan"}, "is_reserved": 0}, {"lon": -76.982388, "bike_id": "b6ec628905cc6221b939e67413af7a3c", "lat": 38.91650583333333, "fusion_lon": 0.0, "fusion_lat": 0.0, "type": "electric_scooter", "name": "b6ec628905cc6221b939e67413af7a3c", "is_disabled": 0, "rental_uris": {"ios": "https://dc.lft.to/lastmile_qr_scan", "android": "https://dc.lft.to/lastmile_qr_scan"}, "is_reserved": 0}, {"lon": -77.02498033333333, "bike_id": "fdcb21d939437689875e110725aa81b6", "lat": 38.91924366666667, "fusion_lon": 0.0, "fusion_lat": 0.0, "type": "electric_scooter", "name": "fdcb21d939437689875e110725aa81b6", "is_disabled": 0, "rental_uris": {"ios": "https://dc.lft.to/lastmile_qr_scan", "android": "https://dc.lft.to/lastmile_qr_scan"}, "is_reserved": 0}, {"lon": -77.022384, "bike_id": "cda7db28f9cd53ef6b13e27055ad7ddd", "lat": 38.91563416666666, "fusion_lon": 0.0, "fusion_lat": 0.0, "type": "electric_scooter", "name": "cda7db28f9cd53ef6b13e27055ad7ddd", "is_disabled": 0, "rental_uris": {"ios": "https://dc.lft.to/lastmile_qr_scan", "android": "https://dc.lft.to/lastmile_qr_scan"}, "is_reserved": 0}, {"lon": -77.02230383333334, "bike_id": "2b7a9377af719872466798d1af11bc47", "lat": 38.9620605, "fusion_lon": 0.0, "fusion_lat": 0.0, "type": "electric_scooter", "name": "2b7a9377af719872466798d1af11bc47", "is_disabled": 0, "rental_uris": {"ios": "https://dc.lft.to/lastmile_qr_scan", "android": "https://dc.lft.to/lastmile_qr_scan"}, "is_reserved": 0}, {"lon": -77.02113483333333, "bike_id": "f450fe1573fb6566b7729914c70a1128", "lat": 38.921747333333336, "fusion_lon": 0.0, "fusion_lat": 0.0, "type": "electric_scooter", "name": "f450fe1573fb6566b7729914c70a1128", "is_disabled": 0, "rental_uris": {"ios": "https://dc.lft.to/lastmile_qr_scan", "android": "https://dc.lft.to/lastmile_qr_scan"}, "is_reserved": 0}, {"lon": -76.92990416666666, "bike_id": "08fea538ea36fbb4fbf11ffe070d9f23", "lat": 38.893270333333334, "fusion_lon": 0.0, "fusion_lat": 0.0, "type": "electric_scooter", "name": "08fea538ea36fbb4fbf11ffe070d9f23", "is_disabled": 0, "rental_uris": {"ios": "https://dc.lft.to/lastmile_qr_scan", "android": "https://dc.lft.to/lastmile_qr_scan"}, "is_reserved": 0}, {"lon": -77.03539366666666, "bike_id": "c2e6b9f08b7f6c4a6c055b38114f8cf6", "lat": 38.9234215, "fusion_lon": 0.0, "fusion_lat": 0.0, "type": "electric_scooter", "name": "c2e6b9f08b7f6c4a6c055b38114f8cf6", "is_disabled": 0, "rental_uris": {"ios": "https://dc.lft.to/lastmile_qr_scan", "android": "https://dc.lft.to/lastmile_qr_scan"}, "is_reserved": 0}, {"lon": -77.03471, "bike_id": "341c393e1439171f660a0e283b545bc4", "lat": 38.90828966666667, "fusion_lon": 0.0, "fusion_lat": 0.0, "type": "electric_scooter", "name": "341c393e1439171f660a0e283b545bc4", "is_disabled": 0, "rental_uris": {"ios": "https://dc.lft.to/lastmile_qr_scan", "android": "https://dc.lft.to/lastmile_qr_scan"}, "is_reserved": 0}, {"lon": -77.03443916666667, "bike_id": "31b59175f3a6e6ed13aec227f399cf16", "lat": 38.916603, "fusion_lon": 0.0, "fusion_lat": 0.0, "type": "electric_scooter", "name": "31b59175f3a6e6ed13aec227f399cf16", "is_disabled": 0, "rental_uris": {"ios": "https://dc.lft.to/lastmile_qr_scan", "android": "https://dc.lft.to/lastmile_qr_scan"}, "is_reserved": 0}, {"lon": -77.02978833333333, "bike_id": "38c92bee7fa574e0e318b28023983635", "lat": 38.921937666666665, "fusion_lon": 0.0, "fusion_lat": 0.0, "type": "electric_scooter", "name": "38c92bee7fa574e0e318b28023983635", "is_disabled": 0, "rental_uris": {"ios": "https://dc.lft.to/lastmile_qr_scan", "android": "https://dc.lft.to/lastmile_qr_scan"}, "is_reserved": 0}, {"lon": -77.04833033333334, "bike_id": "ba735adb24102bde0435f8d3a0bfecdb", "lat": 38.897403, "fusion_lon": 0.0, "fusion_lat": 0.0, "type": "electric_scooter", "name": "ba735adb24102bde0435f8d3a0bfecdb", "is_disabled": 0, "rental_uris": {"ios": "https://dc.lft.to/lastmile_qr_scan", "android": "https://dc.lft.to/lastmile_qr_scan"}, "is_reserved": 0}, {"lon": -77.04507366666667, "bike_id": "fcbddb5f653ab8e39431117414ee20ae", "lat": 38.911063666666664, "fusion_lon": 0.0, "fusion_lat": 0.0, "type": "electric_scooter", "name": "fcbddb5f653ab8e39431117414ee20ae", "is_disabled": 0, "rental_uris": {"ios": "https://dc.lft.to/lastmile_qr_scan", "android": "https://dc.lft.to/lastmile_qr_scan"}, "is_reserved": 0}, {"lon": -77.021978, "bike_id": "3a0e41cfb51391f6548e1e09d84b144c", "lat": 38.910516666666666, "fusion_lon": 0.0, "fusion_lat": 0.0, "type": "electric_scooter", "name": "3a0e41cfb51391f6548e1e09d84b144c", "is_disabled": 0, "rental_uris": {"ios": "https://dc.lft.to/lastmile_qr_scan", "android": "https://dc.lft.to/lastmile_qr_scan"}, "is_reserved": 0}, {"lon": -76.99681033333333, "bike_id": "fae5d8b5891459f8069fbb89adfa9375", "lat": 38.8812335, "fusion_lon": 0.0, "fusion_lat": 0.0, "type": "electric_scooter", "name": "fae5d8b5891459f8069fbb89adfa9375", "is_disabled": 0, "rental_uris": {"ios": "https://dc.lft.to/lastmile_qr_scan", "android": "https://dc.lft.to/lastmile_qr_scan"}, "is_reserved": 0}, {"lon": -76.98227716666666, "bike_id": "e337902b315c00eb40f25f555f1e10b4", "lat": 38.91654366666667, "fusion_lon": 0.0, "fusion_lat": 0.0, "type": "electric_scooter", "name": "e337902b315c00eb40f25f555f1e10b4", "is_disabled": 0, "rental_uris": {"ios": "https://dc.lft.to/lastmile_qr_scan", "android": "https://dc.lft.to/lastmile_qr_scan"}, "is_reserved": 0}, {"lon": -77.01249483333334, "bike_id": "39d0705289690f07bb976f3ee4449841", "lat": 38.915699833333335, "fusion_lon": 0.0, "fusion_lat": 0.0, "type": "electric_scooter", "name": "39d0705289690f07bb976f3ee4449841", "is_disabled": 0, "rental_uris": {"ios": "https://dc.lft.to/lastmile_qr_scan", "android": "https://dc.lft.to/lastmile_qr_scan"}, "is_reserved": 0}, {"lon": -77.03191483333333, "bike_id": "82b68b6de89688613d1d79b79019f7f5", "lat": 38.916822, "fusion_lon": 0.0, "fusion_lat": 0.0, "type": "electric_scooter", "name": "82b68b6de89688613d1d79b79019f7f5", "is_disabled": 0, "rental_uris": {"ios": "https://dc.lft.to/lastmile_qr_scan", "android": "https://dc.lft.to/lastmile_qr_scan"}, "is_reserved": 0}, {"lon": -77.034661, "bike_id": "3962f6119f57c0808e65cca420241622", "lat": 38.93432383333333, "fusion_lon": 0.0, "fusion_lat": 0.0, "type": "electric_scooter", "name": "3962f6119f57c0808e65cca420241622", "is_disabled": 0, "rental_uris": {"ios": "https://dc.lft.to/lastmile_qr_scan", "android": "https://dc.lft.to/lastmile_qr_scan"}, "is_reserved": 0}, {"lon": -77.034459, "bike_id": "5520f3f28bee2190c2f60edc020b0798", "lat": 38.909509166666666, "fusion_lon": 0.0, "fusion_lat": 0.0, "type": "electric_scooter", "name": "5520f3f28bee2190c2f60edc020b0798", "is_disabled": 0, "rental_uris": {"ios": "https://dc.lft.to/lastmile_qr_scan", "android": "https://dc.lft.to/lastmile_qr_scan"}, "is_reserved": 0}, {"lon": -77.04213916666667, "bike_id": "827bdd8145fbe985197c11342c710921", "lat": 38.89268383333334, "fusion_lon": 0.0, "fusion_lat": 0.0, "type": "electric_scooter", "name": "827bdd8145fbe985197c11342c710921", "is_disabled": 0, "rental_uris": {"ios": "https://dc.lft.to/lastmile_qr_scan", "android": "https://dc.lft.to/lastmile_qr_scan"}, "is_reserved": 0}, {"lon": -77.00194433333333, "bike_id": "aca2497e11e1561237ddea25786bc00d", "lat": 38.908315333333334, "fusion_lon": 0.0, "fusion_lat": 0.0, "type": "electric_scooter", "name": "aca2497e11e1561237ddea25786bc00d", "is_disabled": 0, "rental_uris": {"ios": "https://dc.lft.to/lastmile_qr_scan", "android": "https://dc.lft.to/lastmile_qr_scan"}, "is_reserved": 0}, {"lon": -77.03256833333333, "bike_id": "289f7c755be547c46fbdbaa1e163311f", "lat": 38.93435983333333, "fusion_lon": 0.0, "fusion_lat": 0.0, "type": "electric_scooter", "name": "289f7c755be547c46fbdbaa1e163311f", "is_disabled": 0, "rental_uris": {"ios": "https://dc.lft.to/lastmile_qr_scan", "android": "https://dc.lft.to/lastmile_qr_scan"}, "is_reserved": 0}, {"lon": -76.948024, "bike_id": "ed9cb1ea124df40f92ba4f1934ded3d4", "lat": 38.861906166666664, "fusion_lon": 0.0, "fusion_lat": 0.0, "type": "electric_bike", "name": "ed9cb1ea124df40f92ba4f1934ded3d4", "is_disabled": 0, "rental_uris": {"ios": "https://dc.lft.to/lastmile_qr_scan", "android": "https://dc.lft.to/lastmile_qr_scan"}, "is_reserved": 0}, {"lon": -77.01549883333334, "bike_id": "57c82e701001c68446ea4a4fff76c902", "lat": 38.8922155, "fusion_lon": 0.0, "fusion_lat": 0.0, "type": "electric_scooter", "name": "57c82e701001c68446ea4a4fff76c902", "is_disabled": 0, "rental_uris": {"ios": "https://dc.lft.to/lastmile_qr_scan", "android": "https://dc.lft.to/lastmile_qr_scan"}, "is_reserved": 0}, {"lon": -77.02394483333333, "bike_id": "3878cc2c9bc800fa471adb3c03bc1e8b", "lat": 38.900454, "fusion_lon": 0.0, "fusion_lat": 0.0, "type": "electric_scooter", "name": "3878cc2c9bc800fa471adb3c03bc1e8b", "is_disabled": 0, "rental_uris": {"ios": "https://dc.lft.to/lastmile_qr_scan", "android": "https://dc.lft.to/lastmile_qr_scan"}, "is_reserved": 0}, {"lon": -76.9951835, "bike_id": "dcfdfdfd68b185e99bca39fa14b49226", "lat": 38.896081333333335, "fusion_lon": 0.0, "fusion_lat": 0.0, "type": "electric_scooter", "name": "dcfdfdfd68b185e99bca39fa14b49226", "is_disabled": 0, "rental_uris": {"ios": "https://dc.lft.to/lastmile_qr_scan", "android": "https://dc.lft.to/lastmile_qr_scan"}, "is_reserved": 0}, {"lon": -76.9883975, "bike_id": "48304af833bc6877d62ad1251d849354", "lat": 38.9008195, "fusion_lon": 0.0, "fusion_lat": 0.0, "type": "electric_scooter", "name": "48304af833bc6877d62ad1251d849354", "is_disabled": 0, "rental_uris": {"ios": "https://dc.lft.to/lastmile_qr_scan", "android": "https://dc.lft.to/lastmile_qr_scan"}, "is_reserved": 0}, {"lon": -77.0327465, "bike_id": "b1bb3a1aa1d416cccb0fb9eea16a1d1e", "lat": 38.92748233333333, "fusion_lon": 0.0, "fusion_lat": 0.0, "type": "electric_scooter", "name": "b1bb3a1aa1d416cccb0fb9eea16a1d1e", "is_disabled": 0, "rental_uris": {"ios": "https://dc.lft.to/lastmile_qr_scan", "android": "https://dc.lft.to/lastmile_qr_scan"}, "is_reserved": 0}, {"lon": -77.04100116666666, "bike_id": "b682d70030a99e718fe6a261a968ce88", "lat": 38.898405333333336, "fusion_lon": 0.0, "fusion_lat": 0.0, "type": "electric_scooter", "name": "b682d70030a99e718fe6a261a968ce88", "is_disabled": 0, "rental_uris": {"ios": "https://dc.lft.to/lastmile_qr_scan", "android": "https://dc.lft.to/lastmile_qr_scan"}, "is_reserved": 0}, {"lon": -76.99781, "bike_id": "6e0d9eebe04c59befdc21731c58d6cb6", "lat": 38.8430175, "fusion_lon": 0.0, "fusion_lat": 0.0, "type": "electric_scooter", "name": "6e0d9eebe04c59befdc21731c58d6cb6", "is_disabled": 0, "rental_uris": {"ios": "https://dc.lft.to/lastmile_qr_scan", "android": "https://dc.lft.to/lastmile_qr_scan"}, "is_reserved": 0}, {"lon": -77.0070995, "bike_id": "1c12408ab4764635977a8f3c60896773", "lat": 38.884896166666664, "fusion_lon": 0.0, "fusion_lat": 0.0, "type": "electric_scooter", "name": "1c12408ab4764635977a8f3c60896773", "is_disabled": 0, "rental_uris": {"ios": "https://dc.lft.to/lastmile_qr_scan", "android": "https://dc.lft.to/lastmile_qr_scan"}, "is_reserved": 0}, {"lon": -76.9412375, "bike_id": "afdb0da3c2d8b7faca4d116b326a160a", "lat": 38.90818216666667, "fusion_lon": 0.0, "fusion_lat": 0.0, "type": "electric_scooter", "name": "afdb0da3c2d8b7faca4d116b326a160a", "is_disabled": 0, "rental_uris": {"ios": "https://dc.lft.to/lastmile_qr_scan", "android": "https://dc.lft.to/lastmile_qr_scan"}, "is_reserved": 0}, {"lon": -77.033934, "bike_id": "26cf9b98efa8c6906186875280384512", "lat": 38.938743333333335, "fusion_lon": 0.0, "fusion_lat": 0.0, "type": "electric_scooter", "name": "26cf9b98efa8c6906186875280384512", "is_disabled": 0, "rental_uris": {"ios": "https://dc.lft.to/lastmile_qr_scan", "android": "https://dc.lft.to/lastmile_qr_scan"}, "is_reserved": 0}, {"lon": -77.02379066666667, "bike_id": "d22d54885edf2a89162743676794b6a8", "lat": 38.9068855, "fusion_lon": 0.0, "fusion_lat": 0.0, "type": "electric_scooter", "name": "d22d54885edf2a89162743676794b6a8", "is_disabled": 0, "rental_uris": {"ios": "https://dc.lft.to/lastmile_qr_scan", "android": "https://dc.lft.to/lastmile_qr_scan"}, "is_reserved": 0}, {"lon": -76.9935355, "bike_id": "26b3d0f95431d5b480c472311a547b6e", "lat": 38.845043833333335, "fusion_lon": 0.0, "fusion_lat": 0.0, "type": "electric_bike", "name": "26b3d0f95431d5b480c472311a547b6e", "is_disabled": 0, "rental_uris": {"ios": "https://dc.lft.to/lastmile_qr_scan", "android": "https://dc.lft.to/lastmile_qr_scan"}, "is_reserved": 0}, {"lon": -77.04338116666666, "bike_id": "984f1bb3c3f8c0dc3840ba1cad914586", "lat": 38.90823483333333, "fusion_lon": 0.0, "fusion_lat": 0.0, "type": "electric_scooter", "name": "984f1bb3c3f8c0dc3840ba1cad914586", "is_disabled": 0, "rental_uris": {"ios": "https://dc.lft.to/lastmile_qr_scan", "android": "https://dc.lft.to/lastmile_qr_scan"}, "is_reserved": 0}, {"lon": -77.04569, "bike_id": "bd45c517162d2d442aa46fb6275f1149", "lat": 38.92125866666667, "fusion_lon": 0.0, "fusion_lat": 0.0, "type": "electric_scooter", "name": "bd45c517162d2d442aa46fb6275f1149", "is_disabled": 0, "rental_uris": {"ios": "https://dc.lft.to/lastmile_qr_scan", "android": "https://dc.lft.to/lastmile_qr_scan"}, "is_reserved": 0}, {"lon": -76.99611033333333, "bike_id": "fc26906ce9f6a2d9e0ea90d33dfa8bd5", "lat": 38.90061883333333, "fusion_lon": 0.0, "fusion_lat": 0.0, "type": "electric_scooter", "name": "fc26906ce9f6a2d9e0ea90d33dfa8bd5", "is_disabled": 0, "rental_uris": {"ios": "https://dc.lft.to/lastmile_qr_scan", "android": "https://dc.lft.to/lastmile_qr_scan"}, "is_reserved": 0}, {"lon": -77.03295516666667, "bike_id": "4d15ee60ce8f8000b626651c56c32196", "lat": 38.923613833333334, "fusion_lon": 0.0, "fusion_lat": 0.0, "type": "electric_scooter", "name": "4d15ee60ce8f8000b626651c56c32196", "is_disabled": 0, "rental_uris": {"ios": "https://dc.lft.to/lastmile_qr_scan", "android": "https://dc.lft.to/lastmile_qr_scan"}, "is_reserved": 0}, {"lon": -77.038436, "bike_id": "134cfee5cafa7eec645c7837c1e51ef3", "lat": 38.903819666666664, "fusion_lon": 0.0, "fusion_lat": 0.0, "type": "electric_scooter", "name": "134cfee5cafa7eec645c7837c1e51ef3", "is_disabled": 0, "rental_uris": {"ios": "https://dc.lft.to/lastmile_qr_scan", "android": "https://dc.lft.to/lastmile_qr_scan"}, "is_reserved": 0}, {"lon": -77.02962733333334, "bike_id": "528ede004a3af0ad233dc9d7770d1b99", "lat": 38.91680433333333, "fusion_lon": 0.0, "fusion_lat": 0.0, "type": "electric_scooter", "name": "528ede004a3af0ad233dc9d7770d1b99", "is_disabled": 0, "rental_uris": {"ios": "https://dc.lft.to/lastmile_qr_scan", "android": "https://dc.lft.to/lastmile_qr_scan"}, "is_reserved": 0}, {"lon": -76.94403283333334, "bike_id": "0b1f8c35098606941911b810f840fb4e", "lat": 38.881424333333335, "fusion_lon": 0.0, "fusion_lat": 0.0, "type": "electric_scooter", "name": "0b1f8c35098606941911b810f840fb4e", "is_disabled": 0, "rental_uris": {"ios": "https://dc.lft.to/lastmile_qr_scan", "android": "https://dc.lft.to/lastmile_qr_scan"}, "is_reserved": 0}, {"lon": -77.02183883333333, "bike_id": "58196d19b671ede939e04c4432e4102f", "lat": 38.89991033333333, "fusion_lon": 0.0, "fusion_lat": 0.0, "type": "electric_scooter", "name": "58196d19b671ede939e04c4432e4102f", "is_disabled": 0, "rental_uris": {"ios": "https://dc.lft.to/lastmile_qr_scan", "android": "https://dc.lft.to/lastmile_qr_scan"}, "is_reserved": 0}, {"lon": -76.9749445, "bike_id": "e625cb22c0f8786d89a20fa28553f807", "lat": 38.919247, "fusion_lon": 0.0, "fusion_lat": 0.0, "type": "electric_scooter", "name": "e625cb22c0f8786d89a20fa28553f807", "is_disabled": 0, "rental_uris": {"ios": "https://dc.lft.to/lastmile_qr_scan", "android": "https://dc.lft.to/lastmile_qr_scan"}, "is_reserved": 0}, {"lon": -76.9949895, "bike_id": "7df584fcf9462025d1e11574ac379cb8", "lat": 38.883456833333334, "fusion_lon": 0.0, "fusion_lat": 0.0, "type": "electric_scooter", "name": "7df584fcf9462025d1e11574ac379cb8", "is_disabled": 0, "rental_uris": {"ios": "https://dc.lft.to/lastmile_qr_scan", "android": "https://dc.lft.to/lastmile_qr_scan"}, "is_reserved": 0}, {"lon": -77.02272366666666, "bike_id": "753e12f8ed313915a47332048c0d68a8", "lat": 38.92721816666667, "fusion_lon": 0.0, "fusion_lat": 0.0, "type": "electric_scooter", "name": "753e12f8ed313915a47332048c0d68a8", "is_disabled": 0, "rental_uris": {"ios": "https://dc.lft.to/lastmile_qr_scan", "android": "https://dc.lft.to/lastmile_qr_scan"}, "is_reserved": 0}, {"lon": -77.185619, "bike_id": "96ce193f5612117fc89b1944827a0976", "lat": 39.099751499999996, "fusion_lon": 0.0, "fusion_lat": 0.0, "type": "electric_bike", "name": "96ce193f5612117fc89b1944827a0976", "is_disabled": 0, "rental_uris": {"ios": "https://dc.lft.to/lastmile_qr_scan", "android": "https://dc.lft.to/lastmile_qr_scan"}, "is_reserved": 0}, {"lon": -77.004351, "bike_id": "7c047746716439770aa3d512ce34495a", "lat": 38.877603, "fusion_lon": 0.0, "fusion_lat": 0.0, "type": "electric_scooter", "name": "7c047746716439770aa3d512ce34495a", "is_disabled": 0, "rental_uris": {"ios": "https://dc.lft.to/lastmile_qr_scan", "android": "https://dc.lft.to/lastmile_qr_scan"}, "is_reserved": 0}, {"lon": -77.0219915, "bike_id": "71e40beaf815deab630c0b3baa661869", "lat": 38.895027666666664, "fusion_lon": 0.0, "fusion_lat": 0.0, "type": "electric_scooter", "name": "71e40beaf815deab630c0b3baa661869", "is_disabled": 0, "rental_uris": {"ios": "https://dc.lft.to/lastmile_qr_scan", "android": "https://dc.lft.to/lastmile_qr_scan"}, "is_reserved": 0}, {"lon": -77.07592833333334, "bike_id": "c56b0ad38815a7a2d0fdb3cebe0ba166", "lat": 38.912156833333334, "fusion_lon": 0.0, "fusion_lat": 0.0, "type": "electric_scooter", "name": "c56b0ad38815a7a2d0fdb3cebe0ba166", "is_disabled": 0, "rental_uris": {"ios": "https://dc.lft.to/lastmile_qr_scan", "android": "https://dc.lft.to/lastmile_qr_scan"}, "is_reserved": 0}, {"lon": -76.9994775, "bike_id": "43b6444b867cd0762fc23d6e25b26b9d", "lat": 38.907675833333336, "fusion_lon": 0.0, "fusion_lat": 0.0, "type": "electric_scooter", "name": "43b6444b867cd0762fc23d6e25b26b9d", "is_disabled": 0, "rental_uris": {"ios": "https://dc.lft.to/lastmile_qr_scan", "android": "https://dc.lft.to/lastmile_qr_scan"}, "is_reserved": 0}, {"lon": -77.009479, "bike_id": "e23899e17aee5d59db5c76e17a3bca3b", "lat": 38.91701333333334, "fusion_lon": 0.0, "fusion_lat": 0.0, "type": "electric_scooter", "name": "e23899e17aee5d59db5c76e17a3bca3b", "is_disabled": 0, "rental_uris": {"ios": "https://dc.lft.to/lastmile_qr_scan", "android": "https://dc.lft.to/lastmile_qr_scan"}, "is_reserved": 0}, {"lon": -77.02403833333334, "bike_id": "7f7754dbbb3c36a3cb6fc32d90409c0c", "lat": 38.905667, "fusion_lon": 0.0, "fusion_lat": 0.0, "type": "electric_scooter", "name": "7f7754dbbb3c36a3cb6fc32d90409c0c", "is_disabled": 0, "rental_uris": {"ios": "https://dc.lft.to/lastmile_qr_scan", "android": "https://dc.lft.to/lastmile_qr_scan"}, "is_reserved": 0}, {"lon": -77.03166566666667, "bike_id": "6fabb6f122901eca7e0082b4d616876c", "lat": 38.921018, "fusion_lon": 0.0, "fusion_lat": 0.0, "type": "electric_bike", "name": "6fabb6f122901eca7e0082b4d616876c", "is_disabled": 0, "rental_uris": {"ios": "https://dc.lft.to/lastmile_qr_scan", "android": "https://dc.lft.to/lastmile_qr_scan"}, "is_reserved": 0}, {"lon": -77.03126083333333, "bike_id": "efa2258425f9c6f8567fb2ebe40423e8", "lat": 38.945032166666664, "fusion_lon": 0.0, "fusion_lat": 0.0, "type": "electric_scooter", "name": "efa2258425f9c6f8567fb2ebe40423e8", "is_disabled": 0, "rental_uris": {"ios": "https://dc.lft.to/lastmile_qr_scan", "android": "https://dc.lft.to/lastmile_qr_scan"}, "is_reserved": 0}, {"lon": -76.990668, "bike_id": "1b147968fad086c63403f993e2b79741", "lat": 38.897869, "fusion_lon": 0.0, "fusion_lat": 0.0, "type": "electric_bike", "name": "1b147968fad086c63403f993e2b79741", "is_disabled": 0, "rental_uris": {"ios": "https://dc.lft.to/lastmile_qr_scan", "android": "https://dc.lft.to/lastmile_qr_scan"}, "is_reserved": 0}, {"lon": -76.98774333333333, "bike_id": "d6a22cc0a979fa868c0982e451ae5e1b", "lat": 38.866041333333335, "fusion_lon": 0.0, "fusion_lat": 0.0, "type": "electric_bike", "name": "d6a22cc0a979fa868c0982e451ae5e1b", "is_disabled": 0, "rental_uris": {"ios": "https://dc.lft.to/lastmile_qr_scan", "android": "https://dc.lft.to/lastmile_qr_scan"}, "is_reserved": 0}, {"lon": -77.032688, "bike_id": "07a84052f8a1764a2212f48c5efb05b1", "lat": 38.934339666666666, "fusion_lon": 0.0, "fusion_lat": 0.0, "type": "electric_scooter", "name": "07a84052f8a1764a2212f48c5efb05b1", "is_disabled": 0, "rental_uris": {"ios": "https://dc.lft.to/lastmile_qr_scan", "android": "https://dc.lft.to/lastmile_qr_scan"}, "is_reserved": 0}, {"lon": -77.01880583333333, "bike_id": "7d83a999ff8791f4f53eee18bd44af9e", "lat": 38.914130166666666, "fusion_lon": 0.0, "fusion_lat": 0.0, "type": "electric_scooter", "name": "7d83a999ff8791f4f53eee18bd44af9e", "is_disabled": 0, "rental_uris": {"ios": "https://dc.lft.to/lastmile_qr_scan", "android": "https://dc.lft.to/lastmile_qr_scan"}, "is_reserved": 0}, {"lon": -77.03174716666666, "bike_id": "054c4536096af8a8913d7d86e1c718f4", "lat": 38.936028666666665, "fusion_lon": 0.0, "fusion_lat": 0.0, "type": "electric_scooter", "name": "054c4536096af8a8913d7d86e1c718f4", "is_disabled": 0, "rental_uris": {"ios": "https://dc.lft.to/lastmile_qr_scan", "android": "https://dc.lft.to/lastmile_qr_scan"}, "is_reserved": 0}, {"lon": -76.97744833333333, "bike_id": "eaf76bb002319dd3544d01ecb37cd588", "lat": 38.864870833333335, "fusion_lon": 0.0, "fusion_lat": 0.0, "type": "electric_bike", "name": "eaf76bb002319dd3544d01ecb37cd588", "is_disabled": 0, "rental_uris": {"ios": "https://dc.lft.to/lastmile_qr_scan", "android": "https://dc.lft.to/lastmile_qr_scan"}, "is_reserved": 0}, {"lon": -76.99599616666667, "bike_id": "b277a24c8be9a451f8f4a1c250e486c6", "lat": 38.950727666666666, "fusion_lon": 0.0, "fusion_lat": 0.0, "type": "electric_bike", "name": "b277a24c8be9a451f8f4a1c250e486c6", "is_disabled": 0, "rental_uris": {"ios": "https://dc.lft.to/lastmile_qr_scan", "android": "https://dc.lft.to/lastmile_qr_scan"}, "is_reserved": 0}, {"lon": -77.03709016666667, "bike_id": "3f30211cdddd524bdc6af07f96261f6f", "lat": 38.926403666666666, "fusion_lon": 0.0, "fusion_lat": 0.0, "type": "electric_scooter", "name": "3f30211cdddd524bdc6af07f96261f6f", "is_disabled": 0, "rental_uris": {"ios": "https://dc.lft.to/lastmile_qr_scan", "android": "https://dc.lft.to/lastmile_qr_scan"}, "is_reserved": 0}, {"lon": -77.0362575, "bike_id": "fdfe1ab36e1fbccd9c866750f87d5594", "lat": 38.91689433333333, "fusion_lon": 0.0, "fusion_lat": 0.0, "type": "electric_scooter", "name": "fdfe1ab36e1fbccd9c866750f87d5594", "is_disabled": 0, "rental_uris": {"ios": "https://dc.lft.to/lastmile_qr_scan", "android": "https://dc.lft.to/lastmile_qr_scan"}, "is_reserved": 0}, {"lon": -76.98465266666666, "bike_id": "5fb0aec26dff105254d528bed2c6c1c6", "lat": 38.90398483333333, "fusion_lon": 0.0, "fusion_lat": 0.0, "type": "electric_scooter", "name": "5fb0aec26dff105254d528bed2c6c1c6", "is_disabled": 0, "rental_uris": {"ios": "https://dc.lft.to/lastmile_qr_scan", "android": "https://dc.lft.to/lastmile_qr_scan"}, "is_reserved": 0}, {"lon": -77.0218745, "bike_id": "3b7afa2a0fed9dfa8ca9291a3020c913", "lat": 38.905384, "fusion_lon": 0.0, "fusion_lat": 0.0, "type": "electric_scooter", "name": "3b7afa2a0fed9dfa8ca9291a3020c913", "is_disabled": 0, "rental_uris": {"ios": "https://dc.lft.to/lastmile_qr_scan", "android": "https://dc.lft.to/lastmile_qr_scan"}, "is_reserved": 0}, {"lon": -77.0187685, "bike_id": "5b3b5befdaa92870aa427d61da0faa00", "lat": 38.89865483333333, "fusion_lon": 0.0, "fusion_lat": 0.0, "type": "electric_scooter", "name": "5b3b5befdaa92870aa427d61da0faa00", "is_disabled": 0, "rental_uris": {"ios": "https://dc.lft.to/lastmile_qr_scan", "android": "https://dc.lft.to/lastmile_qr_scan"}, "is_reserved": 0}, {"lon": -77.03623283333333, "bike_id": "a4ee907d8e5ac48c5370edef18d4a6a8", "lat": 38.936779333333334, "fusion_lon": 0.0, "fusion_lat": 0.0, "type": "electric_scooter", "name": "a4ee907d8e5ac48c5370edef18d4a6a8", "is_disabled": 0, "rental_uris": {"ios": "https://dc.lft.to/lastmile_qr_scan", "android": "https://dc.lft.to/lastmile_qr_scan"}, "is_reserved": 0}, {"lon": -77.031838, "bike_id": "936b1c06f49f0b80f7ce94e3ae220b80", "lat": 38.913348, "fusion_lon": 0.0, "fusion_lat": 0.0, "type": "electric_scooter", "name": "936b1c06f49f0b80f7ce94e3ae220b80", "is_disabled": 0, "rental_uris": {"ios": "https://dc.lft.to/lastmile_qr_scan", "android": "https://dc.lft.to/lastmile_qr_scan"}, "is_reserved": 0}, {"lon": -77.02811016666666, "bike_id": "bd698bea849ea2cab1720ca78e339dce", "lat": 38.88173533333333, "fusion_lon": 0.0, "fusion_lat": 0.0, "type": "electric_scooter", "name": "bd698bea849ea2cab1720ca78e339dce", "is_disabled": 0, "rental_uris": {"ios": "https://dc.lft.to/lastmile_qr_scan", "android": "https://dc.lft.to/lastmile_qr_scan"}, "is_reserved": 0}, {"lon": -77.05471733333333, "bike_id": "6c337d248b19870992995180e3134486", "lat": 38.904337, "fusion_lon": 0.0, "fusion_lat": 0.0, "type": "electric_scooter", "name": "6c337d248b19870992995180e3134486", "is_disabled": 0, "rental_uris": {"ios": "https://dc.lft.to/lastmile_qr_scan", "android": "https://dc.lft.to/lastmile_qr_scan"}, "is_reserved": 0}, {"lon": -77.027626, "bike_id": "cc4fbbf45bef1ee24dc6b76e2dce3ec7", "lat": 38.954273, "fusion_lon": 0.0, "fusion_lat": 0.0, "type": "electric_scooter", "name": "cc4fbbf45bef1ee24dc6b76e2dce3ec7", "is_disabled": 0, "rental_uris": {"ios": "https://dc.lft.to/lastmile_qr_scan", "android": "https://dc.lft.to/lastmile_qr_scan"}, "is_reserved": 0}, {"lon": -77.04867333333333, "bike_id": "64b98afe4529eca20df610398fc7f4a2", "lat": 38.892189333333334, "fusion_lon": 0.0, "fusion_lat": 0.0, "type": "electric_scooter", "name": "64b98afe4529eca20df610398fc7f4a2", "is_disabled": 0, "rental_uris": {"ios": "https://dc.lft.to/lastmile_qr_scan", "android": "https://dc.lft.to/lastmile_qr_scan"}, "is_reserved": 0}, {"lon": -77.0154765, "bike_id": "14a31b47c870f101c4a5f233a36ff429", "lat": 38.92671516666667, "fusion_lon": 0.0, "fusion_lat": 0.0, "type": "electric_scooter", "name": "14a31b47c870f101c4a5f233a36ff429", "is_disabled": 0, "rental_uris": {"ios": "https://dc.lft.to/lastmile_qr_scan", "android": "https://dc.lft.to/lastmile_qr_scan"}, "is_reserved": 0}, {"lon": -77.01650666666667, "bike_id": "b0b6990191d8e346a113555b953307c1", "lat": 38.87696666666667, "fusion_lon": 0.0, "fusion_lat": 0.0, "type": "electric_scooter", "name": "b0b6990191d8e346a113555b953307c1", "is_disabled": 0, "rental_uris": {"ios": "https://dc.lft.to/lastmile_qr_scan", "android": "https://dc.lft.to/lastmile_qr_scan"}, "is_reserved": 0}, {"lon": -77.01996066666666, "bike_id": "c0c191df3ddbadef3e7ca5a0818a7cd6", "lat": 38.966262666666665, "fusion_lon": 0.0, "fusion_lat": 0.0, "type": "electric_scooter", "name": "c0c191df3ddbadef3e7ca5a0818a7cd6", "is_disabled": 0, "rental_uris": {"ios": "https://dc.lft.to/lastmile_qr_scan", "android": "https://dc.lft.to/lastmile_qr_scan"}, "is_reserved": 0}, {"lon": -77.0195475, "bike_id": "680df86770d9f7543ac27d4cee257240", "lat": 38.900848, "fusion_lon": 0.0, "fusion_lat": 0.0, "type": "electric_scooter", "name": "680df86770d9f7543ac27d4cee257240", "is_disabled": 0, "rental_uris": {"ios": "https://dc.lft.to/lastmile_qr_scan", "android": "https://dc.lft.to/lastmile_qr_scan"}, "is_reserved": 0}, {"lon": -77.046, "bike_id": "29ebf9cc859af9b6a543a85bb9776b99", "lat": 39.024537, "fusion_lon": 0.0, "fusion_lat": 0.0, "type": "electric_bike", "name": "29ebf9cc859af9b6a543a85bb9776b99", "is_disabled": 0, "rental_uris": {"ios": "https://dc.lft.to/lastmile_qr_scan", "android": "https://dc.lft.to/lastmile_qr_scan"}, "is_reserved": 0}, {"lon": -76.99947833333333, "bike_id": "651f733018cb2cf45096fe7dd52311e9", "lat": 38.908629166666664, "fusion_lon": 0.0, "fusion_lat": 0.0, "type": "electric_bike", "name": "651f733018cb2cf45096fe7dd52311e9", "is_disabled": 0, "rental_uris": {"ios": "https://dc.lft.to/lastmile_qr_scan", "android": "https://dc.lft.to/lastmile_qr_scan"}, "is_reserved": 0}, {"lon": -77.03658833333333, "bike_id": "c4575a037848a6028b08a3ab55466ed3", "lat": 38.92294283333333, "fusion_lon": 0.0, "fusion_lat": 0.0, "type": "electric_scooter", "name": "c4575a037848a6028b08a3ab55466ed3", "is_disabled": 0, "rental_uris": {"ios": "https://dc.lft.to/lastmile_qr_scan", "android": "https://dc.lft.to/lastmile_qr_scan"}, "is_reserved": 0}, {"lon": -77.03041333333333, "bike_id": "fe3e57a49dd7c37c58eb106e58585cd2", "lat": 38.91336833333333, "fusion_lon": 0.0, "fusion_lat": 0.0, "type": "electric_scooter", "name": "fe3e57a49dd7c37c58eb106e58585cd2", "is_disabled": 0, "rental_uris": {"ios": "https://dc.lft.to/lastmile_qr_scan", "android": "https://dc.lft.to/lastmile_qr_scan"}, "is_reserved": 0},