{"data": {"bikes": [{"is_reserved": 0, "type": "electric_bike", "bike_id": "495e7bc8d7e96fd3c0930456b761ead7", "lat": 38.94797483333333, "lon": -76.94248916666666, "rental_uris": {"android": "https://dc.lft.to/lastmile_qr_scan", "ios": "https://dc.lft.to/lastmile_qr_scan"}, "is_disabled": 0, "fusion_lat": 0.0, "name": "495e7bc8d7e96fd3c0930456b761ead7", "fusion_lon": 0.0}, {"is_reserved": 0, "type": "electric_scooter", "bike_id": "c91d71169dacc179f417800b0ecfba68", "lat": 38.895435166666665, "lon": -76.98337433333333, "rental_uris": {"android": "https://dc.lft.to/lastmile_qr_scan", "ios": "https://dc.lft.to/lastmile_qr_scan"}, "is_disabled": 0, "fusion_lat": 0.0, "name": "c91d71169dacc179f417800b0ecfba68", "fusion_lon": 0.0}, {"is_reserved": 0, "type": "electric_scooter", "bike_id": "2e9b4da0f5014f03cc5a46cff12913e1", "lat": 38.92681666666667, "lon": -77.00744466666667, "rental_uris": {"android": "https://dc.lft.to/lastmile_qr_scan", "ios": "https://dc.lft.to/lastmile_qr_scan"}, "is_disabled": 0, "fusion_lat": 0.0, "name": "2e9b4da0f5014f03cc5a46cff12913e1", "fusion_lon": 0.0}, {"is_reserved": 0, "type": "electric_scooter", "bike_id": "635db0ddb5f844391e1fb70575720365", "lat": 38.9104625, "lon": -77.04819633333334, "rental_uris": {"android": "https://dc.lft.to/lastmile_qr_scan", "ios": "https://dc.lft.to/lastmile_qr_scan"}, "is_disabled": 0, "fusion_lat": 0.0, "name": "635db0ddb5f844391e1fb70575720365", "fusion_lon": 0.0}, {"is_reserved": 0, "type": "electric_scooter", "bike_id": "810c3b81aa12dc3d3e706cfbc667efdd", "lat": 38.909305333333336, "lon": -77.03192633333333, "rental_uris": {"android": "https://dc.lft.to/lastmile_qr_scan", "ios": "https://dc.lft.to/lastmile_qr_scan"}, "is_disabled": 0, "fusion_lat": 0.0, "name": "810c3b81aa12dc3d3e706cfbc667efdd", "fusion_lon": 0.0}, {"is_reserved": 0, "type": "electric_scooter", "bike_id": "bbc491c88f27c50d476fbae2e84f8ba8", "lat": 38.900848, "lon": -77.017697, "rental_uris": {"android": "https://dc.lft.to/lastmile_qr_scan", "ios": "https://dc.lft.to/lastmile_qr_scan"}, "is_disabled": 0, "fusion_lat": 0.0, "name": "bbc491c88f27c50d476fbae2e84f8ba8", "fusion_lon": 0.0}, {"is_reserved": 0, "type": "electric_scooter", "bike_id": "ee80ed99979b0a1e8b12e1375396c398", "lat": 38.9155405, "lon": -77.03118416666666, "rental_uris": {"android": "https://dc.lft.to/lastmile_qr_scan", "ios": "https://dc.lft.to/lastmile_qr_scan"}, "is_disabled": 0, "fusion_lat": 0.0, "name": "ee80ed99979b0a1e8b12e1375396c398", "fusion_lon": 0.0}, {"is_reserved": 0, "type": "electric_scooter", "bike_id": "35997dd3eacddf8179b8b0f16eeaa1ed", "lat": 38.91421016666666, "lon": -77.01879683333334, "rental_uris": {"android": "https://dc.lft.to/lastmile_qr_scan", "ios": "https://dc.lft.to/lastmile_qr_scan"}, "is_disabled": 0, "fusion_lat": 0.0, "name": "35997dd3eacddf8179b8b0f16eeaa1ed", "fusion_lon": 0.0}, {"is_reserved": 0, "type": "electric_bike", "bike_id": "7dbe81a203e7d3d2c3e7c05997fc3a85", "lat": 38.844521, "lon": -76.9316345, "rental_uris": {"android": "https://dc.lft.to/lastmile_qr_scan", "ios": "https://dc.lft.to/lastmile_qr_scan"}, "is_disabled": 0, "fusion_lat": 0.0, "name": "7dbe81a203e7d3d2c3e7c05997fc3a85", "fusion_lon": 0.0}, {"is_reserved": 0, "type": "electric_scooter", "bike_id": "c0f3ecf3a212107b29392c0557b29b49", "lat": 38.9006915, "lon": -77.03436716666667, "rental_uris": {"android": "https://dc.lft.to/lastmile_qr_scan", "ios": "https://dc.lft.to/lastmile_qr_scan"}, "is_disabled": 0, "fusion_lat": 0.0, "name": "c0f3ecf3a212107b29392c0557b29b49", "fusion_lon": 0.0}, {"is_reserved": 0, "type": "electric_scooter", "bike_id": "3b5c4eb748208c7709104f3bdd082a39", "lat": 38.903909166666665, "lon": -77.017887, "rental_uris": {"android": "https://dc.lft.to/lastmile_qr_scan", "ios": "https://dc.lft.to/lastmile_qr_scan"}, "is_disabled": 0, "fusion_lat": 0.0, "name": "3b5c4eb748208c7709104f3bdd082a39", "fusion_lon": 0.0}, {"is_reserved": 0, "type": "electric_scooter", "bike_id": "b0586e5e2b23a0222a7ff64d58a74d84", "lat": 38.9224975, "lon": -77.04713933333333, "rental_uris": {"android": "https://dc.lft.to/lastmile_qr_scan", "ios": "https://dc.lft.to/lastmile_qr_scan"}, "is_disabled": 0, "fusion_lat": 0.0, "name": "b0586e5e2b23a0222a7ff64d58a74d84", "fusion_lon": 0.0}, {"is_reserved": 0, "type": "electric_bike", "bike_id": "abade96974fb151ef9fd5f48dea533ec", "lat": 38.985314, "lon": -76.95471683333334, "rental_uris": {"android": "https://dc.lft.to/lastmile_qr_scan", "ios": "https://dc.lft.to/lastmile_qr_scan"}, "is_disabled": 0, "fusion_lat": 0.0, "name": "abade96974fb151ef9fd5f48dea533ec", "fusion_lon": 0.0}, {"is_reserved": 0, "type": "electric_scooter", "bike_id": "19bb06c4763ad12f8f0560d3cbdf2d06", "lat": 38.9232855, "lon": -77.03678733333334, "rental_uris": {"android": "https://dc.lft.to/lastmile_qr_scan", "ios": "https://dc.lft.to/lastmile_qr_scan"}, "is_disabled": 0, "fusion_lat": 0.0, "name": "19bb06c4763ad12f8f0560d3cbdf2d06", "fusion_lon": 0.0}, {"is_reserved": 0, "type": "electric_scooter", "bike_id": "90720d40f6486b7de2498e91c406a84b", "lat": 38.9112775, "lon": -77.0025505, "rental_uris": {"android": "https://dc.lft.to/lastmile_qr_scan", "ios": "https://dc.lft.to/lastmile_qr_scan"}, "is_disabled": 0, "fusion_lat": 0.0, "name": "90720d40f6486b7de2498e91c406a84b", "fusion_lon": 0.0}, {"is_reserved": 0, "type": "electric_scooter", "bike_id": "78929ef8083c4716fc2d53c0bec3a621", "lat": 38.9122285, "lon": -76.987084, "rental_uris": {"android": "https://dc.lft.to/lastmile_qr_scan", "ios": "https://dc.lft.to/lastmile_qr_scan"}, "is_disabled": 0, "fusion_lat": 0.0, "name": "78929ef8083c4716fc2d53c0bec3a621", "fusion_lon": 0.0}, {"is_reserved": 0, "type": "electric_scooter", "bike_id": "fb386b52326acbc26d8f3539d144fae6", "lat": 38.915654, "lon": -77.03129066666666, "rental_uris": {"android": "https://dc.lft.to/lastmile_qr_scan", "ios": "https://dc.lft.to/lastmile_qr_scan"}, "is_disabled": 0, "fusion_lat": 0.0, "name": "fb386b52326acbc26d8f3539d144fae6", "fusion_lon": 0.0}, {"is_reserved": 0, "type": "electric_scooter", "bike_id": "fc01b7cf5d74aa7df469747758be9268", "lat": 38.90875916666667, "lon": -77.06760083333333, "rental_uris": {"android": "https://dc.lft.to/lastmile_qr_scan", "ios": "https://dc.lft.to/lastmile_qr_scan"}, "is_disabled": 0, "fusion_lat": 0.0, "name": "fc01b7cf5d74aa7df469747758be9268", "fusion_lon": 0.0}, {"is_reserved": 0, "type": "electric_scooter", "bike_id": "301a1396ef02cf5a272eb364057064ff", "lat": 38.905467, "lon": -77.04164666666667, "rental_uris": {"android": "https://dc.lft.to/lastmile_qr_scan", "ios": "https://dc.lft.to/lastmile_qr_scan"}, "is_disabled": 0, "fusion_lat": 0.0, "name": "301a1396ef02cf5a272eb364057064ff", "fusion_lon": 0.0}, {"is_reserved": 0, "type": "electric_scooter", "bike_id": "3ff5077fe37ffd2bfa1ff51539a6e69d", "lat": 38.89814616666666, "lon": -77.0489075, "rental_uris": {"android": "https://dc.lft.to/lastmile_qr_scan", "ios": "https://dc.lft.to/lastmile_qr_scan"}, "is_disabled": 0, "fusion_lat": 0.0, "name": "3ff5077fe37ffd2bfa1ff51539a6e69d", "fusion_lon": 0.0}, {"is_reserved": 0, "type": "electric_scooter", "bike_id": "1f24071bbd8ad5e30c3f498b3fed8afb", "lat": 38.93647633333333, "lon": -77.0367325, "rental_uris": {"android": "https://dc.lft.to/lastmile_qr_scan", "ios": "https://dc.lft.to/lastmile_qr_scan"}, "is_disabled": 0, "fusion_lat": 0.0, "name": "1f24071bbd8ad5e30c3f498b3fed8afb", "fusion_lon": 0.0}, {"is_reserved": 0, "type": "electric_scooter", "bike_id": "315d6088febb3dc8673e60b79e2f9dae", "lat": 38.9170315, "lon": -77.03172933333333, "rental_uris": {"android": "https://dc.lft.to/lastmile_qr_scan", "ios": "https://dc.lft.to/lastmile_qr_scan"}, "is_disabled": 0, "fusion_lat": 0.0, "name": "315d6088febb3dc8673e60b79e2f9dae", "fusion_lon": 0.0}, {"is_reserved": 0, "type": "electric_scooter", "bike_id": "c47c11574ee89595665c1715b733ca69", "lat": 38.9386525, "lon": -77.02701933333333, "rental_uris": {"android": "https://dc.lft.to/lastmile_qr_scan", "ios": "https://dc.lft.to/lastmile_qr_scan"}, "is_disabled": 0, "fusion_lat": 0.0, "name": "c47c11574ee89595665c1715b733ca69", "fusion_lon": 0.0}, {"is_reserved": 0, "type": "electric_scooter", "bike_id": "7471f0e69992e1e4ef48a8d10be311ad", "lat": 38.9237165, "lon": -77.01921033333333, "rental_uris": {"android": "https://dc.lft.to/lastmile_qr_scan", "ios": "https://dc.lft.to/lastmile_qr_scan"}, "is_disabled": 0, "fusion_lat": 0.0, "name": "7471f0e69992e1e4ef48a8d10be311ad", "fusion_lon": 0.0}, {"is_reserved": 0, "type": "electric_scooter", "bike_id": "d32fe88b195a00f4ce22d41dc81fd945", "lat": 38.905240666666664, "lon": -76.9840675, "rental_uris": {"android": "https://dc.lft.to/lastmile_qr_scan", "ios": "https://dc.lft.to/lastmile_qr_scan"}, "is_disabled": 0, "fusion_lat": 0.0, "name": "d32fe88b195a00f4ce22d41dc81fd945", "fusion_lon": 0.0}, {"is_reserved": 0, "type": "electric_scooter", "bike_id": "d92a58b9e2560e31a409c20ef09ab8e3", "lat": 38.892194, "lon": -77.02420333333333, "rental_uris": {"android": "https://dc.lft.to/lastmile_qr_scan", "ios": "https://dc.lft.to/lastmile_qr_scan"}, "is_disabled": 0, "fusion_lat": 0.0, "name": "d92a58b9e2560e31a409c20ef09ab8e3", "fusion_lon": 0.0}, {"is_reserved": 0, "type": "electric_scooter", "bike_id": "e26c9d66a20810289531639d03f1f699", "lat": 38.917154833333335, "lon": -77.0385615, "rental_uris": {"android": "https://dc.lft.to/lastmile_qr_scan", "ios": "https://dc.lft.to/lastmile_qr_scan"}, "is_disabled": 0, "fusion_lat": 0.0, "name": "e26c9d66a20810289531639d03f1f699", "fusion_lon": 0.0}, {"is_reserved": 0, "type": "electric_bike", "bike_id": "0401c26884f01d4adcf964a130cc2046", "lat": 38.831401666666665, "lon": -77.1134765, "rental_uris": {"android": "https://dc.lft.to/lastmile_qr_scan", "ios": "https://dc.lft.to/lastmile_qr_scan"}, "is_disabled": 0, "fusion_lat": 0.0, "name": "0401c26884f01d4adcf964a130cc2046", "fusion_lon": 0.0}, {"is_reserved": 0, "type": "electric_scooter", "bike_id": "45722f635113141f77001de197a71b1c", "lat": 38.946895166666664, "lon": -77.02251716666666, "rental_uris": {"android": "https://dc.lft.to/lastmile_qr_scan", "ios": "https://dc.lft.to/lastmile_qr_scan"}, "is_disabled": 0, "fusion_lat": 0.0, "name": "45722f635113141f77001de197a71b1c", "fusion_lon": 0.0}, {"is_reserved": 0, "type": "electric_scooter", "bike_id": "ec8965e0ff15474782b9a36de77b17b9", "lat": 38.89753183333333, "lon": -77.02116983333333, "rental_uris": {"android": "https://dc.lft.to/lastmile_qr_scan", "ios": "https://dc.lft.to/lastmile_qr_scan"}, "is_disabled": 0, "fusion_lat": 0.0, "name": "ec8965e0ff15474782b9a36de77b17b9", "fusion_lon": 0.0}, {"is_reserved": 0, "type": "electric_scooter", "bike_id": "6e5a695fae6a242b29f5bb00fc97e225", "lat": 38.93176066666667, "lon": -77.02850766666667, "rental_uris": {"android": "https://dc.lft.to/lastmile_qr_scan", "ios": "https://dc.lft.to/lastmile_qr_scan"}, "is_disabled": 0, "fusion_lat": 0.0, "name": "6e5a695fae6a242b29f5bb00fc97e225", "fusion_lon": 0.0}, {"is_reserved": 0, "type": "electric_scooter", "bike_id": "3457dc6611a8f75c9917f0eec39c8144", "lat": 38.92237316666667, "lon": -77.03356366666667, "rental_uris": {"android": "https://dc.lft.to/lastmile_qr_scan", "ios": "https://dc.lft.to/lastmile_qr_scan"}, "is_disabled": 0, "fusion_lat": 0.0, "name": "3457dc6611a8f75c9917f0eec39c8144", "fusion_lon": 0.0}, {"is_reserved": 0, "type": "electric_scooter", "bike_id": "7d72633f8fbfaae46892c86e21afb075", "lat": 38.885097333333334, "lon": -77.0111545, "rental_uris": {"android": "https://dc.lft.to/lastmile_qr_scan", "ios": "https://dc.lft.to/lastmile_qr_scan"}, "is_disabled": 0, "fusion_lat": 0.0, "name": "7d72633f8fbfaae46892c86e21afb075", "fusion_lon": 0.0}, {"is_reserved": 0, "type": "electric_scooter", "bike_id": "1a11541b7acf507e30384e3eaa017032", "lat": 38.9011275, "lon": -77.038221, "rental_uris": {"android": "https://dc.lft.to/lastmile_qr_scan", "ios": "https://dc.lft.to/lastmile_qr_scan"}, "is_disabled": 0, "fusion_lat": 0.0, "name": "1a11541b7acf507e30384e3eaa017032", "fusion_lon": 0.0}, {"is_reserved": 0, "type": "electric_scooter", "bike_id": "f67e599cd63f54280c357705e4caeb89", "lat": 38.90612633333333, "lon": -76.95015533333333, "rental_uris": {"android": "https://dc.lft.to/lastmile_qr_scan", "ios": "https://dc.lft.to/lastmile_qr_scan"}, "is_disabled": 0, "fusion_lat": 0.0, "name": "f67e599cd63f54280c357705e4caeb89", "fusion_lon": 0.0}, {"is_reserved": 0, "type": "electric_scooter", "bike_id": "5ef105ab15f01993e7851c9d490676f8", "lat": 38.90520333333333, "lon": -77.06532683333333, "rental_uris": {"android": "https://dc.lft.to/lastmile_qr_scan", "ios": "https://dc.lft.to/lastmile_qr_scan"}, "is_disabled": 0, "fusion_lat": 0.0, "name": "5ef105ab15f01993e7851c9d490676f8", "fusion_lon": 0.0}, {"is_reserved": 0, "type": "electric_scooter", "bike_id": "d80ec824c15a1a87857a8bf4f2dcce51", "lat": 38.90089016666667, "lon": -77.050041, "rental_uris": {"android": "https://dc.lft.to/lastmile_qr_scan", "ios": "https://dc.lft.to/lastmile_qr_scan"}, "is_disabled": 0, "fusion_lat": 0.0, "name": "d80ec824c15a1a87857a8bf4f2dcce51", "fusion_lon": 0.0}, {"is_reserved": 0, "type": "electric_scooter", "bike_id": "7b16e73a916f2b45698313673943c594", "lat": 38.8996885, "lon": -76.93853966666667, "rental_uris": {"android": "https://dc.lft.to/lastmile_qr_scan", "ios": "https://dc.lft.to/lastmile_qr_scan"}, "is_disabled": 0, "fusion_lat": 0.0, "name": "7b16e73a916f2b45698313673943c594", "fusion_lon": 0.0}, {"is_reserved": 0, "type": "electric_scooter", "bike_id": "212d11d6a6505fa277f64175bd033d92", "lat": 38.92748266666667, "lon": -77.05388183333334, "rental_uris": {"android": "https://dc.lft.to/lastmile_qr_scan", "ios": "https://dc.lft.to/lastmile_qr_scan"}, "is_disabled": 0, "fusion_lat": 0.0, "name": "212d11d6a6505fa277f64175bd033d92", "fusion_lon": 0.0}, {"is_reserved": 0, "type": "electric_scooter", "bike_id": "93fa682aff56c30397d3ed909fc97354", "lat": 38.92233216666666, "lon": -77.02243316666667, "rental_uris": {"android": "https://dc.lft.to/lastmile_qr_scan", "ios": "https://dc.lft.to/lastmile_qr_scan"}, "is_disabled": 0, "fusion_lat": 0.0, "name": "93fa682aff56c30397d3ed909fc97354", "fusion_lon": 0.0}, {"is_reserved": 0, "type": "electric_scooter", "bike_id": "48870d0a602eb68c97348e57662ae411", "lat": 38.92098216666667, "lon": -77.0438375, "rental_uris": {"android": "https://dc.lft.to/lastmile_qr_scan", "ios": "https://dc.lft.to/lastmile_qr_scan"}, "is_disabled": 0, "fusion_lat": 0.0, "name": "48870d0a602eb68c97348e57662ae411", "fusion_lon": 0.0}, {"is_reserved": 0, "type": "electric_scooter", "bike_id": "3bb26bcb7fb66365dbefcbd671f68ea0", "lat": 38.909529, "lon": -77.0488465, "rental_uris": {"android": "https://dc.lft.to/lastmile_qr_scan", "ios": "https://dc.lft.to/lastmile_qr_scan"}, "is_disabled": 0, "fusion_lat": 0.0, "name": "3bb26bcb7fb66365dbefcbd671f68ea0", "fusion_lon": 0.0}, {"is_reserved": 0, "type": "electric_scooter", "bike_id": "ee09521c6bc010d3992b49c9cc2417dc", "lat": 38.887318, "lon": -77.02207816666666, "rental_uris": {"android": "https://dc.lft.to/lastmile_qr_scan", "ios": "https://dc.lft.to/lastmile_qr_scan"}, "is_disabled": 0, "fusion_lat": 0.0, "name": "ee09521c6bc010d3992b49c9cc2417dc", "fusion_lon": 0.0}, {"is_reserved": 0, "type": "electric_scooter", "bike_id": "36a69be9e012f82fea2226f61222f990", "lat": 38.913371833333336, "lon": -77.031988, "rental_uris": {"android": "https://dc.lft.to/lastmile_qr_scan", "ios": "https://dc.lft.to/lastmile_qr_scan"}, "is_disabled": 0, "fusion_lat": 0.0, "name": "36a69be9e012f82fea2226f61222f990", "fusion_lon": 0.0}, {"is_reserved": 0, "type": "electric_scooter", "bike_id": "376280f8a4ab70688ec5842413a362ef", "lat": 38.900111333333335, "lon": -77.04658566666667, "rental_uris": {"android": "https://dc.lft.to/lastmile_qr_scan", "ios": "https://dc.lft.to/lastmile_qr_scan"}, "is_disabled": 0, "fusion_lat": 0.0, "name": "376280f8a4ab70688ec5842413a362ef", "fusion_lon": 0.0}, {"is_reserved": 0, "type": "electric_scooter", "bike_id": "ba5357ac0aa530bc5caea43da1eab483", "lat": 38.88382683333333, "lon": -76.99354933333333, "rental_uris": {"android": "https://dc.lft.to/lastmile_qr_scan", "ios": "https://dc.lft.to/lastmile_qr_scan"}, "is_disabled": 0, "fusion_lat": 0.0, "name": "ba5357ac0aa530bc5caea43da1eab483", "fusion_lon": 0.0}, {"is_reserved": 0, "type": "electric_scooter", "bike_id": "a372050531f5b5b02da90edb09bdfdaf", "lat": 38.92412933333333, "lon": -77.03639066666666, "rental_uris": {"android": "https://dc.lft.to/lastmile_qr_scan", "ios": "https://dc.lft.to/lastmile_qr_scan"}, "is_disabled": 0, "fusion_lat": 0.0, "name": "a372050531f5b5b02da90edb09bdfdaf", "fusion_lon": 0.0}, {"is_reserved": 0, "type": "electric_scooter", "bike_id": "0b5a5c04a382648ada2cd1f91532364b", "lat": 38.88448616666667, "lon": -77.025026, "rental_uris": {"android": "https://dc.lft.to/lastmile_qr_scan", "ios": "https://dc.lft.to/lastmile_qr_scan"}, "is_disabled": 0, "fusion_lat": 0.0, "name": "0b5a5c04a382648ada2cd1f91532364b", "fusion_lon": 0.0}, {"is_reserved": 0, "type": "electric_scooter", "bike_id": "7d7ab5e02320af124d7fdfde6b04a81b", "lat": 38.921262, "lon": -77.036658, "rental_uris": {"android": "https://dc.lft.to/lastmile_qr_scan", "ios": "https://dc.lft.to/lastmile_qr_scan"}, "is_disabled": 0, "fusion_lat": 0.0, "name": "7d7ab5e02320af124d7fdfde6b04a81b", "fusion_lon": 0.0}, {"is_reserved": 0, "type": "electric_scooter", "bike_id": "c946bd45ae882c55877940c329cfaf85", "lat": 38.923738166666666, "lon": -77.0431035, "rental_uris": {"android": "https://dc.lft.to/lastmile_qr_scan", "ios": "https://dc.lft.to/lastmile_qr_scan"}, "is_disabled": 0, "fusion_lat": 0.0, "name": "c946bd45ae882c55877940c329cfaf85", "fusion_lon": 0.0}, {"is_reserved": 0, "type": "electric_scooter", "bike_id": "fd3459246cbadc7a46fee77160c17e52", "lat": 38.84630633333333, "lon": -76.9812025, "rental_uris": {"android": "https://dc.lft.to/lastmile_qr_scan", "ios": "https://dc.lft.to/lastmile_qr_scan"}, "is_disabled": 0, "fusion_lat": 0.0, "name": "fd3459246cbadc7a46fee77160c17e52", "fusion_lon": 0.0}, {"is_reserved": 0, "type": "electric_scooter", "bike_id": "d5f121755ace24ae9e8728cfd4b323ba", "lat": 38.9154995, "lon": -77.012172, "rental_uris": {"android": "https://dc.lft.to/lastmile_qr_scan", "ios": "https://dc.lft.to/lastmile_qr_scan"}, "is_disabled": 0, "fusion_lat": 0.0, "name": "d5f121755ace24ae9e8728cfd4b323ba", "fusion_lon": 0.0}, {"is_reserved": 0, "type": "electric_scooter", "bike_id": "8ee439546c418858324f11a2fb1f1575", "lat": 38.89730983333333, "lon": -77.00374566666666, "rental_uris": {"android": "https://dc.lft.to/lastmile_qr_scan", "ios": "https://dc.lft.to/lastmile_qr_scan"}, "is_disabled": 0, "fusion_lat": 0.0, "name": "8ee439546c418858324f11a2fb1f1575", "fusion_lon": 0.0}, {"is_reserved": 0, "type": "electric_scooter", "bike_id": "7717dfc23589ca633a533f0ca803976b", "lat": 38.9007745, "lon": -77.04750616666666, "rental_uris": {"android": "https://dc.lft.to/lastmile_qr_scan", "ios": "https://dc.lft.to/lastmile_qr_scan"}, "is_disabled": 0, "fusion_lat": 0.0, "name": "7717dfc23589ca633a533f0ca803976b", "fusion_lon": 0.0}, {"is_reserved": 0, "type": "electric_scooter", "bike_id": "03649efcca55b8ea5497126d9c799fc5", "lat": 38.92541883333333, "lon": -77.02979033333334, "rental_uris": {"android": "https://dc.lft.to/lastmile_qr_scan", "ios": "https://dc.lft.to/lastmile_qr_scan"}, "is_disabled": 0, "fusion_lat": 0.0, "name": "03649efcca55b8ea5497126d9c799fc5", "fusion_lon": 0.0}, {"is_reserved": 0, "type": "electric_scooter", "bike_id": "a6eccd75e6317e2190ac7170e16554aa", "lat": 38.932071666666666, "lon": -77.0374875, "rental_uris": {"android": "https://dc.lft.to/lastmile_qr_scan", "ios": "https://dc.lft.to/lastmile_qr_scan"}, "is_disabled": 0, "fusion_lat": 0.0, "name": "a6eccd75e6317e2190ac7170e16554aa", "fusion_lon": 0.0}, {"is_reserved": 0, "type": "electric_bike", "bike_id": "1335cafaaa9835e3bce1d15619b70840", "lat": 38.974219, "lon": -77.01258116666666, "rental_uris": {"android": "https://dc.lft.to/lastmile_qr_scan", "ios": "https://dc.lft.to/lastmile_qr_scan"}, "is_disabled": 0, "fusion_lat": 0.0, "name": "1335cafaaa9835e3bce1d15619b70840", "fusion_lon": 0.0}, {"is_reserved": 0, "type": "electric_scooter", "bike_id": "de43c03014e58b8e333e9da5376a4cf8", "lat": 38.91345416666667, "lon": -77.0642165, "rental_uris": {"android": "https://dc.lft.to/lastmile_qr_scan", "ios": "https://dc.lft.to/lastmile_qr_scan"}, "is_disabled": 0, "fusion_lat": 0.0, "name": "de43c03014e58b8e333e9da5376a4cf8", "fusion_lon": 0.0}, {"is_reserved": 0, "type": "electric_scooter", "bike_id": "2b9d581149b66a3652fe546cabf09ee3", "lat": 38.915643833333334, "lon": -77.021315, "rental_uris": {"android": "https://dc.lft.to/lastmile_qr_scan", "ios": "https://dc.lft.to/lastmile_qr_scan"}, "is_disabled": 0, "fusion_lat": 0.0, "name": "2b9d581149b66a3652fe546cabf09ee3", "fusion_lon": 0.0}, {"is_reserved": 0, "type": "electric_scooter", "bike_id": "ad27ba10612aa09bb3dba3a6da793e3e", "lat": 38.894247, "lon": -77.05595933333333, "rental_uris": {"android": "https://dc.lft.to/lastmile_qr_scan", "ios": "https://dc.lft.to/lastmile_qr_scan"}, "is_disabled": 0, "fusion_lat": 0.0, "name": "ad27ba10612aa09bb3dba3a6da793e3e", "fusion_lon": 0.0}, {"is_reserved": 0, "type": "electric_scooter", "bike_id": "1afb68f9f4e68ca2f4846130f0b9fc79", "lat": 38.9026555, "lon": -77.039719, "rental_uris": {"android": "https://dc.lft.to/lastmile_qr_scan", "ios": "https://dc.lft.to/lastmile_qr_scan"}, "is_disabled": 0, "fusion_lat": 0.0, "name": "1afb68f9f4e68ca2f4846130f0b9fc79", "fusion_lon": 0.0}, {"is_reserved": 0, "type": "electric_scooter", "bike_id": "3771d29e8ef738dbb64acb0ac52e8bf5", "lat": 38.895045333333336, "lon": -76.934761, "rental_uris": {"android": "https://dc.lft.to/lastmile_qr_scan", "ios": "https://dc.lft.to/lastmile_qr_scan"}, "is_disabled": 0, "fusion_lat": 0.0, "name": "3771d29e8ef738dbb64acb0ac52e8bf5", "fusion_lon": 0.0}, {"is_reserved": 0, "type": "electric_scooter", "bike_id": "aeaf72f036e8fd94985ee88d5774d962", "lat": 38.902775, "lon": -77.039773, "rental_uris": {"android": "https://dc.lft.to/lastmile_qr_scan", "ios": "https://dc.lft.to/lastmile_qr_scan"}, "is_disabled": 0, "fusion_lat": 0.0, "name": "aeaf72f036e8fd94985ee88d5774d962", "fusion_lon": 0.0}, {"is_reserved": 0, "type": "electric_scooter", "bike_id": "b5d8599b2cfe1b3f91c18a53d77c57ab", "lat": 38.894565166666666, "lon": -77.01897383333333, "rental_uris": {"android": "https://dc.lft.to/lastmile_qr_scan", "ios": "https://dc.lft.to/lastmile_qr_scan"}, "is_disabled": 0, "fusion_lat": 0.0, "name": "b5d8599b2cfe1b3f91c18a53d77c57ab", "fusion_lon": 0.0}, {"is_reserved": 0, "type": "electric_scooter", "bike_id": "b738aba3f94d82871f4e73cefa689f7c", "lat": 38.889374333333336, "lon": -76.99365866666666, "rental_uris": {"android": "https://dc.lft.to/lastmile_qr_scan", "ios": "https://dc.lft.to/lastmile_qr_scan"}, "is_disabled": 0, "fusion_lat": 0.0, "name": "b738aba3f94d82871f4e73cefa689f7c", "fusion_lon": 0.0}, {"is_reserved": 0, "type": "electric_scooter", "bike_id": "83bc3be012fa76b63bbc4a27ed779dff", "lat": 38.883631, "lon": -76.94155383333333, "rental_uris": {"android": "https://dc.lft.to/lastmile_qr_scan", "ios": "https://dc.lft.to/lastmile_qr_scan"}, "is_disabled": 0, "fusion_lat": 0.0, "name": "83bc3be012fa76b63bbc4a27ed779dff", "fusion_lon": 0.0}, {"is_reserved": 0, "type": "electric_scooter", "bike_id": "5e3318f2810b2646867daf0ab441c5d5", "lat": 38.893660833333335, "lon": -76.93595566666667, "rental_uris": {"android": "https://dc.lft.to/lastmile_qr_scan", "ios": "https://dc.lft.to/lastmile_qr_scan"}, "is_disabled": 0, "fusion_lat": 0.0, "name": "5e3318f2810b2646867daf0ab441c5d5", "fusion_lon": 0.0}, {"is_reserved": 0, "type": "electric_scooter", "bike_id": "738a8bc944f7a634e4aa4577bb963af2", "lat": 38.92220066666667, "lon": -77.0228965, "rental_uris": {"android": "https://dc.lft.to/lastmile_qr_scan", "ios": "https://dc.lft.to/lastmile_qr_scan"}, "is_disabled": 0, "fusion_lat": 0.0, "name": "738a8bc944f7a634e4aa4577bb963af2", "fusion_lon": 0.0}, {"is_reserved": 0, "type": "electric_scooter", "bike_id": "d3385415af981987afc442321aca38bc", "lat": 38.866976, "lon": -76.97908916666667, "rental_uris": {"android": "https://dc.lft.to/lastmile_qr_scan", "ios": "https://dc.lft.to/lastmile_qr_scan"}, "is_disabled": 0, "fusion_lat": 0.0, "name": "d3385415af981987afc442321aca38bc", "fusion_lon": 0.0}, {"is_reserved": 0, "type": "electric_bike", "bike_id": "cce0a6fde6708c607a1c0d6a9e601cdc", "lat": 38.930703666666666, "lon": -77.02175966666667, "rental_uris": {"android": "https://dc.lft.to/lastmile_qr_scan", "ios": "https://dc.lft.to/lastmile_qr_scan"}, "is_disabled": 0, "fusion_lat": 0.0, "name": "cce0a6fde6708c607a1c0d6a9e601cdc", "fusion_lon": 0.0}, {"is_reserved": 0, "type": "electric_scooter", "bike_id": "ec3d3b12f8ef597d7b90f78b94ac97dd", "lat": 38.903863, "lon": -77.04731383333333, "rental_uris": {"android": "https://dc.lft.to/lastmile_qr_scan", "ios": "https://dc.lft.to/lastmile_qr_scan"}, "is_disabled": 0, "fusion_lat": 0.0, "name": "ec3d3b12f8ef597d7b90f78b94ac97dd", "fusion_lon": 0.0}, {"is_reserved": 0, "type": "electric_scooter", "bike_id": "dc29c730a49348d4cf3a00e6ca9662b2", "lat": 38.8978415, "lon": -77.05007616666667, "rental_uris": {"android": "https://dc.lft.to/lastmile_qr_scan", "ios": "https://dc.lft.to/lastmile_qr_scan"}, "is_disabled": 0, "fusion_lat": 0.0, "name": "dc29c730a49348d4cf3a00e6ca9662b2", "fusion_lon": 0.0}, {"is_reserved": 0, "type": "electric_bike", "bike_id": "f87e5b0fe471cf71eda1ff203afb891b", "lat": 38.8038615, "lon": -76.98813333333334, "rental_uris": {"android": "https://dc.lft.to/lastmile_qr_scan", "ios": "https://dc.lft.to/lastmile_qr_scan"}, "is_disabled": 0, "fusion_lat": 0.0, "name": "f87e5b0fe471cf71eda1ff203afb891b", "fusion_lon": 0.0}, {"is_reserved": 0, "type": "electric_scooter", "bike_id": "05a4eb5a9fe4c54d7e5e176de9ac21d2", "lat": 38.903792, "lon": -77.032182, "rental_uris": {"android": "https://dc.lft.to/lastmile_qr_scan", "ios": "https://dc.lft.to/lastmile_qr_scan"}, "is_disabled": 0, "fusion_lat": 0.0, "name": "05a4eb5a9fe4c54d7e5e176de9ac21d2", "fusion_lon": 0.0}, {"is_reserved": 0, "type": "electric_scooter", "bike_id": "84248ffd76fadb088adcf916f0245131", "lat": 38.9464975, "lon": -77.064768, "rental_uris": {"android": "https://dc.lft.to/lastmile_qr_scan", "ios": "https://dc.lft.to/lastmile_qr_scan"}, "is_disabled": 0, "fusion_lat": 0.0, "name": "84248ffd76fadb088adcf916f0245131", "fusion_lon": 0.0}, {"is_reserved": 0, "type": "electric_scooter", "bike_id": "4eebe11f91ff2b8035f547a450296798", "lat": 38.961355166666664, "lon": -77.0847525, "rental_uris": {"android": "https://dc.lft.to/lastmile_qr_scan", "ios": "https://dc.lft.to/lastmile_qr_scan"}, "is_disabled": 0, "fusion_lat": 0.0, "name": "4eebe11f91ff2b8035f547a450296798", "fusion_lon": 0.0}, {"is_reserved": 0, "type": "electric_scooter", "bike_id": "f4c5211df4afd93361b5ffd4185e9b89", "lat": 38.91912633333333, "lon": -77.01345283333333, "rental_uris": {"android": "https://dc.lft.to/lastmile_qr_scan", "ios": "https://dc.lft.to/lastmile_qr_scan"}, "is_disabled": 0, "fusion_lat": 0.0, "name": "f4c5211df4afd93361b5ffd4185e9b89", "fusion_lon": 0.0}, {"is_reserved": 0, "type": "electric_scooter", "bike_id": "9d294ae986a346e3266c512089de710f", "lat": 38.9310335, "lon": -77.0247545, "rental_uris": {"android": "https://dc.lft.to/lastmile_qr_scan", "ios": "https://dc.lft.to/lastmile_qr_scan"}, "is_disabled": 0, "fusion_lat": 0.0, "name": "9d294ae986a346e3266c512089de710f", "fusion_lon": 0.0}, {"is_reserved": 0, "type": "electric_scooter", "bike_id": "75b1f4f164ccf48ce990b09728a418d2", "lat": 38.94510416666667, "lon": -77.03358633333333, "rental_uris": {"android": "https://dc.lft.to/lastmile_qr_scan", "ios": "https://dc.lft.to/lastmile_qr_scan"}, "is_disabled": 0, "fusion_lat": 0.0, "name": "75b1f4f164ccf48ce990b09728a418d2", "fusion_lon": 0.0}, {"is_reserved": 0, "type": "electric_scooter", "bike_id": "e0f2f8c0ca18dd345615ec89634e1110", "lat": 38.93061466666666, "lon": -77.03943916666667, "rental_uris": {"android": "https://dc.lft.to/lastmile_qr_scan", "ios": "https://dc.lft.to/lastmile_qr_scan"}, "is_disabled": 0, "fusion_lat": 0.0, "name": "e0f2f8c0ca18dd345615ec89634e1110", "fusion_lon": 0.0}, {"is_reserved": 0, "type": "electric_scooter", "bike_id": "7cf8a02c86fd12fc624f0600b7437aa5", "lat": 38.916295166666664, "lon": -77.03194233333333, "rental_uris": {"android": "https://dc.lft.to/lastmile_qr_scan", "ios": "https://dc.lft.to/lastmile_qr_scan"}, "is_disabled": 0, "fusion_lat": 0.0, "name": "7cf8a02c86fd12fc624f0600b7437aa5", "fusion_lon": 0.0}, {"is_reserved": 0, "type": "electric_scooter", "bike_id": "f36bac778f927813d11cf08721a5e613", "lat": 38.894760833333336, "lon": -77.021691, "rental_uris": {"android": "https://dc.lft.to/lastmile_qr_scan", "ios": "https://dc.lft.to/lastmile_qr_scan"}, "is_disabled": 0, "fusion_lat": 0.0, "name": "f36bac778f927813d11cf08721a5e613", "fusion_lon": 0.0}, {"is_reserved": 0, "type": "electric_scooter", "bike_id": "3edf720c6253a4c6b40c328baca02894", "lat": 38.887298, "lon": -77.02833283333334, "rental_uris": {"android": "https://dc.lft.to/lastmile_qr_scan", "ios": "https://dc.lft.to/lastmile_qr_scan"}, "is_disabled": 0, "fusion_lat": 0.0, "name": "3edf720c6253a4c6b40c328baca02894", "fusion_lon": 0.0}, {"is_reserved": 0, "type": "electric_scooter", "bike_id": "cb7dac01526de35fb3f8fcda311a0875", "lat": 38.90572566666667, "lon": -77.0058645, "rental_uris": {"android": "https://dc.lft.to/lastmile_qr_scan", "ios": "https://dc.lft.to/lastmile_qr_scan"}, "is_disabled": 0, "fusion_lat": 0.0, "name": "cb7dac01526de35fb3f8fcda311a0875", "fusion_lon": 0.0}, {"is_reserved": 0, "type": "electric_bike", "bike_id": "0ddea3713db51746d87f291338f5b2f6", "lat": 38.9203665, "lon": -76.97957216666667, "rental_uris": {"android": "https://dc.lft.to/lastmile_qr_scan", "ios": "https://dc.lft.to/lastmile_qr_scan"}, "is_disabled": 0, "fusion_lat": 0.0, "name": "0ddea3713db51746d87f291338f5b2f6", "fusion_lon": 0.0}, {"is_reserved": 0, "type": "electric_scooter", "bike_id": "82bfb7049cbc59d91121ac3c473ecf58", "lat": 38.934921, "lon": -77.03658666666666, "rental_uris": {"android": "https://dc.lft.to/lastmile_qr_scan", "ios": "https://dc.lft.to/lastmile_qr_scan"}, "is_disabled": 0, "fusion_lat": 0.0, "name": "82bfb7049cbc59d91121ac3c473ecf58", "fusion_lon": 0.0}, {"is_reserved": 0, "type": "electric_scooter", "bike_id": "d916c6fc12577c1cf73dad6ec47bc363", "lat": 38.90296766666667, "lon": -76.93418883333334, "rental_uris": {"android": "https://dc.lft.to/lastmile_qr_scan", "ios": "https://dc.lft.to/lastmile_qr_scan"}, "is_disabled": 0, "fusion_lat": 0.0, "name": "d916c6fc12577c1cf73dad6ec47bc363", "fusion_lon": 0.0}, {"is_reserved": 0, "type": "electric_scooter", "bike_id": "234aca1424c08f182e8250ef35784678", "lat": 38.93532716666667, "lon": -77.02351583333333, "rental_uris": {"android": "https://dc.lft.to/lastmile_qr_scan", "ios": "https://dc.lft.to/lastmile_qr_scan"}, "is_disabled": 0, "fusion_lat": 0.0, "name": "234aca1424c08f182e8250ef35784678", "fusion_lon": 0.0}, {"is_reserved": 0, "type": "electric_scooter", "bike_id": "f55a3c935c6d3e28c47eec1fc65bf0bd", "lat": 38.900692666666664, "lon": -76.92747016666667, "rental_uris": {"android": "https://dc.lft.to/lastmile_qr_scan", "ios": "https://dc.lft.to/lastmile_qr_scan"}, "is_disabled": 0, "fusion_lat": 0.0, "name": "f55a3c935c6d3e28c47eec1fc65bf0bd", "fusion_lon": 0.0}, {"is_reserved": 0, "type": "electric_scooter", "bike_id": "a85a323e6224a131116086dea166e084", "lat": 38.895642333333335, "lon": -77.03173516666666, "rental_uris": {"android": "https://dc.lft.to/lastmile_qr_scan", "ios": "https://dc.lft.to/lastmile_qr_scan"}, "is_disabled": 0, "fusion_lat": 0.0, "name": "a85a323e6224a131116086dea166e084", "fusion_lon": 0.0}, {"is_reserved": 0, "type": "electric_scooter", "bike_id": "84724cfb163b403e47925295815c0ce0", "lat": 38.929677833333336, "lon": -77.0234, "rental_uris": {"android": "https://dc.lft.to/lastmile_qr_scan", "ios": "https://dc.lft.to/lastmile_qr_scan"}, "is_disabled": 0, "fusion_lat": 0.0, "name": "84724cfb163b403e47925295815c0ce0", "fusion_lon": 0.0}, {"is_reserved": 0, "type": "electric_scooter", "bike_id": "ca093f972cd398f7626c2a249e6fbaf2", "lat": 38.919825333333335, "lon": -77.04064416666667, "rental_uris": {"android": "https://dc.lft.to/lastmile_qr_scan", "ios": "https://dc.lft.to/lastmile_qr_scan"}, "is_disabled": 0, "fusion_lat": 0.0, "name": "ca093f972cd398f7626c2a249e6fbaf2", "fusion_lon": 0.0}, {"is_reserved": 0, "type": "electric_scooter", "bike_id": "036021ef1edccd79cc4db26a9ad12308", "lat": 38.9256575, "lon": -76.97003316666667, "rental_uris": {"android": "https://dc.lft.to/lastmile_qr_scan", "ios": "https://dc.lft.to/lastmile_qr_scan"}, "is_disabled": 0, "fusion_lat": 0.0, "name": "036021ef1edccd79cc4db26a9ad12308", "fusion_lon": 0.0}, {"is_reserved": 0, "type": "electric_scooter", "bike_id": "4bc0d35bc54addeb312743d5f87899f6", "lat": 38.90272266666667, "lon": -77.00319933333333, "rental_uris": {"android": "https://dc.lft.to/lastmile_qr_scan", "ios": "https://dc.lft.to/lastmile_qr_scan"}, "is_disabled": 0, "fusion_lat": 0.0, "name": "4bc0d35bc54addeb312743d5f87899f6", "fusion_lon": 0.0}, {"is_reserved": 0, "type": "electric_scooter", "bike_id": "256af155a7dc94d45a9a8a0f6fc0891d", "lat": 38.94733316666667, "lon": -77.024604, "rental_uris": {"android": "https://dc.lft.to/lastmile_qr_scan", "ios": "https://dc.lft.to/lastmile_qr_scan"}, "is_disabled": 0, "fusion_lat": 0.0, "name": "256af155a7dc94d45a9a8a0f6fc0891d", "fusion_lon": 0.0}, {"is_reserved": 0, "type": "electric_scooter", "bike_id": "da7c38c75e9a708129f59daee5477b5d", "lat": 38.904397833333334, "lon": -77.02580433333334, "rental_uris": {"android": "https://dc.lft.to/lastmile_qr_scan", "ios": "https://dc.lft.to/lastmile_qr_scan"}, "is_disabled": 0, "fusion_lat": 0.0, "name": "da7c38c75e9a708129f59daee5477b5d", "fusion_lon": 0.0}, {"is_reserved": 0, "type": "electric_scooter", "bike_id": "57ee0ab48813531f9777948d6f1a02e1", "lat": 38.892331, "lon": -77.04997966666667, "rental_uris": {"android": "https://dc.lft.to/lastmile_qr_scan", "ios": "https://dc.lft.to/lastmile_qr_scan"}, "is_disabled": 0, "fusion_lat": 0.0, "name": "57ee0ab48813531f9777948d6f1a02e1", "fusion_lon": 0.0}, {"is_reserved": 0, "type": "electric_scooter", "bike_id": "456d437dbc7f40d73e1ee602a5ef6d7d", "lat": 38.892391833333335, "lon": -77.0489565, "rental_uris": {"android": "https://dc.lft.to/lastmile_qr_scan", "ios": "https://dc.lft.to/lastmile_qr_scan"}, "is_disabled": 0, "fusion_lat": 0.0, "name": "456d437dbc7f40d73e1ee602a5ef6d7d", "fusion_lon": 0.0}, {"is_reserved": 0, "type": "electric_scooter", "bike_id": "f76e82f6e9dd165e052fd0a73eb197ae", "lat": 38.936358166666665, "lon": -77.03660083333334, "rental_uris": {"android": "https://dc.lft.to/lastmile_qr_scan", "ios": "https://dc.lft.to/lastmile_qr_scan"}, "is_disabled": 0, "fusion_lat": 0.0, "name": "f76e82f6e9dd165e052fd0a73eb197ae", "fusion_lon": 0.0}, {"is_reserved": 0, "type": "electric_scooter", "bike_id": "3640d63834c92c8d3a45f524fea6e575", "lat": 38.88839333333333, "lon": -77.04906816666667, "rental_uris": {"android": "https://dc.lft.to/lastmile_qr_scan", "ios": "https://dc.lft.to/lastmile_qr_scan"}, "is_disabled": 0, "fusion_lat": 0.0, "name": "3640d63834c92c8d3a45f524fea6e575", "fusion_lon": 0.0}, {"is_reserved": 0, "type": "electric_scooter", "bike_id": "47ae4f63b5c5828e043b9184c5bb9503", "lat": 38.87341983333334, "lon": -76.99167916666667, "rental_uris": {"android": "https://dc.lft.to/lastmile_qr_scan", "ios": "https://dc.lft.to/lastmile_qr_scan"}, "is_disabled": 0, "fusion_lat": 0.0, "name": "47ae4f63b5c5828e043b9184c5bb9503", "fusion_lon": 0.0}, {"is_reserved": 0, "type": "electric_scooter", "bike_id": "c8d6ab1e29a0428ef406ecd16700bbd8", "lat": 38.87885133333333, "lon": -77.02282566666666, "rental_uris": {"android": "https://dc.lft.to/lastmile_qr_scan", "ios": "https://dc.lft.to/lastmile_qr_scan"}, "is_disabled": 0, "fusion_lat": 0.0, "name": "c8d6ab1e29a0428ef406ecd16700bbd8", "fusion_lon": 0.0}, {"is_reserved": 0, "type": "electric_scooter", "bike_id": "ad74aec20aeee5638d49805e427f209d", "lat": 38.89428783333334, "lon": -77.02094116666666, "rental_uris": {"android": "https://dc.lft.to/lastmile_qr_scan", "ios": "https://dc.lft.to/lastmile_qr_scan"}, "is_disabled": 0, "fusion_lat": 0.0, "name": "ad74aec20aeee5638d49805e427f209d", "fusion_lon": 0.0}, {"is_reserved": 0, "type": "electric_scooter", "bike_id": "f5c5b67bbc84c2ecf5e0a8651ec7ac06", "lat": 38.900814, "lon": -77.01324666666666, "rental_uris": {"android": "https://dc.lft.to/lastmile_qr_scan", "ios": "https://dc.lft.to/lastmile_qr_scan"}, "is_disabled": 0, "fusion_lat": 0.0, "name": "f5c5b67bbc84c2ecf5e0a8651ec7ac06", "fusion_lon": 0.0}, {"is_reserved": 0, "type": "electric_scooter", "bike_id": "e2d1eef9e137dcd65b6e821e417304b9", "lat": 38.91638716666667, "lon": -77.02101433333333, "rental_uris": {"android": "https://dc.lft.to/lastmile_qr_scan", "ios": "https://dc.lft.to/lastmile_qr_scan"}, "is_disabled": 0, "fusion_lat": 0.0, "name": "e2d1eef9e137dcd65b6e821e417304b9", "fusion_lon": 0.0}, {"is_reserved": 0, "type": "electric_bike", "bike_id": "56095dacd28671b85c1db561a559f8aa", "lat": 38.8875425, "lon": -77.08922266666667, "rental_uris": {"android": "https://dc.lft.to/lastmile_qr_scan", "ios": "https://dc.lft.to/lastmile_qr_scan"}, "is_disabled": 0, "fusion_lat": 0.0, "name": "56095dacd28671b85c1db561a559f8aa", "fusion_lon": 0.0}, {"is_reserved": 0, "type": "electric_scooter", "bike_id": "20452a99480bcc6f43bc68bca749755e", "lat": 38.9063515, "lon": -77.05134616666666, "rental_uris": {"android": "https://dc.lft.to/lastmile_qr_scan", "ios": "https://dc.lft.to/lastmile_qr_scan"}, "is_disabled": 0, "fusion_lat": 0.0, "name": "20452a99480bcc6f43bc68bca749755e", "fusion_lon": 0.0}, {"is_reserved": 0, "type": "electric_scooter", "bike_id": "d3e2832511e02b2c36988eb50df6164a", "lat": 38.92611433333333, "lon": -77.0569935, "rental_uris": {"android": "https://dc.lft.to/lastmile_qr_scan", "ios": "https://dc.lft.to/lastmile_qr_scan"}, "is_disabled": 0, "fusion_lat": 0.0, "name": "d3e2832511e02b2c36988eb50df6164a", "fusion_lon": 0.0}, {"is_reserved": 0, "type": "electric_scooter", "bike_id": "953a81070acc7bc26573f5a9950806e0", "lat": 38.92224216666666, "lon": -77.043328, "rental_uris": {"android": "https://dc.lft.to/lastmile_qr_scan", "ios": "https://dc.lft.to/lastmile_qr_scan"}, "is_disabled": 0, "fusion_lat": 0.0, "name": "953a81070acc7bc26573f5a9950806e0", "fusion_lon": 0.0}, {"is_reserved": 0, "type": "electric_scooter", "bike_id": "7da7a08da9110cbaa62f4c1fdee6e0e8", "lat": 38.9195835, "lon": -77.07872116666667, "rental_uris": {"android": "https://dc.lft.to/lastmile_qr_scan", "ios": "https://dc.lft.to/lastmile_qr_scan"}, "is_disabled": 0, "fusion_lat": 0.0, "name": "7da7a08da9110cbaa62f4c1fdee6e0e8", "fusion_lon": 0.0}, {"is_reserved": 0, "type": "electric_scooter", "bike_id": "54b05be55f6978868d329661b249bae9", "lat": 38.92603016666666, "lon": -77.0215555, "rental_uris": {"android": "https://dc.lft.to/lastmile_qr_scan", "ios": "https://dc.lft.to/lastmile_qr_scan"}, "is_disabled": 0, "fusion_lat": 0.0, "name": "54b05be55f6978868d329661b249bae9", "fusion_lon": 0.0}, {"is_reserved": 0, "type": "electric_scooter", "bike_id": "8b042c52bd5e934e95bb1f99e20d6be3", "lat": 38.926711833333336, "lon": -77.03029066666667, "rental_uris": {"android": "https://dc.lft.to/lastmile_qr_scan", "ios": "https://dc.lft.to/lastmile_qr_scan"}, "is_disabled": 0, "fusion_lat": 0.0, "name": "8b042c52bd5e934e95bb1f99e20d6be3", "fusion_lon": 0.0}, {"is_reserved": 0, "type": "electric_bike", "bike_id": "c156a4850cecd3409ad6ab1e72665be0", "lat": 38.80251233333333, "lon": -77.11449266666666, "rental_uris": {"android": "https://dc.lft.to/lastmile_qr_scan", "ios": "https://dc.lft.to/lastmile_qr_scan"}, "is_disabled": 0, "fusion_lat": 0.0, "name": "c156a4850cecd3409ad6ab1e72665be0", "fusion_lon": 0.0}, {"is_reserved": 0, "type": "electric_scooter", "bike_id": "5542a232e72d6910d824c0791f3de676", "lat": 38.89216283333333, "lon": -77.02628383333334, "rental_uris": {"android": "https://dc.lft.to/lastmile_qr_scan", "ios": "https://dc.lft.to/lastmile_qr_scan"}, "is_disabled": 0, "fusion_lat": 0.0, "name": "5542a232e72d6910d824c0791f3de676", "fusion_lon": 0.0}, {"is_reserved": 0, "type": "electric_scooter", "bike_id": "89ebe65b150d19c3d123b02fde455411", "lat": 38.92330666666667, "lon": -77.0088895, "rental_uris": {"android": "https://dc.lft.to/lastmile_qr_scan", "ios": "https://dc.lft.to/lastmile_qr_scan"}, "is_disabled": 0, "fusion_lat": 0.0, "name": "89ebe65b150d19c3d123b02fde455411", "fusion_lon": 0.0}, {"is_reserved": 0, "type": "electric_scooter", "bike_id": "d040b07d9c45fc0596add3dcffe7e130", "lat": 38.918481166666666, "lon": -77.0411465, "rental_uris": {"android": "https://dc.lft.to/lastmile_qr_scan", "ios": "https://dc.lft.to/lastmile_qr_scan"}, "is_disabled": 0, "fusion_lat": 0.0, "name": "d040b07d9c45fc0596add3dcffe7e130", "fusion_lon": 0.0}, {"is_reserved": 0, "type": "electric_scooter", "bike_id": "4e3a906344b3cee32607f973636b57b0", "lat": 38.9037275, "lon": -77.03206983333334, "rental_uris": {"android": "https://dc.lft.to/lastmile_qr_scan", "ios": "https://dc.lft.to/lastmile_qr_scan"}, "is_disabled": 0, "fusion_lat": 0.0, "name": "4e3a906344b3cee32607f973636b57b0", "fusion_lon": 0.0}, {"is_reserved": 0, "type": "electric_scooter", "bike_id": "b6cce13371687863c72da058cbffb257", "lat": 38.891918, "lon": -77.02176466666667, "rental_uris": {"android": "https://dc.lft.to/lastmile_qr_scan", "ios": "https://dc.lft.to/lastmile_qr_scan"}, "is_disabled": 0, "fusion_lat": 0.0, "name": "b6cce13371687863c72da058cbffb257", "fusion_lon": 0.0}, {"is_reserved": 0, "type": "electric_bike", "bike_id": "aa5f598df6235b69c805772c8ad22baa", "lat": 38.8938885, "lon": -76.8684375, "rental_uris": {"android": "https://dc.lft.to/lastmile_qr_scan", "ios": "https://dc.lft.to/lastmile_qr_scan"}, "is_disabled": 0, "fusion_lat": 0.0, "name": "aa5f598df6235b69c805772c8ad22baa", "fusion_lon": 0.0}, {"is_reserved": 0, "type": "electric_scooter", "bike_id": "e8e5a4cc3ef96224519b798654b8c759", "lat": 38.92374433333333, "lon": -77.01914366666666, "rental_uris": {"android": "https://dc.lft.to/lastmile_qr_scan", "ios": "https://dc.lft.to/lastmile_qr_scan"}, "is_disabled": 0, "fusion_lat": 0.0, "name": "e8e5a4cc3ef96224519b798654b8c759", "fusion_lon": 0.0}, {"is_reserved": 0, "type": "electric_scooter", "bike_id": "d5aebf2b64ba10da5d67900a3df03a46", "lat": 38.92249183333333, "lon": -77.03107866666667, "rental_uris": {"android": "https://dc.lft.to/lastmile_qr_scan", "ios": "https://dc.lft.to/lastmile_qr_scan"}, "is_disabled": 0, "fusion_lat": 0.0, "name": "d5aebf2b64ba10da5d67900a3df03a46", "fusion_lon": 0.0}, {"is_reserved": 0, "type": "electric_scooter", "bike_id": "ce81f54dd1c871a20328992f1e390d37", "lat": 38.9593655, "lon": -77.03123683333334, "rental_uris": {"android": "https://dc.lft.to/lastmile_qr_scan", "ios": "https://dc.lft.to/lastmile_qr_scan"}, "is_disabled": 0, "fusion_lat": 0.0, "name": "ce81f54dd1c871a20328992f1e390d37", "fusion_lon": 0.0}, {"is_reserved": 0, "type": "electric_scooter", "bike_id": "11e926602cc651e6afd7bf7bbb614894", "lat": 38.91552983333333, "lon": -77.03116366666667, "rental_uris": {"android": "https://dc.lft.to/lastmile_qr_scan", "ios": "https://dc.lft.to/lastmile_qr_scan"}, "is_disabled": 0, "fusion_lat": 0.0, "name": "11e926602cc651e6afd7bf7bbb614894", "fusion_lon": 0.0}, {"is_reserved": 0, "type": "electric_scooter", "bike_id": "d564fd6817f986276035e2bd0570c2db", "lat": 38.86525016666667, "lon": -76.969037, "rental_uris": {"android": "https://dc.lft.to/lastmile_qr_scan", "ios": "https://dc.lft.to/lastmile_qr_scan"}, "is_disabled": 0, "fusion_lat": 0.0, "name": "d564fd6817f986276035e2bd0570c2db", "fusion_lon": 0.0}, {"is_reserved": 0, "type": "electric_scooter", "bike_id": "42e3361c4599e001677a6a80e994b9a0", "lat": 38.8961355, "lon": -77.0441095, "rental_uris": {"android": "https://dc.lft.to/lastmile_qr_scan", "ios": "https://dc.lft.to/lastmile_qr_scan"}, "is_disabled": 0, "fusion_lat": 0.0, "name": "42e3361c4599e001677a6a80e994b9a0", "fusion_lon": 0.0}, {"is_reserved": 0, "type": "electric_scooter", "bike_id": "1aa386ef783ae01d2a3998ebc090a2fc", "lat": 38.918622666666664, "lon": -77.03666183333333, "rental_uris": {"android": "https://dc.lft.to/lastmile_qr_scan", "ios": "https://dc.lft.to/lastmile_qr_scan"}, "is_disabled": 0, "fusion_lat": 0.0, "name": "1aa386ef783ae01d2a3998ebc090a2fc", "fusion_lon": 0.0}, {"is_reserved": 0, "type": "electric_scooter", "bike_id": "0ae848c9c00e3e80e3e652c5f556012c", "lat": 38.894257833333334, "lon": -77.05599783333334, "rental_uris": {"android": "https://dc.lft.to/lastmile_qr_scan", "ios": "https://dc.lft.to/lastmile_qr_scan"}, "is_disabled": 0, "fusion_lat": 0.0, "name": "0ae848c9c00e3e80e3e652c5f556012c", "fusion_lon": 0.0}, {"is_reserved": 0, "type": "electric_bike", "bike_id": "80bf1fab1b25f3aa3e3b824839dcea7c", "lat": 38.802496166666664, "lon": -77.114441, "rental_uris": {"android": "https://dc.lft.to/lastmile_qr_scan", "ios": "https://dc.lft.to/lastmile_qr_scan"}, "is_disabled": 0, "fusion_lat": 0.0, "name": "80bf1fab1b25f3aa3e3b824839dcea7c", "fusion_lon": 0.0}, {"is_reserved": 0, "type": "electric_scooter", "bike_id": "ca231c17a62b13cb66bcda60bf25bba4", "lat": 38.925059833333336, "lon": -77.03881066666666, "rental_uris": {"android": "https://dc.lft.to/lastmile_qr_scan", "ios": "https://dc.lft.to/lastmile_qr_scan"}, "is_disabled": 0, "fusion_lat": 0.0, "name": "ca231c17a62b13cb66bcda60bf25bba4", "fusion_lon": 0.0}, {"is_reserved": 0, "type": "electric_scooter", "bike_id": "fa61b6256a960fe1678e99590ed52206", "lat": 38.93190533333333, "lon": -77.0283565, "rental_uris": {"android": "https://dc.lft.to/lastmile_qr_scan", "ios": "https://dc.lft.to/lastmile_qr_scan"}, "is_disabled": 0, "fusion_lat": 0.0, "name": "fa61b6256a960fe1678e99590ed52206", "fusion_lon": 0.0}, {"is_reserved": 0, "type": "electric_scooter", "bike_id": "736d999f8f268544bdd6fa9e2bc9a1b5", "lat": 38.92158883333333, "lon": -77.03381716666667, "rental_uris": {"android": "https://dc.lft.to/lastmile_qr_scan", "ios": "https://dc.lft.to/lastmile_qr_scan"}, "is_disabled": 0, "fusion_lat": 0.0, "name": "736d999f8f268544bdd6fa9e2bc9a1b5", "fusion_lon": 0.0}, {"is_reserved": 0, "type": "electric_scooter", "bike_id": "2fbf4ddb1ae533677b4c44f20b4326d9", "lat": 38.91414916666667, "lon": -77.018758, "rental_uris": {"android": "https://dc.lft.to/lastmile_qr_scan", "ios": "https://dc.lft.to/lastmile_qr_scan"}, "is_disabled": 0, "fusion_lat": 0.0, "name": "2fbf4ddb1ae533677b4c44f20b4326d9", "fusion_lon": 0.0}, {"is_reserved": 0, "type": "electric_scooter", "bike_id": "5c55db36e8b21d2a57438b7a48aec46b", "lat": 38.914096, "lon": -77.031728, "rental_uris": {"android": "https://dc.lft.to/lastmile_qr_scan", "ios": "https://dc.lft.to/lastmile_qr_scan"}, "is_disabled": 0, "fusion_lat": 0.0, "name": "5c55db36e8b21d2a57438b7a48aec46b", "fusion_lon": 0.0}, {"is_reserved": 0, "type": "electric_bike", "bike_id": "741e2e87459b88b2155b3e2a78585655", "lat": 38.96623566666667, "lon": -77.03437916666667, "rental_uris": {"android": "https://dc.lft.to/lastmile_qr_scan", "ios": "https://dc.lft.to/lastmile_qr_scan"}, "is_disabled": 0, "fusion_lat": 0.0, "name": "741e2e87459b88b2155b3e2a78585655", "fusion_lon": 0.0}, {"is_reserved": 0, "type": "electric_scooter", "bike_id": "09dbc613c7a8113e4a37ea5887550436", "lat": 38.883013, "lon": -76.94854916666667, "rental_uris": {"android": "https://dc.lft.to/lastmile_qr_scan", "ios": "https://dc.lft.to/lastmile_qr_scan"}, "is_disabled": 0, "fusion_lat": 0.0, "name": "09dbc613c7a8113e4a37ea5887550436", "fusion_lon": 0.0}, {"is_reserved": 0, "type": "electric_scooter", "bike_id": "1ea12cdbef6c1892ce40a42af35b20b0", "lat": 38.878513833333336, "lon": -77.00724716666667, "rental_uris": {"android": "https://dc.lft.to/lastmile_qr_scan", "ios": "https://dc.lft.to/lastmile_qr_scan"}, "is_disabled": 0, "fusion_lat": 0.0, "name": "1ea12cdbef6c1892ce40a42af35b20b0", "fusion_lon": 0.0}, {"is_reserved": 0, "type": "electric_scooter", "bike_id": "e2d2bf40405c9855b6e7ad4932828a84", "lat": 38.90078533333333, "lon": -77.04957433333334, "rental_uris": {"android": "https://dc.lft.to/lastmile_qr_scan", "ios": "https://dc.lft.to/lastmile_qr_scan"}, "is_disabled": 0, "fusion_lat": 0.0, "name": "e2d2bf40405c9855b6e7ad4932828a84", "fusion_lon": 0.0}, {"is_reserved": 0, "type": "electric_scooter", "bike_id": "aad61dd44955dd7c4917c6c9e58e7eed", "lat": 38.923038166666664, "lon": -77.03019316666666, "rental_uris": {"android": "https://dc.lft.to/lastmile_qr_scan", "ios": "https://dc.lft.to/lastmile_qr_scan"}, "is_disabled": 0, "fusion_lat": 0.0, "name": "aad61dd44955dd7c4917c6c9e58e7eed", "fusion_lon": 0.0}, {"is_reserved": 0, "type": "electric_scooter", "bike_id": "00b5e206dd1429dbcefbb7e6b8364754", "lat": 38.91873016666667, "lon": -77.044507, "rental_uris": {"android": "https://dc.lft.to/lastmile_qr_scan", "ios": "https://dc.lft.to/lastmile_qr_scan"}, "is_disabled": 0, "fusion_lat": 0.0, "name": "00b5e206dd1429dbcefbb7e6b8364754", "fusion_lon": 0.0}, {"is_reserved": 0, "type": "electric_scooter", "bike_id": "cbce53f0aa33262a409fa902e0ae685d", "lat": 38.92031816666667, "lon": -77.0177765, "rental_uris": {"android": "https://dc.lft.to/lastmile_qr_scan", "ios": "https://dc.lft.to/lastmile_qr_scan"}, "is_disabled": 0, "fusion_lat": 0.0, "name": "cbce53f0aa33262a409fa902e0ae685d", "fusion_lon": 0.0}, {"is_reserved": 0, "type": "electric_scooter", "bike_id": "c3f1a371befe351679af0617f3d21221", "lat": 38.91103833333333, "lon": -77.07345666666667, "rental_uris": {"android": "https://dc.lft.to/lastmile_qr_scan", "ios": "https://dc.lft.to/lastmile_qr_scan"}, "is_disabled": 0, "fusion_lat": 0.0, "name": "c3f1a371befe351679af0617f3d21221", "fusion_lon": 0.0}, {"is_reserved": 0, "type": "electric_scooter", "bike_id": "2d22bd95db74ddcd3e6e709cd6aa8f90", "lat": 38.922319333333334, "lon": -77.02331233333334, "rental_uris": {"android": "https://dc.lft.to/lastmile_qr_scan", "ios": "https://dc.lft.to/lastmile_qr_scan"}, "is_disabled": 0, "fusion_lat": 0.0, "name": "2d22bd95db74ddcd3e6e709cd6aa8f90", "fusion_lon": 0.0}, {"is_reserved": 0, "type": "electric_scooter", "bike_id": "45187f1fe42c0f86c49a8b837ecb9f36", "lat": 38.930108833333335, "lon": -77.02312283333333, "rental_uris": {"android": "https://dc.lft.to/lastmile_qr_scan", "ios": "https://dc.lft.to/lastmile_qr_scan"}, "is_disabled": 0, "fusion_lat": 0.0, "name": "45187f1fe42c0f86c49a8b837ecb9f36", "fusion_lon": 0.0}, {"is_reserved": 0, "type": "electric_bike", "bike_id": "f5b4060c7049b5750aeb7b395a181c69", "lat": 38.80732666666667, "lon": -76.99256683333333, "rental_uris": {"android": "https://dc.lft.to/lastmile_qr_scan", "ios": "https://dc.lft.to/lastmile_qr_scan"}, "is_disabled": 0, "fusion_lat": 0.0, "name": "f5b4060c7049b5750aeb7b395a181c69", "fusion_lon": 0.0}, {"is_reserved": 0, "type": "electric_scooter", "bike_id": "4a129abc4b2d891db3e376fe79243418", "lat": 38.913032666666666, "lon": -77.02693733333334, "rental_uris": {"android": "https://dc.lft.to/lastmile_qr_scan", "ios": "https://dc.lft.to/lastmile_qr_scan"}, "is_disabled": 0, "fusion_lat": 0.0, "name": "4a129abc4b2d891db3e376fe79243418", "fusion_lon": 0.0}, {"is_reserved": 0, "type": "electric_scooter", "bike_id": "23aa8aa3a3785bcbff12877d6a3967a4", "lat": 38.918862833333336, "lon": -77.02713116666666, "rental_uris": {"android": "https://dc.lft.to/lastmile_qr_scan", "ios": "https://dc.lft.to/lastmile_qr_scan"}, "is_disabled": 0, "fusion_lat": 0.0, "name": "23aa8aa3a3785bcbff12877d6a3967a4", "fusion_lon": 0.0}, {"is_reserved": 0, "type": "electric_scooter", "bike_id": "855907416bb6614f3eaa8d85bf1ff7f3", "lat": 38.912664666666664, "lon": -77.03149183333333, "rental_uris": {"android": "https://dc.lft.to/lastmile_qr_scan", "ios": "https://dc.lft.to/lastmile_qr_scan"}, "is_disabled": 0, "fusion_lat": 0.0, "name": "855907416bb6614f3eaa8d85bf1ff7f3", "fusion_lon": 0.0}, {"is_reserved": 0, "type": "electric_scooter", "bike_id": "fdedefd28215dcb88e4e30916d5fed92", "lat": 38.928950666666665, "lon": -77.02556833333334, "rental_uris": {"android": "https://dc.lft.to/lastmile_qr_scan", "ios": "https://dc.lft.to/lastmile_qr_scan"}, "is_disabled": 0, "fusion_lat": 0.0, "name": "fdedefd28215dcb88e4e30916d5fed92", "fusion_lon": 0.0}, {"is_reserved": 0, "type": "electric_bike", "bike_id": "feecc5f62099daa8fa8c1ecf14cc2cc1", "lat": 38.88837566666667, "lon": -76.95744533333334, "rental_uris": {"android": "https://dc.lft.to/lastmile_qr_scan", "ios": "https://dc.lft.to/lastmile_qr_scan"}, "is_disabled": 0, "fusion_lat": 0.0, "name": "feecc5f62099daa8fa8c1ecf14cc2cc1", "fusion_lon": 0.0}, {"is_reserved": 0, "type": "electric_scooter", "bike_id": "21302bd4b04a08cdbc146991edb2571c", "lat": 38.907955, "lon": -77.00192316666667, "rental_uris": {"android": "https://dc.lft.to/lastmile_qr_scan", "ios": "https://dc.lft.to/lastmile_qr_scan"}, "is_disabled": 0, "fusion_lat": 0.0, "name": "21302bd4b04a08cdbc146991edb2571c", "fusion_lon": 0.0}, {"is_reserved": 0, "type": "electric_scooter", "bike_id": "58c057f663f1fe7c8a394328bdd546a9", "lat": 38.9360875, "lon": -77.05877083333333, "rental_uris": {"android": "https://dc.lft.to/lastmile_qr_scan", "ios": "https://dc.lft.to/lastmile_qr_scan"}, "is_disabled": 0, "fusion_lat": 0.0, "name": "58c057f663f1fe7c8a394328bdd546a9", "fusion_lon": 0.0}, {"is_reserved": 0, "type": "electric_scooter", "bike_id": "bc2f29adf1738adf037b366366f10dbd", "lat": 38.9016795, "lon": -76.93022366666666, "rental_uris": {"android": "https://dc.lft.to/lastmile_qr_scan", "ios": "https://dc.lft.to/lastmile_qr_scan"}, "is_disabled": 0, "fusion_lat": 0.0, "name": "bc2f29adf1738adf037b366366f10dbd", "fusion_lon": 0.0}, {"is_reserved": 0, "type": "electric_bike", "bike_id": "aafba2ff3a0622d3c7f0bec423f3c603", "lat": 38.945399333333334, "lon": -77.34458516666666, "rental_uris": {"android": "https://dc.lft.to/lastmile_qr_scan", "ios": "https://dc.lft.to/lastmile_qr_scan"}, "is_disabled": 0, "fusion_lat": 0.0, "name": "aafba2ff3a0622d3c7f0bec423f3c603", "fusion_lon": 0.0}, {"is_reserved": 0, "type": "electric_scooter", "bike_id": "0bf51322c1812032a736863b2afd906e", "lat": 38.8999755, "lon": -76.9901055, "rental_uris": {"android": "https://dc.lft.to/lastmile_qr_scan", "ios": "https://dc.lft.to/lastmile_qr_scan"}, "is_disabled": 0, "fusion_lat": 0.0, "name": "0bf51322c1812032a736863b2afd906e", "fusion_lon": 0.0}, {"is_reserved": 0, "type": "electric_scooter", "bike_id": "653a5bac9eac3f38633a978906b206fa", "lat": 38.924546166666666, "lon": -77.0216125, "rental_uris": {"android": "https://dc.lft.to/lastmile_qr_scan", "ios": "https://dc.lft.to/lastmile_qr_scan"}, "is_disabled": 0, "fusion_lat": 0.0, "name": "653a5bac9eac3f38633a978906b206fa", "fusion_lon": 0.0}, {"is_reserved": 0, "type": "electric_scooter", "bike_id": "2828598bd31ff25212378a6da7ae5ee0", "lat": 38.925599, "lon": -77.0336625, "rental_uris": {"android": "https://dc.lft.to/lastmile_qr_scan", "ios": "https://dc.lft.to/lastmile_qr_scan"}, "is_disabled": 0, "fusion_lat": 0.0, "name": "2828598bd31ff25212378a6da7ae5ee0", "fusion_lon": 0.0}, {"is_reserved": 0, "type": "electric_scooter", "bike_id": "14b47fbd2d3f0e3af15622bd230c9eb3", "lat": 38.861164333333335, "lon": -76.9838335, "rental_uris": {"android": "https://dc.lft.to/lastmile_qr_scan", "ios": "https://dc.lft.to/lastmile_qr_scan"}, "is_disabled": 0, "fusion_lat": 0.0, "name": "14b47fbd2d3f0e3af15622bd230c9eb3", "fusion_lon": 0.0}, {"is_reserved": 0, "type": "electric_scooter", "bike_id": "4f5e5b3af3c2662a0bde6fe200afdf48", "lat": 38.92427583333333, "lon": -77.02257483333334, "rental_uris": {"android": "https://dc.lft.to/lastmile_qr_scan", "ios": "https://dc.lft.to/lastmile_qr_scan"}, "is_disabled": 0, "fusion_lat": 0.0, "name": "4f5e5b3af3c2662a0bde6fe200afdf48", "fusion_lon": 0.0}, {"is_reserved": 0, "type": "electric_scooter", "bike_id": "696f6edd86d8d0915097b4f5c411462c", "lat": 38.89249233333334, "lon": -77.03956216666667, "rental_uris": {"android": "https://dc.lft.to/lastmile_qr_scan", "ios": "https://dc.lft.to/lastmile_qr_scan"}, "is_disabled": 0, "fusion_lat": 0.0, "name": "696f6edd86d8d0915097b4f5c411462c", "fusion_lon": 0.0}, {"is_reserved": 0, "type": "electric_scooter", "bike_id": "7ae2a8e307e41879abc0790eb7a88b62", "lat": 38.911108, "lon": -77.048165, "rental_uris": {"android": "https://dc.lft.to/lastmile_qr_scan", "ios": "https://dc.lft.to/lastmile_qr_scan"}, "is_disabled": 0, "fusion_lat": 0.0, "name": "7ae2a8e307e41879abc0790eb7a88b62", "fusion_lon": 0.0}, {"is_reserved": 0, "type": "electric_scooter", "bike_id": "05dead9e66a8afab7746673289f38d01", "lat": 38.87546, "lon": -77.0054095, "rental_uris": {"android": "https://dc.lft.to/lastmile_qr_scan", "ios": "https://dc.lft.to/lastmile_qr_scan"}, "is_disabled": 0, "fusion_lat": 0.0, "name": "05dead9e66a8afab7746673289f38d01", "fusion_lon": 0.0}, {"is_reserved": 0, "type": "electric_scooter", "bike_id": "38bc992adf78c92b5f684bd435777a8a", "lat": 38.91938116666667, "lon": -77.0252365, "rental_uris": {"android": "https://dc.lft.to/lastmile_qr_scan", "ios": "https://dc.lft.to/lastmile_qr_scan"}, "is_disabled": 0, "fusion_lat": 0.0, "name": "38bc992adf78c92b5f684bd435777a8a", "fusion_lon": 0.0}, {"is_reserved": 0, "type": "electric_scooter", "bike_id": "73d491282857baa691be6b55ba514818", "lat": 38.88659783333333, "lon": -76.93674583333333, "rental_uris": {"android": "https://dc.lft.to/lastmile_qr_scan", "ios": "https://dc.lft.to/lastmile_qr_scan"}, "is_disabled": 0, "fusion_lat": 0.0, "name": "73d491282857baa691be6b55ba514818", "fusion_lon": 0.0}, {"is_reserved": 0, "type": "electric_bike", "bike_id": "a498ff0c5c6ae88088bbde9ecd4cb13f", "lat": 39.0843455, "lon": -76.95150383333333, "rental_uris": {"android": "https://dc.lft.to/lastmile_qr_scan", "ios": "https://dc.lft.to/lastmile_qr_scan"}, "is_disabled": 0, "fusion_lat": 0.0, "name": "a498ff0c5c6ae88088bbde9ecd4cb13f", "fusion_lon": 0.0}, {"is_reserved": 0, "type": "electric_bike", "bike_id": "c23d345852c992920fb8d5c3fa1d94b4", "lat": 38.835458333333335, "lon": -77.0074695, "rental_uris": {"android": "https://dc.lft.to/lastmile_qr_scan", "ios": "https://dc.lft.to/lastmile_qr_scan"}, "is_disabled": 0, "fusion_lat": 0.0, "name": "c23d345852c992920fb8d5c3fa1d94b4", "fusion_lon": 0.0}, {"is_reserved": 0, "type": "electric_scooter", "bike_id": "68e981904fa0e61b38305fbdd77e5d53", "lat": 38.90522633333333, "lon": -77.04025633333333, "rental_uris": {"android": "https://dc.lft.to/lastmile_qr_scan", "ios": "https://dc.lft.to/lastmile_qr_scan"}, "is_disabled": 0, "fusion_lat": 0.0, "name": "68e981904fa0e61b38305fbdd77e5d53", "fusion_lon": 0.0}, {"is_reserved": 0, "type": "electric_bike", "bike_id": "7d0fe806a373515126e300af231cec9d", "lat": 38.955555, "lon": -76.96906033333333, "rental_uris": {"android": "https://dc.lft.to/lastmile_qr_scan", "ios": "https://dc.lft.to/lastmile_qr_scan"}, "is_disabled": 0, "fusion_lat": 0.0, "name": "7d0fe806a373515126e300af231cec9d", "fusion_lon": 0.0}, {"is_reserved": 0, "type": "electric_scooter", "bike_id": "868414e6a3e92892f69b3fe20615eefc", "lat": 38.925649666666665, "lon": -76.97009566666667, "rental_uris": {"android": "https://dc.lft.to/lastmile_qr_scan", "ios": "https://dc.lft.to/lastmile_qr_scan"}, "is_disabled": 0, "fusion_lat": 0.0, "name": "868414e6a3e92892f69b3fe20615eefc", "fusion_lon": 0.0}, {"is_reserved": 0, "type": "electric_scooter", "bike_id": "2b25cf4221e530331bd6211c5f43f37e", "lat": 38.89853083333333, "lon": -76.927515, "rental_uris": {"android": "https://dc.lft.to/lastmile_qr_scan", "ios": "https://dc.lft.to/lastmile_qr_scan"}, "is_disabled": 0, "fusion_lat": 0.0, "name": "2b25cf4221e530331bd6211c5f43f37e", "fusion_lon": 0.0}, {"is_reserved": 0, "type": "electric_scooter", "bike_id": "2953dd2ae6781075134b0dda01a93cd5", "lat": 38.94443483333333, "lon": -77.02912733333334, "rental_uris": {"android": "https://dc.lft.to/lastmile_qr_scan", "ios": "https://dc.lft.to/lastmile_qr_scan"}, "is_disabled": 0, "fusion_lat": 0.0, "name": "2953dd2ae6781075134b0dda01a93cd5", "fusion_lon": 0.0}, {"is_reserved": 0, "type": "electric_scooter", "bike_id": "d4a8333b6bda75e46ca5747648b6a89e", "lat": 38.9121995, "lon": -77.02719583333334, "rental_uris": {"android": "https://dc.lft.to/lastmile_qr_scan", "ios": "https://dc.lft.to/lastmile_qr_scan"}, "is_disabled": 0, "fusion_lat": 0.0, "name": "d4a8333b6bda75e46ca5747648b6a89e", "fusion_lon": 0.0}, {"is_reserved": 0, "type": "electric_scooter", "bike_id": "965501a379d86ed4aa596c6bcd5adea5", "lat": 38.9066885, "lon": -76.980272, "rental_uris": {"android": "https://dc.lft.to/lastmile_qr_scan", "ios": "https://dc.lft.to/lastmile_qr_scan"}, "is_disabled": 0, "fusion_lat": 0.0, "name": "965501a379d86ed4aa596c6bcd5adea5", "fusion_lon": 0.0}, {"is_reserved": 0, "type": "electric_scooter", "bike_id": "097eefe0fb61eb9c586a2ea994b86f8b", "lat": 38.90724083333333, "lon": -77.025617, "rental_uris": {"android": "https://dc.lft.to/lastmile_qr_scan", "ios": "https://dc.lft.to/lastmile_qr_scan"}, "is_disabled": 0, "fusion_lat": 0.0, "name": "097eefe0fb61eb9c586a2ea994b86f8b", "fusion_lon": 0.0}, {"is_reserved": 0, "type": "electric_scooter", "bike_id": "ab5301b2a923d2b0f1bfcfe436b794b3", "lat": 38.8716025, "lon": -77.01352716666666, "rental_uris": {"android": "https://dc.lft.to/lastmile_qr_scan", "ios": "https://dc.lft.to/lastmile_qr_scan"}, "is_disabled": 0, "fusion_lat": 0.0, "name": "ab5301b2a923d2b0f1bfcfe436b794b3", "fusion_lon": 0.0}, {"is_reserved": 0, "type": "electric_bike", "bike_id": "9371bb1177bb348a568a1f6211d5647c", "lat": 38.92875083333333, "lon": -77.03361266666667, "rental_uris": {"android": "https://dc.lft.to/lastmile_qr_scan", "ios": "https://dc.lft.to/lastmile_qr_scan"}, "is_disabled": 0, "fusion_lat": 0.0, "name": "9371bb1177bb348a568a1f6211d5647c", "fusion_lon": 0.0}, {"is_reserved": 0, "type": "electric_scooter", "bike_id": "4a051b41ae994dc0349e4a06a26609a1", "lat": 38.918782666666665, "lon": -77.04484, "rental_uris": {"android": "https://dc.lft.to/lastmile_qr_scan", "ios": "https://dc.lft.to/lastmile_qr_scan"}, "is_disabled": 0, "fusion_lat": 0.0, "name": "4a051b41ae994dc0349e4a06a26609a1", "fusion_lon": 0.0}, {"is_reserved": 0, "type": "electric_scooter", "bike_id": "98440c70c5e3f8e9749644b5971a5980", "lat": 38.9369525, "lon": -77.0271495, "rental_uris": {"android": "https://dc.lft.to/lastmile_qr_scan", "ios": "https://dc.lft.to/lastmile_qr_scan"}, "is_disabled": 0, "fusion_lat": 0.0, "name": "98440c70c5e3f8e9749644b5971a5980", "fusion_lon": 0.0}, {"is_reserved": 0, "type": "electric_scooter", "bike_id": "249f5aa7e6fca95f639118aea1764692", "lat": 38.8877355, "lon": -76.93261016666666, "rental_uris": {"android": "https://dc.lft.to/lastmile_qr_scan", "ios": "https://dc.lft.to/lastmile_qr_scan"}, "is_disabled": 0, "fusion_lat": 0.0, "name": "249f5aa7e6fca95f639118aea1764692", "fusion_lon": 0.0}, {"is_reserved": 0, "type": "electric_scooter", "bike_id": "3cfe4e22bf2bec9a76071e12e878c1a3", "lat": 38.92029266666667, "lon": -76.98548433333333, "rental_uris": {"android": "https://dc.lft.to/lastmile_qr_scan", "ios": "https://dc.lft.to/lastmile_qr_scan"}, "is_disabled": 0, "fusion_lat": 0.0, "name": "3cfe4e22bf2bec9a76071e12e878c1a3", "fusion_lon": 0.0}, {"is_reserved": 0, "type": "electric_scooter", "bike_id": "ad5142627531243c2dcf16dc629c50f4", "lat": 38.87131183333333, "lon": -76.965685, "rental_uris": {"android": "https://dc.lft.to/lastmile_qr_scan", "ios": "https://dc.lft.to/lastmile_qr_scan"}, "is_disabled": 0, "fusion_lat": 0.0, "name": "ad5142627531243c2dcf16dc629c50f4", "fusion_lon": 0.0}, {"is_reserved": 0, "type": "electric_scooter", "bike_id": "4a0134552c7ea5957945f96e34a6ec09", "lat": 38.9164355, "lon": -77.01055866666667, "rental_uris": {"android": "https://dc.lft.to/lastmile_qr_scan", "ios": "https://dc.lft.to/lastmile_qr_scan"}, "is_disabled": 0, "fusion_lat": 0.0, "name": "4a0134552c7ea5957945f96e34a6ec09", "fusion_lon": 0.0}, {"is_reserved": 0, "type": "electric_bike", "bike_id": "640295e2d27baf7e2a14b075d77c7ec6", "lat": 38.96674683333333, "lon": -77.02304533333333, "rental_uris": {"android": "https://dc.lft.to/lastmile_qr_scan", "ios": "https://dc.lft.to/lastmile_qr_scan"}, "is_disabled": 0, "fusion_lat": 0.0, "name": "640295e2d27baf7e2a14b075d77c7ec6", "fusion_lon": 0.0}, {"is_reserved": 0, "type": "electric_bike", "bike_id": "e45c0f45500af1c3ff407977d0acfef4", "lat": 38.915707166666664, "lon": -77.0201995, "rental_uris": {"android": "https://dc.lft.to/lastmile_qr_scan", "ios": "https://dc.lft.to/lastmile_qr_scan"}, "is_disabled": 0, "fusion_lat": 0.0, "name": "e45c0f45500af1c3ff407977d0acfef4", "fusion_lon": 0.0}, {"is_reserved": 0, "type": "electric_scooter", "bike_id": "08b6ea3b6b4eca075d8bf3bc98d6ecd0", "lat": 38.899825666666665, "lon": -77.02204383333333, "rental_uris": {"android": "https://dc.lft.to/lastmile_qr_scan", "ios": "https://dc.lft.to/lastmile_qr_scan"}, "is_disabled": 0, "fusion_lat": 0.0, "name": "08b6ea3b6b4eca075d8bf3bc98d6ecd0", "fusion_lon": 0.0}, {"is_reserved": 0, "type": "electric_bike", "bike_id": "d7119e5fd8beb240b163fe207c9f799f", "lat": 38.867536, "lon": -76.94532933333333, "rental_uris": {"android": "https://dc.lft.to/lastmile_qr_scan", "ios": "https://dc.lft.to/lastmile_qr_scan"}, "is_disabled": 0, "fusion_lat": 0.0, "name": "d7119e5fd8beb240b163fe207c9f799f", "fusion_lon": 0.0}, {"is_reserved": 0, "type": "electric_scooter", "bike_id": "b4273f5f00f414fca152bcdf02086ebf", "lat": 38.902354, "lon": -77.05343383333333, "rental_uris": {"android": "https://dc.lft.to/lastmile_qr_scan", "ios": "https://dc.lft.to/lastmile_qr_scan"}, "is_disabled": 0, "fusion_lat": 0.0, "name": "b4273f5f00f414fca152bcdf02086ebf", "fusion_lon": 0.0}, {"is_reserved": 0, "type": "electric_scooter", "bike_id": "1afc3279f6c674b1faf7b983be396cd7", "lat": 38.92291816666667, "lon": -77.0339995, "rental_uris": {"android": "https://dc.lft.to/lastmile_qr_scan", "ios": "https://dc.lft.to/lastmile_qr_scan"}, "is_disabled": 0, "fusion_lat": 0.0, "name": "1afc3279f6c674b1faf7b983be396cd7", "fusion_lon": 0.0}, {"is_reserved": 0, "type": "electric_scooter", "bike_id": "9e02c020761b40557f561d66823ecb35", "lat": 38.923813833333334, "lon": -77.03054733333333, "rental_uris": {"android": "https://dc.lft.to/lastmile_qr_scan", "ios": "https://dc.lft.to/lastmile_qr_scan"}, "is_disabled": 0, "fusion_lat": 0.0, "name": "9e02c020761b40557f561d66823ecb35", "fusion_lon": 0.0}, {"is_reserved": 0, "type": "electric_scooter", "bike_id": "9ded0517a5075ba0a4e0001324674362", "lat": 38.923398166666665, "lon": -77.01899666666667, "rental_uris": {"android": "https://dc.lft.to/lastmile_qr_scan", "ios": "https://dc.lft.to/lastmile_qr_scan"}, "is_disabled": 0, "fusion_lat": 0.0, "name": "9ded0517a5075ba0a4e0001324674362", "fusion_lon": 0.0}, {"is_reserved": 0, "type": "electric_scooter", "bike_id": "006a6d746bc25536b5461f43b2f15568", "lat": 38.91436066666667, "lon": -76.98593283333334, "rental_uris": {"android": "https://dc.lft.to/lastmile_qr_scan", "ios": "https://dc.lft.to/lastmile_qr_scan"}, "is_disabled": 0, "fusion_lat": 0.0, "name": "006a6d746bc25536b5461f43b2f15568", "fusion_lon": 0.0}, {"is_reserved": 0, "type": "electric_scooter", "bike_id": "5561fc081ad5971d1e6aa20475684540", "lat": 38.91493116666667, "lon": -77.0384155, "rental_uris": {"android": "https://dc.lft.to/lastmile_qr_scan", "ios": "https://dc.lft.to/lastmile_qr_scan"}, "is_disabled": 0, "fusion_lat": 0.0, "name": "5561fc081ad5971d1e6aa20475684540", "fusion_lon": 0.0}, {"is_reserved": 0, "type": "electric_scooter", "bike_id": "1440054b3e835184030723a53a9994ff", "lat": 38.91682983333333, "lon": -77.029522, "rental_uris": {"android": "https://dc.lft.to/lastmile_qr_scan", "ios": "https://dc.lft.to/lastmile_qr_scan"}, "is_disabled": 0, "fusion_lat": 0.0, "name": "1440054b3e835184030723a53a9994ff", "fusion_lon": 0.0}, {"is_reserved": 0, "type": "electric_scooter", "bike_id": "ed9d0b48f43c42dc51d56e013fa5ae5c", "lat": 38.9179585, "lon": -77.0320225, "rental_uris": {"android": "https://dc.lft.to/lastmile_qr_scan", "ios": "https://dc.lft.to/lastmile_qr_scan"}, "is_disabled": 0, "fusion_lat": 0.0, "name": "ed9d0b48f43c42dc51d56e013fa5ae5c", "fusion_lon": 0.0}, {"is_reserved": 0, "type": "electric_scooter", "bike_id": "3499f5a36bf982a6c88c0cea4ece7a50", "lat": 38.92221833333333, "lon": -77.04334083333333, "rental_uris": {"android": "https://dc.lft.to/lastmile_qr_scan", "ios": "https://dc.lft.to/lastmile_qr_scan"}, "is_disabled": 0, "fusion_lat": 0.0, "name": "3499f5a36bf982a6c88c0cea4ece7a50", "fusion_lon": 0.0}, {"is_reserved": 0, "type": "electric_scooter", "bike_id": "b3bd878a56c0be267975e92435badd1c", "lat": 38.96403183333334, "lon": -77.027678, "rental_uris": {"android": "https://dc.lft.to/lastmile_qr_scan", "ios": "https://dc.lft.to/lastmile_qr_scan"}, "is_disabled": 0, "fusion_lat": 0.0, "name": "b3bd878a56c0be267975e92435badd1c", "fusion_lon": 0.0}, {"is_reserved": 0, "type": "electric_scooter", "bike_id": "22069332c42788fe3b6b33d1928136d5", "lat": 38.89236783333333, "lon": -77.04876383333334, "rental_uris": {"android": "https://dc.lft.to/lastmile_qr_scan", "ios": "https://dc.lft.to/lastmile_qr_scan"}, "is_disabled": 0, "fusion_lat": 0.0, "name": "22069332c42788fe3b6b33d1928136d5", "fusion_lon": 0.0}, {"is_reserved": 0, "type": "electric_scooter", "bike_id": "8e68670a66ab29407e80cb1178f00e62", "lat": 38.898288666666666, "lon": -76.9465145, "rental_uris": {"android": "https://dc.lft.to/lastmile_qr_scan", "ios": "https://dc.lft.to/lastmile_qr_scan"}, "is_disabled": 0, "fusion_lat": 0.0, "name": "8e68670a66ab29407e80cb1178f00e62", "fusion_lon": 0.0}, {"is_reserved": 0, "type": "electric_scooter", "bike_id": "75ec8c73bc331e7025ed77457a2d7c66", "lat": 38.9242315, "lon": -77.01949066666667, "rental_uris": {"android": "https://dc.lft.to/lastmile_qr_scan", "ios": "https://dc.lft.to/lastmile_qr_scan"}, "is_disabled": 0, "fusion_lat": 0.0, "name": "75ec8c73bc331e7025ed77457a2d7c66", "fusion_lon": 0.0}, {"is_reserved": 0, "type": "electric_bike", "bike_id": "d06ae2e31e127badce842a1bb64fddef", "lat": 38.999334833333336, "lon": -77.05136516666667, "rental_uris": {"android": "https://dc.lft.to/lastmile_qr_scan", "ios": "https://dc.lft.to/lastmile_qr_scan"}, "is_disabled": 0, "fusion_lat": 0.0, "name": "d06ae2e31e127badce842a1bb64fddef", "fusion_lon": 0.0}, {"is_reserved": 0, "type": "electric_bike", "bike_id": "dbdbcddc7cfc608ef3082eed5314dc1b", "lat": 38.965022166666664, "lon": -77.10335916666666, "rental_uris": {"android": "https://dc.lft.to/lastmile_qr_scan", "ios": "https://dc.lft.to/lastmile_qr_scan"}, "is_disabled": 0, "fusion_lat": 0.0, "name": "dbdbcddc7cfc608ef3082eed5314dc1b", "fusion_lon": 0.0}, {"is_reserved": 0, "type": "electric_scooter", "bike_id": "e2242027fe6ed7c64e9a83caad7b3511", "lat": 38.90265633333333, "lon": -77.01773016666667, "rental_uris": {"android": "https://dc.lft.to/lastmile_qr_scan", "ios": "https://dc.lft.to/lastmile_qr_scan"}, "is_disabled": 0, "fusion_lat": 0.0, "name": "e2242027fe6ed7c64e9a83caad7b3511", "fusion_lon": 0.0}, {"is_reserved": 0, "type": "electric_scooter", "bike_id": "971e67779099085461c3edb988f90819", "lat": 38.90645283333333, "lon": -77.01139566666667, "rental_uris": {"android": "https://dc.lft.to/lastmile_qr_scan", "ios": "https://dc.lft.to/lastmile_qr_scan"}, "is_disabled": 0, "fusion_lat": 0.0, "name": "971e67779099085461c3edb988f90819", "fusion_lon": 0.0}, {"is_reserved": 0, "type": "electric_scooter", "bike_id": "9e2064715af2e2b66198ca5f592abbc2", "lat": 38.90595866666666, "lon": -76.95054516666667, "rental_uris": {"android": "https://dc.lft.to/lastmile_qr_scan", "ios": "https://dc.lft.to/lastmile_qr_scan"}, "is_disabled": 0, "fusion_lat": 0.0, "name": "9e2064715af2e2b66198ca5f592abbc2", "fusion_lon": 0.0}, {"is_reserved": 0, "type": "electric_scooter", "bike_id": "aefb6e6bd18ee5a38ac8e5ae2a5fe975", "lat": 38.914115333333335, "lon": -77.026085, "rental_uris": {"android": "https://dc.lft.to/lastmile_qr_scan", "ios": "https://dc.lft.to/lastmile_qr_scan"}, "is_disabled": 0, "fusion_lat": 0.0, "name": "aefb6e6bd18ee5a38ac8e5ae2a5fe975", "fusion_lon": 0.0}, {"is_reserved": 0, "type": "electric_scooter", "bike_id": "67a536c884126038245516cbd694ef42", "lat": 38.94439066666666, "lon": -77.06351516666666, "rental_uris": {"android": "https://dc.lft.to/lastmile_qr_scan", "ios": "https://dc.lft.to/lastmile_qr_scan"}, "is_disabled": 0, "fusion_lat": 0.0, "name": "67a536c884126038245516cbd694ef42", "fusion_lon": 0.0}, {"is_reserved": 0, "type": "electric_bike", "bike_id": "48132132766f523c9845ca31fcfa1e37", "lat": 38.89456933333334, "lon": -77.19135983333334, "rental_uris": {"android": "https://dc.lft.to/lastmile_qr_scan", "ios": "https://dc.lft.to/lastmile_qr_scan"}, "is_disabled": 0, "fusion_lat": 0.0, "name": "48132132766f523c9845ca31fcfa1e37", "fusion_lon": 0.0}, {"is_reserved": 0, "type": "electric_scooter", "bike_id": "fc8898c8674c648ce2ada809caa300c4", "lat": 38.903855666666665, "lon": -77.04457233333333, "rental_uris": {"android": "https://dc.lft.to/lastmile_qr_scan", "ios": "https://dc.lft.to/lastmile_qr_scan"}, "is_disabled": 0, "fusion_lat": 0.0, "name": "fc8898c8674c648ce2ada809caa300c4", "fusion_lon": 0.0}, {"is_reserved": 0, "type": "electric_scooter", "bike_id": "929e29f604da20032a3f3d1234ea734b", "lat": 38.932350666666665, "lon": -77.02958433333333, "rental_uris": {"android": "https://dc.lft.to/lastmile_qr_scan", "ios": "https://dc.lft.to/lastmile_qr_scan"}, "is_disabled": 0, "fusion_lat": 0.0, "name": "929e29f604da20032a3f3d1234ea734b", "fusion_lon": 0.0}, {"is_reserved": 0, "type": "electric_scooter", "bike_id": "4b26c5a56f1a661fd7e112572f4e0662", "lat": 38.896709333333334, "lon": -76.94732416666666, "rental_uris": {"android": "https://dc.lft.to/lastmile_qr_scan", "ios": "https://dc.lft.to/lastmile_qr_scan"}, "is_disabled": 0, "fusion_lat": 0.0, "name": "4b26c5a56f1a661fd7e112572f4e0662", "fusion_lon": 0.0}, {"is_reserved": 0, "type": "electric_scooter", "bike_id": "2fae3b5b0fa3d42d84693703b0ef71a8", "lat": 38.883912, "lon": -76.9303945, "rental_uris": {"android": "https://dc.lft.to/lastmile_qr_scan", "ios": "https://dc.lft.to/lastmile_qr_scan"}, "is_disabled": 0, "fusion_lat": 0.0, "name": "2fae3b5b0fa3d42d84693703b0ef71a8", "fusion_lon": 0.0}, {"is_reserved": 0, "type": "electric_scooter", "bike_id": "1715f0878f1fe8abf7e28f69f2b49ccf", "lat": 38.923208333333335, "lon": -77.036792, "rental_uris": {"android": "https://dc.lft.to/lastmile_qr_scan", "ios": "https://dc.lft.to/lastmile_qr_scan"}, "is_disabled": 0, "fusion_lat": 0.0, "name": "1715f0878f1fe8abf7e28f69f2b49ccf", "fusion_lon": 0.0}, {"is_reserved": 0, "type": "electric_scooter", "bike_id": "ad0d8cf6649bc1fad0ca65a2d19cf7e9", "lat": 38.9363815, "lon": -77.064832, "rental_uris": {"android": "https://dc.lft.to/lastmile_qr_scan", "ios": "https://dc.lft.to/lastmile_qr_scan"}, "is_disabled": 0, "fusion_lat": 0.0, "name": "ad0d8cf6649bc1fad0ca65a2d19cf7e9", "fusion_lon": 0.0}, {"is_reserved": 0, "type": "electric_scooter", "bike_id": "25b64e780c66ec4b2142bd582d57c0c2", "lat": 38.898332333333336, "lon": -77.0482445, "rental_uris": {"android": "https://dc.lft.to/lastmile_qr_scan", "ios": "https://dc.lft.to/lastmile_qr_scan"}, "is_disabled": 0, "fusion_lat": 0.0, "name": "25b64e780c66ec4b2142bd582d57c0c2", "fusion_lon": 0.0}, {"is_reserved": 0, "type": "electric_scooter", "bike_id": "2cf94d65bca4ebe7df2e565ada2e2fb2", "lat": 38.92016733333333, "lon": -77.031231, "rental_uris": {"android": "https://dc.lft.to/lastmile_qr_scan", "ios": "https://dc.lft.to/lastmile_qr_scan"}, "is_disabled": 0, "fusion_lat": 0.0, "name": "2cf94d65bca4ebe7df2e565ada2e2fb2", "fusion_lon": 0.0}, {"is_reserved": 0, "type": "electric_scooter", "bike_id": "0355770b1889b7b8ca125bfefba721a1", "lat": 38.8960805, "lon": -77.00525983333333, "rental_uris": {"android": "https://dc.lft.to/lastmile_qr_scan", "ios": "https://dc.lft.to/lastmile_qr_scan"}, "is_disabled": 0, "fusion_lat": 0.0, "name": "0355770b1889b7b8ca125bfefba721a1", "fusion_lon": 0.0}, {"is_reserved": 0, "type": "electric_scooter", "bike_id": "4a6a5482da4ed067b60edeca72a7edaf", "lat": 38.916352, "lon": -77.03963666666667, "rental_uris": {"android": "https://dc.lft.to/lastmile_qr_scan", "ios": "https://dc.lft.to/lastmile_qr_scan"}, "is_disabled": 0, "fusion_lat": 0.0, "name": "4a6a5482da4ed067b60edeca72a7edaf", "fusion_lon": 0.0}, {"is_reserved": 0, "type": "electric_scooter", "bike_id": "c336791d507f256e3abb320cd95ab8d9", "lat": 38.930392166666664, "lon": -77.0831605, "rental_uris": {"android": "https://dc.lft.to/lastmile_qr_scan", "ios": "https://dc.lft.to/lastmile_qr_scan"}, "is_disabled": 0, "fusion_lat": 0.0, "name": "c336791d507f256e3abb320cd95ab8d9", "fusion_lon": 0.0}, {"is_reserved": 0, "type": "electric_scooter", "bike_id": "16adc3909be322f68178dacaed247d7e", "lat": 38.9749915, "lon": -77.01695983333333, "rental_uris": {"android": "https://dc.lft.to/lastmile_qr_scan", "ios": "https://dc.lft.to/lastmile_qr_scan"}, "is_disabled": 0, "fusion_lat": 0.0, "name": "16adc3909be322f68178dacaed247d7e", "fusion_lon": 0.0}, {"is_reserved": 0, "type": "electric_scooter", "bike_id": "b400954fdd51cc9872725e40a8427904", "lat": 38.91561733333333, "lon": -77.0366935, "rental_uris": {"android": "https://dc.lft.to/lastmile_qr_scan", "ios": "https://dc.lft.to/lastmile_qr_scan"}, "is_disabled": 0, "fusion_lat": 0.0, "name": "b400954fdd51cc9872725e40a8427904", "fusion_lon": 0.0}, {"is_reserved": 0, "type": "electric_scooter", "bike_id": "4010cfd38a1e0f2d25a543b5482b9185", "lat": 38.91263883333333, "lon": -77.01882483333333, "rental_uris": {"android": "https://dc.lft.to/lastmile_qr_scan", "ios": "https://dc.lft.to/lastmile_qr_scan"}, "is_disabled": 0, "fusion_lat": 0.0, "name": "4010cfd38a1e0f2d25a543b5482b9185", "fusion_lon": 0.0}, {"is_reserved": 0, "type": "electric_bike", "bike_id": "f4b009ddf7b98c68a7faf4d43b99145b", "lat": 38.896147, "lon": -76.907344, "rental_uris": {"android": "https://dc.lft.to/lastmile_qr_scan", "ios": "https://dc.lft.to/lastmile_qr_scan"}, "is_disabled": 0, "fusion_lat": 0.0, "name": "f4b009ddf7b98c68a7faf4d43b99145b", "fusion_lon": 0.0}, {"is_reserved": 0, "type": "electric_scooter", "bike_id": "939a78a2788a9596e6e700fdf1f0409c", "lat": 38.908658833333334, "lon": -77.00211633333333, "rental_uris": {"android": "https://dc.lft.to/lastmile_qr_scan", "ios": "https://dc.lft.to/lastmile_qr_scan"}, "is_disabled": 0, "fusion_lat": 0.0, "name": "939a78a2788a9596e6e700fdf1f0409c", "fusion_lon": 0.0}, {"is_reserved": 0, "type": "electric_scooter", "bike_id": "cd7404e2302cfed36067c84aa51cf7e9", "lat": 38.923724166666666, "lon": -77.03055916666666, "rental_uris": {"android": "https://dc.lft.to/lastmile_qr_scan", "ios": "https://dc.lft.to/lastmile_qr_scan"}, "is_disabled": 0, "fusion_lat": 0.0, "name": "cd7404e2302cfed36067c84aa51cf7e9", "fusion_lon": 0.0}, {"is_reserved": 0, "type": "electric_scooter", "bike_id": "7765a6663b0cd792ea9206679b3dd2c5", "lat": 38.92520733333333, "lon": -77.02960016666667, "rental_uris": {"android": "https://dc.lft.to/lastmile_qr_scan", "ios": "https://dc.lft.to/lastmile_qr_scan"}, "is_disabled": 0, "fusion_lat": 0.0, "name": "7765a6663b0cd792ea9206679b3dd2c5", "fusion_lon": 0.0}, {"is_reserved": 0, "type": "electric_scooter", "bike_id": "083a889eeb82c3c88d27051ee4240df3", "lat": 38.888754666666664, "lon": -76.9903155, "rental_uris": {"android": "https://dc.lft.to/lastmile_qr_scan", "ios": "https://dc.lft.to/lastmile_qr_scan"}, "is_disabled": 0, "fusion_lat": 0.0, "name": "083a889eeb82c3c88d27051ee4240df3", "fusion_lon": 0.0}, {"is_reserved": 0, "type": "electric_scooter", "bike_id": "3eabf4934dcf12ecaf446bc1cd6e2450", "lat": 38.8935495, "lon": -77.01745583333333, "rental_uris": {"android": "https://dc.lft.to/lastmile_qr_scan", "ios": "https://dc.lft.to/lastmile_qr_scan"}, "is_disabled": 0, "fusion_lat": 0.0, "name": "3eabf4934dcf12ecaf446bc1cd6e2450", "fusion_lon": 0.0}, {"is_reserved": 0, "type": "electric_scooter", "bike_id": "12c595114a5348b48afc8d3871442e76", "lat": 38.9038015, "lon": -77.032103, "rental_uris": {"android": "https://dc.lft.to/lastmile_qr_scan", "ios": "https://dc.lft.to/lastmile_qr_scan"}, "is_disabled": 0, "fusion_lat": 0.0, "name": "12c595114a5348b48afc8d3871442e76", "fusion_lon": 0.0}, {"is_reserved": 0, "type": "electric_scooter", "bike_id": "2933651f3d8eee021ea262ca1eb8df67", "lat": 38.912502, "lon": -77.02717933333334, "rental_uris": {"android": "https://dc.lft.to/lastmile_qr_scan", "ios": "https://dc.lft.to/lastmile_qr_scan"}, "is_disabled": 0, "fusion_lat": 0.0, "name": "2933651f3d8eee021ea262ca1eb8df67", "fusion_lon": 0.0}, {"is_reserved": 0, "type": "electric_bike", "bike_id": "b74530c8442952abac9db635cd337383", "lat": 38.93585266666667, "lon": -77.02747316666667, "rental_uris": {"android": "https://dc.lft.to/lastmile_qr_scan", "ios": "https://dc.lft.to/lastmile_qr_scan"}, "is_disabled": 0, "fusion_lat": 0.0, "name": "b74530c8442952abac9db635cd337383", "fusion_lon": 0.0}, {"is_reserved": 0, "type": "electric_scooter", "bike_id": "8874633c83eb3e2af007c16ce6d786a7", "lat": 38.89424416666667, "lon": -77.05594566666667, "rental_uris": {"android": "https://dc.lft.to/lastmile_qr_scan", "ios": "https://dc.lft.to/lastmile_qr_scan"}, "is_disabled": 0, "fusion_lat": 0.0, "name": "8874633c83eb3e2af007c16ce6d786a7", "fusion_lon": 0.0}, {"is_reserved": 0, "type": "electric_scooter", "bike_id": "f6c67cb2d0df8324f5d88aadb7306288", "lat": 38.864904, "lon": -76.9775125, "rental_uris": {"android": "https://dc.lft.to/lastmile_qr_scan", "ios": "https://dc.lft.to/lastmile_qr_scan"}, "is_disabled": 0, "fusion_lat": 0.0, "name": "f6c67cb2d0df8324f5d88aadb7306288", "fusion_lon": 0.0}, {"is_reserved": 0, "type": "electric_scooter", "bike_id": "5f43e95e755849ad7ff420c4e6de5e6d", "lat": 38.894818666666666, "lon": -76.995778, "rental_uris": {"android": "https://dc.lft.to/lastmile_qr_scan", "ios": "https://dc.lft.to/lastmile_qr_scan"}, "is_disabled": 0, "fusion_lat": 0.0, "name": "5f43e95e755849ad7ff420c4e6de5e6d", "fusion_lon": 0.0}, {"is_reserved": 0, "type": "electric_scooter", "bike_id": "6bee8ce26a8d3e8d5d19a6f0dad90a46", "lat": 38.88786483333333, "lon": -76.97712333333334, "rental_uris": {"android": "https://dc.lft.to/lastmile_qr_scan", "ios": "https://dc.lft.to/lastmile_qr_scan"}, "is_disabled": 0, "fusion_lat": 0.0, "name": "6bee8ce26a8d3e8d5d19a6f0dad90a46", "fusion_lon": 0.0}, {"is_reserved": 0, "type": "electric_scooter", "bike_id": "66ab9c6be86e25a86355e953d911666f", "lat": 38.918681666666664, "lon": -77.04592716666667, "rental_uris": {"android": "https://dc.lft.to/lastmile_qr_scan", "ios": "https://dc.lft.to/lastmile_qr_scan"}, "is_disabled": 0, "fusion_lat": 0.0, "name": "66ab9c6be86e25a86355e953d911666f", "fusion_lon": 0.0}, {"is_reserved": 0, "type": "electric_bike", "bike_id": "f69383e00e86101c5bc345105c69c5cf", "lat": 38.8821185, "lon": -77.111616, "rental_uris": {"android": "https://dc.lft.to/lastmile_qr_scan", "ios": "https://dc.lft.to/lastmile_qr_scan"}, "is_disabled": 0, "fusion_lat": 0.0, "name": "f69383e00e86101c5bc345105c69c5cf", "fusion_lon": 0.0}, {"is_reserved": 0, "type": "electric_scooter", "bike_id": "cbaa1cff5ae362848c3f3246edabb119", "lat": 38.8873065, "lon": -77.022077, "rental_uris": {"android": "https://dc.lft.to/lastmile_qr_scan", "ios": "https://dc.lft.to/lastmile_qr_scan"}, "is_disabled": 0, "fusion_lat": 0.0, "name": "cbaa1cff5ae362848c3f3246edabb119", "fusion_lon": 0.0}, {"is_reserved": 0, "type": "electric_scooter", "bike_id": "b3e37d07e45100ae61e69ec6e78f512c", "lat": 38.9215045, "lon": -77.03870583333334, "rental_uris": {"android": "https://dc.lft.to/lastmile_qr_scan", "ios": "https://dc.lft.to/lastmile_qr_scan"}, "is_disabled": 0, "fusion_lat": 0.0, "name": "b3e37d07e45100ae61e69ec6e78f512c", "fusion_lon": 0.0}, {"is_reserved": 0, "type": "electric_scooter", "bike_id": "edd682315e7b22b81d5c8e168bf1a0e0", "lat": 38.9242465, "lon": -77.05760766666667, "rental_uris": {"android": "https://dc.lft.to/lastmile_qr_scan", "ios": "https://dc.lft.to/lastmile_qr_scan"}, "is_disabled": 0, "fusion_lat": 0.0, "name": "edd682315e7b22b81d5c8e168bf1a0e0", "fusion_lon": 0.0}, {"is_reserved": 0, "type": "electric_scooter", "bike_id": "327ec7208a31bfb731c26085d0bde389", "lat": 38.908387, "lon": -76.99974816666666, "rental_uris": {"android": "https://dc.lft.to/lastmile_qr_scan", "ios": "https://dc.lft.to/lastmile_qr_scan"}, "is_disabled": 0, "fusion_lat": 0.0, "name": "327ec7208a31bfb731c26085d0bde389", "fusion_lon": 0.0}, {"is_reserved": 0, "type": "electric_scooter", "bike_id": "cbc381205f5caaf2f788cbf0d43936d7", "lat": 38.9015585, "lon": -77.05108833333334, "rental_uris": {"android": "https://dc.lft.to/lastmile_qr_scan", "ios": "https://dc.lft.to/lastmile_qr_scan"}, "is_disabled": 0, "fusion_lat": 0.0, "name": "cbc381205f5caaf2f788cbf0d43936d7", "fusion_lon": 0.0}, {"is_reserved": 0, "type": "electric_scooter", "bike_id": "4fb46ed70cc65b3e64ddaedd6c1f11fe", "lat": 38.90594766666667, "lon": -77.01613916666666, "rental_uris": {"android": "https://dc.lft.to/lastmile_qr_scan", "ios": "https://dc.lft.to/lastmile_qr_scan"}, "is_disabled": 0, "fusion_lat": 0.0, "name": "4fb46ed70cc65b3e64ddaedd6c1f11fe", "fusion_lon": 0.0}, {"is_reserved": 0, "type": "electric_scooter", "bike_id": "60c6934a4b94b656ae934b55b4c14305", "lat": 38.873003, "lon": -77.0155355, "rental_uris": {"android": "https://dc.lft.to/lastmile_qr_scan", "ios": "https://dc.lft.to/lastmile_qr_scan"}, "is_disabled": 0, "fusion_lat": 0.0, "name": "60c6934a4b94b656ae934b55b4c14305", "fusion_lon": 0.0}, {"is_reserved": 0, "type": "electric_scooter", "bike_id": "a0527fc9925fda3559e8f6f6b01f3a20", "lat": 38.93660666666667, "lon": -77.03686266666666, "rental_uris": {"android": "https://dc.lft.to/lastmile_qr_scan", "ios": "https://dc.lft.to/lastmile_qr_scan"}, "is_disabled": 0, "fusion_lat": 0.0, "name": "a0527fc9925fda3559e8f6f6b01f3a20", "fusion_lon": 0.0}, {"is_reserved": 0, "type": "electric_scooter", "bike_id": "7a5ab7d1c33127ef7538d417575ed52c", "lat": 38.92519683333333, "lon": -77.050598, "rental_uris": {"android": "https://dc.lft.to/lastmile_qr_scan", "ios": "https://dc.lft.to/lastmile_qr_scan"}, "is_disabled": 0, "fusion_lat": 0.0, "name": "7a5ab7d1c33127ef7538d417575ed52c", "fusion_lon": 0.0}, {"is_reserved": 0, "type": "electric_scooter", "bike_id": "4ce71be1dfb98a5b678f2c6c06a4f69b", "lat": 38.9174285, "lon": -77.03186, "rental_uris": {"android": "https://dc.lft.to/lastmile_qr_scan", "ios": "https://dc.lft.to/lastmile_qr_scan"}, "is_disabled": 0, "fusion_lat": 0.0, "name": "4ce71be1dfb98a5b678f2c6c06a4f69b", "fusion_lon": 0.0}, {"is_reserved": 0, "type": "electric_scooter", "bike_id": "138a37b08dd1387d11c8cadcd09c3ea5", "lat": 38.8935495, "lon": -77.003343, "rental_uris": {"android": "https://dc.lft.to/lastmile_qr_scan", "ios": "https://dc.lft.to/lastmile_qr_scan"}, "is_disabled": 0, "fusion_lat": 0.0, "name": "138a37b08dd1387d11c8cadcd09c3ea5", "fusion_lon": 0.0}, {"is_reserved": 0, "type": "electric_bike", "bike_id": "8b72884fd90f8a65ca7014e475b8889c", "lat": 38.85437266666667, "lon": -77.083192, "rental_uris": {"android": "https://dc.lft.to/lastmile_qr_scan", "ios": "https://dc.lft.to/lastmile_qr_scan"}, "is_disabled": 0, "fusion_lat": 0.0, "name": "8b72884fd90f8a65ca7014e475b8889c", "fusion_lon": 0.0}, {"is_reserved": 0, "type": "electric_scooter", "bike_id": "5606c45b389250d0ee6815351b878836", "lat": 38.90905633333333, "lon": -77.002835, "rental_uris": {"android": "https://dc.lft.to/lastmile_qr_scan", "ios": "https://dc.lft.to/lastmile_qr_scan"}, "is_disabled": 0, "fusion_lat": 0.0, "name": "5606c45b389250d0ee6815351b878836", "fusion_lon": 0.0}, {"is_reserved": 0, "type": "electric_scooter", "bike_id": "a4a44772a01a3e087c78e3d8296344c2", "lat": 38.91025333333333, "lon": -77.04305116666667, "rental_uris": {"android": "https://dc.lft.to/lastmile_qr_scan", "ios": "https://dc.lft.to/lastmile_qr_scan"}, "is_disabled": 0, "fusion_lat": 0.0, "name": "a4a44772a01a3e087c78e3d8296344c2", "fusion_lon": 0.0}, {"is_reserved": 0, "type": "electric_scooter", "bike_id": "39dccec665888de433e985a713634170", "lat": 38.93617116666667, "lon": -77.0241195, "rental_uris": {"android": "https://dc.lft.to/lastmile_qr_scan", "ios": "https://dc.lft.to/lastmile_qr_scan"}, "is_disabled": 0, "fusion_lat": 0.0, "name": "39dccec665888de433e985a713634170", "fusion_lon": 0.0}, {"is_reserved": 0, "type": "electric_scooter", "bike_id": "d0d65f9ce87d77debc424d8f168a8834", "lat": 38.918199333333334, "lon": -77.03446766666667, "rental_uris": {"android": "https://dc.lft.to/lastmile_qr_scan", "ios": "https://dc.lft.to/lastmile_qr_scan"}, "is_disabled": 0, "fusion_lat": 0.0, "name": "d0d65f9ce87d77debc424d8f168a8834", "fusion_lon": 0.0}, {"is_reserved": 0, "type": "electric_scooter", "bike_id": "b93f97a803b7d879d862dab272fca7f7", "lat": 38.89922816666667, "lon": -77.03376833333333, "rental_uris": {"android": "https://dc.lft.to/lastmile_qr_scan", "ios": "https://dc.lft.to/lastmile_qr_scan"}, "is_disabled": 0, "fusion_lat": 0.0, "name": "b93f97a803b7d879d862dab272fca7f7", "fusion_lon": 0.0}, {"is_reserved": 0, "type": "electric_scooter", "bike_id": "dfd79f49b012098dd2ec9b9f23712c48", "lat": 38.866341, "lon": -76.98287283333333, "rental_uris": {"android": "https://dc.lft.to/lastmile_qr_scan", "ios": "https://dc.lft.to/lastmile_qr_scan"}, "is_disabled": 0, "fusion_lat": 0.0, "name": "dfd79f49b012098dd2ec9b9f23712c48", "fusion_lon": 0.0}, {"is_reserved": 0, "type": "electric_bike", "bike_id": "c892ee6a68a02281dcc74266d9c338f6", "lat": 38.86998483333333, "lon": -77.22990516666667, "rental_uris": {"android": "https://dc.lft.to/lastmile_qr_scan", "ios": "https://dc.lft.to/lastmile_qr_scan"}, "is_disabled": 0, "fusion_lat": 0.0, "name": "c892ee6a68a02281dcc74266d9c338f6", "fusion_lon": 0.0}, {"is_reserved": 0, "type": "electric_scooter", "bike_id": "78bcd03d0b3ec2c922cbc400e181aea6", "lat": 38.8863305, "lon": -77.02225616666666, "rental_uris": {"android": "https://dc.lft.to/lastmile_qr_scan", "ios": "https://dc.lft.to/lastmile_qr_scan"}, "is_disabled": 0, "fusion_lat": 0.0, "name": "78bcd03d0b3ec2c922cbc400e181aea6", "fusion_lon": 0.0}, {"is_reserved": 0, "type": "electric_scooter", "bike_id": "71bfc91c09e4b57e6a2c48936b4d2231", "lat": 38.894659833333336, "lon": -77.02279583333333, "rental_uris": {"android": "https://dc.lft.to/lastmile_qr_scan", "ios": "https://dc.lft.to/lastmile_qr_scan"}, "is_disabled": 0, "fusion_lat": 0.0, "name": "71bfc91c09e4b57e6a2c48936b4d2231", "fusion_lon": 0.0}, {"is_reserved": 0, "type": "electric_scooter", "bike_id": "78b051a3cf0f6ae6478672aea04f20c1", "lat": 38.947149333333336, "lon": -77.041547, "rental_uris": {"android": "https://dc.lft.to/lastmile_qr_scan", "ios": "https://dc.lft.to/lastmile_qr_scan"}, "is_disabled": 0, "fusion_lat": 0.0, "name": "78b051a3cf0f6ae6478672aea04f20c1", "fusion_lon": 0.0}, {"is_reserved": 0, "type": "electric_scooter", "bike_id": "27dfb3c2a305643dbe48ab90837719a8", "lat": 38.885314666666666, "lon": -76.98119933333334, "rental_uris": {"android": "https://dc.lft.to/lastmile_qr_scan", "ios": "https://dc.lft.to/lastmile_qr_scan"}, "is_disabled": 0, "fusion_lat": 0.0, "name": "27dfb3c2a305643dbe48ab90837719a8", "fusion_lon": 0.0}, {"is_reserved": 0, "type": "electric_scooter", "bike_id": "bbc4f2bec70991dd05e48930952bfe49", "lat": 38.905603166666666, "lon": -77.01722883333333, "rental_uris": {"android": "https://dc.lft.to/lastmile_qr_scan", "ios": "https://dc.lft.to/lastmile_qr_scan"}, "is_disabled": 0, "fusion_lat": 0.0, "name": "bbc4f2bec70991dd05e48930952bfe49", "fusion_lon": 0.0}, {"is_reserved": 0, "type": "electric_scooter", "bike_id": "ae63bbfe8bedb09bdf2b6c3bacdc45f3", "lat": 38.8988095, "lon": -76.988341, "rental_uris": {"android": "https://dc.lft.to/lastmile_qr_scan", "ios": "https://dc.lft.to/lastmile_qr_scan"}, "is_disabled": 0, "fusion_lat": 0.0, "name": "ae63bbfe8bedb09bdf2b6c3bacdc45f3", "fusion_lon": 0.0}, {"is_reserved": 0, "type": "electric_scooter", "bike_id": "92867e05be2c90edfbcd00f2faec39c9", "lat": 38.927462166666665, "lon": -77.02252716666666, "rental_uris": {"android": "https://dc.lft.to/lastmile_qr_scan", "ios": "https://dc.lft.to/lastmile_qr_scan"}, "is_disabled": 0, "fusion_lat": 0.0, "name": "92867e05be2c90edfbcd00f2faec39c9", "fusion_lon": 0.0}, {"is_reserved": 0, "type": "electric_scooter", "bike_id": "3047ae066da896a6c84a9dd40986c971", "lat": 38.88364383333333, "lon": -77.02605666666666, "rental_uris": {"android": "https://dc.lft.to/lastmile_qr_scan", "ios": "https://dc.lft.to/lastmile_qr_scan"}, "is_disabled": 0, "fusion_lat": 0.0, "name": "3047ae066da896a6c84a9dd40986c971", "fusion_lon": 0.0}, {"is_reserved": 0, "type": "electric_scooter", "bike_id": "640c361632ac9e36f20407a4f14cfd2e", "lat": 38.934977333333336, "lon": -77.04456466666667, "rental_uris": {"android": "https://dc.lft.to/lastmile_qr_scan", "ios": "https://dc.lft.to/lastmile_qr_scan"}, "is_disabled": 0, "fusion_lat": 0.0, "name": "640c361632ac9e36f20407a4f14cfd2e", "fusion_lon": 0.0}, {"is_reserved": 0, "type": "electric_scooter", "bike_id": "4ec58bb9f5e3b23a3a67357b5d48240b", "lat": 38.92645483333333, "lon": -77.02506816666667, "rental_uris": {"android": "https://dc.lft.to/lastmile_qr_scan", "ios": "https://dc.lft.to/lastmile_qr_scan"}, "is_disabled": 0, "fusion_lat": 0.0, "name": "4ec58bb9f5e3b23a3a67357b5d48240b", "fusion_lon": 0.0}, {"is_reserved": 0, "type": "electric_scooter", "bike_id": "9edeef2f51ac9efd1afb37bc50ccc9d3", "lat": 38.897766833333336, "lon": -76.9926745, "rental_uris": {"android": "https://dc.lft.to/lastmile_qr_scan", "ios": "https://dc.lft.to/lastmile_qr_scan"}, "is_disabled": 0, "fusion_lat": 0.0, "name": "9edeef2f51ac9efd1afb37bc50ccc9d3", "fusion_lon": 0.0}, {"is_reserved": 0, "type": "electric_scooter", "bike_id": "236c7474d70807b22f3f64bdb66de76b", "lat": 38.9137995, "lon": -77.0459895, "rental_uris": {"android": "https://dc.lft.to/lastmile_qr_scan", "ios": "https://dc.lft.to/lastmile_qr_scan"}, "is_disabled": 0, "fusion_lat": 0.0, "name": "236c7474d70807b22f3f64bdb66de76b", "fusion_lon": 0.0}, {"is_reserved": 0, "type": "electric_scooter", "bike_id": "49ca4e8a55b90b0e5dc1137a7c4e9c86", "lat": 38.862625, "lon": -76.981927, "rental_uris": {"android": "https://dc.lft.to/lastmile_qr_scan", "ios": "https://dc.lft.to/lastmile_qr_scan"}, "is_disabled": 0, "fusion_lat": 0.0, "name": "49ca4e8a55b90b0e5dc1137a7c4e9c86", "fusion_lon": 0.0}, {"is_reserved": 0, "type": "electric_scooter", "bike_id": "116aecb567d50114ac301b1730061b06", "lat": 38.925576666666664, "lon": -77.05317, "rental_uris": {"android": "https://dc.lft.to/lastmile_qr_scan", "ios": "https://dc.lft.to/lastmile_qr_scan"}, "is_disabled": 0, "fusion_lat": 0.0, "name": "116aecb567d50114ac301b1730061b06", "fusion_lon": 0.0}, {"is_reserved": 0, "type": "electric_scooter", "bike_id": "c3f98d4717a7ae40545185084c32d6e3", "lat": 38.898873333333334, "lon": -76.93176183333334, "rental_uris": {"android": "https://dc.lft.to/lastmile_qr_scan", "ios": "https://dc.lft.to/lastmile_qr_scan"}, "is_disabled": 0, "fusion_lat": 0.0, "name": "c3f98d4717a7ae40545185084c32d6e3", "fusion_lon": 0.0}, {"is_reserved": 0, "type": "electric_bike", "bike_id": "47fea6efe6d20f76f52a8e4ffcc9532f", "lat": 38.981361166666666, "lon": -77.00769883333334, "rental_uris": {"android": "https://dc.lft.to/lastmile_qr_scan", "ios": "https://dc.lft.to/lastmile_qr_scan"}, "is_disabled": 0, "fusion_lat": 0.0, "name": "47fea6efe6d20f76f52a8e4ffcc9532f", "fusion_lon": 0.0}, {"is_reserved": 0, "type": "electric_scooter", "bike_id": "1c00ecdbe2c8944b4a646d2dd390161e", "lat": 38.989899333333334, "lon": -77.03362, "rental_uris": {"android": "https://dc.lft.to/lastmile_qr_scan", "ios": "https://dc.lft.to/lastmile_qr_scan"}, "is_disabled": 0, "fusion_lat": 0.0, "name": "1c00ecdbe2c8944b4a646d2dd390161e", "fusion_lon": 0.0}, {"is_reserved": 0, "type": "electric_scooter", "bike_id": "c79a086378002b5fc1cd822daba358fd", "lat": 38.90633866666667, "lon": -77.02499416666667, "rental_uris": {"android": "https://dc.lft.to/lastmile_qr_scan", "ios": "https://dc.lft.to/lastmile_qr_scan"}, "is_disabled": 0, "fusion_lat": 0.0, "name": "c79a086378002b5fc1cd822daba358fd", "fusion_lon": 0.0}, {"is_reserved": 0, "type": "electric_scooter", "bike_id": "c90294e2b0d8431be8b16db287cc3fe5", "lat": 38.886090333333335, "lon": -77.00343616666666, "rental_uris": {"android": "https://dc.lft.to/lastmile_qr_scan", "ios": "https://dc.lft.to/lastmile_qr_scan"}, "is_disabled": 0, "fusion_lat": 0.0, "name": "c90294e2b0d8431be8b16db287cc3fe5", "fusion_lon": 0.0}, {"is_reserved": 0, "type": "electric_scooter", "bike_id": "e9865b8c0b95905880f8ed75f0f5e1f0", "lat": 38.8990955, "lon": -76.93368966666667, "rental_uris": {"android": "https://dc.lft.to/lastmile_qr_scan", "ios": "https://dc.lft.to/lastmile_qr_scan"}, "is_disabled": 0, "fusion_lat": 0.0, "name": "e9865b8c0b95905880f8ed75f0f5e1f0", "fusion_lon": 0.0}, {"is_reserved": 0, "type": "electric_scooter", "bike_id": "28835dd401b900a34f9536060ae82906", "lat": 38.90256933333333, "lon": -77.031472, "rental_uris": {"android": "https://dc.lft.to/lastmile_qr_scan", "ios": "https://dc.lft.to/lastmile_qr_scan"}, "is_disabled": 0, "fusion_lat": 0.0, "name": "28835dd401b900a34f9536060ae82906", "fusion_lon": 0.0}, {"is_reserved": 0, "type": "electric_scooter", "bike_id": "52c825b76b946cde4f4511ada9f1a6c4", "lat": 38.89344716666667, "lon": -76.99382066666666, "rental_uris": {"android": "https://dc.lft.to/lastmile_qr_scan", "ios": "https://dc.lft.to/lastmile_qr_scan"}, "is_disabled": 0, "fusion_lat": 0.0, "name": "52c825b76b946cde4f4511ada9f1a6c4", "fusion_lon": 0.0}, {"is_reserved": 0, "type": "electric_scooter", "bike_id": "c6076f575d30972f68d6bd18f89c9121", "lat": 38.9188025, "lon": -77.02713783333333, "rental_uris": {"android": "https://dc.lft.to/lastmile_qr_scan", "ios": "https://dc.lft.to/lastmile_qr_scan"}, "is_disabled": 0, "fusion_lat": 0.0, "name": "c6076f575d30972f68d6bd18f89c9121", "fusion_lon": 0.0}, {"is_reserved": 0, "type": "electric_scooter", "bike_id": "ef6bd1db54ac5c59117f7327ec73e810", "lat": 38.910987166666665, "lon": -76.98480316666667, "rental_uris": {"android": "https://dc.lft.to/lastmile_qr_scan", "ios": "https://dc.lft.to/lastmile_qr_scan"}, "is_disabled": 0, "fusion_lat": 0.0, "name": "ef6bd1db54ac5c59117f7327ec73e810", "fusion_lon": 0.0}, {"is_reserved": 0, "type": "electric_scooter", "bike_id": "3ebbc209f0af4691a907b0e72572f3ce", "lat": 38.921648166666664, "lon": -77.04118766666667, "rental_uris": {"android": "https://dc.lft.to/lastmile_qr_scan", "ios": "https://dc.lft.to/lastmile_qr_scan"}, "is_disabled": 0, "fusion_lat": 0.0, "name": "3ebbc209f0af4691a907b0e72572f3ce", "fusion_lon": 0.0}, {"is_reserved": 0, "type": "electric_scooter", "bike_id": "1fae8af9845ab63f17e6c00f8e74b035", "lat": 38.8873225, "lon": -77.02615116666666, "rental_uris": {"android": "https://dc.lft.to/lastmile_qr_scan", "ios": "https://dc.lft.to/lastmile_qr_scan"}, "is_disabled": 0, "fusion_lat": 0.0, "name": "1fae8af9845ab63f17e6c00f8e74b035", "fusion_lon": 0.0}, {"is_reserved": 0, "type": "electric_scooter", "bike_id": "c7a1ca2a9734af63b3ee623adf9c072c", "lat": 38.900029833333335, "lon": -77.02935316666667, "rental_uris": {"android": "https://dc.lft.to/lastmile_qr_scan", "ios": "https://dc.lft.to/lastmile_qr_scan"}, "is_disabled": 0, "fusion_lat": 0.0, "name": "c7a1ca2a9734af63b3ee623adf9c072c", "fusion_lon": 0.0}, {"is_reserved": 0, "type": "electric_scooter", "bike_id": "01051ea0edb757d9c4b2aef9a4afd9e7", "lat": 38.923250833333334, "lon": -77.02969633333333, "rental_uris": {"android": "https://dc.lft.to/lastmile_qr_scan", "ios": "https://dc.lft.to/lastmile_qr_scan"}, "is_disabled": 0, "fusion_lat": 0.0, "name": "01051ea0edb757d9c4b2aef9a4afd9e7", "fusion_lon": 0.0},