{"data": {"bikes": [{"fusion_lat": 0.0, "name": "bf80ce99e534c1cb0e2410855d9ac41d", "is_disabled": 0, "rental_uris": {"android": "https://dc.lft.to/lastmile_qr_scan", "ios": "https://dc.lft.to/lastmile_qr_scan"}, "fusion_lon": 0.0, "lat": 38.92463683333333, "bike_id": "bf80ce99e534c1cb0e2410855d9ac41d", "type": "electric_scooter", "is_reserved": 0, "lon": -77.037917}, {"fusion_lat": 0.0, "name": "7203b4c96d110cca6c955ee8491e296b", "is_disabled": 0, "rental_uris": {"android": "https://dc.lft.to/lastmile_qr_scan", "ios": "https://dc.lft.to/lastmile_qr_scan"}, "fusion_lon": 0.0, "lat": 38.87679333333333, "bike_id": "7203b4c96d110cca6c955ee8491e296b", "type": "electric_bike", "is_reserved": 0, "lon": -77.0144185}, {"fusion_lat": 0.0, "name": "c2e94099845786fcf7636cb725f963de", "is_disabled": 0, "rental_uris": {"android": "https://dc.lft.to/lastmile_qr_scan", "ios": "https://dc.lft.to/lastmile_qr_scan"}, "fusion_lon": 0.0, "lat": 38.920448666666665, "bike_id": "c2e94099845786fcf7636cb725f963de", "type": "electric_scooter", "is_reserved": 0, "lon": -77.02415416666666}, {"fusion_lat": 0.0, "name": "434d13268af75cc2072729737fe5da99", "is_disabled": 0, "rental_uris": {"android": "https://dc.lft.to/lastmile_qr_scan", "ios": "https://dc.lft.to/lastmile_qr_scan"}, "fusion_lon": 0.0, "lat": 38.912089, "bike_id": "434d13268af75cc2072729737fe5da99", "type": "electric_scooter", "is_reserved": 0, "lon": -77.02187616666667}, {"fusion_lat": 0.0, "name": "c8b74cd5fa09399fe5de3157bc1bd62f", "is_disabled": 0, "rental_uris": {"android": "https://dc.lft.to/lastmile_qr_scan", "ios": "https://dc.lft.to/lastmile_qr_scan"}, "fusion_lon": 0.0, "lat": 38.9662225, "bike_id": "c8b74cd5fa09399fe5de3157bc1bd62f", "type": "electric_bike", "is_reserved": 0, "lon": -77.034235}, {"fusion_lat": 0.0, "name": "13afdb1a4bb3ab636c1e6c4244836836", "is_disabled": 0, "rental_uris": {"android": "https://dc.lft.to/lastmile_qr_scan", "ios": "https://dc.lft.to/lastmile_qr_scan"}, "fusion_lon": 0.0, "lat": 38.880369333333334, "bike_id": "13afdb1a4bb3ab636c1e6c4244836836", "type": "electric_scooter", "is_reserved": 0, "lon": -77.01329033333333}, {"fusion_lat": 0.0, "name": "570801ca8e66fa43a800ffa50058b737", "is_disabled": 0, "rental_uris": {"android": "https://dc.lft.to/lastmile_qr_scan", "ios": "https://dc.lft.to/lastmile_qr_scan"}, "fusion_lon": 0.0, "lat": 38.834088, "bike_id": "570801ca8e66fa43a800ffa50058b737", "type": "electric_bike", "is_reserved": 0, "lon": -77.00328833333333}, {"fusion_lat": 0.0, "name": "97d86475e553eaa428651189475a444f", "is_disabled": 0, "rental_uris": {"android": "https://dc.lft.to/lastmile_qr_scan", "ios": "https://dc.lft.to/lastmile_qr_scan"}, "fusion_lon": 0.0, "lat": 38.8843895, "bike_id": "97d86475e553eaa428651189475a444f", "type": "electric_scooter", "is_reserved": 0, "lon": -77.003438}, {"fusion_lat": 0.0, "name": "4a34c5cdad3d7d0c7b1fe99c4b97ca8e", "is_disabled": 0, "rental_uris": {"android": "https://dc.lft.to/lastmile_qr_scan", "ios": "https://dc.lft.to/lastmile_qr_scan"}, "fusion_lon": 0.0, "lat": 38.90468933333333, "bike_id": "4a34c5cdad3d7d0c7b1fe99c4b97ca8e", "type": "electric_scooter", "is_reserved": 0, "lon": -77.04026416666666}, {"fusion_lat": 0.0, "name": "1f495d78921e68958bd09fb17642713e", "is_disabled": 0, "rental_uris": {"android": "https://dc.lft.to/lastmile_qr_scan", "ios": "https://dc.lft.to/lastmile_qr_scan"}, "fusion_lon": 0.0, "lat": 38.877663, "bike_id": "1f495d78921e68958bd09fb17642713e", "type": "electric_scooter", "is_reserved": 0, "lon": -76.993868}, {"fusion_lat": 0.0, "name": "6d56501534e7a6fde517c6d31027705c", "is_disabled": 0, "rental_uris": {"android": "https://dc.lft.to/lastmile_qr_scan", "ios": "https://dc.lft.to/lastmile_qr_scan"}, "fusion_lon": 0.0, "lat": 38.93534616666667, "bike_id": "6d56501534e7a6fde517c6d31027705c", "type": "electric_scooter", "is_reserved": 0, "lon": -77.023489}, {"fusion_lat": 0.0, "name": "3f293674fa66961045a5cbaaa1b0c69b", "is_disabled": 0, "rental_uris": {"android": "https://dc.lft.to/lastmile_qr_scan", "ios": "https://dc.lft.to/lastmile_qr_scan"}, "fusion_lon": 0.0, "lat": 38.90853466666667, "bike_id": "3f293674fa66961045a5cbaaa1b0c69b", "type": "electric_scooter", "is_reserved": 0, "lon": -77.028265}, {"fusion_lat": 0.0, "name": "2e76fd43dbce50703f5ac24f41d0a380", "is_disabled": 0, "rental_uris": {"android": "https://dc.lft.to/lastmile_qr_scan", "ios": "https://dc.lft.to/lastmile_qr_scan"}, "fusion_lon": 0.0, "lat": 38.935775666666665, "bike_id": "2e76fd43dbce50703f5ac24f41d0a380", "type": "electric_scooter", "is_reserved": 0, "lon": -77.01925283333334}, {"fusion_lat": 0.0, "name": "473e7e356fd56e309cdc0a698a080dd9", "is_disabled": 0, "rental_uris": {"android": "https://dc.lft.to/lastmile_qr_scan", "ios": "https://dc.lft.to/lastmile_qr_scan"}, "fusion_lon": 0.0, "lat": 38.92254533333333, "bike_id": "473e7e356fd56e309cdc0a698a080dd9", "type": "electric_scooter", "is_reserved": 0, "lon": -77.03384616666666}, {"fusion_lat": 0.0, "name": "c91e9f259805f335c46213154b622089", "is_disabled": 0, "rental_uris": {"android": "https://dc.lft.to/lastmile_qr_scan", "ios": "https://dc.lft.to/lastmile_qr_scan"}, "fusion_lon": 0.0, "lat": 38.90413866666667, "bike_id": "c91e9f259805f335c46213154b622089", "type": "electric_scooter", "is_reserved": 0, "lon": -76.973265}, {"fusion_lat": 0.0, "name": "e8ba7cc78e38fb7830e0ddbe070e3e5f", "is_disabled": 0, "rental_uris": {"android": "https://dc.lft.to/lastmile_qr_scan", "ios": "https://dc.lft.to/lastmile_qr_scan"}, "fusion_lon": 0.0, "lat": 38.91557383333333, "bike_id": "e8ba7cc78e38fb7830e0ddbe070e3e5f", "type": "electric_scooter", "is_reserved": 0, "lon": -77.0350325}, {"fusion_lat": 0.0, "name": "8fe450afcc8c1a157ec56edb833c4b9e", "is_disabled": 0, "rental_uris": {"android": "https://dc.lft.to/lastmile_qr_scan", "ios": "https://dc.lft.to/lastmile_qr_scan"}, "fusion_lon": 0.0, "lat": 38.8975115, "bike_id": "8fe450afcc8c1a157ec56edb833c4b9e", "type": "electric_scooter", "is_reserved": 0, "lon": -77.05143666666666}, {"fusion_lat": 0.0, "name": "4286407f46d76563fb278a7b60fb55b0", "is_disabled": 0, "rental_uris": {"android": "https://dc.lft.to/lastmile_qr_scan", "ios": "https://dc.lft.to/lastmile_qr_scan"}, "fusion_lon": 0.0, "lat": 38.92435616666667, "bike_id": "4286407f46d76563fb278a7b60fb55b0", "type": "electric_scooter", "is_reserved": 0, "lon": -77.00061433333333}, {"fusion_lat": 0.0, "name": "b5fad210375133526e4566e5bd330bb5", "is_disabled": 0, "rental_uris": {"android": "https://dc.lft.to/lastmile_qr_scan", "ios": "https://dc.lft.to/lastmile_qr_scan"}, "fusion_lon": 0.0, "lat": 38.832343333333334, "bike_id": "b5fad210375133526e4566e5bd330bb5", "type": "electric_bike", "is_reserved": 0, "lon": -76.94621283333333}, {"fusion_lat": 0.0, "name": "a99093c1bc925e3631a7dd9eb511bdd4", "is_disabled": 0, "rental_uris": {"android": "https://dc.lft.to/lastmile_qr_scan", "ios": "https://dc.lft.to/lastmile_qr_scan"}, "fusion_lon": 0.0, "lat": 38.931905, "bike_id": "a99093c1bc925e3631a7dd9eb511bdd4", "type": "electric_scooter", "is_reserved": 0, "lon": -77.04296966666666}, {"fusion_lat": 0.0, "name": "5319785ae75bf476f0f8d2d7d8fd5eaf", "is_disabled": 0, "rental_uris": {"android": "https://dc.lft.to/lastmile_qr_scan", "ios": "https://dc.lft.to/lastmile_qr_scan"}, "fusion_lon": 0.0, "lat": 38.8763525, "bike_id": "5319785ae75bf476f0f8d2d7d8fd5eaf", "type": "electric_scooter", "is_reserved": 0, "lon": -77.01686866666667}, {"fusion_lat": 0.0, "name": "84c582d601e58b694324e31f15e44345", "is_disabled": 0, "rental_uris": {"android": "https://dc.lft.to/lastmile_qr_scan", "ios": "https://dc.lft.to/lastmile_qr_scan"}, "fusion_lon": 0.0, "lat": 38.905688166666664, "bike_id": "84c582d601e58b694324e31f15e44345", "type": "electric_scooter", "is_reserved": 0, "lon": -77.06260366666666}, {"fusion_lat": 0.0, "name": "16b9e5ba4da18c78162060f5f4ebb98c", "is_disabled": 0, "rental_uris": {"android": "https://dc.lft.to/lastmile_qr_scan", "ios": "https://dc.lft.to/lastmile_qr_scan"}, "fusion_lon": 0.0, "lat": 38.88727866666667, "bike_id": "16b9e5ba4da18c78162060f5f4ebb98c", "type": "electric_scooter", "is_reserved": 0, "lon": -76.98355316666667}, {"fusion_lat": 0.0, "name": "9cf81085ae3d80dbc82339894a6b2325", "is_disabled": 0, "rental_uris": {"android": "https://dc.lft.to/lastmile_qr_scan", "ios": "https://dc.lft.to/lastmile_qr_scan"}, "fusion_lon": 0.0, "lat": 38.8843945, "bike_id": "9cf81085ae3d80dbc82339894a6b2325", "type": "electric_scooter", "is_reserved": 0, "lon": -77.02532816666667}, {"fusion_lat": 0.0, "name": "b87cc5850fe5ef6f630cdedf2a4fa072", "is_disabled": 0, "rental_uris": {"android": "https://dc.lft.to/lastmile_qr_scan", "ios": "https://dc.lft.to/lastmile_qr_scan"}, "fusion_lon": 0.0, "lat": 38.841388333333335, "bike_id": "b87cc5850fe5ef6f630cdedf2a4fa072", "type": "electric_bike", "is_reserved": 0, "lon": -76.94760166666667}, {"fusion_lat": 0.0, "name": "bdbd3ec7841bedfd20e4c23e7bfd577d", "is_disabled": 0, "rental_uris": {"android": "https://dc.lft.to/lastmile_qr_scan", "ios": "https://dc.lft.to/lastmile_qr_scan"}, "fusion_lon": 0.0, "lat": 38.9225425, "bike_id": "bdbd3ec7841bedfd20e4c23e7bfd577d", "type": "electric_scooter", "is_reserved": 0, "lon": -77.05081783333333}, {"fusion_lat": 0.0, "name": "4a91909e368d555c2e6b27e671f0f86e", "is_disabled": 0, "rental_uris": {"android": "https://dc.lft.to/lastmile_qr_scan", "ios": "https://dc.lft.to/lastmile_qr_scan"}, "fusion_lon": 0.0, "lat": 38.92539816666667, "bike_id": "4a91909e368d555c2e6b27e671f0f86e", "type": "electric_scooter", "is_reserved": 0, "lon": -77.05119083333334}, {"fusion_lat": 0.0, "name": "f2508a6c1c4c25e7d167e00e1d24dd2a", "is_disabled": 0, "rental_uris": {"android": "https://dc.lft.to/lastmile_qr_scan", "ios": "https://dc.lft.to/lastmile_qr_scan"}, "fusion_lon": 0.0, "lat": 38.9042155, "bike_id": "f2508a6c1c4c25e7d167e00e1d24dd2a", "type": "electric_scooter", "is_reserved": 0, "lon": -77.04384833333333}, {"fusion_lat": 0.0, "name": "be008c4f59f4a3220f93f10d092e822d", "is_disabled": 0, "rental_uris": {"android": "https://dc.lft.to/lastmile_qr_scan", "ios": "https://dc.lft.to/lastmile_qr_scan"}, "fusion_lon": 0.0, "lat": 38.88757666666667, "bike_id": "be008c4f59f4a3220f93f10d092e822d", "type": "electric_scooter", "is_reserved": 0, "lon": -77.00254033333333}, {"fusion_lat": 0.0, "name": "c3a9562921097ce4826b47d354575010", "is_disabled": 0, "rental_uris": {"android": "https://dc.lft.to/lastmile_qr_scan", "ios": "https://dc.lft.to/lastmile_qr_scan"}, "fusion_lon": 0.0, "lat": 38.92902016666667, "bike_id": "c3a9562921097ce4826b47d354575010", "type": "electric_scooter", "is_reserved": 0, "lon": -77.05456333333333}, {"fusion_lat": 0.0, "name": "b73f2fd41b7149910b3ed62258ff634e", "is_disabled": 0, "rental_uris": {"android": "https://dc.lft.to/lastmile_qr_scan", "ios": "https://dc.lft.to/lastmile_qr_scan"}, "fusion_lon": 0.0, "lat": 38.91024566666667, "bike_id": "b73f2fd41b7149910b3ed62258ff634e", "type": "electric_scooter", "is_reserved": 0, "lon": -77.03860433333334}, {"fusion_lat": 0.0, "name": "0609a188f683a2bc6e2876ec88cf2a42", "is_disabled": 0, "rental_uris": {"android": "https://dc.lft.to/lastmile_qr_scan", "ios": "https://dc.lft.to/lastmile_qr_scan"}, "fusion_lon": 0.0, "lat": 38.918448166666664, "bike_id": "0609a188f683a2bc6e2876ec88cf2a42", "type": "electric_scooter", "is_reserved": 0, "lon": -77.02452983333333}, {"fusion_lat": 0.0, "name": "250a7a4ffaf1a56dc82005aa3e7430ff", "is_disabled": 0, "rental_uris": {"android": "https://dc.lft.to/lastmile_qr_scan", "ios": "https://dc.lft.to/lastmile_qr_scan"}, "fusion_lon": 0.0, "lat": 38.92793016666667, "bike_id": "250a7a4ffaf1a56dc82005aa3e7430ff", "type": "electric_scooter", "is_reserved": 0, "lon": -77.031478}, {"fusion_lat": 0.0, "name": "a7f659f4ef230c74b7ec59618d1c4e14", "is_disabled": 0, "rental_uris": {"android": "https://dc.lft.to/lastmile_qr_scan", "ios": "https://dc.lft.to/lastmile_qr_scan"}, "fusion_lon": 0.0, "lat": 38.933734666666666, "bike_id": "a7f659f4ef230c74b7ec59618d1c4e14", "type": "electric_scooter", "is_reserved": 0, "lon": -77.02429216666667}, {"fusion_lat": 0.0, "name": "d599bfd4dd3f15cf0fa317d0f7f63e65", "is_disabled": 0, "rental_uris": {"android": "https://dc.lft.to/lastmile_qr_scan", "ios": "https://dc.lft.to/lastmile_qr_scan"}, "fusion_lon": 0.0, "lat": 38.92450766666666, "bike_id": "d599bfd4dd3f15cf0fa317d0f7f63e65", "type": "electric_scooter", "is_reserved": 0, "lon": -77.033231}, {"fusion_lat": 0.0, "name": "d574cf73adf6e8fd71c772693db87d12", "is_disabled": 0, "rental_uris": {"android": "https://dc.lft.to/lastmile_qr_scan", "ios": "https://dc.lft.to/lastmile_qr_scan"}, "fusion_lon": 0.0, "lat": 38.93541, "bike_id": "d574cf73adf6e8fd71c772693db87d12", "type": "electric_scooter", "is_reserved": 0, "lon": -77.02349633333333}, {"fusion_lat": 0.0, "name": "2f0b660e4fc4f189060ae4d69da749d3", "is_disabled": 0, "rental_uris": {"android": "https://dc.lft.to/lastmile_qr_scan", "ios": "https://dc.lft.to/lastmile_qr_scan"}, "fusion_lon": 0.0, "lat": 38.97124616666667, "bike_id": "2f0b660e4fc4f189060ae4d69da749d3", "type": "electric_bike", "is_reserved": 0, "lon": -77.02082766666666}, {"fusion_lat": 0.0, "name": "90bc84db484ab5e8e1ebf22646c86547", "is_disabled": 0, "rental_uris": {"android": "https://dc.lft.to/lastmile_qr_scan", "ios": "https://dc.lft.to/lastmile_qr_scan"}, "fusion_lon": 0.0, "lat": 38.88993266666667, "bike_id": "90bc84db484ab5e8e1ebf22646c86547", "type": "electric_scooter", "is_reserved": 0, "lon": -76.9822365}, {"fusion_lat": 0.0, "name": "4e0579f2f832c09fed1a0b7fab694430", "is_disabled": 0, "rental_uris": {"android": "https://dc.lft.to/lastmile_qr_scan", "ios": "https://dc.lft.to/lastmile_qr_scan"}, "fusion_lon": 0.0, "lat": 38.935336, "bike_id": "4e0579f2f832c09fed1a0b7fab694430", "type": "electric_scooter", "is_reserved": 0, "lon": -77.0451375}, {"fusion_lat": 0.0, "name": "1265fdeacbdcf865e35653037ba52652", "is_disabled": 0, "rental_uris": {"android": "https://dc.lft.to/lastmile_qr_scan", "ios": "https://dc.lft.to/lastmile_qr_scan"}, "fusion_lon": 0.0, "lat": 38.9338405, "bike_id": "1265fdeacbdcf865e35653037ba52652", "type": "electric_scooter", "is_reserved": 0, "lon": -77.02417483333333}, {"fusion_lat": 0.0, "name": "3266f2f1b16b3383a8ffcd003ea83d9b", "is_disabled": 0, "rental_uris": {"android": "https://dc.lft.to/lastmile_qr_scan", "ios": "https://dc.lft.to/lastmile_qr_scan"}, "fusion_lon": 0.0, "lat": 38.93890833333333, "bike_id": "3266f2f1b16b3383a8ffcd003ea83d9b", "type": "electric_scooter", "is_reserved": 0, "lon": -77.03321233333334}, {"fusion_lat": 0.0, "name": "5a2c6692283ba29a5b094b208345ec5d", "is_disabled": 0, "rental_uris": {"android": "https://dc.lft.to/lastmile_qr_scan", "ios": "https://dc.lft.to/lastmile_qr_scan"}, "fusion_lon": 0.0, "lat": 38.90249766666667, "bike_id": "5a2c6692283ba29a5b094b208345ec5d", "type": "electric_scooter", "is_reserved": 0, "lon": -77.02612883333333}, {"fusion_lat": 0.0, "name": "2f6833217950e62ac9eea419c013cae7", "is_disabled": 0, "rental_uris": {"android": "https://dc.lft.to/lastmile_qr_scan", "ios": "https://dc.lft.to/lastmile_qr_scan"}, "fusion_lon": 0.0, "lat": 38.90437466666667, "bike_id": "2f6833217950e62ac9eea419c013cae7", "type": "electric_scooter", "is_reserved": 0, "lon": -77.03191433333333}, {"fusion_lat": 0.0, "name": "641504aa5a637d188e3bef02b9440cfb", "is_disabled": 0, "rental_uris": {"android": "https://dc.lft.to/lastmile_qr_scan", "ios": "https://dc.lft.to/lastmile_qr_scan"}, "fusion_lon": 0.0, "lat": 38.901513333333334, "bike_id": "641504aa5a637d188e3bef02b9440cfb", "type": "electric_scooter", "is_reserved": 0, "lon": -76.93065833333333}, {"fusion_lat": 0.0, "name": "7ed9fd8643d5d4ec054afd888c9e1a12", "is_disabled": 0, "rental_uris": {"android": "https://dc.lft.to/lastmile_qr_scan", "ios": "https://dc.lft.to/lastmile_qr_scan"}, "fusion_lon": 0.0, "lat": 38.931474333333334, "bike_id": "7ed9fd8643d5d4ec054afd888c9e1a12", "type": "electric_bike", "is_reserved": 0, "lon": -77.03828583333333}, {"fusion_lat": 0.0, "name": "e6332eabcd8d53313c53523a66d1bb4e", "is_disabled": 0, "rental_uris": {"android": "https://dc.lft.to/lastmile_qr_scan", "ios": "https://dc.lft.to/lastmile_qr_scan"}, "fusion_lon": 0.0, "lat": 38.897665333333336, "bike_id": "e6332eabcd8d53313c53523a66d1bb4e", "type": "electric_scooter", "is_reserved": 0, "lon": -77.02511}, {"fusion_lat": 0.0, "name": "1db91a672dbb2a96ad8fe17f73175485", "is_disabled": 0, "rental_uris": {"android": "https://dc.lft.to/lastmile_qr_scan", "ios": "https://dc.lft.to/lastmile_qr_scan"}, "fusion_lon": 0.0, "lat": 38.909380166666665, "bike_id": "1db91a672dbb2a96ad8fe17f73175485", "type": "electric_scooter", "is_reserved": 0, "lon": -77.018458}, {"fusion_lat": 0.0, "name": "ac5a8f0a82c88d2598a327e36ef04598", "is_disabled": 0, "rental_uris": {"android": "https://dc.lft.to/lastmile_qr_scan", "ios": "https://dc.lft.to/lastmile_qr_scan"}, "fusion_lon": 0.0, "lat": 38.90685466666667, "bike_id": "ac5a8f0a82c88d2598a327e36ef04598", "type": "electric_bike", "is_reserved": 0, "lon": -76.944925}, {"fusion_lat": 0.0, "name": "a669dba86e6630505e0ce1573b423279", "is_disabled": 0, "rental_uris": {"android": "https://dc.lft.to/lastmile_qr_scan", "ios": "https://dc.lft.to/lastmile_qr_scan"}, "fusion_lon": 0.0, "lat": 38.86374466666667, "bike_id": "a669dba86e6630505e0ce1573b423279", "type": "electric_bike", "is_reserved": 0, "lon": -76.97008166666667}, {"fusion_lat": 0.0, "name": "1979a445031cfa3945a8e3ec55382a79", "is_disabled": 0, "rental_uris": {"android": "https://dc.lft.to/lastmile_qr_scan", "ios": "https://dc.lft.to/lastmile_qr_scan"}, "fusion_lon": 0.0, "lat": 38.937675, "bike_id": "1979a445031cfa3945a8e3ec55382a79", "type": "electric_scooter", "is_reserved": 0, "lon": -77.03285116666666}, {"fusion_lat": 0.0, "name": "3e163fa2715df28a1b82272bd9fc62ab", "is_disabled": 0, "rental_uris": {"android": "https://dc.lft.to/lastmile_qr_scan", "ios": "https://dc.lft.to/lastmile_qr_scan"}, "fusion_lon": 0.0, "lat": 38.887668166666664, "bike_id": "3e163fa2715df28a1b82272bd9fc62ab", "type": "electric_scooter", "is_reserved": 0, "lon": -76.9774345}, {"fusion_lat": 0.0, "name": "35c56002ba467fcfe621f720224fdfe2", "is_disabled": 0, "rental_uris": {"android": "https://dc.lft.to/lastmile_qr_scan", "ios": "https://dc.lft.to/lastmile_qr_scan"}, "fusion_lon": 0.0, "lat": 38.9089845, "bike_id": "35c56002ba467fcfe621f720224fdfe2", "type": "electric_scooter", "is_reserved": 0, "lon": -77.04392766666666}, {"fusion_lat": 0.0, "name": "995f52ca6acb9542cf4922960cf4f5d1", "is_disabled": 0, "rental_uris": {"android": "https://dc.lft.to/lastmile_qr_scan", "ios": "https://dc.lft.to/lastmile_qr_scan"}, "fusion_lon": 0.0, "lat": 38.9246635, "bike_id": "995f52ca6acb9542cf4922960cf4f5d1", "type": "electric_scooter", "is_reserved": 0, "lon": -77.03783333333334}, {"fusion_lat": 0.0, "name": "b151dca7c54b38444d6ca50f0b91820b", "is_disabled": 0, "rental_uris": {"android": "https://dc.lft.to/lastmile_qr_scan", "ios": "https://dc.lft.to/lastmile_qr_scan"}, "fusion_lon": 0.0, "lat": 38.888948166666665, "bike_id": "b151dca7c54b38444d6ca50f0b91820b", "type": "electric_bike", "is_reserved": 0, "lon": -77.11527316666667}, {"fusion_lat": 0.0, "name": "7a1b8cdcd542b1a822d3894814ca43f0", "is_disabled": 0, "rental_uris": {"android": "https://dc.lft.to/lastmile_qr_scan", "ios": "https://dc.lft.to/lastmile_qr_scan"}, "fusion_lon": 0.0, "lat": 38.898556166666665, "bike_id": "7a1b8cdcd542b1a822d3894814ca43f0", "type": "electric_scooter", "is_reserved": 0, "lon": -76.99268666666667}, {"fusion_lat": 0.0, "name": "7c532a4bb81f6699d1ca34bdf08aaf32", "is_disabled": 0, "rental_uris": {"android": "https://dc.lft.to/lastmile_qr_scan", "ios": "https://dc.lft.to/lastmile_qr_scan"}, "fusion_lon": 0.0, "lat": 38.93492083333334, "bike_id": "7c532a4bb81f6699d1ca34bdf08aaf32", "type": "electric_scooter", "is_reserved": 0, "lon": -77.03075566666666}, {"fusion_lat": 0.0, "name": "9a2ac9fef7926d6ceb22835ea5bd316c", "is_disabled": 0, "rental_uris": {"android": "https://dc.lft.to/lastmile_qr_scan", "ios": "https://dc.lft.to/lastmile_qr_scan"}, "fusion_lon": 0.0, "lat": 38.90253283333333, "bike_id": "9a2ac9fef7926d6ceb22835ea5bd316c", "type": "electric_scooter", "is_reserved": 0, "lon": -77.0395355}, {"fusion_lat": 0.0, "name": "992ddbcce7a5a5cac3eaafac9c4d2101", "is_disabled": 0, "rental_uris": {"android": "https://dc.lft.to/lastmile_qr_scan", "ios": "https://dc.lft.to/lastmile_qr_scan"}, "fusion_lon": 0.0, "lat": 38.91560466666667, "bike_id": "992ddbcce7a5a5cac3eaafac9c4d2101", "type": "electric_scooter", "is_reserved": 0, "lon": -77.0322175}, {"fusion_lat": 0.0, "name": "cc2fe81ff22b07d055d96984a7d0b3d0", "is_disabled": 0, "rental_uris": {"android": "https://dc.lft.to/lastmile_qr_scan", "ios": "https://dc.lft.to/lastmile_qr_scan"}, "fusion_lon": 0.0, "lat": 38.92557883333333, "bike_id": "cc2fe81ff22b07d055d96984a7d0b3d0", "type": "electric_scooter", "is_reserved": 0, "lon": -77.02284866666666}, {"fusion_lat": 0.0, "name": "eb90966e13527aa816b68fe88eb04f93", "is_disabled": 0, "rental_uris": {"android": "https://dc.lft.to/lastmile_qr_scan", "ios": "https://dc.lft.to/lastmile_qr_scan"}, "fusion_lon": 0.0, "lat": 38.897478666666665, "bike_id": "eb90966e13527aa816b68fe88eb04f93", "type": "electric_scooter", "is_reserved": 0, "lon": -77.02727616666667}, {"fusion_lat": 0.0, "name": "9d2edde720367406df2ea51456b13a26", "is_disabled": 0, "rental_uris": {"android": "https://dc.lft.to/lastmile_qr_scan", "ios": "https://dc.lft.to/lastmile_qr_scan"}, "fusion_lon": 0.0, "lat": 38.915538, "bike_id": "9d2edde720367406df2ea51456b13a26", "type": "electric_scooter", "is_reserved": 0, "lon": -77.0324495}, {"fusion_lat": 0.0, "name": "9dbfe3e15a22f37b9eb03268ab6947b4", "is_disabled": 0, "rental_uris": {"android": "https://dc.lft.to/lastmile_qr_scan", "ios": "https://dc.lft.to/lastmile_qr_scan"}, "fusion_lon": 0.0, "lat": 38.9613165, "bike_id": "9dbfe3e15a22f37b9eb03268ab6947b4", "type": "electric_scooter", "is_reserved": 0, "lon": -77.02786633333334}, {"fusion_lat": 0.0, "name": "8e1e1590bbc40abe1e1d79f56a898c45", "is_disabled": 0, "rental_uris": {"android": "https://dc.lft.to/lastmile_qr_scan", "ios": "https://dc.lft.to/lastmile_qr_scan"}, "fusion_lon": 0.0, "lat": 38.923737, "bike_id": "8e1e1590bbc40abe1e1d79f56a898c45", "type": "electric_scooter", "is_reserved": 0, "lon": -77.0815235}, {"fusion_lat": 0.0, "name": "42d51c6065eb6dc123f01f69abcf1828", "is_disabled": 0, "rental_uris": {"android": "https://dc.lft.to/lastmile_qr_scan", "ios": "https://dc.lft.to/lastmile_qr_scan"}, "fusion_lon": 0.0, "lat": 38.900153333333336, "bike_id": "42d51c6065eb6dc123f01f69abcf1828", "type": "electric_scooter", "is_reserved": 0, "lon": -76.98851583333334}, {"fusion_lat": 0.0, "name": "fea56753573cd3e192d8e4cc5f60f757", "is_disabled": 0, "rental_uris": {"android": "https://dc.lft.to/lastmile_qr_scan", "ios": "https://dc.lft.to/lastmile_qr_scan"}, "fusion_lon": 0.0, "lat": 38.88478416666667, "bike_id": "fea56753573cd3e192d8e4cc5f60f757", "type": "electric_scooter", "is_reserved": 0, "lon": -77.02428483333334}, {"fusion_lat": 0.0, "name": "b011b2d8a668d5b56d94969c2835563a", "is_disabled": 0, "rental_uris": {"android": "https://dc.lft.to/lastmile_qr_scan", "ios": "https://dc.lft.to/lastmile_qr_scan"}, "fusion_lon": 0.0, "lat": 38.87688883333333, "bike_id": "b011b2d8a668d5b56d94969c2835563a", "type": "electric_scooter", "is_reserved": 0, "lon": -77.01758666666667}, {"fusion_lat": 0.0, "name": "5b4eae9cbfbab2b5cc31a10740c362a7", "is_disabled": 0, "rental_uris": {"android": "https://dc.lft.to/lastmile_qr_scan", "ios": "https://dc.lft.to/lastmile_qr_scan"}, "fusion_lon": 0.0, "lat": 38.889652833333336, "bike_id": "5b4eae9cbfbab2b5cc31a10740c362a7", "type": "electric_scooter", "is_reserved": 0, "lon": -77.01502283333333}, {"fusion_lat": 0.0, "name": "d547aa1946ed7c9edbee5dc7ccc61780", "is_disabled": 0, "rental_uris": {"android": "https://dc.lft.to/lastmile_qr_scan", "ios": "https://dc.lft.to/lastmile_qr_scan"}, "fusion_lon": 0.0, "lat": 38.890214666666665, "bike_id": "d547aa1946ed7c9edbee5dc7ccc61780", "type": "electric_scooter", "is_reserved": 0, "lon": -76.937418}, {"fusion_lat": 0.0, "name": "13f379e27d6aec6859598d1b259762e1", "is_disabled": 0, "rental_uris": {"android": "https://dc.lft.to/lastmile_qr_scan", "ios": "https://dc.lft.to/lastmile_qr_scan"}, "fusion_lon": 0.0, "lat": 38.912671, "bike_id": "13f379e27d6aec6859598d1b259762e1", "type": "electric_scooter", "is_reserved": 0, "lon": -77.002727}, {"fusion_lat": 0.0, "name": "7b0a5aca04c717196651eaa1fe0406b2", "is_disabled": 0, "rental_uris": {"android": "https://dc.lft.to/lastmile_qr_scan", "ios": "https://dc.lft.to/lastmile_qr_scan"}, "fusion_lon": 0.0, "lat": 38.92455833333333, "bike_id": "7b0a5aca04c717196651eaa1fe0406b2", "type": "electric_scooter", "is_reserved": 0, "lon": -77.02404}, {"fusion_lat": 0.0, "name": "c6381cc92648ba77538cf32268b6f5d8", "is_disabled": 0, "rental_uris": {"android": "https://dc.lft.to/lastmile_qr_scan", "ios": "https://dc.lft.to/lastmile_qr_scan"}, "fusion_lon": 0.0, "lat": 38.92996816666667, "bike_id": "c6381cc92648ba77538cf32268b6f5d8", "type": "electric_scooter", "is_reserved": 0, "lon": -77.03224983333334}, {"fusion_lat": 0.0, "name": "581b02d21c87c61082efc4890989eb52", "is_disabled": 0, "rental_uris": {"android": "https://dc.lft.to/lastmile_qr_scan", "ios": "https://dc.lft.to/lastmile_qr_scan"}, "fusion_lon": 0.0, "lat": 38.920352666666666, "bike_id": "581b02d21c87c61082efc4890989eb52", "type": "electric_scooter", "is_reserved": 0, "lon": -77.0258625}, {"fusion_lat": 0.0, "name": "06cae648ca7a168b782b37b6325ff7c8", "is_disabled": 0, "rental_uris": {"android": "https://dc.lft.to/lastmile_qr_scan", "ios": "https://dc.lft.to/lastmile_qr_scan"}, "fusion_lon": 0.0, "lat": 38.901738, "bike_id": "06cae648ca7a168b782b37b6325ff7c8", "type": "electric_scooter", "is_reserved": 0, "lon": -77.05914716666666}, {"fusion_lat": 0.0, "name": "6e75c17c3a57634a8f8ecf2f3430dc13", "is_disabled": 0, "rental_uris": {"android": "https://dc.lft.to/lastmile_qr_scan", "ios": "https://dc.lft.to/lastmile_qr_scan"}, "fusion_lon": 0.0, "lat": 38.912147166666664, "bike_id": "6e75c17c3a57634a8f8ecf2f3430dc13", "type": "electric_scooter", "is_reserved": 0, "lon": -77.04495283333333}, {"fusion_lat": 0.0, "name": "5b6f341ab7ffd587d484001bb4aa3708", "is_disabled": 0, "rental_uris": {"android": "https://dc.lft.to/lastmile_qr_scan", "ios": "https://dc.lft.to/lastmile_qr_scan"}, "fusion_lon": 0.0, "lat": 38.9206885, "bike_id": "5b6f341ab7ffd587d484001bb4aa3708", "type": "electric_scooter", "is_reserved": 0, "lon": -77.0271415}, {"fusion_lat": 0.0, "name": "5e83b1d2cf9cdca6408cd5f2bd2b6bd9", "is_disabled": 0, "rental_uris": {"android": "https://dc.lft.to/lastmile_qr_scan", "ios": "https://dc.lft.to/lastmile_qr_scan"}, "fusion_lon": 0.0, "lat": 38.90514916666667, "bike_id": "5e83b1d2cf9cdca6408cd5f2bd2b6bd9", "type": "electric_scooter", "is_reserved": 0, "lon": -77.05150833333333}, {"fusion_lat": 0.0, "name": "ddcd5c6516bcb7972bf28d4163f7e52b", "is_disabled": 0, "rental_uris": {"android": "https://dc.lft.to/lastmile_qr_scan", "ios": "https://dc.lft.to/lastmile_qr_scan"}, "fusion_lon": 0.0, "lat": 38.916562166666665, "bike_id": "ddcd5c6516bcb7972bf28d4163f7e52b", "type": "electric_scooter", "is_reserved": 0, "lon": -77.02808883333333}, {"fusion_lat": 0.0, "name": "f2b0a6cc352026fae71ddddd9d29f9e4", "is_disabled": 0, "rental_uris": {"android": "https://dc.lft.to/lastmile_qr_scan", "ios": "https://dc.lft.to/lastmile_qr_scan"}, "fusion_lon": 0.0, "lat": 38.91626466666666, "bike_id": "f2b0a6cc352026fae71ddddd9d29f9e4", "type": "electric_scooter", "is_reserved": 0, "lon": -77.0313435}, {"fusion_lat": 0.0, "name": "8505e2fa4c710acf0b54f7745e1f3605", "is_disabled": 0, "rental_uris": {"android": "https://dc.lft.to/lastmile_qr_scan", "ios": "https://dc.lft.to/lastmile_qr_scan"}, "fusion_lon": 0.0, "lat": 38.8960955, "bike_id": "8505e2fa4c710acf0b54f7745e1f3605", "type": "electric_scooter", "is_reserved": 0, "lon": -77.00927}, {"fusion_lat": 0.0, "name": "796c38dec520ee0effdb605b3a59e77c", "is_disabled": 0, "rental_uris": {"android": "https://dc.lft.to/lastmile_qr_scan", "ios": "https://dc.lft.to/lastmile_qr_scan"}, "fusion_lon": 0.0, "lat": 38.9019725, "bike_id": "796c38dec520ee0effdb605b3a59e77c", "type": "electric_scooter", "is_reserved": 0, "lon": -76.97858766666667}, {"fusion_lat": 0.0, "name": "a3ed9f1b774ec930704f987a02390cd2", "is_disabled": 0, "rental_uris": {"android": "https://dc.lft.to/lastmile_qr_scan", "ios": "https://dc.lft.to/lastmile_qr_scan"}, "fusion_lon": 0.0, "lat": 38.933207333333335, "bike_id": "a3ed9f1b774ec930704f987a02390cd2", "type": "electric_scooter", "is_reserved": 0, "lon": -77.0274645}, {"fusion_lat": 0.0, "name": "7ddab0797a9af4a47833d57cc19a36cc", "is_disabled": 0, "rental_uris": {"android": "https://dc.lft.to/lastmile_qr_scan", "ios": "https://dc.lft.to/lastmile_qr_scan"}, "fusion_lon": 0.0, "lat": 38.92868466666667, "bike_id": "7ddab0797a9af4a47833d57cc19a36cc", "type": "electric_scooter", "is_reserved": 0, "lon": -77.01356083333333}, {"fusion_lat": 0.0, "name": "f6c35f4dbe1ac9e0e792051f9ad0df44", "is_disabled": 0, "rental_uris": {"android": "https://dc.lft.to/lastmile_qr_scan", "ios": "https://dc.lft.to/lastmile_qr_scan"}, "fusion_lon": 0.0, "lat": 38.886475833333336, "bike_id": "f6c35f4dbe1ac9e0e792051f9ad0df44", "type": "electric_scooter", "is_reserved": 0, "lon": -77.019522}, {"fusion_lat": 0.0, "name": "5fb44a24018507af96f7972199cbc2aa", "is_disabled": 0, "rental_uris": {"android": "https://dc.lft.to/lastmile_qr_scan", "ios": "https://dc.lft.to/lastmile_qr_scan"}, "fusion_lon": 0.0, "lat": 38.91353983333333, "bike_id": "5fb44a24018507af96f7972199cbc2aa", "type": "electric_scooter", "is_reserved": 0, "lon": -77.0218525}, {"fusion_lat": 0.0, "name": "7abd173f3430ccee144d526f6ad5fb04", "is_disabled": 0, "rental_uris": {"android": "https://dc.lft.to/lastmile_qr_scan", "ios": "https://dc.lft.to/lastmile_qr_scan"}, "fusion_lon": 0.0, "lat": 38.915401, "bike_id": "7abd173f3430ccee144d526f6ad5fb04", "type": "electric_scooter", "is_reserved": 0, "lon": -76.98361033333333}, {"fusion_lat": 0.0, "name": "a0b62b955a7037deeed5783884925824", "is_disabled": 0, "rental_uris": {"android": "https://dc.lft.to/lastmile_qr_scan", "ios": "https://dc.lft.to/lastmile_qr_scan"}, "fusion_lon": 0.0, "lat": 38.88612283333333, "bike_id": "a0b62b955a7037deeed5783884925824", "type": "electric_scooter", "is_reserved": 0, "lon": -77.01244716666666}, {"fusion_lat": 0.0, "name": "8384d060e364175fdad9f83140645d10", "is_disabled": 0, "rental_uris": {"android": "https://dc.lft.to/lastmile_qr_scan", "ios": "https://dc.lft.to/lastmile_qr_scan"}, "fusion_lon": 0.0, "lat": 38.8923815, "bike_id": "8384d060e364175fdad9f83140645d10", "type": "electric_scooter", "is_reserved": 0, "lon": -77.04654816666667}, {"fusion_lat": 0.0, "name": "83581f6b12aa9858ad97e3e0966c9b1c", "is_disabled": 0, "rental_uris": {"android": "https://dc.lft.to/lastmile_qr_scan", "ios": "https://dc.lft.to/lastmile_qr_scan"}, "fusion_lon": 0.0, "lat": 38.92757016666667, "bike_id": "83581f6b12aa9858ad97e3e0966c9b1c", "type": "electric_scooter", "is_reserved": 0, "lon": -77.02288466666667}, {"fusion_lat": 0.0, "name": "53859e3192c2b15bc4a2afc95c043a19", "is_disabled": 0, "rental_uris": {"android": "https://dc.lft.to/lastmile_qr_scan", "ios": "https://dc.lft.to/lastmile_qr_scan"}, "fusion_lon": 0.0, "lat": 38.913274, "bike_id": "53859e3192c2b15bc4a2afc95c043a19", "type": "electric_scooter", "is_reserved": 0, "lon": -77.04536166666666}, {"fusion_lat": 0.0, "name": "fb52d61fee606a2017fb81c4a37a39b0", "is_disabled": 0, "rental_uris": {"android": "https://dc.lft.to/lastmile_qr_scan", "ios": "https://dc.lft.to/lastmile_qr_scan"}, "fusion_lon": 0.0, "lat": 38.90232666666667, "bike_id": "fb52d61fee606a2017fb81c4a37a39b0", "type": "electric_scooter", "is_reserved": 0, "lon": -77.05342283333333}, {"fusion_lat": 0.0, "name": "bb164b65ea6b87bd46ad188c13153bbb", "is_disabled": 0, "rental_uris": {"android": "https://dc.lft.to/lastmile_qr_scan", "ios": "https://dc.lft.to/lastmile_qr_scan"}, "fusion_lon": 0.0, "lat": 38.917393833333335, "bike_id": "bb164b65ea6b87bd46ad188c13153bbb", "type": "electric_scooter", "is_reserved": 0, "lon": -77.048295}, {"fusion_lat": 0.0, "name": "1280cd0b7afee00d01b9373611c69c5d", "is_disabled": 0, "rental_uris": {"android": "https://dc.lft.to/lastmile_qr_scan", "ios": "https://dc.lft.to/lastmile_qr_scan"}, "fusion_lon": 0.0, "lat": 38.9093615, "bike_id": "1280cd0b7afee00d01b9373611c69c5d", "type": "electric_scooter", "is_reserved": 0, "lon": -77.02123583333334}, {"fusion_lat": 0.0, "name": "6af1d77e1bb5284cc64f040a9d280af0", "is_disabled": 0, "rental_uris": {"android": "https://dc.lft.to/lastmile_qr_scan", "ios": "https://dc.lft.to/lastmile_qr_scan"}, "fusion_lon": 0.0, "lat": 38.917115, "bike_id": "6af1d77e1bb5284cc64f040a9d280af0", "type": "electric_scooter", "is_reserved": 0, "lon": -77.04093166666667}, {"fusion_lat": 0.0, "name": "dfb928b19ec60d95668427a7144c19b1", "is_disabled": 0, "rental_uris": {"android": "https://dc.lft.to/lastmile_qr_scan", "ios": "https://dc.lft.to/lastmile_qr_scan"}, "fusion_lon": 0.0, "lat": 38.899458, "bike_id": "dfb928b19ec60d95668427a7144c19b1", "type": "electric_scooter", "is_reserved": 0, "lon": -77.053554}, {"fusion_lat": 0.0, "name": "20d7b77e03ef3bc5b32d0b1f39afb0f4", "is_disabled": 0, "rental_uris": {"android": "https://dc.lft.to/lastmile_qr_scan", "ios": "https://dc.lft.to/lastmile_qr_scan"}, "fusion_lon": 0.0, "lat": 38.92055666666667, "bike_id": "20d7b77e03ef3bc5b32d0b1f39afb0f4", "type": "electric_scooter", "is_reserved": 0, "lon": -77.03392983333333}, {"fusion_lat": 0.0, "name": "03ffb097d34c311f81cc8434c2589241", "is_disabled": 0, "rental_uris": {"android": "https://dc.lft.to/lastmile_qr_scan", "ios": "https://dc.lft.to/lastmile_qr_scan"}, "fusion_lon": 0.0, "lat": 38.8898675, "bike_id": "03ffb097d34c311f81cc8434c2589241", "type": "electric_scooter", "is_reserved": 0, "lon": -76.98736533333333}, {"fusion_lat": 0.0, "name": "96c3c5270180c14afa277bb78eac5eb7", "is_disabled": 0, "rental_uris": {"android": "https://dc.lft.to/lastmile_qr_scan", "ios": "https://dc.lft.to/lastmile_qr_scan"}, "fusion_lon": 0.0, "lat": 38.93941483333333, "bike_id": "96c3c5270180c14afa277bb78eac5eb7", "type": "electric_scooter", "is_reserved": 0, "lon": -77.03321283333334}, {"fusion_lat": 0.0, "name": "31d6c77a5b893385d0542c6a483d06d1", "is_disabled": 0, "rental_uris": {"android": "https://dc.lft.to/lastmile_qr_scan", "ios": "https://dc.lft.to/lastmile_qr_scan"}, "fusion_lon": 0.0, "lat": 38.92966666666667, "bike_id": "31d6c77a5b893385d0542c6a483d06d1", "type": "electric_scooter", "is_reserved": 0, "lon": -77.02012583333334}, {"fusion_lat": 0.0, "name": "cf9aa5d59cb87889ee6a02fb5470e035", "is_disabled": 0, "rental_uris": {"android": "https://dc.lft.to/lastmile_qr_scan", "ios": "https://dc.lft.to/lastmile_qr_scan"}, "fusion_lon": 0.0, "lat": 38.858938, "bike_id": "cf9aa5d59cb87889ee6a02fb5470e035", "type": "electric_bike", "is_reserved": 0, "lon": -77.09544766666667}, {"fusion_lat": 0.0, "name": "1a2ebc77c33b3a42584a3286969ac8be", "is_disabled": 0, "rental_uris": {"android": "https://dc.lft.to/lastmile_qr_scan", "ios": "https://dc.lft.to/lastmile_qr_scan"}, "fusion_lon": 0.0, "lat": 38.9095575, "bike_id": "1a2ebc77c33b3a42584a3286969ac8be", "type": "electric_scooter", "is_reserved": 0, "lon": -77.0238825}, {"fusion_lat": 0.0, "name": "9ebdb27983f910a804cd3a95a543b01c", "is_disabled": 0, "rental_uris": {"android": "https://dc.lft.to/lastmile_qr_scan", "ios": "https://dc.lft.to/lastmile_qr_scan"}, "fusion_lon": 0.0, "lat": 38.88988166666667, "bike_id": "9ebdb27983f910a804cd3a95a543b01c", "type": "electric_scooter", "is_reserved": 0, "lon": -76.9963475}, {"fusion_lat": 0.0, "name": "23c79ae1ef6a2100d149e7e2ad4551a0", "is_disabled": 0, "rental_uris": {"android": "https://dc.lft.to/lastmile_qr_scan", "ios": "https://dc.lft.to/lastmile_qr_scan"}, "fusion_lon": 0.0, "lat": 38.90035666666667, "bike_id": "23c79ae1ef6a2100d149e7e2ad4551a0", "type": "electric_scooter", "is_reserved": 0, "lon": -77.002005}, {"fusion_lat": 0.0, "name": "3a796401e20d7974ef9145dd7d60a25b", "is_disabled": 0, "rental_uris": {"android": "https://dc.lft.to/lastmile_qr_scan", "ios": "https://dc.lft.to/lastmile_qr_scan"}, "fusion_lon": 0.0, "lat": 38.899409, "bike_id": "3a796401e20d7974ef9145dd7d60a25b", "type": "electric_scooter", "is_reserved": 0, "lon": -76.997266}, {"fusion_lat": 0.0, "name": "576afe83bb4ad8e2cd42c9be3a96fbd6", "is_disabled": 0, "rental_uris": {"android": "https://dc.lft.to/lastmile_qr_scan", "ios": "https://dc.lft.to/lastmile_qr_scan"}, "fusion_lon": 0.0, "lat": 38.92449383333334, "bike_id": "576afe83bb4ad8e2cd42c9be3a96fbd6", "type": "electric_scooter", "is_reserved": 0, "lon": -77.008805}, {"fusion_lat": 0.0, "name": "25655656908d603da12a71e39d5ddba4", "is_disabled": 0, "rental_uris": {"android": "https://dc.lft.to/lastmile_qr_scan", "ios": "https://dc.lft.to/lastmile_qr_scan"}, "fusion_lon": 0.0, "lat": 38.935859666666666, "bike_id": "25655656908d603da12a71e39d5ddba4", "type": "electric_scooter", "is_reserved": 0, "lon": -77.0335645}, {"fusion_lat": 0.0, "name": "73f5864a3f89f1cd6b248ace8ae68b46", "is_disabled": 0, "rental_uris": {"android": "https://dc.lft.to/lastmile_qr_scan", "ios": "https://dc.lft.to/lastmile_qr_scan"}, "fusion_lon": 0.0, "lat": 38.99760966666667, "bike_id": "73f5864a3f89f1cd6b248ace8ae68b46", "type": "electric_bike", "is_reserved": 0, "lon": -77.02687416666667}, {"fusion_lat": 0.0, "name": "97ae371bb525cd3c4c220280bfc358ef", "is_disabled": 0, "rental_uris": {"android": "https://dc.lft.to/lastmile_qr_scan", "ios": "https://dc.lft.to/lastmile_qr_scan"}, "fusion_lon": 0.0, "lat": 38.9289135, "bike_id": "97ae371bb525cd3c4c220280bfc358ef", "type": "electric_scooter", "is_reserved": 0, "lon": -77.03352266666667}, {"fusion_lat": 0.0, "name": "4b40dc0feb79ee8cddf1a480e4a90394", "is_disabled": 0, "rental_uris": {"android": "https://dc.lft.to/lastmile_qr_scan", "ios": "https://dc.lft.to/lastmile_qr_scan"}, "fusion_lon": 0.0, "lat": 38.92290083333333, "bike_id": "4b40dc0feb79ee8cddf1a480e4a90394", "type": "electric_scooter", "is_reserved": 0, "lon": -77.0234155}, {"fusion_lat": 0.0, "name": "70108630156602e6701e1ebb77c0e15e", "is_disabled": 0, "rental_uris": {"android": "https://dc.lft.to/lastmile_qr_scan", "ios": "https://dc.lft.to/lastmile_qr_scan"}, "fusion_lon": 0.0, "lat": 38.928766833333334, "bike_id": "70108630156602e6701e1ebb77c0e15e", "type": "electric_scooter", "is_reserved": 0, "lon": -77.03258066666666}, {"fusion_lat": 0.0, "name": "032d4d3b8bc1afbc4768683824d2ff92", "is_disabled": 0, "rental_uris": {"android": "https://dc.lft.to/lastmile_qr_scan", "ios": "https://dc.lft.to/lastmile_qr_scan"}, "fusion_lon": 0.0, "lat": 38.9023335, "bike_id": "032d4d3b8bc1afbc4768683824d2ff92", "type": "electric_scooter", "is_reserved": 0, "lon": -77.04378666666666}, {"fusion_lat": 0.0, "name": "af8025f92e9f5d8dd06750911e45cd12", "is_disabled": 0, "rental_uris": {"android": "https://dc.lft.to/lastmile_qr_scan", "ios": "https://dc.lft.to/lastmile_qr_scan"}, "fusion_lon": 0.0, "lat": 38.8831705, "bike_id": "af8025f92e9f5d8dd06750911e45cd12", "type": "electric_scooter", "is_reserved": 0, "lon": -77.0137425}, {"fusion_lat": 0.0, "name": "abb42ccfa792361dc81eccdc7d7c513f", "is_disabled": 0, "rental_uris": {"android": "https://dc.lft.to/lastmile_qr_scan", "ios": "https://dc.lft.to/lastmile_qr_scan"}, "fusion_lon": 0.0, "lat": 38.916837, "bike_id": "abb42ccfa792361dc81eccdc7d7c513f", "type": "electric_scooter", "is_reserved": 0, "lon": -77.01580733333333}, {"fusion_lat": 0.0, "name": "018e98bcf28016a4e6be1bb7f1dfb37d", "is_disabled": 0, "rental_uris": {"android": "https://dc.lft.to/lastmile_qr_scan", "ios": "https://dc.lft.to/lastmile_qr_scan"}, "fusion_lon": 0.0, "lat": 38.896536833333336, "bike_id": "018e98bcf28016a4e6be1bb7f1dfb37d", "type": "electric_scooter", "is_reserved": 0, "lon": -77.05126566666667}, {"fusion_lat": 0.0, "name": "9009fe7fb82fb7f19bff00091282fb0d", "is_disabled": 0, "rental_uris": {"android": "https://dc.lft.to/lastmile_qr_scan", "ios": "https://dc.lft.to/lastmile_qr_scan"}, "fusion_lon": 0.0, "lat": 38.90463166666667, "bike_id": "9009fe7fb82fb7f19bff00091282fb0d", "type": "electric_scooter", "is_reserved": 0, "lon": -77.0335015}, {"fusion_lat": 0.0, "name": "fa511d1ea6aa8e7d8428605323158f41", "is_disabled": 0, "rental_uris": {"android": "https://dc.lft.to/lastmile_qr_scan", "ios": "https://dc.lft.to/lastmile_qr_scan"}, "fusion_lon": 0.0, "lat": 38.913578333333334, "bike_id": "fa511d1ea6aa8e7d8428605323158f41", "type": "electric_scooter", "is_reserved": 0, "lon": -77.04880466666667}, {"fusion_lat": 0.0, "name": "bb332b01c2a09f034a8e393b31beac37", "is_disabled": 0, "rental_uris": {"android": "https://dc.lft.to/lastmile_qr_scan", "ios": "https://dc.lft.to/lastmile_qr_scan"}, "fusion_lon": 0.0, "lat": 38.912687166666664, "bike_id": "bb332b01c2a09f034a8e393b31beac37", "type": "electric_scooter", "is_reserved": 0, "lon": -77.0338855}, {"fusion_lat": 0.0, "name": "8df25c6924f0e0e33871b577b9017cce", "is_disabled": 0, "rental_uris": {"android": "https://dc.lft.to/lastmile_qr_scan", "ios": "https://dc.lft.to/lastmile_qr_scan"}, "fusion_lon": 0.0, "lat": 38.9127985, "bike_id": "8df25c6924f0e0e33871b577b9017cce", "type": "electric_scooter", "is_reserved": 0, "lon": -77.04913183333333}, {"fusion_lat": 0.0, "name": "9ecae2fa20081a814bcd1bba1438de8c", "is_disabled": 0, "rental_uris": {"android": "https://dc.lft.to/lastmile_qr_scan", "ios": "https://dc.lft.to/lastmile_qr_scan"}, "fusion_lon": 0.0, "lat": 38.923948833333334, "bike_id": "9ecae2fa20081a814bcd1bba1438de8c", "type": "electric_scooter", "is_reserved": 0, "lon": -77.02416133333334}, {"fusion_lat": 0.0, "name": "921a9e84d33510f03b265f724e81fcf2", "is_disabled": 0, "rental_uris": {"android": "https://dc.lft.to/lastmile_qr_scan", "ios": "https://dc.lft.to/lastmile_qr_scan"}, "fusion_lon": 0.0, "lat": 38.929771, "bike_id": "921a9e84d33510f03b265f724e81fcf2", "type": "electric_scooter", "is_reserved": 0, "lon": -77.02794133333333}, {"fusion_lat": 0.0, "name": "6aeff4374a0da3400807610f1f8c7a4d", "is_disabled": 0, "rental_uris": {"android": "https://dc.lft.to/lastmile_qr_scan", "ios": "https://dc.lft.to/lastmile_qr_scan"}, "fusion_lon": 0.0, "lat": 38.906938333333336, "bike_id": "6aeff4374a0da3400807610f1f8c7a4d", "type": "electric_scooter", "is_reserved": 0, "lon": -77.03105116666667}, {"fusion_lat": 0.0, "name": "5ee76bce2079b33dbc51838c41bd008f", "is_disabled": 0, "rental_uris": {"android": "https://dc.lft.to/lastmile_qr_scan", "ios": "https://dc.lft.to/lastmile_qr_scan"}, "fusion_lon": 0.0, "lat": 38.89752033333333, "bike_id": "5ee76bce2079b33dbc51838c41bd008f", "type": "electric_scooter", "is_reserved": 0, "lon": -77.045368}, {"fusion_lat": 0.0, "name": "5d66c041e4b9ce6c6d9f22666b975577", "is_disabled": 0, "rental_uris": {"android": "https://dc.lft.to/lastmile_qr_scan", "ios": "https://dc.lft.to/lastmile_qr_scan"}, "fusion_lon": 0.0, "lat": 38.9021525, "bike_id": "5d66c041e4b9ce6c6d9f22666b975577", "type": "electric_scooter", "is_reserved": 0, "lon": -77.05111516666666}, {"fusion_lat": 0.0, "name": "b6898e0c56fa8fb03ab2cb8787a84dec", "is_disabled": 0, "rental_uris": {"android": "https://dc.lft.to/lastmile_qr_scan", "ios": "https://dc.lft.to/lastmile_qr_scan"}, "fusion_lon": 0.0, "lat": 38.919605833333335, "bike_id": "b6898e0c56fa8fb03ab2cb8787a84dec", "type": "electric_scooter", "is_reserved": 0, "lon": -77.01777783333333}, {"fusion_lat": 0.0, "name": "ce4e9a2a6dcc7d61b5d1742ecacfb020", "is_disabled": 0, "rental_uris": {"android": "https://dc.lft.to/lastmile_qr_scan", "ios": "https://dc.lft.to/lastmile_qr_scan"}, "fusion_lon": 0.0, "lat": 38.9056805, "bike_id": "ce4e9a2a6dcc7d61b5d1742ecacfb020", "type": "electric_scooter", "is_reserved": 0, "lon": -77.02984666666667}, {"fusion_lat": 0.0, "name": "7a1a83905206d1626346caea77209952", "is_disabled": 0, "rental_uris": {"android": "https://dc.lft.to/lastmile_qr_scan", "ios": "https://dc.lft.to/lastmile_qr_scan"}, "fusion_lon": 0.0, "lat": 38.90548416666667, "bike_id": "7a1a83905206d1626346caea77209952", "type": "electric_scooter", "is_reserved": 0, "lon": -77.031211}, {"fusion_lat": 0.0, "name": "cede53ed228e0ef1d95afda0a1d4dfb5", "is_disabled": 0, "rental_uris": {"android": "https://dc.lft.to/lastmile_qr_scan", "ios": "https://dc.lft.to/lastmile_qr_scan"}, "fusion_lon": 0.0, "lat": 38.84912283333333, "bike_id": "cede53ed228e0ef1d95afda0a1d4dfb5", "type": "electric_bike", "is_reserved": 0, "lon": -77.09978766666667}, {"fusion_lat": 0.0, "name": "f9f48d8079b293376a336dd486a45997", "is_disabled": 0, "rental_uris": {"android": "https://dc.lft.to/lastmile_qr_scan", "ios": "https://dc.lft.to/lastmile_qr_scan"}, "fusion_lon": 0.0, "lat": 38.87688516666667, "bike_id": "f9f48d8079b293376a336dd486a45997", "type": "electric_scooter", "is_reserved": 0, "lon": -77.01757216666667}, {"fusion_lat": 0.0, "name": "a2f264875f7e8f28cd39bd5eacaf2948", "is_disabled": 0, "rental_uris": {"android": "https://dc.lft.to/lastmile_qr_scan", "ios": "https://dc.lft.to/lastmile_qr_scan"}, "fusion_lon": 0.0, "lat": 38.903615333333335, "bike_id": "a2f264875f7e8f28cd39bd5eacaf2948", "type": "electric_scooter", "is_reserved": 0, "lon": -77.06269433333334}, {"fusion_lat": 0.0, "name": "8c29b0843a380dc798277b409c64bbd6", "is_disabled": 0, "rental_uris": {"android": "https://dc.lft.to/lastmile_qr_scan", "ios": "https://dc.lft.to/lastmile_qr_scan"}, "fusion_lon": 0.0, "lat": 38.914251666666665, "bike_id": "8c29b0843a380dc798277b409c64bbd6", "type": "electric_scooter", "is_reserved": 0, "lon": -77.03145516666666}, {"fusion_lat": 0.0, "name": "5f6a88cbe43a2e0bac2fe598fdef3b08", "is_disabled": 0, "rental_uris": {"android": "https://dc.lft.to/lastmile_qr_scan", "ios": "https://dc.lft.to/lastmile_qr_scan"}, "fusion_lon": 0.0, "lat": 38.865095833333335, "bike_id": "5f6a88cbe43a2e0bac2fe598fdef3b08", "type": "electric_scooter", "is_reserved": 0, "lon": -76.99007266666666}, {"fusion_lat": 0.0, "name": "fd1a3b155cf4ff6e22f75e4272ba0e3c", "is_disabled": 0, "rental_uris": {"android": "https://dc.lft.to/lastmile_qr_scan", "ios": "https://dc.lft.to/lastmile_qr_scan"}, "fusion_lon": 0.0, "lat": 38.906518, "bike_id": "fd1a3b155cf4ff6e22f75e4272ba0e3c", "type": "electric_scooter", "is_reserved": 0, "lon": -77.04158716666667}, {"fusion_lat": 0.0, "name": "11ee6e355c863960b226ebf17bc5a936", "is_disabled": 0, "rental_uris": {"android": "https://dc.lft.to/lastmile_qr_scan", "ios": "https://dc.lft.to/lastmile_qr_scan"}, "fusion_lon": 0.0, "lat": 38.928748666666664, "bike_id": "11ee6e355c863960b226ebf17bc5a936", "type": "electric_scooter", "is_reserved": 0, "lon": -77.03479016666667}, {"fusion_lat": 0.0, "name": "17f6c5253c90051419a769735fdc8b89", "is_disabled": 0, "rental_uris": {"android": "https://dc.lft.to/lastmile_qr_scan", "ios": "https://dc.lft.to/lastmile_qr_scan"}, "fusion_lon": 0.0, "lat": 38.91736316666667, "bike_id": "17f6c5253c90051419a769735fdc8b89", "type": "electric_scooter", "is_reserved": 0, "lon": -77.036648}, {"fusion_lat": 0.0, "name": "e89220ce4602dec35b01f6dc7e117e8f", "is_disabled": 0, "rental_uris": {"android": "https://dc.lft.to/lastmile_qr_scan", "ios": "https://dc.lft.to/lastmile_qr_scan"}, "fusion_lon": 0.0, "lat": 38.9387585, "bike_id": "e89220ce4602dec35b01f6dc7e117e8f", "type": "electric_scooter", "is_reserved": 0, "lon": -77.024669}, {"fusion_lat": 0.0, "name": "7df310622c949efd8d4be9663b4308d5", "is_disabled": 0, "rental_uris": {"android": "https://dc.lft.to/lastmile_qr_scan", "ios": "https://dc.lft.to/lastmile_qr_scan"}, "fusion_lon": 0.0, "lat": 38.865261, "bike_id": "7df310622c949efd8d4be9663b4308d5", "type": "electric_bike", "is_reserved": 0, "lon": -76.97338016666667}, {"fusion_lat": 0.0, "name": "f872e6df79b90f62104769ba2c6baa9b", "is_disabled": 0, "rental_uris": {"android": "https://dc.lft.to/lastmile_qr_scan", "ios": "https://dc.lft.to/lastmile_qr_scan"}, "fusion_lon": 0.0, "lat": 38.893457833333336, "bike_id": "f872e6df79b90f62104769ba2c6baa9b", "type": "electric_scooter", "is_reserved": 0, "lon": -76.99377816666667}, {"fusion_lat": 0.0, "name": "b4650302774e5abc0cad51d9408add03", "is_disabled": 0, "rental_uris": {"android": "https://dc.lft.to/lastmile_qr_scan", "ios": "https://dc.lft.to/lastmile_qr_scan"}, "fusion_lon": 0.0, "lat": 38.9343375, "bike_id": "b4650302774e5abc0cad51d9408add03", "type": "electric_scooter", "is_reserved": 0, "lon": -77.0344755}, {"fusion_lat": 0.0, "name": "708de23bc19e2d0e60f63feecb353cc2", "is_disabled": 0, "rental_uris": {"android": "https://dc.lft.to/lastmile_qr_scan", "ios": "https://dc.lft.to/lastmile_qr_scan"}, "fusion_lon": 0.0, "lat": 38.91957566666667, "bike_id": "708de23bc19e2d0e60f63feecb353cc2", "type": "electric_bike", "is_reserved": 0, "lon": -77.1010895}, {"fusion_lat": 0.0, "name": "560a2c1dfd69322786a647f9115004df", "is_disabled": 0, "rental_uris": {"android": "https://dc.lft.to/lastmile_qr_scan", "ios": "https://dc.lft.to/lastmile_qr_scan"}, "fusion_lon": 0.0, "lat": 38.90674533333333, "bike_id": "560a2c1dfd69322786a647f9115004df", "type": "electric_scooter", "is_reserved": 0, "lon": -77.02693083333334}, {"fusion_lat": 0.0, "name": "053459d0778896dfaacb0978fff1319d", "is_disabled": 0, "rental_uris": {"android": "https://dc.lft.to/lastmile_qr_scan", "ios": "https://dc.lft.to/lastmile_qr_scan"}, "fusion_lon": 0.0, "lat": 38.922438666666665, "bike_id": "053459d0778896dfaacb0978fff1319d", "type": "electric_scooter", "is_reserved": 0, "lon": -76.98392266666667}, {"fusion_lat": 0.0, "name": "faf3be5adc01934daff65fc2c15bd6d3", "is_disabled": 0, "rental_uris": {"android": "https://dc.lft.to/lastmile_qr_scan", "ios": "https://dc.lft.to/lastmile_qr_scan"}, "fusion_lon": 0.0, "lat": 38.914878, "bike_id": "faf3be5adc01934daff65fc2c15bd6d3", "type": "electric_scooter", "is_reserved": 0, "lon": -77.01229133333334}, {"fusion_lat": 0.0, "name": "1c61e1a8f04c0340c10f484605c34f01", "is_disabled": 0, "rental_uris": {"android": "https://dc.lft.to/lastmile_qr_scan", "ios": "https://dc.lft.to/lastmile_qr_scan"}, "fusion_lon": 0.0, "lat": 38.89737016666667, "bike_id": "1c61e1a8f04c0340c10f484605c34f01", "type": "electric_scooter", "is_reserved": 0, "lon": -77.04632533333333}, {"fusion_lat": 0.0, "name": "854a494dd3fdb8c115048e708ec59eb4", "is_disabled": 0, "rental_uris": {"android": "https://dc.lft.to/lastmile_qr_scan", "ios": "https://dc.lft.to/lastmile_qr_scan"}, "fusion_lon": 0.0, "lat": 38.91126466666667, "bike_id": "854a494dd3fdb8c115048e708ec59eb4", "type": "electric_scooter", "is_reserved": 0, "lon": -77.00928416666666}, {"fusion_lat": 0.0, "name": "fae78bcb77f84386fbf721c8c04c2e3f", "is_disabled": 0, "rental_uris": {"android": "https://dc.lft.to/lastmile_qr_scan", "ios": "https://dc.lft.to/lastmile_qr_scan"}, "fusion_lon": 0.0, "lat": 38.921375166666664, "bike_id": "fae78bcb77f84386fbf721c8c04c2e3f", "type": "electric_scooter", "is_reserved": 0, "lon": -77.01798716666667}, {"fusion_lat": 0.0, "name": "fb95178db42bf79b7b2bafda8271e551", "is_disabled": 0, "rental_uris": {"android": "https://dc.lft.to/lastmile_qr_scan", "ios": "https://dc.lft.to/lastmile_qr_scan"}, "fusion_lon": 0.0, "lat": 38.876448, "bike_id": "fb95178db42bf79b7b2bafda8271e551", "type": "electric_scooter", "is_reserved": 0, "lon": -77.001083}, {"fusion_lat": 0.0, "name": "9c148d3b7f5898d3415f0a1b87b14a8f", "is_disabled": 0, "rental_uris": {"android": "https://dc.lft.to/lastmile_qr_scan", "ios": "https://dc.lft.to/lastmile_qr_scan"}, "fusion_lon": 0.0, "lat": 38.907980333333334, "bike_id": "9c148d3b7f5898d3415f0a1b87b14a8f", "type": "electric_scooter", "is_reserved": 0, "lon": -77.04349433333333}, {"fusion_lat": 0.0, "name": "63f09aad44e714ece22df41a2b6e1b3d", "is_disabled": 0, "rental_uris": {"android": "https://dc.lft.to/lastmile_qr_scan", "ios": "https://dc.lft.to/lastmile_qr_scan"}, "fusion_lon": 0.0, "lat": 38.908691833333336, "bike_id": "63f09aad44e714ece22df41a2b6e1b3d", "type": "electric_scooter", "is_reserved": 0, "lon": -77.00932916666666}, {"fusion_lat": 0.0, "name": "c73500cab2d2262eab928e6ac71edabc", "is_disabled": 0, "rental_uris": {"android": "https://dc.lft.to/lastmile_qr_scan", "ios": "https://dc.lft.to/lastmile_qr_scan"}, "fusion_lon": 0.0, "lat": 38.91711983333333, "bike_id": "c73500cab2d2262eab928e6ac71edabc", "type": "electric_scooter", "is_reserved": 0, "lon": -77.04039916666666}, {"fusion_lat": 0.0, "name": "f18790f7843fee5cb6ce65d264dfffcb", "is_disabled": 0, "rental_uris": {"android": "https://dc.lft.to/lastmile_qr_scan", "ios": "https://dc.lft.to/lastmile_qr_scan"}, "fusion_lon": 0.0, "lat": 38.89304466666667, "bike_id": "f18790f7843fee5cb6ce65d264dfffcb", "type": "electric_scooter", "is_reserved": 0, "lon": -77.04658233333333}, {"fusion_lat": 0.0, "name": "ca7152380fa6ccb91f8d4be64fd6f84e", "is_disabled": 0, "rental_uris": {"android": "https://dc.lft.to/lastmile_qr_scan", "ios": "https://dc.lft.to/lastmile_qr_scan"}, "fusion_lon": 0.0, "lat": 38.931176, "bike_id": "ca7152380fa6ccb91f8d4be64fd6f84e", "type": "electric_scooter", "is_reserved": 0, "lon": -77.03640633333333}, {"fusion_lat": 0.0, "name": "56be89e942a6cd231071c93d229ea5b5", "is_disabled": 0, "rental_uris": {"android": "https://dc.lft.to/lastmile_qr_scan", "ios": "https://dc.lft.to/lastmile_qr_scan"}, "fusion_lon": 0.0, "lat": 38.92903166666667, "bike_id": "56be89e942a6cd231071c93d229ea5b5", "type": "electric_scooter", "is_reserved": 0, "lon": -77.03747933333334}, {"fusion_lat": 0.0, "name": "cb0842db6e4f8a5a2882ef2b7f4ad54a", "is_disabled": 0, "rental_uris": {"android": "https://dc.lft.to/lastmile_qr_scan", "ios": "https://dc.lft.to/lastmile_qr_scan"}, "fusion_lon": 0.0, "lat": 38.917798833333336, "bike_id": "cb0842db6e4f8a5a2882ef2b7f4ad54a", "type": "electric_scooter", "is_reserved": 0, "lon": -77.04348033333333}, {"fusion_lat": 0.0, "name": "374a1cc47ebb4319de615c43434f21bc", "is_disabled": 0, "rental_uris": {"android": "https://dc.lft.to/lastmile_qr_scan", "ios": "https://dc.lft.to/lastmile_qr_scan"}, "fusion_lon": 0.0, "lat": 38.9357885, "bike_id": "374a1cc47ebb4319de615c43434f21bc", "type": "electric_scooter", "is_reserved": 0, "lon": -77.01924516666666}, {"fusion_lat": 0.0, "name": "54f8309127461075d75f06aa924fbd72", "is_disabled": 0, "rental_uris": {"android": "https://dc.lft.to/lastmile_qr_scan", "ios": "https://dc.lft.to/lastmile_qr_scan"}, "fusion_lon": 0.0, "lat": 38.894717666666665, "bike_id": "54f8309127461075d75f06aa924fbd72", "type": "electric_scooter", "is_reserved": 0, "lon": -77.01029333333334}, {"fusion_lat": 0.0, "name": "be0b4f6d06540c33084333b1b6b0f9dc", "is_disabled": 0, "rental_uris": {"android": "https://dc.lft.to/lastmile_qr_scan", "ios": "https://dc.lft.to/lastmile_qr_scan"}, "fusion_lon": 0.0, "lat": 38.91453683333334, "bike_id": "be0b4f6d06540c33084333b1b6b0f9dc", "type": "electric_scooter", "is_reserved": 0, "lon": -77.01277916666666}, {"fusion_lat": 0.0, "name": "e4ebaa8f2d358003357950ad310db090", "is_disabled": 0, "rental_uris": {"android": "https://dc.lft.to/lastmile_qr_scan", "ios": "https://dc.lft.to/lastmile_qr_scan"}, "fusion_lon": 0.0, "lat": 38.89850966666667, "bike_id": "e4ebaa8f2d358003357950ad310db090", "type": "electric_scooter", "is_reserved": 0, "lon": -76.99030666666667}, {"fusion_lat": 0.0, "name": "d263ae2c8a047e8b3843cff6237eff19", "is_disabled": 0, "rental_uris": {"android": "https://dc.lft.to/lastmile_qr_scan", "ios": "https://dc.lft.to/lastmile_qr_scan"}, "fusion_lon": 0.0, "lat": 38.88337283333333, "bike_id": "d263ae2c8a047e8b3843cff6237eff19", "type": "electric_scooter", "is_reserved": 0, "lon": -77.0172175}, {"fusion_lat": 0.0, "name": "0e02e65d4f419e935a3e9b22cbbd9397", "is_disabled": 0, "rental_uris": {"android": "https://dc.lft.to/lastmile_qr_scan", "ios": "https://dc.lft.to/lastmile_qr_scan"}, "fusion_lon": 0.0, "lat": 38.90267516666667, "bike_id": "0e02e65d4f419e935a3e9b22cbbd9397", "type": "electric_scooter", "is_reserved": 0, "lon": -77.0032745}, {"fusion_lat": 0.0, "name": "f43ef56589617928b8d5ed2087a5160b", "is_disabled": 0, "rental_uris": {"android": "https://dc.lft.to/lastmile_qr_scan", "ios": "https://dc.lft.to/lastmile_qr_scan"}, "fusion_lon": 0.0, "lat": 38.918107, "bike_id": "f43ef56589617928b8d5ed2087a5160b", "type": "electric_scooter", "is_reserved": 0, "lon": -77.03720016666666}, {"fusion_lat": 0.0, "name": "21a5efa190e6dd77adc248c24d675932", "is_disabled": 0, "rental_uris": {"android": "https://dc.lft.to/lastmile_qr_scan", "ios": "https://dc.lft.to/lastmile_qr_scan"}, "fusion_lon": 0.0, "lat": 38.914735666666665, "bike_id": "21a5efa190e6dd77adc248c24d675932", "type": "electric_scooter", "is_reserved": 0, "lon": -77.02402133333334}, {"fusion_lat": 0.0, "name": "836d243b73549a3632ad41e827f8d12e", "is_disabled": 0, "rental_uris": {"android": "https://dc.lft.to/lastmile_qr_scan", "ios": "https://dc.lft.to/lastmile_qr_scan"}, "fusion_lon": 0.0, "lat": 38.898743, "bike_id": "836d243b73549a3632ad41e827f8d12e", "type": "electric_scooter", "is_reserved": 0, "lon": -76.93185566666666}, {"fusion_lat": 0.0, "name": "cd0725dbeb26be5b2f553b41170d86ac", "is_disabled": 0, "rental_uris": {"android": "https://dc.lft.to/lastmile_qr_scan", "ios": "https://dc.lft.to/lastmile_qr_scan"}, "fusion_lon": 0.0, "lat": 38.847568, "bike_id": "cd0725dbeb26be5b2f553b41170d86ac", "type": "electric_scooter", "is_reserved": 0, "lon": -76.99497466666666}, {"fusion_lat": 0.0, "name": "8f13296ed450fff49a66dd11456b7024", "is_disabled": 0, "rental_uris": {"android": "https://dc.lft.to/lastmile_qr_scan", "ios": "https://dc.lft.to/lastmile_qr_scan"}, "fusion_lon": 0.0, "lat": 39.05253066666667, "bike_id": "8f13296ed450fff49a66dd11456b7024", "type": "electric_bike", "is_reserved": 0, "lon": -77.08065283333333}, {"fusion_lat": 0.0, "name": "c48f0a86f44fb8d9ecc642d1c4dca535", "is_disabled": 0, "rental_uris": {"android": "https://dc.lft.to/lastmile_qr_scan", "ios": "https://dc.lft.to/lastmile_qr_scan"}, "fusion_lon": 0.0, "lat": 38.93357783333333, "bike_id": "c48f0a86f44fb8d9ecc642d1c4dca535", "type": "electric_scooter", "is_reserved": 0, "lon": -77.02421316666667}, {"fusion_lat": 0.0, "name": "c505b0be5ced19c9243ce38c6615f784", "is_disabled": 0, "rental_uris": {"android": "https://dc.lft.to/lastmile_qr_scan", "ios": "https://dc.lft.to/lastmile_qr_scan"}, "fusion_lon": 0.0, "lat": 38.897130833333335, "bike_id": "c505b0be5ced19c9243ce38c6615f784", "type": "electric_scooter", "is_reserved": 0, "lon": -77.02691633333333}, {"fusion_lat": 0.0, "name": "7e6fdb7e56e2800fefcb47527581738a", "is_disabled": 0, "rental_uris": {"android": "https://dc.lft.to/lastmile_qr_scan", "ios": "https://dc.lft.to/lastmile_qr_scan"}, "fusion_lon": 0.0, "lat": 38.9352345, "bike_id": "7e6fdb7e56e2800fefcb47527581738a", "type": "electric_scooter", "is_reserved": 0, "lon": -77.07256083333333}, {"fusion_lat": 0.0, "name": "c4ba4322e25e112d61b7f6cca9c3a9b8", "is_disabled": 0, "rental_uris": {"android": "https://dc.lft.to/lastmile_qr_scan", "ios": "https://dc.lft.to/lastmile_qr_scan"}, "fusion_lon": 0.0, "lat": 38.897319833333334, "bike_id": "c4ba4322e25e112d61b7f6cca9c3a9b8", "type": "electric_scooter", "is_reserved": 0, "lon": -76.94698133333333}, {"fusion_lat": 0.0, "name": "93212a07f469182786d17de617832cad", "is_disabled": 0, "rental_uris": {"android": "https://dc.lft.to/lastmile_qr_scan", "ios": "https://dc.lft.to/lastmile_qr_scan"}, "fusion_lon": 0.0, "lat": 38.9050085, "bike_id": "93212a07f469182786d17de617832cad", "type": "electric_scooter", "is_reserved": 0, "lon": -77.02958433333333}, {"fusion_lat": 0.0, "name": "539449825038b1f92a4cd14e070aebbd", "is_disabled": 0, "rental_uris": {"android": "https://dc.lft.to/lastmile_qr_scan", "ios": "https://dc.lft.to/lastmile_qr_scan"}, "fusion_lon": 0.0, "lat": 38.8985055, "bike_id": "539449825038b1f92a4cd14e070aebbd", "type": "electric_scooter", "is_reserved": 0, "lon": -76.93177533333333}, {"fusion_lat": 0.0, "name": "d1f7ac1e115df01dc4a7fe9ab78f3684", "is_disabled": 0, "rental_uris": {"android": "https://dc.lft.to/lastmile_qr_scan", "ios": "https://dc.lft.to/lastmile_qr_scan"}, "fusion_lon": 0.0, "lat": 38.904503166666665, "bike_id": "d1f7ac1e115df01dc4a7fe9ab78f3684", "type": "electric_bike", "is_reserved": 0, "lon": -76.97423583333334}, {"fusion_lat": 0.0, "name": "f0cbce0c5262c31e4d439e5602287420", "is_disabled": 0, "rental_uris": {"android": "https://dc.lft.to/lastmile_qr_scan", "ios": "https://dc.lft.to/lastmile_qr_scan"}, "fusion_lon": 0.0, "lat": 38.91039516666667, "bike_id": "f0cbce0c5262c31e4d439e5602287420", "type": "electric_scooter", "is_reserved": 0, "lon": -77.01278616666667}, {"fusion_lat": 0.0, "name": "fb98739210b56c5642bc1bf0ea3a2830", "is_disabled": 0, "rental_uris": {"android": "https://dc.lft.to/lastmile_qr_scan", "ios": "https://dc.lft.to/lastmile_qr_scan"}, "fusion_lon": 0.0, "lat": 38.855650833333335, "bike_id": "fb98739210b56c5642bc1bf0ea3a2830", "type": "electric_bike", "is_reserved": 0, "lon": -77.11314016666667}, {"fusion_lat": 0.0, "name": "dadb5451b3cc8dcc55805c86950b4984", "is_disabled": 0, "rental_uris": {"android": "https://dc.lft.to/lastmile_qr_scan", "ios": "https://dc.lft.to/lastmile_qr_scan"}, "fusion_lon": 0.0, "lat": 38.92421816666667, "bike_id": "dadb5451b3cc8dcc55805c86950b4984", "type": "electric_scooter", "is_reserved": 0, "lon": -77.01955666666667}, {"fusion_lat": 0.0, "name": "eef3f21a896423e2d9bf80326053b4df", "is_disabled": 0, "rental_uris": {"android": "https://dc.lft.to/lastmile_qr_scan", "ios": "https://dc.lft.to/lastmile_qr_scan"}, "fusion_lon": 0.0, "lat": 38.933674, "bike_id": "eef3f21a896423e2d9bf80326053b4df", "type": "electric_scooter", "is_reserved": 0, "lon": -77.02439116666666}, {"fusion_lat": 0.0, "name": "14de647fda7076bfb43ac90a172bfb05", "is_disabled": 0, "rental_uris": {"android": "https://dc.lft.to/lastmile_qr_scan", "ios": "https://dc.lft.to/lastmile_qr_scan"}, "fusion_lon": 0.0, "lat": 38.9132065, "bike_id": "14de647fda7076bfb43ac90a172bfb05", "type": "electric_scooter", "is_reserved": 0, "lon": -77.021351}, {"fusion_lat": 0.0, "name": "fec828243e6b2c71d8f419753a5caa86", "is_disabled": 0, "rental_uris": {"android": "https://dc.lft.to/lastmile_qr_scan", "ios": "https://dc.lft.to/lastmile_qr_scan"}, "fusion_lon": 0.0, "lat": 38.9568775, "bike_id": "fec828243e6b2c71d8f419753a5caa86", "type": "electric_bike", "is_reserved": 0, "lon": -77.0223905}, {"fusion_lat": 0.0, "name": "0c057911d7e10dba3f4d13320640a448", "is_disabled": 0, "rental_uris": {"android": "https://dc.lft.to/lastmile_qr_scan", "ios": "https://dc.lft.to/lastmile_qr_scan"}, "fusion_lon": 0.0, "lat": 38.915627, "bike_id": "0c057911d7e10dba3f4d13320640a448", "type": "electric_scooter", "is_reserved": 0, "lon": -77.03150283333333}, {"fusion_lat": 0.0, "name": "2d02f43cf94ecf8a9a9d3db5c4f7caa5", "is_disabled": 0, "rental_uris": {"android": "https://dc.lft.to/lastmile_qr_scan", "ios": "https://dc.lft.to/lastmile_qr_scan"}, "fusion_lon": 0.0, "lat": 38.9227175, "bike_id": "2d02f43cf94ecf8a9a9d3db5c4f7caa5", "type": "electric_scooter", "is_reserved": 0, "lon": -77.0428285}, {"fusion_lat": 0.0, "name": "6a326d52ece0e7553ea2b134c3e3d698", "is_disabled": 0, "rental_uris": {"android": "https://dc.lft.to/lastmile_qr_scan", "ios": "https://dc.lft.to/lastmile_qr_scan"}, "fusion_lon": 0.0, "lat": 38.879687833333335, "bike_id": "6a326d52ece0e7553ea2b134c3e3d698", "type": "electric_bike", "is_reserved": 0, "lon": -76.91613266666667}, {"fusion_lat": 0.0, "name": "ae7a7c0550c88e3d053ce9e47ba67953", "is_disabled": 0, "rental_uris": {"android": "https://dc.lft.to/lastmile_qr_scan", "ios": "https://dc.lft.to/lastmile_qr_scan"}, "fusion_lon": 0.0, "lat": 38.90323333333333, "bike_id": "ae7a7c0550c88e3d053ce9e47ba67953", "type": "electric_scooter", "is_reserved": 0, "lon": -76.98152433333334}, {"fusion_lat": 0.0, "name": "bc738052e7b4463c99f32d737a720c38", "is_disabled": 0, "rental_uris": {"android": "https://dc.lft.to/lastmile_qr_scan", "ios": "https://dc.lft.to/lastmile_qr_scan"}, "fusion_lon": 0.0, "lat": 38.907301333333336, "bike_id": "bc738052e7b4463c99f32d737a720c38", "type": "electric_scooter", "is_reserved": 0, "lon": -77.0294625}, {"fusion_lat": 0.0, "name": "afddfc02402923f31874c0c036069a77", "is_disabled": 0, "rental_uris": {"android": "https://dc.lft.to/lastmile_qr_scan", "ios": "https://dc.lft.to/lastmile_qr_scan"}, "fusion_lon": 0.0, "lat": 38.9341745, "bike_id": "afddfc02402923f31874c0c036069a77", "type": "electric_scooter", "is_reserved": 0, "lon": -77.04278883333333}, {"fusion_lat": 0.0, "name": "8b86a30e5fd9376c81dda1768715c8ab", "is_disabled": 0, "rental_uris": {"android": "https://dc.lft.to/lastmile_qr_scan", "ios": "https://dc.lft.to/lastmile_qr_scan"}, "fusion_lon": 0.0, "lat": 38.9030665, "bike_id": "8b86a30e5fd9376c81dda1768715c8ab", "type": "electric_scooter", "is_reserved": 0, "lon": -76.97504916666666}, {"fusion_lat": 0.0, "name": "1d22a9fed991b547a38373db4e3b8db0", "is_disabled": 0, "rental_uris": {"android": "https://dc.lft.to/lastmile_qr_scan", "ios": "https://dc.lft.to/lastmile_qr_scan"}, "fusion_lon": 0.0, "lat": 38.905232833333336, "bike_id": "1d22a9fed991b547a38373db4e3b8db0", "type": "electric_scooter", "is_reserved": 0, "lon": -77.064275}, {"fusion_lat": 0.0, "name": "353bdc927cc778a39d9ee30c01edd126", "is_disabled": 0, "rental_uris": {"android": "https://dc.lft.to/lastmile_qr_scan", "ios": "https://dc.lft.to/lastmile_qr_scan"}, "fusion_lon": 0.0, "lat": 38.9326605, "bike_id": "353bdc927cc778a39d9ee30c01edd126", "type": "electric_scooter", "is_reserved": 0, "lon": -77.01907583333333}, {"fusion_lat": 0.0, "name": "c24d01be7b8e131fa1fdabda001110e0", "is_disabled": 0, "rental_uris": {"android": "https://dc.lft.to/lastmile_qr_scan", "ios": "https://dc.lft.to/lastmile_qr_scan"}, "fusion_lon": 0.0, "lat": 38.9208875, "bike_id": "c24d01be7b8e131fa1fdabda001110e0", "type": "electric_scooter", "is_reserved": 0, "lon": -77.018116}, {"fusion_lat": 0.0, "name": "99b52a8fd229503f4c5823dde70ae325", "is_disabled": 0, "rental_uris": {"android": "https://dc.lft.to/lastmile_qr_scan", "ios": "https://dc.lft.to/lastmile_qr_scan"}, "fusion_lon": 0.0, "lat": 38.92484283333334, "bike_id": "99b52a8fd229503f4c5823dde70ae325", "type": "electric_bike", "is_reserved": 0, "lon": -77.23335066666667}, {"fusion_lat": 0.0, "name": "9922c6d6ab305a5899e9301f6291627e", "is_disabled": 0, "rental_uris": {"android": "https://dc.lft.to/lastmile_qr_scan", "ios": "https://dc.lft.to/lastmile_qr_scan"}, "fusion_lon": 0.0, "lat": 38.896697, "bike_id": "9922c6d6ab305a5899e9301f6291627e", "type": "electric_scooter", "is_reserved": 0, "lon": -76.93210533333334}, {"fusion_lat": 0.0, "name": "e3692ae93371fd5e6426aae916418578", "is_disabled": 0, "rental_uris": {"android": "https://dc.lft.to/lastmile_qr_scan", "ios": "https://dc.lft.to/lastmile_qr_scan"}, "fusion_lon": 0.0, "lat": 38.909365333333334, "bike_id": "e3692ae93371fd5e6426aae916418578", "type": "electric_scooter", "is_reserved": 0, "lon": -77.0626895}, {"fusion_lat": 0.0, "name": "068a23dfafdf5809290b078a4f09d526", "is_disabled": 0, "rental_uris": {"android": "https://dc.lft.to/lastmile_qr_scan", "ios": "https://dc.lft.to/lastmile_qr_scan"}, "fusion_lon": 0.0, "lat": 38.93966116666667, "bike_id": "068a23dfafdf5809290b078a4f09d526", "type": "electric_scooter", "is_reserved": 0, "lon": -77.03287066666667}, {"fusion_lat": 0.0, "name": "362204ae7510ff1739f8863690384faf", "is_disabled": 0, "rental_uris": {"android": "https://dc.lft.to/lastmile_qr_scan", "ios": "https://dc.lft.to/lastmile_qr_scan"}, "fusion_lon": 0.0, "lat": 38.912804333333334, "bike_id": "362204ae7510ff1739f8863690384faf", "type": "electric_scooter", "is_reserved": 0, "lon": -77.01607766666666}, {"fusion_lat": 0.0, "name": "ee5e9e2acd80297ed7e260b6d7b2c335", "is_disabled": 0, "rental_uris": {"android": "https://dc.lft.to/lastmile_qr_scan", "ios": "https://dc.lft.to/lastmile_qr_scan"}, "fusion_lon": 0.0, "lat": 38.93491233333334, "bike_id": "ee5e9e2acd80297ed7e260b6d7b2c335", "type": "electric_scooter", "is_reserved": 0, "lon": -77.045323}, {"fusion_lat": 0.0, "name": "852dda7238cce11db1491419cad0e6d9", "is_disabled": 0, "rental_uris": {"android": "https://dc.lft.to/lastmile_qr_scan", "ios": "https://dc.lft.to/lastmile_qr_scan"}, "fusion_lon": 0.0, "lat": 38.915226833333335, "bike_id": "852dda7238cce11db1491419cad0e6d9", "type": "electric_scooter", "is_reserved": 0, "lon": -77.07271983333334}, {"fusion_lat": 0.0, "name": "5ad16bb9a8b7a3dc282e15472682a165", "is_disabled": 0, "rental_uris": {"android": "https://dc.lft.to/lastmile_qr_scan", "ios": "https://dc.lft.to/lastmile_qr_scan"}, "fusion_lon": 0.0, "lat": 38.896080166666664, "bike_id": "5ad16bb9a8b7a3dc282e15472682a165", "type": "electric_scooter", "is_reserved": 0, "lon": -77.04973566666666}, {"fusion_lat": 0.0, "name": "aee4d76f79b8272f7acb8f420b97e981", "is_disabled": 0, "rental_uris": {"android": "https://dc.lft.to/lastmile_qr_scan", "ios": "https://dc.lft.to/lastmile_qr_scan"}, "fusion_lon": 0.0, "lat": 38.90418283333333, "bike_id": "aee4d76f79b8272f7acb8f420b97e981", "type": "electric_scooter", "is_reserved": 0, "lon": -77.05038466666667}, {"fusion_lat": 0.0, "name": "24ac78b8b0f248b0d7afbfc990920d1b", "is_disabled": 0, "rental_uris": {"android": "https://dc.lft.to/lastmile_qr_scan", "ios": "https://dc.lft.to/lastmile_qr_scan"}, "fusion_lon": 0.0, "lat": 38.923875333333335, "bike_id": "24ac78b8b0f248b0d7afbfc990920d1b", "type": "electric_scooter", "is_reserved": 0, "lon": -77.03056666666667}, {"fusion_lat": 0.0, "name": "0324626a2c9bbd770bd9e305c15d3f62", "is_disabled": 0, "rental_uris": {"android": "https://dc.lft.to/lastmile_qr_scan", "ios": "https://dc.lft.to/lastmile_qr_scan"}, "fusion_lon": 0.0, "lat": 38.899942833333334, "bike_id": "0324626a2c9bbd770bd9e305c15d3f62", "type": "electric_scooter", "is_reserved": 0, "lon": -77.02168816666666}, {"fusion_lat": 0.0, "name": "911895972aa99d4f0bf566e47e630f3f", "is_disabled": 0, "rental_uris": {"android": "https://dc.lft.to/lastmile_qr_scan", "ios": "https://dc.lft.to/lastmile_qr_scan"}, "fusion_lon": 0.0, "lat": 38.88533183333333, "bike_id": "911895972aa99d4f0bf566e47e630f3f", "type": "electric_scooter", "is_reserved": 0, "lon": -76.92904666666666}, {"fusion_lat": 0.0, "name": "533560f819216334bbec4d10d72943cf", "is_disabled": 0, "rental_uris": {"android": "https://dc.lft.to/lastmile_qr_scan", "ios": "https://dc.lft.to/lastmile_qr_scan"}, "fusion_lon": 0.0, "lat": 38.96317883333333, "bike_id": "533560f819216334bbec4d10d72943cf", "type": "electric_scooter", "is_reserved": 0, "lon": -77.07486566666667}, {"fusion_lat": 0.0, "name": "1be41148de613fcf953f5365937dc37a", "is_disabled": 0, "rental_uris": {"android": "https://dc.lft.to/lastmile_qr_scan", "ios": "https://dc.lft.to/lastmile_qr_scan"}, "fusion_lon": 0.0, "lat": 38.93095016666667, "bike_id": "1be41148de613fcf953f5365937dc37a", "type": "electric_scooter", "is_reserved": 0, "lon": -77.025528}, {"fusion_lat": 0.0, "name": "8f01e0dbf376fca8a55d36b48c20ac46", "is_disabled": 0, "rental_uris": {"android": "https://dc.lft.to/lastmile_qr_scan", "ios": "https://dc.lft.to/lastmile_qr_scan"}, "fusion_lon": 0.0, "lat": 38.935316666666665, "bike_id": "8f01e0dbf376fca8a55d36b48c20ac46", "type": "electric_scooter", "is_reserved": 0, "lon": -77.0235315}, {"fusion_lat": 0.0, "name": "7c441e32c6b747e08b80a6a83daa834a", "is_disabled": 0, "rental_uris": {"android": "https://dc.lft.to/lastmile_qr_scan", "ios": "https://dc.lft.to/lastmile_qr_scan"}, "fusion_lon": 0.0, "lat": 38.91402816666667, "bike_id": "7c441e32c6b747e08b80a6a83daa834a", "type": "electric_scooter", "is_reserved": 0, "lon": -77.01667066666667}, {"fusion_lat": 0.0, "name": "a0f58b798c21fe3b80a563ac0493d7a4", "is_disabled": 0, "rental_uris": {"android": "https://dc.lft.to/lastmile_qr_scan", "ios": "https://dc.lft.to/lastmile_qr_scan"}, "fusion_lon": 0.0, "lat": 38.899128833333336, "bike_id": "a0f58b798c21fe3b80a563ac0493d7a4", "type": "electric_scooter", "is_reserved": 0, "lon": -76.94583416666667}, {"fusion_lat": 0.0, "name": "0a71e9a4b5a1b3b02260d8a80f8275f8", "is_disabled": 0, "rental_uris": {"android": "https://dc.lft.to/lastmile_qr_scan", "ios": "https://dc.lft.to/lastmile_qr_scan"}, "fusion_lon": 0.0, "lat": 38.87578716666667, "bike_id": "0a71e9a4b5a1b3b02260d8a80f8275f8", "type": "electric_bike", "is_reserved": 0, "lon": -77.23408616666667}, {"fusion_lat": 0.0, "name": "d5230aae8932dd68d768fa2faf0a7e2c", "is_disabled": 0, "rental_uris": {"android": "https://dc.lft.to/lastmile_qr_scan", "ios": "https://dc.lft.to/lastmile_qr_scan"}, "fusion_lon": 0.0, "lat": 38.925755333333335, "bike_id": "d5230aae8932dd68d768fa2faf0a7e2c", "type": "electric_scooter", "is_reserved": 0, "lon": -76.99490983333334}, {"fusion_lat": 0.0, "name": "3eadf651eb31d11694ad773de533adcd", "is_disabled": 0, "rental_uris": {"android": "https://dc.lft.to/lastmile_qr_scan", "ios": "https://dc.lft.to/lastmile_qr_scan"}, "fusion_lon": 0.0, "lat": 38.8872915, "bike_id": "3eadf651eb31d11694ad773de533adcd", "type": "electric_scooter", "is_reserved": 0, "lon": -76.99486483333334}, {"fusion_lat": 0.0, "name": "0b72da1e7f6012c5e75ce78b8fe13ee6", "is_disabled": 0, "rental_uris": {"android": "https://dc.lft.to/lastmile_qr_scan", "ios": "https://dc.lft.to/lastmile_qr_scan"}, "fusion_lon": 0.0, "lat": 38.8990325, "bike_id": "0b72da1e7f6012c5e75ce78b8fe13ee6", "type": "electric_scooter", "is_reserved": 0, "lon": -76.93353433333333}, {"fusion_lat": 0.0, "name": "ee9ea9573f9e1f33ebe3262f081f9e54", "is_disabled": 0, "rental_uris": {"android": "https://dc.lft.to/lastmile_qr_scan", "ios": "https://dc.lft.to/lastmile_qr_scan"}, "fusion_lon": 0.0, "lat": 38.89330116666667, "bike_id": "ee9ea9573f9e1f33ebe3262f081f9e54", "type": "electric_scooter", "is_reserved": 0, "lon": -77.03954366666666}, {"fusion_lat": 0.0, "name": "5c681d8e039c587fe2221a081452e115", "is_disabled": 0, "rental_uris": {"android": "https://dc.lft.to/lastmile_qr_scan", "ios": "https://dc.lft.to/lastmile_qr_scan"}, "fusion_lon": 0.0, "lat": 38.927409, "bike_id": "5c681d8e039c587fe2221a081452e115", "type": "electric_scooter", "is_reserved": 0, "lon": -77.04223516666667}, {"fusion_lat": 0.0, "name": "65f9b3697203ccfffc9269c3ffee7daf", "is_disabled": 0, "rental_uris": {"android": "https://dc.lft.to/lastmile_qr_scan", "ios": "https://dc.lft.to/lastmile_qr_scan"}, "fusion_lon": 0.0, "lat": 38.8968615, "bike_id": "65f9b3697203ccfffc9269c3ffee7daf", "type": "electric_scooter", "is_reserved": 0, "lon": -76.937109}, {"fusion_lat": 0.0, "name": "4824de7503de4bad15cac1d1bfb4097b", "is_disabled": 0, "rental_uris": {"android": "https://dc.lft.to/lastmile_qr_scan", "ios": "https://dc.lft.to/lastmile_qr_scan"}, "fusion_lon": 0.0, "lat": 38.917073, "bike_id": "4824de7503de4bad15cac1d1bfb4097b", "type": "electric_scooter", "is_reserved": 0, "lon": -77.03472383333333}, {"fusion_lat": 0.0, "name": "52fff72b7b74eb438a7f45d637fcb00b", "is_disabled": 0, "rental_uris": {"android": "https://dc.lft.to/lastmile_qr_scan", "ios": "https://dc.lft.to/lastmile_qr_scan"}, "fusion_lon": 0.0, "lat": 38.9271295, "bike_id": "52fff72b7b74eb438a7f45d637fcb00b", "type": "electric_scooter", "is_reserved": 0, "lon": -77.03761866666666}, {"fusion_lat": 0.0, "name": "2806235c8f1347573e63ca089425d74b", "is_disabled": 0, "rental_uris": {"android": "https://dc.lft.to/lastmile_qr_scan", "ios": "https://dc.lft.to/lastmile_qr_scan"}, "fusion_lon": 0.0, "lat": 38.906176, "bike_id": "2806235c8f1347573e63ca089425d74b", "type": "electric_scooter", "is_reserved": 0, "lon": -77.02403666666666}, {"fusion_lat": 0.0, "name": "ea31c7cb582ea093d152d86664b8d9d8", "is_disabled": 0, "rental_uris": {"android": "https://dc.lft.to/lastmile_qr_scan", "ios": "https://dc.lft.to/lastmile_qr_scan"}, "fusion_lon": 0.0, "lat": 38.906069, "bike_id": "ea31c7cb582ea093d152d86664b8d9d8", "type": "electric_scooter", "is_reserved": 0, "lon": -77.008912}, {"fusion_lat": 0.0, "name": "cd4f1bcb556d3d953d11031997c946aa", "is_disabled": 0, "rental_uris": {"android": "https://dc.lft.to/lastmile_qr_scan", "ios": "https://dc.lft.to/lastmile_qr_scan"}, "fusion_lon": 0.0, "lat": 38.884549, "bike_id": "cd4f1bcb556d3d953d11031997c946aa", "type": "electric_scooter", "is_reserved": 0, "lon": -76.99845016666667}, {"fusion_lat": 0.0, "name": "95ea4be162ff316c92f0716d5ddb8fca", "is_disabled": 0, "rental_uris": {"android": "https://dc.lft.to/lastmile_qr_scan", "ios": "https://dc.lft.to/lastmile_qr_scan"}, "fusion_lon": 0.0, "lat": 38.90021766666667, "bike_id": "95ea4be162ff316c92f0716d5ddb8fca", "type": "electric_scooter", "is_reserved": 0, "lon": -77.01215566666667}, {"fusion_lat": 0.0, "name": "4bf984fa5474b22b902a86321f2adfc2", "is_disabled": 0, "rental_uris": {"android": "https://dc.lft.to/lastmile_qr_scan", "ios": "https://dc.lft.to/lastmile_qr_scan"}, "fusion_lon": 0.0, "lat": 38.904423, "bike_id": "4bf984fa5474b22b902a86321f2adfc2", "type": "electric_scooter", "is_reserved": 0, "lon": -77.04347633333333}, {"fusion_lat": 0.0, "name": "7b6fbc88eb0c56207e6538320c6cb706", "is_disabled": 0, "rental_uris": {"android": "https://dc.lft.to/lastmile_qr_scan", "ios": "https://dc.lft.to/lastmile_qr_scan"}, "fusion_lon": 0.0, "lat": 38.90394166666667, "bike_id": "7b6fbc88eb0c56207e6538320c6cb706", "type": "electric_scooter", "is_reserved": 0, "lon": -77.05021066666667}, {"fusion_lat": 0.0, "name": "ebf9eb7c4c295c7b3f628d254fda5fc0", "is_disabled": 0, "rental_uris": {"android": "https://dc.lft.to/lastmile_qr_scan", "ios": "https://dc.lft.to/lastmile_qr_scan"}, "fusion_lon": 0.0, "lat": 38.939305, "bike_id": "ebf9eb7c4c295c7b3f628d254fda5fc0", "type": "electric_scooter", "is_reserved": 0, "lon": -77.07474916666666}, {"fusion_lat": 0.0, "name": "e5916063aac9692503f93a38943231c4", "is_disabled": 0, "rental_uris": {"android": "https://dc.lft.to/lastmile_qr_scan", "ios": "https://dc.lft.to/lastmile_qr_scan"}, "fusion_lon": 0.0, "lat": 38.802987333333334, "bike_id": "e5916063aac9692503f93a38943231c4", "type": "electric_bike", "is_reserved": 0, "lon": -77.05936683333333}, {"fusion_lat": 0.0, "name": "3e22f996edee1bb871a7cf373764fd00", "is_disabled": 0, "rental_uris": {"android": "https://dc.lft.to/lastmile_qr_scan", "ios": "https://dc.lft.to/lastmile_qr_scan"}, "fusion_lon": 0.0, "lat": 38.96122666666667, "bike_id": "3e22f996edee1bb871a7cf373764fd00", "type": "electric_bike", "is_reserved": 0, "lon": -77.032757}, {"fusion_lat": 0.0, "name": "510520d72106be6986899ed348ffac3f", "is_disabled": 0, "rental_uris": {"android": "https://dc.lft.to/lastmile_qr_scan", "ios": "https://dc.lft.to/lastmile_qr_scan"}, "fusion_lon": 0.0, "lat": 38.992194, "bike_id": "510520d72106be6986899ed348ffac3f", "type": "electric_bike", "is_reserved": 0, "lon": -76.94432683333334}, {"fusion_lat": 0.0, "name": "3bbe39734325868367483cff16267350", "is_disabled": 0, "rental_uris": {"android": "https://dc.lft.to/lastmile_qr_scan", "ios": "https://dc.lft.to/lastmile_qr_scan"}, "fusion_lon": 0.0, "lat": 38.9274245, "bike_id": "3bbe39734325868367483cff16267350", "type": "electric_bike", "is_reserved": 0, "lon": -77.02489966666667}, {"fusion_lat": 0.0, "name": "f57b198fe3a97be4f484da51ed391350", "is_disabled": 0, "rental_uris": {"android": "https://dc.lft.to/lastmile_qr_scan", "ios": "https://dc.lft.to/lastmile_qr_scan"}, "fusion_lon": 0.0, "lat": 38.88501183333333, "bike_id": "f57b198fe3a97be4f484da51ed391350", "type": "electric_scooter", "is_reserved": 0, "lon": -77.0006035}, {"fusion_lat": 0.0, "name": "8a301abe2d4baf18f423e51b82a11ce3", "is_disabled": 0, "rental_uris": {"android": "https://dc.lft.to/lastmile_qr_scan", "ios": "https://dc.lft.to/lastmile_qr_scan"}, "fusion_lon": 0.0, "lat": 38.95316016666666, "bike_id": "8a301abe2d4baf18f423e51b82a11ce3", "type": "electric_scooter", "is_reserved": 0, "lon": -77.02248216666666}, {"fusion_lat": 0.0, "name": "4096fe0c79acf4d61f3306e6180274bf", "is_disabled": 0, "rental_uris": {"android": "https://dc.lft.to/lastmile_qr_scan", "ios": "https://dc.lft.to/lastmile_qr_scan"}, "fusion_lon": 0.0, "lat": 38.91492483333333, "bike_id": "4096fe0c79acf4d61f3306e6180274bf", "type": "electric_scooter", "is_reserved": 0, "lon": -77.02391366666667}, {"fusion_lat": 0.0, "name": "b2e94c7f48933b2261f96da7efed0478", "is_disabled": 0, "rental_uris": {"android": "https://dc.lft.to/lastmile_qr_scan", "ios": "https://dc.lft.to/lastmile_qr_scan"}, "fusion_lon": 0.0, "lat": 38.93533566666667, "bike_id": "b2e94c7f48933b2261f96da7efed0478", "type": "electric_scooter", "is_reserved": 0, "lon": -77.0235035}, {"fusion_lat": 0.0, "name": "fd20e6d01e5d21538640553b803918b5", "is_disabled": 0, "rental_uris": {"android": "https://dc.lft.to/lastmile_qr_scan", "ios": "https://dc.lft.to/lastmile_qr_scan"}, "fusion_lon": 0.0, "lat": 38.92122583333333, "bike_id": "fd20e6d01e5d21538640553b803918b5", "type": "electric_scooter", "is_reserved": 0, "lon": -77.02074733333333}, {"fusion_lat": 0.0, "name": "146e3ff0c759d0d961d5812074d4760c", "is_disabled": 0, "rental_uris": {"android": "https://dc.lft.to/lastmile_qr_scan", "ios": "https://dc.lft.to/lastmile_qr_scan"}, "fusion_lon": 0.0, "lat": 38.92424283333333, "bike_id": "146e3ff0c759d0d961d5812074d4760c", "type": "electric_bike", "is_reserved": 0, "lon": -77.05040583333333}, {"fusion_lat": 0.0, "name": "c53537b4859a197c86c5eb7954d9609a", "is_disabled": 0, "rental_uris": {"android": "https://dc.lft.to/lastmile_qr_scan", "ios": "https://dc.lft.to/lastmile_qr_scan"}, "fusion_lon": 0.0, "lat": 38.9302645, "bike_id": "c53537b4859a197c86c5eb7954d9609a", "type": "electric_scooter", "is_reserved": 0, "lon": -77.03779566666667}, {"fusion_lat": 0.0, "name": "6f50948d03c3b96bafc9947ac9db9762", "is_disabled": 0, "rental_uris": {"android": "https://dc.lft.to/lastmile_qr_scan", "ios": "https://dc.lft.to/lastmile_qr_scan"}, "fusion_lon": 0.0, "lat": 38.915244666666666, "bike_id": "6f50948d03c3b96bafc9947ac9db9762", "type": "electric_scooter", "is_reserved": 0, "lon": -77.01323016666667}, {"fusion_lat": 0.0, "name": "eca6efddc0b054aa85eb419ee91e8a36", "is_disabled": 0, "rental_uris": {"android": "https://dc.lft.to/lastmile_qr_scan", "ios": "https://dc.lft.to/lastmile_qr_scan"}, "fusion_lon": 0.0, "lat": 38.935877166666664, "bike_id": "eca6efddc0b054aa85eb419ee91e8a36", "type": "electric_scooter", "is_reserved": 0, "lon": -77.02367783333334}, {"fusion_lat": 0.0, "name": "d5a2a4890f4853b88e393f1f5fd0ecb4", "is_disabled": 0, "rental_uris": {"android": "https://dc.lft.to/lastmile_qr_scan", "ios": "https://dc.lft.to/lastmile_qr_scan"}, "fusion_lon": 0.0, "lat": 38.94023466666667, "bike_id": "d5a2a4890f4853b88e393f1f5fd0ecb4", "type": "electric_scooter", "is_reserved": 0, "lon": -77.0277765}, {"fusion_lat": 0.0, "name": "d25773a43b81de2580949fd1dea4019a", "is_disabled": 0, "rental_uris": {"android": "https://dc.lft.to/lastmile_qr_scan", "ios": "https://dc.lft.to/lastmile_qr_scan"}, "fusion_lon": 0.0, "lat": 38.887546666666665, "bike_id": "d25773a43b81de2580949fd1dea4019a", "type": "electric_scooter", "is_reserved": 0, "lon": -77.001706}, {"fusion_lat": 0.0, "name": "8d8020e443d9136583a6a26a7eff7cae", "is_disabled": 0, "rental_uris": {"android": "https://dc.lft.to/lastmile_qr_scan", "ios": "https://dc.lft.to/lastmile_qr_scan"}, "fusion_lon": 0.0, "lat": 38.910309833333336, "bike_id": "8d8020e443d9136583a6a26a7eff7cae", "type": "electric_scooter", "is_reserved": 0, "lon": -77.00759383333333}, {"fusion_lat": 0.0, "name": "ad3f573ddf841a0f5959b0bcbcdf8666", "is_disabled": 0, "rental_uris": {"android": "https://dc.lft.to/lastmile_qr_scan", "ios": "https://dc.lft.to/lastmile_qr_scan"}, "fusion_lon": 0.0, "lat": 38.876324, "bike_id": "ad3f573ddf841a0f5959b0bcbcdf8666", "type": "electric_scooter", "is_reserved": 0, "lon": -77.01640166666667}, {"fusion_lat": 0.0, "name": "5ec9ea4017a5110e0c018df7857528f3", "is_disabled": 0, "rental_uris": {"android": "https://dc.lft.to/lastmile_qr_scan", "ios": "https://dc.lft.to/lastmile_qr_scan"}, "fusion_lon": 0.0, "lat": 38.916779, "bike_id": "5ec9ea4017a5110e0c018df7857528f3", "type": "electric_scooter", "is_reserved": 0, "lon": -77.02398716666667}, {"fusion_lat": 0.0, "name": "fc13daf6770497b4913632e41b8a3c80", "is_disabled": 0, "rental_uris": {"android": "https://dc.lft.to/lastmile_qr_scan", "ios": "https://dc.lft.to/lastmile_qr_scan"}, "fusion_lon": 0.0, "lat": 38.926127666666666, "bike_id": "fc13daf6770497b4913632e41b8a3c80", "type": "electric_scooter", "is_reserved": 0, "lon": -77.022201}, {"fusion_lat": 0.0, "name": "a593ff526478814c5beb89dde4396960", "is_disabled": 0, "rental_uris": {"android": "https://dc.lft.to/lastmile_qr_scan", "ios": "https://dc.lft.to/lastmile_qr_scan"}, "fusion_lon": 0.0, "lat": 38.911992166666664, "bike_id": "a593ff526478814c5beb89dde4396960", "type": "electric_scooter", "is_reserved": 0, "lon": -77.03857266666667}, {"fusion_lat": 0.0, "name": "410edb52d0ffa81710c0db658fedc2d8", "is_disabled": 0, "rental_uris": {"android": "https://dc.lft.to/lastmile_qr_scan", "ios": "https://dc.lft.to/lastmile_qr_scan"}, "fusion_lon": 0.0, "lat": 38.90774733333333, "bike_id": "410edb52d0ffa81710c0db658fedc2d8", "type": "electric_scooter", "is_reserved": 0, "lon": -77.03520733333333}, {"fusion_lat": 0.0, "name": "923612dfb883124e2e9033b9f1a3e691", "is_disabled": 0, "rental_uris": {"android": "https://dc.lft.to/lastmile_qr_scan", "ios": "https://dc.lft.to/lastmile_qr_scan"}, "fusion_lon": 0.0, "lat": 38.913214333333336, "bike_id": "923612dfb883124e2e9033b9f1a3e691", "type": "electric_scooter", "is_reserved": 0, "lon": -77.047156}, {"fusion_lat": 0.0, "name": "6fdf3571dddbca65cf16e18ea79ded81", "is_disabled": 0, "rental_uris": {"android": "https://dc.lft.to/lastmile_qr_scan", "ios": "https://dc.lft.to/lastmile_qr_scan"}, "fusion_lon": 0.0, "lat": 38.90956083333333, "bike_id": "6fdf3571dddbca65cf16e18ea79ded81", "type": "electric_scooter", "is_reserved": 0, "lon": -77.02386716666666}, {"fusion_lat": 0.0, "name": "0d4afeae49c9f27933b9b50c352fc84a", "is_disabled": 0, "rental_uris": {"android": "https://dc.lft.to/lastmile_qr_scan", "ios": "https://dc.lft.to/lastmile_qr_scan"}, "fusion_lon": 0.0, "lat": 38.921579666666666, "bike_id": "0d4afeae49c9f27933b9b50c352fc84a", "type": "electric_scooter", "is_reserved": 0, "lon": -77.0336165}, {"fusion_lat": 0.0, "name": "366d79572e7649a0995806eeb9b59200", "is_disabled": 0, "rental_uris": {"android": "https://dc.lft.to/lastmile_qr_scan", "ios": "https://dc.lft.to/lastmile_qr_scan"}, "fusion_lon": 0.0, "lat": 38.905778833333336, "bike_id": "366d79572e7649a0995806eeb9b59200", "type": "electric_scooter", "is_reserved": 0, "lon": -77.00727633333334}, {"fusion_lat": 0.0, "name": "6c74600f0b74a119f49d9d3c45c66d07", "is_disabled": 0, "rental_uris": {"android": "https://dc.lft.to/lastmile_qr_scan", "ios": "https://dc.lft.to/lastmile_qr_scan"}, "fusion_lon": 0.0, "lat": 38.907696, "bike_id": "6c74600f0b74a119f49d9d3c45c66d07", "type": "electric_scooter", "is_reserved": 0, "lon": -77.035652}, {"fusion_lat": 0.0, "name": "690050d6d8375f27043ecffb4a92ba45", "is_disabled": 0, "rental_uris": {"android": "https://dc.lft.to/lastmile_qr_scan", "ios": "https://dc.lft.to/lastmile_qr_scan"}, "fusion_lon": 0.0, "lat": 38.92475533333333, "bike_id": "690050d6d8375f27043ecffb4a92ba45", "type": "electric_scooter", "is_reserved": 0, "lon": -77.03006216666667}, {"fusion_lat": 0.0, "name": "cdbbcea615fca173131d177b06d64000", "is_disabled": 0, "rental_uris": {"android": "https://dc.lft.to/lastmile_qr_scan", "ios": "https://dc.lft.to/lastmile_qr_scan"}, "fusion_lon": 0.0, "lat": 38.883282333333334, "bike_id": "cdbbcea615fca173131d177b06d64000", "type": "electric_bike", "is_reserved": 0, "lon": -76.96056583333333}, {"fusion_lat": 0.0, "name": "0a4ba02ca42cf33619bb3314d39be8e7", "is_disabled": 0, "rental_uris": {"android": "https://dc.lft.to/lastmile_qr_scan", "ios": "https://dc.lft.to/lastmile_qr_scan"}, "fusion_lon": 0.0, "lat": 38.897116, "bike_id": "0a4ba02ca42cf33619bb3314d39be8e7", "type": "electric_scooter", "is_reserved": 0, "lon": -77.02289716666667}, {"fusion_lat": 0.0, "name": "411a391b527747296e1c926c30d9533a", "is_disabled": 0, "rental_uris": {"android": "https://dc.lft.to/lastmile_qr_scan", "ios": "https://dc.lft.to/lastmile_qr_scan"}, "fusion_lon": 0.0, "lat": 38.9076745, "bike_id": "411a391b527747296e1c926c30d9533a", "type": "electric_scooter", "is_reserved": 0, "lon": -77.05649766666667}, {"fusion_lat": 0.0, "name": "b01d159695c9ce62c471f50a2248f06f", "is_disabled": 0, "rental_uris": {"android": "https://dc.lft.to/lastmile_qr_scan", "ios": "https://dc.lft.to/lastmile_qr_scan"}, "fusion_lon": 0.0, "lat": 38.885413166666666, "bike_id": "b01d159695c9ce62c471f50a2248f06f", "type": "electric_scooter", "is_reserved": 0, "lon": -77.00052833333334}, {"fusion_lat": 0.0, "name": "26a2677b8e5de308863d5ac36269fddb", "is_disabled": 0, "rental_uris": {"android": "https://dc.lft.to/lastmile_qr_scan", "ios": "https://dc.lft.to/lastmile_qr_scan"}, "fusion_lon": 0.0, "lat": 38.902355, "bike_id": "26a2677b8e5de308863d5ac36269fddb", "type": "electric_scooter", "is_reserved": 0, "lon": -77.03473983333333}, {"fusion_lat": 0.0, "name": "5b0e6c785a09a1d26c3fed930d5eed68", "is_disabled": 0, "rental_uris": {"android": "https://dc.lft.to/lastmile_qr_scan", "ios": "https://dc.lft.to/lastmile_qr_scan"}, "fusion_lon": 0.0, "lat": 38.9396525, "bike_id": "5b0e6c785a09a1d26c3fed930d5eed68", "type": "electric_scooter", "is_reserved": 0, "lon": -77.03287466666667}, {"fusion_lat": 0.0, "name": "bcfa905aadaf550d1d5e28a55694e491", "is_disabled": 0, "rental_uris": {"android": "https://dc.lft.to/lastmile_qr_scan", "ios": "https://dc.lft.to/lastmile_qr_scan"}, "fusion_lon": 0.0, "lat": 38.916357833333336, "bike_id": "bcfa905aadaf550d1d5e28a55694e491", "type": "electric_scooter", "is_reserved": 0, "lon": -77.0010275}, {"fusion_lat": 0.0, "name": "fac20c154837c79527969da7bca53e49", "is_disabled": 0, "rental_uris": {"android": "https://dc.lft.to/lastmile_qr_scan", "ios": "https://dc.lft.to/lastmile_qr_scan"}, "fusion_lon": 0.0, "lat": 38.91758633333333, "bike_id": "fac20c154837c79527969da7bca53e49", "type": "electric_scooter", "is_reserved": 0, "lon": -77.03074416666666}, {"fusion_lat": 0.0, "name": "464ec31edcaada59e84c60a7ee771991", "is_disabled": 0, "rental_uris": {"android": "https://dc.lft.to/lastmile_qr_scan", "ios": "https://dc.lft.to/lastmile_qr_scan"}, "fusion_lon": 0.0, "lat": 38.90551966666666, "bike_id": "464ec31edcaada59e84c60a7ee771991", "type": "electric_scooter", "is_reserved": 0, "lon": -77.04174116666667}, {"fusion_lat": 0.0, "name": "dbf9f68a2294fb73b0b06da4ca05e725", "is_disabled": 0, "rental_uris": {"android": "https://dc.lft.to/lastmile_qr_scan", "ios": "https://dc.lft.to/lastmile_qr_scan"}, "fusion_lon": 0.0, "lat": 38.8960735, "bike_id": "dbf9f68a2294fb73b0b06da4ca05e725", "type": "electric_scooter", "is_reserved": 0, "lon": -77.00929183333334}, {"fusion_lat": 0.0, "name": "bedc4eb95fe958423d15717146b2b54a", "is_disabled": 0, "rental_uris": {"android": "https://dc.lft.to/lastmile_qr_scan", "ios": "https://dc.lft.to/lastmile_qr_scan"}, "fusion_lon": 0.0, "lat": 38.9222645, "bike_id": "bedc4eb95fe958423d15717146b2b54a", "type": "electric_scooter", "is_reserved": 0, "lon": -77.023659}, {"fusion_lat": 0.0, "name": "475bfe5ac48db63b4dbcff831c2f289b", "is_disabled": 0, "rental_uris": {"android": "https://dc.lft.to/lastmile_qr_scan", "ios": "https://dc.lft.to/lastmile_qr_scan"}, "fusion_lon": 0.0, "lat": 38.827951, "bike_id": "475bfe5ac48db63b4dbcff831c2f289b", "type": "electric_bike", "is_reserved": 0, "lon": -77.1248885}, {"fusion_lat": 0.0, "name": "1b0d38a5bb08952d80585ded3036123e", "is_disabled": 0, "rental_uris": {"android": "https://dc.lft.to/lastmile_qr_scan", "ios": "https://dc.lft.to/lastmile_qr_scan"}, "fusion_lon": 0.0, "lat": 38.930742, "bike_id": "1b0d38a5bb08952d80585ded3036123e", "type": "electric_scooter", "is_reserved": 0, "lon": -77.02174416666666}, {"fusion_lat": 0.0, "name": "b6c8b42eb542f8e4d8cd48135d35ae71", "is_disabled": 0, "rental_uris": {"android": "https://dc.lft.to/lastmile_qr_scan", "ios": "https://dc.lft.to/lastmile_qr_scan"}, "fusion_lon": 0.0, "lat": 38.937762, "bike_id": "b6c8b42eb542f8e4d8cd48135d35ae71", "type": "electric_scooter", "is_reserved": 0, "lon": -77.03260416666667}, {"fusion_lat": 0.0, "name": "19a162c756149b5bd38d2e31df7158c4", "is_disabled": 0, "rental_uris": {"android": "https://dc.lft.to/lastmile_qr_scan", "ios": "https://dc.lft.to/lastmile_qr_scan"}, "fusion_lon": 0.0, "lat": 38.897244, "bike_id": "19a162c756149b5bd38d2e31df7158c4", "type": "electric_scooter", "is_reserved": 0, "lon": -77.04634633333333}, {"fusion_lat": 0.0, "name": "24afe1659dd9ff19820875b419f9e312", "is_disabled": 0, "rental_uris": {"android": "https://dc.lft.to/lastmile_qr_scan", "ios": "https://dc.lft.to/lastmile_qr_scan"}, "fusion_lon": 0.0, "lat": 38.91269333333334, "bike_id": "24afe1659dd9ff19820875b419f9e312", "type": "electric_scooter", "is_reserved": 0, "lon": -77.03860316666666}, {"fusion_lat": 0.0, "name": "cea4678d6267cc78caf9d3a64e96e3a8", "is_disabled": 0, "rental_uris": {"android": "https://dc.lft.to/lastmile_qr_scan", "ios": "https://dc.lft.to/lastmile_qr_scan"}, "fusion_lon": 0.0, "lat": 38.911128, "bike_id": "cea4678d6267cc78caf9d3a64e96e3a8", "type": "electric_scooter", "is_reserved": 0, "lon": -77.0813025}, {"fusion_lat": 0.0, "name": "67de38ebceaa63588fed81bb65654dda", "is_disabled": 0, "rental_uris": {"android": "https://dc.lft.to/lastmile_qr_scan", "ios": "https://dc.lft.to/lastmile_qr_scan"}, "fusion_lon": 0.0, "lat": 38.92680266666667, "bike_id": "67de38ebceaa63588fed81bb65654dda", "type": "electric_scooter", "is_reserved": 0, "lon": -77.0308535}, {"fusion_lat": 0.0, "name": "e5300af7f837fc6d9b884a1d13565d4b", "is_disabled": 0, "rental_uris": {"android": "https://dc.lft.to/lastmile_qr_scan", "ios": "https://dc.lft.to/lastmile_qr_scan"}, "fusion_lon": 0.0, "lat": 38.892588833333335, "bike_id": "e5300af7f837fc6d9b884a1d13565d4b", "type": "electric_bike", "is_reserved": 0, "lon": -76.95114983333333}, {"fusion_lat": 0.0, "name": "5e9bffdc2d14da232d514746351d787d", "is_disabled": 0, "rental_uris": {"android": "https://dc.lft.to/lastmile_qr_scan", "ios": "https://dc.lft.to/lastmile_qr_scan"}, "fusion_lon": 0.0, "lat": 38.91917083333333, "bike_id": "5e9bffdc2d14da232d514746351d787d", "type": "electric_scooter", "is_reserved": 0, "lon": -77.02617216666667}, {"fusion_lat": 0.0, "name": "b75620f624ef7ebe81a5cdbbddd43db3", "is_disabled": 0, "rental_uris": {"android": "https://dc.lft.to/lastmile_qr_scan", "ios": "https://dc.lft.to/lastmile_qr_scan"}, "fusion_lon": 0.0, "lat": 38.9297605, "bike_id": "b75620f624ef7ebe81a5cdbbddd43db3", "type": "electric_scooter", "is_reserved": 0, "lon": -77.04191116666667}, {"fusion_lat": 0.0, "name": "8bc3d5d457c2ac1507eaadd58a43f474", "is_disabled": 0, "rental_uris": {"android": "https://dc.lft.to/lastmile_qr_scan", "ios": "https://dc.lft.to/lastmile_qr_scan"}, "fusion_lon": 0.0, "lat": 38.96729716666667, "bike_id": "8bc3d5d457c2ac1507eaadd58a43f474", "type": "electric_scooter", "is_reserved": 0, "lon": -77.00919266666666}, {"fusion_lat": 0.0, "name": "26e2b9acd31443415f1f9d6714330714", "is_disabled": 0, "rental_uris": {"android": "https://dc.lft.to/lastmile_qr_scan", "ios": "https://dc.lft.to/lastmile_qr_scan"}, "fusion_lon": 0.0, "lat": 38.924612333333336, "bike_id": "26e2b9acd31443415f1f9d6714330714", "type": "electric_scooter", "is_reserved": 0, "lon": -77.08022083333333}, {"fusion_lat": 0.0, "name": "815bcc977ac04a158e71ccd4cc06fc20", "is_disabled": 0, "rental_uris": {"android": "https://dc.lft.to/lastmile_qr_scan", "ios": "https://dc.lft.to/lastmile_qr_scan"}, "fusion_lon": 0.0, "lat": 38.903541, "bike_id": "815bcc977ac04a158e71ccd4cc06fc20", "type": "electric_scooter", "is_reserved": 0, "lon": -77.00728266666667}, {"fusion_lat": 0.0, "name": "a97c134e1529c24246aac09456dbe11e", "is_disabled": 0, "rental_uris": {"android": "https://dc.lft.to/lastmile_qr_scan", "ios": "https://dc.lft.to/lastmile_qr_scan"}, "fusion_lon": 0.0, "lat": 38.95243766666667, "bike_id": "a97c134e1529c24246aac09456dbe11e", "type": "electric_scooter", "is_reserved": 0, "lon": -77.023845}, {"fusion_lat": 0.0, "name": "9899efc01666b8a889da4f00cd063804", "is_disabled": 0, "rental_uris": {"android": "https://dc.lft.to/lastmile_qr_scan", "ios": "https://dc.lft.to/lastmile_qr_scan"}, "fusion_lon": 0.0, "lat": 38.905206666666665, "bike_id": "9899efc01666b8a889da4f00cd063804", "type": "electric_scooter", "is_reserved": 0, "lon": -77.06101933333333}, {"fusion_lat": 0.0, "name": "ba7cbc9d57309322f30ab68b87b2714b", "is_disabled": 0, "rental_uris": {"android": "https://dc.lft.to/lastmile_qr_scan", "ios": "https://dc.lft.to/lastmile_qr_scan"}, "fusion_lon": 0.0, "lat": 38.907308, "bike_id": "ba7cbc9d57309322f30ab68b87b2714b", "type": "electric_scooter", "is_reserved": 0, "lon": -77.01088466666667}, {"fusion_lat": 0.0, "name": "b4e9d60997d30f7eb48a94ef29f6a832", "is_disabled": 0, "rental_uris": {"android": "https://dc.lft.to/lastmile_qr_scan", "ios": "https://dc.lft.to/lastmile_qr_scan"}, "fusion_lon": 0.0, "lat": 38.89581483333333, "bike_id": "b4e9d60997d30f7eb48a94ef29f6a832", "type": "electric_scooter", "is_reserved": 0, "lon": -77.029774}, {"fusion_lat": 0.0, "name": "2a5a030d7da3c541f4de6b6a9471e17f", "is_disabled": 0, "rental_uris": {"android": "https://dc.lft.to/lastmile_qr_scan", "ios": "https://dc.lft.to/lastmile_qr_scan"}, "fusion_lon": 0.0, "lat": 38.91362633333333, "bike_id": "2a5a030d7da3c541f4de6b6a9471e17f", "type": "electric_scooter", "is_reserved": 0, "lon": -77.0205335}, {"fusion_lat": 0.0, "name": "365eb489a29d33e1d246a10b62088c90", "is_disabled": 0, "rental_uris": {"android": "https://dc.lft.to/lastmile_qr_scan", "ios": "https://dc.lft.to/lastmile_qr_scan"}, "fusion_lon": 0.0, "lat": 38.885088333333336, "bike_id": "365eb489a29d33e1d246a10b62088c90", "type": "electric_scooter", "is_reserved": 0, "lon": -76.997499}, {"fusion_lat": 0.0, "name": "da255c4610668fd3f804fd5e83babf73", "is_disabled": 0, "rental_uris": {"android": "https://dc.lft.to/lastmile_qr_scan", "ios": "https://dc.lft.to/lastmile_qr_scan"}, "fusion_lon": 0.0, "lat": 38.92370366666667, "bike_id": "da255c4610668fd3f804fd5e83babf73", "type": "electric_scooter", "is_reserved": 0, "lon": -77.03129033333333}, {"fusion_lat": 0.0, "name": "cb93dba2bbe4e09ee1e7babc568bf96f", "is_disabled": 0, "rental_uris": {"android": "https://dc.lft.to/lastmile_qr_scan", "ios": "https://dc.lft.to/lastmile_qr_scan"}, "fusion_lon": 0.0, "lat": 38.89353666666667, "bike_id": "cb93dba2bbe4e09ee1e7babc568bf96f", "type": "electric_scooter", "is_reserved": 0, "lon": -77.00063916666667}, {"fusion_lat": 0.0, "name": "f3042c63a5b1aec698568b59e7bfb362", "is_disabled": 0, "rental_uris": {"android": "https://dc.lft.to/lastmile_qr_scan", "ios": "https://dc.lft.to/lastmile_qr_scan"}, "fusion_lon": 0.0, "lat": 38.9305075, "bike_id": "f3042c63a5b1aec698568b59e7bfb362", "type": "electric_scooter", "is_reserved": 0, "lon": -77.04061183333333}, {"fusion_lat": 0.0, "name": "75f8bca40e8530a3c0de1e2c82f59e97", "is_disabled": 0, "rental_uris": {"android": "https://dc.lft.to/lastmile_qr_scan", "ios": "https://dc.lft.to/lastmile_qr_scan"}, "fusion_lon": 0.0, "lat": 39.01077516666667, "bike_id": "75f8bca40e8530a3c0de1e2c82f59e97", "type": "electric_bike", "is_reserved": 0, "lon": -76.91065566666667}, {"fusion_lat": 0.0, "name": "6eeae284fa310c8533fb008fcc8f0813", "is_disabled": 0, "rental_uris": {"android": "https://dc.lft.to/lastmile_qr_scan", "ios": "https://dc.lft.to/lastmile_qr_scan"}, "fusion_lon": 0.0, "lat": 38.921971, "bike_id": "6eeae284fa310c8533fb008fcc8f0813", "type": "electric_scooter", "is_reserved": 0, "lon": -77.0414175}, {"fusion_lat": 0.0, "name": "9cad0183163754588dbae37d59f05e5d", "is_disabled": 0, "rental_uris": {"android": "https://dc.lft.to/lastmile_qr_scan", "ios": "https://dc.lft.to/lastmile_qr_scan"}, "fusion_lon": 0.0, "lat": 38.89961566666667, "bike_id": "9cad0183163754588dbae37d59f05e5d", "type": "electric_scooter", "is_reserved": 0, "lon": -77.01508333333334},