{"data": {"bikes": [{"fusion_lat": 0.0, "lon": -77.07357983333333, "is_reserved": 0, "bike_id": "053ba5a2f9634a87d7c94c6d73eff881", "fusion_lon": 0.0, "rental_uris": {"android": "https://dc.lft.to/lastmile_qr_scan", "ios": "https://dc.lft.to/lastmile_qr_scan"}, "name": "053ba5a2f9634a87d7c94c6d73eff881", "type": "electric_scooter", "lat": 38.933551, "is_disabled": 0}, {"fusion_lat": 0.0, "lon": -77.04887383333333, "is_reserved": 0, "bike_id": "b8e6648f308d681352ce43a201fb4bce", "fusion_lon": 0.0, "rental_uris": {"android": "https://dc.lft.to/lastmile_qr_scan", "ios": "https://dc.lft.to/lastmile_qr_scan"}, "name": "b8e6648f308d681352ce43a201fb4bce", "type": "electric_scooter", "lat": 38.91565266666667, "is_disabled": 0}, {"fusion_lat": 0.0, "lon": -76.97424516666666, "is_reserved": 0, "bike_id": "e6c261874298b84060eddbb37f17c07a", "fusion_lon": 0.0, "rental_uris": {"android": "https://dc.lft.to/lastmile_qr_scan", "ios": "https://dc.lft.to/lastmile_qr_scan"}, "name": "e6c261874298b84060eddbb37f17c07a", "type": "electric_scooter", "lat": 38.90452666666667, "is_disabled": 0}, {"fusion_lat": 0.0, "lon": -77.080666, "is_reserved": 0, "bike_id": "64eabfb2ca3757c4b6c0175bc25aeec3", "fusion_lon": 0.0, "rental_uris": {"android": "https://dc.lft.to/lastmile_qr_scan", "ios": "https://dc.lft.to/lastmile_qr_scan"}, "name": "64eabfb2ca3757c4b6c0175bc25aeec3", "type": "electric_bike", "lat": 39.0527935, "is_disabled": 0}, {"fusion_lat": 0.0, "lon": -77.03430416666667, "is_reserved": 0, "bike_id": "0632a865082a0628aa593c03c23012e7", "fusion_lon": 0.0, "rental_uris": {"android": "https://dc.lft.to/lastmile_qr_scan", "ios": "https://dc.lft.to/lastmile_qr_scan"}, "name": "0632a865082a0628aa593c03c23012e7", "type": "electric_bike", "lat": 38.966218166666664, "is_disabled": 0}, {"fusion_lat": 0.0, "lon": -76.9748285, "is_reserved": 0, "bike_id": "f826b746e238918de3429f22ea6216de", "fusion_lon": 0.0, "rental_uris": {"android": "https://dc.lft.to/lastmile_qr_scan", "ios": "https://dc.lft.to/lastmile_qr_scan"}, "name": "f826b746e238918de3429f22ea6216de", "type": "electric_scooter", "lat": 38.903494333333335, "is_disabled": 0}, {"fusion_lat": 0.0, "lon": -77.02336733333334, "is_reserved": 0, "bike_id": "43fd06c1c8b4cde24fa15d40727872a4", "fusion_lon": 0.0, "rental_uris": {"android": "https://dc.lft.to/lastmile_qr_scan", "ios": "https://dc.lft.to/lastmile_qr_scan"}, "name": "43fd06c1c8b4cde24fa15d40727872a4", "type": "electric_scooter", "lat": 38.924729666666664, "is_disabled": 0}, {"fusion_lat": 0.0, "lon": -77.04045166666667, "is_reserved": 0, "bike_id": "6feee59ad27ae5e1e8c908e118123404", "fusion_lon": 0.0, "rental_uris": {"android": "https://dc.lft.to/lastmile_qr_scan", "ios": "https://dc.lft.to/lastmile_qr_scan"}, "name": "6feee59ad27ae5e1e8c908e118123404", "type": "electric_scooter", "lat": 38.918596666666666, "is_disabled": 0}, {"fusion_lat": 0.0, "lon": -77.04204233333333, "is_reserved": 0, "bike_id": "e90f902df60eac17be487fe200aaed76", "fusion_lon": 0.0, "rental_uris": {"android": "https://dc.lft.to/lastmile_qr_scan", "ios": "https://dc.lft.to/lastmile_qr_scan"}, "name": "e90f902df60eac17be487fe200aaed76", "type": "electric_scooter", "lat": 38.90647166666667, "is_disabled": 0}, {"fusion_lat": 0.0, "lon": -76.9901635, "is_reserved": 0, "bike_id": "74764725009fd44cd3102d6a2d5e45ea", "fusion_lon": 0.0, "rental_uris": {"android": "https://dc.lft.to/lastmile_qr_scan", "ios": "https://dc.lft.to/lastmile_qr_scan"}, "name": "74764725009fd44cd3102d6a2d5e45ea", "type": "electric_scooter", "lat": 38.86641383333333, "is_disabled": 0}, {"fusion_lat": 0.0, "lon": -77.04880483333334, "is_reserved": 0, "bike_id": "93138199d22bde30b13d628db89cc077", "fusion_lon": 0.0, "rental_uris": {"android": "https://dc.lft.to/lastmile_qr_scan", "ios": "https://dc.lft.to/lastmile_qr_scan"}, "name": "93138199d22bde30b13d628db89cc077", "type": "electric_scooter", "lat": 38.90975016666667, "is_disabled": 0}, {"fusion_lat": 0.0, "lon": -77.02798883333334, "is_reserved": 0, "bike_id": "9c8e373b5faa602e48763af420e36a10", "fusion_lon": 0.0, "rental_uris": {"android": "https://dc.lft.to/lastmile_qr_scan", "ios": "https://dc.lft.to/lastmile_qr_scan"}, "name": "9c8e373b5faa602e48763af420e36a10", "type": "electric_scooter", "lat": 38.895285666666666, "is_disabled": 0}, {"fusion_lat": 0.0, "lon": -77.028915, "is_reserved": 0, "bike_id": "2c2af1ba65f8c09799709458fdfc116f", "fusion_lon": 0.0, "rental_uris": {"android": "https://dc.lft.to/lastmile_qr_scan", "ios": "https://dc.lft.to/lastmile_qr_scan"}, "name": "2c2af1ba65f8c09799709458fdfc116f", "type": "electric_scooter", "lat": 39.0374075, "is_disabled": 0}, {"fusion_lat": 0.0, "lon": -77.006778, "is_reserved": 0, "bike_id": "7ce2cacfc8dd3b0358ca5e2d63420f79", "fusion_lon": 0.0, "rental_uris": {"android": "https://dc.lft.to/lastmile_qr_scan", "ios": "https://dc.lft.to/lastmile_qr_scan"}, "name": "7ce2cacfc8dd3b0358ca5e2d63420f79", "type": "electric_scooter", "lat": 38.900102, "is_disabled": 0}, {"fusion_lat": 0.0, "lon": -76.9876235, "is_reserved": 0, "bike_id": "522f870db6ffe2260d4c70bea72560c5", "fusion_lon": 0.0, "rental_uris": {"android": "https://dc.lft.to/lastmile_qr_scan", "ios": "https://dc.lft.to/lastmile_qr_scan"}, "name": "522f870db6ffe2260d4c70bea72560c5", "type": "electric_bike", "lat": 38.8577165, "is_disabled": 0}, {"fusion_lat": 0.0, "lon": -77.02698566666666, "is_reserved": 0, "bike_id": "506fe98e5d098cce10d3f323a93e5a83", "fusion_lon": 0.0, "rental_uris": {"android": "https://dc.lft.to/lastmile_qr_scan", "ios": "https://dc.lft.to/lastmile_qr_scan"}, "name": "506fe98e5d098cce10d3f323a93e5a83", "type": "electric_scooter", "lat": 38.91133983333334, "is_disabled": 0}, {"fusion_lat": 0.0, "lon": -77.03474916666667, "is_reserved": 0, "bike_id": "b53e720b5298942835af3d79eacfacb3", "fusion_lon": 0.0, "rental_uris": {"android": "https://dc.lft.to/lastmile_qr_scan", "ios": "https://dc.lft.to/lastmile_qr_scan"}, "name": "b53e720b5298942835af3d79eacfacb3", "type": "electric_scooter", "lat": 38.9292785, "is_disabled": 0}, {"fusion_lat": 0.0, "lon": -77.004389, "is_reserved": 0, "bike_id": "f1d237411e3d967f0b63fcc289396834", "fusion_lon": 0.0, "rental_uris": {"android": "https://dc.lft.to/lastmile_qr_scan", "ios": "https://dc.lft.to/lastmile_qr_scan"}, "name": "f1d237411e3d967f0b63fcc289396834", "type": "electric_scooter", "lat": 38.87667666666667, "is_disabled": 0}, {"fusion_lat": 0.0, "lon": -77.04356483333333, "is_reserved": 0, "bike_id": "f3c30c383e89bada09c82131b51335c5", "fusion_lon": 0.0, "rental_uris": {"android": "https://dc.lft.to/lastmile_qr_scan", "ios": "https://dc.lft.to/lastmile_qr_scan"}, "name": "f3c30c383e89bada09c82131b51335c5", "type": "electric_scooter", "lat": 38.90227483333334, "is_disabled": 0}, {"fusion_lat": 0.0, "lon": -77.02647, "is_reserved": 0, "bike_id": "ab84278b5c36300343977d9c5ce77f91", "fusion_lon": 0.0, "rental_uris": {"android": "https://dc.lft.to/lastmile_qr_scan", "ios": "https://dc.lft.to/lastmile_qr_scan"}, "name": "ab84278b5c36300343977d9c5ce77f91", "type": "electric_bike", "lat": 38.988157333333334, "is_disabled": 0}, {"fusion_lat": 0.0, "lon": -77.022215, "is_reserved": 0, "bike_id": "090621829fa785c58b03ec44b5589a3d", "fusion_lon": 0.0, "rental_uris": {"android": "https://dc.lft.to/lastmile_qr_scan", "ios": "https://dc.lft.to/lastmile_qr_scan"}, "name": "090621829fa785c58b03ec44b5589a3d", "type": "electric_scooter", "lat": 38.905620166666665, "is_disabled": 0}, {"fusion_lat": 0.0, "lon": -77.04476816666667, "is_reserved": 0, "bike_id": "1a6b152920e39643d7c9c93243875a60", "fusion_lon": 0.0, "rental_uris": {"android": "https://dc.lft.to/lastmile_qr_scan", "ios": "https://dc.lft.to/lastmile_qr_scan"}, "name": "1a6b152920e39643d7c9c93243875a60", "type": "electric_scooter", "lat": 38.92137916666667, "is_disabled": 0}, {"fusion_lat": 0.0, "lon": -77.02690566666666, "is_reserved": 0, "bike_id": "dd40740f9f3dd15a0837ce79e56d98bc", "fusion_lon": 0.0, "rental_uris": {"android": "https://dc.lft.to/lastmile_qr_scan", "ios": "https://dc.lft.to/lastmile_qr_scan"}, "name": "dd40740f9f3dd15a0837ce79e56d98bc", "type": "electric_scooter", "lat": 38.902406, "is_disabled": 0}, {"fusion_lat": 0.0, "lon": -77.03959616666667, "is_reserved": 0, "bike_id": "3731c3adb98bcb7fdad898dff22dca64", "fusion_lon": 0.0, "rental_uris": {"android": "https://dc.lft.to/lastmile_qr_scan", "ios": "https://dc.lft.to/lastmile_qr_scan"}, "name": "3731c3adb98bcb7fdad898dff22dca64", "type": "electric_scooter", "lat": 38.9314805, "is_disabled": 0}, {"fusion_lat": 0.0, "lon": -76.929376, "is_reserved": 0, "bike_id": "2f018dd2e5b40f81e156beaaa10c72ab", "fusion_lon": 0.0, "rental_uris": {"android": "https://dc.lft.to/lastmile_qr_scan", "ios": "https://dc.lft.to/lastmile_qr_scan"}, "name": "2f018dd2e5b40f81e156beaaa10c72ab", "type": "electric_scooter", "lat": 38.88386716666667, "is_disabled": 0}, {"fusion_lat": 0.0, "lon": -76.9903925, "is_reserved": 0, "bike_id": "7262c8147d5b952094d03d1474d01c9c", "fusion_lon": 0.0, "rental_uris": {"android": "https://dc.lft.to/lastmile_qr_scan", "ios": "https://dc.lft.to/lastmile_qr_scan"}, "name": "7262c8147d5b952094d03d1474d01c9c", "type": "electric_bike", "lat": 38.8658035, "is_disabled": 0}, {"fusion_lat": 0.0, "lon": -77.0216605, "is_reserved": 0, "bike_id": "edfd0a8f2ad7f5a539ea78eca5f59d41", "fusion_lon": 0.0, "rental_uris": {"android": "https://dc.lft.to/lastmile_qr_scan", "ios": "https://dc.lft.to/lastmile_qr_scan"}, "name": "edfd0a8f2ad7f5a539ea78eca5f59d41", "type": "electric_scooter", "lat": 38.901925, "is_disabled": 0}, {"fusion_lat": 0.0, "lon": -77.04702666666667, "is_reserved": 0, "bike_id": "4517ed84734e9d055e2cca5376a236c3", "fusion_lon": 0.0, "rental_uris": {"android": "https://dc.lft.to/lastmile_qr_scan", "ios": "https://dc.lft.to/lastmile_qr_scan"}, "name": "4517ed84734e9d055e2cca5376a236c3", "type": "electric_scooter", "lat": 38.9026375, "is_disabled": 0}, {"fusion_lat": 0.0, "lon": -77.03524733333333, "is_reserved": 0, "bike_id": "eed5aa9aedf3ce34489380a0e5d6d50f", "fusion_lon": 0.0, "rental_uris": {"android": "https://dc.lft.to/lastmile_qr_scan", "ios": "https://dc.lft.to/lastmile_qr_scan"}, "name": "eed5aa9aedf3ce34489380a0e5d6d50f", "type": "electric_scooter", "lat": 38.934765, "is_disabled": 0}, {"fusion_lat": 0.0, "lon": -76.99275233333333, "is_reserved": 0, "bike_id": "6c5e85413118d200f6d5dc5e4a678eec", "fusion_lon": 0.0, "rental_uris": {"android": "https://dc.lft.to/lastmile_qr_scan", "ios": "https://dc.lft.to/lastmile_qr_scan"}, "name": "6c5e85413118d200f6d5dc5e4a678eec", "type": "electric_scooter", "lat": 38.89768466666666, "is_disabled": 0}, {"fusion_lat": 0.0, "lon": -76.97698333333334, "is_reserved": 0, "bike_id": "115baae0e71f8a54e0d991d08c360888", "fusion_lon": 0.0, "rental_uris": {"android": "https://dc.lft.to/lastmile_qr_scan", "ios": "https://dc.lft.to/lastmile_qr_scan"}, "name": "115baae0e71f8a54e0d991d08c360888", "type": "electric_scooter", "lat": 38.898827833333335, "is_disabled": 0}, {"fusion_lat": 0.0, "lon": -77.00783066666666, "is_reserved": 0, "bike_id": "432b19acb2d5dfd7bfaa5db141494435", "fusion_lon": 0.0, "rental_uris": {"android": "https://dc.lft.to/lastmile_qr_scan", "ios": "https://dc.lft.to/lastmile_qr_scan"}, "name": "432b19acb2d5dfd7bfaa5db141494435", "type": "electric_scooter", "lat": 38.897318, "is_disabled": 0}, {"fusion_lat": 0.0, "lon": -77.03805183333333, "is_reserved": 0, "bike_id": "9797b8ccf8b0b2f75811a8d61b8cb348", "fusion_lon": 0.0, "rental_uris": {"android": "https://dc.lft.to/lastmile_qr_scan", "ios": "https://dc.lft.to/lastmile_qr_scan"}, "name": "9797b8ccf8b0b2f75811a8d61b8cb348", "type": "electric_scooter", "lat": 38.91571483333333, "is_disabled": 0}, {"fusion_lat": 0.0, "lon": -77.03338283333333, "is_reserved": 0, "bike_id": "84da459ae3e376626f82f3feda0e721b", "fusion_lon": 0.0, "rental_uris": {"android": "https://dc.lft.to/lastmile_qr_scan", "ios": "https://dc.lft.to/lastmile_qr_scan"}, "name": "84da459ae3e376626f82f3feda0e721b", "type": "electric_scooter", "lat": 38.91712733333333, "is_disabled": 0}, {"fusion_lat": 0.0, "lon": -77.01073566666666, "is_reserved": 0, "bike_id": "51882a8a45a8df121c871d87e10af7dc", "fusion_lon": 0.0, "rental_uris": {"android": "https://dc.lft.to/lastmile_qr_scan", "ios": "https://dc.lft.to/lastmile_qr_scan"}, "name": "51882a8a45a8df121c871d87e10af7dc", "type": "electric_scooter", "lat": 38.912672, "is_disabled": 0}, {"fusion_lat": 0.0, "lon": -77.02276633333334, "is_reserved": 0, "bike_id": "88f7408f9efca548499f5e0b7730092b", "fusion_lon": 0.0, "rental_uris": {"android": "https://dc.lft.to/lastmile_qr_scan", "ios": "https://dc.lft.to/lastmile_qr_scan"}, "name": "88f7408f9efca548499f5e0b7730092b", "type": "electric_scooter", "lat": 38.9021595, "is_disabled": 0}, {"fusion_lat": 0.0, "lon": -77.02872033333334, "is_reserved": 0, "bike_id": "74db71b81539c8a94e413b4c970ec4ce", "fusion_lon": 0.0, "rental_uris": {"android": "https://dc.lft.to/lastmile_qr_scan", "ios": "https://dc.lft.to/lastmile_qr_scan"}, "name": "74db71b81539c8a94e413b4c970ec4ce", "type": "electric_scooter", "lat": 38.9281265, "is_disabled": 0}, {"fusion_lat": 0.0, "lon": -77.045418, "is_reserved": 0, "bike_id": "1d0ba1ff48cb5614c9b3971421382983", "fusion_lon": 0.0, "rental_uris": {"android": "https://dc.lft.to/lastmile_qr_scan", "ios": "https://dc.lft.to/lastmile_qr_scan"}, "name": "1d0ba1ff48cb5614c9b3971421382983", "type": "electric_scooter", "lat": 38.896087, "is_disabled": 0}, {"fusion_lat": 0.0, "lon": -77.02496583333334, "is_reserved": 0, "bike_id": "59db90e957e75266dbcf83e9860f9d10", "fusion_lon": 0.0, "rental_uris": {"android": "https://dc.lft.to/lastmile_qr_scan", "ios": "https://dc.lft.to/lastmile_qr_scan"}, "name": "59db90e957e75266dbcf83e9860f9d10", "type": "electric_scooter", "lat": 38.94182433333334, "is_disabled": 0}, {"fusion_lat": 0.0, "lon": -77.02699916666667, "is_reserved": 0, "bike_id": "5b4c0a2a5f96990990b201461f907ca9", "fusion_lon": 0.0, "rental_uris": {"android": "https://dc.lft.to/lastmile_qr_scan", "ios": "https://dc.lft.to/lastmile_qr_scan"}, "name": "5b4c0a2a5f96990990b201461f907ca9", "type": "electric_scooter", "lat": 38.926582833333335, "is_disabled": 0}, {"fusion_lat": 0.0, "lon": -77.00759366666666, "is_reserved": 0, "bike_id": "4a7fd89a3df7aea6035e037ad218b464", "fusion_lon": 0.0, "rental_uris": {"android": "https://dc.lft.to/lastmile_qr_scan", "ios": "https://dc.lft.to/lastmile_qr_scan"}, "name": "4a7fd89a3df7aea6035e037ad218b464", "type": "electric_bike", "lat": 38.9838965, "is_disabled": 0}, {"fusion_lat": 0.0, "lon": -77.03286283333334, "is_reserved": 0, "bike_id": "b30996017f24ca9ed3acd6999ae1aeb6", "fusion_lon": 0.0, "rental_uris": {"android": "https://dc.lft.to/lastmile_qr_scan", "ios": "https://dc.lft.to/lastmile_qr_scan"}, "name": "b30996017f24ca9ed3acd6999ae1aeb6", "type": "electric_scooter", "lat": 38.89855983333333, "is_disabled": 0}, {"fusion_lat": 0.0, "lon": -77.02095666666666, "is_reserved": 0, "bike_id": "237a4fb223b465df8d7edef96b8bc862", "fusion_lon": 0.0, "rental_uris": {"android": "https://dc.lft.to/lastmile_qr_scan", "ios": "https://dc.lft.to/lastmile_qr_scan"}, "name": "237a4fb223b465df8d7edef96b8bc862", "type": "electric_bike", "lat": 38.87664916666667, "is_disabled": 0}, {"fusion_lat": 0.0, "lon": -76.99455883333333, "is_reserved": 0, "bike_id": "f22daa692bdaf495de4d0e3d98e7fd7c", "fusion_lon": 0.0, "rental_uris": {"android": "https://dc.lft.to/lastmile_qr_scan", "ios": "https://dc.lft.to/lastmile_qr_scan"}, "name": "f22daa692bdaf495de4d0e3d98e7fd7c", "type": "electric_scooter", "lat": 38.86218516666667, "is_disabled": 0}, {"fusion_lat": 0.0, "lon": -77.0092495, "is_reserved": 0, "bike_id": "5b58a1ae841b8879517c941b9124b5c6", "fusion_lon": 0.0, "rental_uris": {"android": "https://dc.lft.to/lastmile_qr_scan", "ios": "https://dc.lft.to/lastmile_qr_scan"}, "name": "5b58a1ae841b8879517c941b9124b5c6", "type": "electric_scooter", "lat": 38.8960555, "is_disabled": 0}, {"fusion_lat": 0.0, "lon": -77.03456316666667, "is_reserved": 0, "bike_id": "9012f9fbb25a78c487d633e6f36930e7", "fusion_lon": 0.0, "rental_uris": {"android": "https://dc.lft.to/lastmile_qr_scan", "ios": "https://dc.lft.to/lastmile_qr_scan"}, "name": "9012f9fbb25a78c487d633e6f36930e7", "type": "electric_scooter", "lat": 38.90815033333333, "is_disabled": 0}, {"fusion_lat": 0.0, "lon": -76.93193833333333, "is_reserved": 0, "bike_id": "405d289af8c20c6024eb0d6ba312fbeb", "fusion_lon": 0.0, "rental_uris": {"android": "https://dc.lft.to/lastmile_qr_scan", "ios": "https://dc.lft.to/lastmile_qr_scan"}, "name": "405d289af8c20c6024eb0d6ba312fbeb", "type": "electric_scooter", "lat": 38.898789, "is_disabled": 0}, {"fusion_lat": 0.0, "lon": -76.98558866666667, "is_reserved": 0, "bike_id": "f39e3768a43344070ea6369add142c5a", "fusion_lon": 0.0, "rental_uris": {"android": "https://dc.lft.to/lastmile_qr_scan", "ios": "https://dc.lft.to/lastmile_qr_scan"}, "name": "f39e3768a43344070ea6369add142c5a", "type": "electric_scooter", "lat": 38.91033383333333, "is_disabled": 0}, {"fusion_lat": 0.0, "lon": -77.039624, "is_reserved": 0, "bike_id": "f53ac69ca6fb550cf6e6638c04cc5972", "fusion_lon": 0.0, "rental_uris": {"android": "https://dc.lft.to/lastmile_qr_scan", "ios": "https://dc.lft.to/lastmile_qr_scan"}, "name": "f53ac69ca6fb550cf6e6638c04cc5972", "type": "electric_scooter", "lat": 38.897149166666665, "is_disabled": 0}, {"fusion_lat": 0.0, "lon": -77.0447945, "is_reserved": 0, "bike_id": "3e0c2067484c4289e851c1cda5112237", "fusion_lon": 0.0, "rental_uris": {"android": "https://dc.lft.to/lastmile_qr_scan", "ios": "https://dc.lft.to/lastmile_qr_scan"}, "name": "3e0c2067484c4289e851c1cda5112237", "type": "electric_scooter", "lat": 38.918678666666665, "is_disabled": 0}, {"fusion_lat": 0.0, "lon": -76.923717, "is_reserved": 0, "bike_id": "ec09fce1e03edbf6fba168eb7c42de8f", "fusion_lon": 0.0, "rental_uris": {"android": "https://dc.lft.to/lastmile_qr_scan", "ios": "https://dc.lft.to/lastmile_qr_scan"}, "name": "ec09fce1e03edbf6fba168eb7c42de8f", "type": "electric_bike", "lat": 38.8837365, "is_disabled": 0}, {"fusion_lat": 0.0, "lon": -76.985221, "is_reserved": 0, "bike_id": "9b512e027e09185048b6edbd750453a2", "fusion_lon": 0.0, "rental_uris": {"android": "https://dc.lft.to/lastmile_qr_scan", "ios": "https://dc.lft.to/lastmile_qr_scan"}, "name": "9b512e027e09185048b6edbd750453a2", "type": "electric_scooter", "lat": 38.866625, "is_disabled": 0}, {"fusion_lat": 0.0, "lon": -76.93546566666667, "is_reserved": 0, "bike_id": "addf501aff72ba780ec7f0b6c1005a59", "fusion_lon": 0.0, "rental_uris": {"android": "https://dc.lft.to/lastmile_qr_scan", "ios": "https://dc.lft.to/lastmile_qr_scan"}, "name": "addf501aff72ba780ec7f0b6c1005a59", "type": "electric_bike", "lat": 38.955461666666665, "is_disabled": 0}, {"fusion_lat": 0.0, "lon": -77.05123383333333, "is_reserved": 0, "bike_id": "db559f1e9f30a9caaa08e3c0427cea96", "fusion_lon": 0.0, "rental_uris": {"android": "https://dc.lft.to/lastmile_qr_scan", "ios": "https://dc.lft.to/lastmile_qr_scan"}, "name": "db559f1e9f30a9caaa08e3c0427cea96", "type": "electric_scooter", "lat": 38.90512716666667, "is_disabled": 0}, {"fusion_lat": 0.0, "lon": -77.0423295, "is_reserved": 0, "bike_id": "d26a1376ddee1fa7446948d567cc9103", "fusion_lon": 0.0, "rental_uris": {"android": "https://dc.lft.to/lastmile_qr_scan", "ios": "https://dc.lft.to/lastmile_qr_scan"}, "name": "d26a1376ddee1fa7446948d567cc9103", "type": "electric_scooter", "lat": 38.91119333333333, "is_disabled": 0}, {"fusion_lat": 0.0, "lon": -77.03835816666667, "is_reserved": 0, "bike_id": "e3c7532cac53cefa2037e77edc9a0796", "fusion_lon": 0.0, "rental_uris": {"android": "https://dc.lft.to/lastmile_qr_scan", "ios": "https://dc.lft.to/lastmile_qr_scan"}, "name": "e3c7532cac53cefa2037e77edc9a0796", "type": "electric_scooter", "lat": 38.91192566666667, "is_disabled": 0}, {"fusion_lat": 0.0, "lon": -77.0266135, "is_reserved": 0, "bike_id": "403d77c3858e433419a918436dc3aaa8", "fusion_lon": 0.0, "rental_uris": {"android": "https://dc.lft.to/lastmile_qr_scan", "ios": "https://dc.lft.to/lastmile_qr_scan"}, "name": "403d77c3858e433419a918436dc3aaa8", "type": "electric_scooter", "lat": 38.975731333333336, "is_disabled": 0}, {"fusion_lat": 0.0, "lon": -76.936412, "is_reserved": 0, "bike_id": "b78b056e00def455f521fdd7f325673f", "fusion_lon": 0.0, "rental_uris": {"android": "https://dc.lft.to/lastmile_qr_scan", "ios": "https://dc.lft.to/lastmile_qr_scan"}, "name": "b78b056e00def455f521fdd7f325673f", "type": "electric_scooter", "lat": 38.900648, "is_disabled": 0}, {"fusion_lat": 0.0, "lon": -77.0477555, "is_reserved": 0, "bike_id": "53cb3b9c662d75a4c01ade6652a878dd", "fusion_lon": 0.0, "rental_uris": {"android": "https://dc.lft.to/lastmile_qr_scan", "ios": "https://dc.lft.to/lastmile_qr_scan"}, "name": "53cb3b9c662d75a4c01ade6652a878dd", "type": "electric_scooter", "lat": 38.90064183333333, "is_disabled": 0}, {"fusion_lat": 0.0, "lon": -77.04673733333334, "is_reserved": 0, "bike_id": "4009f1a7b676944bafd0ad5315162bec", "fusion_lon": 0.0, "rental_uris": {"android": "https://dc.lft.to/lastmile_qr_scan", "ios": "https://dc.lft.to/lastmile_qr_scan"}, "name": "4009f1a7b676944bafd0ad5315162bec", "type": "electric_scooter", "lat": 38.907369, "is_disabled": 0}, {"fusion_lat": 0.0, "lon": -76.94933566666667, "is_reserved": 0, "bike_id": "e752ce5b769867205721b8f15bbb937b", "fusion_lon": 0.0, "rental_uris": {"android": "https://dc.lft.to/lastmile_qr_scan", "ios": "https://dc.lft.to/lastmile_qr_scan"}, "name": "e752ce5b769867205721b8f15bbb937b", "type": "electric_scooter", "lat": 38.893447, "is_disabled": 0}, {"fusion_lat": 0.0, "lon": -77.04672216666667, "is_reserved": 0, "bike_id": "40900c8d5c57587e6bc0d0cb6dffe2c5", "fusion_lon": 0.0, "rental_uris": {"android": "https://dc.lft.to/lastmile_qr_scan", "ios": "https://dc.lft.to/lastmile_qr_scan"}, "name": "40900c8d5c57587e6bc0d0cb6dffe2c5", "type": "electric_scooter", "lat": 38.9073205, "is_disabled": 0}, {"fusion_lat": 0.0, "lon": -77.03102066666666, "is_reserved": 0, "bike_id": "38db73746b3b821cd5cdf6e7de97340d", "fusion_lon": 0.0, "rental_uris": {"android": "https://dc.lft.to/lastmile_qr_scan", "ios": "https://dc.lft.to/lastmile_qr_scan"}, "name": "38db73746b3b821cd5cdf6e7de97340d", "type": "electric_scooter", "lat": 38.950754833333335, "is_disabled": 0}, {"fusion_lat": 0.0, "lon": -77.00204516666666, "is_reserved": 0, "bike_id": "288dbe7e1757c9d9f91a80da3bbb8529", "fusion_lon": 0.0, "rental_uris": {"android": "https://dc.lft.to/lastmile_qr_scan", "ios": "https://dc.lft.to/lastmile_qr_scan"}, "name": "288dbe7e1757c9d9f91a80da3bbb8529", "type": "electric_scooter", "lat": 38.902390833333335, "is_disabled": 0}, {"fusion_lat": 0.0, "lon": -77.03196883333334, "is_reserved": 0, "bike_id": "23e4f991300e4a411b999e7d302e45e6", "fusion_lon": 0.0, "rental_uris": {"android": "https://dc.lft.to/lastmile_qr_scan", "ios": "https://dc.lft.to/lastmile_qr_scan"}, "name": "23e4f991300e4a411b999e7d302e45e6", "type": "electric_scooter", "lat": 38.90557833333333, "is_disabled": 0}, {"fusion_lat": 0.0, "lon": -77.08395516666667, "is_reserved": 0, "bike_id": "0ec17644d602af9d642b484a00e785c8", "fusion_lon": 0.0, "rental_uris": {"android": "https://dc.lft.to/lastmile_qr_scan", "ios": "https://dc.lft.to/lastmile_qr_scan"}, "name": "0ec17644d602af9d642b484a00e785c8", "type": "electric_scooter", "lat": 38.90801316666666, "is_disabled": 0}, {"fusion_lat": 0.0, "lon": -76.930204, "is_reserved": 0, "bike_id": "70f0f2d0237dcb3349a5812eac079d34", "fusion_lon": 0.0, "rental_uris": {"android": "https://dc.lft.to/lastmile_qr_scan", "ios": "https://dc.lft.to/lastmile_qr_scan"}, "name": "70f0f2d0237dcb3349a5812eac079d34", "type": "electric_bike", "lat": 38.89657916666667, "is_disabled": 0}, {"fusion_lat": 0.0, "lon": -77.038412, "is_reserved": 0, "bike_id": "3baec47964691e85552f45447dfbf098", "fusion_lon": 0.0, "rental_uris": {"android": "https://dc.lft.to/lastmile_qr_scan", "ios": "https://dc.lft.to/lastmile_qr_scan"}, "name": "3baec47964691e85552f45447dfbf098", "type": "electric_scooter", "lat": 38.904322666666665, "is_disabled": 0}, {"fusion_lat": 0.0, "lon": -76.99510933333333, "is_reserved": 0, "bike_id": "8bb42f50e77a10ef4c3406311962fd3d", "fusion_lon": 0.0, "rental_uris": {"android": "https://dc.lft.to/lastmile_qr_scan", "ios": "https://dc.lft.to/lastmile_qr_scan"}, "name": "8bb42f50e77a10ef4c3406311962fd3d", "type": "electric_scooter", "lat": 38.88011683333333, "is_disabled": 0}, {"fusion_lat": 0.0, "lon": -77.03447566666667, "is_reserved": 0, "bike_id": "861426b5e6943101ee40f967e7ef7110", "fusion_lon": 0.0, "rental_uris": {"android": "https://dc.lft.to/lastmile_qr_scan", "ios": "https://dc.lft.to/lastmile_qr_scan"}, "name": "861426b5e6943101ee40f967e7ef7110", "type": "electric_scooter", "lat": 38.91822883333333, "is_disabled": 0}, {"fusion_lat": 0.0, "lon": -77.01451783333333, "is_reserved": 0, "bike_id": "31712eeb8d7605b26690eaa5dbdc1d10", "fusion_lon": 0.0, "rental_uris": {"android": "https://dc.lft.to/lastmile_qr_scan", "ios": "https://dc.lft.to/lastmile_qr_scan"}, "name": "31712eeb8d7605b26690eaa5dbdc1d10", "type": "electric_scooter", "lat": 38.929775666666664, "is_disabled": 0}, {"fusion_lat": 0.0, "lon": -77.05035083333334, "is_reserved": 0, "bike_id": "8c2304d3c34b92fe3ef9fbc24d75a2f7", "fusion_lon": 0.0, "rental_uris": {"android": "https://dc.lft.to/lastmile_qr_scan", "ios": "https://dc.lft.to/lastmile_qr_scan"}, "name": "8c2304d3c34b92fe3ef9fbc24d75a2f7", "type": "electric_scooter", "lat": 38.90518733333333, "is_disabled": 0}, {"fusion_lat": 0.0, "lon": -77.04105383333334, "is_reserved": 0, "bike_id": "390393c83619899f20ac094097eca0e6", "fusion_lon": 0.0, "rental_uris": {"android": "https://dc.lft.to/lastmile_qr_scan", "ios": "https://dc.lft.to/lastmile_qr_scan"}, "name": "390393c83619899f20ac094097eca0e6", "type": "electric_scooter", "lat": 38.91051216666666, "is_disabled": 0}, {"fusion_lat": 0.0, "lon": -77.03342266666667, "is_reserved": 0, "bike_id": "314ce9b8d90c224b3a861c00f700bdc8", "fusion_lon": 0.0, "rental_uris": {"android": "https://dc.lft.to/lastmile_qr_scan", "ios": "https://dc.lft.to/lastmile_qr_scan"}, "name": "314ce9b8d90c224b3a861c00f700bdc8", "type": "electric_scooter", "lat": 38.921584333333335, "is_disabled": 0}, {"fusion_lat": 0.0, "lon": -77.00239866666666, "is_reserved": 0, "bike_id": "39c96ab6203827913b8abf8c937a601b", "fusion_lon": 0.0, "rental_uris": {"android": "https://dc.lft.to/lastmile_qr_scan", "ios": "https://dc.lft.to/lastmile_qr_scan"}, "name": "39c96ab6203827913b8abf8c937a601b", "type": "electric_scooter", "lat": 38.95718816666667, "is_disabled": 0}, {"fusion_lat": 0.0, "lon": -77.0239595, "is_reserved": 0, "bike_id": "24bde4abf29404db6aabd635f03e0b6f", "fusion_lon": 0.0, "rental_uris": {"android": "https://dc.lft.to/lastmile_qr_scan", "ios": "https://dc.lft.to/lastmile_qr_scan"}, "name": "24bde4abf29404db6aabd635f03e0b6f", "type": "electric_scooter", "lat": 38.925985833333336, "is_disabled": 0}, {"fusion_lat": 0.0, "lon": -76.9903455, "is_reserved": 0, "bike_id": "1bcd24ffbecebf3a07ce5a24d250af94", "fusion_lon": 0.0, "rental_uris": {"android": "https://dc.lft.to/lastmile_qr_scan", "ios": "https://dc.lft.to/lastmile_qr_scan"}, "name": "1bcd24ffbecebf3a07ce5a24d250af94", "type": "electric_scooter", "lat": 38.89849533333334, "is_disabled": 0}, {"fusion_lat": 0.0, "lon": -76.98828283333333, "is_reserved": 0, "bike_id": "8084a592b3036419c21786bc9ddc5a48", "fusion_lon": 0.0, "rental_uris": {"android": "https://dc.lft.to/lastmile_qr_scan", "ios": "https://dc.lft.to/lastmile_qr_scan"}, "name": "8084a592b3036419c21786bc9ddc5a48", "type": "electric_scooter", "lat": 38.8907415, "is_disabled": 0}, {"fusion_lat": 0.0, "lon": -77.02487283333333, "is_reserved": 0, "bike_id": "bb02cb63dd3c94b2969eb2b79e5eeceb", "fusion_lon": 0.0, "rental_uris": {"android": "https://dc.lft.to/lastmile_qr_scan", "ios": "https://dc.lft.to/lastmile_qr_scan"}, "name": "bb02cb63dd3c94b2969eb2b79e5eeceb", "type": "electric_scooter", "lat": 38.9385905, "is_disabled": 0}, {"fusion_lat": 0.0, "lon": -76.969283, "is_reserved": 0, "bike_id": "3a1c18914e1b562093c3f38960bb5696", "fusion_lon": 0.0, "rental_uris": {"android": "https://dc.lft.to/lastmile_qr_scan", "ios": "https://dc.lft.to/lastmile_qr_scan"}, "name": "3a1c18914e1b562093c3f38960bb5696", "type": "electric_bike", "lat": 38.9511955, "is_disabled": 0}, {"fusion_lat": 0.0, "lon": -77.03186583333333, "is_reserved": 0, "bike_id": "63fe993a4ccaca76374930553315b7a5", "fusion_lon": 0.0, "rental_uris": {"android": "https://dc.lft.to/lastmile_qr_scan", "ios": "https://dc.lft.to/lastmile_qr_scan"}, "name": "63fe993a4ccaca76374930553315b7a5", "type": "electric_scooter", "lat": 38.917873666666665, "is_disabled": 0}, {"fusion_lat": 0.0, "lon": -77.03873416666667, "is_reserved": 0, "bike_id": "29fb4858639af40d2aa5568455f7162d", "fusion_lon": 0.0, "rental_uris": {"android": "https://dc.lft.to/lastmile_qr_scan", "ios": "https://dc.lft.to/lastmile_qr_scan"}, "name": "29fb4858639af40d2aa5568455f7162d", "type": "electric_scooter", "lat": 38.932432166666665, "is_disabled": 0}, {"fusion_lat": 0.0, "lon": -76.99536033333334, "is_reserved": 0, "bike_id": "fcb9a43d09340e660d220d61d0400555", "fusion_lon": 0.0, "rental_uris": {"android": "https://dc.lft.to/lastmile_qr_scan", "ios": "https://dc.lft.to/lastmile_qr_scan"}, "name": "fcb9a43d09340e660d220d61d0400555", "type": "electric_scooter", "lat": 38.862613, "is_disabled": 0}, {"fusion_lat": 0.0, "lon": -77.04769316666666, "is_reserved": 0, "bike_id": "7a8da1dadde48b27679f6dd898a3f9e2", "fusion_lon": 0.0, "rental_uris": {"android": "https://dc.lft.to/lastmile_qr_scan", "ios": "https://dc.lft.to/lastmile_qr_scan"}, "name": "7a8da1dadde48b27679f6dd898a3f9e2", "type": "electric_scooter", "lat": 38.9175305, "is_disabled": 0}, {"fusion_lat": 0.0, "lon": -77.02978933333333, "is_reserved": 0, "bike_id": "631d53f9f8b9080a3e7161299f8eda3e", "fusion_lon": 0.0, "rental_uris": {"android": "https://dc.lft.to/lastmile_qr_scan", "ios": "https://dc.lft.to/lastmile_qr_scan"}, "name": "631d53f9f8b9080a3e7161299f8eda3e", "type": "electric_scooter", "lat": 38.92195566666667, "is_disabled": 0}, {"fusion_lat": 0.0, "lon": -77.22802233333333, "is_reserved": 0, "bike_id": "d9edd8db9f5ff5cd631e7d82d6423b51", "fusion_lon": 0.0, "rental_uris": {"android": "https://dc.lft.to/lastmile_qr_scan", "ios": "https://dc.lft.to/lastmile_qr_scan"}, "name": "d9edd8db9f5ff5cd631e7d82d6423b51", "type": "electric_bike", "lat": 38.9101505, "is_disabled": 0}, {"fusion_lat": 0.0, "lon": -77.01097383333334, "is_reserved": 0, "bike_id": "9834cc48c2484de5c662b2edad8f5620", "fusion_lon": 0.0, "rental_uris": {"android": "https://dc.lft.to/lastmile_qr_scan", "ios": "https://dc.lft.to/lastmile_qr_scan"}, "name": "9834cc48c2484de5c662b2edad8f5620", "type": "electric_scooter", "lat": 38.894889166666665, "is_disabled": 0}, {"fusion_lat": 0.0, "lon": -77.01699216666667, "is_reserved": 0, "bike_id": "563c948d9bf009a5090fdaf40c8b64da", "fusion_lon": 0.0, "rental_uris": {"android": "https://dc.lft.to/lastmile_qr_scan", "ios": "https://dc.lft.to/lastmile_qr_scan"}, "name": "563c948d9bf009a5090fdaf40c8b64da", "type": "electric_scooter", "lat": 38.974978166666666, "is_disabled": 0}, {"fusion_lat": 0.0, "lon": -77.01775516666666, "is_reserved": 0, "bike_id": "2ca630cd9d70fa0203b2d843f5e8ef1f", "fusion_lon": 0.0, "rental_uris": {"android": "https://dc.lft.to/lastmile_qr_scan", "ios": "https://dc.lft.to/lastmile_qr_scan"}, "name": "2ca630cd9d70fa0203b2d843f5e8ef1f", "type": "electric_scooter", "lat": 38.9040375, "is_disabled": 0}, {"fusion_lat": 0.0, "lon": -77.00115933333333, "is_reserved": 0, "bike_id": "9f38012e921689e9f74050061056fa10", "fusion_lon": 0.0, "rental_uris": {"android": "https://dc.lft.to/lastmile_qr_scan", "ios": "https://dc.lft.to/lastmile_qr_scan"}, "name": "9f38012e921689e9f74050061056fa10", "type": "electric_scooter", "lat": 38.91704583333333, "is_disabled": 0}, {"fusion_lat": 0.0, "lon": -77.0283375, "is_reserved": 0, "bike_id": "92f1c89cb92678cdf15e8ff4321088bc", "fusion_lon": 0.0, "rental_uris": {"android": "https://dc.lft.to/lastmile_qr_scan", "ios": "https://dc.lft.to/lastmile_qr_scan"}, "name": "92f1c89cb92678cdf15e8ff4321088bc", "type": "electric_scooter", "lat": 38.924683, "is_disabled": 0}, {"fusion_lat": 0.0, "lon": -77.03188633333333, "is_reserved": 0, "bike_id": "c83c92cc4b18dbf5eeee3b64b6f6ed08", "fusion_lon": 0.0, "rental_uris": {"android": "https://dc.lft.to/lastmile_qr_scan", "ios": "https://dc.lft.to/lastmile_qr_scan"}, "name": "c83c92cc4b18dbf5eeee3b64b6f6ed08", "type": "electric_scooter", "lat": 38.91958016666667, "is_disabled": 0}, {"fusion_lat": 0.0, "lon": -77.03660233333333, "is_reserved": 0, "bike_id": "09db43cc9d659028090365385500cec1", "fusion_lon": 0.0, "rental_uris": {"android": "https://dc.lft.to/lastmile_qr_scan", "ios": "https://dc.lft.to/lastmile_qr_scan"}, "name": "09db43cc9d659028090365385500cec1", "type": "electric_scooter", "lat": 38.92295683333333, "is_disabled": 0}, {"fusion_lat": 0.0, "lon": -77.01412116666667, "is_reserved": 0, "bike_id": "4c9b86c49d0ee3d4fff49ef75da57998", "fusion_lon": 0.0, "rental_uris": {"android": "https://dc.lft.to/lastmile_qr_scan", "ios": "https://dc.lft.to/lastmile_qr_scan"}, "name": "4c9b86c49d0ee3d4fff49ef75da57998", "type": "electric_scooter", "lat": 38.9286715, "is_disabled": 0}, {"fusion_lat": 0.0, "lon": -77.1091245, "is_reserved": 0, "bike_id": "59321f2469cfcf792f3888c087fc5a6a", "fusion_lon": 0.0, "rental_uris": {"android": "https://dc.lft.to/lastmile_qr_scan", "ios": "https://dc.lft.to/lastmile_qr_scan"}, "name": "59321f2469cfcf792f3888c087fc5a6a", "type": "electric_bike", "lat": 39.05206883333334, "is_disabled": 0}, {"fusion_lat": 0.0, "lon": -77.0278045, "is_reserved": 0, "bike_id": "10e8f6db154da94c4e790a8a82a8bd06", "fusion_lon": 0.0, "rental_uris": {"android": "https://dc.lft.to/lastmile_qr_scan", "ios": "https://dc.lft.to/lastmile_qr_scan"}, "name": "10e8f6db154da94c4e790a8a82a8bd06", "type": "electric_scooter", "lat": 38.927664, "is_disabled": 0}, {"fusion_lat": 0.0, "lon": -77.002146, "is_reserved": 0, "bike_id": "079106634de5eba4263c3fa2c2acae46", "fusion_lon": 0.0, "rental_uris": {"android": "https://dc.lft.to/lastmile_qr_scan", "ios": "https://dc.lft.to/lastmile_qr_scan"}, "name": "079106634de5eba4263c3fa2c2acae46", "type": "electric_scooter", "lat": 38.90046866666667, "is_disabled": 0}, {"fusion_lat": 0.0, "lon": -77.04302366666667, "is_reserved": 0, "bike_id": "28f7a384d6b7ef14f19c0d08347df5e8", "fusion_lon": 0.0, "rental_uris": {"android": "https://dc.lft.to/lastmile_qr_scan", "ios": "https://dc.lft.to/lastmile_qr_scan"}, "name": "28f7a384d6b7ef14f19c0d08347df5e8", "type": "electric_scooter", "lat": 38.9229855, "is_disabled": 0}, {"fusion_lat": 0.0, "lon": -77.04656833333334, "is_reserved": 0, "bike_id": "f6b87dcad75fdaef6670182469981372", "fusion_lon": 0.0, "rental_uris": {"android": "https://dc.lft.to/lastmile_qr_scan", "ios": "https://dc.lft.to/lastmile_qr_scan"}, "name": "f6b87dcad75fdaef6670182469981372", "type": "electric_scooter", "lat": 38.90346233333333, "is_disabled": 0}, {"fusion_lat": 0.0, "lon": -77.0483275, "is_reserved": 0, "bike_id": "f1ba5629f5a01920470ac52ef80f6b07", "fusion_lon": 0.0, "rental_uris": {"android": "https://dc.lft.to/lastmile_qr_scan", "ios": "https://dc.lft.to/lastmile_qr_scan"}, "name": "f1ba5629f5a01920470ac52ef80f6b07", "type": "electric_scooter", "lat": 38.90522133333333, "is_disabled": 0}, {"fusion_lat": 0.0, "lon": -76.9299905, "is_reserved": 0, "bike_id": "83bb525f10746b0ce8fe671371b2ab73", "fusion_lon": 0.0, "rental_uris": {"android": "https://dc.lft.to/lastmile_qr_scan", "ios": "https://dc.lft.to/lastmile_qr_scan"}, "name": "83bb525f10746b0ce8fe671371b2ab73", "type": "electric_scooter", "lat": 38.901826666666665, "is_disabled": 0}, {"fusion_lat": 0.0, "lon": -77.0268505, "is_reserved": 0, "bike_id": "a2773f134943d52cda98979618e99170", "fusion_lon": 0.0, "rental_uris": {"android": "https://dc.lft.to/lastmile_qr_scan", "ios": "https://dc.lft.to/lastmile_qr_scan"}, "name": "a2773f134943d52cda98979618e99170", "type": "electric_scooter", "lat": 38.984873, "is_disabled": 0}, {"fusion_lat": 0.0, "lon": -76.9921675, "is_reserved": 0, "bike_id": "b3a8b73ceb1fffe7dccec679ee56ef66", "fusion_lon": 0.0, "rental_uris": {"android": "https://dc.lft.to/lastmile_qr_scan", "ios": "https://dc.lft.to/lastmile_qr_scan"}, "name": "b3a8b73ceb1fffe7dccec679ee56ef66", "type": "electric_scooter", "lat": 38.89519333333333, "is_disabled": 0}, {"fusion_lat": 0.0, "lon": -77.03774066666666, "is_reserved": 0, "bike_id": "8865c02ab171bedd41652e6ac7702ed4", "fusion_lon": 0.0, "rental_uris": {"android": "https://dc.lft.to/lastmile_qr_scan", "ios": "https://dc.lft.to/lastmile_qr_scan"}, "name": "8865c02ab171bedd41652e6ac7702ed4", "type": "electric_scooter", "lat": 38.91684566666667, "is_disabled": 0}, {"fusion_lat": 0.0, "lon": -77.03185016666667, "is_reserved": 0, "bike_id": "b10efa508294acdbcba9e3b08bbd76e5", "fusion_lon": 0.0, "rental_uris": {"android": "https://dc.lft.to/lastmile_qr_scan", "ios": "https://dc.lft.to/lastmile_qr_scan"}, "name": "b10efa508294acdbcba9e3b08bbd76e5", "type": "electric_scooter", "lat": 38.8840195, "is_disabled": 0}, {"fusion_lat": 0.0, "lon": -77.02354883333334, "is_reserved": 0, "bike_id": "73a6971c56e5403c841cd93c419e377f", "fusion_lon": 0.0, "rental_uris": {"android": "https://dc.lft.to/lastmile_qr_scan", "ios": "https://dc.lft.to/lastmile_qr_scan"}, "name": "73a6971c56e5403c841cd93c419e377f", "type": "electric_scooter", "lat": 38.91964016666667, "is_disabled": 0}, {"fusion_lat": 0.0, "lon": -76.9969185, "is_reserved": 0, "bike_id": "63ffdd83e8e775b26d9d0d3103b3f062", "fusion_lon": 0.0, "rental_uris": {"android": "https://dc.lft.to/lastmile_qr_scan", "ios": "https://dc.lft.to/lastmile_qr_scan"}, "name": "63ffdd83e8e775b26d9d0d3103b3f062", "type": "electric_scooter", "lat": 38.90830866666667, "is_disabled": 0}, {"fusion_lat": 0.0, "lon": -76.991885, "is_reserved": 0, "bike_id": "22bebade985933f89ec746540f54460e", "fusion_lon": 0.0, "rental_uris": {"android": "https://dc.lft.to/lastmile_qr_scan", "ios": "https://dc.lft.to/lastmile_qr_scan"}, "name": "22bebade985933f89ec746540f54460e", "type": "electric_scooter", "lat": 38.90028933333333, "is_disabled": 0}, {"fusion_lat": 0.0, "lon": -77.02694833333334, "is_reserved": 0, "bike_id": "159bbe0389e63fce402847c0ef25b8ff", "fusion_lon": 0.0, "rental_uris": {"android": "https://dc.lft.to/lastmile_qr_scan", "ios": "https://dc.lft.to/lastmile_qr_scan"}, "name": "159bbe0389e63fce402847c0ef25b8ff", "type": "electric_scooter", "lat": 38.948828666666664, "is_disabled": 0}, {"fusion_lat": 0.0, "lon": -77.01815533333334, "is_reserved": 0, "bike_id": "66d15160e81991dae20a1f71fe699da0", "fusion_lon": 0.0, "rental_uris": {"android": "https://dc.lft.to/lastmile_qr_scan", "ios": "https://dc.lft.to/lastmile_qr_scan"}, "name": "66d15160e81991dae20a1f71fe699da0", "type": "electric_scooter", "lat": 38.893076, "is_disabled": 0}, {"fusion_lat": 0.0, "lon": -77.035407, "is_reserved": 0, "bike_id": "53f6f5d7b9c7c8a03e7e7139aecb25c3", "fusion_lon": 0.0, "rental_uris": {"android": "https://dc.lft.to/lastmile_qr_scan", "ios": "https://dc.lft.to/lastmile_qr_scan"}, "name": "53f6f5d7b9c7c8a03e7e7139aecb25c3", "type": "electric_scooter", "lat": 38.915564833333335, "is_disabled": 0}, {"fusion_lat": 0.0, "lon": -77.0151305, "is_reserved": 0, "bike_id": "d1f1348bc1c31892748f48174892eff5", "fusion_lon": 0.0, "rental_uris": {"android": "https://dc.lft.to/lastmile_qr_scan", "ios": "https://dc.lft.to/lastmile_qr_scan"}, "name": "d1f1348bc1c31892748f48174892eff5", "type": "electric_scooter", "lat": 38.926714833333335, "is_disabled": 0}, {"fusion_lat": 0.0, "lon": -77.0434785, "is_reserved": 0, "bike_id": "140500f29c83515df189832acb130d1b", "fusion_lon": 0.0, "rental_uris": {"android": "https://dc.lft.to/lastmile_qr_scan", "ios": "https://dc.lft.to/lastmile_qr_scan"}, "name": "140500f29c83515df189832acb130d1b", "type": "electric_scooter", "lat": 38.90307333333333, "is_disabled": 0}, {"fusion_lat": 0.0, "lon": -77.06370116666666, "is_reserved": 0, "bike_id": "c482da2d5239076251615523d10029da", "fusion_lon": 0.0, "rental_uris": {"android": "https://dc.lft.to/lastmile_qr_scan", "ios": "https://dc.lft.to/lastmile_qr_scan"}, "name": "c482da2d5239076251615523d10029da", "type": "electric_scooter", "lat": 38.90822216666667, "is_disabled": 0}, {"fusion_lat": 0.0, "lon": -77.05437566666667, "is_reserved": 0, "bike_id": "07a016c49cf54bb3cf061a4943241262", "fusion_lon": 0.0, "rental_uris": {"android": "https://dc.lft.to/lastmile_qr_scan", "ios": "https://dc.lft.to/lastmile_qr_scan"}, "name": "07a016c49cf54bb3cf061a4943241262", "type": "electric_scooter", "lat": 38.92859633333333, "is_disabled": 0}, {"fusion_lat": 0.0, "lon": -77.0060225, "is_reserved": 0, "bike_id": "b4777b1f565229327e06e95237deef77", "fusion_lon": 0.0, "rental_uris": {"android": "https://dc.lft.to/lastmile_qr_scan", "ios": "https://dc.lft.to/lastmile_qr_scan"}, "name": "b4777b1f565229327e06e95237deef77", "type": "electric_bike", "lat": 38.897959, "is_disabled": 0}, {"fusion_lat": 0.0, "lon": -76.950184, "is_reserved": 0, "bike_id": "69193a4fbfa1c001307c5b7b31e19918", "fusion_lon": 0.0, "rental_uris": {"android": "https://dc.lft.to/lastmile_qr_scan", "ios": "https://dc.lft.to/lastmile_qr_scan"}, "name": "69193a4fbfa1c001307c5b7b31e19918", "type": "electric_scooter", "lat": 38.89389383333334, "is_disabled": 0}, {"fusion_lat": 0.0, "lon": -77.08595316666667, "is_reserved": 0, "bike_id": "f5fba66ed07a60ac1096b9ee572f99c9", "fusion_lon": 0.0, "rental_uris": {"android": "https://dc.lft.to/lastmile_qr_scan", "ios": "https://dc.lft.to/lastmile_qr_scan"}, "name": "f5fba66ed07a60ac1096b9ee572f99c9", "type": "electric_scooter", "lat": 38.90864966666667, "is_disabled": 0}, {"fusion_lat": 0.0, "lon": -76.98744233333333, "is_reserved": 0, "bike_id": "2f2604bf4780dde4bf81db8e6b285af5", "fusion_lon": 0.0, "rental_uris": {"android": "https://dc.lft.to/lastmile_qr_scan", "ios": "https://dc.lft.to/lastmile_qr_scan"}, "name": "2f2604bf4780dde4bf81db8e6b285af5", "type": "electric_scooter", "lat": 38.84480383333333, "is_disabled": 0}, {"fusion_lat": 0.0, "lon": -76.96466166666667, "is_reserved": 0, "bike_id": "58079d445d66734620df3425e55b2c75", "fusion_lon": 0.0, "rental_uris": {"android": "https://dc.lft.to/lastmile_qr_scan", "ios": "https://dc.lft.to/lastmile_qr_scan"}, "name": "58079d445d66734620df3425e55b2c75", "type": "electric_scooter", "lat": 38.934459, "is_disabled": 0}, {"fusion_lat": 0.0, "lon": -76.985397, "is_reserved": 0, "bike_id": "f15b36babf31123347ba14f4d7e7ebd2", "fusion_lon": 0.0, "rental_uris": {"android": "https://dc.lft.to/lastmile_qr_scan", "ios": "https://dc.lft.to/lastmile_qr_scan"}, "name": "f15b36babf31123347ba14f4d7e7ebd2", "type": "electric_scooter", "lat": 38.910172333333335, "is_disabled": 0}, {"fusion_lat": 0.0, "lon": -77.02684283333333, "is_reserved": 0, "bike_id": "b23dc284b0dc895e52c2eb3031ad24c0", "fusion_lon": 0.0, "rental_uris": {"android": "https://dc.lft.to/lastmile_qr_scan", "ios": "https://dc.lft.to/lastmile_qr_scan"}, "name": "b23dc284b0dc895e52c2eb3031ad24c0", "type": "electric_scooter", "lat": 38.927712666666665, "is_disabled": 0}, {"fusion_lat": 0.0, "lon": -77.10717366666667, "is_reserved": 0, "bike_id": "e80edff41159c2687f2fd4cbf69db969", "fusion_lon": 0.0, "rental_uris": {"android": "https://dc.lft.to/lastmile_qr_scan", "ios": "https://dc.lft.to/lastmile_qr_scan"}, "name": "e80edff41159c2687f2fd4cbf69db969", "type": "electric_bike", "lat": 38.85534883333333, "is_disabled": 0}, {"fusion_lat": 0.0, "lon": -77.027184, "is_reserved": 0, "bike_id": "bece057e9cd966c43ecc65b30990af5d", "fusion_lon": 0.0, "rental_uris": {"android": "https://dc.lft.to/lastmile_qr_scan", "ios": "https://dc.lft.to/lastmile_qr_scan"}, "name": "bece057e9cd966c43ecc65b30990af5d", "type": "electric_scooter", "lat": 38.93694383333333, "is_disabled": 0}, {"fusion_lat": 0.0, "lon": -77.08458566666667, "is_reserved": 0, "bike_id": "a0697bb17350843ba20f5cbacce58228", "fusion_lon": 0.0, "rental_uris": {"android": "https://dc.lft.to/lastmile_qr_scan", "ios": "https://dc.lft.to/lastmile_qr_scan"}, "name": "a0697bb17350843ba20f5cbacce58228", "type": "electric_bike", "lat": 38.848170333333336, "is_disabled": 0}, {"fusion_lat": 0.0, "lon": -77.01340933333333, "is_reserved": 0, "bike_id": "102fc35e293bc6484e6718fb9a37b988", "fusion_lon": 0.0, "rental_uris": {"android": "https://dc.lft.to/lastmile_qr_scan", "ios": "https://dc.lft.to/lastmile_qr_scan"}, "name": "102fc35e293bc6484e6718fb9a37b988", "type": "electric_scooter", "lat": 38.87920316666667, "is_disabled": 0}, {"fusion_lat": 0.0, "lon": -77.02965316666666, "is_reserved": 0, "bike_id": "ee804a750fb32b09df8dc5a22a05445b", "fusion_lon": 0.0, "rental_uris": {"android": "https://dc.lft.to/lastmile_qr_scan", "ios": "https://dc.lft.to/lastmile_qr_scan"}, "name": "ee804a750fb32b09df8dc5a22a05445b", "type": "electric_scooter", "lat": 38.93996583333333, "is_disabled": 0}, {"fusion_lat": 0.0, "lon": -77.0437615, "is_reserved": 0, "bike_id": "b29844e43606a3e38d887afda79bf083", "fusion_lon": 0.0, "rental_uris": {"android": "https://dc.lft.to/lastmile_qr_scan", "ios": "https://dc.lft.to/lastmile_qr_scan"}, "name": "b29844e43606a3e38d887afda79bf083", "type": "electric_scooter", "lat": 38.89224866666667, "is_disabled": 0}, {"fusion_lat": 0.0, "lon": -77.0340835, "is_reserved": 0, "bike_id": "61c32a015232a99a969ecae297508e5f", "fusion_lon": 0.0, "rental_uris": {"android": "https://dc.lft.to/lastmile_qr_scan", "ios": "https://dc.lft.to/lastmile_qr_scan"}, "name": "61c32a015232a99a969ecae297508e5f", "type": "electric_scooter", "lat": 38.92254966666667, "is_disabled": 0}, {"fusion_lat": 0.0, "lon": -77.042191, "is_reserved": 0, "bike_id": "7a202b67eefc803994eb516f7551b79b", "fusion_lon": 0.0, "rental_uris": {"android": "https://dc.lft.to/lastmile_qr_scan", "ios": "https://dc.lft.to/lastmile_qr_scan"}, "name": "7a202b67eefc803994eb516f7551b79b", "type": "electric_scooter", "lat": 38.91412616666667, "is_disabled": 0}, {"fusion_lat": 0.0, "lon": -77.02285033333334, "is_reserved": 0, "bike_id": "26b6f9a6d4540ebc6d9fd140904ebd56", "fusion_lon": 0.0, "rental_uris": {"android": "https://dc.lft.to/lastmile_qr_scan", "ios": "https://dc.lft.to/lastmile_qr_scan"}, "name": "26b6f9a6d4540ebc6d9fd140904ebd56", "type": "electric_scooter", "lat": 38.916291333333334, "is_disabled": 0}, {"fusion_lat": 0.0, "lon": -77.03703266666666, "is_reserved": 0, "bike_id": "60941d845afc09220e6de829f790e8ee", "fusion_lon": 0.0, "rental_uris": {"android": "https://dc.lft.to/lastmile_qr_scan", "ios": "https://dc.lft.to/lastmile_qr_scan"}, "name": "60941d845afc09220e6de829f790e8ee", "type": "electric_scooter", "lat": 38.92614416666667, "is_disabled": 0}, {"fusion_lat": 0.0, "lon": -77.02982366666667, "is_reserved": 0, "bike_id": "3000dd9ed26f9377271b5051d2eedaf8", "fusion_lon": 0.0, "rental_uris": {"android": "https://dc.lft.to/lastmile_qr_scan", "ios": "https://dc.lft.to/lastmile_qr_scan"}, "name": "3000dd9ed26f9377271b5051d2eedaf8", "type": "electric_scooter", "lat": 38.907174499999996, "is_disabled": 0}, {"fusion_lat": 0.0, "lon": -77.0374835, "is_reserved": 0, "bike_id": "0530bf6edc7e856f536a289fbf5bd34e", "fusion_lon": 0.0, "rental_uris": {"android": "https://dc.lft.to/lastmile_qr_scan", "ios": "https://dc.lft.to/lastmile_qr_scan"}, "name": "0530bf6edc7e856f536a289fbf5bd34e", "type": "electric_scooter", "lat": 38.91694833333333, "is_disabled": 0}, {"fusion_lat": 0.0, "lon": -77.02979916666666, "is_reserved": 0, "bike_id": "6d44444e6b682424c79b5e813d5b9302", "fusion_lon": 0.0, "rental_uris": {"android": "https://dc.lft.to/lastmile_qr_scan", "ios": "https://dc.lft.to/lastmile_qr_scan"}, "name": "6d44444e6b682424c79b5e813d5b9302", "type": "electric_scooter", "lat": 38.907223333333334, "is_disabled": 0}, {"fusion_lat": 0.0, "lon": -77.00770716666666, "is_reserved": 0, "bike_id": "4b06379c7e9b39204e1e94a1625a71db", "fusion_lon": 0.0, "rental_uris": {"android": "https://dc.lft.to/lastmile_qr_scan", "ios": "https://dc.lft.to/lastmile_qr_scan"}, "name": "4b06379c7e9b39204e1e94a1625a71db", "type": "electric_scooter", "lat": 38.92671566666667, "is_disabled": 0}, {"fusion_lat": 0.0, "lon": -77.02805833333333, "is_reserved": 0, "bike_id": "3217334d0f26b8fa6b6a073013af36bd", "fusion_lon": 0.0, "rental_uris": {"android": "https://dc.lft.to/lastmile_qr_scan", "ios": "https://dc.lft.to/lastmile_qr_scan"}, "name": "3217334d0f26b8fa6b6a073013af36bd", "type": "electric_scooter", "lat": 38.932988, "is_disabled": 0}, {"fusion_lat": 0.0, "lon": -77.0072245, "is_reserved": 0, "bike_id": "dfd6d0a03da752a7fae57479f7a5dfb3", "fusion_lon": 0.0, "rental_uris": {"android": "https://dc.lft.to/lastmile_qr_scan", "ios": "https://dc.lft.to/lastmile_qr_scan"}, "name": "dfd6d0a03da752a7fae57479f7a5dfb3", "type": "electric_scooter", "lat": 38.91702266666667, "is_disabled": 0}, {"fusion_lat": 0.0, "lon": -77.03896516666667, "is_reserved": 0, "bike_id": "e9d3808a60c5c003566d1cedb16f2051", "fusion_lon": 0.0, "rental_uris": {"android": "https://dc.lft.to/lastmile_qr_scan", "ios": "https://dc.lft.to/lastmile_qr_scan"}, "name": "e9d3808a60c5c003566d1cedb16f2051", "type": "electric_scooter", "lat": 38.914718666666666, "is_disabled": 0}, {"fusion_lat": 0.0, "lon": -77.01626733333333, "is_reserved": 0, "bike_id": "eb153ae3feff062ddac883276acca988", "fusion_lon": 0.0, "rental_uris": {"android": "https://dc.lft.to/lastmile_qr_scan", "ios": "https://dc.lft.to/lastmile_qr_scan"}, "name": "eb153ae3feff062ddac883276acca988", "type": "electric_scooter", "lat": 38.903248, "is_disabled": 0}, {"fusion_lat": 0.0, "lon": -77.0097865, "is_reserved": 0, "bike_id": "47fc83bfb8596a8b17cb2c7db0170867", "fusion_lon": 0.0, "rental_uris": {"android": "https://dc.lft.to/lastmile_qr_scan", "ios": "https://dc.lft.to/lastmile_qr_scan"}, "name": "47fc83bfb8596a8b17cb2c7db0170867", "type": "electric_scooter", "lat": 38.914116166666666, "is_disabled": 0}, {"fusion_lat": 0.0, "lon": -77.07076933333333, "is_reserved": 0, "bike_id": "090ef786e3a8c58a8fe23ddd3a98b825", "fusion_lon": 0.0, "rental_uris": {"android": "https://dc.lft.to/lastmile_qr_scan", "ios": "https://dc.lft.to/lastmile_qr_scan"}, "name": "090ef786e3a8c58a8fe23ddd3a98b825", "type": "electric_scooter", "lat": 38.931709166666664, "is_disabled": 0}, {"fusion_lat": 0.0, "lon": -77.02794083333333, "is_reserved": 0, "bike_id": "9b61ad4f5c8a7aa9a41e1f0af1e0ff32", "fusion_lon": 0.0, "rental_uris": {"android": "https://dc.lft.to/lastmile_qr_scan", "ios": "https://dc.lft.to/lastmile_qr_scan"}, "name": "9b61ad4f5c8a7aa9a41e1f0af1e0ff32", "type": "electric_scooter", "lat": 38.93086066666667, "is_disabled": 0}, {"fusion_lat": 0.0, "lon": -77.0270605, "is_reserved": 0, "bike_id": "fab7052cd4f788772da89e8c536d7351", "fusion_lon": 0.0, "rental_uris": {"android": "https://dc.lft.to/lastmile_qr_scan", "ios": "https://dc.lft.to/lastmile_qr_scan"}, "name": "fab7052cd4f788772da89e8c536d7351", "type": "electric_scooter", "lat": 38.906663333333334, "is_disabled": 0}, {"fusion_lat": 0.0, "lon": -77.0274685, "is_reserved": 0, "bike_id": "de52ba8ad78a097df81118bd4847823d", "fusion_lon": 0.0, "rental_uris": {"android": "https://dc.lft.to/lastmile_qr_scan", "ios": "https://dc.lft.to/lastmile_qr_scan"}, "name": "de52ba8ad78a097df81118bd4847823d", "type": "electric_scooter", "lat": 38.92859716666667, "is_disabled": 0}, {"fusion_lat": 0.0, "lon": -76.9375695, "is_reserved": 0, "bike_id": "5d45997fa1ab484782bf915adc99d052", "fusion_lon": 0.0, "rental_uris": {"android": "https://dc.lft.to/lastmile_qr_scan", "ios": "https://dc.lft.to/lastmile_qr_scan"}, "name": "5d45997fa1ab484782bf915adc99d052", "type": "electric_scooter", "lat": 38.89042833333333, "is_disabled": 0}, {"fusion_lat": 0.0, "lon": -77.02696616666667, "is_reserved": 0, "bike_id": "e12d9d9e9f5501606800956c6441d7de", "fusion_lon": 0.0, "rental_uris": {"android": "https://dc.lft.to/lastmile_qr_scan", "ios": "https://dc.lft.to/lastmile_qr_scan"}, "name": "e12d9d9e9f5501606800956c6441d7de", "type": "electric_scooter", "lat": 38.92364716666667, "is_disabled": 0}, {"fusion_lat": 0.0, "lon": -77.011622, "is_reserved": 0, "bike_id": "4cdafca086396af048cde1d72b87dfcf", "fusion_lon": 0.0, "rental_uris": {"android": "https://dc.lft.to/lastmile_qr_scan", "ios": "https://dc.lft.to/lastmile_qr_scan"}, "name": "4cdafca086396af048cde1d72b87dfcf", "type": "electric_scooter", "lat": 38.96988316666667, "is_disabled": 0}, {"fusion_lat": 0.0, "lon": -77.0452175, "is_reserved": 0, "bike_id": "f3e3c1b264be3a7d7f2450964e1acd7f", "fusion_lon": 0.0, "rental_uris": {"android": "https://dc.lft.to/lastmile_qr_scan", "ios": "https://dc.lft.to/lastmile_qr_scan"}, "name": "f3e3c1b264be3a7d7f2450964e1acd7f", "type": "electric_scooter", "lat": 38.912952833333335, "is_disabled": 0}, {"fusion_lat": 0.0, "lon": -77.025836, "is_reserved": 0, "bike_id": "c0cb3adc3cd09e7bbe2bb664bb82ddb2", "fusion_lon": 0.0, "rental_uris": {"android": "https://dc.lft.to/lastmile_qr_scan", "ios": "https://dc.lft.to/lastmile_qr_scan"}, "name": "c0cb3adc3cd09e7bbe2bb664bb82ddb2", "type": "electric_scooter", "lat": 38.92055633333333, "is_disabled": 0}, {"fusion_lat": 0.0, "lon": -77.04516716666667, "is_reserved": 0, "bike_id": "b1bab7757b4b9929a5ba111d1874d91e", "fusion_lon": 0.0, "rental_uris": {"android": "https://dc.lft.to/lastmile_qr_scan", "ios": "https://dc.lft.to/lastmile_qr_scan"}, "name": "b1bab7757b4b9929a5ba111d1874d91e", "type": "electric_scooter", "lat": 38.91292516666667, "is_disabled": 0}, {"fusion_lat": 0.0, "lon": -77.0284035, "is_reserved": 0, "bike_id": "0ba7718e013c0af96f528cdd6c0941bc", "fusion_lon": 0.0, "rental_uris": {"android": "https://dc.lft.to/lastmile_qr_scan", "ios": "https://dc.lft.to/lastmile_qr_scan"}, "name": "0ba7718e013c0af96f528cdd6c0941bc", "type": "electric_scooter", "lat": 38.904335833333334, "is_disabled": 0}, {"fusion_lat": 0.0, "lon": -77.0272265, "is_reserved": 0, "bike_id": "1a595095b20031d2dd2fe1d47e458942", "fusion_lon": 0.0, "rental_uris": {"android": "https://dc.lft.to/lastmile_qr_scan", "ios": "https://dc.lft.to/lastmile_qr_scan"}, "name": "1a595095b20031d2dd2fe1d47e458942", "type": "electric_scooter", "lat": 38.9495675, "is_disabled": 0}, {"fusion_lat": 0.0, "lon": -77.00440633333334, "is_reserved": 0, "bike_id": "2257f5eb7b00a51e5fe5b5aa1b44fc46", "fusion_lon": 0.0, "rental_uris": {"android": "https://dc.lft.to/lastmile_qr_scan", "ios": "https://dc.lft.to/lastmile_qr_scan"}, "name": "2257f5eb7b00a51e5fe5b5aa1b44fc46", "type": "electric_scooter", "lat": 38.9133015, "is_disabled": 0}, {"fusion_lat": 0.0, "lon": -77.006013, "is_reserved": 0, "bike_id": "612489fbca44cb95acaa3f6181f225d5", "fusion_lon": 0.0, "rental_uris": {"android": "https://dc.lft.to/lastmile_qr_scan", "ios": "https://dc.lft.to/lastmile_qr_scan"}, "name": "612489fbca44cb95acaa3f6181f225d5", "type": "electric_scooter", "lat": 38.88517233333334, "is_disabled": 0}, {"fusion_lat": 0.0, "lon": -77.0256055, "is_reserved": 0, "bike_id": "e027a1c1700d4c4a0814d1df56ce17ae", "fusion_lon": 0.0, "rental_uris": {"android": "https://dc.lft.to/lastmile_qr_scan", "ios": "https://dc.lft.to/lastmile_qr_scan"}, "name": "e027a1c1700d4c4a0814d1df56ce17ae", "type": "electric_scooter", "lat": 38.93860516666667, "is_disabled": 0}, {"fusion_lat": 0.0, "lon": -77.04482816666666, "is_reserved": 0, "bike_id": "aba4fb68441866b629ac2a21d16b44dd", "fusion_lon": 0.0, "rental_uris": {"android": "https://dc.lft.to/lastmile_qr_scan", "ios": "https://dc.lft.to/lastmile_qr_scan"}, "name": "aba4fb68441866b629ac2a21d16b44dd", "type": "electric_scooter", "lat": 38.9038625, "is_disabled": 0}, {"fusion_lat": 0.0, "lon": -77.02693816666667, "is_reserved": 0, "bike_id": "6896aefc623dd94a6071cab8ba725835", "fusion_lon": 0.0, "rental_uris": {"android": "https://dc.lft.to/lastmile_qr_scan", "ios": "https://dc.lft.to/lastmile_qr_scan"}, "name": "6896aefc623dd94a6071cab8ba725835", "type": "electric_scooter", "lat": 38.91251, "is_disabled": 0}, {"fusion_lat": 0.0, "lon": -77.05211483333333, "is_reserved": 0, "bike_id": "df7a00f0e096dc6ced5b72a8d0b79cb0", "fusion_lon": 0.0, "rental_uris": {"android": "https://dc.lft.to/lastmile_qr_scan", "ios": "https://dc.lft.to/lastmile_qr_scan"}, "name": "df7a00f0e096dc6ced5b72a8d0b79cb0", "type": "electric_scooter", "lat": 38.91561183333334, "is_disabled": 0}, {"fusion_lat": 0.0, "lon": -76.93363933333333, "is_reserved": 0, "bike_id": "90937b7ccfd463106a32e75c1e9924a1", "fusion_lon": 0.0, "rental_uris": {"android": "https://dc.lft.to/lastmile_qr_scan", "ios": "https://dc.lft.to/lastmile_qr_scan"}, "name": "90937b7ccfd463106a32e75c1e9924a1", "type": "electric_scooter", "lat": 38.8879875, "is_disabled": 0}, {"fusion_lat": 0.0, "lon": -77.02402183333334, "is_reserved": 0, "bike_id": "1eed9e9214388c2348ca61ca52069f4b", "fusion_lon": 0.0, "rental_uris": {"android": "https://dc.lft.to/lastmile_qr_scan", "ios": "https://dc.lft.to/lastmile_qr_scan"}, "name": "1eed9e9214388c2348ca61ca52069f4b", "type": "electric_scooter", "lat": 38.937061666666665, "is_disabled": 0}, {"fusion_lat": 0.0, "lon": -77.0438235, "is_reserved": 0, "bike_id": "da328356a44a161ad15976068d5699b8", "fusion_lon": 0.0, "rental_uris": {"android": "https://dc.lft.to/lastmile_qr_scan", "ios": "https://dc.lft.to/lastmile_qr_scan"}, "name": "da328356a44a161ad15976068d5699b8", "type": "electric_scooter", "lat": 38.92227916666667, "is_disabled": 0}, {"fusion_lat": 0.0, "lon": -77.02808833333333, "is_reserved": 0, "bike_id": "49ee7a9dcb189d1815d1d69ee004f9de", "fusion_lon": 0.0, "rental_uris": {"android": "https://dc.lft.to/lastmile_qr_scan", "ios": "https://dc.lft.to/lastmile_qr_scan"}, "name": "49ee7a9dcb189d1815d1d69ee004f9de", "type": "electric_scooter", "lat": 38.930809833333335, "is_disabled": 0}, {"fusion_lat": 0.0, "lon": -76.9884685, "is_reserved": 0, "bike_id": "9ddca7e3db200d35479f9c05cf035efb", "fusion_lon": 0.0, "rental_uris": {"android": "https://dc.lft.to/lastmile_qr_scan", "ios": "https://dc.lft.to/lastmile_qr_scan"}, "name": "9ddca7e3db200d35479f9c05cf035efb", "type": "electric_scooter", "lat": 38.900414, "is_disabled": 0}, {"fusion_lat": 0.0, "lon": -76.987448, "is_reserved": 0, "bike_id": "b81e8ffb0793d9529094b862f061420d", "fusion_lon": 0.0, "rental_uris": {"android": "https://dc.lft.to/lastmile_qr_scan", "ios": "https://dc.lft.to/lastmile_qr_scan"}, "name": "b81e8ffb0793d9529094b862f061420d", "type": "electric_scooter", "lat": 38.8861265, "is_disabled": 0}, {"fusion_lat": 0.0, "lon": -77.0150005, "is_reserved": 0, "bike_id": "c0d14f872460203fdd988b0ec47b551d", "fusion_lon": 0.0, "rental_uris": {"android": "https://dc.lft.to/lastmile_qr_scan", "ios": "https://dc.lft.to/lastmile_qr_scan"}, "name": "c0d14f872460203fdd988b0ec47b551d", "type": "electric_scooter", "lat": 38.917634666666665, "is_disabled": 0}, {"fusion_lat": 0.0, "lon": -77.03767033333334, "is_reserved": 0, "bike_id": "ccb70fb0b02fb90b51e65c7adfadd926", "fusion_lon": 0.0, "rental_uris": {"android": "https://dc.lft.to/lastmile_qr_scan", "ios": "https://dc.lft.to/lastmile_qr_scan"}, "name": "ccb70fb0b02fb90b51e65c7adfadd926", "type": "electric_scooter", "lat": 38.9168575, "is_disabled": 0}, {"fusion_lat": 0.0, "lon": -77.048649, "is_reserved": 0, "bike_id": "de28a2bb711b745b663a51cd3ccbd5c5", "fusion_lon": 0.0, "rental_uris": {"android": "https://dc.lft.to/lastmile_qr_scan", "ios": "https://dc.lft.to/lastmile_qr_scan"}, "name": "de28a2bb711b745b663a51cd3ccbd5c5", "type": "electric_scooter", "lat": 38.91960316666667, "is_disabled": 0}, {"fusion_lat": 0.0, "lon": -77.02804966666666, "is_reserved": 0, "bike_id": "e1b5c239307cda8eb60b752fea03233b", "fusion_lon": 0.0, "rental_uris": {"android": "https://dc.lft.to/lastmile_qr_scan", "ios": "https://dc.lft.to/lastmile_qr_scan"}, "name": "e1b5c239307cda8eb60b752fea03233b", "type": "electric_scooter", "lat": 38.8922735, "is_disabled": 0}, {"fusion_lat": 0.0, "lon": -77.01978566666666, "is_reserved": 0, "bike_id": "ae464a7beeaaa9eeef882c52eee3fdb9", "fusion_lon": 0.0, "rental_uris": {"android": "https://dc.lft.to/lastmile_qr_scan", "ios": "https://dc.lft.to/lastmile_qr_scan"}, "name": "ae464a7beeaaa9eeef882c52eee3fdb9", "type": "electric_scooter", "lat": 38.875827, "is_disabled": 0}, {"fusion_lat": 0.0, "lon": -77.02167616666667, "is_reserved": 0, "bike_id": "bf671e44f94b62ec2538edba9ee90a33", "fusion_lon": 0.0, "rental_uris": {"android": "https://dc.lft.to/lastmile_qr_scan", "ios": "https://dc.lft.to/lastmile_qr_scan"}, "name": "bf671e44f94b62ec2538edba9ee90a33", "type": "electric_scooter", "lat": 38.9019895, "is_disabled": 0}, {"fusion_lat": 0.0, "lon": -76.9889055, "is_reserved": 0, "bike_id": "b47f4cdda77e0bff1c5e5a46deaa8235", "fusion_lon": 0.0, "rental_uris": {"android": "https://dc.lft.to/lastmile_qr_scan", "ios": "https://dc.lft.to/lastmile_qr_scan"}, "name": "b47f4cdda77e0bff1c5e5a46deaa8235", "type": "electric_scooter", "lat": 38.866553, "is_disabled": 0}, {"fusion_lat": 0.0, "lon": -77.03343783333334, "is_reserved": 0, "bike_id": "85a37f44c66b75988acec5a4c58be849", "fusion_lon": 0.0, "rental_uris": {"android": "https://dc.lft.to/lastmile_qr_scan", "ios": "https://dc.lft.to/lastmile_qr_scan"}, "name": "85a37f44c66b75988acec5a4c58be849", "type": "electric_scooter", "lat": 38.898292166666664, "is_disabled": 0}, {"fusion_lat": 0.0, "lon": -77.03530516666666, "is_reserved": 0, "bike_id": "a4b80f920ffcf153a8d3121c85bf04f1", "fusion_lon": 0.0, "rental_uris": {"android": "https://dc.lft.to/lastmile_qr_scan", "ios": "https://dc.lft.to/lastmile_qr_scan"}, "name": "a4b80f920ffcf153a8d3121c85bf04f1", "type": "electric_scooter", "lat": 38.92260533333334, "is_disabled": 0}, {"fusion_lat": 0.0, "lon": -77.04692483333334, "is_reserved": 0, "bike_id": "72eb11f75c13ad1bca48660903c203ae", "fusion_lon": 0.0, "rental_uris": {"android": "https://dc.lft.to/lastmile_qr_scan", "ios": "https://dc.lft.to/lastmile_qr_scan"}, "name": "72eb11f75c13ad1bca48660903c203ae", "type": "electric_bike", "lat": 39.023898333333335, "is_disabled": 0}, {"fusion_lat": 0.0, "lon": -77.03958466666667, "is_reserved": 0, "bike_id": "8830eb5983c7bc4339e2e539a11ed993", "fusion_lon": 0.0, "rental_uris": {"android": "https://dc.lft.to/lastmile_qr_scan", "ios": "https://dc.lft.to/lastmile_qr_scan"}, "name": "8830eb5983c7bc4339e2e539a11ed993", "type": "electric_scooter", "lat": 38.89247783333333, "is_disabled": 0}, {"fusion_lat": 0.0, "lon": -77.037218, "is_reserved": 0, "bike_id": "4b52b249baccec096abeae3bfde8f293", "fusion_lon": 0.0, "rental_uris": {"android": "https://dc.lft.to/lastmile_qr_scan", "ios": "https://dc.lft.to/lastmile_qr_scan"}, "name": "4b52b249baccec096abeae3bfde8f293", "type": "electric_scooter", "lat": 38.916881833333335, "is_disabled": 0}, {"fusion_lat": 0.0, "lon": -76.97349683333333, "is_reserved": 0, "bike_id": "e0dd1ffae526ddc8b8a120453465892a", "fusion_lon": 0.0, "rental_uris": {"android": "https://dc.lft.to/lastmile_qr_scan", "ios": "https://dc.lft.to/lastmile_qr_scan"}, "name": "e0dd1ffae526ddc8b8a120453465892a", "type": "electric_scooter", "lat": 38.865831666666665, "is_disabled": 0}, {"fusion_lat": 0.0, "lon": -77.0436055, "is_reserved": 0, "bike_id": "4cd255fe39ddea4300a7e33c0aa6a7b8", "fusion_lon": 0.0, "rental_uris": {"android": "https://dc.lft.to/lastmile_qr_scan", "ios": "https://dc.lft.to/lastmile_qr_scan"}, "name": "4cd255fe39ddea4300a7e33c0aa6a7b8", "type": "electric_scooter", "lat": 38.920609166666665, "is_disabled": 0}, {"fusion_lat": 0.0, "lon": -77.06463516666666, "is_reserved": 0, "bike_id": "3caba53316c5b1fca7854052ab0d41a8", "fusion_lon": 0.0, "rental_uris": {"android": "https://dc.lft.to/lastmile_qr_scan", "ios": "https://dc.lft.to/lastmile_qr_scan"}, "name": "3caba53316c5b1fca7854052ab0d41a8", "type": "electric_scooter", "lat": 38.92747216666667, "is_disabled": 0}, {"fusion_lat": 0.0, "lon": -76.98238283333333, "is_reserved": 0, "bike_id": "c188be2cebe37757df2bd4d7eed43d19", "fusion_lon": 0.0, "rental_uris": {"android": "https://dc.lft.to/lastmile_qr_scan", "ios": "https://dc.lft.to/lastmile_qr_scan"}, "name": "c188be2cebe37757df2bd4d7eed43d19", "type": "electric_scooter", "lat": 38.886474166666666, "is_disabled": 0}, {"fusion_lat": 0.0, "lon": -77.03494266666667, "is_reserved": 0, "bike_id": "aaf74cf63be04cdb6e8d1036ef1c9df4", "fusion_lon": 0.0, "rental_uris": {"android": "https://dc.lft.to/lastmile_qr_scan", "ios": "https://dc.lft.to/lastmile_qr_scan"}, "name": "aaf74cf63be04cdb6e8d1036ef1c9df4", "type": "electric_scooter", "lat": 38.92476833333333, "is_disabled": 0}, {"fusion_lat": 0.0, "lon": -77.01589433333334, "is_reserved": 0, "bike_id": "35a9be844daa23d05d4fa5e5090196c1", "fusion_lon": 0.0, "rental_uris": {"android": "https://dc.lft.to/lastmile_qr_scan", "ios": "https://dc.lft.to/lastmile_qr_scan"}, "name": "35a9be844daa23d05d4fa5e5090196c1", "type": "electric_scooter", "lat": 38.886157833333336, "is_disabled": 0}, {"fusion_lat": 0.0, "lon": -77.03781116666667, "is_reserved": 0, "bike_id": "18911844d141a3c2aec3e16feaf2f3ab", "fusion_lon": 0.0, "rental_uris": {"android": "https://dc.lft.to/lastmile_qr_scan", "ios": "https://dc.lft.to/lastmile_qr_scan"}, "name": "18911844d141a3c2aec3e16feaf2f3ab", "type": "electric_scooter", "lat": 38.916825, "is_disabled": 0}, {"fusion_lat": 0.0, "lon": -77.02677133333333, "is_reserved": 0, "bike_id": "cc1a18ad4549db763da504caeb317ad1", "fusion_lon": 0.0, "rental_uris": {"android": "https://dc.lft.to/lastmile_qr_scan", "ios": "https://dc.lft.to/lastmile_qr_scan"}, "name": "cc1a18ad4549db763da504caeb317ad1", "type": "electric_scooter", "lat": 38.901079333333335, "is_disabled": 0}, {"fusion_lat": 0.0, "lon": -77.02582733333334, "is_reserved": 0, "bike_id": "64302f6cb6d69e2201540a366952bb44", "fusion_lon": 0.0, "rental_uris": {"android": "https://dc.lft.to/lastmile_qr_scan", "ios": "https://dc.lft.to/lastmile_qr_scan"}, "name": "64302f6cb6d69e2201540a366952bb44", "type": "electric_scooter", "lat": 38.9205495, "is_disabled": 0}, {"fusion_lat": 0.0, "lon": -77.0322735, "is_reserved": 0, "bike_id": "48f545eeb76e37f0dd9569d4c52ddec7", "fusion_lon": 0.0, "rental_uris": {"android": "https://dc.lft.to/lastmile_qr_scan", "ios": "https://dc.lft.to/lastmile_qr_scan"}, "name": "48f545eeb76e37f0dd9569d4c52ddec7", "type": "electric_scooter", "lat": 38.928596166666665, "is_disabled": 0}, {"fusion_lat": 0.0, "lon": -76.98360666666666, "is_reserved": 0, "bike_id": "b2f165fb012f538dc80609f51f7e7edf", "fusion_lon": 0.0, "rental_uris": {"android": "https://dc.lft.to/lastmile_qr_scan", "ios": "https://dc.lft.to/lastmile_qr_scan"}, "name": "b2f165fb012f538dc80609f51f7e7edf", "type": "electric_scooter", "lat": 38.914977, "is_disabled": 0}, {"fusion_lat": 0.0, "lon": -77.03870583333334, "is_reserved": 0, "bike_id": "a7838b02e3b1caad84313976c5711585", "fusion_lon": 0.0, "rental_uris": {"android": "https://dc.lft.to/lastmile_qr_scan", "ios": "https://dc.lft.to/lastmile_qr_scan"}, "name": "a7838b02e3b1caad84313976c5711585", "type": "electric_scooter", "lat": 38.921515, "is_disabled": 0}, {"fusion_lat": 0.0, "lon": -77.0121695, "is_reserved": 0, "bike_id": "24450b9ee16ac8694a0131c8584d0353", "fusion_lon": 0.0, "rental_uris": {"android": "https://dc.lft.to/lastmile_qr_scan", "ios": "https://dc.lft.to/lastmile_qr_scan"}, "name": "24450b9ee16ac8694a0131c8584d0353", "type": "electric_scooter", "lat": 38.870916666666666, "is_disabled": 0}, {"fusion_lat": 0.0, "lon": -77.0629005, "is_reserved": 0, "bike_id": "0ff7a946b497bbe0d0a6c1fa4d419952", "fusion_lon": 0.0, "rental_uris": {"android": "https://dc.lft.to/lastmile_qr_scan", "ios": "https://dc.lft.to/lastmile_qr_scan"}, "name": "0ff7a946b497bbe0d0a6c1fa4d419952", "type": "electric_scooter", "lat": 38.90436483333333, "is_disabled": 0}, {"fusion_lat": 0.0, "lon": -76.99143566666666, "is_reserved": 0, "bike_id": "51070d6bfc52b05eff075d25031e2731", "fusion_lon": 0.0, "rental_uris": {"android": "https://dc.lft.to/lastmile_qr_scan", "ios": "https://dc.lft.to/lastmile_qr_scan"}, "name": "51070d6bfc52b05eff075d25031e2731", "type": "electric_scooter", "lat": 38.885904333333336, "is_disabled": 0}, {"fusion_lat": 0.0, "lon": -77.11159066666667, "is_reserved": 0, "bike_id": "8cc4c3301b8aabf10455437ed5816e4b", "fusion_lon": 0.0, "rental_uris": {"android": "https://dc.lft.to/lastmile_qr_scan", "ios": "https://dc.lft.to/lastmile_qr_scan"}, "name": "8cc4c3301b8aabf10455437ed5816e4b", "type": "electric_bike", "lat": 38.85508516666667, "is_disabled": 0}, {"fusion_lat": 0.0, "lon": -77.01865716666667, "is_reserved": 0, "bike_id": "703b5f3735050f37fd6a34e4f96b84b2", "fusion_lon": 0.0, "rental_uris": {"android": "https://dc.lft.to/lastmile_qr_scan", "ios": "https://dc.lft.to/lastmile_qr_scan"}, "name": "703b5f3735050f37fd6a34e4f96b84b2", "type": "electric_scooter", "lat": 38.97365216666667, "is_disabled": 0}, {"fusion_lat": 0.0, "lon": -76.99536216666667, "is_reserved": 0, "bike_id": "474d73297e1c81e6adaa3138451d5541", "fusion_lon": 0.0, "rental_uris": {"android": "https://dc.lft.to/lastmile_qr_scan", "ios": "https://dc.lft.to/lastmile_qr_scan"}, "name": "474d73297e1c81e6adaa3138451d5541", "type": "electric_scooter", "lat": 38.883698333333335, "is_disabled": 0}, {"fusion_lat": 0.0, "lon": -77.18740116666666, "is_reserved": 0, "bike_id": "f7c994e4b8b8a94b15e4b4573f448856", "fusion_lon": 0.0, "rental_uris": {"android": "https://dc.lft.to/lastmile_qr_scan", "ios": "https://dc.lft.to/lastmile_qr_scan"}, "name": "f7c994e4b8b8a94b15e4b4573f448856", "type": "electric_bike", "lat": 38.893529, "is_disabled": 0}, {"fusion_lat": 0.0, "lon": -77.0314735, "is_reserved": 0, "bike_id": "e37a55d2b26e43d79cb8b9a050de86f4", "fusion_lon": 0.0, "rental_uris": {"android": "https://dc.lft.to/lastmile_qr_scan", "ios": "https://dc.lft.to/lastmile_qr_scan"}, "name": "e37a55d2b26e43d79cb8b9a050de86f4", "type": "electric_scooter", "lat": 38.9192665, "is_disabled": 0}, {"fusion_lat": 0.0, "lon": -77.00340516666667, "is_reserved": 0, "bike_id": "b968a65d6d81eb6df407d67770d56e12", "fusion_lon": 0.0, "rental_uris": {"android": "https://dc.lft.to/lastmile_qr_scan", "ios": "https://dc.lft.to/lastmile_qr_scan"}, "name": "b968a65d6d81eb6df407d67770d56e12", "type": "electric_scooter", "lat": 38.89524433333333, "is_disabled": 0}, {"fusion_lat": 0.0, "lon": -77.02489816666667, "is_reserved": 0, "bike_id": "b13939dffd770fdbcd7193f24db21cce", "fusion_lon": 0.0, "rental_uris": {"android": "https://dc.lft.to/lastmile_qr_scan", "ios": "https://dc.lft.to/lastmile_qr_scan"}, "name": "b13939dffd770fdbcd7193f24db21cce", "type": "electric_scooter", "lat": 38.93739766666667, "is_disabled": 0}, {"fusion_lat": 0.0, "lon": -77.0628265, "is_reserved": 0, "bike_id": "3e56d5e5ca50e5fc77857408f63c9be5", "fusion_lon": 0.0, "rental_uris": {"android": "https://dc.lft.to/lastmile_qr_scan", "ios": "https://dc.lft.to/lastmile_qr_scan"}, "name": "3e56d5e5ca50e5fc77857408f63c9be5", "type": "electric_scooter", "lat": 38.905781833333336, "is_disabled": 0}, {"fusion_lat": 0.0, "lon": -77.01522816666666, "is_reserved": 0, "bike_id": "a4cc8b1cc13d3f3f19a7b6587ca9edee", "fusion_lon": 0.0, "rental_uris": {"android": "https://dc.lft.to/lastmile_qr_scan", "ios": "https://dc.lft.to/lastmile_qr_scan"}, "name": "a4cc8b1cc13d3f3f19a7b6587ca9edee", "type": "electric_bike", "lat": 38.9186715, "is_disabled": 0}, {"fusion_lat": 0.0, "lon": -76.999347, "is_reserved": 0, "bike_id": "0c54b983e7b794be7b78b344477a3173", "fusion_lon": 0.0, "rental_uris": {"android": "https://dc.lft.to/lastmile_qr_scan", "ios": "https://dc.lft.to/lastmile_qr_scan"}, "name": "0c54b983e7b794be7b78b344477a3173", "type": "electric_scooter", "lat": 38.8430085, "is_disabled": 0}, {"fusion_lat": 0.0, "lon": -77.00891233333333, "is_reserved": 0, "bike_id": "50d92fe34e5e55014942905b6d39a04c", "fusion_lon": 0.0, "rental_uris": {"android": "https://dc.lft.to/lastmile_qr_scan", "ios": "https://dc.lft.to/lastmile_qr_scan"}, "name": "50d92fe34e5e55014942905b6d39a04c", "type": "electric_bike", "lat": 38.905756, "is_disabled": 0}, {"fusion_lat": 0.0, "lon": -76.94871966666666, "is_reserved": 0, "bike_id": "189b0ec10fdf2d8be409018ab35b5b40", "fusion_lon": 0.0, "rental_uris": {"android": "https://dc.lft.to/lastmile_qr_scan", "ios": "https://dc.lft.to/lastmile_qr_scan"}, "name": "189b0ec10fdf2d8be409018ab35b5b40", "type": "electric_scooter", "lat": 38.8954595, "is_disabled": 0}, {"fusion_lat": 0.0, "lon": -76.99846616666666, "is_reserved": 0, "bike_id": "872844d1cb091a94d8c8e3e214ea6485", "fusion_lon": 0.0, "rental_uris": {"android": "https://dc.lft.to/lastmile_qr_scan", "ios": "https://dc.lft.to/lastmile_qr_scan"}, "name": "872844d1cb091a94d8c8e3e214ea6485", "type": "electric_scooter", "lat": 38.90020083333334, "is_disabled": 0}, {"fusion_lat": 0.0, "lon": -77.07325466666667, "is_reserved": 0, "bike_id": "01e8a58f6ef50d810b8d467b041041ed", "fusion_lon": 0.0, "rental_uris": {"android": "https://dc.lft.to/lastmile_qr_scan", "ios": "https://dc.lft.to/lastmile_qr_scan"}, "name": "01e8a58f6ef50d810b8d467b041041ed", "type": "electric_scooter", "lat": 38.92604033333333, "is_disabled": 0}, {"fusion_lat": 0.0, "lon": -77.01075966666667, "is_reserved": 0, "bike_id": "20493df02ca49a327edd6814d19bc05d", "fusion_lon": 0.0, "rental_uris": {"android": "https://dc.lft.to/lastmile_qr_scan", "ios": "https://dc.lft.to/lastmile_qr_scan"}, "name": "20493df02ca49a327edd6814d19bc05d", "type": "electric_scooter", "lat": 38.917657, "is_disabled": 0}, {"fusion_lat": 0.0, "lon": -77.01866583333333, "is_reserved": 0, "bike_id": "bfafa659dd7490e1e16c6e172c9afa2b", "fusion_lon": 0.0, "rental_uris": {"android": "https://dc.lft.to/lastmile_qr_scan", "ios": "https://dc.lft.to/lastmile_qr_scan"}, "name": "bfafa659dd7490e1e16c6e172c9afa2b", "type": "electric_scooter", "lat": 38.97369783333333, "is_disabled": 0}, {"fusion_lat": 0.0, "lon": -76.99649416666666, "is_reserved": 0, "bike_id": "0ec9fa7a02fcd1d2ca2eb793e952e5f2", "fusion_lon": 0.0, "rental_uris": {"android": "https://dc.lft.to/lastmile_qr_scan", "ios": "https://dc.lft.to/lastmile_qr_scan"}, "name": "0ec9fa7a02fcd1d2ca2eb793e952e5f2", "type": "electric_scooter", "lat": 38.90026733333333, "is_disabled": 0}, {"fusion_lat": 0.0, "lon": -77.04194333333334, "is_reserved": 0, "bike_id": "8a17169551468e17201ff45579381978", "fusion_lon": 0.0, "rental_uris": {"android": "https://dc.lft.to/lastmile_qr_scan", "ios": "https://dc.lft.to/lastmile_qr_scan"}, "name": "8a17169551468e17201ff45579381978", "type": "electric_scooter", "lat": 38.91971683333333, "is_disabled": 0}, {"fusion_lat": 0.0, "lon": -77.02949983333333, "is_reserved": 0, "bike_id": "1c2924f06fa74b7e1d67ce965a2b8336", "fusion_lon": 0.0, "rental_uris": {"android": "https://dc.lft.to/lastmile_qr_scan", "ios": "https://dc.lft.to/lastmile_qr_scan"}, "name": "1c2924f06fa74b7e1d67ce965a2b8336", "type": "electric_scooter", "lat": 38.916853833333334, "is_disabled": 0}, {"fusion_lat": 0.0, "lon": -77.05747083333333, "is_reserved": 0, "bike_id": "8e5175b884db2c6aa32fafa9d8570db4", "fusion_lon": 0.0, "rental_uris": {"android": "https://dc.lft.to/lastmile_qr_scan", "ios": "https://dc.lft.to/lastmile_qr_scan"}, "name": "8e5175b884db2c6aa32fafa9d8570db4", "type": "electric_scooter", "lat": 38.93387366666666, "is_disabled": 0}, {"fusion_lat": 0.0, "lon": -77.04276433333334, "is_reserved": 0, "bike_id": "f6e4be2c600bf717390140d6d47afcae", "fusion_lon": 0.0, "rental_uris": {"android": "https://dc.lft.to/lastmile_qr_scan", "ios": "https://dc.lft.to/lastmile_qr_scan"}, "name": "f6e4be2c600bf717390140d6d47afcae", "type": "electric_scooter", "lat": 38.913373166666666, "is_disabled": 0}, {"fusion_lat": 0.0, "lon": -76.93267616666667, "is_reserved": 0, "bike_id": "afa5eafdbc6896c58a1d4db6978265df", "fusion_lon": 0.0, "rental_uris": {"android": "https://dc.lft.to/lastmile_qr_scan", "ios": "https://dc.lft.to/lastmile_qr_scan"}, "name": "afa5eafdbc6896c58a1d4db6978265df", "type": "electric_scooter", "lat": 38.89888716666667, "is_disabled": 0}, {"fusion_lat": 0.0, "lon": -77.00619633333334, "is_reserved": 0, "bike_id": "25f85710fa1bc44237d7c61c1b954116", "fusion_lon": 0.0, "rental_uris": {"android": "https://dc.lft.to/lastmile_qr_scan", "ios": "https://dc.lft.to/lastmile_qr_scan"}, "name": "25f85710fa1bc44237d7c61c1b954116", "type": "electric_scooter", "lat": 38.908520833333334, "is_disabled": 0}, {"fusion_lat": 0.0, "lon": -77.032171, "is_reserved": 0, "bike_id": "c2ce3e6665db2e098126d843a4aec8a5", "fusion_lon": 0.0, "rental_uris": {"android": "https://dc.lft.to/lastmile_qr_scan", "ios": "https://dc.lft.to/lastmile_qr_scan"}, "name": "c2ce3e6665db2e098126d843a4aec8a5", "type": "electric_scooter", "lat": 38.89221116666667, "is_disabled": 0}, {"fusion_lat": 0.0, "lon": -77.03479083333333, "is_reserved": 0, "bike_id": "b009ecade4f4192b0596d0acba0d9f0e", "fusion_lon": 0.0, "rental_uris": {"android": "https://dc.lft.to/lastmile_qr_scan", "ios": "https://dc.lft.to/lastmile_qr_scan"}, "name": "b009ecade4f4192b0596d0acba0d9f0e", "type": "electric_scooter", "lat": 38.925369333333336, "is_disabled": 0}, {"fusion_lat": 0.0, "lon": -77.04250683333333, "is_reserved": 0, "bike_id": "0763fbf96e8a5b91053a4533b2157920", "fusion_lon": 0.0, "rental_uris": {"android": "https://dc.lft.to/lastmile_qr_scan", "ios": "https://dc.lft.to/lastmile_qr_scan"}, "name": "0763fbf96e8a5b91053a4533b2157920", "type": "electric_scooter", "lat": 38.92234583333333, "is_disabled": 0}, {"fusion_lat": 0.0, "lon": -77.04481333333334, "is_reserved": 0, "bike_id": "165fa027eec72a1de6003e3e979417c2", "fusion_lon": 0.0, "rental_uris": {"android": "https://dc.lft.to/lastmile_qr_scan", "ios": "https://dc.lft.to/lastmile_qr_scan"}, "name": "165fa027eec72a1de6003e3e979417c2", "type": "electric_scooter", "lat": 38.903846333333334, "is_disabled": 0}, {"fusion_lat": 0.0, "lon": -77.044521, "is_reserved": 0, "bike_id": "52c07841a8c733aad498ccb652d5d3ff", "fusion_lon": 0.0, "rental_uris": {"android": "https://dc.lft.to/lastmile_qr_scan", "ios": "https://dc.lft.to/lastmile_qr_scan"}, "name": "52c07841a8c733aad498ccb652d5d3ff", "type": "electric_scooter", "lat": 38.91883633333333, "is_disabled": 0}, {"fusion_lat": 0.0, "lon": -77.03493716666667, "is_reserved": 0, "bike_id": "0249be22ad424e1a63e672d9c23188ca", "fusion_lon": 0.0, "rental_uris": {"android": "https://dc.lft.to/lastmile_qr_scan", "ios": "https://dc.lft.to/lastmile_qr_scan"}, "name": "0249be22ad424e1a63e672d9c23188ca", "type": "electric_scooter", "lat": 38.92155966666667, "is_disabled": 0}, {"fusion_lat": 0.0, "lon": -77.04336283333333, "is_reserved": 0, "bike_id": "dd8c71cc68edd8a06d8f5e353628a47d", "fusion_lon": 0.0, "rental_uris": {"android": "https://dc.lft.to/lastmile_qr_scan", "ios": "https://dc.lft.to/lastmile_qr_scan"}, "name": "dd8c71cc68edd8a06d8f5e353628a47d", "type": "electric_scooter", "lat": 38.892255, "is_disabled": 0}, {"fusion_lat": 0.0, "lon": -77.03271616666666, "is_reserved": 0, "bike_id": "0398a313f6d732b5e85c7f6c3cb620a0", "fusion_lon": 0.0, "rental_uris": {"android": "https://dc.lft.to/lastmile_qr_scan", "ios": "https://dc.lft.to/lastmile_qr_scan"}, "name": "0398a313f6d732b5e85c7f6c3cb620a0", "type": "electric_scooter", "lat": 38.9340345, "is_disabled": 0}, {"fusion_lat": 0.0, "lon": -77.00621533333333, "is_reserved": 0, "bike_id": "cc705acb7cc619dfe23f930e1abcbbf7", "fusion_lon": 0.0, "rental_uris": {"android": "https://dc.lft.to/lastmile_qr_scan", "ios": "https://dc.lft.to/lastmile_qr_scan"}, "name": "cc705acb7cc619dfe23f930e1abcbbf7", "type": "electric_scooter", "lat": 38.871711166666664, "is_disabled": 0}, {"fusion_lat": 0.0, "lon": -76.98840166666666, "is_reserved": 0, "bike_id": "94289fe1c224140c04603a21835b377c", "fusion_lon": 0.0, "rental_uris": {"android": "https://dc.lft.to/lastmile_qr_scan", "ios": "https://dc.lft.to/lastmile_qr_scan"}, "name": "94289fe1c224140c04603a21835b377c", "type": "electric_bike", "lat": 38.84275183333333, "is_disabled": 0}, {"fusion_lat": 0.0, "lon": -76.98389533333334, "is_reserved": 0, "bike_id": "df841482af7555259c4353d71d2a2c70", "fusion_lon": 0.0, "rental_uris": {"android": "https://dc.lft.to/lastmile_qr_scan", "ios": "https://dc.lft.to/lastmile_qr_scan"}, "name": "df841482af7555259c4353d71d2a2c70", "type": "electric_scooter", "lat": 38.926923333333335, "is_disabled": 0}, {"fusion_lat": 0.0, "lon": -77.022909, "is_reserved": 0, "bike_id": "6edfe647b6eb7e096e4612993e1e348c", "fusion_lon": 0.0, "rental_uris": {"android": "https://dc.lft.to/lastmile_qr_scan", "ios": "https://dc.lft.to/lastmile_qr_scan"}, "name": "6edfe647b6eb7e096e4612993e1e348c", "type": "electric_scooter", "lat": 38.916196666666664, "is_disabled": 0}, {"fusion_lat": 0.0, "lon": -77.0450935, "is_reserved": 0, "bike_id": "250e163d9e9b5c926fec8e9e3329bece", "fusion_lon": 0.0, "rental_uris": {"android": "https://dc.lft.to/lastmile_qr_scan", "ios": "https://dc.lft.to/lastmile_qr_scan"}, "name": "250e163d9e9b5c926fec8e9e3329bece", "type": "electric_scooter", "lat": 38.91105183333333, "is_disabled": 0}, {"fusion_lat": 0.0, "lon": -77.02032916666667, "is_reserved": 0, "bike_id": "5462b0d9c559fdff44bae0411b42dc31", "fusion_lon": 0.0, "rental_uris": {"android": "https://dc.lft.to/lastmile_qr_scan", "ios": "https://dc.lft.to/lastmile_qr_scan"}, "name": "5462b0d9c559fdff44bae0411b42dc31", "type": "electric_scooter", "lat": 38.92190733333333, "is_disabled": 0}, {"fusion_lat": 0.0, "lon": -77.02694283333334, "is_reserved": 0, "bike_id": "29202e7a11bf12fc34b8a6b1be6eb23e", "fusion_lon": 0.0, "rental_uris": {"android": "https://dc.lft.to/lastmile_qr_scan", "ios": "https://dc.lft.to/lastmile_qr_scan"}, "name": "29202e7a11bf12fc34b8a6b1be6eb23e", "type": "electric_scooter", "lat": 38.91584183333333, "is_disabled": 0}, {"fusion_lat": 0.0, "lon": -77.03612516666666, "is_reserved": 0, "bike_id": "6bc634cf70c0b27c82deb3ca4e2e82f6", "fusion_lon": 0.0, "rental_uris": {"android": "https://dc.lft.to/lastmile_qr_scan", "ios": "https://dc.lft.to/lastmile_qr_scan"}, "name": "6bc634cf70c0b27c82deb3ca4e2e82f6", "type": "electric_scooter", "lat": 38.93043516666667, "is_disabled": 0}, {"fusion_lat": 0.0, "lon": -76.976153, "is_reserved": 0, "bike_id": "125dce0c21b8261c648f23e42b91d20e", "fusion_lon": 0.0, "rental_uris": {"android": "https://dc.lft.to/lastmile_qr_scan", "ios": "https://dc.lft.to/lastmile_qr_scan"}, "name": "125dce0c21b8261c648f23e42b91d20e", "type": "electric_scooter", "lat": 38.91300233333333, "is_disabled": 0}, {"fusion_lat": 0.0, "lon": -77.07822183333333, "is_reserved": 0, "bike_id": "b86b95eb664a076b59ba49581233b311", "fusion_lon": 0.0, "rental_uris": {"android": "https://dc.lft.to/lastmile_qr_scan", "ios": "https://dc.lft.to/lastmile_qr_scan"}, "name": "b86b95eb664a076b59ba49581233b311", "type": "electric_bike", "lat": 38.9363825, "is_disabled": 0}, {"fusion_lat": 0.0, "lon": -77.03262366666667, "is_reserved": 0, "bike_id": "a2d800a9554b7f9b7cebc4bac846decd", "fusion_lon": 0.0, "rental_uris": {"android": "https://dc.lft.to/lastmile_qr_scan", "ios": "https://dc.lft.to/lastmile_qr_scan"}, "name": "a2d800a9554b7f9b7cebc4bac846decd", "type": "electric_scooter", "lat": 38.9181935, "is_disabled": 0}, {"fusion_lat": 0.0, "lon": -77.02612166666667, "is_reserved": 0, "bike_id": "5cb19571238fed2a80895fa7488c56c5", "fusion_lon": 0.0, "rental_uris": {"android": "https://dc.lft.to/lastmile_qr_scan", "ios": "https://dc.lft.to/lastmile_qr_scan"}, "name": "5cb19571238fed2a80895fa7488c56c5", "type": "electric_scooter", "lat": 38.894294, "is_disabled": 0}, {"fusion_lat": 0.0, "lon": -76.98068066666667, "is_reserved": 0, "bike_id": "7a7c4b8004e16c9ba76a4422e31587bc", "fusion_lon": 0.0, "rental_uris": {"android": "https://dc.lft.to/lastmile_qr_scan", "ios": "https://dc.lft.to/lastmile_qr_scan"}, "name": "7a7c4b8004e16c9ba76a4422e31587bc", "type": "electric_scooter", "lat": 38.9016805, "is_disabled": 0}, {"fusion_lat": 0.0, "lon": -77.04566416666667, "is_reserved": 0, "bike_id": "064efcfd8a82a01d597c4983d0c5c7eb", "fusion_lon": 0.0, "rental_uris": {"android": "https://dc.lft.to/lastmile_qr_scan", "ios": "https://dc.lft.to/lastmile_qr_scan"}, "name": "064efcfd8a82a01d597c4983d0c5c7eb", "type": "electric_scooter", "lat": 38.921224, "is_disabled": 0}, {"fusion_lat": 0.0, "lon": -77.04226266666667, "is_reserved": 0, "bike_id": "411027c1e35411a91a686ceea8a0d437", "fusion_lon": 0.0, "rental_uris": {"android": "https://dc.lft.to/lastmile_qr_scan", "ios": "https://dc.lft.to/lastmile_qr_scan"}, "name": "411027c1e35411a91a686ceea8a0d437", "type": "electric_scooter", "lat": 38.93150883333333, "is_disabled": 0}, {"fusion_lat": 0.0, "lon": -77.02230016666667, "is_reserved": 0, "bike_id": "bcc4176e7df591057bd35342da34297e", "fusion_lon": 0.0, "rental_uris": {"android": "https://dc.lft.to/lastmile_qr_scan", "ios": "https://dc.lft.to/lastmile_qr_scan"}, "name": "bcc4176e7df591057bd35342da34297e", "type": "electric_scooter", "lat": 38.89220483333333, "is_disabled": 0}, {"fusion_lat": 0.0, "lon": -77.03433233333334, "is_reserved": 0, "bike_id": "da1d9d13d59593abd1fdfa33b46f5b3b", "fusion_lon": 0.0, "rental_uris": {"android": "https://dc.lft.to/lastmile_qr_scan", "ios": "https://dc.lft.to/lastmile_qr_scan"}, "name": "da1d9d13d59593abd1fdfa33b46f5b3b", "type": "electric_scooter", "lat": 38.919376666666665, "is_disabled": 0}, {"fusion_lat": 0.0, "lon": -77.36096016666667, "is_reserved": 0, "bike_id": "37d1a22f3051035b9853a8c9f045bd52", "fusion_lon": 0.0, "rental_uris": {"android": "https://dc.lft.to/lastmile_qr_scan", "ios": "https://dc.lft.to/lastmile_qr_scan"}, "name": "37d1a22f3051035b9853a8c9f045bd52", "type": "electric_bike", "lat": 38.93952733333333, "is_disabled": 0}, {"fusion_lat": 0.0, "lon": -77.02628283333334, "is_reserved": 0, "bike_id": "2cdaa664dfa25697d6fdf8f64a617df1", "fusion_lon": 0.0, "rental_uris": {"android": "https://dc.lft.to/lastmile_qr_scan", "ios": "https://dc.lft.to/lastmile_qr_scan"}, "name": "2cdaa664dfa25697d6fdf8f64a617df1", "type": "electric_bike", "lat": 38.96212466666667, "is_disabled": 0}, {"fusion_lat": 0.0, "lon": -77.028929, "is_reserved": 0, "bike_id": "29dcc2e356a0487f660b42968d74071a", "fusion_lon": 0.0, "rental_uris": {"android": "https://dc.lft.to/lastmile_qr_scan", "ios": "https://dc.lft.to/lastmile_qr_scan"}, "name": "29dcc2e356a0487f660b42968d74071a", "type": "electric_scooter", "lat": 38.9398465, "is_disabled": 0}, {"fusion_lat": 0.0, "lon": -76.98619233333334, "is_reserved": 0, "bike_id": "1520974fa267b26b8d5d77d02a9604df", "fusion_lon": 0.0, "rental_uris": {"android": "https://dc.lft.to/lastmile_qr_scan", "ios": "https://dc.lft.to/lastmile_qr_scan"}, "name": "1520974fa267b26b8d5d77d02a9604df", "type": "electric_scooter", "lat": 38.93827, "is_disabled": 0}, {"fusion_lat": 0.0, "lon": -77.004033, "is_reserved": 0, "bike_id": "53eefa57e13735bd5c51bd67a8b158a9", "fusion_lon": 0.0, "rental_uris": {"android": "https://dc.lft.to/lastmile_qr_scan", "ios": "https://dc.lft.to/lastmile_qr_scan"}, "name": "53eefa57e13735bd5c51bd67a8b158a9", "type": "electric_scooter", "lat": 38.921318, "is_disabled": 0}, {"fusion_lat": 0.0, "lon": -77.0398085, "is_reserved": 0, "bike_id": "cbc5f795d78c0807f828376c65863727", "fusion_lon": 0.0, "rental_uris": {"android": "https://dc.lft.to/lastmile_qr_scan", "ios": "https://dc.lft.to/lastmile_qr_scan"}, "name": "cbc5f795d78c0807f828376c65863727", "type": "electric_scooter", "lat": 38.9202225, "is_disabled": 0}, {"fusion_lat": 0.0, "lon": -76.97705033333334, "is_reserved": 0, "bike_id": "ed7d39e23d29096bfe5f83a93788512a", "fusion_lon": 0.0, "rental_uris": {"android": "https://dc.lft.to/lastmile_qr_scan", "ios": "https://dc.lft.to/lastmile_qr_scan"}, "name": "ed7d39e23d29096bfe5f83a93788512a", "type": "electric_bike", "lat": 38.94916533333333, "is_disabled": 0}, {"fusion_lat": 0.0, "lon": -77.048787, "is_reserved": 0, "bike_id": "2bf567e61e1170ecbea15a3fe700cb98", "fusion_lon": 0.0, "rental_uris": {"android": "https://dc.lft.to/lastmile_qr_scan", "ios": "https://dc.lft.to/lastmile_qr_scan"}, "name": "2bf567e61e1170ecbea15a3fe700cb98", "type": "electric_scooter", "lat": 38.90972816666667, "is_disabled": 0}, {"fusion_lat": 0.0, "lon": -77.02681966666667, "is_reserved": 0, "bike_id": "9633f6749c824f445f3a9237c2003b28", "fusion_lon": 0.0, "rental_uris": {"android": "https://dc.lft.to/lastmile_qr_scan", "ios": "https://dc.lft.to/lastmile_qr_scan"}, "name": "9633f6749c824f445f3a9237c2003b28", "type": "electric_scooter", "lat": 38.90107966666667, "is_disabled": 0}, {"fusion_lat": 0.0, "lon": -77.00600666666666, "is_reserved": 0, "bike_id": "5617b51f5094969ceb0a0c901ad4b984", "fusion_lon": 0.0, "rental_uris": {"android": "https://dc.lft.to/lastmile_qr_scan", "ios": "https://dc.lft.to/lastmile_qr_scan"}, "name": "5617b51f5094969ceb0a0c901ad4b984", "type": "electric_scooter", "lat": 38.885189833333335, "is_disabled": 0}, {"fusion_lat": 0.0, "lon": -77.0268515, "is_reserved": 0, "bike_id": "289aab03f33d430ec9eefd545780835e", "fusion_lon": 0.0, "rental_uris": {"android": "https://dc.lft.to/lastmile_qr_scan", "ios": "https://dc.lft.to/lastmile_qr_scan"}, "name": "289aab03f33d430ec9eefd545780835e", "type": "electric_scooter", "lat": 38.90239066666667, "is_disabled": 0}, {"fusion_lat": 0.0, "lon": -77.01745966666667, "is_reserved": 0, "bike_id": "fd58e50e6054f8f75c819a341b51b2e3", "fusion_lon": 0.0, "rental_uris": {"android": "https://dc.lft.to/lastmile_qr_scan", "ios": "https://dc.lft.to/lastmile_qr_scan"}, "name": "fd58e50e6054f8f75c819a341b51b2e3", "type": "electric_scooter", "lat": 38.88330366666667, "is_disabled": 0}, {"fusion_lat": 0.0, "lon": -77.023655, "is_reserved": 0, "bike_id": "eb5d79428375baad5f6856fba7f6ccf3", "fusion_lon": 0.0, "rental_uris": {"android": "https://dc.lft.to/lastmile_qr_scan", "ios": "https://dc.lft.to/lastmile_qr_scan"}, "name": "eb5d79428375baad5f6856fba7f6ccf3", "type": "electric_scooter", "lat": 38.89221833333333, "is_disabled": 0}, {"fusion_lat": 0.0, "lon": -76.911059, "is_reserved": 0, "bike_id": "970a704541bda759edde9d4f6518086e", "fusion_lon": 0.0, "rental_uris": {"android": "https://dc.lft.to/lastmile_qr_scan", "ios": "https://dc.lft.to/lastmile_qr_scan"}, "name": "970a704541bda759edde9d4f6518086e", "type": "electric_bike", "lat": 39.010538333333336, "is_disabled": 0}, {"fusion_lat": 0.0, "lon": -77.03814766666666, "is_reserved": 0, "bike_id": "a19d21b260104225173743c629ba76c3", "fusion_lon": 0.0, "rental_uris": {"android": "https://dc.lft.to/lastmile_qr_scan", "ios": "https://dc.lft.to/lastmile_qr_scan"}, "name": "a19d21b260104225173743c629ba76c3", "type": "electric_scooter", "lat": 38.91420933333333, "is_disabled": 0}, {"fusion_lat": 0.0, "lon": -77.01934816666666, "is_reserved": 0, "bike_id": "4592f741ee7b0d1a80b618e05fe2a56b", "fusion_lon": 0.0, "rental_uris": {"android": "https://dc.lft.to/lastmile_qr_scan", "ios": "https://dc.lft.to/lastmile_qr_scan"}, "name": "4592f741ee7b0d1a80b618e05fe2a56b", "type": "electric_scooter", "lat": 38.9054825, "is_disabled": 0}, {"fusion_lat": 0.0, "lon": -77.02508216666666, "is_reserved": 0, "bike_id": "fcf103dddd45e4cd460eb06ada05aa9c", "fusion_lon": 0.0, "rental_uris": {"android": "https://dc.lft.to/lastmile_qr_scan", "ios": "https://dc.lft.to/lastmile_qr_scan"}, "name": "fcf103dddd45e4cd460eb06ada05aa9c", "type": "electric_scooter", "lat": 38.9309565, "is_disabled": 0}, {"fusion_lat": 0.0, "lon": -77.0295225, "is_reserved": 0, "bike_id": "07028a9b64db1b4c0e4c3282baef0845", "fusion_lon": 0.0, "rental_uris": {"android": "https://dc.lft.to/lastmile_qr_scan", "ios": "https://dc.lft.to/lastmile_qr_scan"}, "name": "07028a9b64db1b4c0e4c3282baef0845", "type": "electric_scooter", "lat": 38.905021, "is_disabled": 0}, {"fusion_lat": 0.0, "lon": -77.03257366666666, "is_reserved": 0, "bike_id": "5d314e596f4b05250ec4223f330519fb", "fusion_lon": 0.0, "rental_uris": {"android": "https://dc.lft.to/lastmile_qr_scan", "ios": "https://dc.lft.to/lastmile_qr_scan"}, "name": "5d314e596f4b05250ec4223f330519fb", "type": "electric_scooter", "lat": 38.923627, "is_disabled": 0}, {"fusion_lat": 0.0, "lon": -76.95148633333334, "is_reserved": 0, "bike_id": "b6943ca8dc01d5877f17a29c6b6ddb16", "fusion_lon": 0.0, "rental_uris": {"android": "https://dc.lft.to/lastmile_qr_scan", "ios": "https://dc.lft.to/lastmile_qr_scan"}, "name": "b6943ca8dc01d5877f17a29c6b6ddb16", "type": "electric_scooter", "lat": 38.89037183333333, "is_disabled": 0}, {"fusion_lat": 0.0, "lon": -76.993697, "is_reserved": 0, "bike_id": "4e77c76adb15e6a1d4bc5bc334041a4c", "fusion_lon": 0.0, "rental_uris": {"android": "https://dc.lft.to/lastmile_qr_scan", "ios": "https://dc.lft.to/lastmile_qr_scan"}, "name": "4e77c76adb15e6a1d4bc5bc334041a4c", "type": "electric_scooter", "lat": 38.883076, "is_disabled": 0}, {"fusion_lat": 0.0, "lon": -77.03961, "is_reserved": 0, "bike_id": "38af75b66dac3c32919df4da4f163c2e", "fusion_lon": 0.0, "rental_uris": {"android": "https://dc.lft.to/lastmile_qr_scan", "ios": "https://dc.lft.to/lastmile_qr_scan"}, "name": "38af75b66dac3c32919df4da4f163c2e", "type": "electric_scooter", "lat": 38.8924125, "is_disabled": 0}, {"fusion_lat": 0.0, "lon": -76.99595366666667, "is_reserved": 0, "bike_id": "2f600bb3e7ab9dd992296bb816e84b4c", "fusion_lon": 0.0, "rental_uris": {"android": "https://dc.lft.to/lastmile_qr_scan", "ios": "https://dc.lft.to/lastmile_qr_scan"}, "name": "2f600bb3e7ab9dd992296bb816e84b4c", "type": "electric_scooter", "lat": 38.89228216666667, "is_disabled": 0}, {"fusion_lat": 0.0, "lon": -77.042082, "is_reserved": 0, "bike_id": "fab533764a0983da7a2590214f0c5b2b", "fusion_lon": 0.0, "rental_uris": {"android": "https://dc.lft.to/lastmile_qr_scan", "ios": "https://dc.lft.to/lastmile_qr_scan"}, "name": "fab533764a0983da7a2590214f0c5b2b", "type": "electric_scooter", "lat": 38.903879833333335, "is_disabled": 0}, {"fusion_lat": 0.0, "lon": -77.03203866666666, "is_reserved": 0, "bike_id": "d1f3a47362ec41d0f48f38ac4ee893c7", "fusion_lon": 0.0, "rental_uris": {"android": "https://dc.lft.to/lastmile_qr_scan", "ios": "https://dc.lft.to/lastmile_qr_scan"}, "name": "d1f3a47362ec41d0f48f38ac4ee893c7", "type": "electric_scooter", "lat": 38.89681683333333, "is_disabled": 0}, {"fusion_lat": 0.0, "lon": -77.027681, "is_reserved": 0, "bike_id": "047309049acba49ba2e0e9587e2b9943", "fusion_lon": 0.0, "rental_uris": {"android": "https://dc.lft.to/lastmile_qr_scan", "ios": "https://dc.lft.to/lastmile_qr_scan"}, "name": "047309049acba49ba2e0e9587e2b9943", "type": "electric_scooter", "lat": 38.9542255, "is_disabled": 0}, {"fusion_lat": 0.0, "lon": -77.00548516666667, "is_reserved": 0, "bike_id": "63f5f0916703aedbe0bad80eb2116527", "fusion_lon": 0.0, "rental_uris": {"android": "https://dc.lft.to/lastmile_qr_scan", "ios": "https://dc.lft.to/lastmile_qr_scan"}, "name": "63f5f0916703aedbe0bad80eb2116527", "type": "electric_scooter", "lat": 38.900349, "is_disabled": 0}, {"fusion_lat": 0.0, "lon": -76.99457533333333, "is_reserved": 0, "bike_id": "50ca139f6d4652db6beec68174014143", "fusion_lon": 0.0, "rental_uris": {"android": "https://dc.lft.to/lastmile_qr_scan", "ios": "https://dc.lft.to/lastmile_qr_scan"}, "name": "50ca139f6d4652db6beec68174014143", "type": "electric_scooter", "lat": 38.86218933333333, "is_disabled": 0}, {"fusion_lat": 0.0, "lon": -77.02568616666667, "is_reserved": 0, "bike_id": "5fb900b1c6d17016b62117183445a787", "fusion_lon": 0.0, "rental_uris": {"android": "https://dc.lft.to/lastmile_qr_scan", "ios": "https://dc.lft.to/lastmile_qr_scan"}, "name": "5fb900b1c6d17016b62117183445a787", "type": "electric_scooter", "lat": 38.880802, "is_disabled": 0}, {"fusion_lat": 0.0, "lon": -77.02491033333334, "is_reserved": 0, "bike_id": "87b697f1b0325d96b688e23e53bd4397", "fusion_lon": 0.0, "rental_uris": {"android": "https://dc.lft.to/lastmile_qr_scan", "ios": "https://dc.lft.to/lastmile_qr_scan"}, "name": "87b697f1b0325d96b688e23e53bd4397", "type": "electric_scooter", "lat": 38.938804, "is_disabled": 0}, {"fusion_lat": 0.0, "lon": -76.93357366666666, "is_reserved": 0, "bike_id": "d98e400563fda60b67873d9d19919e30", "fusion_lon": 0.0, "rental_uris": {"android": "https://dc.lft.to/lastmile_qr_scan", "ios": "https://dc.lft.to/lastmile_qr_scan"}, "name": "d98e400563fda60b67873d9d19919e30", "type": "electric_scooter", "lat": 38.898873, "is_disabled": 0}, {"fusion_lat": 0.0, "lon": -77.02373983333334, "is_reserved": 0, "bike_id": "9a7460cdad62d34bfb0d3281d0bde167", "fusion_lon": 0.0, "rental_uris": {"android": "https://dc.lft.to/lastmile_qr_scan", "ios": "https://dc.lft.to/lastmile_qr_scan"}, "name": "9a7460cdad62d34bfb0d3281d0bde167", "type": "electric_bike", "lat": 38.9475425, "is_disabled": 0}, {"fusion_lat": 0.0, "lon": -76.97915333333333, "is_reserved": 0, "bike_id": "01ad9b18765c25012ce65efc212aeb6e", "fusion_lon": 0.0, "rental_uris": {"android": "https://dc.lft.to/lastmile_qr_scan", "ios": "https://dc.lft.to/lastmile_qr_scan"}, "name": "01ad9b18765c25012ce65efc212aeb6e", "type": "electric_scooter", "lat": 38.863481166666666, "is_disabled": 0}, {"fusion_lat": 0.0, "lon": -77.02000833333334, "is_reserved": 0, "bike_id": "2c970f7f49b5e582b4785950a87e9055", "fusion_lon": 0.0, "rental_uris": {"android": "https://dc.lft.to/lastmile_qr_scan", "ios": "https://dc.lft.to/lastmile_qr_scan"}, "name": "2c970f7f49b5e582b4785950a87e9055", "type": "electric_scooter", "lat": 38.96625366666667, "is_disabled": 0}, {"fusion_lat": 0.0, "lon": -77.01454566666666, "is_reserved": 0, "bike_id": "3c681c2ed00dd2afc21154a0f5f8edaf", "fusion_lon": 0.0, "rental_uris": {"android": "https://dc.lft.to/lastmile_qr_scan", "ios": "https://dc.lft.to/lastmile_qr_scan"}, "name": "3c681c2ed00dd2afc21154a0f5f8edaf", "type": "electric_scooter", "lat": 38.92753483333333, "is_disabled": 0}, {"fusion_lat": 0.0, "lon": -77.03271966666667, "is_reserved": 0, "bike_id": "2ab7fb91165e16e08bf358c7370ad12b", "fusion_lon": 0.0, "rental_uris": {"android": "https://dc.lft.to/lastmile_qr_scan", "ios": "https://dc.lft.to/lastmile_qr_scan"}, "name": "2ab7fb91165e16e08bf358c7370ad12b", "type": "electric_scooter", "lat": 38.92848583333333, "is_disabled": 0}, {"fusion_lat": 0.0, "lon": -76.96242933333333, "is_reserved": 0, "bike_id": "11b764d3fbcdbc5c099a7eea3783215d", "fusion_lon": 0.0, "rental_uris": {"android": "https://dc.lft.to/lastmile_qr_scan", "ios": "https://dc.lft.to/lastmile_qr_scan"}, "name": "11b764d3fbcdbc5c099a7eea3783215d", "type": "electric_scooter", "lat": 38.877722166666665, "is_disabled": 0}, {"fusion_lat": 0.0, "lon": -77.00410833333333, "is_reserved": 0, "bike_id": "fd0b51a884d370e87c6b983e79a49f97", "fusion_lon": 0.0, "rental_uris": {"android": "https://dc.lft.to/lastmile_qr_scan", "ios": "https://dc.lft.to/lastmile_qr_scan"}, "name": "fd0b51a884d370e87c6b983e79a49f97", "type": "electric_bike", "lat": 38.98545716666667, "is_disabled": 0}, {"fusion_lat": 0.0, "lon": -77.038744, "is_reserved": 0, "bike_id": "afb445d5355af02c9fa0960900ab8b12", "fusion_lon": 0.0, "rental_uris": {"android": "https://dc.lft.to/lastmile_qr_scan", "ios": "https://dc.lft.to/lastmile_qr_scan"}, "name": "afb445d5355af02c9fa0960900ab8b12", "type": "electric_scooter", "lat": 38.92150783333334, "is_disabled": 0}, {"fusion_lat": 0.0, "lon": -77.0737965, "is_reserved": 0, "bike_id": "76327545c37a2083513008b96394e83d", "fusion_lon": 0.0, "rental_uris": {"android": "https://dc.lft.to/lastmile_qr_scan", "ios": "https://dc.lft.to/lastmile_qr_scan"}, "name": "76327545c37a2083513008b96394e83d", "type": "electric_bike", "lat": 38.961859, "is_disabled": 0}, {"fusion_lat": 0.0, "lon": -77.01214066666667, "is_reserved": 0, "bike_id": "4378553d6a9eb7e4d2f6b4005e351f4b", "fusion_lon": 0.0, "rental_uris": {"android": "https://dc.lft.to/lastmile_qr_scan", "ios": "https://dc.lft.to/lastmile_qr_scan"}, "name": "4378553d6a9eb7e4d2f6b4005e351f4b", "type": "electric_scooter", "lat": 38.918384833333334, "is_disabled": 0}, {"fusion_lat": 0.0, "lon": -76.99767233333333, "is_reserved": 0, "bike_id": "d9c89eb93cb6d54da6ba581f7c3084ae", "fusion_lon": 0.0, "rental_uris": {"android": "https://dc.lft.to/lastmile_qr_scan", "ios": "https://dc.lft.to/lastmile_qr_scan"}, "name": "d9c89eb93cb6d54da6ba581f7c3084ae", "type": "electric_scooter", "lat": 38.90009883333333, "is_disabled": 0},