{"data": {"bikes": [{"fusion_lat": 0.0, "name": "62b34db2a982fc4c3440b9a0d3037475", "is_disabled": 0, "rental_uris": {"android": "https://dc.lft.to/lastmile_qr_scan", "ios": "https://dc.lft.to/lastmile_qr_scan"}, "fusion_lon": 0.0, "lat": 38.9234655, "bike_id": "62b34db2a982fc4c3440b9a0d3037475", "type": "electric_scooter", "is_reserved": 0, "lon": -77.05219683333333}, {"fusion_lat": 0.0, "name": "babb5f2ae24b26327e5143d8b951e4c3", "is_disabled": 0, "rental_uris": {"android": "https://dc.lft.to/lastmile_qr_scan", "ios": "https://dc.lft.to/lastmile_qr_scan"}, "fusion_lon": 0.0, "lat": 38.90358, "bike_id": "babb5f2ae24b26327e5143d8b951e4c3", "type": "electric_scooter", "is_reserved": 0, "lon": -76.97483183333334}, {"fusion_lat": 0.0, "name": "f5f9c995a4cfdcea1eb34c3349a1d773", "is_disabled": 0, "rental_uris": {"android": "https://dc.lft.to/lastmile_qr_scan", "ios": "https://dc.lft.to/lastmile_qr_scan"}, "fusion_lon": 0.0, "lat": 38.934616166666665, "bike_id": "f5f9c995a4cfdcea1eb34c3349a1d773", "type": "electric_scooter", "is_reserved": 0, "lon": -77.04119033333333}, {"fusion_lat": 0.0, "name": "b13624f85692cb3d23877c0a83a0fcce", "is_disabled": 0, "rental_uris": {"android": "https://dc.lft.to/lastmile_qr_scan", "ios": "https://dc.lft.to/lastmile_qr_scan"}, "fusion_lon": 0.0, "lat": 38.917710166666666, "bike_id": "b13624f85692cb3d23877c0a83a0fcce", "type": "electric_scooter", "is_reserved": 0, "lon": -77.02312533333334}, {"fusion_lat": 0.0, "name": "46e6fe75ffdb3f040929ad84610b4f4e", "is_disabled": 0, "rental_uris": {"android": "https://dc.lft.to/lastmile_qr_scan", "ios": "https://dc.lft.to/lastmile_qr_scan"}, "fusion_lon": 0.0, "lat": 38.8873635, "bike_id": "46e6fe75ffdb3f040929ad84610b4f4e", "type": "electric_scooter", "is_reserved": 0, "lon": -77.01514566666667}, {"fusion_lat": 0.0, "name": "676a3d6a61240755f514a60d387cabe4", "is_disabled": 0, "rental_uris": {"android": "https://dc.lft.to/lastmile_qr_scan", "ios": "https://dc.lft.to/lastmile_qr_scan"}, "fusion_lon": 0.0, "lat": 38.9078995, "bike_id": "676a3d6a61240755f514a60d387cabe4", "type": "electric_scooter", "is_reserved": 0, "lon": -77.042446}, {"fusion_lat": 0.0, "name": "17ace74a3dbf717de104dccb748d0467", "is_disabled": 0, "rental_uris": {"android": "https://dc.lft.to/lastmile_qr_scan", "ios": "https://dc.lft.to/lastmile_qr_scan"}, "fusion_lon": 0.0, "lat": 38.90924116666667, "bike_id": "17ace74a3dbf717de104dccb748d0467", "type": "electric_scooter", "is_reserved": 0, "lon": -76.99932216666667}, {"fusion_lat": 0.0, "name": "25f0729ac86a43857a1e8ccaf8e51c99", "is_disabled": 0, "rental_uris": {"android": "https://dc.lft.to/lastmile_qr_scan", "ios": "https://dc.lft.to/lastmile_qr_scan"}, "fusion_lon": 0.0, "lat": 38.9281335, "bike_id": "25f0729ac86a43857a1e8ccaf8e51c99", "type": "electric_scooter", "is_reserved": 0, "lon": -77.0233065}, {"fusion_lat": 0.0, "name": "6cb307dcc8b3f53d1b66663c244e0d11", "is_disabled": 0, "rental_uris": {"android": "https://dc.lft.to/lastmile_qr_scan", "ios": "https://dc.lft.to/lastmile_qr_scan"}, "fusion_lon": 0.0, "lat": 38.924683333333334, "bike_id": "6cb307dcc8b3f53d1b66663c244e0d11", "type": "electric_scooter", "is_reserved": 0, "lon": -77.02075283333333}, {"fusion_lat": 0.0, "name": "db7b481eaf2d8bbc64d2849fe2b2494d", "is_disabled": 0, "rental_uris": {"android": "https://dc.lft.to/lastmile_qr_scan", "ios": "https://dc.lft.to/lastmile_qr_scan"}, "fusion_lon": 0.0, "lat": 38.90106733333333, "bike_id": "db7b481eaf2d8bbc64d2849fe2b2494d", "type": "electric_scooter", "is_reserved": 0, "lon": -76.93043333333334}, {"fusion_lat": 0.0, "name": "343d98457c8e96a3bd86864bb409aeac", "is_disabled": 0, "rental_uris": {"android": "https://dc.lft.to/lastmile_qr_scan", "ios": "https://dc.lft.to/lastmile_qr_scan"}, "fusion_lon": 0.0, "lat": 38.930828166666664, "bike_id": "343d98457c8e96a3bd86864bb409aeac", "type": "electric_scooter", "is_reserved": 0, "lon": -77.01998233333333}, {"fusion_lat": 0.0, "name": "126c91ed2c81e53f262bfbd126112b2b", "is_disabled": 0, "rental_uris": {"android": "https://dc.lft.to/lastmile_qr_scan", "ios": "https://dc.lft.to/lastmile_qr_scan"}, "fusion_lon": 0.0, "lat": 38.911754333333334, "bike_id": "126c91ed2c81e53f262bfbd126112b2b", "type": "electric_scooter", "is_reserved": 0, "lon": -77.02957416666666}, {"fusion_lat": 0.0, "name": "596be27169b9e375b1307497fb592e0b", "is_disabled": 0, "rental_uris": {"android": "https://dc.lft.to/lastmile_qr_scan", "ios": "https://dc.lft.to/lastmile_qr_scan"}, "fusion_lon": 0.0, "lat": 38.897215, "bike_id": "596be27169b9e375b1307497fb592e0b", "type": "electric_scooter", "is_reserved": 0, "lon": -77.0246255}, {"fusion_lat": 0.0, "name": "daf70f9c1c3a97cb6e347e5fa366eb27", "is_disabled": 0, "rental_uris": {"android": "https://dc.lft.to/lastmile_qr_scan", "ios": "https://dc.lft.to/lastmile_qr_scan"}, "fusion_lon": 0.0, "lat": 38.903881, "bike_id": "daf70f9c1c3a97cb6e347e5fa366eb27", "type": "electric_scooter", "is_reserved": 0, "lon": -77.01788}, {"fusion_lat": 0.0, "name": "161ca5a3b606b6717d6b908743918096", "is_disabled": 0, "rental_uris": {"android": "https://dc.lft.to/lastmile_qr_scan", "ios": "https://dc.lft.to/lastmile_qr_scan"}, "fusion_lon": 0.0, "lat": 38.8997175, "bike_id": "161ca5a3b606b6717d6b908743918096", "type": "electric_scooter", "is_reserved": 0, "lon": -77.05268883333333}, {"fusion_lat": 0.0, "name": "211ae4a880576f0bcdd29316f06a58f5", "is_disabled": 0, "rental_uris": {"android": "https://dc.lft.to/lastmile_qr_scan", "ios": "https://dc.lft.to/lastmile_qr_scan"}, "fusion_lon": 0.0, "lat": 38.93183283333333, "bike_id": "211ae4a880576f0bcdd29316f06a58f5", "type": "electric_scooter", "is_reserved": 0, "lon": -77.02005883333334}, {"fusion_lat": 0.0, "name": "110981ee3c8e433189dce6a82b2ea5bd", "is_disabled": 0, "rental_uris": {"android": "https://dc.lft.to/lastmile_qr_scan", "ios": "https://dc.lft.to/lastmile_qr_scan"}, "fusion_lon": 0.0, "lat": 38.9057345, "bike_id": "110981ee3c8e433189dce6a82b2ea5bd", "type": "electric_scooter", "is_reserved": 0, "lon": -77.022084}, {"fusion_lat": 0.0, "name": "1bd87f4cc2a2877021731e833c2af462", "is_disabled": 0, "rental_uris": {"android": "https://dc.lft.to/lastmile_qr_scan", "ios": "https://dc.lft.to/lastmile_qr_scan"}, "fusion_lon": 0.0, "lat": 38.89848666666666, "bike_id": "1bd87f4cc2a2877021731e833c2af462", "type": "electric_scooter", "is_reserved": 0, "lon": -76.981667}, {"fusion_lat": 0.0, "name": "2501cb598a95ef4397d10763a18e716b", "is_disabled": 0, "rental_uris": {"android": "https://dc.lft.to/lastmile_qr_scan", "ios": "https://dc.lft.to/lastmile_qr_scan"}, "fusion_lon": 0.0, "lat": 38.9321935, "bike_id": "2501cb598a95ef4397d10763a18e716b", "type": "electric_scooter", "is_reserved": 0, "lon": -77.044109}, {"fusion_lat": 0.0, "name": "269f2e01f51232fbbb7718b2ea5309dc", "is_disabled": 0, "rental_uris": {"android": "https://dc.lft.to/lastmile_qr_scan", "ios": "https://dc.lft.to/lastmile_qr_scan"}, "fusion_lon": 0.0, "lat": 38.93091616666667, "bike_id": "269f2e01f51232fbbb7718b2ea5309dc", "type": "electric_scooter", "is_reserved": 0, "lon": -77.03443116666666}, {"fusion_lat": 0.0, "name": "fb52943636e98921da1baae18b3b3920", "is_disabled": 0, "rental_uris": {"android": "https://dc.lft.to/lastmile_qr_scan", "ios": "https://dc.lft.to/lastmile_qr_scan"}, "fusion_lon": 0.0, "lat": 38.90766933333333, "bike_id": "fb52943636e98921da1baae18b3b3920", "type": "electric_scooter", "is_reserved": 0, "lon": -77.03847766666667}, {"fusion_lat": 0.0, "name": "1a1653998fcd13721afc11f41233c68c", "is_disabled": 0, "rental_uris": {"android": "https://dc.lft.to/lastmile_qr_scan", "ios": "https://dc.lft.to/lastmile_qr_scan"}, "fusion_lon": 0.0, "lat": 38.90974466666667, "bike_id": "1a1653998fcd13721afc11f41233c68c", "type": "electric_scooter", "is_reserved": 0, "lon": -77.034343}, {"fusion_lat": 0.0, "name": "0812b19146816860061a13aeb0a0ef30", "is_disabled": 0, "rental_uris": {"android": "https://dc.lft.to/lastmile_qr_scan", "ios": "https://dc.lft.to/lastmile_qr_scan"}, "fusion_lon": 0.0, "lat": 38.90036633333333, "bike_id": "0812b19146816860061a13aeb0a0ef30", "type": "electric_scooter", "is_reserved": 0, "lon": -77.0117795}, {"fusion_lat": 0.0, "name": "d9aa05885aff1bae16ccfc885325845a", "is_disabled": 0, "rental_uris": {"android": "https://dc.lft.to/lastmile_qr_scan", "ios": "https://dc.lft.to/lastmile_qr_scan"}, "fusion_lon": 0.0, "lat": 38.8358305, "bike_id": "d9aa05885aff1bae16ccfc885325845a", "type": "electric_bike", "is_reserved": 0, "lon": -76.99011783333333}, {"fusion_lat": 0.0, "name": "46d6d5e0c66767fded9a74d0b7bc4114", "is_disabled": 0, "rental_uris": {"android": "https://dc.lft.to/lastmile_qr_scan", "ios": "https://dc.lft.to/lastmile_qr_scan"}, "fusion_lon": 0.0, "lat": 38.901023, "bike_id": "46d6d5e0c66767fded9a74d0b7bc4114", "type": "electric_scooter", "is_reserved": 0, "lon": -77.05068566666667}, {"fusion_lat": 0.0, "name": "07dadeb4f3fefad8208af7e06db259c6", "is_disabled": 0, "rental_uris": {"android": "https://dc.lft.to/lastmile_qr_scan", "ios": "https://dc.lft.to/lastmile_qr_scan"}, "fusion_lon": 0.0, "lat": 38.8982195, "bike_id": "07dadeb4f3fefad8208af7e06db259c6", "type": "electric_scooter", "is_reserved": 0, "lon": -77.04675166666667}, {"fusion_lat": 0.0, "name": "0eda25f96a1f89d340bf2880212afeda", "is_disabled": 0, "rental_uris": {"android": "https://dc.lft.to/lastmile_qr_scan", "ios": "https://dc.lft.to/lastmile_qr_scan"}, "fusion_lon": 0.0, "lat": 38.91253616666667, "bike_id": "0eda25f96a1f89d340bf2880212afeda", "type": "electric_scooter", "is_reserved": 0, "lon": -77.03867983333333}, {"fusion_lat": 0.0, "name": "cb7ae101d0839023a06fe2fafb0872ab", "is_disabled": 0, "rental_uris": {"android": "https://dc.lft.to/lastmile_qr_scan", "ios": "https://dc.lft.to/lastmile_qr_scan"}, "fusion_lon": 0.0, "lat": 38.906658666666665, "bike_id": "cb7ae101d0839023a06fe2fafb0872ab", "type": "electric_scooter", "is_reserved": 0, "lon": -77.03472933333333}, {"fusion_lat": 0.0, "name": "48ad1feb6431353a28313f9d8e9c5254", "is_disabled": 0, "rental_uris": {"android": "https://dc.lft.to/lastmile_qr_scan", "ios": "https://dc.lft.to/lastmile_qr_scan"}, "fusion_lon": 0.0, "lat": 38.90016466666667, "bike_id": "48ad1feb6431353a28313f9d8e9c5254", "type": "electric_scooter", "is_reserved": 0, "lon": -76.988144}, {"fusion_lat": 0.0, "name": "082612772a1121d5b12fa616963a4d08", "is_disabled": 0, "rental_uris": {"android": "https://dc.lft.to/lastmile_qr_scan", "ios": "https://dc.lft.to/lastmile_qr_scan"}, "fusion_lon": 0.0, "lat": 38.884042, "bike_id": "082612772a1121d5b12fa616963a4d08", "type": "electric_scooter", "is_reserved": 0, "lon": -77.00834433333333}, {"fusion_lat": 0.0, "name": "7083087e4c90b11194d3e50fdc0d3899", "is_disabled": 0, "rental_uris": {"android": "https://dc.lft.to/lastmile_qr_scan", "ios": "https://dc.lft.to/lastmile_qr_scan"}, "fusion_lon": 0.0, "lat": 38.9225135, "bike_id": "7083087e4c90b11194d3e50fdc0d3899", "type": "electric_scooter", "is_reserved": 0, "lon": -77.042557}, {"fusion_lat": 0.0, "name": "22688a53d393643d995ea1b241734d1e", "is_disabled": 0, "rental_uris": {"android": "https://dc.lft.to/lastmile_qr_scan", "ios": "https://dc.lft.to/lastmile_qr_scan"}, "fusion_lon": 0.0, "lat": 38.93530833333333, "bike_id": "22688a53d393643d995ea1b241734d1e", "type": "electric_scooter", "is_reserved": 0, "lon": -77.04526133333333}, {"fusion_lat": 0.0, "name": "95d640764daafef6b39d6d2d1f045bc6", "is_disabled": 0, "rental_uris": {"android": "https://dc.lft.to/lastmile_qr_scan", "ios": "https://dc.lft.to/lastmile_qr_scan"}, "fusion_lon": 0.0, "lat": 38.973683333333334, "bike_id": "95d640764daafef6b39d6d2d1f045bc6", "type": "electric_scooter", "is_reserved": 0, "lon": -77.012944}, {"fusion_lat": 0.0, "name": "eefa8283f0ab903e42017b65ffd96dc8", "is_disabled": 0, "rental_uris": {"android": "https://dc.lft.to/lastmile_qr_scan", "ios": "https://dc.lft.to/lastmile_qr_scan"}, "fusion_lon": 0.0, "lat": 38.938256833333334, "bike_id": "eefa8283f0ab903e42017b65ffd96dc8", "type": "electric_scooter", "is_reserved": 0, "lon": -77.02647466666667}, {"fusion_lat": 0.0, "name": "e90c8b0092ba9e4aede95736428dc147", "is_disabled": 0, "rental_uris": {"android": "https://dc.lft.to/lastmile_qr_scan", "ios": "https://dc.lft.to/lastmile_qr_scan"}, "fusion_lon": 0.0, "lat": 38.917131, "bike_id": "e90c8b0092ba9e4aede95736428dc147", "type": "electric_scooter", "is_reserved": 0, "lon": -77.03188183333333}, {"fusion_lat": 0.0, "name": "00c8db6ecb76f85c4e2d4322989f10a2", "is_disabled": 0, "rental_uris": {"android": "https://dc.lft.to/lastmile_qr_scan", "ios": "https://dc.lft.to/lastmile_qr_scan"}, "fusion_lon": 0.0, "lat": 38.90933183333333, "bike_id": "00c8db6ecb76f85c4e2d4322989f10a2", "type": "electric_scooter", "is_reserved": 0, "lon": -77.06255733333333}, {"fusion_lat": 0.0, "name": "6b832762fa533861c6843c050a51ad61", "is_disabled": 0, "rental_uris": {"android": "https://dc.lft.to/lastmile_qr_scan", "ios": "https://dc.lft.to/lastmile_qr_scan"}, "fusion_lon": 0.0, "lat": 38.903518, "bike_id": "6b832762fa533861c6843c050a51ad61", "type": "electric_scooter", "is_reserved": 0, "lon": -76.97477033333334}, {"fusion_lat": 0.0, "name": "50951f50805419539895190d01592cea", "is_disabled": 0, "rental_uris": {"android": "https://dc.lft.to/lastmile_qr_scan", "ios": "https://dc.lft.to/lastmile_qr_scan"}, "fusion_lon": 0.0, "lat": 38.908575166666665, "bike_id": "50951f50805419539895190d01592cea", "type": "electric_scooter", "is_reserved": 0, "lon": -77.02428833333333}, {"fusion_lat": 0.0, "name": "b2f6eff08b94f0a8c2fc8e695894e578", "is_disabled": 0, "rental_uris": {"android": "https://dc.lft.to/lastmile_qr_scan", "ios": "https://dc.lft.to/lastmile_qr_scan"}, "fusion_lon": 0.0, "lat": 38.91836816666667, "bike_id": "b2f6eff08b94f0a8c2fc8e695894e578", "type": "electric_scooter", "is_reserved": 0, "lon": -77.06366716666666}, {"fusion_lat": 0.0, "name": "aad33c6e4f74de2cd1265b64fe2ea1d9", "is_disabled": 0, "rental_uris": {"android": "https://dc.lft.to/lastmile_qr_scan", "ios": "https://dc.lft.to/lastmile_qr_scan"}, "fusion_lon": 0.0, "lat": 38.90065166666667, "bike_id": "aad33c6e4f74de2cd1265b64fe2ea1d9", "type": "electric_scooter", "is_reserved": 0, "lon": -76.927468}, {"fusion_lat": 0.0, "name": "aa49cda1acf796db5cd7d20a144caed3", "is_disabled": 0, "rental_uris": {"android": "https://dc.lft.to/lastmile_qr_scan", "ios": "https://dc.lft.to/lastmile_qr_scan"}, "fusion_lon": 0.0, "lat": 38.92751716666667, "bike_id": "aa49cda1acf796db5cd7d20a144caed3", "type": "electric_scooter", "is_reserved": 0, "lon": -77.02425016666666}, {"fusion_lat": 0.0, "name": "aca335e1dfe81c461bf81a9ec9c1e850", "is_disabled": 0, "rental_uris": {"android": "https://dc.lft.to/lastmile_qr_scan", "ios": "https://dc.lft.to/lastmile_qr_scan"}, "fusion_lon": 0.0, "lat": 38.896705, "bike_id": "aca335e1dfe81c461bf81a9ec9c1e850", "type": "electric_scooter", "is_reserved": 0, "lon": -77.05139633333333}, {"fusion_lat": 0.0, "name": "64d0341bcdd4739e82986d352ef312db", "is_disabled": 0, "rental_uris": {"android": "https://dc.lft.to/lastmile_qr_scan", "ios": "https://dc.lft.to/lastmile_qr_scan"}, "fusion_lon": 0.0, "lat": 38.90252516666666, "bike_id": "64d0341bcdd4739e82986d352ef312db", "type": "electric_scooter", "is_reserved": 0, "lon": -77.0397525}, {"fusion_lat": 0.0, "name": "e2e504c04b9179155919fd4100c500ae", "is_disabled": 0, "rental_uris": {"android": "https://dc.lft.to/lastmile_qr_scan", "ios": "https://dc.lft.to/lastmile_qr_scan"}, "fusion_lon": 0.0, "lat": 38.89543916666667, "bike_id": "e2e504c04b9179155919fd4100c500ae", "type": "electric_scooter", "is_reserved": 0, "lon": -76.94957816666667}, {"fusion_lat": 0.0, "name": "3005117b28efe76f19d1376677c0eb78", "is_disabled": 0, "rental_uris": {"android": "https://dc.lft.to/lastmile_qr_scan", "ios": "https://dc.lft.to/lastmile_qr_scan"}, "fusion_lon": 0.0, "lat": 38.8766415, "bike_id": "3005117b28efe76f19d1376677c0eb78", "type": "electric_scooter", "is_reserved": 0, "lon": -76.99626}, {"fusion_lat": 0.0, "name": "d77057a3f827fb6b33c127496998f55d", "is_disabled": 0, "rental_uris": {"android": "https://dc.lft.to/lastmile_qr_scan", "ios": "https://dc.lft.to/lastmile_qr_scan"}, "fusion_lon": 0.0, "lat": 38.873727833333334, "bike_id": "d77057a3f827fb6b33c127496998f55d", "type": "electric_scooter", "is_reserved": 0, "lon": -77.00039183333334}, {"fusion_lat": 0.0, "name": "2b0de1196e0dcc123222bf1ccf79d5c4", "is_disabled": 0, "rental_uris": {"android": "https://dc.lft.to/lastmile_qr_scan", "ios": "https://dc.lft.to/lastmile_qr_scan"}, "fusion_lon": 0.0, "lat": 38.8748395, "bike_id": "2b0de1196e0dcc123222bf1ccf79d5c4", "type": "electric_scooter", "is_reserved": 0, "lon": -77.00116883333334}, {"fusion_lat": 0.0, "name": "2049f72d0d0ff6631906b69488d8d9c7", "is_disabled": 0, "rental_uris": {"android": "https://dc.lft.to/lastmile_qr_scan", "ios": "https://dc.lft.to/lastmile_qr_scan"}, "fusion_lon": 0.0, "lat": 38.957358166666666, "bike_id": "2049f72d0d0ff6631906b69488d8d9c7", "type": "electric_scooter", "is_reserved": 0, "lon": -77.02406666666667}, {"fusion_lat": 0.0, "name": "9dda2d09233cf0eec60f103446536212", "is_disabled": 0, "rental_uris": {"android": "https://dc.lft.to/lastmile_qr_scan", "ios": "https://dc.lft.to/lastmile_qr_scan"}, "fusion_lon": 0.0, "lat": 38.915951, "bike_id": "9dda2d09233cf0eec60f103446536212", "type": "electric_scooter", "is_reserved": 0, "lon": -77.04549266666666}, {"fusion_lat": 0.0, "name": "3ed453fab7315da6577df7c1a4ccb9f4", "is_disabled": 0, "rental_uris": {"android": "https://dc.lft.to/lastmile_qr_scan", "ios": "https://dc.lft.to/lastmile_qr_scan"}, "fusion_lon": 0.0, "lat": 38.91484366666667, "bike_id": "3ed453fab7315da6577df7c1a4ccb9f4", "type": "electric_scooter", "is_reserved": 0, "lon": -77.0427975}, {"fusion_lat": 0.0, "name": "221871dd10b440e9dd4e75a091442652", "is_disabled": 0, "rental_uris": {"android": "https://dc.lft.to/lastmile_qr_scan", "ios": "https://dc.lft.to/lastmile_qr_scan"}, "fusion_lon": 0.0, "lat": 38.90979166666666, "bike_id": "221871dd10b440e9dd4e75a091442652", "type": "electric_scooter", "is_reserved": 0, "lon": -77.03213533333333}, {"fusion_lat": 0.0, "name": "afa164e9378ceb31f90d9688f3ce437c", "is_disabled": 0, "rental_uris": {"android": "https://dc.lft.to/lastmile_qr_scan", "ios": "https://dc.lft.to/lastmile_qr_scan"}, "fusion_lon": 0.0, "lat": 38.90608966666667, "bike_id": "afa164e9378ceb31f90d9688f3ce437c", "type": "electric_scooter", "is_reserved": 0, "lon": -77.06294533333333}, {"fusion_lat": 0.0, "name": "b48852e1a1b46697171695ab715e7094", "is_disabled": 0, "rental_uris": {"android": "https://dc.lft.to/lastmile_qr_scan", "ios": "https://dc.lft.to/lastmile_qr_scan"}, "fusion_lon": 0.0, "lat": 38.92785933333333, "bike_id": "b48852e1a1b46697171695ab715e7094", "type": "electric_scooter", "is_reserved": 0, "lon": -77.02254616666667}, {"fusion_lat": 0.0, "name": "d08687f22da309450442367c065707cc", "is_disabled": 0, "rental_uris": {"android": "https://dc.lft.to/lastmile_qr_scan", "ios": "https://dc.lft.to/lastmile_qr_scan"}, "fusion_lon": 0.0, "lat": 38.87711683333333, "bike_id": "d08687f22da309450442367c065707cc", "type": "electric_scooter", "is_reserved": 0, "lon": -77.01766816666667}, {"fusion_lat": 0.0, "name": "a9c3f5d6fe33917052dd44133321e48c", "is_disabled": 0, "rental_uris": {"android": "https://dc.lft.to/lastmile_qr_scan", "ios": "https://dc.lft.to/lastmile_qr_scan"}, "fusion_lon": 0.0, "lat": 38.9231425, "bike_id": "a9c3f5d6fe33917052dd44133321e48c", "type": "electric_scooter", "is_reserved": 0, "lon": -77.04411316666666}, {"fusion_lat": 0.0, "name": "413fcec987f5dd5e4abdba26caee3cff", "is_disabled": 0, "rental_uris": {"android": "https://dc.lft.to/lastmile_qr_scan", "ios": "https://dc.lft.to/lastmile_qr_scan"}, "fusion_lon": 0.0, "lat": 38.875354333333334, "bike_id": "413fcec987f5dd5e4abdba26caee3cff", "type": "electric_scooter", "is_reserved": 0, "lon": -77.00508316666667}, {"fusion_lat": 0.0, "name": "90723236f2703778477ad8ea16034223", "is_disabled": 0, "rental_uris": {"android": "https://dc.lft.to/lastmile_qr_scan", "ios": "https://dc.lft.to/lastmile_qr_scan"}, "fusion_lon": 0.0, "lat": 38.90897533333333, "bike_id": "90723236f2703778477ad8ea16034223", "type": "electric_scooter", "is_reserved": 0, "lon": -77.04288766666667}, {"fusion_lat": 0.0, "name": "a21658a0608829ed89f7365caadcfd2a", "is_disabled": 0, "rental_uris": {"android": "https://dc.lft.to/lastmile_qr_scan", "ios": "https://dc.lft.to/lastmile_qr_scan"}, "fusion_lon": 0.0, "lat": 38.92854466666667, "bike_id": "a21658a0608829ed89f7365caadcfd2a", "type": "electric_scooter", "is_reserved": 0, "lon": -77.03389433333334}, {"fusion_lat": 0.0, "name": "c498deb0040875cb6392760fb00271d7", "is_disabled": 0, "rental_uris": {"android": "https://dc.lft.to/lastmile_qr_scan", "ios": "https://dc.lft.to/lastmile_qr_scan"}, "fusion_lon": 0.0, "lat": 38.935034333333334, "bike_id": "c498deb0040875cb6392760fb00271d7", "type": "electric_scooter", "is_reserved": 0, "lon": -77.07335366666666}, {"fusion_lat": 0.0, "name": "af0073b120ab1f2bfac09cd37c481a2e", "is_disabled": 0, "rental_uris": {"android": "https://dc.lft.to/lastmile_qr_scan", "ios": "https://dc.lft.to/lastmile_qr_scan"}, "fusion_lon": 0.0, "lat": 38.903530833333335, "bike_id": "af0073b120ab1f2bfac09cd37c481a2e", "type": "electric_scooter", "is_reserved": 0, "lon": -77.04505533333334}, {"fusion_lat": 0.0, "name": "255e05c7587db48892a24c569b92f15a", "is_disabled": 0, "rental_uris": {"android": "https://dc.lft.to/lastmile_qr_scan", "ios": "https://dc.lft.to/lastmile_qr_scan"}, "fusion_lon": 0.0, "lat": 38.922527333333335, "bike_id": "255e05c7587db48892a24c569b92f15a", "type": "electric_scooter", "is_reserved": 0, "lon": -77.03086566666667}, {"fusion_lat": 0.0, "name": "28773fa5de575e7171788a321032be1c", "is_disabled": 0, "rental_uris": {"android": "https://dc.lft.to/lastmile_qr_scan", "ios": "https://dc.lft.to/lastmile_qr_scan"}, "fusion_lon": 0.0, "lat": 38.915074, "bike_id": "28773fa5de575e7171788a321032be1c", "type": "electric_scooter", "is_reserved": 0, "lon": -77.03272666666666}, {"fusion_lat": 0.0, "name": "34295cb729ebc748ac55c4c9a2fd93e3", "is_disabled": 0, "rental_uris": {"android": "https://dc.lft.to/lastmile_qr_scan", "ios": "https://dc.lft.to/lastmile_qr_scan"}, "fusion_lon": 0.0, "lat": 38.8956625, "bike_id": "34295cb729ebc748ac55c4c9a2fd93e3", "type": "electric_bike", "is_reserved": 0, "lon": -77.127381}, {"fusion_lat": 0.0, "name": "cd1430a3532d5a7c16adb5c226d4524a", "is_disabled": 0, "rental_uris": {"android": "https://dc.lft.to/lastmile_qr_scan", "ios": "https://dc.lft.to/lastmile_qr_scan"}, "fusion_lon": 0.0, "lat": 38.8953195, "bike_id": "cd1430a3532d5a7c16adb5c226d4524a", "type": "electric_scooter", "is_reserved": 0, "lon": -76.94894333333333}, {"fusion_lat": 0.0, "name": "a8650f9179b7e7c357f5e725a88a3600", "is_disabled": 0, "rental_uris": {"android": "https://dc.lft.to/lastmile_qr_scan", "ios": "https://dc.lft.to/lastmile_qr_scan"}, "fusion_lon": 0.0, "lat": 38.9053165, "bike_id": "a8650f9179b7e7c357f5e725a88a3600", "type": "electric_bike", "is_reserved": 0, "lon": -76.99806416666667}, {"fusion_lat": 0.0, "name": "70d004ed009766da417a18d677f58797", "is_disabled": 0, "rental_uris": {"android": "https://dc.lft.to/lastmile_qr_scan", "ios": "https://dc.lft.to/lastmile_qr_scan"}, "fusion_lon": 0.0, "lat": 38.900512166666665, "bike_id": "70d004ed009766da417a18d677f58797", "type": "electric_scooter", "is_reserved": 0, "lon": -77.04481833333334}, {"fusion_lat": 0.0, "name": "a95a4ef7e3ffd99e235560954b11f31d", "is_disabled": 0, "rental_uris": {"android": "https://dc.lft.to/lastmile_qr_scan", "ios": "https://dc.lft.to/lastmile_qr_scan"}, "fusion_lon": 0.0, "lat": 38.9169975, "bike_id": "a95a4ef7e3ffd99e235560954b11f31d", "type": "electric_scooter", "is_reserved": 0, "lon": -77.0531285}, {"fusion_lat": 0.0, "name": "b73324cd6b6e549e88feffe1f6c3265f", "is_disabled": 0, "rental_uris": {"android": "https://dc.lft.to/lastmile_qr_scan", "ios": "https://dc.lft.to/lastmile_qr_scan"}, "fusion_lon": 0.0, "lat": 38.94516083333333, "bike_id": "b73324cd6b6e549e88feffe1f6c3265f", "type": "electric_scooter", "is_reserved": 0, "lon": -77.03889766666667}, {"fusion_lat": 0.0, "name": "d4edf644b13966f3396fdf212e491902", "is_disabled": 0, "rental_uris": {"android": "https://dc.lft.to/lastmile_qr_scan", "ios": "https://dc.lft.to/lastmile_qr_scan"}, "fusion_lon": 0.0, "lat": 38.9056405, "bike_id": "d4edf644b13966f3396fdf212e491902", "type": "electric_scooter", "is_reserved": 0, "lon": -77.0074545}, {"fusion_lat": 0.0, "name": "abf38cc3a7866b0ea53b51f31dbdc8b7", "is_disabled": 0, "rental_uris": {"android": "https://dc.lft.to/lastmile_qr_scan", "ios": "https://dc.lft.to/lastmile_qr_scan"}, "fusion_lon": 0.0, "lat": 38.905504666666666, "bike_id": "abf38cc3a7866b0ea53b51f31dbdc8b7", "type": "electric_scooter", "is_reserved": 0, "lon": -77.04665683333333}, {"fusion_lat": 0.0, "name": "aaef21a2c2dc989c251b654b6b7c2f12", "is_disabled": 0, "rental_uris": {"android": "https://dc.lft.to/lastmile_qr_scan", "ios": "https://dc.lft.to/lastmile_qr_scan"}, "fusion_lon": 0.0, "lat": 38.935191833333334, "bike_id": "aaef21a2c2dc989c251b654b6b7c2f12", "type": "electric_scooter", "is_reserved": 0, "lon": -77.03291716666666}, {"fusion_lat": 0.0, "name": "2151c714ff51ff8919d4e4265ed81b84", "is_disabled": 0, "rental_uris": {"android": "https://dc.lft.to/lastmile_qr_scan", "ios": "https://dc.lft.to/lastmile_qr_scan"}, "fusion_lon": 0.0, "lat": 38.883464833333335, "bike_id": "2151c714ff51ff8919d4e4265ed81b84", "type": "electric_scooter", "is_reserved": 0, "lon": -77.03175683333333}, {"fusion_lat": 0.0, "name": "251f0608890f687a760405ee1cef08be", "is_disabled": 0, "rental_uris": {"android": "https://dc.lft.to/lastmile_qr_scan", "ios": "https://dc.lft.to/lastmile_qr_scan"}, "fusion_lon": 0.0, "lat": 38.92081116666667, "bike_id": "251f0608890f687a760405ee1cef08be", "type": "electric_scooter", "is_reserved": 0, "lon": -77.01743633333334}, {"fusion_lat": 0.0, "name": "d1e8c1affaf4dd269d42bc65c9d7cdc5", "is_disabled": 0, "rental_uris": {"android": "https://dc.lft.to/lastmile_qr_scan", "ios": "https://dc.lft.to/lastmile_qr_scan"}, "fusion_lon": 0.0, "lat": 38.9353215, "bike_id": "d1e8c1affaf4dd269d42bc65c9d7cdc5", "type": "electric_scooter", "is_reserved": 0, "lon": -77.0236015}, {"fusion_lat": 0.0, "name": "c43a4c01f9f28b82e1bceab017221911", "is_disabled": 0, "rental_uris": {"android": "https://dc.lft.to/lastmile_qr_scan", "ios": "https://dc.lft.to/lastmile_qr_scan"}, "fusion_lon": 0.0, "lat": 38.91265383333333, "bike_id": "c43a4c01f9f28b82e1bceab017221911", "type": "electric_scooter", "is_reserved": 0, "lon": -77.01932233333333}, {"fusion_lat": 0.0, "name": "31c970bc2eddcde3870539714045ea8b", "is_disabled": 0, "rental_uris": {"android": "https://dc.lft.to/lastmile_qr_scan", "ios": "https://dc.lft.to/lastmile_qr_scan"}, "fusion_lon": 0.0, "lat": 38.84757316666666, "bike_id": "31c970bc2eddcde3870539714045ea8b", "type": "electric_scooter", "is_reserved": 0, "lon": -76.995013}, {"fusion_lat": 0.0, "name": "62dd9cb3f622624f86ecb18e10207a93", "is_disabled": 0, "rental_uris": {"android": "https://dc.lft.to/lastmile_qr_scan", "ios": "https://dc.lft.to/lastmile_qr_scan"}, "fusion_lon": 0.0, "lat": 38.9017545, "bike_id": "62dd9cb3f622624f86ecb18e10207a93", "type": "electric_scooter", "is_reserved": 0, "lon": -76.99265716666666}, {"fusion_lat": 0.0, "name": "3c822e94baccd6cc12b1a5162ecd18de", "is_disabled": 0, "rental_uris": {"android": "https://dc.lft.to/lastmile_qr_scan", "ios": "https://dc.lft.to/lastmile_qr_scan"}, "fusion_lon": 0.0, "lat": 38.88338616666667, "bike_id": "3c822e94baccd6cc12b1a5162ecd18de", "type": "electric_scooter", "is_reserved": 0, "lon": -76.93502016666666}, {"fusion_lat": 0.0, "name": "cc3af0be72e6557a552595ca62e58be1", "is_disabled": 0, "rental_uris": {"android": "https://dc.lft.to/lastmile_qr_scan", "ios": "https://dc.lft.to/lastmile_qr_scan"}, "fusion_lon": 0.0, "lat": 38.9156375, "bike_id": "cc3af0be72e6557a552595ca62e58be1", "type": "electric_scooter", "is_reserved": 0, "lon": -77.01040266666666}, {"fusion_lat": 0.0, "name": "4de643773aa99f281c7e5d5da6d07e0b", "is_disabled": 0, "rental_uris": {"android": "https://dc.lft.to/lastmile_qr_scan", "ios": "https://dc.lft.to/lastmile_qr_scan"}, "fusion_lon": 0.0, "lat": 38.890291166666664, "bike_id": "4de643773aa99f281c7e5d5da6d07e0b", "type": "electric_scooter", "is_reserved": 0, "lon": -77.03180283333333}, {"fusion_lat": 0.0, "name": "c9e6ea48cc8dee396854380fc9706402", "is_disabled": 0, "rental_uris": {"android": "https://dc.lft.to/lastmile_qr_scan", "ios": "https://dc.lft.to/lastmile_qr_scan"}, "fusion_lon": 0.0, "lat": 38.901067, "bike_id": "c9e6ea48cc8dee396854380fc9706402", "type": "electric_scooter", "is_reserved": 0, "lon": -77.04467933333333}, {"fusion_lat": 0.0, "name": "08b88c90807f3f12af2b48e2ef3c1e83", "is_disabled": 0, "rental_uris": {"android": "https://dc.lft.to/lastmile_qr_scan", "ios": "https://dc.lft.to/lastmile_qr_scan"}, "fusion_lon": 0.0, "lat": 38.943876, "bike_id": "08b88c90807f3f12af2b48e2ef3c1e83", "type": "electric_scooter", "is_reserved": 0, "lon": -77.09507}, {"fusion_lat": 0.0, "name": "584de710161c0eeae89a458c287a17aa", "is_disabled": 0, "rental_uris": {"android": "https://dc.lft.to/lastmile_qr_scan", "ios": "https://dc.lft.to/lastmile_qr_scan"}, "fusion_lon": 0.0, "lat": 38.92162733333333, "bike_id": "584de710161c0eeae89a458c287a17aa", "type": "electric_scooter", "is_reserved": 0, "lon": -77.03273516666667}, {"fusion_lat": 0.0, "name": "5cf541a794d8d7da43157ef9ea2ee10c", "is_disabled": 0, "rental_uris": {"android": "https://dc.lft.to/lastmile_qr_scan", "ios": "https://dc.lft.to/lastmile_qr_scan"}, "fusion_lon": 0.0, "lat": 38.92098416666666, "bike_id": "5cf541a794d8d7da43157ef9ea2ee10c", "type": "electric_scooter", "is_reserved": 0, "lon": -77.0252055}, {"fusion_lat": 0.0, "name": "bf43b512c197ab1ed19816c3fbf1890e", "is_disabled": 0, "rental_uris": {"android": "https://dc.lft.to/lastmile_qr_scan", "ios": "https://dc.lft.to/lastmile_qr_scan"}, "fusion_lon": 0.0, "lat": 38.928513, "bike_id": "bf43b512c197ab1ed19816c3fbf1890e", "type": "electric_scooter", "is_reserved": 0, "lon": -77.05429716666667}, {"fusion_lat": 0.0, "name": "f5d8324b03d305e9ee52d03f0e7b8a2c", "is_disabled": 0, "rental_uris": {"android": "https://dc.lft.to/lastmile_qr_scan", "ios": "https://dc.lft.to/lastmile_qr_scan"}, "fusion_lon": 0.0, "lat": 38.915215, "bike_id": "f5d8324b03d305e9ee52d03f0e7b8a2c", "type": "electric_scooter", "is_reserved": 0, "lon": -77.01220916666666}, {"fusion_lat": 0.0, "name": "2259a90f74efe97f5f47c12485b727a5", "is_disabled": 0, "rental_uris": {"android": "https://dc.lft.to/lastmile_qr_scan", "ios": "https://dc.lft.to/lastmile_qr_scan"}, "fusion_lon": 0.0, "lat": 38.8782125, "bike_id": "2259a90f74efe97f5f47c12485b727a5", "type": "electric_scooter", "is_reserved": 0, "lon": -77.00802583333333}, {"fusion_lat": 0.0, "name": "1b9f4fec07e3ab49c5e35727f91cc7f7", "is_disabled": 0, "rental_uris": {"android": "https://dc.lft.to/lastmile_qr_scan", "ios": "https://dc.lft.to/lastmile_qr_scan"}, "fusion_lon": 0.0, "lat": 38.9207965, "bike_id": "1b9f4fec07e3ab49c5e35727f91cc7f7", "type": "electric_scooter", "is_reserved": 0, "lon": -77.02511916666667}, {"fusion_lat": 0.0, "name": "091fdcbcd062d03bf21cb670edb2d4ee", "is_disabled": 0, "rental_uris": {"android": "https://dc.lft.to/lastmile_qr_scan", "ios": "https://dc.lft.to/lastmile_qr_scan"}, "fusion_lon": 0.0, "lat": 38.8771215, "bike_id": "091fdcbcd062d03bf21cb670edb2d4ee", "type": "electric_scooter", "is_reserved": 0, "lon": -77.017674}, {"fusion_lat": 0.0, "name": "da3af9b17a1bfc619508162535bf49dc", "is_disabled": 0, "rental_uris": {"android": "https://dc.lft.to/lastmile_qr_scan", "ios": "https://dc.lft.to/lastmile_qr_scan"}, "fusion_lon": 0.0, "lat": 38.900408166666665, "bike_id": "da3af9b17a1bfc619508162535bf49dc", "type": "electric_scooter", "is_reserved": 0, "lon": -77.001939}, {"fusion_lat": 0.0, "name": "34d6c2617b7dc52470e84983c5e42964", "is_disabled": 0, "rental_uris": {"android": "https://dc.lft.to/lastmile_qr_scan", "ios": "https://dc.lft.to/lastmile_qr_scan"}, "fusion_lon": 0.0, "lat": 38.907063, "bike_id": "34d6c2617b7dc52470e84983c5e42964", "type": "electric_scooter", "is_reserved": 0, "lon": -77.04962083333334}, {"fusion_lat": 0.0, "name": "8555eff6a5d508e4d57030002b9c0a38", "is_disabled": 0, "rental_uris": {"android": "https://dc.lft.to/lastmile_qr_scan", "ios": "https://dc.lft.to/lastmile_qr_scan"}, "fusion_lon": 0.0, "lat": 38.8710275, "bike_id": "8555eff6a5d508e4d57030002b9c0a38", "type": "electric_scooter", "is_reserved": 0, "lon": -76.96577233333333}, {"fusion_lat": 0.0, "name": "d46ae07d530191177be9fb01275e35ee", "is_disabled": 0, "rental_uris": {"android": "https://dc.lft.to/lastmile_qr_scan", "ios": "https://dc.lft.to/lastmile_qr_scan"}, "fusion_lon": 0.0, "lat": 38.906866666666666, "bike_id": "d46ae07d530191177be9fb01275e35ee", "type": "electric_scooter", "is_reserved": 0, "lon": -77.02695333333334}, {"fusion_lat": 0.0, "name": "5e1e1803825637361dd65bf4fb9fb848", "is_disabled": 0, "rental_uris": {"android": "https://dc.lft.to/lastmile_qr_scan", "ios": "https://dc.lft.to/lastmile_qr_scan"}, "fusion_lon": 0.0, "lat": 38.914172, "bike_id": "5e1e1803825637361dd65bf4fb9fb848", "type": "electric_scooter", "is_reserved": 0, "lon": -77.03813183333334}, {"fusion_lat": 0.0, "name": "d8a9a10f543d0387a0c985ec07c5cc73", "is_disabled": 0, "rental_uris": {"android": "https://dc.lft.to/lastmile_qr_scan", "ios": "https://dc.lft.to/lastmile_qr_scan"}, "fusion_lon": 0.0, "lat": 38.89620433333333, "bike_id": "d8a9a10f543d0387a0c985ec07c5cc73", "type": "electric_bike", "is_reserved": 0, "lon": -77.0221175}, {"fusion_lat": 0.0, "name": "325d10f19f42099796bdfefbb833682a", "is_disabled": 0, "rental_uris": {"android": "https://dc.lft.to/lastmile_qr_scan", "ios": "https://dc.lft.to/lastmile_qr_scan"}, "fusion_lon": 0.0, "lat": 38.927012500000004, "bike_id": "325d10f19f42099796bdfefbb833682a", "type": "electric_scooter", "is_reserved": 0, "lon": -77.02061233333333}, {"fusion_lat": 0.0, "name": "8a70c2efdc2ae8d25262daed8d282a36", "is_disabled": 0, "rental_uris": {"android": "https://dc.lft.to/lastmile_qr_scan", "ios": "https://dc.lft.to/lastmile_qr_scan"}, "fusion_lon": 0.0, "lat": 38.92882483333333, "bike_id": "8a70c2efdc2ae8d25262daed8d282a36", "type": "electric_scooter", "is_reserved": 0, "lon": -77.01362833333333}, {"fusion_lat": 0.0, "name": "442d91ec976e555971db89198b091468", "is_disabled": 0, "rental_uris": {"android": "https://dc.lft.to/lastmile_qr_scan", "ios": "https://dc.lft.to/lastmile_qr_scan"}, "fusion_lon": 0.0, "lat": 38.873978666666666, "bike_id": "442d91ec976e555971db89198b091468", "type": "electric_scooter", "is_reserved": 0, "lon": -77.00061783333334}, {"fusion_lat": 0.0, "name": "afe5c7325ed10a9552d0c251cb969924", "is_disabled": 0, "rental_uris": {"android": "https://dc.lft.to/lastmile_qr_scan", "ios": "https://dc.lft.to/lastmile_qr_scan"}, "fusion_lon": 0.0, "lat": 38.90731516666666, "bike_id": "afe5c7325ed10a9552d0c251cb969924", "type": "electric_scooter", "is_reserved": 0, "lon": -77.02971083333334}, {"fusion_lat": 0.0, "name": "caaf587cf1cde5993e023f198923b1bc", "is_disabled": 0, "rental_uris": {"android": "https://dc.lft.to/lastmile_qr_scan", "ios": "https://dc.lft.to/lastmile_qr_scan"}, "fusion_lon": 0.0, "lat": 38.90467966666667, "bike_id": "caaf587cf1cde5993e023f198923b1bc", "type": "electric_scooter", "is_reserved": 0, "lon": -77.05346666666667}, {"fusion_lat": 0.0, "name": "7bb4a06e79045b0a90ed39c07f894429", "is_disabled": 0, "rental_uris": {"android": "https://dc.lft.to/lastmile_qr_scan", "ios": "https://dc.lft.to/lastmile_qr_scan"}, "fusion_lon": 0.0, "lat": 38.882430666666664, "bike_id": "7bb4a06e79045b0a90ed39c07f894429", "type": "electric_scooter", "is_reserved": 0, "lon": -77.00360483333333}, {"fusion_lat": 0.0, "name": "f75edd76bde0c6974dd52b39b81ee6d4", "is_disabled": 0, "rental_uris": {"android": "https://dc.lft.to/lastmile_qr_scan", "ios": "https://dc.lft.to/lastmile_qr_scan"}, "fusion_lon": 0.0, "lat": 38.894755, "bike_id": "f75edd76bde0c6974dd52b39b81ee6d4", "type": "electric_scooter", "is_reserved": 0, "lon": -77.01103666666667}, {"fusion_lat": 0.0, "name": "987c3df40495bf3d676abe4423bace53", "is_disabled": 0, "rental_uris": {"android": "https://dc.lft.to/lastmile_qr_scan", "ios": "https://dc.lft.to/lastmile_qr_scan"}, "fusion_lon": 0.0, "lat": 38.922112166666665, "bike_id": "987c3df40495bf3d676abe4423bace53", "type": "electric_scooter", "is_reserved": 0, "lon": -77.0201535}, {"fusion_lat": 0.0, "name": "ce14e4c60380a9491469bdf2a4da8fbc", "is_disabled": 0, "rental_uris": {"android": "https://dc.lft.to/lastmile_qr_scan", "ios": "https://dc.lft.to/lastmile_qr_scan"}, "fusion_lon": 0.0, "lat": 38.92073633333333, "bike_id": "ce14e4c60380a9491469bdf2a4da8fbc", "type": "electric_scooter", "is_reserved": 0, "lon": -77.02279716666666}, {"fusion_lat": 0.0, "name": "6d47bd175e23781e032095d40e9d68a2", "is_disabled": 0, "rental_uris": {"android": "https://dc.lft.to/lastmile_qr_scan", "ios": "https://dc.lft.to/lastmile_qr_scan"}, "fusion_lon": 0.0, "lat": 38.88710716666667, "bike_id": "6d47bd175e23781e032095d40e9d68a2", "type": "electric_scooter", "is_reserved": 0, "lon": -77.02582066666666}, {"fusion_lat": 0.0, "name": "605552e3ee61f3918d13faf651e42d8d", "is_disabled": 0, "rental_uris": {"android": "https://dc.lft.to/lastmile_qr_scan", "ios": "https://dc.lft.to/lastmile_qr_scan"}, "fusion_lon": 0.0, "lat": 38.890167, "bike_id": "605552e3ee61f3918d13faf651e42d8d", "type": "electric_scooter", "is_reserved": 0, "lon": -76.93734866666667}, {"fusion_lat": 0.0, "name": "4b37ad6a222a9a91c171d0a001a11d84", "is_disabled": 0, "rental_uris": {"android": "https://dc.lft.to/lastmile_qr_scan", "ios": "https://dc.lft.to/lastmile_qr_scan"}, "fusion_lon": 0.0, "lat": 38.96676316666667, "bike_id": "4b37ad6a222a9a91c171d0a001a11d84", "type": "electric_bike", "is_reserved": 0, "lon": -77.0216695}, {"fusion_lat": 0.0, "name": "2f7968cdf6e372154bdc45becfde5153", "is_disabled": 0, "rental_uris": {"android": "https://dc.lft.to/lastmile_qr_scan", "ios": "https://dc.lft.to/lastmile_qr_scan"}, "fusion_lon": 0.0, "lat": 38.946292, "bike_id": "2f7968cdf6e372154bdc45becfde5153", "type": "electric_scooter", "is_reserved": 0, "lon": -77.01845716666666}, {"fusion_lat": 0.0, "name": "3d8c62174f389d5cad35210295d6cd8e", "is_disabled": 0, "rental_uris": {"android": "https://dc.lft.to/lastmile_qr_scan", "ios": "https://dc.lft.to/lastmile_qr_scan"}, "fusion_lon": 0.0, "lat": 38.900591166666665, "bike_id": "3d8c62174f389d5cad35210295d6cd8e", "type": "electric_scooter", "is_reserved": 0, "lon": -77.0021975}, {"fusion_lat": 0.0, "name": "e04b7ce8f5338faae26dd4a986e9a066", "is_disabled": 0, "rental_uris": {"android": "https://dc.lft.to/lastmile_qr_scan", "ios": "https://dc.lft.to/lastmile_qr_scan"}, "fusion_lon": 0.0, "lat": 38.91110833333333, "bike_id": "e04b7ce8f5338faae26dd4a986e9a066", "type": "electric_scooter", "is_reserved": 0, "lon": -77.011513}, {"fusion_lat": 0.0, "name": "9bacbde9933e4c3c0b22ace58749dd45", "is_disabled": 0, "rental_uris": {"android": "https://dc.lft.to/lastmile_qr_scan", "ios": "https://dc.lft.to/lastmile_qr_scan"}, "fusion_lon": 0.0, "lat": 38.918979666666665, "bike_id": "9bacbde9933e4c3c0b22ace58749dd45", "type": "electric_scooter", "is_reserved": 0, "lon": -77.03497133333333}, {"fusion_lat": 0.0, "name": "02bdcfcb1f9fb511df58fba489b8d8f7", "is_disabled": 0, "rental_uris": {"android": "https://dc.lft.to/lastmile_qr_scan", "ios": "https://dc.lft.to/lastmile_qr_scan"}, "fusion_lon": 0.0, "lat": 38.902603, "bike_id": "02bdcfcb1f9fb511df58fba489b8d8f7", "type": "electric_scooter", "is_reserved": 0, "lon": -77.03373783333333}, {"fusion_lat": 0.0, "name": "254003a84995feac71bbbcf4e3d9163c", "is_disabled": 0, "rental_uris": {"android": "https://dc.lft.to/lastmile_qr_scan", "ios": "https://dc.lft.to/lastmile_qr_scan"}, "fusion_lon": 0.0, "lat": 38.898484333333336, "bike_id": "254003a84995feac71bbbcf4e3d9163c", "type": "electric_scooter", "is_reserved": 0, "lon": -77.02981216666667}, {"fusion_lat": 0.0, "name": "47c8ac53ccec6f01272247cad0dbbfa1", "is_disabled": 0, "rental_uris": {"android": "https://dc.lft.to/lastmile_qr_scan", "ios": "https://dc.lft.to/lastmile_qr_scan"}, "fusion_lon": 0.0, "lat": 38.8717285, "bike_id": "47c8ac53ccec6f01272247cad0dbbfa1", "type": "electric_scooter", "is_reserved": 0, "lon": -77.00908316666667}, {"fusion_lat": 0.0, "name": "b515f138636a58c24b4480e8d6482dc7", "is_disabled": 0, "rental_uris": {"android": "https://dc.lft.to/lastmile_qr_scan", "ios": "https://dc.lft.to/lastmile_qr_scan"}, "fusion_lon": 0.0, "lat": 38.9287135, "bike_id": "b515f138636a58c24b4480e8d6482dc7", "type": "electric_scooter", "is_reserved": 0, "lon": -77.027307}, {"fusion_lat": 0.0, "name": "408ea5d91db2b8e99fa18b62331c3790", "is_disabled": 0, "rental_uris": {"android": "https://dc.lft.to/lastmile_qr_scan", "ios": "https://dc.lft.to/lastmile_qr_scan"}, "fusion_lon": 0.0, "lat": 38.9013195, "bike_id": "408ea5d91db2b8e99fa18b62331c3790", "type": "electric_scooter", "is_reserved": 0, "lon": -77.04500716666666}, {"fusion_lat": 0.0, "name": "2613ee055b90b1f260f3dcd01e2127f6", "is_disabled": 0, "rental_uris": {"android": "https://dc.lft.to/lastmile_qr_scan", "ios": "https://dc.lft.to/lastmile_qr_scan"}, "fusion_lon": 0.0, "lat": 38.92038616666667, "bike_id": "2613ee055b90b1f260f3dcd01e2127f6", "type": "electric_scooter", "is_reserved": 0, "lon": -77.03410733333334}, {"fusion_lat": 0.0, "name": "48cacf7e39a3b09493504cb51a337b96", "is_disabled": 0, "rental_uris": {"android": "https://dc.lft.to/lastmile_qr_scan", "ios": "https://dc.lft.to/lastmile_qr_scan"}, "fusion_lon": 0.0, "lat": 38.922642, "bike_id": "48cacf7e39a3b09493504cb51a337b96", "type": "electric_scooter", "is_reserved": 0, "lon": -77.07484116666667}, {"fusion_lat": 0.0, "name": "cf6af9940a7402f031aa9421287dd9dc", "is_disabled": 0, "rental_uris": {"android": "https://dc.lft.to/lastmile_qr_scan", "ios": "https://dc.lft.to/lastmile_qr_scan"}, "fusion_lon": 0.0, "lat": 38.892208, "bike_id": "cf6af9940a7402f031aa9421287dd9dc", "type": "electric_scooter", "is_reserved": 0, "lon": -77.03220133333333}, {"fusion_lat": 0.0, "name": "ac2349093be3af8cbe51a33c779884b2", "is_disabled": 0, "rental_uris": {"android": "https://dc.lft.to/lastmile_qr_scan", "ios": "https://dc.lft.to/lastmile_qr_scan"}, "fusion_lon": 0.0, "lat": 38.930758, "bike_id": "ac2349093be3af8cbe51a33c779884b2", "type": "electric_scooter", "is_reserved": 0, "lon": -77.01997983333334}, {"fusion_lat": 0.0, "name": "c1a03fba88f31a91e6bb25e8a93324da", "is_disabled": 0, "rental_uris": {"android": "https://dc.lft.to/lastmile_qr_scan", "ios": "https://dc.lft.to/lastmile_qr_scan"}, "fusion_lon": 0.0, "lat": 38.917649, "bike_id": "c1a03fba88f31a91e6bb25e8a93324da", "type": "electric_scooter", "is_reserved": 0, "lon": -77.01762916666667}, {"fusion_lat": 0.0, "name": "b613c3b1a2f67266987aeea26f82bc04", "is_disabled": 0, "rental_uris": {"android": "https://dc.lft.to/lastmile_qr_scan", "ios": "https://dc.lft.to/lastmile_qr_scan"}, "fusion_lon": 0.0, "lat": 38.9141915, "bike_id": "b613c3b1a2f67266987aeea26f82bc04", "type": "electric_scooter", "is_reserved": 0, "lon": -77.039355}, {"fusion_lat": 0.0, "name": "ee28a3407bdf91e13c63d1d8fc7d64af", "is_disabled": 0, "rental_uris": {"android": "https://dc.lft.to/lastmile_qr_scan", "ios": "https://dc.lft.to/lastmile_qr_scan"}, "fusion_lon": 0.0, "lat": 38.89935916666667, "bike_id": "ee28a3407bdf91e13c63d1d8fc7d64af", "type": "electric_scooter", "is_reserved": 0, "lon": -77.02196983333333}, {"fusion_lat": 0.0, "name": "71ed88ef10fcbc44da48e9e62d34fd05", "is_disabled": 0, "rental_uris": {"android": "https://dc.lft.to/lastmile_qr_scan", "ios": "https://dc.lft.to/lastmile_qr_scan"}, "fusion_lon": 0.0, "lat": 38.91919083333333, "bike_id": "71ed88ef10fcbc44da48e9e62d34fd05", "type": "electric_scooter", "is_reserved": 0, "lon": -77.03392883333333}, {"fusion_lat": 0.0, "name": "aad237fc65ceebf98dae8ed3a8a54122", "is_disabled": 0, "rental_uris": {"android": "https://dc.lft.to/lastmile_qr_scan", "ios": "https://dc.lft.to/lastmile_qr_scan"}, "fusion_lon": 0.0, "lat": 38.95888383333333, "bike_id": "aad237fc65ceebf98dae8ed3a8a54122", "type": "electric_scooter", "is_reserved": 0, "lon": -77.00284083333334}, {"fusion_lat": 0.0, "name": "ce028aaf68fa6b0fba722772a6bf6d19", "is_disabled": 0, "rental_uris": {"android": "https://dc.lft.to/lastmile_qr_scan", "ios": "https://dc.lft.to/lastmile_qr_scan"}, "fusion_lon": 0.0, "lat": 38.927372166666665, "bike_id": "ce028aaf68fa6b0fba722772a6bf6d19", "type": "electric_scooter", "is_reserved": 0, "lon": -77.02259316666667}, {"fusion_lat": 0.0, "name": "8d0b5747340ee6c6d3c1d9c48f8cdec7", "is_disabled": 0, "rental_uris": {"android": "https://dc.lft.to/lastmile_qr_scan", "ios": "https://dc.lft.to/lastmile_qr_scan"}, "fusion_lon": 0.0, "lat": 38.876554166666665, "bike_id": "8d0b5747340ee6c6d3c1d9c48f8cdec7", "type": "electric_scooter", "is_reserved": 0, "lon": -77.00468566666666}, {"fusion_lat": 0.0, "name": "81df163e703d5fd64202e7fbc3a29564", "is_disabled": 0, "rental_uris": {"android": "https://dc.lft.to/lastmile_qr_scan", "ios": "https://dc.lft.to/lastmile_qr_scan"}, "fusion_lon": 0.0, "lat": 38.9169005, "bike_id": "81df163e703d5fd64202e7fbc3a29564", "type": "electric_scooter", "is_reserved": 0, "lon": -77.02595316666667}, {"fusion_lat": 0.0, "name": "032f3cfc9603786c650fb35cd973aec4", "is_disabled": 0, "rental_uris": {"android": "https://dc.lft.to/lastmile_qr_scan", "ios": "https://dc.lft.to/lastmile_qr_scan"}, "fusion_lon": 0.0, "lat": 38.90108983333333, "bike_id": "032f3cfc9603786c650fb35cd973aec4", "type": "electric_bike", "is_reserved": 0, "lon": -77.03931566666667}, {"fusion_lat": 0.0, "name": "adf1606394f0bd75b2caefad1f591978", "is_disabled": 0, "rental_uris": {"android": "https://dc.lft.to/lastmile_qr_scan", "ios": "https://dc.lft.to/lastmile_qr_scan"}, "fusion_lon": 0.0, "lat": 38.92128183333333, "bike_id": "adf1606394f0bd75b2caefad1f591978", "type": "electric_scooter", "is_reserved": 0, "lon": -77.04424633333333}, {"fusion_lat": 0.0, "name": "a575909ea81b33df168bb8bbbeddbc78", "is_disabled": 0, "rental_uris": {"android": "https://dc.lft.to/lastmile_qr_scan", "ios": "https://dc.lft.to/lastmile_qr_scan"}, "fusion_lon": 0.0, "lat": 38.91992033333333, "bike_id": "a575909ea81b33df168bb8bbbeddbc78", "type": "electric_scooter", "is_reserved": 0, "lon": -77.032813}, {"fusion_lat": 0.0, "name": "bfb3c8a2c32622a98bb36a372f869c06", "is_disabled": 0, "rental_uris": {"android": "https://dc.lft.to/lastmile_qr_scan", "ios": "https://dc.lft.to/lastmile_qr_scan"}, "fusion_lon": 0.0, "lat": 38.906713, "bike_id": "bfb3c8a2c32622a98bb36a372f869c06", "type": "electric_scooter", "is_reserved": 0, "lon": -77.02704966666667}, {"fusion_lat": 0.0, "name": "ef8d3bc2a0615517045a832b87e530ea", "is_disabled": 0, "rental_uris": {"android": "https://dc.lft.to/lastmile_qr_scan", "ios": "https://dc.lft.to/lastmile_qr_scan"}, "fusion_lon": 0.0, "lat": 38.922367666666666, "bike_id": "ef8d3bc2a0615517045a832b87e530ea", "type": "electric_bike", "is_reserved": 0, "lon": -77.03077816666666}, {"fusion_lat": 0.0, "name": "1fa47781061883f226e9f95563209146", "is_disabled": 0, "rental_uris": {"android": "https://dc.lft.to/lastmile_qr_scan", "ios": "https://dc.lft.to/lastmile_qr_scan"}, "fusion_lon": 0.0, "lat": 38.94412883333333, "bike_id": "1fa47781061883f226e9f95563209146", "type": "electric_scooter", "is_reserved": 0, "lon": -77.06322883333333}, {"fusion_lat": 0.0, "name": "79ce1b7eacb8fa67983ba30d3b200355", "is_disabled": 0, "rental_uris": {"android": "https://dc.lft.to/lastmile_qr_scan", "ios": "https://dc.lft.to/lastmile_qr_scan"}, "fusion_lon": 0.0, "lat": 38.9200565, "bike_id": "79ce1b7eacb8fa67983ba30d3b200355", "type": "electric_scooter", "is_reserved": 0, "lon": -77.03890866666667}, {"fusion_lat": 0.0, "name": "efd3ddc6f1de1421ec8a1337f687fbea", "is_disabled": 0, "rental_uris": {"android": "https://dc.lft.to/lastmile_qr_scan", "ios": "https://dc.lft.to/lastmile_qr_scan"}, "fusion_lon": 0.0, "lat": 38.90383883333333, "bike_id": "efd3ddc6f1de1421ec8a1337f687fbea", "type": "electric_scooter", "is_reserved": 0, "lon": -76.97616133333334}, {"fusion_lat": 0.0, "name": "02ff581c0f4d253595fc753b37caa8e7", "is_disabled": 0, "rental_uris": {"android": "https://dc.lft.to/lastmile_qr_scan", "ios": "https://dc.lft.to/lastmile_qr_scan"}, "fusion_lon": 0.0, "lat": 38.92762716666667, "bike_id": "02ff581c0f4d253595fc753b37caa8e7", "type": "electric_scooter", "is_reserved": 0, "lon": -77.03277233333333}, {"fusion_lat": 0.0, "name": "e632bc922ea87613608ace276b8c93fa", "is_disabled": 0, "rental_uris": {"android": "https://dc.lft.to/lastmile_qr_scan", "ios": "https://dc.lft.to/lastmile_qr_scan"}, "fusion_lon": 0.0, "lat": 38.963935666666664, "bike_id": "e632bc922ea87613608ace276b8c93fa", "type": "electric_scooter", "is_reserved": 0, "lon": -77.02588066666667}, {"fusion_lat": 0.0, "name": "694a6ea33f713014cf433f800755940c", "is_disabled": 0, "rental_uris": {"android": "https://dc.lft.to/lastmile_qr_scan", "ios": "https://dc.lft.to/lastmile_qr_scan"}, "fusion_lon": 0.0, "lat": 38.907402, "bike_id": "694a6ea33f713014cf433f800755940c", "type": "electric_scooter", "is_reserved": 0, "lon": -77.032096}, {"fusion_lat": 0.0, "name": "165b09dd2a376c87698ec3a0aa153a45", "is_disabled": 0, "rental_uris": {"android": "https://dc.lft.to/lastmile_qr_scan", "ios": "https://dc.lft.to/lastmile_qr_scan"}, "fusion_lon": 0.0, "lat": 38.802950333333335, "bike_id": "165b09dd2a376c87698ec3a0aa153a45", "type": "electric_bike", "is_reserved": 0, "lon": -77.0594005}, {"fusion_lat": 0.0, "name": "d6873d9e597fd601035d9837a1503023", "is_disabled": 0, "rental_uris": {"android": "https://dc.lft.to/lastmile_qr_scan", "ios": "https://dc.lft.to/lastmile_qr_scan"}, "fusion_lon": 0.0, "lat": 38.93246883333333, "bike_id": "d6873d9e597fd601035d9837a1503023", "type": "electric_scooter", "is_reserved": 0, "lon": -77.03281433333333}, {"fusion_lat": 0.0, "name": "e92ad2fa0a7222d3f63882b0c4741dff", "is_disabled": 0, "rental_uris": {"android": "https://dc.lft.to/lastmile_qr_scan", "ios": "https://dc.lft.to/lastmile_qr_scan"}, "fusion_lon": 0.0, "lat": 38.87996583333333, "bike_id": "e92ad2fa0a7222d3f63882b0c4741dff", "type": "electric_scooter", "is_reserved": 0, "lon": -77.00594333333333}, {"fusion_lat": 0.0, "name": "30bd12bc3f724012f6c310d481d9dbe1", "is_disabled": 0, "rental_uris": {"android": "https://dc.lft.to/lastmile_qr_scan", "ios": "https://dc.lft.to/lastmile_qr_scan"}, "fusion_lon": 0.0, "lat": 38.90033566666666, "bike_id": "30bd12bc3f724012f6c310d481d9dbe1", "type": "electric_scooter", "is_reserved": 0, "lon": -77.011786}, {"fusion_lat": 0.0, "name": "06ab28033f3e38ef8fc397a69fd5642f", "is_disabled": 0, "rental_uris": {"android": "https://dc.lft.to/lastmile_qr_scan", "ios": "https://dc.lft.to/lastmile_qr_scan"}, "fusion_lon": 0.0, "lat": 38.8923945, "bike_id": "06ab28033f3e38ef8fc397a69fd5642f", "type": "electric_scooter", "is_reserved": 0, "lon": -77.04365766666666}, {"fusion_lat": 0.0, "name": "b6fd5ddc2ed115c5d8a15810a15710ef", "is_disabled": 0, "rental_uris": {"android": "https://dc.lft.to/lastmile_qr_scan", "ios": "https://dc.lft.to/lastmile_qr_scan"}, "fusion_lon": 0.0, "lat": 38.92282333333333, "bike_id": "b6fd5ddc2ed115c5d8a15810a15710ef", "type": "electric_scooter", "is_reserved": 0, "lon": -77.03658016666667}, {"fusion_lat": 0.0, "name": "af42fdc7bd4b09f3a322e48a1a5dde2f", "is_disabled": 0, "rental_uris": {"android": "https://dc.lft.to/lastmile_qr_scan", "ios": "https://dc.lft.to/lastmile_qr_scan"}, "fusion_lon": 0.0, "lat": 38.9212805, "bike_id": "af42fdc7bd4b09f3a322e48a1a5dde2f", "type": "electric_scooter", "is_reserved": 0, "lon": -77.03183516666667}, {"fusion_lat": 0.0, "name": "8444b7f5b34e37128f377d760edbd7ce", "is_disabled": 0, "rental_uris": {"android": "https://dc.lft.to/lastmile_qr_scan", "ios": "https://dc.lft.to/lastmile_qr_scan"}, "fusion_lon": 0.0, "lat": 38.88189783333333, "bike_id": "8444b7f5b34e37128f377d760edbd7ce", "type": "electric_scooter", "is_reserved": 0, "lon": -77.00352633333334}, {"fusion_lat": 0.0, "name": "786188f0816ba7d21fca0f51dc53130e", "is_disabled": 0, "rental_uris": {"android": "https://dc.lft.to/lastmile_qr_scan", "ios": "https://dc.lft.to/lastmile_qr_scan"}, "fusion_lon": 0.0, "lat": 38.927392833333336, "bike_id": "786188f0816ba7d21fca0f51dc53130e", "type": "electric_scooter", "is_reserved": 0, "lon": -77.05259066666666}, {"fusion_lat": 0.0, "name": "3fb1ca229462b896e75ae63e635d5c8f", "is_disabled": 0, "rental_uris": {"android": "https://dc.lft.to/lastmile_qr_scan", "ios": "https://dc.lft.to/lastmile_qr_scan"}, "fusion_lon": 0.0, "lat": 38.904209, "bike_id": "3fb1ca229462b896e75ae63e635d5c8f", "type": "electric_scooter", "is_reserved": 0, "lon": -77.0514085}, {"fusion_lat": 0.0, "name": "c84517e2d8362574410d3ce0091c49a8", "is_disabled": 0, "rental_uris": {"android": "https://dc.lft.to/lastmile_qr_scan", "ios": "https://dc.lft.to/lastmile_qr_scan"}, "fusion_lon": 0.0, "lat": 38.92383816666667, "bike_id": "c84517e2d8362574410d3ce0091c49a8", "type": "electric_scooter", "is_reserved": 0, "lon": -77.0447305}, {"fusion_lat": 0.0, "name": "94e858c32b04c8575ffde0ddc5644be7", "is_disabled": 0, "rental_uris": {"android": "https://dc.lft.to/lastmile_qr_scan", "ios": "https://dc.lft.to/lastmile_qr_scan"}, "fusion_lon": 0.0, "lat": 38.920399, "bike_id": "94e858c32b04c8575ffde0ddc5644be7", "type": "electric_scooter", "is_reserved": 0, "lon": -77.031825}, {"fusion_lat": 0.0, "name": "f7145f0e3adfc1a08b8e9d0408c71c33", "is_disabled": 0, "rental_uris": {"android": "https://dc.lft.to/lastmile_qr_scan", "ios": "https://dc.lft.to/lastmile_qr_scan"}, "fusion_lon": 0.0, "lat": 38.926136666666665, "bike_id": "f7145f0e3adfc1a08b8e9d0408c71c33", "type": "electric_scooter", "is_reserved": 0, "lon": -77.03958066666667}, {"fusion_lat": 0.0, "name": "caf60780917ceefadebb09b6b70ae813", "is_disabled": 0, "rental_uris": {"android": "https://dc.lft.to/lastmile_qr_scan", "ios": "https://dc.lft.to/lastmile_qr_scan"}, "fusion_lon": 0.0, "lat": 38.909646, "bike_id": "caf60780917ceefadebb09b6b70ae813", "type": "electric_scooter", "is_reserved": 0, "lon": -77.03995933333333}, {"fusion_lat": 0.0, "name": "717d350ec096cad1616e6c61889bba60", "is_disabled": 0, "rental_uris": {"android": "https://dc.lft.to/lastmile_qr_scan", "ios": "https://dc.lft.to/lastmile_qr_scan"}, "fusion_lon": 0.0, "lat": 38.9125345, "bike_id": "717d350ec096cad1616e6c61889bba60", "type": "electric_scooter", "is_reserved": 0, "lon": -77.00671483333333}, {"fusion_lat": 0.0, "name": "3157b3241b620a3d9e900989ed43f5d8", "is_disabled": 0, "rental_uris": {"android": "https://dc.lft.to/lastmile_qr_scan", "ios": "https://dc.lft.to/lastmile_qr_scan"}, "fusion_lon": 0.0, "lat": 38.84428233333333, "bike_id": "3157b3241b620a3d9e900989ed43f5d8", "type": "electric_scooter", "is_reserved": 0, "lon": -76.99785133333333}, {"fusion_lat": 0.0, "name": "a94cf08a12962c60177c11785a20c80c", "is_disabled": 0, "rental_uris": {"android": "https://dc.lft.to/lastmile_qr_scan", "ios": "https://dc.lft.to/lastmile_qr_scan"}, "fusion_lon": 0.0, "lat": 38.92073716666667, "bike_id": "a94cf08a12962c60177c11785a20c80c", "type": "electric_scooter", "is_reserved": 0, "lon": -77.02540933333333}, {"fusion_lat": 0.0, "name": "8e5d11e3738f1632a69c042d0c3bd02b", "is_disabled": 0, "rental_uris": {"android": "https://dc.lft.to/lastmile_qr_scan", "ios": "https://dc.lft.to/lastmile_qr_scan"}, "fusion_lon": 0.0, "lat": 38.8952745, "bike_id": "8e5d11e3738f1632a69c042d0c3bd02b", "type": "electric_scooter", "is_reserved": 0, "lon": -77.0305945}, {"fusion_lat": 0.0, "name": "5a5ac3cfdcbed8c82464c86aa491d9a4", "is_disabled": 0, "rental_uris": {"android": "https://dc.lft.to/lastmile_qr_scan", "ios": "https://dc.lft.to/lastmile_qr_scan"}, "fusion_lon": 0.0, "lat": 38.877115333333336, "bike_id": "5a5ac3cfdcbed8c82464c86aa491d9a4", "type": "electric_scooter", "is_reserved": 0, "lon": -77.017549}, {"fusion_lat": 0.0, "name": "66fd84a01f9ed318369bf119b11b61f1", "is_disabled": 0, "rental_uris": {"android": "https://dc.lft.to/lastmile_qr_scan", "ios": "https://dc.lft.to/lastmile_qr_scan"}, "fusion_lon": 0.0, "lat": 38.90005683333333, "bike_id": "66fd84a01f9ed318369bf119b11b61f1", "type": "electric_bike", "is_reserved": 0, "lon": -76.9985735}, {"fusion_lat": 0.0, "name": "eb7e303d4e01ab5e7c5cea3f24fb372e", "is_disabled": 0, "rental_uris": {"android": "https://dc.lft.to/lastmile_qr_scan", "ios": "https://dc.lft.to/lastmile_qr_scan"}, "fusion_lon": 0.0, "lat": 38.88896733333333, "bike_id": "eb7e303d4e01ab5e7c5cea3f24fb372e", "type": "electric_bike", "is_reserved": 0, "lon": -77.11527666666667}, {"fusion_lat": 0.0, "name": "2d2d44a8cfae1fd5a5d8419701e9fa87", "is_disabled": 0, "rental_uris": {"android": "https://dc.lft.to/lastmile_qr_scan", "ios": "https://dc.lft.to/lastmile_qr_scan"}, "fusion_lon": 0.0, "lat": 38.9276785, "bike_id": "2d2d44a8cfae1fd5a5d8419701e9fa87", "type": "electric_scooter", "is_reserved": 0, "lon": -77.02302366666666}, {"fusion_lat": 0.0, "name": "c06be7c597cc7583444abd0bc7d72bb1", "is_disabled": 0, "rental_uris": {"android": "https://dc.lft.to/lastmile_qr_scan", "ios": "https://dc.lft.to/lastmile_qr_scan"}, "fusion_lon": 0.0, "lat": 38.93415733333333, "bike_id": "c06be7c597cc7583444abd0bc7d72bb1", "type": "electric_scooter", "is_reserved": 0, "lon": -76.97962333333334}, {"fusion_lat": 0.0, "name": "38a0b13780798466d5b791ff9adff797", "is_disabled": 0, "rental_uris": {"android": "https://dc.lft.to/lastmile_qr_scan", "ios": "https://dc.lft.to/lastmile_qr_scan"}, "fusion_lon": 0.0, "lat": 38.90465483333333, "bike_id": "38a0b13780798466d5b791ff9adff797", "type": "electric_scooter", "is_reserved": 0, "lon": -77.05338316666666}, {"fusion_lat": 0.0, "name": "a95063bb1d1ac49bd868155dc12740b3", "is_disabled": 0, "rental_uris": {"android": "https://dc.lft.to/lastmile_qr_scan", "ios": "https://dc.lft.to/lastmile_qr_scan"}, "fusion_lon": 0.0, "lat": 38.92270083333333, "bike_id": "a95063bb1d1ac49bd868155dc12740b3", "type": "electric_scooter", "is_reserved": 0, "lon": -77.0296}, {"fusion_lat": 0.0, "name": "2def72a677c7396fc03cb3115335d348", "is_disabled": 0, "rental_uris": {"android": "https://dc.lft.to/lastmile_qr_scan", "ios": "https://dc.lft.to/lastmile_qr_scan"}, "fusion_lon": 0.0, "lat": 38.931285333333335, "bike_id": "2def72a677c7396fc03cb3115335d348", "type": "electric_scooter", "is_reserved": 0, "lon": -77.03600766666666}, {"fusion_lat": 0.0, "name": "de1381e69af1156e84462073fb1b6fdf", "is_disabled": 0, "rental_uris": {"android": "https://dc.lft.to/lastmile_qr_scan", "ios": "https://dc.lft.to/lastmile_qr_scan"}, "fusion_lon": 0.0, "lat": 38.84425266666667, "bike_id": "de1381e69af1156e84462073fb1b6fdf", "type": "electric_scooter", "is_reserved": 0, "lon": -76.9978115}, {"fusion_lat": 0.0, "name": "1393263639a543d68ccf424a01f5aa87", "is_disabled": 0, "rental_uris": {"android": "https://dc.lft.to/lastmile_qr_scan", "ios": "https://dc.lft.to/lastmile_qr_scan"}, "fusion_lon": 0.0, "lat": 38.92131666666667, "bike_id": "1393263639a543d68ccf424a01f5aa87", "type": "electric_scooter", "is_reserved": 0, "lon": -77.01803}, {"fusion_lat": 0.0, "name": "9a59abe82174fc21bc3dac2a09d000b9", "is_disabled": 0, "rental_uris": {"android": "https://dc.lft.to/lastmile_qr_scan", "ios": "https://dc.lft.to/lastmile_qr_scan"}, "fusion_lon": 0.0, "lat": 38.90981633333333, "bike_id": "9a59abe82174fc21bc3dac2a09d000b9", "type": "electric_scooter", "is_reserved": 0, "lon": -77.038388}, {"fusion_lat": 0.0, "name": "5c49953b0f2c27679a1f510de4054d69", "is_disabled": 0, "rental_uris": {"android": "https://dc.lft.to/lastmile_qr_scan", "ios": "https://dc.lft.to/lastmile_qr_scan"}, "fusion_lon": 0.0, "lat": 38.9027115, "bike_id": "5c49953b0f2c27679a1f510de4054d69", "type": "electric_scooter", "is_reserved": 0, "lon": -77.04352216666666}, {"fusion_lat": 0.0, "name": "81239f65eeb52a995ab08bbe840a57b9", "is_disabled": 0, "rental_uris": {"android": "https://dc.lft.to/lastmile_qr_scan", "ios": "https://dc.lft.to/lastmile_qr_scan"}, "fusion_lon": 0.0, "lat": 38.84767183333334, "bike_id": "81239f65eeb52a995ab08bbe840a57b9", "type": "electric_bike", "is_reserved": 0, "lon": -76.96654683333334}, {"fusion_lat": 0.0, "name": "b98f110a32aac2d077df4f8d0afc7db7", "is_disabled": 0, "rental_uris": {"android": "https://dc.lft.to/lastmile_qr_scan", "ios": "https://dc.lft.to/lastmile_qr_scan"}, "fusion_lon": 0.0, "lat": 38.881365333333335, "bike_id": "b98f110a32aac2d077df4f8d0afc7db7", "type": "electric_scooter", "is_reserved": 0, "lon": -77.0166345}, {"fusion_lat": 0.0, "name": "275a98ed377d5b4f039d6c4beec9ab3d", "is_disabled": 0, "rental_uris": {"android": "https://dc.lft.to/lastmile_qr_scan", "ios": "https://dc.lft.to/lastmile_qr_scan"}, "fusion_lon": 0.0, "lat": 38.90709616666667, "bike_id": "275a98ed377d5b4f039d6c4beec9ab3d", "type": "electric_scooter", "is_reserved": 0, "lon": -77.03442816666667}, {"fusion_lat": 0.0, "name": "0454b81b434a14c79a1f08fb904e45f2", "is_disabled": 0, "rental_uris": {"android": "https://dc.lft.to/lastmile_qr_scan", "ios": "https://dc.lft.to/lastmile_qr_scan"}, "fusion_lon": 0.0, "lat": 38.93192883333333, "bike_id": "0454b81b434a14c79a1f08fb904e45f2", "type": "electric_scooter", "is_reserved": 0, "lon": -77.042976}, {"fusion_lat": 0.0, "name": "a0e17e4efbbb0942476d5b43c49861a6", "is_disabled": 0, "rental_uris": {"android": "https://dc.lft.to/lastmile_qr_scan", "ios": "https://dc.lft.to/lastmile_qr_scan"}, "fusion_lon": 0.0, "lat": 38.88378383333333, "bike_id": "a0e17e4efbbb0942476d5b43c49861a6", "type": "electric_scooter", "is_reserved": 0, "lon": -77.00525133333333}, {"fusion_lat": 0.0, "name": "93e0b691a06cc98d554ee14dbba3e17f", "is_disabled": 0, "rental_uris": {"android": "https://dc.lft.to/lastmile_qr_scan", "ios": "https://dc.lft.to/lastmile_qr_scan"}, "fusion_lon": 0.0, "lat": 38.8872585, "bike_id": "93e0b691a06cc98d554ee14dbba3e17f", "type": "electric_scooter", "is_reserved": 0, "lon": -76.98356733333334}, {"fusion_lat": 0.0, "name": "5299ab1095174673ad9d8cd20fd9c53a", "is_disabled": 0, "rental_uris": {"android": "https://dc.lft.to/lastmile_qr_scan", "ios": "https://dc.lft.to/lastmile_qr_scan"}, "fusion_lon": 0.0, "lat": 38.9040865, "bike_id": "5299ab1095174673ad9d8cd20fd9c53a", "type": "electric_scooter", "is_reserved": 0, "lon": -76.9733155}, {"fusion_lat": 0.0, "name": "a16705dd39982abd905e1a76ac6777da", "is_disabled": 0, "rental_uris": {"android": "https://dc.lft.to/lastmile_qr_scan", "ios": "https://dc.lft.to/lastmile_qr_scan"}, "fusion_lon": 0.0, "lat": 38.914132333333335, "bike_id": "a16705dd39982abd905e1a76ac6777da", "type": "electric_scooter", "is_reserved": 0, "lon": -77.04075133333333}, {"fusion_lat": 0.0, "name": "709d8d757008cb5d2cc4e660ece3c225", "is_disabled": 0, "rental_uris": {"android": "https://dc.lft.to/lastmile_qr_scan", "ios": "https://dc.lft.to/lastmile_qr_scan"}, "fusion_lon": 0.0, "lat": 38.9269385, "bike_id": "709d8d757008cb5d2cc4e660ece3c225", "type": "electric_scooter", "is_reserved": 0, "lon": -77.02586633333334}, {"fusion_lat": 0.0, "name": "0ea34feec58b35c26073245ef062ebcd", "is_disabled": 0, "rental_uris": {"android": "https://dc.lft.to/lastmile_qr_scan", "ios": "https://dc.lft.to/lastmile_qr_scan"}, "fusion_lon": 0.0, "lat": 38.8922345, "bike_id": "0ea34feec58b35c26073245ef062ebcd", "type": "electric_scooter", "is_reserved": 0, "lon": -77.02223516666666}, {"fusion_lat": 0.0, "name": "89ec79f7d9c8fd9aa2b4d57607b980df", "is_disabled": 0, "rental_uris": {"android": "https://dc.lft.to/lastmile_qr_scan", "ios": "https://dc.lft.to/lastmile_qr_scan"}, "fusion_lon": 0.0, "lat": 38.841359, "bike_id": "89ec79f7d9c8fd9aa2b4d57607b980df", "type": "electric_bike", "is_reserved": 0, "lon": -76.94763333333333}, {"fusion_lat": 0.0, "name": "478fbbb093603084ebe289747a0c09f5", "is_disabled": 0, "rental_uris": {"android": "https://dc.lft.to/lastmile_qr_scan", "ios": "https://dc.lft.to/lastmile_qr_scan"}, "fusion_lon": 0.0, "lat": 38.907643, "bike_id": "478fbbb093603084ebe289747a0c09f5", "type": "electric_scooter", "is_reserved": 0, "lon": -77.0358235}, {"fusion_lat": 0.0, "name": "b8c2c3056a49a7dd5d944b659fb4f15b", "is_disabled": 0, "rental_uris": {"android": "https://dc.lft.to/lastmile_qr_scan", "ios": "https://dc.lft.to/lastmile_qr_scan"}, "fusion_lon": 0.0, "lat": 38.905280833333336, "bike_id": "b8c2c3056a49a7dd5d944b659fb4f15b", "type": "electric_scooter", "is_reserved": 0, "lon": -77.02957266666667}, {"fusion_lat": 0.0, "name": "b9d35cde788cca39260d11191a3d96d0", "is_disabled": 0, "rental_uris": {"android": "https://dc.lft.to/lastmile_qr_scan", "ios": "https://dc.lft.to/lastmile_qr_scan"}, "fusion_lon": 0.0, "lat": 38.904688166666666, "bike_id": "b9d35cde788cca39260d11191a3d96d0", "type": "electric_scooter", "is_reserved": 0, "lon": -77.0486055}, {"fusion_lat": 0.0, "name": "07f6ac7892337bab9ae654f35f87182c", "is_disabled": 0, "rental_uris": {"android": "https://dc.lft.to/lastmile_qr_scan", "ios": "https://dc.lft.to/lastmile_qr_scan"}, "fusion_lon": 0.0, "lat": 38.85204516666667, "bike_id": "07f6ac7892337bab9ae654f35f87182c", "type": "electric_scooter", "is_reserved": 0, "lon": -76.96299283333333}, {"fusion_lat": 0.0, "name": "43fc633d03a174465e56c5628a993a2e", "is_disabled": 0, "rental_uris": {"android": "https://dc.lft.to/lastmile_qr_scan", "ios": "https://dc.lft.to/lastmile_qr_scan"}, "fusion_lon": 0.0, "lat": 38.915625166666665, "bike_id": "43fc633d03a174465e56c5628a993a2e", "type": "electric_scooter", "is_reserved": 0, "lon": -77.03141266666667}, {"fusion_lat": 0.0, "name": "6a2d14e3e52aee0209c330285285b5d0", "is_disabled": 0, "rental_uris": {"android": "https://dc.lft.to/lastmile_qr_scan", "ios": "https://dc.lft.to/lastmile_qr_scan"}, "fusion_lon": 0.0, "lat": 38.909696, "bike_id": "6a2d14e3e52aee0209c330285285b5d0", "type": "electric_scooter", "is_reserved": 0, "lon": -77.038614}, {"fusion_lat": 0.0, "name": "be5b0ca0a47271b785eb2f4b433a6b78", "is_disabled": 0, "rental_uris": {"android": "https://dc.lft.to/lastmile_qr_scan", "ios": "https://dc.lft.to/lastmile_qr_scan"}, "fusion_lon": 0.0, "lat": 39.036140833333334, "bike_id": "be5b0ca0a47271b785eb2f4b433a6b78", "type": "electric_bike", "is_reserved": 0, "lon": -77.05545183333334}, {"fusion_lat": 0.0, "name": "0a0ee218c64a57630d4127e50d061921", "is_disabled": 0, "rental_uris": {"android": "https://dc.lft.to/lastmile_qr_scan", "ios": "https://dc.lft.to/lastmile_qr_scan"}, "fusion_lon": 0.0, "lat": 38.8862585, "bike_id": "0a0ee218c64a57630d4127e50d061921", "type": "electric_scooter", "is_reserved": 0, "lon": -77.02817683333333}, {"fusion_lat": 0.0, "name": "7aabd8da347f6db14c501ecb0f43fac1", "is_disabled": 0, "rental_uris": {"android": "https://dc.lft.to/lastmile_qr_scan", "ios": "https://dc.lft.to/lastmile_qr_scan"}, "fusion_lon": 0.0, "lat": 38.916366, "bike_id": "7aabd8da347f6db14c501ecb0f43fac1", "type": "electric_scooter", "is_reserved": 0, "lon": -77.0505585}, {"fusion_lat": 0.0, "name": "77a04b513aa8fd2554e1a7b1b2c614db", "is_disabled": 0, "rental_uris": {"android": "https://dc.lft.to/lastmile_qr_scan", "ios": "https://dc.lft.to/lastmile_qr_scan"}, "fusion_lon": 0.0, "lat": 38.917092333333336, "bike_id": "77a04b513aa8fd2554e1a7b1b2c614db", "type": "electric_scooter", "is_reserved": 0, "lon": -77.02414566666667}, {"fusion_lat": 0.0, "name": "6dfb9bc3e8c6e376ff399f0a807b6cde", "is_disabled": 0, "rental_uris": {"android": "https://dc.lft.to/lastmile_qr_scan", "ios": "https://dc.lft.to/lastmile_qr_scan"}, "fusion_lon": 0.0, "lat": 38.900132666666664, "bike_id": "6dfb9bc3e8c6e376ff399f0a807b6cde", "type": "electric_scooter", "is_reserved": 0, "lon": -76.9881125}, {"fusion_lat": 0.0, "name": "fa4d98ce42a8e6530ae27720096166f6", "is_disabled": 0, "rental_uris": {"android": "https://dc.lft.to/lastmile_qr_scan", "ios": "https://dc.lft.to/lastmile_qr_scan"}, "fusion_lon": 0.0, "lat": 38.92764116666667, "bike_id": "fa4d98ce42a8e6530ae27720096166f6", "type": "electric_scooter", "is_reserved": 0, "lon": -77.03276783333334}, {"fusion_lat": 0.0, "name": "440ff9b20cdd69ff1f5c392a40732a8e", "is_disabled": 0, "rental_uris": {"android": "https://dc.lft.to/lastmile_qr_scan", "ios": "https://dc.lft.to/lastmile_qr_scan"}, "fusion_lon": 0.0, "lat": 38.90427533333333, "bike_id": "440ff9b20cdd69ff1f5c392a40732a8e", "type": "electric_scooter", "is_reserved": 0, "lon": -77.02601966666667}, {"fusion_lat": 0.0, "name": "f1997df1ed9b5d6f6bf476b1d0551566", "is_disabled": 0, "rental_uris": {"android": "https://dc.lft.to/lastmile_qr_scan", "ios": "https://dc.lft.to/lastmile_qr_scan"}, "fusion_lon": 0.0, "lat": 38.8987635, "bike_id": "f1997df1ed9b5d6f6bf476b1d0551566", "type": "electric_scooter", "is_reserved": 0, "lon": -76.93186016666667}, {"fusion_lat": 0.0, "name": "d8c0f8f54876e1269076c91755c205b8", "is_disabled": 0, "rental_uris": {"android": "https://dc.lft.to/lastmile_qr_scan", "ios": "https://dc.lft.to/lastmile_qr_scan"}, "fusion_lon": 0.0, "lat": 38.929733, "bike_id": "d8c0f8f54876e1269076c91755c205b8", "type": "electric_scooter", "is_reserved": 0, "lon": -77.027981}, {"fusion_lat": 0.0, "name": "63540081a11b3cc4106efdf319d7b9eb", "is_disabled": 0, "rental_uris": {"android": "https://dc.lft.to/lastmile_qr_scan", "ios": "https://dc.lft.to/lastmile_qr_scan"}, "fusion_lon": 0.0, "lat": 38.92022266666667, "bike_id": "63540081a11b3cc4106efdf319d7b9eb", "type": "electric_scooter", "is_reserved": 0, "lon": -77.01318416666666}, {"fusion_lat": 0.0, "name": "15a537999b59a8f5e27d621c2b6012be", "is_disabled": 0, "rental_uris": {"android": "https://dc.lft.to/lastmile_qr_scan", "ios": "https://dc.lft.to/lastmile_qr_scan"}, "fusion_lon": 0.0, "lat": 38.911194, "bike_id": "15a537999b59a8f5e27d621c2b6012be", "type": "electric_scooter", "is_reserved": 0, "lon": -77.0077095}, {"fusion_lat": 0.0, "name": "5aa48ddd1d1f200993150b3be222680d", "is_disabled": 0, "rental_uris": {"android": "https://dc.lft.to/lastmile_qr_scan", "ios": "https://dc.lft.to/lastmile_qr_scan"}, "fusion_lon": 0.0, "lat": 38.89334783333334, "bike_id": "5aa48ddd1d1f200993150b3be222680d", "type": "electric_scooter", "is_reserved": 0, "lon": -77.03225383333333}, {"fusion_lat": 0.0, "name": "76c0befac147510f1f9d502cccb68cd6", "is_disabled": 0, "rental_uris": {"android": "https://dc.lft.to/lastmile_qr_scan", "ios": "https://dc.lft.to/lastmile_qr_scan"}, "fusion_lon": 0.0, "lat": 38.89221416666667, "bike_id": "76c0befac147510f1f9d502cccb68cd6", "type": "electric_scooter", "is_reserved": 0, "lon": -77.04873316666666}, {"fusion_lat": 0.0, "name": "1d1dd5d72d5b21aca444e74c9372979b", "is_disabled": 0, "rental_uris": {"android": "https://dc.lft.to/lastmile_qr_scan", "ios": "https://dc.lft.to/lastmile_qr_scan"}, "fusion_lon": 0.0, "lat": 38.9106055, "bike_id": "1d1dd5d72d5b21aca444e74c9372979b", "type": "electric_scooter", "is_reserved": 0, "lon": -77.02656833333333}, {"fusion_lat": 0.0, "name": "347f2be6fd3fc57b1f2ed856a44565f8", "is_disabled": 0, "rental_uris": {"android": "https://dc.lft.to/lastmile_qr_scan", "ios": "https://dc.lft.to/lastmile_qr_scan"}, "fusion_lon": 0.0, "lat": 38.9288855, "bike_id": "347f2be6fd3fc57b1f2ed856a44565f8", "type": "electric_scooter", "is_reserved": 0, "lon": -77.0230615}, {"fusion_lat": 0.0, "name": "93dd0a3faded8aadd27aa82e71896396", "is_disabled": 0, "rental_uris": {"android": "https://dc.lft.to/lastmile_qr_scan", "ios": "https://dc.lft.to/lastmile_qr_scan"}, "fusion_lon": 0.0, "lat": 38.90281433333333, "bike_id": "93dd0a3faded8aadd27aa82e71896396", "type": "electric_scooter", "is_reserved": 0, "lon": -77.039389}, {"fusion_lat": 0.0, "name": "19bd2e8840d0f7348b566e41592d8d0e", "is_disabled": 0, "rental_uris": {"android": "https://dc.lft.to/lastmile_qr_scan", "ios": "https://dc.lft.to/lastmile_qr_scan"}, "fusion_lon": 0.0, "lat": 38.92341483333333, "bike_id": "19bd2e8840d0f7348b566e41592d8d0e", "type": "electric_scooter", "is_reserved": 0, "lon": -77.05225416666667}, {"fusion_lat": 0.0, "name": "278ed74caa3af78e76c20019ee267487", "is_disabled": 0, "rental_uris": {"android": "https://dc.lft.to/lastmile_qr_scan", "ios": "https://dc.lft.to/lastmile_qr_scan"}, "fusion_lon": 0.0, "lat": 38.88363733333333, "bike_id": "278ed74caa3af78e76c20019ee267487", "type": "electric_scooter", "is_reserved": 0, "lon": -76.941611}, {"fusion_lat": 0.0, "name": "7f8c3adc1c6a6ce86f254cc39386f04d", "is_disabled": 0, "rental_uris": {"android": "https://dc.lft.to/lastmile_qr_scan", "ios": "https://dc.lft.to/lastmile_qr_scan"}, "fusion_lon": 0.0, "lat": 38.84347266666666, "bike_id": "7f8c3adc1c6a6ce86f254cc39386f04d", "type": "electric_bike", "is_reserved": 0, "lon": -76.97823716666667}, {"fusion_lat": 0.0, "name": "0fa00da0236207c372c203a764c48d05", "is_disabled": 0, "rental_uris": {"android": "https://dc.lft.to/lastmile_qr_scan", "ios": "https://dc.lft.to/lastmile_qr_scan"}, "fusion_lon": 0.0, "lat": 38.931901833333335, "bike_id": "0fa00da0236207c372c203a764c48d05", "type": "electric_scooter", "is_reserved": 0, "lon": -77.03266}, {"fusion_lat": 0.0, "name": "4dddaa4e3d1bc452755dd43062d1a77b", "is_disabled": 0, "rental_uris": {"android": "https://dc.lft.to/lastmile_qr_scan", "ios": "https://dc.lft.to/lastmile_qr_scan"}, "fusion_lon": 0.0, "lat": 38.924171333333334, "bike_id": "4dddaa4e3d1bc452755dd43062d1a77b", "type": "electric_scooter", "is_reserved": 0, "lon": -77.02974283333333}, {"fusion_lat": 0.0, "name": "4ba16ec38f13e0d2e8ddb2e548e0b8d5", "is_disabled": 0, "rental_uris": {"android": "https://dc.lft.to/lastmile_qr_scan", "ios": "https://dc.lft.to/lastmile_qr_scan"}, "fusion_lon": 0.0, "lat": 38.945055333333336, "bike_id": "4ba16ec38f13e0d2e8ddb2e548e0b8d5", "type": "electric_scooter", "is_reserved": 0, "lon": -77.031512}, {"fusion_lat": 0.0, "name": "da599acf49074c2c44a266ca08439137", "is_disabled": 0, "rental_uris": {"android": "https://dc.lft.to/lastmile_qr_scan", "ios": "https://dc.lft.to/lastmile_qr_scan"}, "fusion_lon": 0.0, "lat": 38.90387966666667, "bike_id": "da599acf49074c2c44a266ca08439137", "type": "electric_scooter", "is_reserved": 0, "lon": -77.03844333333333}, {"fusion_lat": 0.0, "name": "f9dc41ae5542e919f2fc8969aa6b89ba", "is_disabled": 0, "rental_uris": {"android": "https://dc.lft.to/lastmile_qr_scan", "ios": "https://dc.lft.to/lastmile_qr_scan"}, "fusion_lon": 0.0, "lat": 38.9039785, "bike_id": "f9dc41ae5542e919f2fc8969aa6b89ba", "type": "electric_scooter", "is_reserved": 0, "lon": -77.03848716666667}, {"fusion_lat": 0.0, "name": "940b53deeeb08444607d3372b60a3d61", "is_disabled": 0, "rental_uris": {"android": "https://dc.lft.to/lastmile_qr_scan", "ios": "https://dc.lft.to/lastmile_qr_scan"}, "fusion_lon": 0.0, "lat": 38.90906783333333, "bike_id": "940b53deeeb08444607d3372b60a3d61", "type": "electric_scooter", "is_reserved": 0, "lon": -77.04210683333334}, {"fusion_lat": 0.0, "name": "9deb38012e59b8b790aa2c354305f9fd", "is_disabled": 0, "rental_uris": {"android": "https://dc.lft.to/lastmile_qr_scan", "ios": "https://dc.lft.to/lastmile_qr_scan"}, "fusion_lon": 0.0, "lat": 38.938266166666665, "bike_id": "9deb38012e59b8b790aa2c354305f9fd", "type": "electric_scooter", "is_reserved": 0, "lon": -76.99190066666667}, {"fusion_lat": 0.0, "name": "3f91539836963d3add8a6aed6897ce88", "is_disabled": 0, "rental_uris": {"android": "https://dc.lft.to/lastmile_qr_scan", "ios": "https://dc.lft.to/lastmile_qr_scan"}, "fusion_lon": 0.0, "lat": 38.922989333333334, "bike_id": "3f91539836963d3add8a6aed6897ce88", "type": "electric_bike", "is_reserved": 0, "lon": -76.99363266666667}, {"fusion_lat": 0.0, "name": "a445ef8f99a490b3b2799e729d2e728e", "is_disabled": 0, "rental_uris": {"android": "https://dc.lft.to/lastmile_qr_scan", "ios": "https://dc.lft.to/lastmile_qr_scan"}, "fusion_lon": 0.0, "lat": 38.92278833333334, "bike_id": "a445ef8f99a490b3b2799e729d2e728e", "type": "electric_scooter", "is_reserved": 0, "lon": -77.07311333333334}, {"fusion_lat": 0.0, "name": "99b65375d066eb446e54444c7372cd54", "is_disabled": 0, "rental_uris": {"android": "https://dc.lft.to/lastmile_qr_scan", "ios": "https://dc.lft.to/lastmile_qr_scan"}, "fusion_lon": 0.0, "lat": 38.932634, "bike_id": "99b65375d066eb446e54444c7372cd54", "type": "electric_scooter", "is_reserved": 0, "lon": -77.03463116666667}, {"fusion_lat": 0.0, "name": "89e7988d9e0e02a477f5b12362d2d7ee", "is_disabled": 0, "rental_uris": {"android": "https://dc.lft.to/lastmile_qr_scan", "ios": "https://dc.lft.to/lastmile_qr_scan"}, "fusion_lon": 0.0, "lat": 38.902782333333334, "bike_id": "89e7988d9e0e02a477f5b12362d2d7ee", "type": "electric_scooter", "is_reserved": 0, "lon": -77.04357983333334}, {"fusion_lat": 0.0, "name": "6f4ff8c1a1920e8d5d8c8475332ee6d5", "is_disabled": 0, "rental_uris": {"android": "https://dc.lft.to/lastmile_qr_scan", "ios": "https://dc.lft.to/lastmile_qr_scan"}, "fusion_lon": 0.0, "lat": 38.902358, "bike_id": "6f4ff8c1a1920e8d5d8c8475332ee6d5", "type": "electric_scooter", "is_reserved": 0, "lon": -77.036463}, {"fusion_lat": 0.0, "name": "8d0b000799fd4eacd2a0b6b1bba6e503", "is_disabled": 0, "rental_uris": {"android": "https://dc.lft.to/lastmile_qr_scan", "ios": "https://dc.lft.to/lastmile_qr_scan"}, "fusion_lon": 0.0, "lat": 38.89342166666667, "bike_id": "8d0b000799fd4eacd2a0b6b1bba6e503", "type": "electric_scooter", "is_reserved": 0, "lon": -76.99159683333333}, {"fusion_lat": 0.0, "name": "6d396baa271d309d557084776a1eeae6", "is_disabled": 0, "rental_uris": {"android": "https://dc.lft.to/lastmile_qr_scan", "ios": "https://dc.lft.to/lastmile_qr_scan"}, "fusion_lon": 0.0, "lat": 38.877424833333336, "bike_id": "6d396baa271d309d557084776a1eeae6", "type": "electric_scooter", "is_reserved": 0, "lon": -77.00598066666667}, {"fusion_lat": 0.0, "name": "44aa6bab58133cb3f649eb593bbcb98a", "is_disabled": 0, "rental_uris": {"android": "https://dc.lft.to/lastmile_qr_scan", "ios": "https://dc.lft.to/lastmile_qr_scan"}, "fusion_lon": 0.0, "lat": 38.862965333333335, "bike_id": "44aa6bab58133cb3f649eb593bbcb98a", "type": "electric_bike", "is_reserved": 0, "lon": -77.06378583333333}, {"fusion_lat": 0.0, "name": "f9d349582d6ae67056696f43bdc1614c", "is_disabled": 0, "rental_uris": {"android": "https://dc.lft.to/lastmile_qr_scan", "ios": "https://dc.lft.to/lastmile_qr_scan"}, "fusion_lon": 0.0, "lat": 38.90780516666667, "bike_id": "f9d349582d6ae67056696f43bdc1614c", "type": "electric_scooter", "is_reserved": 0, "lon": -77.00233516666667}, {"fusion_lat": 0.0, "name": "9594880897aec43636189ea5900ae917", "is_disabled": 0, "rental_uris": {"android": "https://dc.lft.to/lastmile_qr_scan", "ios": "https://dc.lft.to/lastmile_qr_scan"}, "fusion_lon": 0.0, "lat": 38.91684383333333, "bike_id": "9594880897aec43636189ea5900ae917", "type": "electric_scooter", "is_reserved": 0, "lon": -77.02973833333333}, {"fusion_lat": 0.0, "name": "72a199573a80d70f29a20376755c4343", "is_disabled": 0, "rental_uris": {"android": "https://dc.lft.to/lastmile_qr_scan", "ios": "https://dc.lft.to/lastmile_qr_scan"}, "fusion_lon": 0.0, "lat": 38.960736833333335, "bike_id": "72a199573a80d70f29a20376755c4343", "type": "electric_scooter", "is_reserved": 0, "lon": -77.000916}, {"fusion_lat": 0.0, "name": "93125f0f613a0e6c6e531f298dda75e0", "is_disabled": 0, "rental_uris": {"android": "https://dc.lft.to/lastmile_qr_scan", "ios": "https://dc.lft.to/lastmile_qr_scan"}, "fusion_lon": 0.0, "lat": 38.904281833333336, "bike_id": "93125f0f613a0e6c6e531f298dda75e0", "type": "electric_scooter", "is_reserved": 0, "lon": -77.04855216666667}, {"fusion_lat": 0.0, "name": "a7d0c23e4a0f5f93ec0ed7e157c837cb", "is_disabled": 0, "rental_uris": {"android": "https://dc.lft.to/lastmile_qr_scan", "ios": "https://dc.lft.to/lastmile_qr_scan"}, "fusion_lon": 0.0, "lat": 38.9020025, "bike_id": "a7d0c23e4a0f5f93ec0ed7e157c837cb", "type": "electric_scooter", "is_reserved": 0, "lon": -77.02372866666667}, {"fusion_lat": 0.0, "name": "83b429d7e01aa61bf0290cf5e80d8527", "is_disabled": 0, "rental_uris": {"android": "https://dc.lft.to/lastmile_qr_scan", "ios": "https://dc.lft.to/lastmile_qr_scan"}, "fusion_lon": 0.0, "lat": 38.93242683333333, "bike_id": "83b429d7e01aa61bf0290cf5e80d8527", "type": "electric_scooter", "is_reserved": 0, "lon": -77.03410166666667}, {"fusion_lat": 0.0, "name": "acd468476c17d2cb4e9a303020f78740", "is_disabled": 0, "rental_uris": {"android": "https://dc.lft.to/lastmile_qr_scan", "ios": "https://dc.lft.to/lastmile_qr_scan"}, "fusion_lon": 0.0, "lat": 38.86754616666666, "bike_id": "acd468476c17d2cb4e9a303020f78740", "type": "electric_scooter", "is_reserved": 0, "lon": -76.98870816666667}, {"fusion_lat": 0.0, "name": "72832bf873b2835dcb51f4786c3c78d2", "is_disabled": 0, "rental_uris": {"android": "https://dc.lft.to/lastmile_qr_scan", "ios": "https://dc.lft.to/lastmile_qr_scan"}, "fusion_lon": 0.0, "lat": 38.89727, "bike_id": "72832bf873b2835dcb51f4786c3c78d2", "type": "electric_scooter", "is_reserved": 0, "lon": -76.94703083333333}, {"fusion_lat": 0.0, "name": "909089cee500c5d4dd9be131513560da", "is_disabled": 0, "rental_uris": {"android": "https://dc.lft.to/lastmile_qr_scan", "ios": "https://dc.lft.to/lastmile_qr_scan"}, "fusion_lon": 0.0, "lat": 38.94185133333333, "bike_id": "909089cee500c5d4dd9be131513560da", "type": "electric_scooter", "is_reserved": 0, "lon": -77.03067166666666}, {"fusion_lat": 0.0, "name": "5ad712414144126d4126255df439b8a4", "is_disabled": 0, "rental_uris": {"android": "https://dc.lft.to/lastmile_qr_scan", "ios": "https://dc.lft.to/lastmile_qr_scan"}, "fusion_lon": 0.0, "lat": 38.911700833333335, "bike_id": "5ad712414144126d4126255df439b8a4", "type": "electric_scooter", "is_reserved": 0, "lon": -77.038654}, {"fusion_lat": 0.0, "name": "69715b784645c207124c3bced311e248", "is_disabled": 0, "rental_uris": {"android": "https://dc.lft.to/lastmile_qr_scan", "ios": "https://dc.lft.to/lastmile_qr_scan"}, "fusion_lon": 0.0, "lat": 38.92844733333333, "bike_id": "69715b784645c207124c3bced311e248", "type": "electric_scooter", "is_reserved": 0, "lon": -77.05425633333333}, {"fusion_lat": 0.0, "name": "62b757cce27f7792b920fdd045662a72", "is_disabled": 0, "rental_uris": {"android": "https://dc.lft.to/lastmile_qr_scan", "ios": "https://dc.lft.to/lastmile_qr_scan"}, "fusion_lon": 0.0, "lat": 38.90513983333334, "bike_id": "62b757cce27f7792b920fdd045662a72", "type": "electric_scooter", "is_reserved": 0, "lon": -77.0615065}, {"fusion_lat": 0.0, "name": "5425ce5ca9bac8379f99237b7ccf98de", "is_disabled": 0, "rental_uris": {"android": "https://dc.lft.to/lastmile_qr_scan", "ios": "https://dc.lft.to/lastmile_qr_scan"}, "fusion_lon": 0.0, "lat": 38.900374166666666, "bike_id": "5425ce5ca9bac8379f99237b7ccf98de", "type": "electric_scooter", "is_reserved": 0, "lon": -77.0020595}, {"fusion_lat": 0.0, "name": "0c1669a7956f5e1581190e0c7099b934", "is_disabled": 0, "rental_uris": {"android": "https://dc.lft.to/lastmile_qr_scan", "ios": "https://dc.lft.to/lastmile_qr_scan"}, "fusion_lon": 0.0, "lat": 38.90657516666667, "bike_id": "0c1669a7956f5e1581190e0c7099b934", "type": "electric_scooter", "is_reserved": 0, "lon": -77.04344933333333}, {"fusion_lat": 0.0, "name": "0f7a9f7119ea9b07fa68a406cb07b4e5", "is_disabled": 0, "rental_uris": {"android": "https://dc.lft.to/lastmile_qr_scan", "ios": "https://dc.lft.to/lastmile_qr_scan"}, "fusion_lon": 0.0, "lat": 38.9022915, "bike_id": "0f7a9f7119ea9b07fa68a406cb07b4e5", "type": "electric_scooter", "is_reserved": 0, "lon": -77.05462933333334}, {"fusion_lat": 0.0, "name": "c69e8b623023250738918a13b5994d49", "is_disabled": 0, "rental_uris": {"android": "https://dc.lft.to/lastmile_qr_scan", "ios": "https://dc.lft.to/lastmile_qr_scan"}, "fusion_lon": 0.0, "lat": 38.90757, "bike_id": "c69e8b623023250738918a13b5994d49", "type": "electric_scooter", "is_reserved": 0, "lon": -77.0358515}, {"fusion_lat": 0.0, "name": "d8e587b1d246c7d0694611847a6e829c", "is_disabled": 0, "rental_uris": {"android": "https://dc.lft.to/lastmile_qr_scan", "ios": "https://dc.lft.to/lastmile_qr_scan"}, "fusion_lon": 0.0, "lat": 38.966249, "bike_id": "d8e587b1d246c7d0694611847a6e829c", "type": "electric_bike", "is_reserved": 0, "lon": -77.03430533333334}, {"fusion_lat": 0.0, "name": "0521d9410fc97c5a813b77f91046ed39", "is_disabled": 0, "rental_uris": {"android": "https://dc.lft.to/lastmile_qr_scan", "ios": "https://dc.lft.to/lastmile_qr_scan"}, "fusion_lon": 0.0, "lat": 38.905773, "bike_id": "0521d9410fc97c5a813b77f91046ed39", "type": "electric_scooter", "is_reserved": 0, "lon": -77.00810783333333}, {"fusion_lat": 0.0, "name": "fccb1cf6bebfe0b18787f84cb59c0662", "is_disabled": 0, "rental_uris": {"android": "https://dc.lft.to/lastmile_qr_scan", "ios": "https://dc.lft.to/lastmile_qr_scan"}, "fusion_lon": 0.0, "lat": 38.91408783333333, "bike_id": "fccb1cf6bebfe0b18787f84cb59c0662", "type": "electric_scooter", "is_reserved": 0, "lon": -77.0415875}, {"fusion_lat": 0.0, "name": "56463d40c25fd8024f7826f6ad505906", "is_disabled": 0, "rental_uris": {"android": "https://dc.lft.to/lastmile_qr_scan", "ios": "https://dc.lft.to/lastmile_qr_scan"}, "fusion_lon": 0.0, "lat": 38.923644833333334, "bike_id": "56463d40c25fd8024f7826f6ad505906", "type": "electric_scooter", "is_reserved": 0, "lon": -77.05031183333334}, {"fusion_lat": 0.0, "name": "a943959b66faefe1607f5b6d6a2466d6", "is_disabled": 0, "rental_uris": {"android": "https://dc.lft.to/lastmile_qr_scan", "ios": "https://dc.lft.to/lastmile_qr_scan"}, "fusion_lon": 0.0, "lat": 38.89225, "bike_id": "a943959b66faefe1607f5b6d6a2466d6", "type": "electric_scooter", "is_reserved": 0, "lon": -77.0487}, {"fusion_lat": 0.0, "name": "8945ba6ddc32a05dec73fc695b56f4ee", "is_disabled": 0, "rental_uris": {"android": "https://dc.lft.to/lastmile_qr_scan", "ios": "https://dc.lft.to/lastmile_qr_scan"}, "fusion_lon": 0.0, "lat": 38.9133105, "bike_id": "8945ba6ddc32a05dec73fc695b56f4ee", "type": "electric_scooter", "is_reserved": 0, "lon": -77.04286783333333}, {"fusion_lat": 0.0, "name": "4f171908107d479e3ce8c80cf4ed8ec1", "is_disabled": 0, "rental_uris": {"android": "https://dc.lft.to/lastmile_qr_scan", "ios": "https://dc.lft.to/lastmile_qr_scan"}, "fusion_lon": 0.0, "lat": 38.930636, "bike_id": "4f171908107d479e3ce8c80cf4ed8ec1", "type": "electric_scooter", "is_reserved": 0, "lon": -77.03945533333334}, {"fusion_lat": 0.0, "name": "9893eba3117d54a0c641717f4c9e13f3", "is_disabled": 0, "rental_uris": {"android": "https://dc.lft.to/lastmile_qr_scan", "ios": "https://dc.lft.to/lastmile_qr_scan"}, "fusion_lon": 0.0, "lat": 38.909027333333334, "bike_id": "9893eba3117d54a0c641717f4c9e13f3", "type": "electric_scooter", "is_reserved": 0, "lon": -77.0261135}, {"fusion_lat": 0.0, "name": "76e35577f684d66fd58f2ebecabf5d7e", "is_disabled": 0, "rental_uris": {"android": "https://dc.lft.to/lastmile_qr_scan", "ios": "https://dc.lft.to/lastmile_qr_scan"}, "fusion_lon": 0.0, "lat": 38.93404833333334, "bike_id": "76e35577f684d66fd58f2ebecabf5d7e", "type": "electric_scooter", "is_reserved": 0, "lon": -77.02206016666666}, {"fusion_lat": 0.0, "name": "d320176f316c1f8d4b727eb16f7bf03a", "is_disabled": 0, "rental_uris": {"android": "https://dc.lft.to/lastmile_qr_scan", "ios": "https://dc.lft.to/lastmile_qr_scan"}, "fusion_lon": 0.0, "lat": 38.9212955, "bike_id": "d320176f316c1f8d4b727eb16f7bf03a", "type": "electric_scooter", "is_reserved": 0, "lon": -77.017988}, {"fusion_lat": 0.0, "name": "a5aec8a17a85b6526017aa1a2f207a68", "is_disabled": 0, "rental_uris": {"android": "https://dc.lft.to/lastmile_qr_scan", "ios": "https://dc.lft.to/lastmile_qr_scan"}, "fusion_lon": 0.0, "lat": 38.9010725, "bike_id": "a5aec8a17a85b6526017aa1a2f207a68", "type": "electric_scooter", "is_reserved": 0, "lon": -77.018211}, {"fusion_lat": 0.0, "name": "71cbb4362de1ff0399b26128b1be7082", "is_disabled": 0, "rental_uris": {"android": "https://dc.lft.to/lastmile_qr_scan", "ios": "https://dc.lft.to/lastmile_qr_scan"}, "fusion_lon": 0.0, "lat": 38.90516083333333, "bike_id": "71cbb4362de1ff0399b26128b1be7082", "type": "electric_scooter", "is_reserved": 0, "lon": -77.048316}, {"fusion_lat": 0.0, "name": "d882f387bfab3c204c49aa29c82bd138", "is_disabled": 0, "rental_uris": {"android": "https://dc.lft.to/lastmile_qr_scan", "ios": "https://dc.lft.to/lastmile_qr_scan"}, "fusion_lon": 0.0, "lat": 38.904903, "bike_id": "d882f387bfab3c204c49aa29c82bd138", "type": "electric_scooter", "is_reserved": 0, "lon": -76.94960516666667}, {"fusion_lat": 0.0, "name": "6aa27e8ec196db939a51d12e36fa7cd3", "is_disabled": 0, "rental_uris": {"android": "https://dc.lft.to/lastmile_qr_scan", "ios": "https://dc.lft.to/lastmile_qr_scan"}, "fusion_lon": 0.0, "lat": 38.911605333333334, "bike_id": "6aa27e8ec196db939a51d12e36fa7cd3", "type": "electric_scooter", "is_reserved": 0, "lon": -77.04347816666667}, {"fusion_lat": 0.0, "name": "56beb6162e20eaaff88f4c53e20da67f", "is_disabled": 0, "rental_uris": {"android": "https://dc.lft.to/lastmile_qr_scan", "ios": "https://dc.lft.to/lastmile_qr_scan"}, "fusion_lon": 0.0, "lat": 38.90896133333333, "bike_id": "56beb6162e20eaaff88f4c53e20da67f", "type": "electric_scooter", "is_reserved": 0, "lon": -77.04391816666667}, {"fusion_lat": 0.0, "name": "e3335c0b9df8b3614f9b695ad9a016ec", "is_disabled": 0, "rental_uris": {"android": "https://dc.lft.to/lastmile_qr_scan", "ios": "https://dc.lft.to/lastmile_qr_scan"}, "fusion_lon": 0.0, "lat": 38.89889333333333, "bike_id": "e3335c0b9df8b3614f9b695ad9a016ec", "type": "electric_scooter", "is_reserved": 0, "lon": -77.00146516666666}, {"fusion_lat": 0.0, "name": "0b3a2f87ac014b8ae320d869807ba037", "is_disabled": 0, "rental_uris": {"android": "https://dc.lft.to/lastmile_qr_scan", "ios": "https://dc.lft.to/lastmile_qr_scan"}, "fusion_lon": 0.0, "lat": 38.90552, "bike_id": "0b3a2f87ac014b8ae320d869807ba037", "type": "electric_scooter", "is_reserved": 0, "lon": -77.04663666666667}, {"fusion_lat": 0.0, "name": "b514815ba2d27b00cacae8ba488b0327", "is_disabled": 0, "rental_uris": {"android": "https://dc.lft.to/lastmile_qr_scan", "ios": "https://dc.lft.to/lastmile_qr_scan"}, "fusion_lon": 0.0, "lat": 38.893502166666664, "bike_id": "b514815ba2d27b00cacae8ba488b0327", "type": "electric_scooter", "is_reserved": 0, "lon": -76.98656183333334}, {"fusion_lat": 0.0, "name": "b4724541001b9efa234a1bf405445059", "is_disabled": 0, "rental_uris": {"android": "https://dc.lft.to/lastmile_qr_scan", "ios": "https://dc.lft.to/lastmile_qr_scan"}, "fusion_lon": 0.0, "lat": 38.920153666666664, "bike_id": "b4724541001b9efa234a1bf405445059", "type": "electric_scooter", "is_reserved": 0, "lon": -77.0271415}, {"fusion_lat": 0.0, "name": "d31e973407feab99282aec96dd9ca897", "is_disabled": 0, "rental_uris": {"android": "https://dc.lft.to/lastmile_qr_scan", "ios": "https://dc.lft.to/lastmile_qr_scan"}, "fusion_lon": 0.0, "lat": 38.93184133333333, "bike_id": "d31e973407feab99282aec96dd9ca897", "type": "electric_scooter", "is_reserved": 0, "lon": -77.03298616666666}, {"fusion_lat": 0.0, "name": "3c6e6fc3f2daeba701d56c13789ac5c1", "is_disabled": 0, "rental_uris": {"android": "https://dc.lft.to/lastmile_qr_scan", "ios": "https://dc.lft.to/lastmile_qr_scan"}, "fusion_lon": 0.0, "lat": 38.941981166666665, "bike_id": "3c6e6fc3f2daeba701d56c13789ac5c1", "type": "electric_scooter", "is_reserved": 0, "lon": -77.0258945}, {"fusion_lat": 0.0, "name": "e60153642b955ff3ba93d3869143a857", "is_disabled": 0, "rental_uris": {"android": "https://dc.lft.to/lastmile_qr_scan", "ios": "https://dc.lft.to/lastmile_qr_scan"}, "fusion_lon": 0.0, "lat": 38.9141405, "bike_id": "e60153642b955ff3ba93d3869143a857", "type": "electric_scooter", "is_reserved": 0, "lon": -77.04074333333334}, {"fusion_lat": 0.0, "name": "cd2529a57594acc01d14bfd8ca3769cd", "is_disabled": 0, "rental_uris": {"android": "https://dc.lft.to/lastmile_qr_scan", "ios": "https://dc.lft.to/lastmile_qr_scan"}, "fusion_lon": 0.0, "lat": 38.845096833333336, "bike_id": "cd2529a57594acc01d14bfd8ca3769cd", "type": "electric_bike", "is_reserved": 0, "lon": -76.993527}, {"fusion_lat": 0.0, "name": "7dd73df5071e9a59a569f40d055a6982", "is_disabled": 0, "rental_uris": {"android": "https://dc.lft.to/lastmile_qr_scan", "ios": "https://dc.lft.to/lastmile_qr_scan"}, "fusion_lon": 0.0, "lat": 38.9008225, "bike_id": "7dd73df5071e9a59a569f40d055a6982", "type": "electric_scooter", "is_reserved": 0, "lon": -77.022056}, {"fusion_lat": 0.0, "name": "ebedc51a6e262dc744967db47af70465", "is_disabled": 0, "rental_uris": {"android": "https://dc.lft.to/lastmile_qr_scan", "ios": "https://dc.lft.to/lastmile_qr_scan"}, "fusion_lon": 0.0, "lat": 38.907347666666666, "bike_id": "ebedc51a6e262dc744967db47af70465", "type": "electric_scooter", "is_reserved": 0, "lon": -77.0280495}, {"fusion_lat": 0.0, "name": "6682ec10da5421dae967f8f499fc7df4", "is_disabled": 0, "rental_uris": {"android": "https://dc.lft.to/lastmile_qr_scan", "ios": "https://dc.lft.to/lastmile_qr_scan"}, "fusion_lon": 0.0, "lat": 38.911207833333336, "bike_id": "6682ec10da5421dae967f8f499fc7df4", "type": "electric_scooter", "is_reserved": 0, "lon": -77.02194233333333}, {"fusion_lat": 0.0, "name": "ec461db679cf419ca5b06efc0b92d7e3", "is_disabled": 0, "rental_uris": {"android": "https://dc.lft.to/lastmile_qr_scan", "ios": "https://dc.lft.to/lastmile_qr_scan"}, "fusion_lon": 0.0, "lat": 38.919893, "bike_id": "ec461db679cf419ca5b06efc0b92d7e3", "type": "electric_scooter", "is_reserved": 0, "lon": -77.03281833333334}, {"fusion_lat": 0.0, "name": "b850acf21e97e57bd955ea01f4517fa4", "is_disabled": 0, "rental_uris": {"android": "https://dc.lft.to/lastmile_qr_scan", "ios": "https://dc.lft.to/lastmile_qr_scan"}, "fusion_lon": 0.0, "lat": 38.93121, "bike_id": "b850acf21e97e57bd955ea01f4517fa4", "type": "electric_scooter", "is_reserved": 0, "lon": -77.02977666666666}, {"fusion_lat": 0.0, "name": "af95f63e842c54a5f77042cbbc667fdb", "is_disabled": 0, "rental_uris": {"android": "https://dc.lft.to/lastmile_qr_scan", "ios": "https://dc.lft.to/lastmile_qr_scan"}, "fusion_lon": 0.0, "lat": 38.941274666666665, "bike_id": "af95f63e842c54a5f77042cbbc667fdb", "type": "electric_scooter", "is_reserved": 0, "lon": -77.04393216666666}, {"fusion_lat": 0.0, "name": "269dd6d0a4b6685bd3a4c5148a99d4e0", "is_disabled": 0, "rental_uris": {"android": "https://dc.lft.to/lastmile_qr_scan", "ios": "https://dc.lft.to/lastmile_qr_scan"}, "fusion_lon": 0.0, "lat": 38.9133, "bike_id": "269dd6d0a4b6685bd3a4c5148a99d4e0", "type": "electric_scooter", "is_reserved": 0, "lon": -77.015036}, {"fusion_lat": 0.0, "name": "aff21fb196df90e35eab3624e3cbb928", "is_disabled": 0, "rental_uris": {"android": "https://dc.lft.to/lastmile_qr_scan", "ios": "https://dc.lft.to/lastmile_qr_scan"}, "fusion_lon": 0.0, "lat": 38.91733583333333, "bike_id": "aff21fb196df90e35eab3624e3cbb928", "type": "electric_scooter", "is_reserved": 0, "lon": -77.03665516666666}, {"fusion_lat": 0.0, "name": "7507b4fd471bfc881b6ec31e967632b1", "is_disabled": 0, "rental_uris": {"android": "https://dc.lft.to/lastmile_qr_scan", "ios": "https://dc.lft.to/lastmile_qr_scan"}, "fusion_lon": 0.0, "lat": 38.871142666666664, "bike_id": "7507b4fd471bfc881b6ec31e967632b1", "type": "electric_scooter", "is_reserved": 0, "lon": -77.00574416666667}, {"fusion_lat": 0.0, "name": "86b14937a63898cd229943dc065c5c22", "is_disabled": 0, "rental_uris": {"android": "https://dc.lft.to/lastmile_qr_scan", "ios": "https://dc.lft.to/lastmile_qr_scan"}, "fusion_lon": 0.0, "lat": 38.905075, "bike_id": "86b14937a63898cd229943dc065c5c22", "type": "electric_scooter", "is_reserved": 0, "lon": -77.009342}, {"fusion_lat": 0.0, "name": "b701f165d0f1739d83ec905fc20ebd86", "is_disabled": 0, "rental_uris": {"android": "https://dc.lft.to/lastmile_qr_scan", "ios": "https://dc.lft.to/lastmile_qr_scan"}, "fusion_lon": 0.0, "lat": 38.9071145, "bike_id": "b701f165d0f1739d83ec905fc20ebd86", "type": "electric_scooter", "is_reserved": 0, "lon": -77.05049466666667}, {"fusion_lat": 0.0, "name": "2182f27960c43585efc26f9242e24d1e", "is_disabled": 0, "rental_uris": {"android": "https://dc.lft.to/lastmile_qr_scan", "ios": "https://dc.lft.to/lastmile_qr_scan"}, "fusion_lon": 0.0, "lat": 38.8067735, "bike_id": "2182f27960c43585efc26f9242e24d1e", "type": "electric_bike", "is_reserved": 0, "lon": -77.06916033333333}, {"fusion_lat": 0.0, "name": "45935b8aba9f94213863ce212c456543", "is_disabled": 0, "rental_uris": {"android": "https://dc.lft.to/lastmile_qr_scan", "ios": "https://dc.lft.to/lastmile_qr_scan"}, "fusion_lon": 0.0, "lat": 38.90172316666666, "bike_id": "45935b8aba9f94213863ce212c456543", "type": "electric_scooter", "is_reserved": 0, "lon": -76.992636}, {"fusion_lat": 0.0, "name": "4f2dfd29785cf568088a0094582cdc6d", "is_disabled": 0, "rental_uris": {"android": "https://dc.lft.to/lastmile_qr_scan", "ios": "https://dc.lft.to/lastmile_qr_scan"}, "fusion_lon": 0.0, "lat": 38.9024695, "bike_id": "4f2dfd29785cf568088a0094582cdc6d", "type": "electric_scooter", "is_reserved": 0, "lon": -77.00208666666667}, {"fusion_lat": 0.0, "name": "afc8a6cc20014418b5a1955a5e56536c", "is_disabled": 0, "rental_uris": {"android": "https://dc.lft.to/lastmile_qr_scan", "ios": "https://dc.lft.to/lastmile_qr_scan"}, "fusion_lon": 0.0, "lat": 38.932043, "bike_id": "afc8a6cc20014418b5a1955a5e56536c", "type": "electric_scooter", "is_reserved": 0, "lon": -77.0367025}, {"fusion_lat": 0.0, "name": "87cb652fd4122c4117cd8be23e2af2a2", "is_disabled": 0, "rental_uris": {"android": "https://dc.lft.to/lastmile_qr_scan", "ios": "https://dc.lft.to/lastmile_qr_scan"}, "fusion_lon": 0.0, "lat": 38.92843116666667, "bike_id": "87cb652fd4122c4117cd8be23e2af2a2", "type": "electric_bike", "is_reserved": 0, "lon": -77.02055716666666}, {"fusion_lat": 0.0, "name": "3c0f04510fe469171b9b2cc6491d4387", "is_disabled": 0, "rental_uris": {"android": "https://dc.lft.to/lastmile_qr_scan", "ios": "https://dc.lft.to/lastmile_qr_scan"}, "fusion_lon": 0.0, "lat": 38.896188, "bike_id": "3c0f04510fe469171b9b2cc6491d4387", "type": "electric_scooter", "is_reserved": 0, "lon": -77.04495133333333}, {"fusion_lat": 0.0, "name": "a9329c40101482ea4ec76760db15d15c", "is_disabled": 0, "rental_uris": {"android": "https://dc.lft.to/lastmile_qr_scan", "ios": "https://dc.lft.to/lastmile_qr_scan"}, "fusion_lon": 0.0, "lat": 38.92239166666667, "bike_id": "a9329c40101482ea4ec76760db15d15c", "type": "electric_scooter", "is_reserved": 0, "lon": -77.02911016666667}, {"fusion_lat": 0.0, "name": "dca506333d1ee0dfce6120cf9d52f176", "is_disabled": 0, "rental_uris": {"android": "https://dc.lft.to/lastmile_qr_scan", "ios": "https://dc.lft.to/lastmile_qr_scan"}, "fusion_lon": 0.0, "lat": 38.8922995, "bike_id": "dca506333d1ee0dfce6120cf9d52f176", "type": "electric_scooter", "is_reserved": 0, "lon": -76.988158}, {"fusion_lat": 0.0, "name": "0f66949668d4ad2070a066f8e01ddb52", "is_disabled": 0, "rental_uris": {"android": "https://dc.lft.to/lastmile_qr_scan", "ios": "https://dc.lft.to/lastmile_qr_scan"}, "fusion_lon": 0.0, "lat": 38.936297833333334, "bike_id": "0f66949668d4ad2070a066f8e01ddb52", "type": "electric_bike", "is_reserved": 0, "lon": -77.02117716666666}, {"fusion_lat": 0.0, "name": "edcc4049f349610b9fe2b93083ba03ce", "is_disabled": 0, "rental_uris": {"android": "https://dc.lft.to/lastmile_qr_scan", "ios": "https://dc.lft.to/lastmile_qr_scan"}, "fusion_lon": 0.0, "lat": 38.921786, "bike_id": "edcc4049f349610b9fe2b93083ba03ce", "type": "electric_scooter", "is_reserved": 0, "lon": -77.0402215}, {"fusion_lat": 0.0, "name": "d5b02d0a9f06ee13adf69f0715b81a18", "is_disabled": 0, "rental_uris": {"android": "https://dc.lft.to/lastmile_qr_scan", "ios": "https://dc.lft.to/lastmile_qr_scan"}, "fusion_lon": 0.0, "lat": 38.910960333333335, "bike_id": "d5b02d0a9f06ee13adf69f0715b81a18", "type": "electric_scooter", "is_reserved": 0, "lon": -77.07348933333333}, {"fusion_lat": 0.0, "name": "43abe5686c07853e1767d9b99357f108", "is_disabled": 0, "rental_uris": {"android": "https://dc.lft.to/lastmile_qr_scan", "ios": "https://dc.lft.to/lastmile_qr_scan"}, "fusion_lon": 0.0, "lat": 38.905553833333336, "bike_id": "43abe5686c07853e1767d9b99357f108", "type": "electric_scooter", "is_reserved": 0, "lon": -77.034738}, {"fusion_lat": 0.0, "name": "63a243257cde36b67b97b82c2587edf3", "is_disabled": 0, "rental_uris": {"android": "https://dc.lft.to/lastmile_qr_scan", "ios": "https://dc.lft.to/lastmile_qr_scan"},