{"data": {"bikes": [{"fusion_lat": 0.0, "name": "61f2f735ae796741a76a38089a13c81a", "is_disabled": 0, "rental_uris": {"android": "https://dc.lft.to/lastmile_qr_scan", "ios": "https://dc.lft.to/lastmile_qr_scan"}, "fusion_lon": 0.0, "lat": 38.927667, "bike_id": "61f2f735ae796741a76a38089a13c81a", "type": "electric_scooter", "is_reserved": 0, "lon": -77.01615916666667}, {"fusion_lat": 0.0, "name": "12f0910006067bf5b1b9ed696b071c38", "is_disabled": 0, "rental_uris": {"android": "https://dc.lft.to/lastmile_qr_scan", "ios": "https://dc.lft.to/lastmile_qr_scan"}, "fusion_lon": 0.0, "lat": 38.91663066666667, "bike_id": "12f0910006067bf5b1b9ed696b071c38", "type": "electric_scooter", "is_reserved": 0, "lon": -77.03851983333334}, {"fusion_lat": 0.0, "name": "fa20eedea7ce34a844bb5bbcb3982823", "is_disabled": 0, "rental_uris": {"android": "https://dc.lft.to/lastmile_qr_scan", "ios": "https://dc.lft.to/lastmile_qr_scan"}, "fusion_lon": 0.0, "lat": 38.925999, "bike_id": "fa20eedea7ce34a844bb5bbcb3982823", "type": "electric_scooter", "is_reserved": 0, "lon": -77.0215715}, {"fusion_lat": 0.0, "name": "14d71ef3c38edc5c4a34fa662594c5b4", "is_disabled": 0, "rental_uris": {"android": "https://dc.lft.to/lastmile_qr_scan", "ios": "https://dc.lft.to/lastmile_qr_scan"}, "fusion_lon": 0.0, "lat": 38.907282, "bike_id": "14d71ef3c38edc5c4a34fa662594c5b4", "type": "electric_scooter", "is_reserved": 0, "lon": -77.03862133333334}, {"fusion_lat": 0.0, "name": "7d7f16039ceb184fc3547ff6b7d1dba3", "is_disabled": 0, "rental_uris": {"android": "https://dc.lft.to/lastmile_qr_scan", "ios": "https://dc.lft.to/lastmile_qr_scan"}, "fusion_lon": 0.0, "lat": 38.87897266666667, "bike_id": "7d7f16039ceb184fc3547ff6b7d1dba3", "type": "electric_scooter", "is_reserved": 0, "lon": -77.01365183333333}, {"fusion_lat": 0.0, "name": "b064466ad96e2fd60a42fddbf9e85827", "is_disabled": 0, "rental_uris": {"android": "https://dc.lft.to/lastmile_qr_scan", "ios": "https://dc.lft.to/lastmile_qr_scan"}, "fusion_lon": 0.0, "lat": 38.892488166666666, "bike_id": "b064466ad96e2fd60a42fddbf9e85827", "type": "electric_scooter", "is_reserved": 0, "lon": -77.02601083333333}, {"fusion_lat": 0.0, "name": "812db8358f351b8c00fc2685a1b1f044", "is_disabled": 0, "rental_uris": {"android": "https://dc.lft.to/lastmile_qr_scan", "ios": "https://dc.lft.to/lastmile_qr_scan"}, "fusion_lon": 0.0, "lat": 38.90520983333333, "bike_id": "812db8358f351b8c00fc2685a1b1f044", "type": "electric_scooter", "is_reserved": 0, "lon": -77.0624405}, {"fusion_lat": 0.0, "name": "6f63e4de9e9f89efe3c59b7e3cd90586", "is_disabled": 0, "rental_uris": {"android": "https://dc.lft.to/lastmile_qr_scan", "ios": "https://dc.lft.to/lastmile_qr_scan"}, "fusion_lon": 0.0, "lat": 38.91327616666667, "bike_id": "6f63e4de9e9f89efe3c59b7e3cd90586", "type": "electric_scooter", "is_reserved": 0, "lon": -77.05037783333333}, {"fusion_lat": 0.0, "name": "1ef85ac991d67f3e98028fdd0bf7c4ab", "is_disabled": 0, "rental_uris": {"android": "https://dc.lft.to/lastmile_qr_scan", "ios": "https://dc.lft.to/lastmile_qr_scan"}, "fusion_lon": 0.0, "lat": 38.8982885, "bike_id": "1ef85ac991d67f3e98028fdd0bf7c4ab", "type": "electric_scooter", "is_reserved": 0, "lon": -76.946517}, {"fusion_lat": 0.0, "name": "c3a6894b655d35bc6b312f1089cf5ceb", "is_disabled": 0, "rental_uris": {"android": "https://dc.lft.to/lastmile_qr_scan", "ios": "https://dc.lft.to/lastmile_qr_scan"}, "fusion_lon": 0.0, "lat": 38.944098333333336, "bike_id": "c3a6894b655d35bc6b312f1089cf5ceb", "type": "electric_scooter", "is_reserved": 0, "lon": -77.032049}, {"fusion_lat": 0.0, "name": "274789e5687b21496c0471ba9c8f6a0a", "is_disabled": 0, "rental_uris": {"android": "https://dc.lft.to/lastmile_qr_scan", "ios": "https://dc.lft.to/lastmile_qr_scan"}, "fusion_lon": 0.0, "lat": 38.952850166666664, "bike_id": "274789e5687b21496c0471ba9c8f6a0a", "type": "electric_scooter", "is_reserved": 0, "lon": -77.03648266666667}, {"fusion_lat": 0.0, "name": "3cf9b7face8efcc8c08cbab3678f3a38", "is_disabled": 0, "rental_uris": {"android": "https://dc.lft.to/lastmile_qr_scan", "ios": "https://dc.lft.to/lastmile_qr_scan"}, "fusion_lon": 0.0, "lat": 38.90686916666667, "bike_id": "3cf9b7face8efcc8c08cbab3678f3a38", "type": "electric_scooter", "is_reserved": 0, "lon": -77.02699066666666}, {"fusion_lat": 0.0, "name": "6bda30fefb9b46a811fa04edc6e00dd0", "is_disabled": 0, "rental_uris": {"android": "https://dc.lft.to/lastmile_qr_scan", "ios": "https://dc.lft.to/lastmile_qr_scan"}, "fusion_lon": 0.0, "lat": 38.90138683333333, "bike_id": "6bda30fefb9b46a811fa04edc6e00dd0", "type": "electric_scooter", "is_reserved": 0, "lon": -76.99049366666667}, {"fusion_lat": 0.0, "name": "a2e95bfb0c5fe4ea37114e60125afd15", "is_disabled": 0, "rental_uris": {"android": "https://dc.lft.to/lastmile_qr_scan", "ios": "https://dc.lft.to/lastmile_qr_scan"}, "fusion_lon": 0.0, "lat": 38.992341, "bike_id": "a2e95bfb0c5fe4ea37114e60125afd15", "type": "electric_bike", "is_reserved": 0, "lon": -76.944425}, {"fusion_lat": 0.0, "name": "4ade3b918ad780d0a8e72d7954e61ad9", "is_disabled": 0, "rental_uris": {"android": "https://dc.lft.to/lastmile_qr_scan", "ios": "https://dc.lft.to/lastmile_qr_scan"}, "fusion_lon": 0.0, "lat": 38.915201833333334, "bike_id": "4ade3b918ad780d0a8e72d7954e61ad9", "type": "electric_scooter", "is_reserved": 0, "lon": -77.01330533333334}, {"fusion_lat": 0.0, "name": "56647a5039c856bb20f5104f2b195b1a", "is_disabled": 0, "rental_uris": {"android": "https://dc.lft.to/lastmile_qr_scan", "ios": "https://dc.lft.to/lastmile_qr_scan"}, "fusion_lon": 0.0, "lat": 38.917204166666664, "bike_id": "56647a5039c856bb20f5104f2b195b1a", "type": "electric_scooter", "is_reserved": 0, "lon": -77.02399}, {"fusion_lat": 0.0, "name": "49fc90915c59cea3e0f2e5f5a84a5127", "is_disabled": 0, "rental_uris": {"android": "https://dc.lft.to/lastmile_qr_scan", "ios": "https://dc.lft.to/lastmile_qr_scan"}, "fusion_lon": 0.0, "lat": 38.9222755, "bike_id": "49fc90915c59cea3e0f2e5f5a84a5127", "type": "electric_scooter", "is_reserved": 0, "lon": -77.04650183333334}, {"fusion_lat": 0.0, "name": "c75bb2b442785cf772b45aaa6ca70625", "is_disabled": 0, "rental_uris": {"android": "https://dc.lft.to/lastmile_qr_scan", "ios": "https://dc.lft.to/lastmile_qr_scan"}, "fusion_lon": 0.0, "lat": 38.855271, "bike_id": "c75bb2b442785cf772b45aaa6ca70625", "type": "electric_bike", "is_reserved": 0, "lon": -77.12014816666667}, {"fusion_lat": 0.0, "name": "7908770e3599ae093eda3459e6d04671", "is_disabled": 0, "rental_uris": {"android": "https://dc.lft.to/lastmile_qr_scan", "ios": "https://dc.lft.to/lastmile_qr_scan"}, "fusion_lon": 0.0, "lat": 38.90153883333333, "bike_id": "7908770e3599ae093eda3459e6d04671", "type": "electric_scooter", "is_reserved": 0, "lon": -76.93070616666667}, {"fusion_lat": 0.0, "name": "497ebc6378679eef87cb483eebbb0704", "is_disabled": 0, "rental_uris": {"android": "https://dc.lft.to/lastmile_qr_scan", "ios": "https://dc.lft.to/lastmile_qr_scan"}, "fusion_lon": 0.0, "lat": 38.90573166666667, "bike_id": "497ebc6378679eef87cb483eebbb0704", "type": "electric_scooter", "is_reserved": 0, "lon": -77.04433716666666}, {"fusion_lat": 0.0, "name": "6377df1a02c43d75f577eab73173185c", "is_disabled": 0, "rental_uris": {"android": "https://dc.lft.to/lastmile_qr_scan", "ios": "https://dc.lft.to/lastmile_qr_scan"}, "fusion_lon": 0.0, "lat": 38.916985, "bike_id": "6377df1a02c43d75f577eab73173185c", "type": "electric_scooter", "is_reserved": 0, "lon": -77.0375335}, {"fusion_lat": 0.0, "name": "dccda622dc9c10a53acbd33339895f4a", "is_disabled": 0, "rental_uris": {"android": "https://dc.lft.to/lastmile_qr_scan", "ios": "https://dc.lft.to/lastmile_qr_scan"}, "fusion_lon": 0.0, "lat": 38.97350616666667, "bike_id": "dccda622dc9c10a53acbd33339895f4a", "type": "electric_bike", "is_reserved": 0, "lon": -77.01797616666667}, {"fusion_lat": 0.0, "name": "8899567ca1532925309b3afc1caf21eb", "is_disabled": 0, "rental_uris": {"android": "https://dc.lft.to/lastmile_qr_scan", "ios": "https://dc.lft.to/lastmile_qr_scan"}, "fusion_lon": 0.0, "lat": 38.906834333333336, "bike_id": "8899567ca1532925309b3afc1caf21eb", "type": "electric_bike", "is_reserved": 0, "lon": -76.94496133333334}, {"fusion_lat": 0.0, "name": "9b7402d0fd8c08e3fa085ed62f53161b", "is_disabled": 0, "rental_uris": {"android": "https://dc.lft.to/lastmile_qr_scan", "ios": "https://dc.lft.to/lastmile_qr_scan"}, "fusion_lon": 0.0, "lat": 38.926773833333336, "bike_id": "9b7402d0fd8c08e3fa085ed62f53161b", "type": "electric_scooter", "is_reserved": 0, "lon": -77.0279155}, {"fusion_lat": 0.0, "name": "75c4050d9274c314900f11ed6d89ac64", "is_disabled": 0, "rental_uris": {"android": "https://dc.lft.to/lastmile_qr_scan", "ios": "https://dc.lft.to/lastmile_qr_scan"}, "fusion_lon": 0.0, "lat": 38.91116133333333, "bike_id": "75c4050d9274c314900f11ed6d89ac64", "type": "electric_scooter", "is_reserved": 0, "lon": -77.004323}, {"fusion_lat": 0.0, "name": "65d1623c8a94041aa86d8989fffee9ad", "is_disabled": 0, "rental_uris": {"android": "https://dc.lft.to/lastmile_qr_scan", "ios": "https://dc.lft.to/lastmile_qr_scan"}, "fusion_lon": 0.0, "lat": 38.984608333333334, "bike_id": "65d1623c8a94041aa86d8989fffee9ad", "type": "electric_bike", "is_reserved": 0, "lon": -76.970597}, {"fusion_lat": 0.0, "name": "a3e8588e52765d4275d1be101be285af", "is_disabled": 0, "rental_uris": {"android": "https://dc.lft.to/lastmile_qr_scan", "ios": "https://dc.lft.to/lastmile_qr_scan"}, "fusion_lon": 0.0, "lat": 38.88767433333334, "bike_id": "a3e8588e52765d4275d1be101be285af", "type": "electric_scooter", "is_reserved": 0, "lon": -76.977467}, {"fusion_lat": 0.0, "name": "79f58c9d35f004b3becab3579ab3a3f2", "is_disabled": 0, "rental_uris": {"android": "https://dc.lft.to/lastmile_qr_scan", "ios": "https://dc.lft.to/lastmile_qr_scan"}, "fusion_lon": 0.0, "lat": 38.90957733333333, "bike_id": "79f58c9d35f004b3becab3579ab3a3f2", "type": "electric_scooter", "is_reserved": 0, "lon": -77.00509816666667}, {"fusion_lat": 0.0, "name": "1f432db7970fbf30a5178b4062bc1e7b", "is_disabled": 0, "rental_uris": {"android": "https://dc.lft.to/lastmile_qr_scan", "ios": "https://dc.lft.to/lastmile_qr_scan"}, "fusion_lon": 0.0, "lat": 38.8961595, "bike_id": "1f432db7970fbf30a5178b4062bc1e7b", "type": "electric_bike", "is_reserved": 0, "lon": -76.90746116666666}, {"fusion_lat": 0.0, "name": "1687bd5df8144bd85c1088cbc63c4cd7", "is_disabled": 0, "rental_uris": {"android": "https://dc.lft.to/lastmile_qr_scan", "ios": "https://dc.lft.to/lastmile_qr_scan"}, "fusion_lon": 0.0, "lat": 38.92836883333333, "bike_id": "1687bd5df8144bd85c1088cbc63c4cd7", "type": "electric_scooter", "is_reserved": 0, "lon": -77.01409}, {"fusion_lat": 0.0, "name": "2006b486823f22320bfc553042a6a640", "is_disabled": 0, "rental_uris": {"android": "https://dc.lft.to/lastmile_qr_scan", "ios": "https://dc.lft.to/lastmile_qr_scan"}, "fusion_lon": 0.0, "lat": 38.9461945, "bike_id": "2006b486823f22320bfc553042a6a640", "type": "electric_scooter", "is_reserved": 0, "lon": -77.08014166666666}, {"fusion_lat": 0.0, "name": "c264928dfb517feb25f139fb13aa8a0a", "is_disabled": 0, "rental_uris": {"android": "https://dc.lft.to/lastmile_qr_scan", "ios": "https://dc.lft.to/lastmile_qr_scan"}, "fusion_lon": 0.0, "lat": 38.9018525, "bike_id": "c264928dfb517feb25f139fb13aa8a0a", "type": "electric_scooter", "is_reserved": 0, "lon": -77.02297716666666}, {"fusion_lat": 0.0, "name": "85fadfe4faa09a9bf0f395d546d32e96", "is_disabled": 0, "rental_uris": {"android": "https://dc.lft.to/lastmile_qr_scan", "ios": "https://dc.lft.to/lastmile_qr_scan"}, "fusion_lon": 0.0, "lat": 38.948259, "bike_id": "85fadfe4faa09a9bf0f395d546d32e96", "type": "electric_scooter", "is_reserved": 0, "lon": -77.0800645}, {"fusion_lat": 0.0, "name": "a558b436520e587eaa0c603c9d97d99f", "is_disabled": 0, "rental_uris": {"android": "https://dc.lft.to/lastmile_qr_scan", "ios": "https://dc.lft.to/lastmile_qr_scan"}, "fusion_lon": 0.0, "lat": 38.928619833333336, "bike_id": "a558b436520e587eaa0c603c9d97d99f", "type": "electric_scooter", "is_reserved": 0, "lon": -77.0563245}, {"fusion_lat": 0.0, "name": "a36c9e22014eee51a4f1b13d14780863", "is_disabled": 0, "rental_uris": {"android": "https://dc.lft.to/lastmile_qr_scan", "ios": "https://dc.lft.to/lastmile_qr_scan"}, "fusion_lon": 0.0, "lat": 38.958840333333335, "bike_id": "a36c9e22014eee51a4f1b13d14780863", "type": "electric_bike", "is_reserved": 0, "lon": -76.9249365}, {"fusion_lat": 0.0, "name": "402ca3bbb00ef78d7e0ff8674b430dac", "is_disabled": 0, "rental_uris": {"android": "https://dc.lft.to/lastmile_qr_scan", "ios": "https://dc.lft.to/lastmile_qr_scan"}, "fusion_lon": 0.0, "lat": 38.843566333333335, "bike_id": "402ca3bbb00ef78d7e0ff8674b430dac", "type": "electric_bike", "is_reserved": 0, "lon": -76.9782005}, {"fusion_lat": 0.0, "name": "95f091be73444a69374cbd214691a860", "is_disabled": 0, "rental_uris": {"android": "https://dc.lft.to/lastmile_qr_scan", "ios": "https://dc.lft.to/lastmile_qr_scan"}, "fusion_lon": 0.0, "lat": 38.961929, "bike_id": "95f091be73444a69374cbd214691a860", "type": "electric_bike", "is_reserved": 0, "lon": -77.0527085}, {"fusion_lat": 0.0, "name": "e7d22054b8585f2af13da225d3b22956", "is_disabled": 0, "rental_uris": {"android": "https://dc.lft.to/lastmile_qr_scan", "ios": "https://dc.lft.to/lastmile_qr_scan"}, "fusion_lon": 0.0, "lat": 38.8900345, "bike_id": "e7d22054b8585f2af13da225d3b22956", "type": "electric_scooter", "is_reserved": 0, "lon": -76.93746316666666}, {"fusion_lat": 0.0, "name": "e1f4a0f4c0bdb489b298da0344ccf6db", "is_disabled": 0, "rental_uris": {"android": "https://dc.lft.to/lastmile_qr_scan", "ios": "https://dc.lft.to/lastmile_qr_scan"}, "fusion_lon": 0.0, "lat": 38.926755666666665, "bike_id": "e1f4a0f4c0bdb489b298da0344ccf6db", "type": "electric_scooter", "is_reserved": 0, "lon": -77.0363455}, {"fusion_lat": 0.0, "name": "ee9b0e80501eb2aef22c09fe071a7a67", "is_disabled": 0, "rental_uris": {"android": "https://dc.lft.to/lastmile_qr_scan", "ios": "https://dc.lft.to/lastmile_qr_scan"}, "fusion_lon": 0.0, "lat": 38.92319916666667, "bike_id": "ee9b0e80501eb2aef22c09fe071a7a67", "type": "electric_scooter", "is_reserved": 0, "lon": -77.0388775}, {"fusion_lat": 0.0, "name": "66c1372df7751a57b464b39b78b8700b", "is_disabled": 0, "rental_uris": {"android": "https://dc.lft.to/lastmile_qr_scan", "ios": "https://dc.lft.to/lastmile_qr_scan"}, "fusion_lon": 0.0, "lat": 38.84609183333333, "bike_id": "66c1372df7751a57b464b39b78b8700b", "type": "electric_bike", "is_reserved": 0, "lon": -76.96914083333333}, {"fusion_lat": 0.0, "name": "0c4095c1d2e7309018adcadbc834ab0b", "is_disabled": 0, "rental_uris": {"android": "https://dc.lft.to/lastmile_qr_scan", "ios": "https://dc.lft.to/lastmile_qr_scan"}, "fusion_lon": 0.0, "lat": 38.874932666666666, "bike_id": "0c4095c1d2e7309018adcadbc834ab0b", "type": "electric_bike", "is_reserved": 0, "lon": -77.21123933333334}, {"fusion_lat": 0.0, "name": "2e4e7f46c616d27c4e84a1e2f6d355b4", "is_disabled": 0, "rental_uris": {"android": "https://dc.lft.to/lastmile_qr_scan", "ios": "https://dc.lft.to/lastmile_qr_scan"}, "fusion_lon": 0.0, "lat": 38.902161166666666, "bike_id": "2e4e7f46c616d27c4e84a1e2f6d355b4", "type": "electric_bike", "is_reserved": 0, "lon": -76.98348233333333}, {"fusion_lat": 0.0, "name": "b5e0a609ddf901e0b07c3f9eca53ffaa", "is_disabled": 0, "rental_uris": {"android": "https://dc.lft.to/lastmile_qr_scan", "ios": "https://dc.lft.to/lastmile_qr_scan"}, "fusion_lon": 0.0, "lat": 38.879225166666664, "bike_id": "b5e0a609ddf901e0b07c3f9eca53ffaa", "type": "electric_scooter", "is_reserved": 0, "lon": -76.94482866666667}, {"fusion_lat": 0.0, "name": "f3fb64be637cfa6f5302e4b8f9901676", "is_disabled": 0, "rental_uris": {"android": "https://dc.lft.to/lastmile_qr_scan", "ios": "https://dc.lft.to/lastmile_qr_scan"}, "fusion_lon": 0.0, "lat": 38.96230766666667, "bike_id": "f3fb64be637cfa6f5302e4b8f9901676", "type": "electric_bike", "is_reserved": 0, "lon": -76.92759083333334}, {"fusion_lat": 0.0, "name": "0f4c8af2674ee22ecce9a2a110c3cc63", "is_disabled": 0, "rental_uris": {"android": "https://dc.lft.to/lastmile_qr_scan", "ios": "https://dc.lft.to/lastmile_qr_scan"}, "fusion_lon": 0.0, "lat": 38.92474416666667, "bike_id": "0f4c8af2674ee22ecce9a2a110c3cc63", "type": "electric_scooter", "is_reserved": 0, "lon": -77.0283815}, {"fusion_lat": 0.0, "name": "03b20df1235be48c135434638f94330c", "is_disabled": 0, "rental_uris": {"android": "https://dc.lft.to/lastmile_qr_scan", "ios": "https://dc.lft.to/lastmile_qr_scan"}, "fusion_lon": 0.0, "lat": 38.91118133333333, "bike_id": "03b20df1235be48c135434638f94330c", "type": "electric_scooter", "is_reserved": 0, "lon": -77.006654}, {"fusion_lat": 0.0, "name": "62df3c021ddac1bb551dfa55e1d46a24", "is_disabled": 0, "rental_uris": {"android": "https://dc.lft.to/lastmile_qr_scan", "ios": "https://dc.lft.to/lastmile_qr_scan"}, "fusion_lon": 0.0, "lat": 38.915645166666664, "bike_id": "62df3c021ddac1bb551dfa55e1d46a24", "type": "electric_scooter", "is_reserved": 0, "lon": -77.03149466666666}, {"fusion_lat": 0.0, "name": "95e7e531889ce4b45a65975cb73634a7", "is_disabled": 0, "rental_uris": {"android": "https://dc.lft.to/lastmile_qr_scan", "ios": "https://dc.lft.to/lastmile_qr_scan"}, "fusion_lon": 0.0, "lat": 38.9206945, "bike_id": "95e7e531889ce4b45a65975cb73634a7", "type": "electric_scooter", "is_reserved": 0, "lon": -77.04381483333333}, {"fusion_lat": 0.0, "name": "927ca1ba4323dcb459a2f22e9a1b7eb4", "is_disabled": 0, "rental_uris": {"android": "https://dc.lft.to/lastmile_qr_scan", "ios": "https://dc.lft.to/lastmile_qr_scan"}, "fusion_lon": 0.0, "lat": 38.881971666666665, "bike_id": "927ca1ba4323dcb459a2f22e9a1b7eb4", "type": "electric_bike", "is_reserved": 0, "lon": -77.03594233333334}, {"fusion_lat": 0.0, "name": "2cf7a71ca88180fdbc6f9b6b552ecf5c", "is_disabled": 0, "rental_uris": {"android": "https://dc.lft.to/lastmile_qr_scan", "ios": "https://dc.lft.to/lastmile_qr_scan"}, "fusion_lon": 0.0, "lat": 38.889022833333335, "bike_id": "2cf7a71ca88180fdbc6f9b6b552ecf5c", "type": "electric_scooter", "is_reserved": 0, "lon": -76.992037}, {"fusion_lat": 0.0, "name": "63739983fbc85e344c3ec4c661b43746", "is_disabled": 0, "rental_uris": {"android": "https://dc.lft.to/lastmile_qr_scan", "ios": "https://dc.lft.to/lastmile_qr_scan"}, "fusion_lon": 0.0, "lat": 38.916855, "bike_id": "63739983fbc85e344c3ec4c661b43746", "type": "electric_scooter", "is_reserved": 0, "lon": -77.03775766666666}, {"fusion_lat": 0.0, "name": "9c0d0e6f53a71d11b7ca05fd3384e33e", "is_disabled": 0, "rental_uris": {"android": "https://dc.lft.to/lastmile_qr_scan", "ios": "https://dc.lft.to/lastmile_qr_scan"}, "fusion_lon": 0.0, "lat": 38.91963283333333, "bike_id": "9c0d0e6f53a71d11b7ca05fd3384e33e", "type": "electric_scooter", "is_reserved": 0, "lon": -77.0251185}, {"fusion_lat": 0.0, "name": "64e36ca8a7573632f8dc602c5fe054c5", "is_disabled": 0, "rental_uris": {"android": "https://dc.lft.to/lastmile_qr_scan", "ios": "https://dc.lft.to/lastmile_qr_scan"}, "fusion_lon": 0.0, "lat": 38.90988816666667, "bike_id": "64e36ca8a7573632f8dc602c5fe054c5", "type": "electric_scooter", "is_reserved": 0, "lon": -77.031981}, {"fusion_lat": 0.0, "name": "5452db8853eb427098cdf46cef11e20b", "is_disabled": 0, "rental_uris": {"android": "https://dc.lft.to/lastmile_qr_scan", "ios": "https://dc.lft.to/lastmile_qr_scan"}, "fusion_lon": 0.0, "lat": 38.94948383333333, "bike_id": "5452db8853eb427098cdf46cef11e20b", "type": "electric_scooter", "is_reserved": 0, "lon": -77.02312933333333}, {"fusion_lat": 0.0, "name": "8101fc261120c6a16c4f78a203a8f57c", "is_disabled": 0, "rental_uris": {"android": "https://dc.lft.to/lastmile_qr_scan", "ios": "https://dc.lft.to/lastmile_qr_scan"}, "fusion_lon": 0.0, "lat": 38.956762833333336, "bike_id": "8101fc261120c6a16c4f78a203a8f57c", "type": "electric_scooter", "is_reserved": 0, "lon": -77.03248033333334}, {"fusion_lat": 0.0, "name": "ede41e82292122b5666c4001502ac89f", "is_disabled": 0, "rental_uris": {"android": "https://dc.lft.to/lastmile_qr_scan", "ios": "https://dc.lft.to/lastmile_qr_scan"}, "fusion_lon": 0.0, "lat": 38.894284999999996, "bike_id": "ede41e82292122b5666c4001502ac89f", "type": "electric_scooter", "is_reserved": 0, "lon": -77.00106483333333}, {"fusion_lat": 0.0, "name": "2811354235560db6afe9d615a0ceec50", "is_disabled": 0, "rental_uris": {"android": "https://dc.lft.to/lastmile_qr_scan", "ios": "https://dc.lft.to/lastmile_qr_scan"}, "fusion_lon": 0.0, "lat": 38.910283666666665, "bike_id": "2811354235560db6afe9d615a0ceec50", "type": "electric_scooter", "is_reserved": 0, "lon": -77.01510783333333}, {"fusion_lat": 0.0, "name": "8744ca3621b49367244ddd93db50bda6", "is_disabled": 0, "rental_uris": {"android": "https://dc.lft.to/lastmile_qr_scan", "ios": "https://dc.lft.to/lastmile_qr_scan"}, "fusion_lon": 0.0, "lat": 38.893511333333336, "bike_id": "8744ca3621b49367244ddd93db50bda6", "type": "electric_bike", "is_reserved": 0, "lon": -77.1874395}, {"fusion_lat": 0.0, "name": "78a583f7affc14664115d200ac05c158", "is_disabled": 0, "rental_uris": {"android": "https://dc.lft.to/lastmile_qr_scan", "ios": "https://dc.lft.to/lastmile_qr_scan"}, "fusion_lon": 0.0, "lat": 38.877229666666665, "bike_id": "78a583f7affc14664115d200ac05c158", "type": "electric_scooter", "is_reserved": 0, "lon": -77.01760333333333}, {"fusion_lat": 0.0, "name": "9c53d4d0ad1ee8108f9b0b4731f1d1c8", "is_disabled": 0, "rental_uris": {"android": "https://dc.lft.to/lastmile_qr_scan", "ios": "https://dc.lft.to/lastmile_qr_scan"}, "fusion_lon": 0.0, "lat": 38.88700516666667, "bike_id": "9c53d4d0ad1ee8108f9b0b4731f1d1c8", "type": "electric_bike", "is_reserved": 0, "lon": -76.99600566666666}, {"fusion_lat": 0.0, "name": "46451c500ecc2be7f15605e72aefa913", "is_disabled": 0, "rental_uris": {"android": "https://dc.lft.to/lastmile_qr_scan", "ios": "https://dc.lft.to/lastmile_qr_scan"}, "fusion_lon": 0.0, "lat": 38.926143333333336, "bike_id": "46451c500ecc2be7f15605e72aefa913", "type": "electric_scooter", "is_reserved": 0, "lon": -77.02161533333333}, {"fusion_lat": 0.0, "name": "f4990cdbf5dc731b9048b04f1bc66e56", "is_disabled": 0, "rental_uris": {"android": "https://dc.lft.to/lastmile_qr_scan", "ios": "https://dc.lft.to/lastmile_qr_scan"}, "fusion_lon": 0.0, "lat": 38.94315433333333, "bike_id": "f4990cdbf5dc731b9048b04f1bc66e56", "type": "electric_scooter", "is_reserved": 0, "lon": -77.060718}, {"fusion_lat": 0.0, "name": "fe57bffc70716cb7763bf482757becec", "is_disabled": 0, "rental_uris": {"android": "https://dc.lft.to/lastmile_qr_scan", "ios": "https://dc.lft.to/lastmile_qr_scan"}, "fusion_lon": 0.0, "lat": 38.898524, "bike_id": "fe57bffc70716cb7763bf482757becec", "type": "electric_scooter", "is_reserved": 0, "lon": -77.0416175}, {"fusion_lat": 0.0, "name": "ca710baf7270cf1b79d60637b5cc32b7", "is_disabled": 0, "rental_uris": {"android": "https://dc.lft.to/lastmile_qr_scan", "ios": "https://dc.lft.to/lastmile_qr_scan"}, "fusion_lon": 0.0, "lat": 38.89613133333334, "bike_id": "ca710baf7270cf1b79d60637b5cc32b7", "type": "electric_bike", "is_reserved": 0, "lon": -76.90739033333334}, {"fusion_lat": 0.0, "name": "aebea198adfae127ee98353cf762b332", "is_disabled": 0, "rental_uris": {"android": "https://dc.lft.to/lastmile_qr_scan", "ios": "https://dc.lft.to/lastmile_qr_scan"}, "fusion_lon": 0.0, "lat": 38.9165715, "bike_id": "aebea198adfae127ee98353cf762b332", "type": "electric_scooter", "is_reserved": 0, "lon": -77.02815083333333}, {"fusion_lat": 0.0, "name": "219857f76933579c920084112aec8f8a", "is_disabled": 0, "rental_uris": {"android": "https://dc.lft.to/lastmile_qr_scan", "ios": "https://dc.lft.to/lastmile_qr_scan"}, "fusion_lon": 0.0, "lat": 38.87878883333333, "bike_id": "219857f76933579c920084112aec8f8a", "type": "electric_scooter", "is_reserved": 0, "lon": -77.0223025}, {"fusion_lat": 0.0, "name": "190b60d6f187fe1353b01ecdbb665205", "is_disabled": 0, "rental_uris": {"android": "https://dc.lft.to/lastmile_qr_scan", "ios": "https://dc.lft.to/lastmile_qr_scan"}, "fusion_lon": 0.0, "lat": 38.926774333333334, "bike_id": "190b60d6f187fe1353b01ecdbb665205", "type": "electric_scooter", "is_reserved": 0, "lon": -77.01475983333333}, {"fusion_lat": 0.0, "name": "8f69c784b007f44285a91f1ea92f586c", "is_disabled": 0, "rental_uris": {"android": "https://dc.lft.to/lastmile_qr_scan", "ios": "https://dc.lft.to/lastmile_qr_scan"}, "fusion_lon": 0.0, "lat": 38.927480833333334, "bike_id": "8f69c784b007f44285a91f1ea92f586c", "type": "electric_scooter", "is_reserved": 0, "lon": -77.02534233333333}, {"fusion_lat": 0.0, "name": "f9894af8d7e530ed6558aa5bdcccbd23", "is_disabled": 0, "rental_uris": {"android": "https://dc.lft.to/lastmile_qr_scan", "ios": "https://dc.lft.to/lastmile_qr_scan"}, "fusion_lon": 0.0, "lat": 38.9233595, "bike_id": "f9894af8d7e530ed6558aa5bdcccbd23", "type": "electric_scooter", "is_reserved": 0, "lon": -77.052969}, {"fusion_lat": 0.0, "name": "e58ebb5a91e525ddb1a53fc93fcaea70", "is_disabled": 0, "rental_uris": {"android": "https://dc.lft.to/lastmile_qr_scan", "ios": "https://dc.lft.to/lastmile_qr_scan"}, "fusion_lon": 0.0, "lat": 38.90142183333333, "bike_id": "e58ebb5a91e525ddb1a53fc93fcaea70", "type": "electric_scooter", "is_reserved": 0, "lon": -76.99838933333334}, {"fusion_lat": 0.0, "name": "3f071fe3d4944254ac855c9203d14e7f", "is_disabled": 0, "rental_uris": {"android": "https://dc.lft.to/lastmile_qr_scan", "ios": "https://dc.lft.to/lastmile_qr_scan"}, "fusion_lon": 0.0, "lat": 38.93217283333333, "bike_id": "3f071fe3d4944254ac855c9203d14e7f", "type": "electric_scooter", "is_reserved": 0, "lon": -77.03346716666667}, {"fusion_lat": 0.0, "name": "061c61628aa9e320f79f41b3806a95b3", "is_disabled": 0, "rental_uris": {"android": "https://dc.lft.to/lastmile_qr_scan", "ios": "https://dc.lft.to/lastmile_qr_scan"}, "fusion_lon": 0.0, "lat": 38.916632166666666, "bike_id": "061c61628aa9e320f79f41b3806a95b3", "type": "electric_scooter", "is_reserved": 0, "lon": -77.0385165}, {"fusion_lat": 0.0, "name": "3c86f098672c66abc8781665c20e0228", "is_disabled": 0, "rental_uris": {"android": "https://dc.lft.to/lastmile_qr_scan", "ios": "https://dc.lft.to/lastmile_qr_scan"}, "fusion_lon": 0.0, "lat": 38.85354183333333, "bike_id": "3c86f098672c66abc8781665c20e0228", "type": "electric_bike", "is_reserved": 0, "lon": -77.13473316666666}, {"fusion_lat": 0.0, "name": "dac28a01e68726b5ba7c6e7b102a5380", "is_disabled": 0, "rental_uris": {"android": "https://dc.lft.to/lastmile_qr_scan", "ios": "https://dc.lft.to/lastmile_qr_scan"}, "fusion_lon": 0.0, "lat": 38.88652916666667, "bike_id": "dac28a01e68726b5ba7c6e7b102a5380", "type": "electric_scooter", "is_reserved": 0, "lon": -77.00119666666667}, {"fusion_lat": 0.0, "name": "d87eb61a40688ed946f115518df642a9", "is_disabled": 0, "rental_uris": {"android": "https://dc.lft.to/lastmile_qr_scan", "ios": "https://dc.lft.to/lastmile_qr_scan"}, "fusion_lon": 0.0, "lat": 38.896432, "bike_id": "d87eb61a40688ed946f115518df642a9", "type": "electric_scooter", "is_reserved": 0, "lon": -77.032217}, {"fusion_lat": 0.0, "name": "98cf5c7d1479ac0b40ce6a79e91f19b4", "is_disabled": 0, "rental_uris": {"android": "https://dc.lft.to/lastmile_qr_scan", "ios": "https://dc.lft.to/lastmile_qr_scan"}, "fusion_lon": 0.0, "lat": 38.862456333333334, "bike_id": "98cf5c7d1479ac0b40ce6a79e91f19b4", "type": "electric_scooter", "is_reserved": 0, "lon": -76.99499183333333}, {"fusion_lat": 0.0, "name": "13f8a1b54d8cddcebf54259505fbb8bf", "is_disabled": 0, "rental_uris": {"android": "https://dc.lft.to/lastmile_qr_scan", "ios": "https://dc.lft.to/lastmile_qr_scan"}, "fusion_lon": 0.0, "lat": 38.91820366666666, "bike_id": "13f8a1b54d8cddcebf54259505fbb8bf", "type": "electric_scooter", "is_reserved": 0, "lon": -77.02536616666667}, {"fusion_lat": 0.0, "name": "22b8e75cf3d853de653c784108dc31eb", "is_disabled": 0, "rental_uris": {"android": "https://dc.lft.to/lastmile_qr_scan", "ios": "https://dc.lft.to/lastmile_qr_scan"}, "fusion_lon": 0.0, "lat": 38.909806833333334, "bike_id": "22b8e75cf3d853de653c784108dc31eb", "type": "electric_scooter", "is_reserved": 0, "lon": -77.03387366666666}, {"fusion_lat": 0.0, "name": "ba747164a51942bdd231901666c8b047", "is_disabled": 0, "rental_uris": {"android": "https://dc.lft.to/lastmile_qr_scan", "ios": "https://dc.lft.to/lastmile_qr_scan"}, "fusion_lon": 0.0, "lat": 38.862162166666664, "bike_id": "ba747164a51942bdd231901666c8b047", "type": "electric_scooter", "is_reserved": 0, "lon": -76.99489083333333}, {"fusion_lat": 0.0, "name": "4f5a115f1d0389c2a85592729b38abff", "is_disabled": 0, "rental_uris": {"android": "https://dc.lft.to/lastmile_qr_scan", "ios": "https://dc.lft.to/lastmile_qr_scan"}, "fusion_lon": 0.0, "lat": 38.90036, "bike_id": "4f5a115f1d0389c2a85592729b38abff", "type": "electric_scooter", "is_reserved": 0, "lon": -77.01183}, {"fusion_lat": 0.0, "name": "1e04fa042863069f83cc27ba9fe9f8b0", "is_disabled": 0, "rental_uris": {"android": "https://dc.lft.to/lastmile_qr_scan", "ios": "https://dc.lft.to/lastmile_qr_scan"}, "fusion_lon": 0.0, "lat": 38.919207166666666, "bike_id": "1e04fa042863069f83cc27ba9fe9f8b0", "type": "electric_scooter", "is_reserved": 0, "lon": -77.00981083333333}, {"fusion_lat": 0.0, "name": "0f6bbab66ba30de6d4e4aa8c316396c4", "is_disabled": 0, "rental_uris": {"android": "https://dc.lft.to/lastmile_qr_scan", "ios": "https://dc.lft.to/lastmile_qr_scan"}, "fusion_lon": 0.0, "lat": 38.917083166666664, "bike_id": "0f6bbab66ba30de6d4e4aa8c316396c4", "type": "electric_scooter", "is_reserved": 0, "lon": -77.03338366666667}, {"fusion_lat": 0.0, "name": "721e122c95e036326ed8eeec7d45044d", "is_disabled": 0, "rental_uris": {"android": "https://dc.lft.to/lastmile_qr_scan", "ios": "https://dc.lft.to/lastmile_qr_scan"}, "fusion_lon": 0.0, "lat": 38.910569333333335, "bike_id": "721e122c95e036326ed8eeec7d45044d", "type": "electric_scooter", "is_reserved": 0, "lon": -77.04093783333333}, {"fusion_lat": 0.0, "name": "37f2dcd4faa908bad7b7393338272b53", "is_disabled": 0, "rental_uris": {"android": "https://dc.lft.to/lastmile_qr_scan", "ios": "https://dc.lft.to/lastmile_qr_scan"}, "fusion_lon": 0.0, "lat": 38.873050666666664, "bike_id": "37f2dcd4faa908bad7b7393338272b53", "type": "electric_scooter", "is_reserved": 0, "lon": -77.0005325}, {"fusion_lat": 0.0, "name": "1d512e9a44cb0a4f789bb4d63ee72db4", "is_disabled": 0, "rental_uris": {"android": "https://dc.lft.to/lastmile_qr_scan", "ios": "https://dc.lft.to/lastmile_qr_scan"}, "fusion_lon": 0.0, "lat": 38.876649666666665, "bike_id": "1d512e9a44cb0a4f789bb4d63ee72db4", "type": "electric_scooter", "is_reserved": 0, "lon": -77.00423466666666}, {"fusion_lat": 0.0, "name": "1132cee6c09080f72592613393b5d83e", "is_disabled": 0, "rental_uris": {"android": "https://dc.lft.to/lastmile_qr_scan", "ios": "https://dc.lft.to/lastmile_qr_scan"}, "fusion_lon": 0.0, "lat": 38.8971545, "bike_id": "1132cee6c09080f72592613393b5d83e", "type": "electric_scooter", "is_reserved": 0, "lon": -77.02331283333334}, {"fusion_lat": 0.0, "name": "1e80b3ef521ba64f7b13ff5cabdce965", "is_disabled": 0, "rental_uris": {"android": "https://dc.lft.to/lastmile_qr_scan", "ios": "https://dc.lft.to/lastmile_qr_scan"}, "fusion_lon": 0.0, "lat": 38.906343166666666, "bike_id": "1e80b3ef521ba64f7b13ff5cabdce965", "type": "electric_scooter", "is_reserved": 0, "lon": -77.01005416666666}, {"fusion_lat": 0.0, "name": "da2b3546a63f35a940271ee56eca9792", "is_disabled": 0, "rental_uris": {"android": "https://dc.lft.to/lastmile_qr_scan", "ios": "https://dc.lft.to/lastmile_qr_scan"}, "fusion_lon": 0.0, "lat": 38.923978166666664, "bike_id": "da2b3546a63f35a940271ee56eca9792", "type": "electric_scooter", "is_reserved": 0, "lon": -77.02487866666667}, {"fusion_lat": 0.0, "name": "721eedbd3411b025bb1c4e00c4c09f11", "is_disabled": 0, "rental_uris": {"android": "https://dc.lft.to/lastmile_qr_scan", "ios": "https://dc.lft.to/lastmile_qr_scan"}, "fusion_lon": 0.0, "lat": 38.864497166666666, "bike_id": "721eedbd3411b025bb1c4e00c4c09f11", "type": "electric_bike", "is_reserved": 0, "lon": -77.10686366666667}, {"fusion_lat": 0.0, "name": "99c5784f3032747a2b2c6c1b380bef19", "is_disabled": 0, "rental_uris": {"android": "https://dc.lft.to/lastmile_qr_scan", "ios": "https://dc.lft.to/lastmile_qr_scan"}, "fusion_lon": 0.0, "lat": 38.90968783333334, "bike_id": "99c5784f3032747a2b2c6c1b380bef19", "type": "electric_scooter", "is_reserved": 0, "lon": -77.0454585}, {"fusion_lat": 0.0, "name": "d699c0a1310a3e44d7270e052c73fcc4", "is_disabled": 0, "rental_uris": {"android": "https://dc.lft.to/lastmile_qr_scan", "ios": "https://dc.lft.to/lastmile_qr_scan"}, "fusion_lon": 0.0, "lat": 38.900329166666666, "bike_id": "d699c0a1310a3e44d7270e052c73fcc4", "type": "electric_scooter", "is_reserved": 0, "lon": -76.988522}, {"fusion_lat": 0.0, "name": "aacffad408acb8d9bd1b3d57e3fad483", "is_disabled": 0, "rental_uris": {"android": "https://dc.lft.to/lastmile_qr_scan", "ios": "https://dc.lft.to/lastmile_qr_scan"}, "fusion_lon": 0.0, "lat": 38.91552883333333, "bike_id": "aacffad408acb8d9bd1b3d57e3fad483", "type": "electric_scooter", "is_reserved": 0, "lon": -77.03232383333334}, {"fusion_lat": 0.0, "name": "3a05e41dc29853d3857ef4cc02b6f1c2", "is_disabled": 0, "rental_uris": {"android": "https://dc.lft.to/lastmile_qr_scan", "ios": "https://dc.lft.to/lastmile_qr_scan"}, "fusion_lon": 0.0, "lat": 38.924865, "bike_id": "3a05e41dc29853d3857ef4cc02b6f1c2", "type": "electric_scooter", "is_reserved": 0, "lon": -77.02551766666667}, {"fusion_lat": 0.0, "name": "c488d15a732c9a7d76fe701bcfa09157", "is_disabled": 0, "rental_uris": {"android": "https://dc.lft.to/lastmile_qr_scan", "ios": "https://dc.lft.to/lastmile_qr_scan"}, "fusion_lon": 0.0, "lat": 38.929644, "bike_id": "c488d15a732c9a7d76fe701bcfa09157", "type": "electric_scooter", "is_reserved": 0, "lon": -77.05525}, {"fusion_lat": 0.0, "name": "8953a0c7573570e1e467b86c8c49ae50", "is_disabled": 0, "rental_uris": {"android": "https://dc.lft.to/lastmile_qr_scan", "ios": "https://dc.lft.to/lastmile_qr_scan"}, "fusion_lon": 0.0, "lat": 38.9247875, "bike_id": "8953a0c7573570e1e467b86c8c49ae50", "type": "electric_scooter", "is_reserved": 0, "lon": -77.026529}, {"fusion_lat": 0.0, "name": "7a603f8d8eb1f8318c0558fdb5a5867b", "is_disabled": 0, "rental_uris": {"android": "https://dc.lft.to/lastmile_qr_scan", "ios": "https://dc.lft.to/lastmile_qr_scan"}, "fusion_lon": 0.0, "lat": 38.9144015, "bike_id": "7a603f8d8eb1f8318c0558fdb5a5867b", "type": "electric_scooter", "is_reserved": 0, "lon": -77.01570383333333}, {"fusion_lat": 0.0, "name": "1333aeeeb457f30af81d2adecf8cf22c", "is_disabled": 0, "rental_uris": {"android": "https://dc.lft.to/lastmile_qr_scan", "ios": "https://dc.lft.to/lastmile_qr_scan"}, "fusion_lon": 0.0, "lat": 38.8765765, "bike_id": "1333aeeeb457f30af81d2adecf8cf22c", "type": "electric_scooter", "is_reserved": 0, "lon": -77.0091875}, {"fusion_lat": 0.0, "name": "0f553834dd1f508545b5bb76a2f4926a", "is_disabled": 0, "rental_uris": {"android": "https://dc.lft.to/lastmile_qr_scan", "ios": "https://dc.lft.to/lastmile_qr_scan"}, "fusion_lon": 0.0, "lat": 38.929204, "bike_id": "0f553834dd1f508545b5bb76a2f4926a", "type": "electric_scooter", "is_reserved": 0, "lon": -77.0233965}, {"fusion_lat": 0.0, "name": "ad0ef5f8e33914ccd2091160484b666c", "is_disabled": 0, "rental_uris": {"android": "https://dc.lft.to/lastmile_qr_scan", "ios": "https://dc.lft.to/lastmile_qr_scan"}, "fusion_lon": 0.0, "lat": 38.95878233333333, "bike_id": "ad0ef5f8e33914ccd2091160484b666c", "type": "electric_scooter", "is_reserved": 0, "lon": -77.011671}, {"fusion_lat": 0.0, "name": "56f24fed2cfa2955371e5629ef881156", "is_disabled": 0, "rental_uris": {"android": "https://dc.lft.to/lastmile_qr_scan", "ios": "https://dc.lft.to/lastmile_qr_scan"}, "fusion_lon": 0.0, "lat": 38.882329, "bike_id": "56f24fed2cfa2955371e5629ef881156", "type": "electric_scooter", "is_reserved": 0, "lon": -77.02615083333333}, {"fusion_lat": 0.0, "name": "ec4b734b7e8dfa2375764418ab58253d", "is_disabled": 0, "rental_uris": {"android": "https://dc.lft.to/lastmile_qr_scan", "ios": "https://dc.lft.to/lastmile_qr_scan"}, "fusion_lon": 0.0, "lat": 38.91556683333334, "bike_id": "ec4b734b7e8dfa2375764418ab58253d", "type": "electric_scooter", "is_reserved": 0, "lon": -77.03225533333334}, {"fusion_lat": 0.0, "name": "9a04c3fbc5b4e4f6723364e7b579f60e", "is_disabled": 0, "rental_uris": {"android": "https://dc.lft.to/lastmile_qr_scan", "ios": "https://dc.lft.to/lastmile_qr_scan"}, "fusion_lon": 0.0, "lat": 38.879080333333334, "bike_id": "9a04c3fbc5b4e4f6723364e7b579f60e", "type": "electric_scooter", "is_reserved": 0, "lon": -77.008935}, {"fusion_lat": 0.0, "name": "1cfe0d43bfe3078d6ae9ba22f6a66cbc", "is_disabled": 0, "rental_uris": {"android": "https://dc.lft.to/lastmile_qr_scan", "ios": "https://dc.lft.to/lastmile_qr_scan"}, "fusion_lon": 0.0, "lat": 38.921073666666665, "bike_id": "1cfe0d43bfe3078d6ae9ba22f6a66cbc", "type": "electric_scooter", "is_reserved": 0, "lon": -77.07474216666667}, {"fusion_lat": 0.0, "name": "fb8853bc8ce89a83918b7cb4ed2f0280", "is_disabled": 0, "rental_uris": {"android": "https://dc.lft.to/lastmile_qr_scan", "ios": "https://dc.lft.to/lastmile_qr_scan"}, "fusion_lon": 0.0, "lat": 38.87376016666666, "bike_id": "fb8853bc8ce89a83918b7cb4ed2f0280", "type": "electric_scooter", "is_reserved": 0, "lon": -77.00089116666666}, {"fusion_lat": 0.0, "name": "bb8df3ce276b2463c82de14bbcc45901", "is_disabled": 0, "rental_uris": {"android": "https://dc.lft.to/lastmile_qr_scan", "ios": "https://dc.lft.to/lastmile_qr_scan"}, "fusion_lon": 0.0, "lat": 38.90359016666667, "bike_id": "bb8df3ce276b2463c82de14bbcc45901", "type": "electric_scooter", "is_reserved": 0, "lon": -77.06269216666666}, {"fusion_lat": 0.0, "name": "8157e0e981168d4d96f541a5e4339428", "is_disabled": 0, "rental_uris": {"android": "https://dc.lft.to/lastmile_qr_scan", "ios": "https://dc.lft.to/lastmile_qr_scan"}, "fusion_lon": 0.0, "lat": 38.90549566666667, "bike_id": "8157e0e981168d4d96f541a5e4339428", "type": "electric_scooter", "is_reserved": 0, "lon": -77.03134983333334}, {"fusion_lat": 0.0, "name": "bfff377fa23d490a9025d38e7ba18ec2", "is_disabled": 0, "rental_uris": {"android": "https://dc.lft.to/lastmile_qr_scan", "ios": "https://dc.lft.to/lastmile_qr_scan"}, "fusion_lon": 0.0, "lat": 38.8665325, "bike_id": "bfff377fa23d490a9025d38e7ba18ec2", "type": "electric_scooter", "is_reserved": 0, "lon": -76.9851}, {"fusion_lat": 0.0, "name": "1fc270425594e08bf5a4e26b2fd6616b", "is_disabled": 0, "rental_uris": {"android": "https://dc.lft.to/lastmile_qr_scan", "ios": "https://dc.lft.to/lastmile_qr_scan"}, "fusion_lon": 0.0, "lat": 38.90005433333333, "bike_id": "1fc270425594e08bf5a4e26b2fd6616b", "type": "electric_scooter", "is_reserved": 0, "lon": -77.04106616666667}, {"fusion_lat": 0.0, "name": "a40863ddbb6898df1c5143f2fb491dc9", "is_disabled": 0, "rental_uris": {"android": "https://dc.lft.to/lastmile_qr_scan", "ios": "https://dc.lft.to/lastmile_qr_scan"}, "fusion_lon": 0.0, "lat": 38.86516016666667, "bike_id": "a40863ddbb6898df1c5143f2fb491dc9", "type": "electric_bike", "is_reserved": 0, "lon": -76.9733215}, {"fusion_lat": 0.0, "name": "4cfd7e0ed01478805fb2dace64d4ba0e", "is_disabled": 0, "rental_uris": {"android": "https://dc.lft.to/lastmile_qr_scan", "ios": "https://dc.lft.to/lastmile_qr_scan"}, "fusion_lon": 0.0, "lat": 38.926283166666664, "bike_id": "4cfd7e0ed01478805fb2dace64d4ba0e", "type": "electric_scooter", "is_reserved": 0, "lon": -77.04214566666667}, {"fusion_lat": 0.0, "name": "3b3fe742befe96b869a71b6c5e4e4125", "is_disabled": 0, "rental_uris": {"android": "https://dc.lft.to/lastmile_qr_scan", "ios": "https://dc.lft.to/lastmile_qr_scan"}, "fusion_lon": 0.0, "lat": 38.907301, "bike_id": "3b3fe742befe96b869a71b6c5e4e4125", "type": "electric_scooter", "is_reserved": 0, "lon": -77.0106965}, {"fusion_lat": 0.0, "name": "065006f23a7776923cd664dcaf141c90", "is_disabled": 0, "rental_uris": {"android": "https://dc.lft.to/lastmile_qr_scan", "ios": "https://dc.lft.to/lastmile_qr_scan"}, "fusion_lon": 0.0, "lat": 38.932712333333335, "bike_id": "065006f23a7776923cd664dcaf141c90", "type": "electric_scooter", "is_reserved": 0, "lon": -77.04536583333334}, {"fusion_lat": 0.0, "name": "39f69f1ca40cc16a8242f27e9d89e88e", "is_disabled": 0, "rental_uris": {"android": "https://dc.lft.to/lastmile_qr_scan", "ios": "https://dc.lft.to/lastmile_qr_scan"}, "fusion_lon": 0.0, "lat": 38.92603616666667, "bike_id": "39f69f1ca40cc16a8242f27e9d89e88e", "type": "electric_scooter", "is_reserved": 0, "lon": -77.03961666666666}, {"fusion_lat": 0.0, "name": "b68227de3158565eed00a086c0ddb12d", "is_disabled": 0, "rental_uris": {"android": "https://dc.lft.to/lastmile_qr_scan", "ios": "https://dc.lft.to/lastmile_qr_scan"}, "fusion_lon": 0.0, "lat": 38.877203, "bike_id": "b68227de3158565eed00a086c0ddb12d", "type": "electric_scooter", "is_reserved": 0, "lon": -77.0176475}, {"fusion_lat": 0.0, "name": "c968b60f3f9601146ec7500e6d82d9dc", "is_disabled": 0, "rental_uris": {"android": "https://dc.lft.to/lastmile_qr_scan", "ios": "https://dc.lft.to/lastmile_qr_scan"}, "fusion_lon": 0.0, "lat": 38.905810833333334, "bike_id": "c968b60f3f9601146ec7500e6d82d9dc", "type": "electric_scooter", "is_reserved": 0, "lon": -77.00890733333334}, {"fusion_lat": 0.0, "name": "b584034d677a18c9cfb966436e2d8351", "is_disabled": 0, "rental_uris": {"android": "https://dc.lft.to/lastmile_qr_scan", "ios": "https://dc.lft.to/lastmile_qr_scan"}, "fusion_lon": 0.0, "lat": 38.90925883333333, "bike_id": "b584034d677a18c9cfb966436e2d8351", "type": "electric_scooter", "is_reserved": 0, "lon": -77.03461483333334}, {"fusion_lat": 0.0, "name": "e3962e19b2b6be3842b0dafc8fb3f15d", "is_disabled": 0, "rental_uris": {"android": "https://dc.lft.to/lastmile_qr_scan", "ios": "https://dc.lft.to/lastmile_qr_scan"}, "fusion_lon": 0.0, "lat": 38.928793, "bike_id": "e3962e19b2b6be3842b0dafc8fb3f15d", "type": "electric_scooter", "is_reserved": 0, "lon": -77.03344683333333}, {"fusion_lat": 0.0, "name": "f157d3279af93467b2ee4e6dff3128b2", "is_disabled": 0, "rental_uris": {"android": "https://dc.lft.to/lastmile_qr_scan", "ios": "https://dc.lft.to/lastmile_qr_scan"}, "fusion_lon": 0.0, "lat": 38.9051195, "bike_id": "f157d3279af93467b2ee4e6dff3128b2", "type": "electric_scooter", "is_reserved": 0, "lon": -77.06387433333333}, {"fusion_lat": 0.0, "name": "a82092902898df7ee19bcbd727061d8e", "is_disabled": 0, "rental_uris": {"android": "https://dc.lft.to/lastmile_qr_scan", "ios": "https://dc.lft.to/lastmile_qr_scan"}, "fusion_lon": 0.0, "lat": 38.88746416666667, "bike_id": "a82092902898df7ee19bcbd727061d8e", "type": "electric_scooter", "is_reserved": 0, "lon": -77.0257215}, {"fusion_lat": 0.0, "name": "a6d2044240913db800e427fb7595f4cd", "is_disabled": 0, "rental_uris": {"android": "https://dc.lft.to/lastmile_qr_scan", "ios": "https://dc.lft.to/lastmile_qr_scan"}, "fusion_lon": 0.0, "lat": 38.95731466666667, "bike_id": "a6d2044240913db800e427fb7595f4cd", "type": "electric_scooter", "is_reserved": 0, "lon": -77.02402916666666}, {"fusion_lat": 0.0, "name": "8a7411a41a20858e0dc44d5a2fe8c492", "is_disabled": 0, "rental_uris": {"android": "https://dc.lft.to/lastmile_qr_scan", "ios": "https://dc.lft.to/lastmile_qr_scan"}, "fusion_lon": 0.0, "lat": 38.9097195, "bike_id": "8a7411a41a20858e0dc44d5a2fe8c492", "type": "electric_scooter", "is_reserved": 0, "lon": -77.0089295}, {"fusion_lat": 0.0, "name": "5d7066709602a233108ddcceb7898ff2", "is_disabled": 0, "rental_uris": {"android": "https://dc.lft.to/lastmile_qr_scan", "ios": "https://dc.lft.to/lastmile_qr_scan"}, "fusion_lon": 0.0, "lat": 38.9022575, "bike_id": "5d7066709602a233108ddcceb7898ff2", "type": "electric_scooter", "is_reserved": 0, "lon": -77.04549216666666}, {"fusion_lat": 0.0, "name": "049d64a0a1a1848459348ad146c87a45", "is_disabled": 0, "rental_uris": {"android": "https://dc.lft.to/lastmile_qr_scan", "ios": "https://dc.lft.to/lastmile_qr_scan"}, "fusion_lon": 0.0, "lat": 38.9161495, "bike_id": "049d64a0a1a1848459348ad146c87a45", "type": "electric_scooter", "is_reserved": 0, "lon": -77.01119616666666}, {"fusion_lat": 0.0, "name": "ec0996332c9b1c529582ae7f3db23183", "is_disabled": 0, "rental_uris": {"android": "https://dc.lft.to/lastmile_qr_scan", "ios": "https://dc.lft.to/lastmile_qr_scan"}, "fusion_lon": 0.0, "lat": 38.9092925, "bike_id": "ec0996332c9b1c529582ae7f3db23183", "type": "electric_scooter", "is_reserved": 0, "lon": -77.04579583333333}, {"fusion_lat": 0.0, "name": "cf83218720f2ac9150c276860383d2c7", "is_disabled": 0, "rental_uris": {"android": "https://dc.lft.to/lastmile_qr_scan", "ios": "https://dc.lft.to/lastmile_qr_scan"}, "fusion_lon": 0.0, "lat": 38.90403833333333, "bike_id": "cf83218720f2ac9150c276860383d2c7", "type": "electric_scooter", "is_reserved": 0, "lon": -77.06771333333333}, {"fusion_lat": 0.0, "name": "4835162f5a8cda9464c75932cd3d2288", "is_disabled": 0, "rental_uris": {"android": "https://dc.lft.to/lastmile_qr_scan", "ios": "https://dc.lft.to/lastmile_qr_scan"}, "fusion_lon": 0.0, "lat": 38.9073075, "bike_id": "4835162f5a8cda9464c75932cd3d2288", "type": "electric_scooter", "is_reserved": 0, "lon": -77.04347783333333}, {"fusion_lat": 0.0, "name": "b4177b69fb03e05b2f3d6509855db827", "is_disabled": 0, "rental_uris": {"android": "https://dc.lft.to/lastmile_qr_scan", "ios": "https://dc.lft.to/lastmile_qr_scan"}, "fusion_lon": 0.0, "lat": 38.9112695, "bike_id": "b4177b69fb03e05b2f3d6509855db827", "type": "electric_scooter", "is_reserved": 0, "lon": -77.02197116666666}, {"fusion_lat": 0.0, "name": "407307c4c0165fa15e8eb919421b596c", "is_disabled": 0, "rental_uris": {"android": "https://dc.lft.to/lastmile_qr_scan", "ios": "https://dc.lft.to/lastmile_qr_scan"}, "fusion_lon": 0.0, "lat": 38.88717116666667, "bike_id": "407307c4c0165fa15e8eb919421b596c", "type": "electric_scooter", "is_reserved": 0, "lon": -77.0220695}, {"fusion_lat": 0.0, "name": "e09a9c2e82701e0c9271537a007bbfea", "is_disabled": 0, "rental_uris": {"android": "https://dc.lft.to/lastmile_qr_scan", "ios": "https://dc.lft.to/lastmile_qr_scan"}, "fusion_lon": 0.0, "lat": 38.8987345, "bike_id": "e09a9c2e82701e0c9271537a007bbfea", "type": "electric_scooter", "is_reserved": 0, "lon": -77.02181766666666}, {"fusion_lat": 0.0, "name": "b14bb7e8401898c69fa370a2dce4c372", "is_disabled": 0, "rental_uris": {"android": "https://dc.lft.to/lastmile_qr_scan", "ios": "https://dc.lft.to/lastmile_qr_scan"}, "fusion_lon": 0.0, "lat": 38.898316, "bike_id": "b14bb7e8401898c69fa370a2dce4c372", "type": "electric_scooter", "is_reserved": 0, "lon": -77.02713116666666}, {"fusion_lat": 0.0, "name": "03d7967bc05484f76a78dfc5fc07df53", "is_disabled": 0, "rental_uris": {"android": "https://dc.lft.to/lastmile_qr_scan", "ios": "https://dc.lft.to/lastmile_qr_scan"}, "fusion_lon": 0.0, "lat": 38.89827533333333, "bike_id": "03d7967bc05484f76a78dfc5fc07df53", "type": "electric_scooter", "is_reserved": 0, "lon": -77.02431233333333}, {"fusion_lat": 0.0, "name": "ec1bdb935e15c3c9fc640ec640e2b433", "is_disabled": 0, "rental_uris": {"android": "https://dc.lft.to/lastmile_qr_scan", "ios": "https://dc.lft.to/lastmile_qr_scan"}, "fusion_lon": 0.0, "lat": 38.91713566666667, "bike_id": "ec1bdb935e15c3c9fc640ec640e2b433", "type": "electric_scooter", "is_reserved": 0, "lon": -77.03224383333334}, {"fusion_lat": 0.0, "name": "f6e3867645ca023aae1f83e249617ade", "is_disabled": 0, "rental_uris": {"android": "https://dc.lft.to/lastmile_qr_scan", "ios": "https://dc.lft.to/lastmile_qr_scan"}, "fusion_lon": 0.0, "lat": 38.8860885, "bike_id": "f6e3867645ca023aae1f83e249617ade", "type": "electric_scooter", "is_reserved": 0, "lon": -77.015578}, {"fusion_lat": 0.0, "name": "0ef96b7cde32ec5fbc8a819afa8fa730", "is_disabled": 0, "rental_uris": {"android": "https://dc.lft.to/lastmile_qr_scan", "ios": "https://dc.lft.to/lastmile_qr_scan"}, "fusion_lon": 0.0, "lat": 38.91661233333333, "bike_id": "0ef96b7cde32ec5fbc8a819afa8fa730", "type": "electric_scooter", "is_reserved": 0, "lon": -77.03854633333333}, {"fusion_lat": 0.0, "name": "428f2087aeea902b7800454b4ba14e06", "is_disabled": 0, "rental_uris": {"android": "https://dc.lft.to/lastmile_qr_scan", "ios": "https://dc.lft.to/lastmile_qr_scan"}, "fusion_lon": 0.0, "lat": 38.902454166666665, "bike_id": "428f2087aeea902b7800454b4ba14e06", "type": "electric_bike", "is_reserved": 0, "lon": -77.03747233333333}, {"fusion_lat": 0.0, "name": "e892e9e29302aa10cdd6608217b59447", "is_disabled": 0, "rental_uris": {"android": "https://dc.lft.to/lastmile_qr_scan", "ios": "https://dc.lft.to/lastmile_qr_scan"}, "fusion_lon": 0.0, "lat": 38.89231266666667, "bike_id": "e892e9e29302aa10cdd6608217b59447", "type": "electric_scooter", "is_reserved": 0, "lon": -77.01713966666667}, {"fusion_lat": 0.0, "name": "2e49661da647b43a1a87e9765b472731", "is_disabled": 0, "rental_uris": {"android": "https://dc.lft.to/lastmile_qr_scan", "ios": "https://dc.lft.to/lastmile_qr_scan"}, "fusion_lon": 0.0, "lat": 38.854601, "bike_id": "2e49661da647b43a1a87e9765b472731", "type": "electric_scooter", "is_reserved": 0, "lon": -76.9722385}, {"fusion_lat": 0.0, "name": "3e9b4367a0b174f21fead54ddb1ab5e2", "is_disabled": 0, "rental_uris": {"android": "https://dc.lft.to/lastmile_qr_scan", "ios": "https://dc.lft.to/lastmile_qr_scan"}, "fusion_lon": 0.0, "lat": 38.8963845, "bike_id": "3e9b4367a0b174f21fead54ddb1ab5e2", "type": "electric_scooter", "is_reserved": 0, "lon": -77.009219}, {"fusion_lat": 0.0, "name": "58f3ce2f21d7609e39877be29625bbed", "is_disabled": 0, "rental_uris": {"android": "https://dc.lft.to/lastmile_qr_scan", "ios": "https://dc.lft.to/lastmile_qr_scan"}, "fusion_lon": 0.0, "lat": 38.90977783333334, "bike_id": "58f3ce2f21d7609e39877be29625bbed", "type": "electric_scooter", "is_reserved": 0, "lon": -77.00900416666667}, {"fusion_lat": 0.0, "name": "5071fe28eef98862dd777a2fb32eb143", "is_disabled": 0, "rental_uris": {"android": "https://dc.lft.to/lastmile_qr_scan", "ios": "https://dc.lft.to/lastmile_qr_scan"}, "fusion_lon": 0.0, "lat": 38.873772333333335, "bike_id": "5071fe28eef98862dd777a2fb32eb143", "type": "electric_scooter", "is_reserved": 0, "lon": -77.00093}, {"fusion_lat": 0.0, "name": "06c4581986186ad78886fdfcf269505f", "is_disabled": 0, "rental_uris": {"android": "https://dc.lft.to/lastmile_qr_scan", "ios": "https://dc.lft.to/lastmile_qr_scan"}, "fusion_lon": 0.0, "lat": 38.88484783333333, "bike_id": "06c4581986186ad78886fdfcf269505f", "type": "electric_scooter", "is_reserved": 0, "lon": -76.99599466666666}, {"fusion_lat": 0.0, "name": "b801d9a542963ed854409f32afb573e4", "is_disabled": 0, "rental_uris": {"android": "https://dc.lft.to/lastmile_qr_scan", "ios": "https://dc.lft.to/lastmile_qr_scan"}, "fusion_lon": 0.0, "lat": 38.963685, "bike_id": "b801d9a542963ed854409f32afb573e4", "type": "electric_scooter", "is_reserved": 0, "lon": -77.02049216666667}, {"fusion_lat": 0.0, "name": "fd6596c0dba3fe0b5e15a486e3d95c27", "is_disabled": 0, "rental_uris": {"android": "https://dc.lft.to/lastmile_qr_scan", "ios": "https://dc.lft.to/lastmile_qr_scan"}, "fusion_lon": 0.0, "lat": 38.92852233333333, "bike_id": "fd6596c0dba3fe0b5e15a486e3d95c27", "type": "electric_scooter", "is_reserved": 0, "lon": -77.02439416666667}, {"fusion_lat": 0.0, "name": "4abe2867baff1fd06044aac7bcad483e", "is_disabled": 0, "rental_uris": {"android": "https://dc.lft.to/lastmile_qr_scan", "ios": "https://dc.lft.to/lastmile_qr_scan"}, "fusion_lon": 0.0, "lat": 38.9213355, "bike_id": "4abe2867baff1fd06044aac7bcad483e", "type": "electric_scooter", "is_reserved": 0, "lon": -77.0095775}, {"fusion_lat": 0.0, "name": "8adbf62c5801a1f532fab2a2f8c502e2", "is_disabled": 0, "rental_uris": {"android": "https://dc.lft.to/lastmile_qr_scan", "ios": "https://dc.lft.to/lastmile_qr_scan"}, "fusion_lon": 0.0, "lat": 38.887681666666666, "bike_id": "8adbf62c5801a1f532fab2a2f8c502e2", "type": "electric_scooter", "is_reserved": 0, "lon": -76.97748466666667}, {"fusion_lat": 0.0, "name": "8861ee9918a6b88e1ef3a168cc888af1", "is_disabled": 0, "rental_uris": {"android": "https://dc.lft.to/lastmile_qr_scan", "ios": "https://dc.lft.to/lastmile_qr_scan"}, "fusion_lon": 0.0, "lat": 38.877245, "bike_id": "8861ee9918a6b88e1ef3a168cc888af1", "type": "electric_scooter", "is_reserved": 0, "lon": -77.01762466666666}, {"fusion_lat": 0.0, "name": "ac7568dd3f19685621e60158107a92fb", "is_disabled": 0, "rental_uris": {"android": "https://dc.lft.to/lastmile_qr_scan", "ios": "https://dc.lft.to/lastmile_qr_scan"}, "fusion_lon": 0.0, "lat": 38.87111683333333, "bike_id": "ac7568dd3f19685621e60158107a92fb", "type": "electric_scooter", "is_reserved": 0, "lon": -76.9658875}, {"fusion_lat": 0.0, "name": "b7cbfc6b771bf064de7b1098e66bae83", "is_disabled": 0, "rental_uris": {"android": "https://dc.lft.to/lastmile_qr_scan", "ios": "https://dc.lft.to/lastmile_qr_scan"}, "fusion_lon": 0.0, "lat": 38.917014333333334, "bike_id": "b7cbfc6b771bf064de7b1098e66bae83", "type": "electric_scooter", "is_reserved": 0, "lon": -77.028887}, {"fusion_lat": 0.0, "name": "806a1c5b2fc2cce0b1f871b56cc2bf08", "is_disabled": 0, "rental_uris": {"android": "https://dc.lft.to/lastmile_qr_scan", "ios": "https://dc.lft.to/lastmile_qr_scan"}, "fusion_lon": 0.0, "lat": 38.91666566666667, "bike_id": "806a1c5b2fc2cce0b1f871b56cc2bf08", "type": "electric_scooter", "is_reserved": 0, "lon": -77.03460933333334}, {"fusion_lat": 0.0, "name": "791fdfe8690c69bacddc123fb59d0a26", "is_disabled": 0, "rental_uris": {"android": "https://dc.lft.to/lastmile_qr_scan", "ios": "https://dc.lft.to/lastmile_qr_scan"}, "fusion_lon": 0.0, "lat": 38.9405105, "bike_id": "791fdfe8690c69bacddc123fb59d0a26", "type": "electric_bike", "is_reserved": 0, "lon": -76.904226}, {"fusion_lat": 0.0, "name": "bb2577d44403a62f71fce1618cbd4aeb", "is_disabled": 0, "rental_uris": {"android": "https://dc.lft.to/lastmile_qr_scan", "ios": "https://dc.lft.to/lastmile_qr_scan"}, "fusion_lon": 0.0, "lat": 38.887387333333336, "bike_id": "bb2577d44403a62f71fce1618cbd4aeb", "type": "electric_scooter", "is_reserved": 0, "lon": -77.01473566666667}, {"fusion_lat": 0.0, "name": "5b201f1d2de45a1fab28f0db53ac87e5", "is_disabled": 0, "rental_uris": {"android": "https://dc.lft.to/lastmile_qr_scan", "ios": "https://dc.lft.to/lastmile_qr_scan"}, "fusion_lon": 0.0, "lat": 38.902266, "bike_id": "5b201f1d2de45a1fab28f0db53ac87e5", "type": "electric_scooter", "is_reserved": 0, "lon": -77.0445835}, {"fusion_lat": 0.0, "name": "bb95809f29cefed5164d1ce29af85d59", "is_disabled": 0, "rental_uris": {"android": "https://dc.lft.to/lastmile_qr_scan", "ios": "https://dc.lft.to/lastmile_qr_scan"}, "fusion_lon": 0.0, "lat": 38.994409166666664, "bike_id": "bb95809f29cefed5164d1ce29af85d59", "type": "electric_bike", "is_reserved": 0, "lon": -76.995912}, {"fusion_lat": 0.0, "name": "7d480725f1ee993d8dd7fded13838079", "is_disabled": 0, "rental_uris": {"android": "https://dc.lft.to/lastmile_qr_scan", "ios": "https://dc.lft.to/lastmile_qr_scan"}, "fusion_lon": 0.0, "lat": 38.98668766666667, "bike_id": "7d480725f1ee993d8dd7fded13838079", "type": "electric_bike", "is_reserved": 0, "lon": -77.00002366666666}, {"fusion_lat": 0.0, "name": "de998dc9b212dd763986bb0479395118", "is_disabled": 0, "rental_uris": {"android": "https://dc.lft.to/lastmile_qr_scan", "ios": "https://dc.lft.to/lastmile_qr_scan"}, "fusion_lon": 0.0, "lat": 38.9354785, "bike_id": "de998dc9b212dd763986bb0479395118", "type": "electric_scooter", "is_reserved": 0, "lon": -77.03267233333334}, {"fusion_lat": 0.0, "name": "8d0287788bd874f75f96b2d2a94bbaec", "is_disabled": 0, "rental_uris": {"android": "https://dc.lft.to/lastmile_qr_scan", "ios": "https://dc.lft.to/lastmile_qr_scan"}, "fusion_lon": 0.0, "lat": 38.91693566666667, "bike_id": "8d0287788bd874f75f96b2d2a94bbaec", "type": "electric_scooter", "is_reserved": 0, "lon": -77.0251865}, {"fusion_lat": 0.0, "name": "ad793f9d7b02f72953aa4097b4ba49f0", "is_disabled": 0, "rental_uris": {"android": "https://dc.lft.to/lastmile_qr_scan", "ios": "https://dc.lft.to/lastmile_qr_scan"}, "fusion_lon": 0.0, "lat": 38.90807183333333, "bike_id": "ad793f9d7b02f72953aa4097b4ba49f0", "type": "electric_scooter", "is_reserved": 0, "lon": -77.03393616666666}, {"fusion_lat": 0.0, "name": "bfa0cb6c45001ba2bf3a1bbdb13180bf", "is_disabled": 0, "rental_uris": {"android": "https://dc.lft.to/lastmile_qr_scan", "ios": "https://dc.lft.to/lastmile_qr_scan"}, "fusion_lon": 0.0, "lat": 38.89904683333334, "bike_id": "bfa0cb6c45001ba2bf3a1bbdb13180bf", "type": "electric_scooter", "is_reserved": 0, "lon": -77.03286716666666}, {"fusion_lat": 0.0, "name": "821fa9723239a55f9ff9282e7e8e4096", "is_disabled": 0, "rental_uris": {"android": "https://dc.lft.to/lastmile_qr_scan", "ios": "https://dc.lft.to/lastmile_qr_scan"}, "fusion_lon": 0.0, "lat": 38.935226, "bike_id": "821fa9723239a55f9ff9282e7e8e4096", "type": "electric_scooter", "is_reserved": 0, "lon": -77.07294616666667}, {"fusion_lat": 0.0, "name": "9af9858911f5cb42ee941daf57efd53a", "is_disabled": 0, "rental_uris": {"android": "https://dc.lft.to/lastmile_qr_scan", "ios": "https://dc.lft.to/lastmile_qr_scan"}, "fusion_lon": 0.0, "lat": 38.922575333333334, "bike_id": "9af9858911f5cb42ee941daf57efd53a", "type": "electric_scooter", "is_reserved": 0, "lon": -77.01844316666667}, {"fusion_lat": 0.0, "name": "94e632c921b1c15c4be8c72039a88d85", "is_disabled": 0, "rental_uris": {"android": "https://dc.lft.to/lastmile_qr_scan", "ios": "https://dc.lft.to/lastmile_qr_scan"}, "fusion_lon": 0.0, "lat": 38.8613955, "bike_id": "94e632c921b1c15c4be8c72039a88d85", "type": "electric_bike", "is_reserved": 0, "lon": -76.971713}, {"fusion_lat": 0.0, "name": "294fa7b81e670d18b27c2812d076b9db", "is_disabled": 0, "rental_uris": {"android": "https://dc.lft.to/lastmile_qr_scan", "ios": "https://dc.lft.to/lastmile_qr_scan"}, "fusion_lon": 0.0, "lat": 38.94293416666667, "bike_id": "294fa7b81e670d18b27c2812d076b9db", "type": "electric_scooter", "is_reserved": 0, "lon": -77.0217005}, {"fusion_lat": 0.0, "name": "617e830d8b75ab5ee0c52649ebf9951c", "is_disabled": 0, "rental_uris": {"android": "https://dc.lft.to/lastmile_qr_scan", "ios": "https://dc.lft.to/lastmile_qr_scan"}, "fusion_lon": 0.0, "lat": 38.924242666666665, "bike_id": "617e830d8b75ab5ee0c52649ebf9951c", "type": "electric_scooter", "is_reserved": 0, "lon": -77.020166}, {"fusion_lat": 0.0, "name": "2378cf4ca47d0fd03cb6101bc49e5f4a", "is_disabled": 0, "rental_uris": {"android": "https://dc.lft.to/lastmile_qr_scan", "ios": "https://dc.lft.to/lastmile_qr_scan"}, "fusion_lon": 0.0, "lat": 38.905015, "bike_id": "2378cf4ca47d0fd03cb6101bc49e5f4a", "type": "electric_scooter", "is_reserved": 0, "lon": -76.9795815}, {"fusion_lat": 0.0, "name": "667ffc1ac6e0fa078f5a301bc0463afd", "is_disabled": 0, "rental_uris": {"android": "https://dc.lft.to/lastmile_qr_scan", "ios": "https://dc.lft.to/lastmile_qr_scan"}, "fusion_lon": 0.0, "lat": 38.900392, "bike_id": "667ffc1ac6e0fa078f5a301bc0463afd", "type": "electric_scooter", "is_reserved": 0, "lon": -76.99266416666667}, {"fusion_lat": 0.0, "name": "17d6f96bfd5c6eb6fc3b2cf7c494c005", "is_disabled": 0, "rental_uris": {"android": "https://dc.lft.to/lastmile_qr_scan", "ios": "https://dc.lft.to/lastmile_qr_scan"}, "fusion_lon": 0.0, "lat": 38.91177866666666, "bike_id": "17d6f96bfd5c6eb6fc3b2cf7c494c005", "type": "electric_scooter", "is_reserved": 0, "lon": -77.06861816666667}, {"fusion_lat": 0.0, "name": "e53d39e7c02c06039aa445a9cf3db237", "is_disabled": 0, "rental_uris": {"android": "https://dc.lft.to/lastmile_qr_scan", "ios": "https://dc.lft.to/lastmile_qr_scan"}, "fusion_lon": 0.0, "lat": 38.92662116666666, "bike_id": "e53d39e7c02c06039aa445a9cf3db237", "type": "electric_scooter", "is_reserved": 0, "lon": -77.024253}, {"fusion_lat": 0.0, "name": "3bf46c827ac02ea00c0561d1eca7f686", "is_disabled": 0, "rental_uris": {"android": "https://dc.lft.to/lastmile_qr_scan", "ios": "https://dc.lft.to/lastmile_qr_scan"}, "fusion_lon": 0.0, "lat": 38.90812866666667, "bike_id": "3bf46c827ac02ea00c0561d1eca7f686", "type": "electric_scooter", "is_reserved": 0, "lon": -77.03427383333333}, {"fusion_lat": 0.0, "name": "22e55757fb24ad1a65e297aa0819713d", "is_disabled": 0, "rental_uris": {"android": "https://dc.lft.to/lastmile_qr_scan", "ios": "https://dc.lft.to/lastmile_qr_scan"}, "fusion_lon": 0.0, "lat": 38.8989995, "bike_id": "22e55757fb24ad1a65e297aa0819713d", "type": "electric_scooter", "is_reserved": 0, "lon": -76.9761575}, {"fusion_lat": 0.0, "name": "4241b084d25a4e88794f4cda8375a410", "is_disabled": 0, "rental_uris": {"android": "https://dc.lft.to/lastmile_qr_scan", "ios": "https://dc.lft.to/lastmile_qr_scan"}, "fusion_lon": 0.0, "lat": 38.937304833333336, "bike_id": "4241b084d25a4e88794f4cda8375a410", "type": "electric_scooter", "is_reserved": 0, "lon": -77.01921916666667}, {"fusion_lat": 0.0, "name": "43f52e2b507cf7a277ee8727cbb1a632", "is_disabled": 0, "rental_uris": {"android": "https://dc.lft.to/lastmile_qr_scan", "ios": "https://dc.lft.to/lastmile_qr_scan"}, "fusion_lon": 0.0, "lat": 38.9126535, "bike_id": "43f52e2b507cf7a277ee8727cbb1a632", "type": "electric_scooter", "is_reserved": 0, "lon": -77.03143766666666}, {"fusion_lat": 0.0, "name": "a31548109955de2722e7e454185db23b", "is_disabled": 0, "rental_uris": {"android": "https://dc.lft.to/lastmile_qr_scan", "ios": "https://dc.lft.to/lastmile_qr_scan"}, "fusion_lon": 0.0, "lat": 38.87182266666667, "bike_id": "a31548109955de2722e7e454185db23b", "type": "electric_scooter", "is_reserved": 0, "lon": -77.00617816666667}, {"fusion_lat": 0.0, "name": "d1b2192dba0c627d9721bf4c74a1514f", "is_disabled": 0, "rental_uris": {"android": "https://dc.lft.to/lastmile_qr_scan", "ios": "https://dc.lft.to/lastmile_qr_scan"}, "fusion_lon": 0.0, "lat": 38.92912283333333, "bike_id": "d1b2192dba0c627d9721bf4c74a1514f", "type": "electric_scooter", "is_reserved": 0, "lon": -77.03284366666666}, {"fusion_lat": 0.0, "name": "8e67f533f78a195f7088d965af7332e6", "is_disabled": 0, "rental_uris": {"android": "https://dc.lft.to/lastmile_qr_scan", "ios": "https://dc.lft.to/lastmile_qr_scan"}, "fusion_lon": 0.0, "lat": 38.930647, "bike_id": "8e67f533f78a195f7088d965af7332e6", "type": "electric_scooter", "is_reserved": 0, "lon": -77.02973183333333}, {"fusion_lat": 0.0, "name": "5ac3ba9d7d194a1d0ca05206130e6499", "is_disabled": 0, "rental_uris": {"android": "https://dc.lft.to/lastmile_qr_scan", "ios": "https://dc.lft.to/lastmile_qr_scan"}, "fusion_lon": 0.0, "lat": 38.93524166666667, "bike_id": "5ac3ba9d7d194a1d0ca05206130e6499", "type": "electric_scooter", "is_reserved": 0, "lon": -77.0308265}, {"fusion_lat": 0.0, "name": "46346b9cb88975970359b3ae7b083183", "is_disabled": 0, "rental_uris": {"android": "https://dc.lft.to/lastmile_qr_scan", "ios": "https://dc.lft.to/lastmile_qr_scan"}, "fusion_lon": 0.0, "lat": 38.9318005, "bike_id": "46346b9cb88975970359b3ae7b083183", "type": "electric_scooter", "is_reserved": 0, "lon": -77.04294066666667}, {"fusion_lat": 0.0, "name": "7721b10acce268823001946e65b98686", "is_disabled": 0, "rental_uris": {"android": "https://dc.lft.to/lastmile_qr_scan", "ios": "https://dc.lft.to/lastmile_qr_scan"}, "fusion_lon": 0.0, "lat": 38.9313865, "bike_id": "7721b10acce268823001946e65b98686", "type": "electric_scooter", "is_reserved": 0, "lon": -77.0383095}, {"fusion_lat": 0.0, "name": "f07124db30d18e8a95c16e21c1774fcb", "is_disabled": 0, "rental_uris": {"android": "https://dc.lft.to/lastmile_qr_scan", "ios": "https://dc.lft.to/lastmile_qr_scan"}, "fusion_lon": 0.0, "lat": 38.9304685, "bike_id": "f07124db30d18e8a95c16e21c1774fcb", "type": "electric_scooter", "is_reserved": 0, "lon": -77.03612383333333}, {"fusion_lat": 0.0, "name": "5b012d6dc060c31d47cf8cd3d645de47", "is_disabled": 0, "rental_uris": {"android": "https://dc.lft.to/lastmile_qr_scan", "ios": "https://dc.lft.to/lastmile_qr_scan"}, "fusion_lon": 0.0, "lat": 38.857982166666666, "bike_id": "5b012d6dc060c31d47cf8cd3d645de47", "type": "electric_bike", "is_reserved": 0, "lon": -77.12017183333333}, {"fusion_lat": 0.0, "name": "5cd9dd27e96a9f1775c6fce6553b1e2d", "is_disabled": 0, "rental_uris": {"android": "https://dc.lft.to/lastmile_qr_scan", "ios": "https://dc.lft.to/lastmile_qr_scan"}, "fusion_lon": 0.0, "lat": 38.9031675, "bike_id": "5cd9dd27e96a9f1775c6fce6553b1e2d", "type": "electric_scooter", "is_reserved": 0, "lon": -77.06517816666667}, {"fusion_lat": 0.0, "name": "317d35b11fedb06b9aa0237e51bc42e1", "is_disabled": 0, "rental_uris": {"android": "https://dc.lft.to/lastmile_qr_scan", "ios": "https://dc.lft.to/lastmile_qr_scan"}, "fusion_lon": 0.0, "lat": 38.94205983333333, "bike_id": "317d35b11fedb06b9aa0237e51bc42e1", "type": "electric_bike", "is_reserved": 0, "lon": -77.01834633333333}, {"fusion_lat": 0.0, "name": "a6873dd21da9b241528432f16257257d", "is_disabled": 0, "rental_uris": {"android": "https://dc.lft.to/lastmile_qr_scan", "ios": "https://dc.lft.to/lastmile_qr_scan"}, "fusion_lon": 0.0, "lat": 38.905622666666666, "bike_id": "a6873dd21da9b241528432f16257257d", "type": "electric_scooter", "is_reserved": 0, "lon": -77.01312483333334}, {"fusion_lat": 0.0, "name": "f4acc66dab56f6061b4b44c72c0f9289", "is_disabled": 0, "rental_uris": {"android": "https://dc.lft.to/lastmile_qr_scan", "ios": "https://dc.lft.to/lastmile_qr_scan"}, "fusion_lon": 0.0, "lat": 38.9042125, "bike_id": "f4acc66dab56f6061b4b44c72c0f9289", "type": "electric_scooter", "is_reserved": 0, "lon": -77.026666}, {"fusion_lat": 0.0, "name": "b28bfb846139ed5df22163741523198c", "is_disabled": 0, "rental_uris": {"android": "https://dc.lft.to/lastmile_qr_scan", "ios": "https://dc.lft.to/lastmile_qr_scan"}, "fusion_lon": 0.0, "lat": 38.849135833333335, "bike_id": "b28bfb846139ed5df22163741523198c", "type": "electric_bike", "is_reserved": 0, "lon": -77.07927283333333}, {"fusion_lat": 0.0, "name": "dd7208298584aededadbf18965728b86", "is_disabled": 0, "rental_uris": {"android": "https://dc.lft.to/lastmile_qr_scan", "ios": "https://dc.lft.to/lastmile_qr_scan"}, "fusion_lon": 0.0, "lat": 38.816106, "bike_id": "dd7208298584aededadbf18965728b86", "type": "electric_bike", "is_reserved": 0, "lon": -76.99658483333333}, {"fusion_lat": 0.0, "name": "13db0de1b444c93996b4e2064df3f62f", "is_disabled": 0, "rental_uris": {"android": "https://dc.lft.to/lastmile_qr_scan", "ios": "https://dc.lft.to/lastmile_qr_scan"}, "fusion_lon": 0.0, "lat": 38.8871715, "bike_id": "13db0de1b444c93996b4e2064df3f62f", "type": "electric_scooter", "is_reserved": 0, "lon": -77.02208}, {"fusion_lat": 0.0, "name": "be74cb70546a4c3e09172f6ebe8cd186", "is_disabled": 0, "rental_uris": {"android": "https://dc.lft.to/lastmile_qr_scan", "ios": "https://dc.lft.to/lastmile_qr_scan"}, "fusion_lon": 0.0, "lat": 38.927048, "bike_id": "be74cb70546a4c3e09172f6ebe8cd186", "type": "electric_scooter", "is_reserved": 0, "lon": -77.02079216666667}, {"fusion_lat": 0.0, "name": "16423bf0944cc7fa12771195f7e9b806", "is_disabled": 0, "rental_uris": {"android": "https://dc.lft.to/lastmile_qr_scan", "ios": "https://dc.lft.to/lastmile_qr_scan"}, "fusion_lon": 0.0, "lat": 39.014173, "bike_id": "16423bf0944cc7fa12771195f7e9b806", "type": "electric_bike", "is_reserved": 0, "lon": -77.0449535}, {"fusion_lat": 0.0, "name": "2f301612c21f05dd54724ac6dd2250b0", "is_disabled": 0, "rental_uris": {"android": "https://dc.lft.to/lastmile_qr_scan", "ios": "https://dc.lft.to/lastmile_qr_scan"}, "fusion_lon": 0.0, "lat": 38.9006085, "bike_id": "2f301612c21f05dd54724ac6dd2250b0", "type": "electric_scooter", "is_reserved": 0, "lon": -76.987181}, {"fusion_lat": 0.0, "name": "29ee265b0d781985d18da0fc5308b394", "is_disabled": 0, "rental_uris": {"android": "https://dc.lft.to/lastmile_qr_scan", "ios": "https://dc.lft.to/lastmile_qr_scan"}, "fusion_lon": 0.0, "lat": 38.88503716666666, "bike_id": "29ee265b0d781985d18da0fc5308b394", "type": "electric_scooter", "is_reserved": 0, "lon": -76.99754083333333}, {"fusion_lat": 0.0, "name": "b6bb9c4f3544cada838a772104704195", "is_disabled": 0, "rental_uris": {"android": "https://dc.lft.to/lastmile_qr_scan", "ios": "https://dc.lft.to/lastmile_qr_scan"}, "fusion_lon": 0.0, "lat": 38.93179583333333, "bike_id": "b6bb9c4f3544cada838a772104704195", "type": "electric_scooter", "is_reserved": 0, "lon": -77.02962016666666}, {"fusion_lat": 0.0, "name": "b6c2aa2a3cc2c0e678fded314270de83", "is_disabled": 0, "rental_uris": {"android": "https://dc.lft.to/lastmile_qr_scan", "ios": "https://dc.lft.to/lastmile_qr_scan"}, "fusion_lon": 0.0, "lat": 38.90603333333333, "bike_id": "b6c2aa2a3cc2c0e678fded314270de83", "type": "electric_scooter", "is_reserved": 0, "lon": -77.04495833333333}, {"fusion_lat": 0.0, "name": "682c3fe7fc9cb8ef116e7c5f325a4fc6", "is_disabled": 0, "rental_uris": {"android": "https://dc.lft.to/lastmile_qr_scan", "ios": "https://dc.lft.to/lastmile_qr_scan"}, "fusion_lon": 0.0, "lat": 38.8908965, "bike_id": "682c3fe7fc9cb8ef116e7c5f325a4fc6", "type": "electric_scooter", "is_reserved": 0, "lon": -76.9193015}, {"fusion_lat": 0.0, "name": "0b519592629b16894dc235f83c2ff788", "is_disabled": 0, "rental_uris": {"android": "https://dc.lft.to/lastmile_qr_scan", "ios": "https://dc.lft.to/lastmile_qr_scan"}, "fusion_lon": 0.0, "lat": 38.93813983333333, "bike_id": "0b519592629b16894dc235f83c2ff788", "type": "electric_scooter", "is_reserved": 0, "lon": -76.99691766666666}, {"fusion_lat": 0.0, "name": "e90e5bfd5dce7ed62733f8992192d0b2", "is_disabled": 0, "rental_uris": {"android": "https://dc.lft.to/lastmile_qr_scan", "ios": "https://dc.lft.to/lastmile_qr_scan"}, "fusion_lon": 0.0, "lat": 38.798530666666665, "bike_id": "e90e5bfd5dce7ed62733f8992192d0b2", "type": "electric_bike", "is_reserved": 0, "lon": -77.063085}, {"fusion_lat": 0.0, "name": "82520114a1aa8bc8fcd54a966fb4f891", "is_disabled": 0, "rental_uris": {"android": "https://dc.lft.to/lastmile_qr_scan", "ios": "https://dc.lft.to/lastmile_qr_scan"}, "fusion_lon": 0.0, "lat": 38.926127666666666, "bike_id": "82520114a1aa8bc8fcd54a966fb4f891", "type": "electric_scooter", "is_reserved": 0, "lon": -77.02162583333333}, {"fusion_lat": 0.0, "name": "71b0ed402595e4fabb8f4ea04605e747", "is_disabled": 0, "rental_uris": {"android": "https://dc.lft.to/lastmile_qr_scan", "ios": "https://dc.lft.to/lastmile_qr_scan"}, "fusion_lon": 0.0, "lat": 38.905013, "bike_id": "71b0ed402595e4fabb8f4ea04605e747", "type": "electric_scooter", "is_reserved": 0, "lon": -77.05691033333333}, {"fusion_lat": 0.0, "name": "ba4eaddad92ef6b54c1becc92fa2feae", "is_disabled": 0, "rental_uris": {"android": "https://dc.lft.to/lastmile_qr_scan", "ios": "https://dc.lft.to/lastmile_qr_scan"}, "fusion_lon": 0.0, "lat": 38.932371833333335, "bike_id": "ba4eaddad92ef6b54c1becc92fa2feae", "type": "electric_scooter", "is_reserved": 0, "lon": -77.03427866666667}, {"fusion_lat": 0.0, "name": "02b0072d2e98f72925224b0e9f2d8346", "is_disabled": 0, "rental_uris": {"android": "https://dc.lft.to/lastmile_qr_scan", "ios": "https://dc.lft.to/lastmile_qr_scan"}, "fusion_lon": 0.0, "lat": 38.893383, "bike_id": "02b0072d2e98f72925224b0e9f2d8346", "type": "electric_scooter", "is_reserved": 0, "lon": -77.04678083333333}, {"fusion_lat": 0.0, "name": "7bc6e9df459c34e6c8b7519de033091f", "is_disabled": 0, "rental_uris": {"android": "https://dc.lft.to/lastmile_qr_scan", "ios": "https://dc.lft.to/lastmile_qr_scan"}, "fusion_lon": 0.0, "lat": 38.898558666666666, "bike_id": "7bc6e9df459c34e6c8b7519de033091f", "type": "electric_scooter", "is_reserved": 0, "lon": -76.97663383333334}, {"fusion_lat": 0.0, "name": "f89a8d72a89bcd721f351ea38d8aa186", "is_disabled": 0, "rental_uris": {"android": "https://dc.lft.to/lastmile_qr_scan", "ios": "https://dc.lft.to/lastmile_qr_scan"}, "fusion_lon": 0.0, "lat": 38.944348166666664, "bike_id": "f89a8d72a89bcd721f351ea38d8aa186", "type": "electric_bike", "is_reserved": 0, "lon": -77.026045}, {"fusion_lat": 0.0, "name": "06b94b00b358a90ef32da5f2e7876a6b", "is_disabled": 0, "rental_uris": {"android": "https://dc.lft.to/lastmile_qr_scan", "ios": "https://dc.lft.to/lastmile_qr_scan"}, "fusion_lon": 0.0, "lat": 38.88199266666667, "bike_id": "06b94b00b358a90ef32da5f2e7876a6b", "type": "electric_scooter", "is_reserved": 0, "lon": -77.02862983333333}, {"fusion_lat": 0.0, "name": "0689d801de5ea71ee51831b1bca58983", "is_disabled": 0, "rental_uris": {"android": "https://dc.lft.to/lastmile_qr_scan", "ios": "https://dc.lft.to/lastmile_qr_scan"}, "fusion_lon": 0.0, "lat": 38.90567433333333, "bike_id": "0689d801de5ea71ee51831b1bca58983", "type": "electric_scooter", "is_reserved": 0, "lon": -77.04353433333333}, {"fusion_lat": 0.0, "name": "ef237cbffb87c20d283082644bc55732", "is_disabled": 0, "rental_uris": {"android": "https://dc.lft.to/lastmile_qr_scan", "ios": "https://dc.lft.to/lastmile_qr_scan"}, "fusion_lon": 0.0, "lat": 38.91111766666667, "bike_id": "ef237cbffb87c20d283082644bc55732", "type": "electric_scooter", "is_reserved": 0, "lon": -77.00365566666666}, {"fusion_lat": 0.0, "name": "729d76f265631245ccbe73a8b396aec2", "is_disabled": 0, "rental_uris": {"android": "https://dc.lft.to/lastmile_qr_scan", "ios": "https://dc.lft.to/lastmile_qr_scan"}, "fusion_lon": 0.0, "lat": 38.922532833333335, "bike_id": "729d76f265631245ccbe73a8b396aec2", "type": "electric_scooter", "is_reserved": 0, "lon": -77.01842083333334}, {"fusion_lat": 0.0, "name": "8fb6b4b74a971ff36c32e510c6abebec", "is_disabled": 0, "rental_uris": {"android": "https://dc.lft.to/lastmile_qr_scan", "ios": "https://dc.lft.to/lastmile_qr_scan"}, "fusion_lon": 0.0, "lat": 38.892072166666665, "bike_id": "8fb6b4b74a971ff36c32e510c6abebec", "type": "electric_scooter", "is_reserved": 0, "lon": -76.97705733333333}, {"fusion_lat": 0.0, "name": "3069286a0fa68f6adba2d95d4f5043b1", "is_disabled": 0, "rental_uris": {"android": "https://dc.lft.to/lastmile_qr_scan", "ios": "https://dc.lft.to/lastmile_qr_scan"}, "fusion_lon": 0.0, "lat": 38.9040985, "bike_id": "3069286a0fa68f6adba2d95d4f5043b1", "type": "electric_scooter", "is_reserved": 0, "lon": -76.97329783333333}, {"fusion_lat": 0.0, "name": "3e1ea8995d492ca9eb31928b2c1b6637", "is_disabled": 0, "rental_uris": {"android": "https://dc.lft.to/lastmile_qr_scan", "ios": "https://dc.lft.to/lastmile_qr_scan"}, "fusion_lon": 0.0, "lat": 38.905358666666665, "bike_id": "3e1ea8995d492ca9eb31928b2c1b6637", "type": "electric_scooter", "is_reserved": 0, "lon": -77.056603}, {"fusion_lat": 0.0, "name": "1503cdd022e2e885c46b8f2526650212", "is_disabled": 0, "rental_uris": {"android": "https://dc.lft.to/lastmile_qr_scan", "ios": "https://dc.lft.to/lastmile_qr_scan"}, "fusion_lon": 0.0, "lat": 38.90713133333333, "bike_id": "1503cdd022e2e885c46b8f2526650212", "type": "electric_scooter", "is_reserved": 0, "lon": -77.05133333333333}, {"fusion_lat": 0.0, "name": "61bd9269c09f70fc31bd83b20cbfa976", "is_disabled": 0, "rental_uris": {"android": "https://dc.lft.to/lastmile_qr_scan", "ios": "https://dc.lft.to/lastmile_qr_scan"}, "fusion_lon": 0.0, "lat": 38.8874035, "bike_id": "61bd9269c09f70fc31bd83b20cbfa976", "type": "electric_scooter", "is_reserved": 0, "lon": -77.02206566666666}, {"fusion_lat": 0.0, "name": "58ddae171ade32ba0bfc6abf0eba9c55", "is_disabled": 0, "rental_uris": {"android": "https://dc.lft.to/lastmile_qr_scan", "ios": "https://dc.lft.to/lastmile_qr_scan"}, "fusion_lon": 0.0, "lat": 38.862183, "bike_id": "58ddae171ade32ba0bfc6abf0eba9c55", "type": "electric_bike", "is_reserved": 0, "lon": -76.99568966666666}, {"fusion_lat": 0.0, "name": "fa940759d29645ed3f2806eb6db22af2", "is_disabled": 0, "rental_uris": {"android": "https://dc.lft.to/lastmile_qr_scan", "ios": "https://dc.lft.to/lastmile_qr_scan"}, "fusion_lon": 0.0, "lat": 38.89922466666667, "bike_id": "fa940759d29645ed3f2806eb6db22af2", "type": "electric_scooter", "is_reserved": 0, "lon": -77.04158816666667}, {"fusion_lat": 0.0, "name": "95838a43ee56245fb2a032ead251e2d6", "is_disabled": 0, "rental_uris": {"android": "https://dc.lft.to/lastmile_qr_scan", "ios": "https://dc.lft.to/lastmile_qr_scan"}, "fusion_lon": 0.0, "lat": 38.87765066666667, "bike_id": "95838a43ee56245fb2a032ead251e2d6", "type": "electric_scooter", "is_reserved": 0, "lon": -76.9938235}, {"fusion_lat": 0.0, "name": "e949dc6b96e9be89b38e53d61fb6a8ab", "is_disabled": 0, "rental_uris": {"android": "https://dc.lft.to/lastmile_qr_scan", "ios": "https://dc.lft.to/lastmile_qr_scan"}, "fusion_lon": 0.0, "lat": 38.933027333333335, "bike_id": "e949dc6b96e9be89b38e53d61fb6a8ab", "type": "electric_scooter", "is_reserved": 0, "lon": -77.03102833333334}, {"fusion_lat": 0.0, "name": "0df64303baef8fc3095a793d95fe6fe7", "is_disabled": 0, "rental_uris": {"android": "https://dc.lft.to/lastmile_qr_scan", "ios": "https://dc.lft.to/lastmile_qr_scan"}, "fusion_lon": 0.0, "lat": 38.905810833333334, "bike_id": "0df64303baef8fc3095a793d95fe6fe7", "type": "electric_scooter", "is_reserved": 0, "lon": -77.0386}, {"fusion_lat": 0.0, "name": "83f364cffaa8c1ad0f17cd7d34d34b20", "is_disabled": 0, "rental_uris": {"android": "https://dc.lft.to/lastmile_qr_scan", "ios": "https://dc.lft.to/lastmile_qr_scan"}, "fusion_lon": 0.0, "lat": 38.9002845, "bike_id": "83f364cffaa8c1ad0f17cd7d34d34b20", "type": "electric_scooter", "is_reserved": 0, "lon": -77.0399785}, {"fusion_lat": 0.0, "name": "6832bfcce16d66fd8a6687b33118e5f3", "is_disabled": 0, "rental_uris": {"android": "https://dc.lft.to/lastmile_qr_scan", "ios": "https://dc.lft.to/lastmile_qr_scan"}, "fusion_lon": 0.0, "lat": 38.90036766666667, "bike_id": "6832bfcce16d66fd8a6687b33118e5f3", "type": "electric_bike", "is_reserved": 0, "lon": -76.972262}, {"fusion_lat": 0.0, "name": "94810a5d4dee2826ed09263ccd5f561f", "is_disabled": 0, "rental_uris": {"android": "https://dc.lft.to/lastmile_qr_scan", "ios": "https://dc.lft.to/lastmile_qr_scan"}, "fusion_lon": 0.0, "lat": 38.924749, "bike_id": "94810a5d4dee2826ed09263ccd5f561f", "type": "electric_scooter", "is_reserved": 0, "lon": -77.0227345}, {"fusion_lat": 0.0, "name": "095b52de322316d3d381a8ffe9c47148", "is_disabled": 0, "rental_uris": {"android": "https://dc.lft.to/lastmile_qr_scan", "ios": "https://dc.lft.to/lastmile_qr_scan"}, "fusion_lon": 0.0, "lat": 38.914364, "bike_id": "095b52de322316d3d381a8ffe9c47148", "type": "electric_scooter", "is_reserved": 0, "lon": -76.99355283333334}, {"fusion_lat": 0.0, "name": "75ba3911fbd0d56100ea33349b3a3ab7", "is_disabled": 0, "rental_uris": {"android": "https://dc.lft.to/lastmile_qr_scan", "ios": "https://dc.lft.to/lastmile_qr_scan"}, "fusion_lon": 0.0, "lat": 38.9317035, "bike_id": "75ba3911fbd0d56100ea33349b3a3ab7", "type": "electric_scooter", "is_reserved": 0, "lon": -77.03814983333334}, {"fusion_lat": 0.0, "name": "4020b9c3b1aafd4acf30c5ed5dbd5e3a", "is_disabled": 0, "rental_uris": {"android": "https://dc.lft.to/lastmile_qr_scan", "ios": "https://dc.lft.to/lastmile_qr_scan"}, "fusion_lon": 0.0, "lat": 38.92960683333333, "bike_id": "4020b9c3b1aafd4acf30c5ed5dbd5e3a", "type": "electric_scooter", "is_reserved": 0, "lon": -76.99172433333334}, {"fusion_lat": 0.0, "name": "d3b95dfd8f7494db81d44a5ab5d487cd", "is_disabled": 0, "rental_uris": {"android": "https://dc.lft.to/lastmile_qr_scan", "ios": "https://dc.lft.to/lastmile_qr_scan"}, "fusion_lon": 0.0, "lat": 38.87707183333333, "bike_id": "d3b95dfd8f7494db81d44a5ab5d487cd", "type": "electric_scooter", "is_reserved": 0, "lon": -77.004052}, {"fusion_lat": 0.0, "name": "ce37c477de49d21e43178519797973a5", "is_disabled": 0, "rental_uris": {"android": "https://dc.lft.to/lastmile_qr_scan", "ios": "https://dc.lft.to/lastmile_qr_scan"}, "fusion_lon": 0.0, "lat": 38.96677183333333, "bike_id": "ce37c477de49d21e43178519797973a5", "type": "electric_bike", "is_reserved": 0, "lon": -77.02303416666666}, {"fusion_lat": 0.0, "name": "6944e0c911215f259d72906df78aa312", "is_disabled": 0, "rental_uris": {"android": "https://dc.lft.to/lastmile_qr_scan", "ios": "https://dc.lft.to/lastmile_qr_scan"}, "fusion_lon": 0.0, "lat": 38.9120535, "bike_id": "6944e0c911215f259d72906df78aa312", "type": "electric_scooter", "is_reserved": 0, "lon": -77.03209733333334}, {"fusion_lat": 0.0, "name": "c98287d0c52647c075fc88a1705e6cfc", "is_disabled": 0, "rental_uris": {"android": "https://dc.lft.to/lastmile_qr_scan", "ios": "https://dc.lft.to/lastmile_qr_scan"}, "fusion_lon": 0.0, "lat": 38.83201283333333, "bike_id": "c98287d0c52647c075fc88a1705e6cfc", "type": "electric_bike", "is_reserved": 0, "lon": -76.9967105}, {"fusion_lat": 0.0, "name": "4e61721e851d2c60057741c15905f379", "is_disabled": 0, "rental_uris": {"android": "https://dc.lft.to/lastmile_qr_scan", "ios": "https://dc.lft.to/lastmile_qr_scan"}, "fusion_lon": 0.0, "lat": 38.922564, "bike_id": "4e61721e851d2c60057741c15905f379", "type": "electric_scooter", "is_reserved": 0, "lon": -77.00918616666667}, {"fusion_lat": 0.0, "name": "d542e903ec0b289c0950be10b2d23721", "is_disabled": 0, "rental_uris": {"android": "https://dc.lft.to/lastmile_qr_scan", "ios": "https://dc.lft.to/lastmile_qr_scan"}, "fusion_lon": 0.0, "lat": 38.9003295, "bike_id": "d542e903ec0b289c0950be10b2d23721", "type": "electric_scooter", "is_reserved": 0, "lon": -77.01983066666666}, {"fusion_lat": 0.0, "name": "85ffd9f54bda41eb5ced2d8877df9f91", "is_disabled": 0, "rental_uris": {"android": "https://dc.lft.to/lastmile_qr_scan", "ios": "https://dc.lft.to/lastmile_qr_scan"}, "fusion_lon": 0.0, "lat": 38.907677, "bike_id": "85ffd9f54bda41eb5ced2d8877df9f91", "type": "electric_scooter", "is_reserved": 0, "lon": -77.03845783333334}, {"fusion_lat": 0.0, "name": "939090904f6fba526862133639c5f12b", "is_disabled": 0, "rental_uris": {"android": "https://dc.lft.to/lastmile_qr_scan", "ios": "https://dc.lft.to/lastmile_qr_scan"}, "fusion_lon": 0.0, "lat": 38.911238833333336, "bike_id": "939090904f6fba526862133639c5f12b", "type": "electric_scooter", "is_reserved": 0, "lon": -77.03831}, {"fusion_lat": 0.0, "name": "a98d2eeb1a0c48bb1594c009c0fccf82", "is_disabled": 0, "rental_uris": {"android": "https://dc.lft.to/lastmile_qr_scan", "ios": "https://dc.lft.to/lastmile_qr_scan"}, "fusion_lon": 0.0, "lat": 38.90381583333333, "bike_id": "a98d2eeb1a0c48bb1594c009c0fccf82", "type": "electric_scooter", "is_reserved": 0, "lon": -77.05339516666666}, {"fusion_lat": 0.0, "name": "08b02f58906c7cc8376db5ad9749baff", "is_disabled": 0, "rental_uris": {"android": "https://dc.lft.to/lastmile_qr_scan", "ios": "https://dc.lft.to/lastmile_qr_scan"}, "fusion_lon": 0.0, "lat": 38.909464, "bike_id": "08b02f58906c7cc8376db5ad9749baff", "type": "electric_scooter", "is_reserved": 0, "lon": -77.0448605}, {"fusion_lat": 0.0, "name": "1392b2cb42339d50843350e6a2c8aaa0", "is_disabled": 0, "rental_uris": {"android": "https://dc.lft.to/lastmile_qr_scan", "ios": "https://dc.lft.to/lastmile_qr_scan"}, "fusion_lon": 0.0, "lat": 38.909780166666664, "bike_id": "1392b2cb42339d50843350e6a2c8aaa0", "type": "electric_scooter", "is_reserved": 0, "lon": -77.0217985}, {"fusion_lat": 0.0, "name": "6f450890f4e2f39f3e13a02fd895c585", "is_disabled": 0, "rental_uris": {"android": "https://dc.lft.to/lastmile_qr_scan", "ios": "https://dc.lft.to/lastmile_qr_scan"}, "fusion_lon": 0.0, "lat": 38.952397500000004, "bike_id": "6f450890f4e2f39f3e13a02fd895c585", "type": "electric_scooter", "is_reserved": 0, "lon": -76.9900575}, {"fusion_lat": 0.0, "name": "30ae6ba34d8fb1bd7aca2b37beb304e4", "is_disabled": 0, "rental_uris": {"android": "https://dc.lft.to/lastmile_qr_scan", "ios": "https://dc.lft.to/lastmile_qr_scan"}, "fusion_lon": 0.0, "lat": 38.880691, "bike_id": "30ae6ba34d8fb1bd7aca2b37beb304e4", "type": "electric_scooter", "is_reserved": 0, "lon": -77.02553983333334}, {"fusion_lat": 0.0, "name": "6335ba095cad16ae03084af53a0e5bbd", "is_disabled": 0, "rental_uris": {"android": "https://dc.lft.to/lastmile_qr_scan", "ios": "https://dc.lft.to/lastmile_qr_scan"}, "fusion_lon": 0.0, "lat": 38.93076333333333, "bike_id": "6335ba095cad16ae03084af53a0e5bbd", "type": "electric_scooter", "is_reserved": 0, "lon": -77.07761033333334}, {"fusion_lat": 0.0, "name": "82425482cf7a30fbf538909840f2ea77", "is_disabled": 0, "rental_uris": {"android": "https://dc.lft.to/lastmile_qr_scan", "ios": "https://dc.lft.to/lastmile_qr_scan"}, "fusion_lon": 0.0, "lat": 38.86017733333333, "bike_id": "82425482cf7a30fbf538909840f2ea77", "type": "electric_bike", "is_reserved": 0, "lon": -77.12807816666667}, {"fusion_lat": 0.0, "name": "d0b324de97c1ab4be2da862c14a64175", "is_disabled": 0, "rental_uris": {"android": "https://dc.lft.to/lastmile_qr_scan", "ios": "https://dc.lft.to/lastmile_qr_scan"}, "fusion_lon": 0.0, "lat": 38.907280666666665, "bike_id": "d0b324de97c1ab4be2da862c14a64175", "type": "electric_scooter", "is_reserved": 0, "lon": -77.01228233333333}, {"fusion_lat": 0.0, "name": "1ba4d0e965f2032b863b40c14b430a65", "is_disabled": 0, "rental_uris": {"android": "https://dc.lft.to/lastmile_qr_scan", "ios": "https://dc.lft.to/lastmile_qr_scan"}, "fusion_lon": 0.0, "lat": 38.90145533333333, "bike_id": "1ba4d0e965f2032b863b40c14b430a65", "type": "electric_scooter", "is_reserved": 0, "lon": -77.03325616666666}, {"fusion_lat": 0.0, "name": "369e1212de3f80300ebded20f804b34c", "is_disabled": 0, "rental_uris": {"android": "https://dc.lft.to/lastmile_qr_scan", "ios": "https://dc.lft.to/lastmile_qr_scan"}, "fusion_lon": 0.0, "lat": 38.90410333333333, "bike_id": "369e1212de3f80300ebded20f804b34c", "type": "electric_scooter", "is_reserved": 0, "lon": -76.973316}, {"fusion_lat": 0.0, "name": "0fe472ca16d0544f42443b7c96df21b6", "is_disabled": 0, "rental_uris": {"android": "https://dc.lft.to/lastmile_qr_scan", "ios": "https://dc.lft.to/lastmile_qr_scan"}, "fusion_lon": 0.0, "lat": 38.914832833333335, "bike_id": "0fe472ca16d0544f42443b7c96df21b6", "type": "electric_scooter", "is_reserved": 0, "lon": -77.0217455}, {"fusion_lat": 0.0, "name": "b9e4e2567f6199faa4c6d41126c976ab", "is_disabled": 0, "rental_uris": {"android": "https://dc.lft.to/lastmile_qr_scan", "ios": "https://dc.lft.to/lastmile_qr_scan"}, "fusion_lon": 0.0, "lat": 38.902551833333334, "bike_id": "b9e4e2567f6199faa4c6d41126c976ab", "type": "electric_scooter", "is_reserved": 0, "lon": -76.97452166666666}, {"fusion_lat": 0.0, "name": "08cca7943c5285f84a890d723e0c3e49", "is_disabled": 0, "rental_uris": {"android": "https://dc.lft.to/lastmile_qr_scan", "ios": "https://dc.lft.to/lastmile_qr_scan"}, "fusion_lon": 0.0, "lat": 38.89232716666667, "bike_id": "08cca7943c5285f84a890d723e0c3e49", "type": "electric_scooter", "is_reserved": 0, "lon": -77.03176433333333}, {"fusion_lat": 0.0, "name": "9543aad4a15b078d0a6b81a3855186e0", "is_disabled": 0, "rental_uris": {"android": "https://dc.lft.to/lastmile_qr_scan", "ios": "https://dc.lft.to/lastmile_qr_scan"}, "fusion_lon": 0.0, "lat": 38.9563005, "bike_id": "9543aad4a15b078d0a6b81a3855186e0", "type": "electric_scooter", "is_reserved": 0, "lon": -77.02316183333333}, {"fusion_lat": 0.0, "name": "189787895d0b2b32caaa4e1b4cb41a8f", "is_disabled": 0, "rental_uris": {"android": "https://dc.lft.to/lastmile_qr_scan", "ios": "https://dc.lft.to/lastmile_qr_scan"}, "fusion_lon": 0.0, "lat": 38.88770533333334, "bike_id": "189787895d0b2b32caaa4e1b4cb41a8f", "type": "electric_scooter", "is_reserved": 0, "lon": -76.99652883333333}, {"fusion_lat": 0.0, "name": "6a0f0d3c6eb21995fab93a57b9329a21", "is_disabled": 0, "rental_uris": {"android": "https://dc.lft.to/lastmile_qr_scan", "ios": "https://dc.lft.to/lastmile_qr_scan"}, "fusion_lon": 0.0, "lat": 38.910221666666665, "bike_id": "6a0f0d3c6eb21995fab93a57b9329a21", "type": "electric_scooter", "is_reserved": 0, "lon": -77.0448015}, {"fusion_lat": 0.0, "name": "a8ab5d8c647b041cdf9d5bf74a1a4dec", "is_disabled": 0, "rental_uris": {"android": "https://dc.lft.to/lastmile_qr_scan", "ios": "https://dc.lft.to/lastmile_qr_scan"}, "fusion_lon": 0.0, "lat": 38.92051816666667, "bike_id": "a8ab5d8c647b041cdf9d5bf74a1a4dec", "type": "electric_scooter", "is_reserved": 0, "lon": -77.03294633333333}, {"fusion_lat": 0.0, "name": "39ab629a9dc6455a2dfcf31b07444b32", "is_disabled": 0, "rental_uris": {"android": "https://dc.lft.to/lastmile_qr_scan", "ios": "https://dc.lft.to/lastmile_qr_scan"}, "fusion_lon": 0.0, "lat": 38.882703166666666, "bike_id": "39ab629a9dc6455a2dfcf31b07444b32", "type": "electric_scooter", "is_reserved": 0, "lon": -76.99019616666666}, {"fusion_lat": 0.0, "name": "92dde551fd4396e94c3984a7ec221b21", "is_disabled": 0, "rental_uris": {"android": "https://dc.lft.to/lastmile_qr_scan", "ios": "https://dc.lft.to/lastmile_qr_scan"}, "fusion_lon": 0.0, "lat": 38.89801533333333, "bike_id": "92dde551fd4396e94c3984a7ec221b21", "type": "electric_scooter", "is_reserved": 0, "lon": -77.02935783333334}, {"fusion_lat": 0.0, "name": "7a24715a50ef12d34a9349014002b76a", "is_disabled": 0, "rental_uris": {"android": "https://dc.lft.to/lastmile_qr_scan", "ios": "https://dc.lft.to/lastmile_qr_scan"}, "fusion_lon": 0.0, "lat": 38.8741835, "bike_id": "7a24715a50ef12d34a9349014002b76a", "type": "electric_scooter", "is_reserved": 0, "lon": -77.0187055}, {"fusion_lat": 0.0, "name": "3195f01c081a94595b14e428d7e5e596", "is_disabled": 0, "rental_uris": {"android": "https://dc.lft.to/lastmile_qr_scan", "ios": "https://dc.lft.to/lastmile_qr_scan"}, "fusion_lon": 0.0, "lat": 38.91765566666667, "bike_id": "3195f01c081a94595b14e428d7e5e596", "type": "electric_scooter", "is_reserved": 0, "lon": -77.04770633333334}, {"fusion_lat": 0.0, "name": "a965862dda2fcdc8d0398df8bfefee39", "is_disabled": 0, "rental_uris": {"android": "https://dc.lft.to/lastmile_qr_scan", "ios": "https://dc.lft.to/lastmile_qr_scan"}, "fusion_lon": 0.0, "lat": 38.90138316666667, "bike_id": "a965862dda2fcdc8d0398df8bfefee39", "type": "electric_scooter", "is_reserved": 0, "lon": -76.9865875}, {"fusion_lat": 0.0, "name": "111e9982ce83e898a780465feade62f4", "is_disabled": 0, "rental_uris": {"android": "https://dc.lft.to/lastmile_qr_scan", "ios": "https://dc.lft.to/lastmile_qr_scan"}, "fusion_lon": 0.0, "lat": 38.9214765, "bike_id": "111e9982ce83e898a780465feade62f4", "type": "electric_scooter", "is_reserved": 0, "lon": -77.0344465}, {"fusion_lat": 0.0, "name": "21ad58919971a5e903cf09fb4902198b", "is_disabled": 0, "rental_uris": {"android": "https://dc.lft.to/lastmile_qr_scan", "ios": "https://dc.lft.to/lastmile_qr_scan"}, "fusion_lon": 0.0, "lat": 38.873848333333335, "bike_id": "21ad58919971a5e903cf09fb4902198b", "type": "electric_scooter", "is_reserved": 0, "lon": -77.00063933333334}, {"fusion_lat": 0.0, "name": "b823c01fae69e1daffcb08acd35e835b", "is_disabled": 0, "rental_uris": {"android": "https://dc.lft.to/lastmile_qr_scan", "ios": "https://dc.lft.to/lastmile_qr_scan"}, "fusion_lon": 0.0, "lat": 38.89909766666667, "bike_id": "b823c01fae69e1daffcb08acd35e835b", "type": "electric_scooter", "is_reserved": 0, "lon": -77.003717}, {"fusion_lat": 0.0, "name": "07b8ff637c082c3943a8dd9a7e217ba4", "is_disabled": 0, "rental_uris": {"android": "https://dc.lft.to/lastmile_qr_scan", "ios": "https://dc.lft.to/lastmile_qr_scan"}, "fusion_lon": 0.0, "lat": 38.97882283333333, "bike_id": "07b8ff637c082c3943a8dd9a7e217ba4", "type": "electric_bike", "is_reserved": 0, "lon": -77.06032333333333}, {"fusion_lat": 0.0, "name": "f3b6179d187626c5ff953e702acd605d", "is_disabled": 0, "rental_uris": {"android": "https://dc.lft.to/lastmile_qr_scan", "ios": "https://dc.lft.to/lastmile_qr_scan"}, "fusion_lon": 0.0, "lat": 38.93659916666667, "bike_id": "f3b6179d187626c5ff953e702acd605d", "type": "electric_scooter", "is_reserved": 0, "lon": -77.05496866666667}, {"fusion_lat": 0.0, "name": "4777ebc11695374bc9a0afc44bc1fc9b", "is_disabled": 0, "rental_uris": {"android": "https://dc.lft.to/lastmile_qr_scan", "ios": "https://dc.lft.to/lastmile_qr_scan"}, "fusion_lon": 0.0, "lat": 38.896893666666664, "bike_id": "4777ebc11695374bc9a0afc44bc1fc9b", "type": "electric_scooter", "is_reserved": 0, "lon": -77.04482466666667}, {"fusion_lat": 0.0, "name": "3ec93d7649b64869596a05042582ee72", "is_disabled": 0, "rental_uris": {"android": "https://dc.lft.to/lastmile_qr_scan", "ios": "https://dc.lft.to/lastmile_qr_scan"}, "fusion_lon": 0.0, "lat": 38.9023275, "bike_id": "3ec93d7649b64869596a05042582ee72", "type": "electric_bike", "is_reserved": 0, "lon": -77.016378}, {"fusion_lat": 0.0, "name": "672af90921905b1f1470d892b05aed3a", "is_disabled": 0, "rental_uris": {"android": "https://dc.lft.to/lastmile_qr_scan", "ios": "https://dc.lft.to/lastmile_qr_scan"}, "fusion_lon": 0.0, "lat": 38.88743566666667, "bike_id": "672af90921905b1f1470d892b05aed3a", "type": "electric_scooter", "is_reserved": 0, "lon": -77.02575416666667}, {"fusion_lat": 0.0, "name": "17b5977d926abdb0df60edce60190332", "is_disabled": 0, "rental_uris": {"android": "https://dc.lft.to/lastmile_qr_scan", "ios": "https://dc.lft.to/lastmile_qr_scan"}, "fusion_lon": 0.0, "lat": 38.91629833333333, "bike_id": "17b5977d926abdb0df60edce60190332", "type": "electric_scooter", "is_reserved": 0, "lon": -77.03143133333333}, {"fusion_lat": 0.0, "name": "f8027d1b33238b1a114d873df8fd60f2", "is_disabled": 0, "rental_uris": {"android": "https://dc.lft.to/lastmile_qr_scan", "ios": "https://dc.lft.to/lastmile_qr_scan"}, "fusion_lon": 0.0, "lat": 38.886163, "bike_id": "f8027d1b33238b1a114d873df8fd60f2", "type": "electric_scooter", "is_reserved": 0, "lon": -77.019692}, {"fusion_lat": 0.0, "name": "fb89774e1eac0e9c5d2e213eb9782b6e", "is_disabled": 0, "rental_uris": {"android": "https://dc.lft.to/lastmile_qr_scan", "ios": "https://dc.lft.to/lastmile_qr_scan"}, "fusion_lon": 0.0, "lat": 38.83933366666667, "bike_id": "fb89774e1eac0e9c5d2e213eb9782b6e", "type": "electric_bike", "is_reserved": 0, "lon": -77.079002}, {"fusion_lat": 0.0, "name": "49643dcb91a948d646a3f3cabf05c460", "is_disabled": 0, "rental_uris": {"android": "https://dc.lft.to/lastmile_qr_scan", "ios": "https://dc.lft.to/lastmile_qr_scan"}, "fusion_lon": 0.0, "lat": 38.91878833333333, "bike_id": "49643dcb91a948d646a3f3cabf05c460", "type": "electric_bike", "is_reserved": 0, "lon": -76.9660045}, {"fusion_lat": 0.0, "name": "8a5ac561f51c87d10b74f8d33b7ef5e5", "is_disabled": 0, "rental_uris": {"android": "https://dc.lft.to/lastmile_qr_scan", "ios": "https://dc.lft.to/lastmile_qr_scan"}, "fusion_lon": 0.0, "lat": 38.89610233333333, "bike_id": "8a5ac561f51c87d10b74f8d33b7ef5e5", "type": "electric_scooter", "is_reserved": 0, "lon": -76.94814983333333}, {"fusion_lat": 0.0, "name": "dbd48d83b6e3a0b963017d632839e4a9", "is_disabled": 0, "rental_uris": {"android": "https://dc.lft.to/lastmile_qr_scan", "ios": "https://dc.lft.to/lastmile_qr_scan"}, "fusion_lon": 0.0, "lat": 38.9170015, "bike_id": "dbd48d83b6e3a0b963017d632839e4a9", "type": "electric_scooter", "is_reserved": 0, "lon": -77.02372866666667}, {"fusion_lat": 0.0, "name": "408bab38ae8f43ca874d0be468f643db", "is_disabled": 0, "rental_uris": {"android": "https://dc.lft.to/lastmile_qr_scan", "ios": "https://dc.lft.to/lastmile_qr_scan"}, "fusion_lon": 0.0, "lat": 38.934496833333334, "bike_id": "408bab38ae8f43ca874d0be468f643db", "type": "electric_scooter", "is_reserved": 0, "lon": -77.02339783333333}, {"fusion_lat": 0.0, "name": "2ec9616b300b8a9196ca74a4caf4e4b1", "is_disabled": 0, "rental_uris": {"android": "https://dc.lft.to/lastmile_qr_scan", "ios": "https://dc.lft.to/lastmile_qr_scan"}, "fusion_lon": 0.0, "lat": 38.90344183333333, "bike_id": "2ec9616b300b8a9196ca74a4caf4e4b1", "type": "electric_scooter", "is_reserved": 0, "lon": -77.0251975}, {"fusion_lat": 0.0, "name": "a489221f131638e8d568cd130d1e650f", "is_disabled": 0, "rental_uris": {"android": "https://dc.lft.to/lastmile_qr_scan", "ios": "https://dc.lft.to/lastmile_qr_scan"}, "fusion_lon": 0.0, "lat": 38.8825475, "bike_id": "a489221f131638e8d568cd130d1e650f", "type": "electric_scooter", "is_reserved": 0, "lon": -76.99485433333334}, {"fusion_lat": 0.0, "name": "a32a8c0685bc23a13f089f2119f6a2ef", "is_disabled": 0, "rental_uris": {"android": "https://dc.lft.to/lastmile_qr_scan", "ios": "https://dc.lft.to/lastmile_qr_scan"}, "fusion_lon": 0.0, "lat": 38.8632545, "bike_id": "a32a8c0685bc23a13f089f2119f6a2ef", "type": "electric_bike", "is_reserved": 0, "lon": -76.98715066666666}, {"fusion_lat": 0.0, "name": "26fc52fc04324a1570f38e607e827c91", "is_disabled": 0, "rental_uris": {"android": "https://dc.lft.to/lastmile_qr_scan", "ios": "https://dc.lft.to/lastmile_qr_scan"}, "fusion_lon": 0.0, "lat": 38.86555766666667, "bike_id": "26fc52fc04324a1570f38e607e827c91", "type": "electric_scooter", "is_reserved": 0, "lon": -76.983552}, {"fusion_lat": 0.0, "name": "e5b8cd7faac82d58e246bf6fe7c68c31", "is_disabled": 0, "rental_uris": {"android": "https://dc.lft.to/lastmile_qr_scan", "ios": "https://dc.lft.to/lastmile_qr_scan"}, "fusion_lon": 0.0, "lat": 38.9099745, "bike_id": "e5b8cd7faac82d58e246bf6fe7c68c31", "type": "electric_scooter", "is_reserved": 0, "lon": -77.04477616666667}, {"fusion_lat": 0.0, "name": "e53425c69e03c3a7fbda0c0c5fa93f62", "is_disabled": 0, "rental_uris": {"android": "https://dc.lft.to/lastmile_qr_scan", "ios": "https://dc.lft.to/lastmile_qr_scan"}, "fusion_lon": 0.0, "lat": 38.91481316666667, "bike_id": "e53425c69e03c3a7fbda0c0c5fa93f62", "type": "electric_scooter", "is_reserved": 0, "lon": -77.02191033333334}, {"fusion_lat": 0.0, "name": "400292ec946cb29bc7ddce63d084b570", "is_disabled": 0, "rental_uris": {"android": "https://dc.lft.to/lastmile_qr_scan", "ios": "https://dc.lft.to/lastmile_qr_scan"}, "fusion_lon": 0.0, "lat": 38.90833216666667, "bike_id": "400292ec946cb29bc7ddce63d084b570", "type": "electric_scooter", "is_reserved": 0, "lon": -77.0384865}, {"fusion_lat": 0.0, "name": "b36a53cb79b7a409fd3b3571c58c4d5e", "is_disabled": 0, "rental_uris": {"android": "https://dc.lft.to/lastmile_qr_scan", "ios": "https://dc.lft.to/lastmile_qr_scan"}, "fusion_lon": 0.0, "lat": 38.917347, "bike_id": "b36a53cb79b7a409fd3b3571c58c4d5e", "type": "electric_scooter", "is_reserved": 0, "lon": -77.0320475}, {"fusion_lat": 0.0, "name": "955fb9acd60a3f3b5c5cac34532ec474", "is_disabled": 0, "rental_uris": {"android": "https://dc.lft.to/lastmile_qr_scan", "ios": "https://dc.lft.to/lastmile_qr_scan"}, "fusion_lon": 0.0, "lat": 38.9419945, "bike_id": "955fb9acd60a3f3b5c5cac34532ec474", "type": "electric_scooter", "is_reserved": 0, "lon": -77.02591316666667}, {"fusion_lat": 0.0, "name": "4040587fa942966c2876ffec4b60e27d", "is_disabled": 0, "rental_uris": {"android": "https://dc.lft.to/lastmile_qr_scan", "ios": "https://dc.lft.to/lastmile_qr_scan"}, "fusion_lon": 0.0, "lat": 38.922989333333334, "bike_id": "4040587fa942966c2876ffec4b60e27d", "type": "electric_scooter", "is_reserved": 0, "lon": -77.0426955}, {"fusion_lat": 0.0, "name": "0fec4a0d8d8febe893407ebfb02b522e", "is_disabled": 0, "rental_uris": {"android": "https://dc.lft.to/lastmile_qr_scan", "ios": "https://dc.lft.to/lastmile_qr_scan"}, "fusion_lon": 0.0, "lat": 38.88742966666667, "bike_id": "0fec4a0d8d8febe893407ebfb02b522e", "type": "electric_scooter", "is_reserved": 0, "lon": -77.03175533333334}, {"fusion_lat": 0.0, "name": "f8c7014b8fcd182e1e1039aacade81d9", "is_disabled": 0, "rental_uris": {"android": "https://dc.lft.to/lastmile_qr_scan", "ios": "https://dc.lft.to/lastmile_qr_scan"}, "fusion_lon": 0.0, "lat": 38.9097085, "bike_id": "f8c7014b8fcd182e1e1039aacade81d9", "type": "electric_scooter", "is_reserved": 0, "lon": -77.032756}, {"fusion_lat": 0.0, "name": "42e4d889cee34f26bc41ed2072171a74", "is_disabled": 0, "rental_uris": {"android": "https://dc.lft.to/lastmile_qr_scan", "ios": "https://dc.lft.to/lastmile_qr_scan"}, "fusion_lon": 0.0, "lat": 38.96405683333333, "bike_id": "42e4d889cee34f26bc41ed2072171a74", "type": "electric_scooter", "is_reserved": 0, "lon": -77.07531166666666}, {"fusion_lat": 0.0, "name": "b303dd692cea3ef6958b739bb26869a1", "is_disabled": 0, "rental_uris": {"android": "https://dc.lft.to/lastmile_qr_scan", "ios": "https://dc.lft.to/lastmile_qr_scan"}, "fusion_lon": 0.0, "lat": 38.90029666666667, "bike_id": "b303dd692cea3ef6958b739bb26869a1", "type": "electric_scooter", "is_reserved": 0, "lon": -77.00179983333334}, {"fusion_lat": 0.0, "name": "425f3abb767577b773edc70c43671d1d", "is_disabled": 0, "rental_uris": {"android": "https://dc.lft.to/lastmile_qr_scan", "ios": "https://dc.lft.to/lastmile_qr_scan"}, "fusion_lon": 0.0, "lat": 38.92219133333333, "bike_id": "425f3abb767577b773edc70c43671d1d", "type": "electric_bike", "is_reserved": 0, "lon": -77.2014135}, {"fusion_lat": 0.0, "name": "5aeeb29ed9c4b6eb477ffb6f991a8b82", "is_disabled": 0, "rental_uris": {"android": "https://dc.lft.to/lastmile_qr_scan", "ios": "https://dc.lft.to/lastmile_qr_scan"},