{"data": {"bikes": [{"fusion_lat": 0.0, "name": "2cf44b063892df445f058ab4e1dcbdf6", "is_disabled": 0, "rental_uris": {"android": "https://dc.lft.to/lastmile_qr_scan", "ios": "https://dc.lft.to/lastmile_qr_scan"}, "fusion_lon": 0.0, "lat": 38.909638, "bike_id": "2cf44b063892df445f058ab4e1dcbdf6", "type": "electric_scooter", "is_reserved": 0, "lon": -77.04456583333334}, {"fusion_lat": 0.0, "name": "5c365e78996b8fa59f783a738772bfe5", "is_disabled": 0, "rental_uris": {"android": "https://dc.lft.to/lastmile_qr_scan", "ios": "https://dc.lft.to/lastmile_qr_scan"}, "fusion_lon": 0.0, "lat": 38.87638483333333, "bike_id": "5c365e78996b8fa59f783a738772bfe5", "type": "electric_scooter", "is_reserved": 0, "lon": -77.01644783333333}, {"fusion_lat": 0.0, "name": "c9cc62e10261d02c58196e159f40a5ee", "is_disabled": 0, "rental_uris": {"android": "https://dc.lft.to/lastmile_qr_scan", "ios": "https://dc.lft.to/lastmile_qr_scan"}, "fusion_lon": 0.0, "lat": 38.90787433333333, "bike_id": "c9cc62e10261d02c58196e159f40a5ee", "type": "electric_scooter", "is_reserved": 0, "lon": -77.035356}, {"fusion_lat": 0.0, "name": "b47debd2d0f3f35633b97d52fa961727", "is_disabled": 0, "rental_uris": {"android": "https://dc.lft.to/lastmile_qr_scan", "ios": "https://dc.lft.to/lastmile_qr_scan"}, "fusion_lon": 0.0, "lat": 38.92237466666667, "bike_id": "b47debd2d0f3f35633b97d52fa961727", "type": "electric_scooter", "is_reserved": 0, "lon": -77.03521233333333}, {"fusion_lat": 0.0, "name": "d0c34f07dc6d679abcd69458d5565635", "is_disabled": 0, "rental_uris": {"android": "https://dc.lft.to/lastmile_qr_scan", "ios": "https://dc.lft.to/lastmile_qr_scan"}, "fusion_lon": 0.0, "lat": 38.91314766666667, "bike_id": "d0c34f07dc6d679abcd69458d5565635", "type": "electric_scooter", "is_reserved": 0, "lon": -77.0471125}, {"fusion_lat": 0.0, "name": "7ecf4ad1ba9038e42fe537fc66f5af25", "is_disabled": 0, "rental_uris": {"android": "https://dc.lft.to/lastmile_qr_scan", "ios": "https://dc.lft.to/lastmile_qr_scan"}, "fusion_lon": 0.0, "lat": 38.9261115, "bike_id": "7ecf4ad1ba9038e42fe537fc66f5af25", "type": "electric_scooter", "is_reserved": 0, "lon": -77.02213483333334}, {"fusion_lat": 0.0, "name": "d2dca1299bcf56ee6b4c899af06315c2", "is_disabled": 0, "rental_uris": {"android": "https://dc.lft.to/lastmile_qr_scan", "ios": "https://dc.lft.to/lastmile_qr_scan"}, "fusion_lon": 0.0, "lat": 38.88763616666667, "bike_id": "d2dca1299bcf56ee6b4c899af06315c2", "type": "electric_scooter", "is_reserved": 0, "lon": -77.00167683333333}, {"fusion_lat": 0.0, "name": "b05fc0b7c8f6e88b0d7546673e3fed6b", "is_disabled": 0, "rental_uris": {"android": "https://dc.lft.to/lastmile_qr_scan", "ios": "https://dc.lft.to/lastmile_qr_scan"}, "fusion_lon": 0.0, "lat": 38.892176, "bike_id": "b05fc0b7c8f6e88b0d7546673e3fed6b", "type": "electric_scooter", "is_reserved": 0, "lon": -77.04379816666666}, {"fusion_lat": 0.0, "name": "7db1326496537dfcef0a7f3457588f7a", "is_disabled": 0, "rental_uris": {"android": "https://dc.lft.to/lastmile_qr_scan", "ios": "https://dc.lft.to/lastmile_qr_scan"}, "fusion_lon": 0.0, "lat": 38.94018616666666, "bike_id": "7db1326496537dfcef0a7f3457588f7a", "type": "electric_scooter", "is_reserved": 0, "lon": -77.02768216666666}, {"fusion_lat": 0.0, "name": "3535a9732ec9bb9eca81da0623aed8af", "is_disabled": 0, "rental_uris": {"android": "https://dc.lft.to/lastmile_qr_scan", "ios": "https://dc.lft.to/lastmile_qr_scan"}, "fusion_lon": 0.0, "lat": 38.91720383333333, "bike_id": "3535a9732ec9bb9eca81da0623aed8af", "type": "electric_scooter", "is_reserved": 0, "lon": -76.968697}, {"fusion_lat": 0.0, "name": "ab214399b654344023a6ef88ddd35d2c", "is_disabled": 0, "rental_uris": {"android": "https://dc.lft.to/lastmile_qr_scan", "ios": "https://dc.lft.to/lastmile_qr_scan"}, "fusion_lon": 0.0, "lat": 38.9102895, "bike_id": "ab214399b654344023a6ef88ddd35d2c", "type": "electric_scooter", "is_reserved": 0, "lon": -77.00758316666666}, {"fusion_lat": 0.0, "name": "d09cdf4022e2ae848418b451d5d0d024", "is_disabled": 0, "rental_uris": {"android": "https://dc.lft.to/lastmile_qr_scan", "ios": "https://dc.lft.to/lastmile_qr_scan"}, "fusion_lon": 0.0, "lat": 38.920882666666664, "bike_id": "d09cdf4022e2ae848418b451d5d0d024", "type": "electric_scooter", "is_reserved": 0, "lon": -77.0230045}, {"fusion_lat": 0.0, "name": "0bd6ca98fb5cf14de7f8d3d433d9e9c9", "is_disabled": 0, "rental_uris": {"android": "https://dc.lft.to/lastmile_qr_scan", "ios": "https://dc.lft.to/lastmile_qr_scan"}, "fusion_lon": 0.0, "lat": 38.9072585, "bike_id": "0bd6ca98fb5cf14de7f8d3d433d9e9c9", "type": "electric_scooter", "is_reserved": 0, "lon": -77.04735566666666}, {"fusion_lat": 0.0, "name": "3ae65f74c7e80a47da3dd4db93e6bf98", "is_disabled": 0, "rental_uris": {"android": "https://dc.lft.to/lastmile_qr_scan", "ios": "https://dc.lft.to/lastmile_qr_scan"}, "fusion_lon": 0.0, "lat": 38.9097195, "bike_id": "3ae65f74c7e80a47da3dd4db93e6bf98", "type": "electric_scooter", "is_reserved": 0, "lon": -77.034371}, {"fusion_lat": 0.0, "name": "ef832c710c81924e5499a4d1268813fa", "is_disabled": 0, "rental_uris": {"android": "https://dc.lft.to/lastmile_qr_scan", "ios": "https://dc.lft.to/lastmile_qr_scan"}, "fusion_lon": 0.0, "lat": 38.908721666666665, "bike_id": "ef832c710c81924e5499a4d1268813fa", "type": "electric_scooter", "is_reserved": 0, "lon": -77.02351383333334}, {"fusion_lat": 0.0, "name": "2888c3c4e9d801eb2246aa8c2e42f0b4", "is_disabled": 0, "rental_uris": {"android": "https://dc.lft.to/lastmile_qr_scan", "ios": "https://dc.lft.to/lastmile_qr_scan"}, "fusion_lon": 0.0, "lat": 38.922958333333334, "bike_id": "2888c3c4e9d801eb2246aa8c2e42f0b4", "type": "electric_scooter", "is_reserved": 0, "lon": -77.02526233333333}, {"fusion_lat": 0.0, "name": "6103113855b9be88fa36732d308e51ff", "is_disabled": 0, "rental_uris": {"android": "https://dc.lft.to/lastmile_qr_scan", "ios": "https://dc.lft.to/lastmile_qr_scan"}, "fusion_lon": 0.0, "lat": 38.919183833333335, "bike_id": "6103113855b9be88fa36732d308e51ff", "type": "electric_scooter", "is_reserved": 0, "lon": -77.03263}, {"fusion_lat": 0.0, "name": "efa20bc7648f1234524c9266877e6651", "is_disabled": 0, "rental_uris": {"android": "https://dc.lft.to/lastmile_qr_scan", "ios": "https://dc.lft.to/lastmile_qr_scan"}, "fusion_lon": 0.0, "lat": 38.87906016666667, "bike_id": "efa20bc7648f1234524c9266877e6651", "type": "electric_scooter", "is_reserved": 0, "lon": -77.01360616666666}, {"fusion_lat": 0.0, "name": "99ec82a9a5cce77b5167516508f7e5da", "is_disabled": 0, "rental_uris": {"android": "https://dc.lft.to/lastmile_qr_scan", "ios": "https://dc.lft.to/lastmile_qr_scan"}, "fusion_lon": 0.0, "lat": 38.91269883333333, "bike_id": "99ec82a9a5cce77b5167516508f7e5da", "type": "electric_scooter", "is_reserved": 0, "lon": -77.02256933333334}, {"fusion_lat": 0.0, "name": "a6c04039f288089376923b802c33e425", "is_disabled": 0, "rental_uris": {"android": "https://dc.lft.to/lastmile_qr_scan", "ios": "https://dc.lft.to/lastmile_qr_scan"}, "fusion_lon": 0.0, "lat": 38.903664, "bike_id": "a6c04039f288089376923b802c33e425", "type": "electric_scooter", "is_reserved": 0, "lon": -77.04525333333333}, {"fusion_lat": 0.0, "name": "94dc9967ded69dcd1c3b17e5245ece6c", "is_disabled": 0, "rental_uris": {"android": "https://dc.lft.to/lastmile_qr_scan", "ios": "https://dc.lft.to/lastmile_qr_scan"}, "fusion_lon": 0.0, "lat": 38.91933516666667, "bike_id": "94dc9967ded69dcd1c3b17e5245ece6c", "type": "electric_scooter", "is_reserved": 0, "lon": -77.0706265}, {"fusion_lat": 0.0, "name": "bf594c7f3c9550cec08bb5aeef9f7782", "is_disabled": 0, "rental_uris": {"android": "https://dc.lft.to/lastmile_qr_scan", "ios": "https://dc.lft.to/lastmile_qr_scan"}, "fusion_lon": 0.0, "lat": 38.895284833333335, "bike_id": "bf594c7f3c9550cec08bb5aeef9f7782", "type": "electric_scooter", "is_reserved": 0, "lon": -76.9341225}, {"fusion_lat": 0.0, "name": "97d5730ab9bd68146af152249286de04", "is_disabled": 0, "rental_uris": {"android": "https://dc.lft.to/lastmile_qr_scan", "ios": "https://dc.lft.to/lastmile_qr_scan"}, "fusion_lon": 0.0, "lat": 38.906488833333334, "bike_id": "97d5730ab9bd68146af152249286de04", "type": "electric_scooter", "is_reserved": 0, "lon": -77.05316283333333}, {"fusion_lat": 0.0, "name": "75b126b514ef310555d5acb305f469c8", "is_disabled": 0, "rental_uris": {"android": "https://dc.lft.to/lastmile_qr_scan", "ios": "https://dc.lft.to/lastmile_qr_scan"}, "fusion_lon": 0.0, "lat": 38.928284166666664, "bike_id": "75b126b514ef310555d5acb305f469c8", "type": "electric_scooter", "is_reserved": 0, "lon": -77.01387433333333}, {"fusion_lat": 0.0, "name": "a8bcfcc03be9a6b485c1c0e30da9b607", "is_disabled": 0, "rental_uris": {"android": "https://dc.lft.to/lastmile_qr_scan", "ios": "https://dc.lft.to/lastmile_qr_scan"}, "fusion_lon": 0.0, "lat": 38.902410333333336, "bike_id": "a8bcfcc03be9a6b485c1c0e30da9b607", "type": "electric_scooter", "is_reserved": 0, "lon": -77.00199683333334}, {"fusion_lat": 0.0, "name": "b8807b65f291046ba71cf0cc01e535b7", "is_disabled": 0, "rental_uris": {"android": "https://dc.lft.to/lastmile_qr_scan", "ios": "https://dc.lft.to/lastmile_qr_scan"}, "fusion_lon": 0.0, "lat": 38.8989405, "bike_id": "b8807b65f291046ba71cf0cc01e535b7", "type": "electric_scooter", "is_reserved": 0, "lon": -76.98061683333333}, {"fusion_lat": 0.0, "name": "8990b468e4dabdebadd933a492b9d449", "is_disabled": 0, "rental_uris": {"android": "https://dc.lft.to/lastmile_qr_scan", "ios": "https://dc.lft.to/lastmile_qr_scan"}, "fusion_lon": 0.0, "lat": 38.925674, "bike_id": "8990b468e4dabdebadd933a492b9d449", "type": "electric_scooter", "is_reserved": 0, "lon": -77.02257566666667}, {"fusion_lat": 0.0, "name": "ecdbf518b3aee1bf2617b9730d0e5ce5", "is_disabled": 0, "rental_uris": {"android": "https://dc.lft.to/lastmile_qr_scan", "ios": "https://dc.lft.to/lastmile_qr_scan"}, "fusion_lon": 0.0, "lat": 38.9355575, "bike_id": "ecdbf518b3aee1bf2617b9730d0e5ce5", "type": "electric_scooter", "is_reserved": 0, "lon": -77.03464966666667}, {"fusion_lat": 0.0, "name": "1387430add93d6569caf08926dd44f66", "is_disabled": 0, "rental_uris": {"android": "https://dc.lft.to/lastmile_qr_scan", "ios": "https://dc.lft.to/lastmile_qr_scan"}, "fusion_lon": 0.0, "lat": 39.070537, "bike_id": "1387430add93d6569caf08926dd44f66", "type": "electric_bike", "is_reserved": 0, "lon": -77.11481333333333}, {"fusion_lat": 0.0, "name": "e66b58c4811e19aa3b378be2b1ad27a1", "is_disabled": 0, "rental_uris": {"android": "https://dc.lft.to/lastmile_qr_scan", "ios": "https://dc.lft.to/lastmile_qr_scan"}, "fusion_lon": 0.0, "lat": 38.85702416666667, "bike_id": "e66b58c4811e19aa3b378be2b1ad27a1", "type": "electric_scooter", "is_reserved": 0, "lon": -76.99601566666666}, {"fusion_lat": 0.0, "name": "fda5ec333cd01dfe650599a60ba20ead", "is_disabled": 0, "rental_uris": {"android": "https://dc.lft.to/lastmile_qr_scan", "ios": "https://dc.lft.to/lastmile_qr_scan"}, "fusion_lon": 0.0, "lat": 38.836117333333334, "bike_id": "fda5ec333cd01dfe650599a60ba20ead", "type": "electric_bike", "is_reserved": 0, "lon": -77.0038205}, {"fusion_lat": 0.0, "name": "2891457d07d88c13e16f1cb4db6a8cae", "is_disabled": 0, "rental_uris": {"android": "https://dc.lft.to/lastmile_qr_scan", "ios": "https://dc.lft.to/lastmile_qr_scan"}, "fusion_lon": 0.0, "lat": 38.902874833333335, "bike_id": "2891457d07d88c13e16f1cb4db6a8cae", "type": "electric_scooter", "is_reserved": 0, "lon": -77.01673716666667}, {"fusion_lat": 0.0, "name": "e9e3ac90169c1ca29c62fedeed78757e", "is_disabled": 0, "rental_uris": {"android": "https://dc.lft.to/lastmile_qr_scan", "ios": "https://dc.lft.to/lastmile_qr_scan"}, "fusion_lon": 0.0, "lat": 38.9049885, "bike_id": "e9e3ac90169c1ca29c62fedeed78757e", "type": "electric_scooter", "is_reserved": 0, "lon": -77.0298945}, {"fusion_lat": 0.0, "name": "6f45b76294dce264994109ab93e3f56c", "is_disabled": 0, "rental_uris": {"android": "https://dc.lft.to/lastmile_qr_scan", "ios": "https://dc.lft.to/lastmile_qr_scan"}, "fusion_lon": 0.0, "lat": 38.925181, "bike_id": "6f45b76294dce264994109ab93e3f56c", "type": "electric_scooter", "is_reserved": 0, "lon": -77.023846}, {"fusion_lat": 0.0, "name": "e15b3b190b20f703347500f671ea0dbd", "is_disabled": 0, "rental_uris": {"android": "https://dc.lft.to/lastmile_qr_scan", "ios": "https://dc.lft.to/lastmile_qr_scan"}, "fusion_lon": 0.0, "lat": 38.907903166666664, "bike_id": "e15b3b190b20f703347500f671ea0dbd", "type": "electric_scooter", "is_reserved": 0, "lon": -77.04344633333334}, {"fusion_lat": 0.0, "name": "87aadb3f260e805beacadf7d5d4a3003", "is_disabled": 0, "rental_uris": {"android": "https://dc.lft.to/lastmile_qr_scan", "ios": "https://dc.lft.to/lastmile_qr_scan"}, "fusion_lon": 0.0, "lat": 38.91416016666667, "bike_id": "87aadb3f260e805beacadf7d5d4a3003", "type": "electric_scooter", "is_reserved": 0, "lon": -77.02735016666666}, {"fusion_lat": 0.0, "name": "8901a2b9d481eca9641db830a5aa027b", "is_disabled": 0, "rental_uris": {"android": "https://dc.lft.to/lastmile_qr_scan", "ios": "https://dc.lft.to/lastmile_qr_scan"}, "fusion_lon": 0.0, "lat": 38.8953115, "bike_id": "8901a2b9d481eca9641db830a5aa027b", "type": "electric_scooter", "is_reserved": 0, "lon": -77.0110425}, {"fusion_lat": 0.0, "name": "75c824b904623159e61ed98c247d1f77", "is_disabled": 0, "rental_uris": {"android": "https://dc.lft.to/lastmile_qr_scan", "ios": "https://dc.lft.to/lastmile_qr_scan"}, "fusion_lon": 0.0, "lat": 38.88800166666667, "bike_id": "75c824b904623159e61ed98c247d1f77", "type": "electric_bike", "is_reserved": 0, "lon": -76.92994283333333}, {"fusion_lat": 0.0, "name": "51678f03b4343f62e49e19fcdfa63d24", "is_disabled": 0, "rental_uris": {"android": "https://dc.lft.to/lastmile_qr_scan", "ios": "https://dc.lft.to/lastmile_qr_scan"}, "fusion_lon": 0.0, "lat": 38.903881166666665, "bike_id": "51678f03b4343f62e49e19fcdfa63d24", "type": "electric_scooter", "is_reserved": 0, "lon": -77.06136183333334}, {"fusion_lat": 0.0, "name": "f303035543710ddd5d7fe1409cc6e06e", "is_disabled": 0, "rental_uris": {"android": "https://dc.lft.to/lastmile_qr_scan", "ios": "https://dc.lft.to/lastmile_qr_scan"}, "fusion_lon": 0.0, "lat": 38.94268866666667, "bike_id": "f303035543710ddd5d7fe1409cc6e06e", "type": "electric_bike", "is_reserved": 0, "lon": -76.98516133333334}, {"fusion_lat": 0.0, "name": "8b15f5a68d18b40fda8c00c65548484b", "is_disabled": 0, "rental_uris": {"android": "https://dc.lft.to/lastmile_qr_scan", "ios": "https://dc.lft.to/lastmile_qr_scan"}, "fusion_lon": 0.0, "lat": 38.93750083333333, "bike_id": "8b15f5a68d18b40fda8c00c65548484b", "type": "electric_scooter", "is_reserved": 0, "lon": -77.02529316666667}, {"fusion_lat": 0.0, "name": "ea64889c611f4f93d34b61926ef38ad4", "is_disabled": 0, "rental_uris": {"android": "https://dc.lft.to/lastmile_qr_scan", "ios": "https://dc.lft.to/lastmile_qr_scan"}, "fusion_lon": 0.0, "lat": 38.906974166666664, "bike_id": "ea64889c611f4f93d34b61926ef38ad4", "type": "electric_scooter", "is_reserved": 0, "lon": -77.03590516666667}, {"fusion_lat": 0.0, "name": "d57975f495e40745e416ab0aa6b66c9f", "is_disabled": 0, "rental_uris": {"android": "https://dc.lft.to/lastmile_qr_scan", "ios": "https://dc.lft.to/lastmile_qr_scan"}, "fusion_lon": 0.0, "lat": 38.902217, "bike_id": "d57975f495e40745e416ab0aa6b66c9f", "type": "electric_scooter", "is_reserved": 0, "lon": -77.02206583333333}, {"fusion_lat": 0.0, "name": "92a7704ad961e4b355b0880039370f0e", "is_disabled": 0, "rental_uris": {"android": "https://dc.lft.to/lastmile_qr_scan", "ios": "https://dc.lft.to/lastmile_qr_scan"}, "fusion_lon": 0.0, "lat": 38.90062433333333, "bike_id": "92a7704ad961e4b355b0880039370f0e", "type": "electric_scooter", "is_reserved": 0, "lon": -76.93383316666667}, {"fusion_lat": 0.0, "name": "f8932e5ed3091ebb6c243db50291fb39", "is_disabled": 0, "rental_uris": {"android": "https://dc.lft.to/lastmile_qr_scan", "ios": "https://dc.lft.to/lastmile_qr_scan"}, "fusion_lon": 0.0, "lat": 38.909653666666664, "bike_id": "f8932e5ed3091ebb6c243db50291fb39", "type": "electric_scooter", "is_reserved": 0, "lon": -77.02308016666667}, {"fusion_lat": 0.0, "name": "0e169ed1121c4c4e903ce2be8057e52d", "is_disabled": 0, "rental_uris": {"android": "https://dc.lft.to/lastmile_qr_scan", "ios": "https://dc.lft.to/lastmile_qr_scan"}, "fusion_lon": 0.0, "lat": 38.96205533333333, "bike_id": "0e169ed1121c4c4e903ce2be8057e52d", "type": "electric_scooter", "is_reserved": 0, "lon": -77.022341}, {"fusion_lat": 0.0, "name": "60823bc08cf468258b39361e008caa4f", "is_disabled": 0, "rental_uris": {"android": "https://dc.lft.to/lastmile_qr_scan", "ios": "https://dc.lft.to/lastmile_qr_scan"}, "fusion_lon": 0.0, "lat": 38.8960585, "bike_id": "60823bc08cf468258b39361e008caa4f", "type": "electric_scooter", "is_reserved": 0, "lon": -77.04977366666667}, {"fusion_lat": 0.0, "name": "cb56cff565b0c085319a47b6970bdf80", "is_disabled": 0, "rental_uris": {"android": "https://dc.lft.to/lastmile_qr_scan", "ios": "https://dc.lft.to/lastmile_qr_scan"}, "fusion_lon": 0.0, "lat": 38.941847, "bike_id": "cb56cff565b0c085319a47b6970bdf80", "type": "electric_scooter", "is_reserved": 0, "lon": -77.02491283333333}, {"fusion_lat": 0.0, "name": "c0ca6e6f262a46edbe48a0382528432e", "is_disabled": 0, "rental_uris": {"android": "https://dc.lft.to/lastmile_qr_scan", "ios": "https://dc.lft.to/lastmile_qr_scan"}, "fusion_lon": 0.0, "lat": 38.846346833333335, "bike_id": "c0ca6e6f262a46edbe48a0382528432e", "type": "electric_scooter", "is_reserved": 0, "lon": -76.96922283333333}, {"fusion_lat": 0.0, "name": "63287f5635bdc9cb1ee229119dfb5f86", "is_disabled": 0, "rental_uris": {"android": "https://dc.lft.to/lastmile_qr_scan", "ios": "https://dc.lft.to/lastmile_qr_scan"}, "fusion_lon": 0.0, "lat": 38.90062366666667, "bike_id": "63287f5635bdc9cb1ee229119dfb5f86", "type": "electric_scooter", "is_reserved": 0, "lon": -77.047983}, {"fusion_lat": 0.0, "name": "9f4f0ef941c5fa0adb5c2baa637251d5", "is_disabled": 0, "rental_uris": {"android": "https://dc.lft.to/lastmile_qr_scan", "ios": "https://dc.lft.to/lastmile_qr_scan"}, "fusion_lon": 0.0, "lat": 38.906889, "bike_id": "9f4f0ef941c5fa0adb5c2baa637251d5", "type": "electric_scooter", "is_reserved": 0, "lon": -77.01542083333334}, {"fusion_lat": 0.0, "name": "016f5dcd52ee11d44274adb844dbbde8", "is_disabled": 0, "rental_uris": {"android": "https://dc.lft.to/lastmile_qr_scan", "ios": "https://dc.lft.to/lastmile_qr_scan"}, "fusion_lon": 0.0, "lat": 38.89569516666667, "bike_id": "016f5dcd52ee11d44274adb844dbbde8", "type": "electric_bike", "is_reserved": 0, "lon": -77.127382}, {"fusion_lat": 0.0, "name": "1b89db4c7d0c2df3ae18cab0eab70894", "is_disabled": 0, "rental_uris": {"android": "https://dc.lft.to/lastmile_qr_scan", "ios": "https://dc.lft.to/lastmile_qr_scan"}, "fusion_lon": 0.0, "lat": 38.901114666666665, "bike_id": "1b89db4c7d0c2df3ae18cab0eab70894", "type": "electric_scooter", "is_reserved": 0, "lon": -77.0338075}, {"fusion_lat": 0.0, "name": "3cbb95947aaab08c220c19a4c427e22a", "is_disabled": 0, "rental_uris": {"android": "https://dc.lft.to/lastmile_qr_scan", "ios": "https://dc.lft.to/lastmile_qr_scan"}, "fusion_lon": 0.0, "lat": 38.92210983333333, "bike_id": "3cbb95947aaab08c220c19a4c427e22a", "type": "electric_scooter", "is_reserved": 0, "lon": -77.01814316666666}, {"fusion_lat": 0.0, "name": "9514bb50e9123da202e5df000e34b0b6", "is_disabled": 0, "rental_uris": {"android": "https://dc.lft.to/lastmile_qr_scan", "ios": "https://dc.lft.to/lastmile_qr_scan"}, "fusion_lon": 0.0, "lat": 38.91070116666667, "bike_id": "9514bb50e9123da202e5df000e34b0b6", "type": "electric_scooter", "is_reserved": 0, "lon": -77.03663716666667}, {"fusion_lat": 0.0, "name": "7ca8a98660e93595a03e3ef40cf1d2b5", "is_disabled": 0, "rental_uris": {"android": "https://dc.lft.to/lastmile_qr_scan", "ios": "https://dc.lft.to/lastmile_qr_scan"}, "fusion_lon": 0.0, "lat": 38.87491383333333, "bike_id": "7ca8a98660e93595a03e3ef40cf1d2b5", "type": "electric_scooter", "is_reserved": 0, "lon": -77.00045433333334}, {"fusion_lat": 0.0, "name": "4617e9d9ac3adb8a3b378dbd0a8cc0c0", "is_disabled": 0, "rental_uris": {"android": "https://dc.lft.to/lastmile_qr_scan", "ios": "https://dc.lft.to/lastmile_qr_scan"}, "fusion_lon": 0.0, "lat": 38.978784833333336, "bike_id": "4617e9d9ac3adb8a3b378dbd0a8cc0c0", "type": "electric_bike", "is_reserved": 0, "lon": -77.06032833333333}, {"fusion_lat": 0.0, "name": "6d56ea29be2aa8509cdf4930073b5adb", "is_disabled": 0, "rental_uris": {"android": "https://dc.lft.to/lastmile_qr_scan", "ios": "https://dc.lft.to/lastmile_qr_scan"}, "fusion_lon": 0.0, "lat": 38.895151, "bike_id": "6d56ea29be2aa8509cdf4930073b5adb", "type": "electric_scooter", "is_reserved": 0, "lon": -76.9996445}, {"fusion_lat": 0.0, "name": "9053b5e7c93ea01f91c95a2c396d42f6", "is_disabled": 0, "rental_uris": {"android": "https://dc.lft.to/lastmile_qr_scan", "ios": "https://dc.lft.to/lastmile_qr_scan"}, "fusion_lon": 0.0, "lat": 38.92619716666667, "bike_id": "9053b5e7c93ea01f91c95a2c396d42f6", "type": "electric_scooter", "is_reserved": 0, "lon": -77.04328316666667}, {"fusion_lat": 0.0, "name": "babee9983c569ee4cc151179beb93102", "is_disabled": 0, "rental_uris": {"android": "https://dc.lft.to/lastmile_qr_scan", "ios": "https://dc.lft.to/lastmile_qr_scan"}, "fusion_lon": 0.0, "lat": 38.90730416666667, "bike_id": "babee9983c569ee4cc151179beb93102", "type": "electric_scooter", "is_reserved": 0, "lon": -77.04352216666666}, {"fusion_lat": 0.0, "name": "96c68542265adc933f5a9524cd443dca", "is_disabled": 0, "rental_uris": {"android": "https://dc.lft.to/lastmile_qr_scan", "ios": "https://dc.lft.to/lastmile_qr_scan"}, "fusion_lon": 0.0, "lat": 38.953366833333334, "bike_id": "96c68542265adc933f5a9524cd443dca", "type": "electric_bike", "is_reserved": 0, "lon": -76.98257033333333}, {"fusion_lat": 0.0, "name": "ca2a50559bbae20feb9b3ab504b9fd22", "is_disabled": 0, "rental_uris": {"android": "https://dc.lft.to/lastmile_qr_scan", "ios": "https://dc.lft.to/lastmile_qr_scan"}, "fusion_lon": 0.0, "lat": 38.9420405, "bike_id": "ca2a50559bbae20feb9b3ab504b9fd22", "type": "electric_scooter", "is_reserved": 0, "lon": -77.02588316666667}, {"fusion_lat": 0.0, "name": "44dd3613f7ec5873eca64061127102bb", "is_disabled": 0, "rental_uris": {"android": "https://dc.lft.to/lastmile_qr_scan", "ios": "https://dc.lft.to/lastmile_qr_scan"}, "fusion_lon": 0.0, "lat": 38.918053, "bike_id": "44dd3613f7ec5873eca64061127102bb", "type": "electric_scooter", "is_reserved": 0, "lon": -77.02713583333333}, {"fusion_lat": 0.0, "name": "8e0926ec006401c2628ab180f42f1188", "is_disabled": 0, "rental_uris": {"android": "https://dc.lft.to/lastmile_qr_scan", "ios": "https://dc.lft.to/lastmile_qr_scan"}, "fusion_lon": 0.0, "lat": 38.90699083333333, "bike_id": "8e0926ec006401c2628ab180f42f1188", "type": "electric_scooter", "is_reserved": 0, "lon": -77.03774866666667}, {"fusion_lat": 0.0, "name": "6fc0a6a76fe6d27b106b7c66a8227905", "is_disabled": 0, "rental_uris": {"android": "https://dc.lft.to/lastmile_qr_scan", "ios": "https://dc.lft.to/lastmile_qr_scan"}, "fusion_lon": 0.0, "lat": 38.927456666666664, "bike_id": "6fc0a6a76fe6d27b106b7c66a8227905", "type": "electric_scooter", "is_reserved": 0, "lon": -77.03640783333333}, {"fusion_lat": 0.0, "name": "fa9caec3cb6bac708da3451fad2b1060", "is_disabled": 0, "rental_uris": {"android": "https://dc.lft.to/lastmile_qr_scan", "ios": "https://dc.lft.to/lastmile_qr_scan"}, "fusion_lon": 0.0, "lat": 38.839436666666664, "bike_id": "fa9caec3cb6bac708da3451fad2b1060", "type": "electric_bike", "is_reserved": 0, "lon": -77.07903766666666}, {"fusion_lat": 0.0, "name": "02db3331eac0f2ee9e4b1d3284bba49a", "is_disabled": 0, "rental_uris": {"android": "https://dc.lft.to/lastmile_qr_scan", "ios": "https://dc.lft.to/lastmile_qr_scan"}, "fusion_lon": 0.0, "lat": 38.90135016666667, "bike_id": "02db3331eac0f2ee9e4b1d3284bba49a", "type": "electric_scooter", "is_reserved": 0, "lon": -76.98655816666667}, {"fusion_lat": 0.0, "name": "efbde7f02b6651b564cfb1309db51086", "is_disabled": 0, "rental_uris": {"android": "https://dc.lft.to/lastmile_qr_scan", "ios": "https://dc.lft.to/lastmile_qr_scan"}, "fusion_lon": 0.0, "lat": 38.921488333333336, "bike_id": "efbde7f02b6651b564cfb1309db51086", "type": "electric_scooter", "is_reserved": 0, "lon": -77.03438466666667}, {"fusion_lat": 0.0, "name": "383e2a9da9e90675bf807b458d705477", "is_disabled": 0, "rental_uris": {"android": "https://dc.lft.to/lastmile_qr_scan", "ios": "https://dc.lft.to/lastmile_qr_scan"}, "fusion_lon": 0.0, "lat": 38.857993666666665, "bike_id": "383e2a9da9e90675bf807b458d705477", "type": "electric_bike", "is_reserved": 0, "lon": -77.120155}, {"fusion_lat": 0.0, "name": "afaa8390b15a2e943e7d0b5ae94b1eb8", "is_disabled": 0, "rental_uris": {"android": "https://dc.lft.to/lastmile_qr_scan", "ios": "https://dc.lft.to/lastmile_qr_scan"}, "fusion_lon": 0.0, "lat": 38.93561283333333, "bike_id": "afaa8390b15a2e943e7d0b5ae94b1eb8", "type": "electric_scooter", "is_reserved": 0, "lon": -77.03484433333334}, {"fusion_lat": 0.0, "name": "8964a7ee086f6c51738829c2d024a695", "is_disabled": 0, "rental_uris": {"android": "https://dc.lft.to/lastmile_qr_scan", "ios": "https://dc.lft.to/lastmile_qr_scan"}, "fusion_lon": 0.0, "lat": 38.930554, "bike_id": "8964a7ee086f6c51738829c2d024a695", "type": "electric_scooter", "is_reserved": 0, "lon": -77.03358383333334}, {"fusion_lat": 0.0, "name": "8711992aeaed349644e7f9db484d1ece", "is_disabled": 0, "rental_uris": {"android": "https://dc.lft.to/lastmile_qr_scan", "ios": "https://dc.lft.to/lastmile_qr_scan"}, "fusion_lon": 0.0, "lat": 38.93074216666667, "bike_id": "8711992aeaed349644e7f9db484d1ece", "type": "electric_scooter", "is_reserved": 0, "lon": -77.02985383333333}, {"fusion_lat": 0.0, "name": "1a3f523ee900786518e75a047c35ae2f", "is_disabled": 0, "rental_uris": {"android": "https://dc.lft.to/lastmile_qr_scan", "ios": "https://dc.lft.to/lastmile_qr_scan"}, "fusion_lon": 0.0, "lat": 38.895009, "bike_id": "1a3f523ee900786518e75a047c35ae2f", "type": "electric_scooter", "is_reserved": 0, "lon": -77.011276}, {"fusion_lat": 0.0, "name": "25aa4b59b82d8deb00c99ba4e8f2f9cf", "is_disabled": 0, "rental_uris": {"android": "https://dc.lft.to/lastmile_qr_scan", "ios": "https://dc.lft.to/lastmile_qr_scan"}, "fusion_lon": 0.0, "lat": 38.916751, "bike_id": "25aa4b59b82d8deb00c99ba4e8f2f9cf", "type": "electric_scooter", "is_reserved": 0, "lon": -77.02712833333334}, {"fusion_lat": 0.0, "name": "c15c20bf403508a7f0764a39614da82c", "is_disabled": 0, "rental_uris": {"android": "https://dc.lft.to/lastmile_qr_scan", "ios": "https://dc.lft.to/lastmile_qr_scan"}, "fusion_lon": 0.0, "lat": 38.88408, "bike_id": "c15c20bf403508a7f0764a39614da82c", "type": "electric_bike", "is_reserved": 0, "lon": -76.98610033333334}, {"fusion_lat": 0.0, "name": "e6b2a109a16671325e97635a1deb1dc6", "is_disabled": 0, "rental_uris": {"android": "https://dc.lft.to/lastmile_qr_scan", "ios": "https://dc.lft.to/lastmile_qr_scan"}, "fusion_lon": 0.0, "lat": 38.94919316666667, "bike_id": "e6b2a109a16671325e97635a1deb1dc6", "type": "electric_scooter", "is_reserved": 0, "lon": -77.01856233333334}, {"fusion_lat": 0.0, "name": "4fd8aadf7d12af6ff0404588aea7a179", "is_disabled": 0, "rental_uris": {"android": "https://dc.lft.to/lastmile_qr_scan", "ios": "https://dc.lft.to/lastmile_qr_scan"}, "fusion_lon": 0.0, "lat": 38.902329333333334, "bike_id": "4fd8aadf7d12af6ff0404588aea7a179", "type": "electric_scooter", "is_reserved": 0, "lon": -77.01924833333334}, {"fusion_lat": 0.0, "name": "a981c58ff44c3d729b7dbcf3a30ebcea", "is_disabled": 0, "rental_uris": {"android": "https://dc.lft.to/lastmile_qr_scan", "ios": "https://dc.lft.to/lastmile_qr_scan"}, "fusion_lon": 0.0, "lat": 38.886421166666665, "bike_id": "a981c58ff44c3d729b7dbcf3a30ebcea", "type": "electric_scooter", "is_reserved": 0, "lon": -77.01954333333333}, {"fusion_lat": 0.0, "name": "7de7d8e992f1d626101584ba915a8390", "is_disabled": 0, "rental_uris": {"android": "https://dc.lft.to/lastmile_qr_scan", "ios": "https://dc.lft.to/lastmile_qr_scan"}, "fusion_lon": 0.0, "lat": 38.88614366666667, "bike_id": "7de7d8e992f1d626101584ba915a8390", "type": "electric_scooter", "is_reserved": 0, "lon": -77.012477}, {"fusion_lat": 0.0, "name": "746224780dbd41a50213473129358dbf", "is_disabled": 0, "rental_uris": {"android": "https://dc.lft.to/lastmile_qr_scan", "ios": "https://dc.lft.to/lastmile_qr_scan"}, "fusion_lon": 0.0, "lat": 38.934948166666665, "bike_id": "746224780dbd41a50213473129358dbf", "type": "electric_scooter", "is_reserved": 0, "lon": -77.03628966666666}, {"fusion_lat": 0.0, "name": "636c5578042b8e2e11b8a875700d9228", "is_disabled": 0, "rental_uris": {"android": "https://dc.lft.to/lastmile_qr_scan", "ios": "https://dc.lft.to/lastmile_qr_scan"}, "fusion_lon": 0.0, "lat": 38.892362, "bike_id": "636c5578042b8e2e11b8a875700d9228", "type": "electric_scooter", "is_reserved": 0, "lon": -77.0465355}, {"fusion_lat": 0.0, "name": "4540075d52eb830188eb942fbb789323", "is_disabled": 0, "rental_uris": {"android": "https://dc.lft.to/lastmile_qr_scan", "ios": "https://dc.lft.to/lastmile_qr_scan"}, "fusion_lon": 0.0, "lat": 38.916607, "bike_id": "4540075d52eb830188eb942fbb789323", "type": "electric_scooter", "is_reserved": 0, "lon": -77.02813516666667}, {"fusion_lat": 0.0, "name": "932b3c3255a475022eefee6d3fe54271", "is_disabled": 0, "rental_uris": {"android": "https://dc.lft.to/lastmile_qr_scan", "ios": "https://dc.lft.to/lastmile_qr_scan"}, "fusion_lon": 0.0, "lat": 38.91324433333333, "bike_id": "932b3c3255a475022eefee6d3fe54271", "type": "electric_scooter", "is_reserved": 0, "lon": -77.04542483333333}, {"fusion_lat": 0.0, "name": "b3035ddc232a80107561dfeef04da6e1", "is_disabled": 0, "rental_uris": {"android": "https://dc.lft.to/lastmile_qr_scan", "ios": "https://dc.lft.to/lastmile_qr_scan"}, "fusion_lon": 0.0, "lat": 38.913654333333334, "bike_id": "b3035ddc232a80107561dfeef04da6e1", "type": "electric_scooter", "is_reserved": 0, "lon": -77.021994}, {"fusion_lat": 0.0, "name": "d7b663be431db8f34d6020ea6d78833c", "is_disabled": 0, "rental_uris": {"android": "https://dc.lft.to/lastmile_qr_scan", "ios": "https://dc.lft.to/lastmile_qr_scan"}, "fusion_lon": 0.0, "lat": 38.902462666666665, "bike_id": "d7b663be431db8f34d6020ea6d78833c", "type": "electric_scooter", "is_reserved": 0, "lon": -77.05329016666667}, {"fusion_lat": 0.0, "name": "db1cb5dad52a34466b57e0ee26e6fc16", "is_disabled": 0, "rental_uris": {"android": "https://dc.lft.to/lastmile_qr_scan", "ios": "https://dc.lft.to/lastmile_qr_scan"}, "fusion_lon": 0.0, "lat": 38.90527216666667, "bike_id": "db1cb5dad52a34466b57e0ee26e6fc16", "type": "electric_scooter", "is_reserved": 0, "lon": -77.051516}, {"fusion_lat": 0.0, "name": "bb3e2fc8203516032738fb0ca4bb0952", "is_disabled": 0, "rental_uris": {"android": "https://dc.lft.to/lastmile_qr_scan", "ios": "https://dc.lft.to/lastmile_qr_scan"}, "fusion_lon": 0.0, "lat": 38.928764, "bike_id": "bb3e2fc8203516032738fb0ca4bb0952", "type": "electric_scooter", "is_reserved": 0, "lon": -77.01357533333334}, {"fusion_lat": 0.0, "name": "7596288915ce663654ed1676b4b6edb2", "is_disabled": 0, "rental_uris": {"android": "https://dc.lft.to/lastmile_qr_scan", "ios": "https://dc.lft.to/lastmile_qr_scan"}, "fusion_lon": 0.0, "lat": 38.9163925, "bike_id": "7596288915ce663654ed1676b4b6edb2", "type": "electric_scooter", "is_reserved": 0, "lon": -77.0314055}, {"fusion_lat": 0.0, "name": "4f3c95a35ebea04bde3bfab8f938a9cd", "is_disabled": 0, "rental_uris": {"android": "https://dc.lft.to/lastmile_qr_scan", "ios": "https://dc.lft.to/lastmile_qr_scan"}, "fusion_lon": 0.0, "lat": 38.901972666666666, "bike_id": "4f3c95a35ebea04bde3bfab8f938a9cd", "type": "electric_scooter", "is_reserved": 0, "lon": -76.97859466666667}, {"fusion_lat": 0.0, "name": "ba19b2da28773ac28ca3fb51d3a56661", "is_disabled": 0, "rental_uris": {"android": "https://dc.lft.to/lastmile_qr_scan", "ios": "https://dc.lft.to/lastmile_qr_scan"}, "fusion_lon": 0.0, "lat": 38.9332435, "bike_id": "ba19b2da28773ac28ca3fb51d3a56661", "type": "electric_scooter", "is_reserved": 0, "lon": -77.02747483333333}, {"fusion_lat": 0.0, "name": "410097bb9d45496e3a4bcef00644fecd", "is_disabled": 0, "rental_uris": {"android": "https://dc.lft.to/lastmile_qr_scan", "ios": "https://dc.lft.to/lastmile_qr_scan"}, "fusion_lon": 0.0, "lat": 38.892427833333336, "bike_id": "410097bb9d45496e3a4bcef00644fecd", "type": "electric_scooter", "is_reserved": 0, "lon": -77.00290783333334}, {"fusion_lat": 0.0, "name": "916dafb55998e0c76f881854d27f4514", "is_disabled": 0, "rental_uris": {"android": "https://dc.lft.to/lastmile_qr_scan", "ios": "https://dc.lft.to/lastmile_qr_scan"}, "fusion_lon": 0.0, "lat": 38.902387833333336, "bike_id": "916dafb55998e0c76f881854d27f4514", "type": "electric_scooter", "is_reserved": 0, "lon": -77.034704}, {"fusion_lat": 0.0, "name": "19a75bed2916b0508af1000fc593c90f", "is_disabled": 0, "rental_uris": {"android": "https://dc.lft.to/lastmile_qr_scan", "ios": "https://dc.lft.to/lastmile_qr_scan"}, "fusion_lon": 0.0, "lat": 38.91630933333333, "bike_id": "19a75bed2916b0508af1000fc593c90f", "type": "electric_scooter", "is_reserved": 0, "lon": -77.00098583333333}, {"fusion_lat": 0.0, "name": "7c84561818f0f439af4c69f7feb729a2", "is_disabled": 0, "rental_uris": {"android": "https://dc.lft.to/lastmile_qr_scan", "ios": "https://dc.lft.to/lastmile_qr_scan"}, "fusion_lon": 0.0, "lat": 38.93074266666667, "bike_id": "7c84561818f0f439af4c69f7feb729a2", "type": "electric_scooter", "is_reserved": 0, "lon": -77.02176883333334}, {"fusion_lat": 0.0, "name": "363dad75a3c73c4cd0e6194ae316ed39", "is_disabled": 0, "rental_uris": {"android": "https://dc.lft.to/lastmile_qr_scan", "ios": "https://dc.lft.to/lastmile_qr_scan"}, "fusion_lon": 0.0, "lat": 38.907664833333335, "bike_id": "363dad75a3c73c4cd0e6194ae316ed39", "type": "electric_scooter", "is_reserved": 0, "lon": -77.0565225}, {"fusion_lat": 0.0, "name": "67a61c2ad7921c0e0fdcc7051b8d0e17", "is_disabled": 0, "rental_uris": {"android": "https://dc.lft.to/lastmile_qr_scan", "ios": "https://dc.lft.to/lastmile_qr_scan"}, "fusion_lon": 0.0, "lat": 38.89748216666667, "bike_id": "67a61c2ad7921c0e0fdcc7051b8d0e17", "type": "electric_scooter", "is_reserved": 0, "lon": -77.04641366666667}, {"fusion_lat": 0.0, "name": "0d450477cf3e47d7ed25f6db9fe5f518", "is_disabled": 0, "rental_uris": {"android": "https://dc.lft.to/lastmile_qr_scan", "ios": "https://dc.lft.to/lastmile_qr_scan"}, "fusion_lon": 0.0, "lat": 38.939642166666665, "bike_id": "0d450477cf3e47d7ed25f6db9fe5f518", "type": "electric_scooter", "is_reserved": 0, "lon": -77.03282483333334}, {"fusion_lat": 0.0, "name": "84831846a34d9ace6f4e9bec4490cec2", "is_disabled": 0, "rental_uris": {"android": "https://dc.lft.to/lastmile_qr_scan", "ios": "https://dc.lft.to/lastmile_qr_scan"}, "fusion_lon": 0.0, "lat": 38.911206166666666, "bike_id": "84831846a34d9ace6f4e9bec4490cec2", "type": "electric_scooter", "is_reserved": 0, "lon": -77.081321}, {"fusion_lat": 0.0, "name": "20dde30c44050a708e75bdb2f14e7b32", "is_disabled": 0, "rental_uris": {"android": "https://dc.lft.to/lastmile_qr_scan", "ios": "https://dc.lft.to/lastmile_qr_scan"}, "fusion_lon": 0.0, "lat": 38.921541500000004, "bike_id": "20dde30c44050a708e75bdb2f14e7b32", "type": "electric_scooter", "is_reserved": 0, "lon": -77.03365766666667}, {"fusion_lat": 0.0, "name": "182b16f01ecd51e03c8997c00fe4746a", "is_disabled": 0, "rental_uris": {"android": "https://dc.lft.to/lastmile_qr_scan", "ios": "https://dc.lft.to/lastmile_qr_scan"}, "fusion_lon": 0.0, "lat": 38.88329216666666, "bike_id": "182b16f01ecd51e03c8997c00fe4746a", "type": "electric_bike", "is_reserved": 0, "lon": -76.96059783333334}, {"fusion_lat": 0.0, "name": "c3ab6d92bf849a890d4c918b4d4b7dec", "is_disabled": 0, "rental_uris": {"android": "https://dc.lft.to/lastmile_qr_scan", "ios": "https://dc.lft.to/lastmile_qr_scan"}, "fusion_lon": 0.0, "lat": 38.937735833333335, "bike_id": "c3ab6d92bf849a890d4c918b4d4b7dec", "type": "electric_scooter", "is_reserved": 0, "lon": -77.03264566666667}, {"fusion_lat": 0.0, "name": "dcebddd8d384d8088b1f51f4e7d13049", "is_disabled": 0, "rental_uris": {"android": "https://dc.lft.to/lastmile_qr_scan", "ios": "https://dc.lft.to/lastmile_qr_scan"}, "fusion_lon": 0.0, "lat": 38.914815833333336, "bike_id": "dcebddd8d384d8088b1f51f4e7d13049", "type": "electric_scooter", "is_reserved": 0, "lon": -77.04015416666667}, {"fusion_lat": 0.0, "name": "9bfec41f2eb74740b555f9792080f16d", "is_disabled": 0, "rental_uris": {"android": "https://dc.lft.to/lastmile_qr_scan", "ios": "https://dc.lft.to/lastmile_qr_scan"}, "fusion_lon": 0.0, "lat": 38.897105333333336, "bike_id": "9bfec41f2eb74740b555f9792080f16d", "type": "electric_scooter", "is_reserved": 0, "lon": -77.022883}, {"fusion_lat": 0.0, "name": "12c5746896027225eca40d1df0694692", "is_disabled": 0, "rental_uris": {"android": "https://dc.lft.to/lastmile_qr_scan", "ios": "https://dc.lft.to/lastmile_qr_scan"}, "fusion_lon": 0.0, "lat": 38.9282825, "bike_id": "12c5746896027225eca40d1df0694692", "type": "electric_scooter", "is_reserved": 0, "lon": -77.02261766666666}, {"fusion_lat": 0.0, "name": "78076bc390f4fc0118847be0cf012fef", "is_disabled": 0, "rental_uris": {"android": "https://dc.lft.to/lastmile_qr_scan", "ios": "https://dc.lft.to/lastmile_qr_scan"}, "fusion_lon": 0.0, "lat": 38.9222905, "bike_id": "78076bc390f4fc0118847be0cf012fef", "type": "electric_scooter", "is_reserved": 0, "lon": -77.0236795}, {"fusion_lat": 0.0, "name": "f5bc8aae35ffadc09a4e2eb4920524c1", "is_disabled": 0, "rental_uris": {"android": "https://dc.lft.to/lastmile_qr_scan", "ios": "https://dc.lft.to/lastmile_qr_scan"}, "fusion_lon": 0.0, "lat": 38.827977, "bike_id": "f5bc8aae35ffadc09a4e2eb4920524c1", "type": "electric_bike", "is_reserved": 0, "lon": -77.12492583333334}, {"fusion_lat": 0.0, "name": "c1e4bbf6788713f71b7a7daf02abd982", "is_disabled": 0, "rental_uris": {"android": "https://dc.lft.to/lastmile_qr_scan", "ios": "https://dc.lft.to/lastmile_qr_scan"}, "fusion_lon": 0.0, "lat": 38.90738366666667, "bike_id": "c1e4bbf6788713f71b7a7daf02abd982", "type": "electric_scooter", "is_reserved": 0, "lon": -77.02608266666667}, {"fusion_lat": 0.0, "name": "0f1061aac37437fc96c6b9e4b8f48277", "is_disabled": 0, "rental_uris": {"android": "https://dc.lft.to/lastmile_qr_scan", "ios": "https://dc.lft.to/lastmile_qr_scan"}, "fusion_lon": 0.0, "lat": 38.927565333333334, "bike_id": "0f1061aac37437fc96c6b9e4b8f48277", "type": "electric_scooter", "is_reserved": 0, "lon": -77.03291566666667}, {"fusion_lat": 0.0, "name": "af335db0fc82141770f2059eab11d85c", "is_disabled": 0, "rental_uris": {"android": "https://dc.lft.to/lastmile_qr_scan", "ios": "https://dc.lft.to/lastmile_qr_scan"}, "fusion_lon": 0.0, "lat": 38.853682166666665, "bike_id": "af335db0fc82141770f2059eab11d85c", "type": "electric_bike", "is_reserved": 0, "lon": -77.11501016666666}, {"fusion_lat": 0.0, "name": "d47013d6378a41cb00ddead03f6fb20d", "is_disabled": 0, "rental_uris": {"android": "https://dc.lft.to/lastmile_qr_scan", "ios": "https://dc.lft.to/lastmile_qr_scan"}, "fusion_lon": 0.0, "lat": 38.93865, "bike_id": "d47013d6378a41cb00ddead03f6fb20d", "type": "electric_scooter", "is_reserved": 0, "lon": -77.03209366666667}, {"fusion_lat": 0.0, "name": "7f91e4c534a8dde319033ccc778314e3", "is_disabled": 0, "rental_uris": {"android": "https://dc.lft.to/lastmile_qr_scan", "ios": "https://dc.lft.to/lastmile_qr_scan"}, "fusion_lon": 0.0, "lat": 39.034274, "bike_id": "7f91e4c534a8dde319033ccc778314e3", "type": "electric_bike", "is_reserved": 0, "lon": -77.04302083333333}, {"fusion_lat": 0.0, "name": "bfd41255eebaf143bd17be9f9abb99ee", "is_disabled": 0, "rental_uris": {"android": "https://dc.lft.to/lastmile_qr_scan", "ios": "https://dc.lft.to/lastmile_qr_scan"}, "fusion_lon": 0.0, "lat": 38.9004635, "bike_id": "bfd41255eebaf143bd17be9f9abb99ee", "type": "electric_scooter", "is_reserved": 0, "lon": -77.04490616666666}, {"fusion_lat": 0.0, "name": "71a3d9ae30bcd20bc1ad30f5aba09aae", "is_disabled": 0, "rental_uris": {"android": "https://dc.lft.to/lastmile_qr_scan", "ios": "https://dc.lft.to/lastmile_qr_scan"}, "fusion_lon": 0.0, "lat": 38.87834733333333, "bike_id": "71a3d9ae30bcd20bc1ad30f5aba09aae", "type": "electric_scooter", "is_reserved": 0, "lon": -76.99013133333334}, {"fusion_lat": 0.0, "name": "3030130053e86010ed4188821bce7d12", "is_disabled": 0, "rental_uris": {"android": "https://dc.lft.to/lastmile_qr_scan", "ios": "https://dc.lft.to/lastmile_qr_scan"}, "fusion_lon": 0.0, "lat": 38.92124483333333, "bike_id": "3030130053e86010ed4188821bce7d12", "type": "electric_scooter", "is_reserved": 0, "lon": -77.03187583333333}, {"fusion_lat": 0.0, "name": "321e3f0e11855afad0cc8d41002a35e7", "is_disabled": 0, "rental_uris": {"android": "https://dc.lft.to/lastmile_qr_scan", "ios": "https://dc.lft.to/lastmile_qr_scan"}, "fusion_lon": 0.0, "lat": 38.9302075, "bike_id": "321e3f0e11855afad0cc8d41002a35e7", "type": "electric_scooter", "is_reserved": 0, "lon": -77.02079433333333}, {"fusion_lat": 0.0, "name": "75eae29636cf92618e6371225b0cd546", "is_disabled": 0, "rental_uris": {"android": "https://dc.lft.to/lastmile_qr_scan", "ios": "https://dc.lft.to/lastmile_qr_scan"}, "fusion_lon": 0.0, "lat": 38.900025166666666, "bike_id": "75eae29636cf92618e6371225b0cd546", "type": "electric_scooter", "is_reserved": 0, "lon": -76.997387}, {"fusion_lat": 0.0, "name": "0cfb90458dd52204a177b68f912442b1", "is_disabled": 0, "rental_uris": {"android": "https://dc.lft.to/lastmile_qr_scan", "ios": "https://dc.lft.to/lastmile_qr_scan"}, "fusion_lon": 0.0, "lat": 38.91804716666667, "bike_id": "0cfb90458dd52204a177b68f912442b1", "type": "electric_scooter", "is_reserved": 0, "lon": -77.02709666666667}, {"fusion_lat": 0.0, "name": "4c7aa95cfbbf3646100026f02d6ecea4", "is_disabled": 0, "rental_uris": {"android": "https://dc.lft.to/lastmile_qr_scan", "ios": "https://dc.lft.to/lastmile_qr_scan"}, "fusion_lon": 0.0, "lat": 38.924893833333336, "bike_id": "4c7aa95cfbbf3646100026f02d6ecea4", "type": "electric_scooter", "is_reserved": 0, "lon": -77.0271615}, {"fusion_lat": 0.0, "name": "576c197bf276a561889b7b92386edde9", "is_disabled": 0, "rental_uris": {"android": "https://dc.lft.to/lastmile_qr_scan", "ios": "https://dc.lft.to/lastmile_qr_scan"}, "fusion_lon": 0.0, "lat": 38.9095765, "bike_id": "576c197bf276a561889b7b92386edde9", "type": "electric_scooter", "is_reserved": 0, "lon": -77.04737433333334}, {"fusion_lat": 0.0, "name": "74f6259b82d70eb0e2c8791d6ca41be0", "is_disabled": 0, "rental_uris": {"android": "https://dc.lft.to/lastmile_qr_scan", "ios": "https://dc.lft.to/lastmile_qr_scan"}, "fusion_lon": 0.0, "lat": 38.9000425, "bike_id": "74f6259b82d70eb0e2c8791d6ca41be0", "type": "electric_scooter", "is_reserved": 0, "lon": -76.99838116666666}, {"fusion_lat": 0.0, "name": "94190adb227a487ee41ea418c86fce94", "is_disabled": 0, "rental_uris": {"android": "https://dc.lft.to/lastmile_qr_scan", "ios": "https://dc.lft.to/lastmile_qr_scan"}, "fusion_lon": 0.0, "lat": 38.91921283333333, "bike_id": "94190adb227a487ee41ea418c86fce94", "type": "electric_scooter", "is_reserved": 0, "lon": -77.02613783333334}, {"fusion_lat": 0.0, "name": "437ac69d920b2e178fcfd431610f2bd4", "is_disabled": 0, "rental_uris": {"android": "https://dc.lft.to/lastmile_qr_scan", "ios": "https://dc.lft.to/lastmile_qr_scan"}, "fusion_lon": 0.0, "lat": 38.91384883333333, "bike_id": "437ac69d920b2e178fcfd431610f2bd4", "type": "electric_scooter", "is_reserved": 0, "lon": -77.01802133333334}, {"fusion_lat": 0.0, "name": "2a1d175442efa12d3cc260fa6993bf28", "is_disabled": 0, "rental_uris": {"android": "https://dc.lft.to/lastmile_qr_scan", "ios": "https://dc.lft.to/lastmile_qr_scan"}, "fusion_lon": 0.0, "lat": 38.929802333333335, "bike_id": "2a1d175442efa12d3cc260fa6993bf28", "type": "electric_scooter", "is_reserved": 0, "lon": -77.04190266666667}, {"fusion_lat": 0.0, "name": "50174e701ed12a9346d76e9859465e56", "is_disabled": 0, "rental_uris": {"android": "https://dc.lft.to/lastmile_qr_scan", "ios": "https://dc.lft.to/lastmile_qr_scan"}, "fusion_lon": 0.0, "lat": 38.9068925, "bike_id": "50174e701ed12a9346d76e9859465e56", "type": "electric_scooter", "is_reserved": 0, "lon": -77.037329}, {"fusion_lat": 0.0, "name": "7c9ffcfd71196b3d6238c37b70d60b8e", "is_disabled": 0, "rental_uris": {"android": "https://dc.lft.to/lastmile_qr_scan", "ios": "https://dc.lft.to/lastmile_qr_scan"}, "fusion_lon": 0.0, "lat": 38.9247395, "bike_id": "7c9ffcfd71196b3d6238c37b70d60b8e", "type": "electric_scooter", "is_reserved": 0, "lon": -77.08030566666666}, {"fusion_lat": 0.0, "name": "8cbbbe2be1b3a90692486bbfd32eee1c", "is_disabled": 0, "rental_uris": {"android": "https://dc.lft.to/lastmile_qr_scan", "ios": "https://dc.lft.to/lastmile_qr_scan"}, "fusion_lon": 0.0, "lat": 38.89256316666667, "bike_id": "8cbbbe2be1b3a90692486bbfd32eee1c", "type": "electric_bike", "is_reserved": 0, "lon": -76.95121083333333}, {"fusion_lat": 0.0, "name": "8d1623563a6e75dd80d86c6388407196", "is_disabled": 0, "rental_uris": {"android": "https://dc.lft.to/lastmile_qr_scan", "ios": "https://dc.lft.to/lastmile_qr_scan"}, "fusion_lon": 0.0, "lat": 38.907361, "bike_id": "8d1623563a6e75dd80d86c6388407196", "type": "electric_scooter", "is_reserved": 0, "lon": -77.01093983333334}, {"fusion_lat": 0.0, "name": "07f44d232bd4f55a849d0c1d4a5c617f", "is_disabled": 0, "rental_uris": {"android": "https://dc.lft.to/lastmile_qr_scan", "ios": "https://dc.lft.to/lastmile_qr_scan"}, "fusion_lon": 0.0, "lat": 38.8794185, "bike_id": "07f44d232bd4f55a849d0c1d4a5c617f", "type": "electric_scooter", "is_reserved": 0, "lon": -77.004212}, {"fusion_lat": 0.0, "name": "7a926842c11aa4b62f8412b5164d62d7", "is_disabled": 0, "rental_uris": {"android": "https://dc.lft.to/lastmile_qr_scan", "ios": "https://dc.lft.to/lastmile_qr_scan"}, "fusion_lon": 0.0, "lat": 38.90528666666667, "bike_id": "7a926842c11aa4b62f8412b5164d62d7", "type": "electric_scooter", "is_reserved": 0, "lon": -77.061037}, {"fusion_lat": 0.0, "name": "c89e1e9cc10a0f70669d5739a2da9f69", "is_disabled": 0, "rental_uris": {"android": "https://dc.lft.to/lastmile_qr_scan", "ios": "https://dc.lft.to/lastmile_qr_scan"}, "fusion_lon": 0.0, "lat": 38.952508, "bike_id": "c89e1e9cc10a0f70669d5739a2da9f69", "type": "electric_scooter", "is_reserved": 0, "lon": -77.0237735}, {"fusion_lat": 0.0, "name": "9dd05101a36b0eb7d9ff6b1a24050dbb", "is_disabled": 0, "rental_uris": {"android": "https://dc.lft.to/lastmile_qr_scan", "ios": "https://dc.lft.to/lastmile_qr_scan"}, "fusion_lon": 0.0, "lat": 38.892259833333334, "bike_id": "9dd05101a36b0eb7d9ff6b1a24050dbb", "type": "electric_scooter", "is_reserved": 0, "lon": -77.04506233333333}, {"fusion_lat": 0.0, "name": "7481d81671742bba7512002163c31288", "is_disabled": 0, "rental_uris": {"android": "https://dc.lft.to/lastmile_qr_scan", "ios": "https://dc.lft.to/lastmile_qr_scan"}, "fusion_lon": 0.0, "lat": 38.88509366666667, "bike_id": "7481d81671742bba7512002163c31288", "type": "electric_scooter", "is_reserved": 0, "lon": -76.99759733333333}, {"fusion_lat": 0.0, "name": "405f88e8f6724537ffbed3897e8ac65c", "is_disabled": 0, "rental_uris": {"android": "https://dc.lft.to/lastmile_qr_scan", "ios": "https://dc.lft.to/lastmile_qr_scan"}, "fusion_lon": 0.0, "lat": 38.926801166666664, "bike_id": "405f88e8f6724537ffbed3897e8ac65c", "type": "electric_scooter", "is_reserved": 0, "lon": -77.030896}, {"fusion_lat": 0.0, "name": "13171e982f5320e15694c28e8f3c5d40", "is_disabled": 0, "rental_uris": {"android": "https://dc.lft.to/lastmile_qr_scan", "ios": "https://dc.lft.to/lastmile_qr_scan"}, "fusion_lon": 0.0, "lat": 38.931895833333336, "bike_id": "13171e982f5320e15694c28e8f3c5d40", "type": "electric_scooter", "is_reserved": 0, "lon": -77.01961483333334}, {"fusion_lat": 0.0, "name": "b09dbf42011a237b5103d8119d69cd4f", "is_disabled": 0, "rental_uris": {"android": "https://dc.lft.to/lastmile_qr_scan", "ios": "https://dc.lft.to/lastmile_qr_scan"}, "fusion_lon": 0.0, "lat": 38.917072833333336, "bike_id": "b09dbf42011a237b5103d8119d69cd4f", "type": "electric_scooter", "is_reserved": 0, "lon": -77.03470916666667}, {"fusion_lat": 0.0, "name": "076607629e0cc1420026072d977de185", "is_disabled": 0, "rental_uris": {"android": "https://dc.lft.to/lastmile_qr_scan", "ios": "https://dc.lft.to/lastmile_qr_scan"}, "fusion_lon": 0.0, "lat": 38.92697166666667, "bike_id": "076607629e0cc1420026072d977de185", "type": "electric_scooter", "is_reserved": 0, "lon": -77.00773416666667}, {"fusion_lat": 0.0, "name": "22f8d1cd9fe8a8486f9aba9ecb14f48f", "is_disabled": 0, "rental_uris": {"android": "https://dc.lft.to/lastmile_qr_scan", "ios": "https://dc.lft.to/lastmile_qr_scan"}, "fusion_lon": 0.0, "lat": 38.92954266666667, "bike_id": "22f8d1cd9fe8a8486f9aba9ecb14f48f", "type": "electric_scooter", "is_reserved": 0, "lon": -77.03468183333334}, {"fusion_lat": 0.0, "name": "23a0aa1dea547ad9709c6f0845760b8e", "is_disabled": 0, "rental_uris": {"android": "https://dc.lft.to/lastmile_qr_scan", "ios": "https://dc.lft.to/lastmile_qr_scan"}, "fusion_lon": 0.0, "lat": 38.911329333333335, "bike_id": "23a0aa1dea547ad9709c6f0845760b8e", "type": "electric_scooter", "is_reserved": 0, "lon": -77.01050933333333}, {"fusion_lat": 0.0, "name": "a0b6d67eee9a8760970eb7480407b00a", "is_disabled": 0, "rental_uris": {"android": "https://dc.lft.to/lastmile_qr_scan", "ios": "https://dc.lft.to/lastmile_qr_scan"}, "fusion_lon": 0.0, "lat": 38.892970166666665, "bike_id": "a0b6d67eee9a8760970eb7480407b00a", "type": "electric_scooter", "is_reserved": 0, "lon": -77.0465395}, {"fusion_lat": 0.0, "name": "24f2233e83ad93bfd6b5dee2dc3f8ab3", "is_disabled": 0, "rental_uris": {"android": "https://dc.lft.to/lastmile_qr_scan", "ios": "https://dc.lft.to/lastmile_qr_scan"}, "fusion_lon": 0.0, "lat": 38.9026545, "bike_id": "24f2233e83ad93bfd6b5dee2dc3f8ab3", "type": "electric_scooter", "is_reserved": 0, "lon": -77.03368966666666}, {"fusion_lat": 0.0, "name": "138c70eb1081b4dfcc9f37f6d04f1dfe", "is_disabled": 0, "rental_uris": {"android": "https://dc.lft.to/lastmile_qr_scan", "ios": "https://dc.lft.to/lastmile_qr_scan"}, "fusion_lon": 0.0, "lat": 38.842848333333336, "bike_id": "138c70eb1081b4dfcc9f37f6d04f1dfe", "type": "electric_bike", "is_reserved": 0, "lon": -77.04495466666667}, {"fusion_lat": 0.0, "name": "bcdaa53e3af924ffd3f46048f5bc1122", "is_disabled": 0, "rental_uris": {"android": "https://dc.lft.to/lastmile_qr_scan", "ios": "https://dc.lft.to/lastmile_qr_scan"}, "fusion_lon": 0.0, "lat": 38.895634666666666, "bike_id": "bcdaa53e3af924ffd3f46048f5bc1122", "type": "electric_bike", "is_reserved": 0, "lon": -77.12739066666667}, {"fusion_lat": 0.0, "name": "49230d7d529cc5c37aa18ebd25e6ad2e", "is_disabled": 0, "rental_uris": {"android": "https://dc.lft.to/lastmile_qr_scan", "ios": "https://dc.lft.to/lastmile_qr_scan"}, "fusion_lon": 0.0, "lat": 38.90703833333333, "bike_id": "49230d7d529cc5c37aa18ebd25e6ad2e", "type": "electric_scooter", "is_reserved": 0, "lon": -77.0102265}, {"fusion_lat": 0.0, "name": "21c18bce419be15693105864fc913c46", "is_disabled": 0, "rental_uris": {"android": "https://dc.lft.to/lastmile_qr_scan", "ios": "https://dc.lft.to/lastmile_qr_scan"}, "fusion_lon": 0.0, "lat": 38.853091, "bike_id": "21c18bce419be15693105864fc913c46", "type": "electric_bike", "is_reserved": 0, "lon": -77.045998}, {"fusion_lat": 0.0, "name": "cab6a7f024c1e4f3da20ca4bc08c0140", "is_disabled": 0, "rental_uris": {"android": "https://dc.lft.to/lastmile_qr_scan", "ios": "https://dc.lft.to/lastmile_qr_scan"}, "fusion_lon": 0.0, "lat": 38.90075933333333, "bike_id": "cab6a7f024c1e4f3da20ca4bc08c0140", "type": "electric_scooter", "is_reserved": 0, "lon": -77.049383}, {"fusion_lat": 0.0, "name": "611619ff7894d4ebc434bf310493c72b", "is_disabled": 0, "rental_uris": {"android": "https://dc.lft.to/lastmile_qr_scan", "ios": "https://dc.lft.to/lastmile_qr_scan"}, "fusion_lon": 0.0, "lat": 38.9736735, "bike_id": "611619ff7894d4ebc434bf310493c72b", "type": "electric_scooter", "is_reserved": 0, "lon": -77.01292433333333}, {"fusion_lat": 0.0, "name": "e368f3792e35be3e826c4c33800431b8", "is_disabled": 0, "rental_uris": {"android": "https://dc.lft.to/lastmile_qr_scan", "ios": "https://dc.lft.to/lastmile_qr_scan"}, "fusion_lon": 0.0, "lat": 38.883176, "bike_id": "e368f3792e35be3e826c4c33800431b8", "type": "electric_scooter", "is_reserved": 0, "lon": -77.014656}, {"fusion_lat": 0.0, "name": "4064751e3a4902d59c4460fefac863f3", "is_disabled": 0, "rental_uris": {"android": "https://dc.lft.to/lastmile_qr_scan", "ios": "https://dc.lft.to/lastmile_qr_scan"}, "fusion_lon": 0.0, "lat": 38.92593216666667, "bike_id": "4064751e3a4902d59c4460fefac863f3", "type": "electric_scooter", "is_reserved": 0, "lon": -77.02471616666666}, {"fusion_lat": 0.0, "name": "9405b0d6f39e7c43ce83b30267228f9d", "is_disabled": 0, "rental_uris": {"android": "https://dc.lft.to/lastmile_qr_scan", "ios": "https://dc.lft.to/lastmile_qr_scan"}, "fusion_lon": 0.0, "lat": 38.921142, "bike_id": "9405b0d6f39e7c43ce83b30267228f9d", "type": "electric_scooter", "is_reserved": 0, "lon": -77.046898}, {"fusion_lat": 0.0, "name": "93361f8f1da7cbec173faf33c0c857f2", "is_disabled": 0, "rental_uris": {"android": "https://dc.lft.to/lastmile_qr_scan", "ios": "https://dc.lft.to/lastmile_qr_scan"}, "fusion_lon": 0.0, "lat": 38.902627833333334, "bike_id": "93361f8f1da7cbec173faf33c0c857f2", "type": "electric_scooter", "is_reserved": 0, "lon": -77.03427983333333}, {"fusion_lat": 0.0, "name": "34e1bb2d8ba45f82860eea1dcec7e891", "is_disabled": 0, "rental_uris": {"android": "https://dc.lft.to/lastmile_qr_scan", "ios": "https://dc.lft.to/lastmile_qr_scan"}, "fusion_lon": 0.0, "lat": 38.935263166666665, "bike_id": "34e1bb2d8ba45f82860eea1dcec7e891", "type": "electric_scooter", "is_reserved": 0, "lon": -77.045214}, {"fusion_lat": 0.0, "name": "abf0d886706d31ed38ae05dea638af57", "is_disabled": 0, "rental_uris": {"android": "https://dc.lft.to/lastmile_qr_scan", "ios": "https://dc.lft.to/lastmile_qr_scan"}, "fusion_lon": 0.0, "lat": 38.90354983333334, "bike_id": "abf0d886706d31ed38ae05dea638af57", "type": "electric_scooter", "is_reserved": 0, "lon": -76.97477016666667}, {"fusion_lat": 0.0, "name": "6e5a18da21b3336d531c2d01e351d8c6", "is_disabled": 0, "rental_uris": {"android": "https://dc.lft.to/lastmile_qr_scan", "ios": "https://dc.lft.to/lastmile_qr_scan"}, "fusion_lon": 0.0, "lat": 38.90098616666667, "bike_id": "6e5a18da21b3336d531c2d01e351d8c6", "type": "electric_scooter", "is_reserved": 0, "lon": -77.05063316666667}, {"fusion_lat": 0.0, "name": "037e997c3d0211b7fc4d84a528dcf589", "is_disabled": 0, "rental_uris": {"android": "https://dc.lft.to/lastmile_qr_scan", "ios": "https://dc.lft.to/lastmile_qr_scan"}, "fusion_lon": 0.0, "lat": 38.909336333333336, "bike_id": "037e997c3d0211b7fc4d84a528dcf589", "type": "electric_scooter", "is_reserved": 0, "lon": -77.06252583333334}, {"fusion_lat": 0.0, "name": "916f6ca7c89e93f02d75142f71815f16", "is_disabled": 0, "rental_uris": {"android": "https://dc.lft.to/lastmile_qr_scan", "ios": "https://dc.lft.to/lastmile_qr_scan"}, "fusion_lon": 0.0, "lat": 38.934676333333336, "bike_id": "916f6ca7c89e93f02d75142f71815f16", "type": "electric_scooter", "is_reserved": 0, "lon": -77.03395016666667}, {"fusion_lat": 0.0, "name": "2301f249165fa15201da35d2eb433d39", "is_disabled": 0, "rental_uris": {"android": "https://dc.lft.to/lastmile_qr_scan", "ios": "https://dc.lft.to/lastmile_qr_scan"}, "fusion_lon": 0.0, "lat": 38.93818683333333, "bike_id": "2301f249165fa15201da35d2eb433d39", "type": "electric_scooter", "is_reserved": 0, "lon": -77.02641383333334}, {"fusion_lat": 0.0, "name": "77e0645fe10c48a30563fed231023e01", "is_disabled": 0, "rental_uris": {"android": "https://dc.lft.to/lastmile_qr_scan", "ios": "https://dc.lft.to/lastmile_qr_scan"}, "fusion_lon": 0.0, "lat": 38.938812166666665, "bike_id": "77e0645fe10c48a30563fed231023e01", "type": "electric_scooter", "is_reserved": 0, "lon": -77.024665}, {"fusion_lat": 0.0, "name": "23d4f8801d69befbca54083432011298", "is_disabled": 0, "rental_uris": {"android": "https://dc.lft.to/lastmile_qr_scan", "ios": "https://dc.lft.to/lastmile_qr_scan"}, "fusion_lon": 0.0, "lat": 38.90734783333333, "bike_id": "23d4f8801d69befbca54083432011298", "type": "electric_scooter", "is_reserved": 0, "lon": -77.00955433333333}, {"fusion_lat": 0.0, "name": "46280e952b7cbd506ca4b55e1b043b90", "is_disabled": 0, "rental_uris": {"android": "https://dc.lft.to/lastmile_qr_scan", "ios": "https://dc.lft.to/lastmile_qr_scan"}, "fusion_lon": 0.0, "lat": 38.8922195, "bike_id": "46280e952b7cbd506ca4b55e1b043b90", "type": "electric_scooter", "is_reserved": 0, "lon": -77.03337983333333}, {"fusion_lat": 0.0, "name": "2e89e2bd56bcabeaf4b2c61c5a40988d", "is_disabled": 0, "rental_uris": {"android": "https://dc.lft.to/lastmile_qr_scan", "ios": "https://dc.lft.to/lastmile_qr_scan"}, "fusion_lon": 0.0, "lat": 38.94901333333333, "bike_id": "2e89e2bd56bcabeaf4b2c61c5a40988d", "type": "electric_bike", "is_reserved": 0, "lon": -76.96375516666667}, {"fusion_lat": 0.0, "name": "643f87b7abed4d12fcf59d0e8a44e49b", "is_disabled": 0, "rental_uris": {"android": "https://dc.lft.to/lastmile_qr_scan", "ios": "https://dc.lft.to/lastmile_qr_scan"}, "fusion_lon": 0.0, "lat": 38.927867666666664, "bike_id": "643f87b7abed4d12fcf59d0e8a44e49b", "type": "electric_scooter", "is_reserved": 0, "lon": -77.03213483333333}, {"fusion_lat": 0.0, "name": "175ce9a48fd03e5c15bfd86a1924ae8e", "is_disabled": 0, "rental_uris": {"android": "https://dc.lft.to/lastmile_qr_scan", "ios": "https://dc.lft.to/lastmile_qr_scan"}, "fusion_lon": 0.0, "lat": 38.948793333333334, "bike_id": "175ce9a48fd03e5c15bfd86a1924ae8e", "type": "electric_scooter", "is_reserved": 0, "lon": -77.026838}, {"fusion_lat": 0.0, "name": "6f228dbedead109d06214acb180e6af6", "is_disabled": 0, "rental_uris": {"android": "https://dc.lft.to/lastmile_qr_scan", "ios": "https://dc.lft.to/lastmile_qr_scan"}, "fusion_lon": 0.0, "lat": 38.911204166666664, "bike_id": "6f228dbedead109d06214acb180e6af6", "type": "electric_scooter", "is_reserved": 0, "lon": -76.99765816666667}, {"fusion_lat": 0.0, "name": "7c7f13eed7580a0ed0bd06ceed14aadf", "is_disabled": 0, "rental_uris": {"android": "https://dc.lft.to/lastmile_qr_scan", "ios": "https://dc.lft.to/lastmile_qr_scan"}, "fusion_lon": 0.0, "lat": 38.93641516666667, "bike_id": "7c7f13eed7580a0ed0bd06ceed14aadf", "type": "electric_scooter", "is_reserved": 0, "lon": -77.03665366666667}, {"fusion_lat": 0.0, "name": "8b963e18aacbfd606f25f5b1e2f142a2", "is_disabled": 0, "rental_uris": {"android": "https://dc.lft.to/lastmile_qr_scan", "ios": "https://dc.lft.to/lastmile_qr_scan"}, "fusion_lon": 0.0, "lat": 38.91963966666667, "bike_id": "8b963e18aacbfd606f25f5b1e2f142a2", "type": "electric_scooter", "is_reserved": 0, "lon": -77.07093916666666}, {"fusion_lat": 0.0, "name": "10f681bc005040cbe2004469991ebc75", "is_disabled": 0, "rental_uris": {"android": "https://dc.lft.to/lastmile_qr_scan", "ios": "https://dc.lft.to/lastmile_qr_scan"}, "fusion_lon": 0.0, "lat": 38.925575333333335, "bike_id": "10f681bc005040cbe2004469991ebc75", "type": "electric_scooter", "is_reserved": 0, "lon": -77.07761666666667}, {"fusion_lat": 0.0, "name": "0c8c464a617ef2a6c0ee782ade6eca7e", "is_disabled": 0, "rental_uris": {"android": "https://dc.lft.to/lastmile_qr_scan", "ios": "https://dc.lft.to/lastmile_qr_scan"}, "fusion_lon": 0.0, "lat": 38.931327333333336, "bike_id": "0c8c464a617ef2a6c0ee782ade6eca7e", "type": "electric_scooter", "is_reserved": 0, "lon": -77.03258383333333}, {"fusion_lat": 0.0, "name": "37e2d08e965ac31aebb85b5f3434f607", "is_disabled": 0, "rental_uris": {"android": "https://dc.lft.to/lastmile_qr_scan", "ios": "https://dc.lft.to/lastmile_qr_scan"}, "fusion_lon": 0.0, "lat": 38.8961585, "bike_id": "37e2d08e965ac31aebb85b5f3434f607", "type": "electric_scooter", "is_reserved": 0, "lon": -77.022777}, {"fusion_lat": 0.0, "name": "72e982512f5c2868a2e90c40730183b4", "is_disabled": 0, "rental_uris": {"android": "https://dc.lft.to/lastmile_qr_scan", "ios": "https://dc.lft.to/lastmile_qr_scan"}, "fusion_lon": 0.0, "lat": 38.8928345, "bike_id": "72e982512f5c2868a2e90c40730183b4", "type": "electric_scooter", "is_reserved": 0, "lon": -76.98306433333333}, {"fusion_lat": 0.0, "name": "ba3ca4ac0cc3a38a1586cc94f7c579a1", "is_disabled": 0, "rental_uris": {"android": "https://dc.lft.to/lastmile_qr_scan", "ios": "https://dc.lft.to/lastmile_qr_scan"}, "fusion_lon": 0.0, "lat": 38.912950333333335, "bike_id": "ba3ca4ac0cc3a38a1586cc94f7c579a1", "type": "electric_scooter", "is_reserved": 0, "lon": -77.048754}, {"fusion_lat": 0.0, "name": "0602d6458b6cd445fed150864989749b", "is_disabled": 0, "rental_uris": {"android": "https://dc.lft.to/lastmile_qr_scan", "ios": "https://dc.lft.to/lastmile_qr_scan"}, "fusion_lon": 0.0, "lat": 38.918114833333334, "bike_id": "0602d6458b6cd445fed150864989749b", "type": "electric_scooter", "is_reserved": 0, "lon": -77.0112935}, {"fusion_lat": 0.0, "name": "a4973b777f169103ba3a70a675d4351b", "is_disabled": 0, "rental_uris": {"android": "https://dc.lft.to/lastmile_qr_scan", "ios": "https://dc.lft.to/lastmile_qr_scan"}, "fusion_lon": 0.0, "lat": 38.90763783333333, "bike_id": "a4973b777f169103ba3a70a675d4351b", "type": "electric_scooter", "is_reserved": 0, "lon": -77.03209633333333}, {"fusion_lat": 0.0, "name": "e603b4ef04e75cb357273aedce63f687", "is_disabled": 0, "rental_uris": {"android": "https://dc.lft.to/lastmile_qr_scan", "ios": "https://dc.lft.to/lastmile_qr_scan"}, "fusion_lon": 0.0, "lat": 38.81917516666667, "bike_id": "e603b4ef04e75cb357273aedce63f687", "type": "electric_bike", "is_reserved": 0, "lon": -77.1266505}, {"fusion_lat": 0.0, "name": "60524ccf49468be3b42b5b10c6e44d3a", "is_disabled": 0, "rental_uris": {"android": "https://dc.lft.to/lastmile_qr_scan", "ios": "https://dc.lft.to/lastmile_qr_scan"}, "fusion_lon": 0.0, "lat": 38.9072835, "bike_id": "60524ccf49468be3b42b5b10c6e44d3a", "type": "electric_scooter", "is_reserved": 0, "lon": -77.04359033333333}, {"fusion_lat": 0.0, "name": "b7f06ec94f4471016baada7947497a21", "is_disabled": 0, "rental_uris": {"android": "https://dc.lft.to/lastmile_qr_scan", "ios": "https://dc.lft.to/lastmile_qr_scan"}, "fusion_lon": 0.0, "lat": 38.916268, "bike_id": "b7f06ec94f4471016baada7947497a21", "type": "electric_scooter", "is_reserved": 0, "lon": -77.0385455}, {"fusion_lat": 0.0, "name": "ccff4fd11759b03ac9ef73cd156a439b", "is_disabled": 0, "rental_uris": {"android": "https://dc.lft.to/lastmile_qr_scan", "ios": "https://dc.lft.to/lastmile_qr_scan"}, "fusion_lon": 0.0, "lat": 38.905600666666665, "bike_id": "ccff4fd11759b03ac9ef73cd156a439b", "type": "electric_scooter", "is_reserved": 0, "lon": -77.00481816666667}, {"fusion_lat": 0.0, "name": "41307b0bd232b90f9169a0bd2abb4052", "is_disabled": 0, "rental_uris": {"android": "https://dc.lft.to/lastmile_qr_scan", "ios": "https://dc.lft.to/lastmile_qr_scan"}, "fusion_lon": 0.0, "lat": 38.902636666666666, "bike_id": "41307b0bd232b90f9169a0bd2abb4052", "type": "electric_scooter", "is_reserved": 0, "lon": -77.018596}, {"fusion_lat": 0.0, "name": "9df986135fc73b675a798a08b7c86622", "is_disabled": 0, "rental_uris": {"android": "https://dc.lft.to/lastmile_qr_scan", "ios": "https://dc.lft.to/lastmile_qr_scan"}, "fusion_lon": 0.0, "lat": 38.874779, "bike_id": "9df986135fc73b675a798a08b7c86622", "type": "electric_scooter", "is_reserved": 0, "lon": -77.01893433333333}, {"fusion_lat": 0.0, "name": "efdd965db42160c6f823c627f3db6d68", "is_disabled": 0, "rental_uris": {"android": "https://dc.lft.to/lastmile_qr_scan", "ios": "https://dc.lft.to/lastmile_qr_scan"}, "fusion_lon": 0.0, "lat": 38.8990375, "bike_id": "efdd965db42160c6f823c627f3db6d68", "type": "electric_scooter", "is_reserved": 0, "lon": -76.94548383333333}, {"fusion_lat": 0.0, "name": "71de9d284602b1b14b019c609df2bd1d", "is_disabled": 0, "rental_uris": {"android": "https://dc.lft.to/lastmile_qr_scan", "ios": "https://dc.lft.to/lastmile_qr_scan"}, "fusion_lon": 0.0, "lat": 38.923554833333334, "bike_id": "71de9d284602b1b14b019c609df2bd1d", "type": "electric_scooter", "is_reserved": 0, "lon": -77.043889}, {"fusion_lat": 0.0, "name": "48b571c3d91814ef43b6e6d742922b0c", "is_disabled": 0, "rental_uris": {"android": "https://dc.lft.to/lastmile_qr_scan", "ios": "https://dc.lft.to/lastmile_qr_scan"}, "fusion_lon": 0.0, "lat": 38.824624166666666, "bike_id": "48b571c3d91814ef43b6e6d742922b0c", "type": "electric_bike", "is_reserved": 0, "lon": -77.007949}, {"fusion_lat": 0.0, "name": "1dae6765a9e14da79f59ec8913b79a36", "is_disabled": 0, "rental_uris": {"android": "https://dc.lft.to/lastmile_qr_scan", "ios": "https://dc.lft.to/lastmile_qr_scan"}, "fusion_lon": 0.0, "lat": 38.89230466666667, "bike_id": "1dae6765a9e14da79f59ec8913b79a36", "type": "electric_scooter", "is_reserved": 0, "lon": -77.0450315}, {"fusion_lat": 0.0, "name": "cbb6a7fa89fe769ac1e37783ebb457bf", "is_disabled": 0, "rental_uris": {"android": "https://dc.lft.to/lastmile_qr_scan", "ios": "https://dc.lft.to/lastmile_qr_scan"}, "fusion_lon": 0.0, "lat": 38.919229, "bike_id": "cbb6a7fa89fe769ac1e37783ebb457bf", "type": "electric_scooter", "is_reserved": 0, "lon": -77.03172383333333}, {"fusion_lat": 0.0, "name": "0b805ca1da3aa34477c79cf77018a941", "is_disabled": 0, "rental_uris": {"android": "https://dc.lft.to/lastmile_qr_scan", "ios": "https://dc.lft.to/lastmile_qr_scan"}, "fusion_lon": 0.0, "lat": 38.94464716666667, "bike_id": "0b805ca1da3aa34477c79cf77018a941", "type": "electric_scooter", "is_reserved": 0, "lon": -77.0065955}, {"fusion_lat": 0.0, "name": "b00ef361f6fadf92046ea8b5c115fd81", "is_disabled": 0, "rental_uris": {"android": "https://dc.lft.to/lastmile_qr_scan", "ios": "https://dc.lft.to/lastmile_qr_scan"}, "fusion_lon": 0.0, "lat": 38.88771, "bike_id": "b00ef361f6fadf92046ea8b5c115fd81", "type": "electric_scooter", "is_reserved": 0, "lon": -76.97753}, {"fusion_lat": 0.0, "name": "8ab2bcbefbeab4c4ee53fb5de1aa3365", "is_disabled": 0, "rental_uris": {"android": "https://dc.lft.to/lastmile_qr_scan", "ios": "https://dc.lft.to/lastmile_qr_scan"}, "fusion_lon": 0.0, "lat": 38.93362166666667, "bike_id": "8ab2bcbefbeab4c4ee53fb5de1aa3365", "type": "electric_scooter", "is_reserved": 0, "lon": -77.024363}, {"fusion_lat": 0.0, "name": "8e375ac55f01e7335cd004561cba8ec8", "is_disabled": 0, "rental_uris": {"android": "https://dc.lft.to/lastmile_qr_scan", "ios": "https://dc.lft.to/lastmile_qr_scan"}, "fusion_lon": 0.0, "lat": 38.9112755, "bike_id": "8e375ac55f01e7335cd004561cba8ec8", "type": "electric_scooter", "is_reserved": 0, "lon": -77.022038}, {"fusion_lat": 0.0, "name": "cb4cb3cf3e37d4e2ad6225c9ce02dec5", "is_disabled": 0, "rental_uris": {"android": "https://dc.lft.to/lastmile_qr_scan", "ios": "https://dc.lft.to/lastmile_qr_scan"}, "fusion_lon": 0.0, "lat": 38.90036716666667, "bike_id": "cb4cb3cf3e37d4e2ad6225c9ce02dec5", "type": "electric_scooter", "is_reserved": 0, "lon": -76.98553883333334}, {"fusion_lat": 0.0, "name": "606c9ef8b9696cbc65008eb8056f112b", "is_disabled": 0, "rental_uris": {"android": "https://dc.lft.to/lastmile_qr_scan", "ios": "https://dc.lft.to/lastmile_qr_scan"}, "fusion_lon": 0.0, "lat": 38.897424666666666, "bike_id": "606c9ef8b9696cbc65008eb8056f112b", "type": "electric_scooter", "is_reserved": 0, "lon": -77.01963866666667}, {"fusion_lat": 0.0, "name": "f08ece03eadbc50e3671b2a8bdb1a478", "is_disabled": 0, "rental_uris": {"android": "https://dc.lft.to/lastmile_qr_scan", "ios": "https://dc.lft.to/lastmile_qr_scan"}, "fusion_lon": 0.0, "lat": 38.934216, "bike_id": "f08ece03eadbc50e3671b2a8bdb1a478", "type": "electric_scooter", "is_reserved": 0, "lon": -77.04279266666667}, {"fusion_lat": 0.0, "name": "d699e9d325c3b217a0cda1e152c411f0", "is_disabled": 0, "rental_uris": {"android": "https://dc.lft.to/lastmile_qr_scan", "ios": "https://dc.lft.to/lastmile_qr_scan"}, "fusion_lon": 0.0, "lat": 38.879693333333336, "bike_id": "d699e9d325c3b217a0cda1e152c411f0", "type": "electric_bike", "is_reserved": 0, "lon": -76.916169}, {"fusion_lat": 0.0, "name": "e65b73d62d13aae913e76c79a2bf1ef4", "is_disabled": 0, "rental_uris": {"android": "https://dc.lft.to/lastmile_qr_scan", "ios": "https://dc.lft.to/lastmile_qr_scan"}, "fusion_lon": 0.0, "lat": 38.897075, "bike_id": "e65b73d62d13aae913e76c79a2bf1ef4", "type": "electric_scooter", "is_reserved": 0, "lon": -77.02137216666667}, {"fusion_lat": 0.0, "name": "f542c341b7b3e228c2084a91c70db32d", "is_disabled": 0, "rental_uris": {"android": "https://dc.lft.to/lastmile_qr_scan", "ios": "https://dc.lft.to/lastmile_qr_scan"}, "fusion_lon": 0.0, "lat": 38.92420466666667, "bike_id": "f542c341b7b3e228c2084a91c70db32d", "type": "electric_scooter", "is_reserved": 0, "lon": -77.01951866666667}, {"fusion_lat": 0.0, "name": "bbbcdbf836c2a98efc94544253650bd9", "is_disabled": 0, "rental_uris": {"android": "https://dc.lft.to/lastmile_qr_scan", "ios": "https://dc.lft.to/lastmile_qr_scan"}, "fusion_lon": 0.0, "lat": 38.9132275, "bike_id": "bbbcdbf836c2a98efc94544253650bd9", "type": "electric_scooter", "is_reserved": 0, "lon": -77.02136366666667}, {"fusion_lat": 0.0, "name": "6d5ead6ac6f89ed8f524c9e901c6b503", "is_disabled": 0, "rental_uris": {"android": "https://dc.lft.to/lastmile_qr_scan", "ios": "https://dc.lft.to/lastmile_qr_scan"}, "fusion_lon": 0.0, "lat": 38.9620895, "bike_id": "6d5ead6ac6f89ed8f524c9e901c6b503", "type": "electric_bike", "is_reserved": 0, "lon": -77.0277885}, {"fusion_lat": 0.0, "name": "1c4ab69105dbc7008ce3542e700bd95d", "is_disabled": 0, "rental_uris": {"android": "https://dc.lft.to/lastmile_qr_scan", "ios": "https://dc.lft.to/lastmile_qr_scan"}, "fusion_lon": 0.0, "lat": 38.93878933333333, "bike_id": "1c4ab69105dbc7008ce3542e700bd95d", "type": "electric_scooter", "is_reserved": 0, "lon": -77.02462083333333}, {"fusion_lat": 0.0, "name": "55a1607b27e7c4dd04299702679022ff", "is_disabled": 0, "rental_uris": {"android": "https://dc.lft.to/lastmile_qr_scan", "ios": "https://dc.lft.to/lastmile_qr_scan"}, "fusion_lon": 0.0, "lat": 38.91691983333333, "bike_id": "55a1607b27e7c4dd04299702679022ff", "type": "electric_scooter", "is_reserved": 0, "lon": -77.02800333333333}, {"fusion_lat": 0.0, "name": "de6f012df947d067a8cc234a7ebcf8ad", "is_disabled": 0, "rental_uris": {"android": "https://dc.lft.to/lastmile_qr_scan", "ios": "https://dc.lft.to/lastmile_qr_scan"}, "fusion_lon": 0.0, "lat": 38.93145616666666, "bike_id": "de6f012df947d067a8cc234a7ebcf8ad", "type": "electric_scooter", "is_reserved": 0, "lon": -77.07846666666667}, {"fusion_lat": 0.0, "name": "af45ba86503d6f33cbe11329e6c3f758", "is_disabled": 0, "rental_uris": {"android": "https://dc.lft.to/lastmile_qr_scan", "ios": "https://dc.lft.to/lastmile_qr_scan"}, "fusion_lon": 0.0, "lat": 38.923326833333334, "bike_id": "af45ba86503d6f33cbe11329e6c3f758", "type": "electric_scooter", "is_reserved": 0, "lon": -77.020813}, {"fusion_lat": 0.0, "name": "054bab029dcf405634fb337bcc99f786", "is_disabled": 0, "rental_uris": {"android": "https://dc.lft.to/lastmile_qr_scan", "ios": "https://dc.lft.to/lastmile_qr_scan"}, "fusion_lon": 0.0, "lat": 38.90729983333333, "bike_id": "054bab029dcf405634fb337bcc99f786", "type": "electric_scooter", "is_reserved": 0, "lon": -77.0481205}, {"fusion_lat": 0.0, "name": "12e029bd12bf6e0c0edc15b4095af0b1", "is_disabled": 0, "rental_uris": {"android": "https://dc.lft.to/lastmile_qr_scan", "ios": "https://dc.lft.to/lastmile_qr_scan"}, "fusion_lon": 0.0, "lat": 38.959528166666665, "bike_id": "12e029bd12bf6e0c0edc15b4095af0b1", "type": "electric_bike", "is_reserved": 0, "lon": -77.03059233333333}, {"fusion_lat": 0.0, "name": "fb691f5708b0bcbc866d4a969900f7f3", "is_disabled": 0, "rental_uris": {"android": "https://dc.lft.to/lastmile_qr_scan", "ios": "https://dc.lft.to/lastmile_qr_scan"}, "fusion_lon": 0.0, "lat": 38.90801783333333, "bike_id": "fb691f5708b0bcbc866d4a969900f7f3", "type": "electric_scooter", "is_reserved": 0, "lon": -77.04340733333333}, {"fusion_lat": 0.0, "name": "b6c2886e4ac783e135f9382c3c652fd6", "is_disabled": 0, "rental_uris": {"android": "https://dc.lft.to/lastmile_qr_scan", "ios": "https://dc.lft.to/lastmile_qr_scan"}, "fusion_lon": 0.0, "lat": 38.92420933333333, "bike_id": "b6c2886e4ac783e135f9382c3c652fd6", "type": "electric_scooter", "is_reserved": 0, "lon": -77.020101}, {"fusion_lat": 0.0, "name": "3f10ed5dfe302353eb78b33c09dffb30", "is_disabled": 0, "rental_uris": {"android": "https://dc.lft.to/lastmile_qr_scan", "ios": "https://dc.lft.to/lastmile_qr_scan"}, "fusion_lon": 0.0, "lat": 38.89191116666667, "bike_id": "3f10ed5dfe302353eb78b33c09dffb30", "type": "electric_scooter", "is_reserved": 0, "lon": -76.99938616666667}, {"fusion_lat": 0.0, "name": "e09bedd49bc8d87135983da03d640269", "is_disabled": 0, "rental_uris": {"android": "https://dc.lft.to/lastmile_qr_scan", "ios": "https://dc.lft.to/lastmile_qr_scan"}, "fusion_lon": 0.0, "lat": 38.902798, "bike_id": "e09bedd49bc8d87135983da03d640269", "type": "electric_scooter", "is_reserved": 0, "lon": -77.043734}, {"fusion_lat": 0.0, "name": "8237b179a8d5751c24b4d36d91c2bed0", "is_disabled": 0, "rental_uris": {"android": "https://dc.lft.to/lastmile_qr_scan", "ios": "https://dc.lft.to/lastmile_qr_scan"}, "fusion_lon": 0.0, "lat": 38.941185833333336, "bike_id": "8237b179a8d5751c24b4d36d91c2bed0", "type": "electric_scooter", "is_reserved": 0, "lon": -77.02541466666666}, {"fusion_lat": 0.0, "name": "02b58d0873a4d801b9e709f216eb53bb", "is_disabled": 0, "rental_uris": {"android": "https://dc.lft.to/lastmile_qr_scan", "ios": "https://dc.lft.to/lastmile_qr_scan"}, "fusion_lon": 0.0, "lat": 38.883569333333334, "bike_id": "02b58d0873a4d801b9e709f216eb53bb", "type": "electric_scooter", "is_reserved": 0, "lon": -76.94165766666667}, {"fusion_lat": 0.0, "name": "8cc323a92f0ed113b72cbc0088e8ef31", "is_disabled": 0, "rental_uris": {"android": "https://dc.lft.to/lastmile_qr_scan", "ios": "https://dc.lft.to/lastmile_qr_scan"}, "fusion_lon": 0.0, "lat": 38.96227783333333, "bike_id": "8cc323a92f0ed113b72cbc0088e8ef31", "type": "electric_bike", "is_reserved": 0, "lon": -77.02621383333333}, {"fusion_lat": 0.0, "name": "2b4708e0255085729039539304c03db7", "is_disabled": 0, "rental_uris": {"android": "https://dc.lft.to/lastmile_qr_scan", "ios": "https://dc.lft.to/lastmile_qr_scan"}, "fusion_lon": 0.0, "lat": 38.876961333333334, "bike_id": "2b4708e0255085729039539304c03db7", "type": "electric_scooter", "is_reserved": 0, "lon": -77.00311216666667}, {"fusion_lat": 0.0, "name": "fb6fa4e3f782816d086bf8621ef98110", "is_disabled": 0, "rental_uris": {"android": "https://dc.lft.to/lastmile_qr_scan", "ios": "https://dc.lft.to/lastmile_qr_scan"}, "fusion_lon": 0.0, "lat": 38.92889916666667, "bike_id": "fb6fa4e3f782816d086bf8621ef98110", "type": "electric_scooter", "is_reserved": 0, "lon": -77.0421795}, {"fusion_lat": 0.0, "name": "c32a7c96ed50a5ff777ba93de79be2c7", "is_disabled": 0, "rental_uris": {"android": "https://dc.lft.to/lastmile_qr_scan", "ios": "https://dc.lft.to/lastmile_qr_scan"}, "fusion_lon": 0.0, "lat": 38.9126665, "bike_id": "c32a7c96ed50a5ff777ba93de79be2c7", "type": "electric_scooter", "is_reserved": 0, "lon": -77.02257033333333}, {"fusion_lat": 0.0, "name": "ef25792b86e5412021e533d1bb5f6ca3", "is_disabled": 0, "rental_uris": {"android": "https://dc.lft.to/lastmile_qr_scan", "ios": "https://dc.lft.to/lastmile_qr_scan"}, "fusion_lon": 0.0, "lat": 38.91976666666667, "bike_id": "ef25792b86e5412021e533d1bb5f6ca3", "type": "electric_scooter", "is_reserved": 0, "lon": -77.02390566666666}, {"fusion_lat": 0.0, "name": "8b46dd32bbb9f718fbf07e123a6ba271", "is_disabled": 0, "rental_uris": {"android": "https://dc.lft.to/lastmile_qr_scan", "ios": "https://dc.lft.to/lastmile_qr_scan"}, "fusion_lon": 0.0, "lat": 38.925421, "bike_id": "8b46dd32bbb9f718fbf07e123a6ba271", "type": "electric_scooter", "is_reserved": 0, "lon": -77.051138}, {"fusion_lat": 0.0, "name": "f739727c58a4915e9d3cc868cda0d4a7", "is_disabled": 0, "rental_uris": {"android": "https://dc.lft.to/lastmile_qr_scan", "ios": "https://dc.lft.to/lastmile_qr_scan"}, "fusion_lon": 0.0, "lat": 38.92507283333333, "bike_id": "f739727c58a4915e9d3cc868cda0d4a7", "type": "electric_scooter", "is_reserved": 0, "lon": -77.02327833333334}, {"fusion_lat": 0.0, "name": "313e1e92cfe9f0470bbe234d92f744a1", "is_disabled": 0, "rental_uris": {"android": "https://dc.lft.to/lastmile_qr_scan", "ios": "https://dc.lft.to/lastmile_qr_scan"}, "fusion_lon": 0.0, "lat": 38.93604116666667, "bike_id": "313e1e92cfe9f0470bbe234d92f744a1", "type": "electric_scooter", "is_reserved": 0, "lon": -77.05896916666667}, {"fusion_lat": 0.0, "name": "7c5d22e38bdec60b881990a3002a74ed", "is_disabled": 0, "rental_uris": {"android": "https://dc.lft.to/lastmile_qr_scan", "ios": "https://dc.lft.to/lastmile_qr_scan"}, "fusion_lon": 0.0, "lat": 38.94623933333333, "bike_id": "7c5d22e38bdec60b881990a3002a74ed", "type": "electric_scooter", "is_reserved": 0, "lon": -77.08019916666667}, {"fusion_lat": 0.0, "name": "67606f8e1ae522f5ae100794902e5559", "is_disabled": 0, "rental_uris": {"android": "https://dc.lft.to/lastmile_qr_scan", "ios": "https://dc.lft.to/lastmile_qr_scan"}, "fusion_lon": 0.0, "lat": 38.912589, "bike_id": "67606f8e1ae522f5ae100794902e5559", "type": "electric_scooter", "is_reserved": 0, "lon": -77.0386255}, {"fusion_lat": 0.0, "name": "0c60b4bf601451153fce489e02487def", "is_disabled": 0, "rental_uris": {"android": "https://dc.lft.to/lastmile_qr_scan", "ios": "https://dc.lft.to/lastmile_qr_scan"}, "fusion_lon": 0.0, "lat": 38.84355816666667, "bike_id": "0c60b4bf601451153fce489e02487def", "type": "electric_bike", "is_reserved": 0, "lon": -76.978229}, {"fusion_lat": 0.0, "name": "523eda4d6ca6122b1964f57750e1bdbf", "is_disabled": 0, "rental_uris": {"android": "https://dc.lft.to/lastmile_qr_scan", "ios": "https://dc.lft.to/lastmile_qr_scan"}, "fusion_lon": 0.0, "lat": 38.90941016666667, "bike_id": "523eda4d6ca6122b1964f57750e1bdbf", "type": "electric_scooter", "is_reserved": 0, "lon": -77.03846833333333}, {"fusion_lat": 0.0, "name": "2e447a510319099f914575543026cbc6", "is_disabled": 0, "rental_uris": {"android": "https://dc.lft.to/lastmile_qr_scan", "ios": "https://dc.lft.to/lastmile_qr_scan"}, "fusion_lon": 0.0, "lat": 38.907889833333336, "bike_id": "2e447a510319099f914575543026cbc6", "type": "electric_scooter", "is_reserved": 0, "lon": -77.0385915}, {"fusion_lat": 0.0, "name": "0704ee915ffa549dd46227a7905344db", "is_disabled": 0, "rental_uris": {"android": "https://dc.lft.to/lastmile_qr_scan", "ios": "https://dc.lft.to/lastmile_qr_scan"}, "fusion_lon": 0.0, "lat": 38.90739466666667, "bike_id": "0704ee915ffa549dd46227a7905344db", "type": "electric_scooter", "is_reserved": 0, "lon": -77.02972733333333}, {"fusion_lat": 0.0, "name": "51aa59182c60007bd370f6e00c4e71fa", "is_disabled": 0, "rental_uris": {"android": "https://dc.lft.to/lastmile_qr_scan", "ios": "https://dc.lft.to/lastmile_qr_scan"}, "fusion_lon": 0.0, "lat": 38.87688383333333, "bike_id": "51aa59182c60007bd370f6e00c4e71fa", "type": "electric_scooter", "is_reserved": 0, "lon": -77.01758666666667}, {"fusion_lat": 0.0, "name": "836139bc82a72313a966b3b1a76d9bcb", "is_disabled": 0, "rental_uris": {"android": "https://dc.lft.to/lastmile_qr_scan", "ios": "https://dc.lft.to/lastmile_qr_scan"}, "fusion_lon": 0.0, "lat": 39.010813, "bike_id": "836139bc82a72313a966b3b1a76d9bcb", "type": "electric_bike", "is_reserved": 0, "lon": -76.910664}, {"fusion_lat": 0.0, "name": "03115c81e0e8e9c6cce2ef5a50bcb109", "is_disabled": 0, "rental_uris": {"android": "https://dc.lft.to/lastmile_qr_scan", "ios": "https://dc.lft.to/lastmile_qr_scan"}, "fusion_lon": 0.0, "lat": 38.942252833333335, "bike_id": "03115c81e0e8e9c6cce2ef5a50bcb109", "type": "electric_scooter", "is_reserved": 0, "lon": -77.0234695}, {"fusion_lat": 0.0, "name": "237b3070982a9502a5831e455d792d5d", "is_disabled": 0, "rental_uris": {"android": "https://dc.lft.to/lastmile_qr_scan", "ios": "https://dc.lft.to/lastmile_qr_scan"}, "fusion_lon": 0.0, "lat": 38.91956, "bike_id": "237b3070982a9502a5831e455d792d5d", "type": "electric_scooter", "is_reserved": 0, "lon": -77.018072}, {"fusion_lat": 0.0, "name": "c94eedada93c091fd98e7688a6b3d044", "is_disabled": 0, "rental_uris": {"android": "https://dc.lft.to/lastmile_qr_scan", "ios": "https://dc.lft.to/lastmile_qr_scan"}, "fusion_lon": 0.0, "lat": 38.93053733333333, "bike_id": "c94eedada93c091fd98e7688a6b3d044", "type": "electric_scooter", "is_reserved": 0, "lon": -77.04064983333333}, {"fusion_lat": 0.0, "name": "7d84623522499795b38f6ae3a9a60bcc", "is_disabled": 0, "rental_uris": {"android": "https://dc.lft.to/lastmile_qr_scan", "ios": "https://dc.lft.to/lastmile_qr_scan"}, "fusion_lon": 0.0, "lat": 38.9140755, "bike_id": "7d84623522499795b38f6ae3a9a60bcc", "type": "electric_scooter", "is_reserved": 0, "lon": -77.03218433333333}, {"fusion_lat": 0.0, "name": "684b5d390d05ba08d2b87bf5a96ce9d5", "is_disabled": 0, "rental_uris": {"android": "https://dc.lft.to/lastmile_qr_scan", "ios": "https://dc.lft.to/lastmile_qr_scan"}, "fusion_lon": 0.0, "lat": 38.97059483333334, "bike_id": "684b5d390d05ba08d2b87bf5a96ce9d5", "type": "electric_bike", "is_reserved": 0, "lon": -76.93612333333333}, {"fusion_lat": 0.0, "name": "8368678bcbc8aa9464e224bd376097ba", "is_disabled": 0, "rental_uris": {"android": "https://dc.lft.to/lastmile_qr_scan", "ios": "https://dc.lft.to/lastmile_qr_scan"}, "fusion_lon": 0.0, "lat": 38.909573333333334, "bike_id": "8368678bcbc8aa9464e224bd376097ba", "type": "electric_scooter", "is_reserved": 0, "lon": -77.04862716666666}, {"fusion_lat": 0.0, "name": "700578ffc2929226455eb5a51c12ba2a", "is_disabled": 0, "rental_uris": {"android": "https://dc.lft.to/lastmile_qr_scan", "ios": "https://dc.lft.to/lastmile_qr_scan"}, "fusion_lon": 0.0, "lat": 38.8996775, "bike_id": "700578ffc2929226455eb5a51c12ba2a", "type": "electric_scooter", "is_reserved": 0, "lon": -77.01506}, {"fusion_lat": 0.0, "name": "d7db56c57391afd2a7f9cbc093c9a770", "is_disabled": 0, "rental_uris": {"android": "https://dc.lft.to/lastmile_qr_scan", "ios": "https://dc.lft.to/lastmile_qr_scan"}, "fusion_lon": 0.0, "lat": 38.9220455, "bike_id": "d7db56c57391afd2a7f9cbc093c9a770", "type": "electric_scooter", "is_reserved": 0, "lon": -77.04125566666667}, {"fusion_lat": 0.0, "name": "8e397e6740f3209d74d42011a8ec5f3b", "is_disabled": 0, "rental_uris": {"android": "https://dc.lft.to/lastmile_qr_scan", "ios": "https://dc.lft.to/lastmile_qr_scan"}, "fusion_lon": 0.0, "lat": 38.95657166666667, "bike_id": "8e397e6740f3209d74d42011a8ec5f3b", "type": "electric_scooter", "is_reserved": 0, "lon": -77.03318733333333}, {"fusion_lat": 0.0, "name": "7081957b97fb05cb9990406eb3aed57c", "is_disabled": 0, "rental_uris": {"android": "https://dc.lft.to/lastmile_qr_scan", "ios": "https://dc.lft.to/lastmile_qr_scan"}, "fusion_lon": 0.0, "lat": 38.92414733333333, "bike_id": "7081957b97fb05cb9990406eb3aed57c", "type": "electric_scooter", "is_reserved": 0, "lon": -77.02008333333333}, {"fusion_lat": 0.0, "name": "aa0ea47dd226ad9522f82e1ef2c7301e", "is_disabled": 0, "rental_uris": {"android": "https://dc.lft.to/lastmile_qr_scan", "ios": "https://dc.lft.to/lastmile_qr_scan"}, "fusion_lon": 0.0, "lat": 38.900283, "bike_id": "aa0ea47dd226ad9522f82e1ef2c7301e", "type": "electric_scooter", "is_reserved": 0, "lon": -76.9885565}, {"fusion_lat": 0.0, "name": "7df2a3eb6741cf92999d0d2018d8ff15", "is_disabled": 0, "rental_uris": {"android": "https://dc.lft.to/lastmile_qr_scan", "ios": "https://dc.lft.to/lastmile_qr_scan"}, "fusion_lon": 0.0, "lat": 38.905771666666666, "bike_id": "7df2a3eb6741cf92999d0d2018d8ff15", "type": "electric_scooter", "is_reserved": 0, "lon": -77.02959616666666}, {"fusion_lat": 0.0, "name": "a074d1c46aa0fd56091055b371b94c2b", "is_disabled": 0, "rental_uris": {"android": "https://dc.lft.to/lastmile_qr_scan", "ios": "https://dc.lft.to/lastmile_qr_scan"}, "fusion_lon": 0.0, "lat": 38.904437333333334, "bike_id": "a074d1c46aa0fd56091055b371b94c2b", "type": "electric_scooter", "is_reserved": 0, "lon": -77.03346216666667}, {"fusion_lat": 0.0, "name": "3b73dc3ebd6c813510369a0addb146f9", "is_disabled": 0, "rental_uris": {"android": "https://dc.lft.to/lastmile_qr_scan", "ios": "https://dc.lft.to/lastmile_qr_scan"}, "fusion_lon": 0.0, "lat": 38.87635616666667, "bike_id": "3b73dc3ebd6c813510369a0addb146f9", "type": "electric_scooter", "is_reserved": 0, "lon": -77.0076505}, {"fusion_lat": 0.0, "name": "a748fca39307b16e9d33e5d522dde0c7", "is_disabled": 0, "rental_uris": {"android": "https://dc.lft.to/lastmile_qr_scan", "ios": "https://dc.lft.to/lastmile_qr_scan"}, "fusion_lon": 0.0, "lat": 38.92369633333333, "bike_id": "a748fca39307b16e9d33e5d522dde0c7", "type": "electric_scooter", "is_reserved": 0, "lon": -77.02061133333333}, {"fusion_lat": 0.0, "name": "92f51cdcc66fd6c8a6871c23c7a41445", "is_disabled": 0, "rental_uris": {"android": "https://dc.lft.to/lastmile_qr_scan", "ios": "https://dc.lft.to/lastmile_qr_scan"}, "fusion_lon": 0.0, "lat": 38.91269783333333, "bike_id": "92f51cdcc66fd6c8a6871c23c7a41445", "type": "electric_scooter", "is_reserved": 0, "lon": -77.03382083333334}, {"fusion_lat": 0.0, "name": "a29372676db47b9ee6bac4a1974caa4e", "is_disabled": 0, "rental_uris": {"android": "https://dc.lft.to/lastmile_qr_scan", "ios": "https://dc.lft.to/lastmile_qr_scan"}, "fusion_lon": 0.0, "lat": 38.93115733333333, "bike_id": "a29372676db47b9ee6bac4a1974caa4e", "type": "electric_scooter", "is_reserved": 0, "lon": -77.0214125}, {"fusion_lat": 0.0, "name": "9c3ffdad5377d0f0746e2ebe33b481b8", "is_disabled": 0, "rental_uris": {"android": "https://dc.lft.to/lastmile_qr_scan", "ios": "https://dc.lft.to/lastmile_qr_scan"}, "fusion_lon": 0.0, "lat": 38.90231583333333, "bike_id": "9c3ffdad5377d0f0746e2ebe33b481b8", "type": "electric_scooter", "is_reserved": 0, "lon": -77.05140066666667}, {"fusion_lat": 0.0, "name": "06f512023c91d422816a89a233905f99", "is_disabled": 0, "rental_uris": {"android": "https://dc.lft.to/lastmile_qr_scan", "ios": "https://dc.lft.to/lastmile_qr_scan"}, "fusion_lon": 0.0, "lat": 38.93268966666667, "bike_id": "06f512023c91d422816a89a233905f99", "type": "electric_scooter", "is_reserved": 0, "lon": -77.03888166666667}, {"fusion_lat": 0.0, "name": "94c20bc077d30b032567196579cb3c6e", "is_disabled": 0, "rental_uris": {"android": "https://dc.lft.to/lastmile_qr_scan", "ios": "https://dc.lft.to/lastmile_qr_scan"}, "fusion_lon": 0.0, "lat": 38.91357283333333, "bike_id": "94c20bc077d30b032567196579cb3c6e", "type": "electric_scooter", "is_reserved": 0, "lon": -77.04880833333333}, {"fusion_lat": 0.0, "name": "0a537beafd23d8c1038a67680a4a4d2d", "is_disabled": 0, "rental_uris": {"android": "https://dc.lft.to/lastmile_qr_scan", "ios": "https://dc.lft.to/lastmile_qr_scan"}, "fusion_lon": 0.0, "lat": 38.9127985, "bike_id": "0a537beafd23d8c1038a67680a4a4d2d", "type": "electric_scooter", "is_reserved": 0, "lon": -77.04921166666666}, {"fusion_lat": 0.0, "name": "b0a3152e2d29ba58432e4c28183720c1", "is_disabled": 0, "rental_uris": {"android": "https://dc.lft.to/lastmile_qr_scan", "ios": "https://dc.lft.to/lastmile_qr_scan"}, "fusion_lon": 0.0, "lat": 38.899659666666665, "bike_id": "b0a3152e2d29ba58432e4c28183720c1", "type": "electric_scooter", "is_reserved": 0, "lon": -77.0488305}, {"fusion_lat": 0.0, "name": "885289054df2b8c42323171f2af82645", "is_disabled": 0, "rental_uris": {"android": "https://dc.lft.to/lastmile_qr_scan", "ios": "https://dc.lft.to/lastmile_qr_scan"}, "fusion_lon": 0.0, "lat": 38.92305416666667, "bike_id": "885289054df2b8c42323171f2af82645", "type": "electric_scooter", "is_reserved": 0, "lon": -77.04268616666667}, {"fusion_lat": 0.0, "name": "01315f228479efbdeb45397dbef88c1f", "is_disabled": 0, "rental_uris": {"android": "https://dc.lft.to/lastmile_qr_scan", "ios": "https://dc.lft.to/lastmile_qr_scan"}, "fusion_lon": 0.0, "lat": 38.903575333333336, "bike_id": "01315f228479efbdeb45397dbef88c1f", "type": "electric_scooter", "is_reserved": 0, "lon": -77.06268566666667}, {"fusion_lat": 0.0, "name": "fc9ba907d60470584f5c5f585485eac1", "is_disabled": 0, "rental_uris": {"android": "https://dc.lft.to/lastmile_qr_scan", "ios": "https://dc.lft.to/lastmile_qr_scan"}, "fusion_lon": 0.0, "lat": 38.928715833333335, "bike_id": "fc9ba907d60470584f5c5f585485eac1", "type": "electric_scooter", "is_reserved": 0, "lon": -77.03478883333334}, {"fusion_lat": 0.0, "name": "56d04b2e1d10a59f1627e78e56c1c74c", "is_disabled": 0, "rental_uris": {"android": "https://dc.lft.to/lastmile_qr_scan", "ios": "https://dc.lft.to/lastmile_qr_scan"}, "fusion_lon": 0.0, "lat": 38.91418933333333, "bike_id": "56d04b2e1d10a59f1627e78e56c1c74c", "type": "electric_scooter", "is_reserved": 0, "lon": -77.0314575}, {"fusion_lat": 0.0, "name": "abd1c7f567715db76144817f921b04c4", "is_disabled": 0, "rental_uris": {"android": "https://dc.lft.to/lastmile_qr_scan", "ios": "https://dc.lft.to/lastmile_qr_scan"}, "fusion_lon": 0.0, "lat": 38.93877466666667, "bike_id": "abd1c7f567715db76144817f921b04c4", "type": "electric_scooter", "is_reserved": 0, "lon": -77.0246265}, {"fusion_lat": 0.0, "name": "bf089a8d3088737a3cbc52d708a43108", "is_disabled": 0, "rental_uris": {"android": "https://dc.lft.to/lastmile_qr_scan", "ios": "https://dc.lft.to/lastmile_qr_scan"}, "fusion_lon": 0.0, "lat": 38.849177, "bike_id": "bf089a8d3088737a3cbc52d708a43108", "type": "electric_bike", "is_reserved": 0, "lon": -77.09982866666667}, {"fusion_lat": 0.0, "name": "8f18244ca09359e8ef2e67eba4633e5a", "is_disabled": 0, "rental_uris": {"android": "https://dc.lft.to/lastmile_qr_scan", "ios": "https://dc.lft.to/lastmile_qr_scan"}, "fusion_lon": 0.0, "lat": 38.967532, "bike_id": "8f18244ca09359e8ef2e67eba4633e5a", "type": "electric_bike", "is_reserved": 0, "lon": -77.03357216666667}, {"fusion_lat": 0.0, "name": "4800842e7940a6ea92bd9836b5e92503", "is_disabled": 0, "rental_uris": {"android": "https://dc.lft.to/lastmile_qr_scan", "ios": "https://dc.lft.to/lastmile_qr_scan"}, "fusion_lon": 0.0, "lat": 38.914253, "bike_id": "4800842e7940a6ea92bd9836b5e92503", "type": "electric_scooter", "is_reserved": 0, "lon": -77.02734566666666}, {"fusion_lat": 0.0, "name": "99f6cbcf2005654f25e01bb7cd4ae2f9", "is_disabled": 0, "rental_uris": {"android": "https://dc.lft.to/lastmile_qr_scan", "ios": "https://dc.lft.to/lastmile_qr_scan"}, "fusion_lon": 0.0, "lat": 38.89342216666667, "bike_id": "99f6cbcf2005654f25e01bb7cd4ae2f9", "type": "electric_scooter", "is_reserved": 0, "lon": -76.99381183333334}, {"fusion_lat": 0.0, "name": "fc17616785dea3a993e1a265b3a58f25", "is_disabled": 0, "rental_uris": {"android": "https://dc.lft.to/lastmile_qr_scan", "ios": "https://dc.lft.to/lastmile_qr_scan"}, "fusion_lon": 0.0, "lat": 38.8651345, "bike_id": "fc17616785dea3a993e1a265b3a58f25", "type": "electric_bike", "is_reserved": 0, "lon": -76.97331283333334}, {"fusion_lat": 0.0, "name": "18d0c9bafbf520d5399d7c7c858a6743", "is_disabled": 0, "rental_uris": {"android": "https://dc.lft.to/lastmile_qr_scan", "ios": "https://dc.lft.to/lastmile_qr_scan"}, "fusion_lon": 0.0, "lat": 38.8768535, "bike_id": "18d0c9bafbf520d5399d7c7c858a6743", "type": "electric_scooter", "is_reserved": 0, "lon": -77.01758766666667}, {"fusion_lat": 0.0, "name": "a667040ab1389dc0e1fc464bfeae4b25", "is_disabled": 0, "rental_uris": {"android": "https://dc.lft.to/lastmile_qr_scan", "ios": "https://dc.lft.to/lastmile_qr_scan"}, "fusion_lon": 0.0, "lat": 38.93372516666667, "bike_id": "a667040ab1389dc0e1fc464bfeae4b25", "type": "electric_scooter", "is_reserved": 0, "lon": -77.03266183333334}, {"fusion_lat": 0.0, "name": "deae54ca8c085097f31c3708622f65d6", "is_disabled": 0, "rental_uris": {"android": "https://dc.lft.to/lastmile_qr_scan", "ios": "https://dc.lft.to/lastmile_qr_scan"}, "fusion_lon": 0.0, "lat": 38.9265885, "bike_id": "deae54ca8c085097f31c3708622f65d6", "type": "electric_scooter", "is_reserved": 0, "lon": -77.037096}, {"fusion_lat": 0.0, "name": "699123d27498c05b894ec98eac2743f6", "is_disabled": 0, "rental_uris": {"android": "https://dc.lft.to/lastmile_qr_scan", "ios": "https://dc.lft.to/lastmile_qr_scan"}, "fusion_lon": 0.0, "lat": 38.92369583333333, "bike_id": "699123d27498c05b894ec98eac2743f6", "type": "electric_scooter", "is_reserved": 0, "lon": -77.02538566666666}, {"fusion_lat": 0.0, "name": "122c56db8cb0985af16dca2f829a10b9", "is_disabled": 0, "rental_uris": {"android": "https://dc.lft.to/lastmile_qr_scan", "ios": "https://dc.lft.to/lastmile_qr_scan"}, "fusion_lon": 0.0, "lat": 38.9059435, "bike_id": "122c56db8cb0985af16dca2f829a10b9", "type": "electric_scooter", "is_reserved": 0, "lon": -77.00890383333333}, {"fusion_lat": 0.0, "name": "8e6f00ef06a5da9f0f1b692db37d0ec3", "is_disabled": 0, "rental_uris": {"android": "https://dc.lft.to/lastmile_qr_scan", "ios": "https://dc.lft.to/lastmile_qr_scan"}, "fusion_lon": 0.0, "lat": 38.927872, "bike_id": "8e6f00ef06a5da9f0f1b692db37d0ec3", "type": "electric_scooter", "is_reserved": 0, "lon": -77.0272505}, {"fusion_lat": 0.0, "name": "5c4f65300c33f33fe1f2b98ea2d1b027", "is_disabled": 0, "rental_uris": {"android": "https://dc.lft.to/lastmile_qr_scan", "ios": "https://dc.lft.to/lastmile_qr_scan"}, "fusion_lon": 0.0, "lat": 38.90028266666667, "bike_id": "5c4f65300c33f33fe1f2b98ea2d1b027", "type": "electric_scooter", "is_reserved": 0, "lon": -76.98855333333333}, {"fusion_lat": 0.0, "name": "ff190603da4d929bc7a8769f2cc6091a", "is_disabled": 0, "rental_uris": {"android": "https://dc.lft.to/lastmile_qr_scan", "ios": "https://dc.lft.to/lastmile_qr_scan"}, "fusion_lon": 0.0, "lat": 38.90617666666667, "bike_id": "ff190603da4d929bc7a8769f2cc6091a", "type": "electric_scooter", "is_reserved": 0, "lon": -77.02410066666667}, {"fusion_lat": 0.0, "name": "a054ae940474ffc82f07cde371f763d1", "is_disabled": 0, "rental_uris": {"android": "https://dc.lft.to/lastmile_qr_scan", "ios": "https://dc.lft.to/lastmile_qr_scan"}, "fusion_lon": 0.0, "lat": 38.923353166666665, "bike_id": "a054ae940474ffc82f07cde371f763d1", "type": "electric_scooter", "is_reserved": 0, "lon": -77.0561425}, {"fusion_lat": 0.0, "name": "3aa04f5259d0e1192015e939fb9faabe", "is_disabled": 0, "rental_uris": {"android": "https://dc.lft.to/lastmile_qr_scan", "ios": "https://dc.lft.to/lastmile_qr_scan"}, "fusion_lon": 0.0, "lat": 38.884521666666664, "bike_id": "3aa04f5259d0e1192015e939fb9faabe", "type": "electric_scooter", "is_reserved": 0, "lon": -76.99844766666666}, {"fusion_lat": 0.0, "name": "2627d9fe3f24fc0b17f8a9b1ab51088d", "is_disabled": 0, "rental_uris": {"android": "https://dc.lft.to/lastmile_qr_scan", "ios": "https://dc.lft.to/lastmile_qr_scan"}, "fusion_lon": 0.0, "lat": 38.900111, "bike_id": "2627d9fe3f24fc0b17f8a9b1ab51088d", "type": "electric_scooter", "is_reserved": 0, "lon": -77.012202}, {"fusion_lat": 0.0, "name": "fdcb64fe22acf69a887cc0329b07087f", "is_disabled": 0, "rental_uris": {"android": "https://dc.lft.to/lastmile_qr_scan", "ios": "https://dc.lft.to/lastmile_qr_scan"}, "fusion_lon": 0.0, "lat": 38.911185833333334, "bike_id": "fdcb64fe22acf69a887cc0329b07087f", "type": "electric_scooter", "is_reserved": 0, "lon": -77.04221016666666}, {"fusion_lat": 0.0, "name": "aa75319f1109dd23a47c8da961b91da8", "is_disabled": 0, "rental_uris": {"android": "https://dc.lft.to/lastmile_qr_scan", "ios": "https://dc.lft.to/lastmile_qr_scan"}, "fusion_lon": 0.0, "lat": 38.903967333333334, "bike_id": "aa75319f1109dd23a47c8da961b91da8", "type": "electric_scooter", "is_reserved": 0, "lon": -77.05030966666666}, {"fusion_lat": 0.0, "name": "21b68174015942868c9ace122b25ad72", "is_disabled": 0, "rental_uris": {"android": "https://dc.lft.to/lastmile_qr_scan", "ios": "https://dc.lft.to/lastmile_qr_scan"}, "fusion_lon": 0.0, "lat": 38.939311333333336, "bike_id": "21b68174015942868c9ace122b25ad72", "type": "electric_scooter", "is_reserved": 0, "lon": -77.07476616666666}, {"fusion_lat": 0.0, "name": "8d44fc5ddbb9063b758d0273057f754a", "is_disabled": 0, "rental_uris": {"android": "https://dc.lft.to/lastmile_qr_scan", "ios": "https://dc.lft.to/lastmile_qr_scan"}, "fusion_lon": 0.0, "lat": 38.896838333333335, "bike_id": "8d44fc5ddbb9063b758d0273057f754a", "type": "electric_scooter", "is_reserved": 0, "lon": -76.93711483333334}, {"fusion_lat": 0.0, "name": "c1b72bff270b8bc7d1ac4c28f3c50a0a", "is_disabled": 0, "rental_uris": {"android": "https://dc.lft.to/lastmile_qr_scan", "ios": "https://dc.lft.to/lastmile_qr_scan"}, "fusion_lon": 0.0, "lat": 38.9273455, "bike_id": "c1b72bff270b8bc7d1ac4c28f3c50a0a", "type": "electric_scooter", "is_reserved": 0, "lon": -77.04216583333333}, {"fusion_lat": 0.0, "name": "f961458abcd5fdfbe9241653fb5b1a08", "is_disabled": 0, "rental_uris": {"android": "https://dc.lft.to/lastmile_qr_scan", "ios": "https://dc.lft.to/lastmile_qr_scan"}, "fusion_lon": 0.0, "lat": 38.96126016666667, "bike_id": "f961458abcd5fdfbe9241653fb5b1a08", "type": "electric_bike", "is_reserved": 0, "lon": -77.03279066666667}, {"fusion_lat": 0.0, "name": "af470e72d8098144c0397708b9d64438", "is_disabled": 0, "rental_uris": {"android": "https://dc.lft.to/lastmile_qr_scan", "ios": "https://dc.lft.to/lastmile_qr_scan"}, "fusion_lon": 0.0, "lat": 38.802951666666665, "bike_id": "af470e72d8098144c0397708b9d64438", "type": "electric_bike", "is_reserved": 0, "lon": -77.05939516666666}, {"fusion_lat": 0.0, "name": "03bcc2cc7d1b0387affc500650099d82", "is_disabled": 0, "rental_uris": {"android": "https://dc.lft.to/lastmile_qr_scan", "ios": "https://dc.lft.to/lastmile_qr_scan"}, "fusion_lon": 0.0, "lat": 38.9879145, "bike_id": "03bcc2cc7d1b0387affc500650099d82", "type": "electric_bike", "is_reserved": 0, "lon": -77.14099916666666}, {"fusion_lat": 0.0, "name": "dcc1db6860a4442a6264806d75f938ef", "is_disabled": 0, "rental_uris": {"android": "https://dc.lft.to/lastmile_qr_scan", "ios": "https://dc.lft.to/lastmile_qr_scan"}, "fusion_lon": 0.0, "lat": 38.9298395, "bike_id": "dcc1db6860a4442a6264806d75f938ef", "type": "electric_scooter", "is_reserved": 0, "lon": -77.03138466666667}, {"fusion_lat": 0.0, "name": "3fb1bf06f2974d4d1a882f6f00b48df1", "is_disabled": 0, "rental_uris": {"android": "https://dc.lft.to/lastmile_qr_scan", "ios": "https://dc.lft.to/lastmile_qr_scan"}, "fusion_lon": 0.0, "lat": 38.919277666666666, "bike_id": "3fb1bf06f2974d4d1a882f6f00b48df1", "type": "electric_scooter", "is_reserved": 0, "lon": -77.031743}, {"fusion_lat": 0.0, "name": "f21655c1239325578ec9537e87bf254f", "is_disabled": 0, "rental_uris": {"android": "https://dc.lft.to/lastmile_qr_scan", "ios": "https://dc.lft.to/lastmile_qr_scan"}, "fusion_lon": 0.0, "lat": 38.902589, "bike_id": "f21655c1239325578ec9537e87bf254f", "type": "electric_scooter", "is_reserved": 0, "lon": -77.05993416666666}, {"fusion_lat": 0.0, "name": "357bfcb128941109f9bf7dc18be4f184", "is_disabled": 0, "rental_uris": {"android": "https://dc.lft.to/lastmile_qr_scan", "ios": "https://dc.lft.to/lastmile_qr_scan"}, "fusion_lon": 0.0, "lat": 38.9171355, "bike_id": "357bfcb128941109f9bf7dc18be4f184", "type": "electric_scooter", "is_reserved": 0, "lon": -77.00867233333334}, {"fusion_lat": 0.0, "name": "afd65352cf29c7f58e61feb6abc390e2", "is_disabled": 0, "rental_uris": {"android": "https://dc.lft.to/lastmile_qr_scan", "ios": "https://dc.lft.to/lastmile_qr_scan"}, "fusion_lon": 0.0, "lat": 38.904110333333335, "bike_id": "afd65352cf29c7f58e61feb6abc390e2", "type": "electric_scooter", "is_reserved": 0, "lon": -76.973315}, {"fusion_lat": 0.0, "name": "9c543e920e766a9f7e10d9984b204d94", "is_disabled": 0, "rental_uris": {"android": "https://dc.lft.to/lastmile_qr_scan", "ios": "https://dc.lft.to/lastmile_qr_scan"}, "fusion_lon": 0.0, "lat": 38.94161833333333, "bike_id": "9c543e920e766a9f7e10d9984b204d94", "type": "electric_bike", "is_reserved": 0, "lon": -77.00192783333334}, {"fusion_lat": 0.0, "name": "4645e074db377ac1e5b1838a0425f095", "is_disabled": 0, "rental_uris": {"android": "https://dc.lft.to/lastmile_qr_scan", "ios": "https://dc.lft.to/lastmile_qr_scan"}, "fusion_lon": 0.0, "lat": 38.94173266666667, "bike_id": "4645e074db377ac1e5b1838a0425f095", "type": "electric_bike", "is_reserved": 0, "lon": -76.96642}, {"fusion_lat": 0.0, "name": "9a151602514e95c6827afb9bd3841132", "is_disabled": 0, "rental_uris": {"android": "https://dc.lft.to/lastmile_qr_scan", "ios": "https://dc.lft.to/lastmile_qr_scan"}, "fusion_lon": 0.0, "lat": 38.885146666666664, "bike_id": "9a151602514e95c6827afb9bd3841132", "type": "electric_scooter", "is_reserved": 0, "lon": -76.997632},