{"data": {"bikes": [{"type": "electric_scooter", "name": "1bf47ab2ad3104d49bdb3de434dbf5a6", "rental_uris": {"ios": "https://dc.lft.to/lastmile_qr_scan", "android": "https://dc.lft.to/lastmile_qr_scan"}, "fusion_lon": 0.0, "lat": 38.8571285, "is_disabled": 0, "bike_id": "1bf47ab2ad3104d49bdb3de434dbf5a6", "fusion_lat": 0.0, "is_reserved": 0, "lon": -76.9959355}, {"type": "electric_scooter", "name": "1135f512135577a563bee79aa6f5785f", "rental_uris": {"ios": "https://dc.lft.to/lastmile_qr_scan", "android": "https://dc.lft.to/lastmile_qr_scan"}, "fusion_lon": 0.0, "lat": 38.9169845, "is_disabled": 0, "bike_id": "1135f512135577a563bee79aa6f5785f", "fusion_lat": 0.0, "is_reserved": 0, "lon": -77.02897}, {"type": "electric_scooter", "name": "3d92298d6229e2ce0af2a0d3b92c443f", "rental_uris": {"ios": "https://dc.lft.to/lastmile_qr_scan", "android": "https://dc.lft.to/lastmile_qr_scan"}, "fusion_lon": 0.0, "lat": 38.8985035, "is_disabled": 0, "bike_id": "3d92298d6229e2ce0af2a0d3b92c443f", "fusion_lat": 0.0, "is_reserved": 0, "lon": -76.99039183333333}, {"type": "electric_scooter", "name": "9fa22f0048f1bb1fc7c0c0f1589a1c9b", "rental_uris": {"ios": "https://dc.lft.to/lastmile_qr_scan", "android": "https://dc.lft.to/lastmile_qr_scan"}, "fusion_lon": 0.0, "lat": 38.915863333333334, "is_disabled": 0, "bike_id": "9fa22f0048f1bb1fc7c0c0f1589a1c9b", "fusion_lat": 0.0, "is_reserved": 0, "lon": -76.9797385}, {"type": "electric_scooter", "name": "d823d9626156593d1991486d795789fd", "rental_uris": {"ios": "https://dc.lft.to/lastmile_qr_scan", "android": "https://dc.lft.to/lastmile_qr_scan"}, "fusion_lon": 0.0, "lat": 38.92855816666667, "is_disabled": 0, "bike_id": "d823d9626156593d1991486d795789fd", "fusion_lat": 0.0, "is_reserved": 0, "lon": -77.03518216666667}, {"type": "electric_scooter", "name": "b0e814285c28c27bede64167c277e675", "rental_uris": {"ios": "https://dc.lft.to/lastmile_qr_scan", "android": "https://dc.lft.to/lastmile_qr_scan"}, "fusion_lon": 0.0, "lat": 38.915259166666665, "is_disabled": 0, "bike_id": "b0e814285c28c27bede64167c277e675", "fusion_lat": 0.0, "is_reserved": 0, "lon": -77.012276}, {"type": "electric_scooter", "name": "26505c271e01de1de12a747c14783b83", "rental_uris": {"ios": "https://dc.lft.to/lastmile_qr_scan", "android": "https://dc.lft.to/lastmile_qr_scan"}, "fusion_lon": 0.0, "lat": 38.9386935, "is_disabled": 0, "bike_id": "26505c271e01de1de12a747c14783b83", "fusion_lat": 0.0, "is_reserved": 0, "lon": -77.02460983333333}, {"type": "electric_scooter", "name": "87fcc500f86aa114bf23b0411eb1e935", "rental_uris": {"ios": "https://dc.lft.to/lastmile_qr_scan", "android": "https://dc.lft.to/lastmile_qr_scan"}, "fusion_lon": 0.0, "lat": 38.901977, "is_disabled": 0, "bike_id": "87fcc500f86aa114bf23b0411eb1e935", "fusion_lat": 0.0, "is_reserved": 0, "lon": -77.02377416666667}, {"type": "electric_scooter", "name": "d83c82eb23b65300ab1a2a0e112381ec", "rental_uris": {"ios": "https://dc.lft.to/lastmile_qr_scan", "android": "https://dc.lft.to/lastmile_qr_scan"}, "fusion_lon": 0.0, "lat": 38.8874865, "is_disabled": 0, "bike_id": "d83c82eb23b65300ab1a2a0e112381ec", "fusion_lat": 0.0, "is_reserved": 0, "lon": -77.017269}, {"type": "electric_scooter", "name": "f20bf9bbd08ac2f8241e74e2b597cebd", "rental_uris": {"ios": "https://dc.lft.to/lastmile_qr_scan", "android": "https://dc.lft.to/lastmile_qr_scan"}, "fusion_lon": 0.0, "lat": 38.884866833333334, "is_disabled": 0, "bike_id": "f20bf9bbd08ac2f8241e74e2b597cebd", "fusion_lat": 0.0, "is_reserved": 0, "lon": -77.0071325}, {"type": "electric_scooter", "name": "4c8867192aa0f1f9799a5e3b8a01dabf", "rental_uris": {"ios": "https://dc.lft.to/lastmile_qr_scan", "android": "https://dc.lft.to/lastmile_qr_scan"}, "fusion_lon": 0.0, "lat": 38.91712183333333, "is_disabled": 0, "bike_id": "4c8867192aa0f1f9799a5e3b8a01dabf", "fusion_lat": 0.0, "is_reserved": 0, "lon": -77.0415675}, {"type": "electric_scooter", "name": "f9fe5e92aacb19cbe3b4a6be6f57ddb6", "rental_uris": {"ios": "https://dc.lft.to/lastmile_qr_scan", "android": "https://dc.lft.to/lastmile_qr_scan"}, "fusion_lon": 0.0, "lat": 38.924163, "is_disabled": 0, "bike_id": "f9fe5e92aacb19cbe3b4a6be6f57ddb6", "fusion_lat": 0.0, "is_reserved": 0, "lon": -77.05177916666666}, {"type": "electric_scooter", "name": "e3c826b8b714fc9cee3285b219baa301", "rental_uris": {"ios": "https://dc.lft.to/lastmile_qr_scan", "android": "https://dc.lft.to/lastmile_qr_scan"}, "fusion_lon": 0.0, "lat": 38.9031175, "is_disabled": 0, "bike_id": "e3c826b8b714fc9cee3285b219baa301", "fusion_lat": 0.0, "is_reserved": 0, "lon": -77.02441683333333}, {"type": "electric_scooter", "name": "787d50cd5ca51b0ccad41d5badaf6b5c", "rental_uris": {"ios": "https://dc.lft.to/lastmile_qr_scan", "android": "https://dc.lft.to/lastmile_qr_scan"}, "fusion_lon": 0.0, "lat": 38.9131955, "is_disabled": 0, "bike_id": "787d50cd5ca51b0ccad41d5badaf6b5c", "fusion_lat": 0.0, "is_reserved": 0, "lon": -77.01749216666667}, {"type": "electric_scooter", "name": "46ec82740d526504a981afa1298e2c20", "rental_uris": {"ios": "https://dc.lft.to/lastmile_qr_scan", "android": "https://dc.lft.to/lastmile_qr_scan"}, "fusion_lon": 0.0, "lat": 38.88394366666667, "is_disabled": 0, "bike_id": "46ec82740d526504a981afa1298e2c20", "fusion_lat": 0.0, "is_reserved": 0, "lon": -76.98587733333333}, {"type": "electric_scooter", "name": "24c7c9ffc6a63a0b579a218f442705ae", "rental_uris": {"ios": "https://dc.lft.to/lastmile_qr_scan", "android": "https://dc.lft.to/lastmile_qr_scan"}, "fusion_lon": 0.0, "lat": 38.89555383333333, "is_disabled": 0, "bike_id": "24c7c9ffc6a63a0b579a218f442705ae", "fusion_lat": 0.0, "is_reserved": 0, "lon": -76.99846133333334}, {"type": "electric_scooter", "name": "40da70f5d8ae8b973ed573f077431fd9", "rental_uris": {"ios": "https://dc.lft.to/lastmile_qr_scan", "android": "https://dc.lft.to/lastmile_qr_scan"}, "fusion_lon": 0.0, "lat": 38.91427616666667, "is_disabled": 0, "bike_id": "40da70f5d8ae8b973ed573f077431fd9", "fusion_lat": 0.0, "is_reserved": 0, "lon": -77.06423616666666}, {"type": "electric_scooter", "name": "83d2b99c3a420eada9f77d510cd21fd7", "rental_uris": {"ios": "https://dc.lft.to/lastmile_qr_scan", "android": "https://dc.lft.to/lastmile_qr_scan"}, "fusion_lon": 0.0, "lat": 38.90127066666667, "is_disabled": 0, "bike_id": "83d2b99c3a420eada9f77d510cd21fd7", "fusion_lat": 0.0, "is_reserved": 0, "lon": -77.04628666666666}, {"type": "electric_scooter", "name": "ff4b10c02d58cb045f5764c191e5f15f", "rental_uris": {"ios": "https://dc.lft.to/lastmile_qr_scan", "android": "https://dc.lft.to/lastmile_qr_scan"}, "fusion_lon": 0.0, "lat": 38.88492816666667, "is_disabled": 0, "bike_id": "ff4b10c02d58cb045f5764c191e5f15f", "fusion_lat": 0.0, "is_reserved": 0, "lon": -77.00725916666667}, {"type": "electric_scooter", "name": "a6f730cf56152f792417bdd38c2de856", "rental_uris": {"ios": "https://dc.lft.to/lastmile_qr_scan", "android": "https://dc.lft.to/lastmile_qr_scan"}, "fusion_lon": 0.0, "lat": 38.88516283333333, "is_disabled": 0, "bike_id": "a6f730cf56152f792417bdd38c2de856", "fusion_lat": 0.0, "is_reserved": 0, "lon": -77.01515016666667}, {"type": "electric_scooter", "name": "c774d84496cb46ab752f5a6de262180d", "rental_uris": {"ios": "https://dc.lft.to/lastmile_qr_scan", "android": "https://dc.lft.to/lastmile_qr_scan"}, "fusion_lon": 0.0, "lat": 38.87457066666666, "is_disabled": 0, "bike_id": "c774d84496cb46ab752f5a6de262180d", "fusion_lat": 0.0, "is_reserved": 0, "lon": -77.00967233333333}, {"type": "electric_scooter", "name": "ea42c74596c998a9aebc6d3fedd8a893", "rental_uris": {"ios": "https://dc.lft.to/lastmile_qr_scan", "android": "https://dc.lft.to/lastmile_qr_scan"}, "fusion_lon": 0.0, "lat": 38.914702, "is_disabled": 0, "bike_id": "ea42c74596c998a9aebc6d3fedd8a893", "fusion_lat": 0.0, "is_reserved": 0, "lon": -77.02967383333333}, {"type": "electric_scooter", "name": "ea373c86fc8e7eee3702f35879f3e781", "rental_uris": {"ios": "https://dc.lft.to/lastmile_qr_scan", "android": "https://dc.lft.to/lastmile_qr_scan"}, "fusion_lon": 0.0, "lat": 38.860583166666665, "is_disabled": 0, "bike_id": "ea373c86fc8e7eee3702f35879f3e781", "fusion_lat": 0.0, "is_reserved": 0, "lon": -76.9850205}, {"type": "electric_scooter", "name": "cf619cdd17b22e252cbe179e365b7850", "rental_uris": {"ios": "https://dc.lft.to/lastmile_qr_scan", "android": "https://dc.lft.to/lastmile_qr_scan"}, "fusion_lon": 0.0, "lat": 38.938486, "is_disabled": 0, "bike_id": "cf619cdd17b22e252cbe179e365b7850", "fusion_lat": 0.0, "is_reserved": 0, "lon": -77.03386666666667}, {"type": "electric_bike", "name": "6f23009bc0e9aa76a01b2f5d1fa008b9", "rental_uris": {"ios": "https://dc.lft.to/lastmile_qr_scan", "android": "https://dc.lft.to/lastmile_qr_scan"}, "fusion_lon": 0.0, "lat": 38.98496983333333, "is_disabled": 0, "bike_id": "6f23009bc0e9aa76a01b2f5d1fa008b9", "fusion_lat": 0.0, "is_reserved": 0, "lon": -76.98208816666667}, {"type": "electric_scooter", "name": "ec996240bd1f16588dbb65d4d37396ef", "rental_uris": {"ios": "https://dc.lft.to/lastmile_qr_scan", "android": "https://dc.lft.to/lastmile_qr_scan"}, "fusion_lon": 0.0, "lat": 38.92863366666667, "is_disabled": 0, "bike_id": "ec996240bd1f16588dbb65d4d37396ef", "fusion_lat": 0.0, "is_reserved": 0, "lon": -77.0330155}, {"type": "electric_scooter", "name": "27297968a478fea8cf70dc3204e8ca0d", "rental_uris": {"ios": "https://dc.lft.to/lastmile_qr_scan", "android": "https://dc.lft.to/lastmile_qr_scan"}, "fusion_lon": 0.0, "lat": 38.90229466666667, "is_disabled": 0, "bike_id": "27297968a478fea8cf70dc3204e8ca0d", "fusion_lat": 0.0, "is_reserved": 0, "lon": -77.059411}, {"type": "electric_scooter", "name": "7db2b01bf3b88e97ad36142171cb9036", "rental_uris": {"ios": "https://dc.lft.to/lastmile_qr_scan", "android": "https://dc.lft.to/lastmile_qr_scan"}, "fusion_lon": 0.0, "lat": 38.90578716666667, "is_disabled": 0, "bike_id": "7db2b01bf3b88e97ad36142171cb9036", "fusion_lat": 0.0, "is_reserved": 0, "lon": -77.05130566666666}, {"type": "electric_scooter", "name": "ca3dd9caa3b501998cb858dfc6bebb06", "rental_uris": {"ios": "https://dc.lft.to/lastmile_qr_scan", "android": "https://dc.lft.to/lastmile_qr_scan"}, "fusion_lon": 0.0, "lat": 38.92359166666667, "is_disabled": 0, "bike_id": "ca3dd9caa3b501998cb858dfc6bebb06", "fusion_lat": 0.0, "is_reserved": 0, "lon": -77.05049633333333}, {"type": "electric_scooter", "name": "1d70c55cd20a4e4fcf123cdc16a2d8b2", "rental_uris": {"ios": "https://dc.lft.to/lastmile_qr_scan", "android": "https://dc.lft.to/lastmile_qr_scan"}, "fusion_lon": 0.0, "lat": 38.8851385, "is_disabled": 0, "bike_id": "1d70c55cd20a4e4fcf123cdc16a2d8b2", "fusion_lat": 0.0, "is_reserved": 0, "lon": -77.01525766666667}, {"type": "electric_scooter", "name": "99b733204c2abab8054d14dbaa9cd669", "rental_uris": {"ios": "https://dc.lft.to/lastmile_qr_scan", "android": "https://dc.lft.to/lastmile_qr_scan"}, "fusion_lon": 0.0, "lat": 38.90796566666667, "is_disabled": 0, "bike_id": "99b733204c2abab8054d14dbaa9cd669", "fusion_lat": 0.0, "is_reserved": 0, "lon": -77.03451533333333}, {"type": "electric_scooter", "name": "47b5d3cdbdd62a0c928df0d76d7026bb", "rental_uris": {"ios": "https://dc.lft.to/lastmile_qr_scan", "android": "https://dc.lft.to/lastmile_qr_scan"}, "fusion_lon": 0.0, "lat": 38.887228, "is_disabled": 0, "bike_id": "47b5d3cdbdd62a0c928df0d76d7026bb", "fusion_lat": 0.0, "is_reserved": 0, "lon": -76.9968825}, {"type": "electric_scooter", "name": "efec3a275ae1d03bec9eb4342d151fe7", "rental_uris": {"ios": "https://dc.lft.to/lastmile_qr_scan", "android": "https://dc.lft.to/lastmile_qr_scan"}, "fusion_lon": 0.0, "lat": 38.910053833333336, "is_disabled": 0, "bike_id": "efec3a275ae1d03bec9eb4342d151fe7", "fusion_lat": 0.0, "is_reserved": 0, "lon": -76.99410683333333}, {"type": "electric_bike", "name": "16b8452dc429e36d8b8fb2ba00fbfc72", "rental_uris": {"ios": "https://dc.lft.to/lastmile_qr_scan", "android": "https://dc.lft.to/lastmile_qr_scan"}, "fusion_lon": 0.0, "lat": 38.949118166666665, "is_disabled": 0, "bike_id": "16b8452dc429e36d8b8fb2ba00fbfc72", "fusion_lat": 0.0, "is_reserved": 0, "lon": -77.00800866666667}, {"type": "electric_scooter", "name": "6bf8ccae662b9e783f3382ce2165e797", "rental_uris": {"ios": "https://dc.lft.to/lastmile_qr_scan", "android": "https://dc.lft.to/lastmile_qr_scan"}, "fusion_lon": 0.0, "lat": 38.927515166666666, "is_disabled": 0, "bike_id": "6bf8ccae662b9e783f3382ce2165e797", "fusion_lat": 0.0, "is_reserved": 0, "lon": -77.021109}, {"type": "electric_scooter", "name": "c0dca53d4e84967cd9cd61a2f5177b57", "rental_uris": {"ios": "https://dc.lft.to/lastmile_qr_scan", "android": "https://dc.lft.to/lastmile_qr_scan"}, "fusion_lon": 0.0, "lat": 38.876712166666664, "is_disabled": 0, "bike_id": "c0dca53d4e84967cd9cd61a2f5177b57", "fusion_lat": 0.0, "is_reserved": 0, "lon": -77.00896566666667}, {"type": "electric_scooter", "name": "10f4e69aa71ef081dc75b2b815fd31ed", "rental_uris": {"ios": "https://dc.lft.to/lastmile_qr_scan", "android": "https://dc.lft.to/lastmile_qr_scan"}, "fusion_lon": 0.0, "lat": 38.931872, "is_disabled": 0, "bike_id": "10f4e69aa71ef081dc75b2b815fd31ed", "fusion_lat": 0.0, "is_reserved": 0, "lon": -77.04300283333333}, {"type": "electric_scooter", "name": "13c4b757f94a53694191cb56d232a2af", "rental_uris": {"ios": "https://dc.lft.to/lastmile_qr_scan", "android": "https://dc.lft.to/lastmile_qr_scan"}, "fusion_lon": 0.0, "lat": 38.936713833333336, "is_disabled": 0, "bike_id": "13c4b757f94a53694191cb56d232a2af", "fusion_lat": 0.0, "is_reserved": 0, "lon": -77.03590316666667}, {"type": "electric_scooter", "name": "803e7a14984470501c23837daf413b2d", "rental_uris": {"ios": "https://dc.lft.to/lastmile_qr_scan", "android": "https://dc.lft.to/lastmile_qr_scan"}, "fusion_lon": 0.0, "lat": 38.892248333333335, "is_disabled": 0, "bike_id": "803e7a14984470501c23837daf413b2d", "fusion_lat": 0.0, "is_reserved": 0, "lon": -77.0432975}, {"type": "electric_bike", "name": "f2b8849627d89d2ce13b55678951c9f7", "rental_uris": {"ios": "https://dc.lft.to/lastmile_qr_scan", "android": "https://dc.lft.to/lastmile_qr_scan"}, "fusion_lon": 0.0, "lat": 38.86634883333333, "is_disabled": 0, "bike_id": "f2b8849627d89d2ce13b55678951c9f7", "fusion_lat": 0.0, "is_reserved": 0, "lon": -77.0104425}, {"type": "electric_scooter", "name": "2de32058035c94e65b26dbcf40444c50", "rental_uris": {"ios": "https://dc.lft.to/lastmile_qr_scan", "android": "https://dc.lft.to/lastmile_qr_scan"}, "fusion_lon": 0.0, "lat": 38.93112683333333, "is_disabled": 0, "bike_id": "2de32058035c94e65b26dbcf40444c50", "fusion_lat": 0.0, "is_reserved": 0, "lon": -77.03812716666667}, {"type": "electric_scooter", "name": "c9816f1e58c485e0e29cc5c13c44a926", "rental_uris": {"ios": "https://dc.lft.to/lastmile_qr_scan", "android": "https://dc.lft.to/lastmile_qr_scan"}, "fusion_lon": 0.0, "lat": 38.905564166666665, "is_disabled": 0, "bike_id": "c9816f1e58c485e0e29cc5c13c44a926", "fusion_lat": 0.0, "is_reserved": 0, "lon": -77.01312333333334}, {"type": "electric_scooter", "name": "abc9cb2f716b424e227465609ba00c85", "rental_uris": {"ios": "https://dc.lft.to/lastmile_qr_scan", "android": "https://dc.lft.to/lastmile_qr_scan"}, "fusion_lon": 0.0, "lat": 38.89677966666667, "is_disabled": 0, "bike_id": "abc9cb2f716b424e227465609ba00c85", "fusion_lat": 0.0, "is_reserved": 0, "lon": -77.04660933333334}, {"type": "electric_scooter", "name": "49d5523bdd89dca365b7f4d8cefdccfd", "rental_uris": {"ios": "https://dc.lft.to/lastmile_qr_scan", "android": "https://dc.lft.to/lastmile_qr_scan"}, "fusion_lon": 0.0, "lat": 38.895908166666665, "is_disabled": 0, "bike_id": "49d5523bdd89dca365b7f4d8cefdccfd", "fusion_lat": 0.0, "is_reserved": 0, "lon": -77.02313483333333}, {"type": "electric_bike", "name": "6ad5cfbcf445e5a38fe62cb4706a82f9", "rental_uris": {"ios": "https://dc.lft.to/lastmile_qr_scan", "android": "https://dc.lft.to/lastmile_qr_scan"}, "fusion_lon": 0.0, "lat": 38.898013166666665, "is_disabled": 0, "bike_id": "6ad5cfbcf445e5a38fe62cb4706a82f9", "fusion_lat": 0.0, "is_reserved": 0, "lon": -77.00609783333333}, {"type": "electric_scooter", "name": "5a0458287c5f4f02b7898952bc4c030b", "rental_uris": {"ios": "https://dc.lft.to/lastmile_qr_scan", "android": "https://dc.lft.to/lastmile_qr_scan"}, "fusion_lon": 0.0, "lat": 38.91772983333333, "is_disabled": 0, "bike_id": "5a0458287c5f4f02b7898952bc4c030b", "fusion_lat": 0.0, "is_reserved": 0, "lon": -77.02286633333334}, {"type": "electric_scooter", "name": "7d1b5954810adda8d1bc0a332da4d022", "rental_uris": {"ios": "https://dc.lft.to/lastmile_qr_scan", "android": "https://dc.lft.to/lastmile_qr_scan"}, "fusion_lon": 0.0, "lat": 38.894316833333335, "is_disabled": 0, "bike_id": "7d1b5954810adda8d1bc0a332da4d022", "fusion_lat": 0.0, "is_reserved": 0, "lon": -76.9771905}, {"type": "electric_scooter", "name": "029604560772fcd642ab3645aa0cb28f", "rental_uris": {"ios": "https://dc.lft.to/lastmile_qr_scan", "android": "https://dc.lft.to/lastmile_qr_scan"}, "fusion_lon": 0.0, "lat": 38.90353, "is_disabled": 0, "bike_id": "029604560772fcd642ab3645aa0cb28f", "fusion_lat": 0.0, "is_reserved": 0, "lon": -77.043441}, {"type": "electric_scooter", "name": "0be38dea5499c2f4f85e7af6bdbdaf4d", "rental_uris": {"ios": "https://dc.lft.to/lastmile_qr_scan", "android": "https://dc.lft.to/lastmile_qr_scan"}, "fusion_lon": 0.0, "lat": 38.91673866666667, "is_disabled": 0, "bike_id": "0be38dea5499c2f4f85e7af6bdbdaf4d", "fusion_lat": 0.0, "is_reserved": 0, "lon": -77.00349933333334}, {"type": "electric_scooter", "name": "b2a1ccf3db2b8fb51c6ce49963d72167", "rental_uris": {"ios": "https://dc.lft.to/lastmile_qr_scan", "android": "https://dc.lft.to/lastmile_qr_scan"}, "fusion_lon": 0.0, "lat": 38.92487633333333, "is_disabled": 0, "bike_id": "b2a1ccf3db2b8fb51c6ce49963d72167", "fusion_lat": 0.0, "is_reserved": 0, "lon": -77.026483}, {"type": "electric_scooter", "name": "e41b9d4c942ab698bfa87714f4b0f4b3", "rental_uris": {"ios": "https://dc.lft.to/lastmile_qr_scan", "android": "https://dc.lft.to/lastmile_qr_scan"}, "fusion_lon": 0.0, "lat": 38.904656833333334, "is_disabled": 0, "bike_id": "e41b9d4c942ab698bfa87714f4b0f4b3", "fusion_lat": 0.0, "is_reserved": 0, "lon": -77.04326233333333}, {"type": "electric_scooter", "name": "7fef2db9aafda2fc27d0b6b209c2657e", "rental_uris": {"ios": "https://dc.lft.to/lastmile_qr_scan", "android": "https://dc.lft.to/lastmile_qr_scan"}, "fusion_lon": 0.0, "lat": 38.96506633333333, "is_disabled": 0, "bike_id": "7fef2db9aafda2fc27d0b6b209c2657e", "fusion_lat": 0.0, "is_reserved": 0, "lon": -77.02590116666667}, {"type": "electric_scooter", "name": "f136ec5094f4b8064ef79775c0f885ce", "rental_uris": {"ios": "https://dc.lft.to/lastmile_qr_scan", "android": "https://dc.lft.to/lastmile_qr_scan"}, "fusion_lon": 0.0, "lat": 38.90813716666667, "is_disabled": 0, "bike_id": "f136ec5094f4b8064ef79775c0f885ce", "fusion_lat": 0.0, "is_reserved": 0, "lon": -77.0434635}, {"type": "electric_scooter", "name": "4fe9edf92fc406e8bb9bbb8215c0c69b", "rental_uris": {"ios": "https://dc.lft.to/lastmile_qr_scan", "android": "https://dc.lft.to/lastmile_qr_scan"}, "fusion_lon": 0.0, "lat": 38.88487116666667, "is_disabled": 0, "bike_id": "4fe9edf92fc406e8bb9bbb8215c0c69b", "fusion_lat": 0.0, "is_reserved": 0, "lon": -77.007138}, {"type": "electric_scooter", "name": "68c6d4254b7ec3b0c4c9ae955a83fee5", "rental_uris": {"ios": "https://dc.lft.to/lastmile_qr_scan", "android": "https://dc.lft.to/lastmile_qr_scan"}, "fusion_lon": 0.0, "lat": 38.867603, "is_disabled": 0, "bike_id": "68c6d4254b7ec3b0c4c9ae955a83fee5", "fusion_lat": 0.0, "is_reserved": 0, "lon": -76.98277016666667}, {"type": "electric_scooter", "name": "52cddc09a19006c13bf86baeddb01046", "rental_uris": {"ios": "https://dc.lft.to/lastmile_qr_scan", "android": "https://dc.lft.to/lastmile_qr_scan"}, "fusion_lon": 0.0, "lat": 38.915595333333336, "is_disabled": 0, "bike_id": "52cddc09a19006c13bf86baeddb01046", "fusion_lat": 0.0, "is_reserved": 0, "lon": -77.03139333333333}, {"type": "electric_scooter", "name": "29b1365cde5f7e6d0ee58cb1b0981de9", "rental_uris": {"ios": "https://dc.lft.to/lastmile_qr_scan", "android": "https://dc.lft.to/lastmile_qr_scan"}, "fusion_lon": 0.0, "lat": 38.892912333333335, "is_disabled": 0, "bike_id": "29b1365cde5f7e6d0ee58cb1b0981de9", "fusion_lat": 0.0, "is_reserved": 0, "lon": -76.9752215}, {"type": "electric_scooter", "name": "f1543a4dfd6d9113d96a69deb762f03f", "rental_uris": {"ios": "https://dc.lft.to/lastmile_qr_scan", "android": "https://dc.lft.to/lastmile_qr_scan"}, "fusion_lon": 0.0, "lat": 38.9016045, "is_disabled": 0, "bike_id": "f1543a4dfd6d9113d96a69deb762f03f", "fusion_lat": 0.0, "is_reserved": 0, "lon": -77.01316983333334}, {"type": "electric_scooter", "name": "61588ab4f0c55073290fb2b8a0c0ea27", "rental_uris": {"ios": "https://dc.lft.to/lastmile_qr_scan", "android": "https://dc.lft.to/lastmile_qr_scan"}, "fusion_lon": 0.0, "lat": 38.91299766666667, "is_disabled": 0, "bike_id": "61588ab4f0c55073290fb2b8a0c0ea27", "fusion_lat": 0.0, "is_reserved": 0, "lon": -77.04867433333334}, {"type": "electric_scooter", "name": "25f9280df29a996f764efc5af583cddd", "rental_uris": {"ios": "https://dc.lft.to/lastmile_qr_scan", "android": "https://dc.lft.to/lastmile_qr_scan"}, "fusion_lon": 0.0, "lat": 38.90193983333333, "is_disabled": 0, "bike_id": "25f9280df29a996f764efc5af583cddd", "fusion_lat": 0.0, "is_reserved": 0, "lon": -76.9818565}, {"type": "electric_scooter", "name": "60adf6201360a96d1becedeb55a8d061", "rental_uris": {"ios": "https://dc.lft.to/lastmile_qr_scan", "android": "https://dc.lft.to/lastmile_qr_scan"}, "fusion_lon": 0.0, "lat": 38.936798333333336, "is_disabled": 0, "bike_id": "60adf6201360a96d1becedeb55a8d061", "fusion_lat": 0.0, "is_reserved": 0, "lon": -77.03628666666667}, {"type": "electric_scooter", "name": "c8902783bc8bb110c0bc7c7eb8c1114a", "rental_uris": {"ios": "https://dc.lft.to/lastmile_qr_scan", "android": "https://dc.lft.to/lastmile_qr_scan"}, "fusion_lon": 0.0, "lat": 38.907149, "is_disabled": 0, "bike_id": "c8902783bc8bb110c0bc7c7eb8c1114a", "fusion_lat": 0.0, "is_reserved": 0, "lon": -77.02567116666667}, {"type": "electric_scooter", "name": "a392e54bba90deb938bca7e7d7717415", "rental_uris": {"ios": "https://dc.lft.to/lastmile_qr_scan", "android": "https://dc.lft.to/lastmile_qr_scan"}, "fusion_lon": 0.0, "lat": 38.892846666666664, "is_disabled": 0, "bike_id": "a392e54bba90deb938bca7e7d7717415", "fusion_lat": 0.0, "is_reserved": 0, "lon": -76.98305133333334}, {"type": "electric_scooter", "name": "865bcadf5744c408cdfe6c85d1956114", "rental_uris": {"ios": "https://dc.lft.to/lastmile_qr_scan", "android": "https://dc.lft.to/lastmile_qr_scan"}, "fusion_lon": 0.0, "lat": 38.9191105, "is_disabled": 0, "bike_id": "865bcadf5744c408cdfe6c85d1956114", "fusion_lat": 0.0, "is_reserved": 0, "lon": -77.03444533333334}, {"type": "electric_scooter", "name": "7fc9b9ed9d4d4ec52a00d96aea8f2fe9", "rental_uris": {"ios": "https://dc.lft.to/lastmile_qr_scan", "android": "https://dc.lft.to/lastmile_qr_scan"}, "fusion_lon": 0.0, "lat": 38.8616445, "is_disabled": 0, "bike_id": "7fc9b9ed9d4d4ec52a00d96aea8f2fe9", "fusion_lat": 0.0, "is_reserved": 0, "lon": -76.98370883333334}, {"type": "electric_scooter", "name": "c6b633ad3f2b80c3a4f636fefbd90e1f", "rental_uris": {"ios": "https://dc.lft.to/lastmile_qr_scan", "android": "https://dc.lft.to/lastmile_qr_scan"}, "fusion_lon": 0.0, "lat": 38.884506, "is_disabled": 0, "bike_id": "c6b633ad3f2b80c3a4f636fefbd90e1f", "fusion_lat": 0.0, "is_reserved": 0, "lon": -76.95097966666667}, {"type": "electric_scooter", "name": "e074568f04dc6a2e759d84b9b8a7945f", "rental_uris": {"ios": "https://dc.lft.to/lastmile_qr_scan", "android": "https://dc.lft.to/lastmile_qr_scan"}, "fusion_lon": 0.0, "lat": 38.92064366666666, "is_disabled": 0, "bike_id": "e074568f04dc6a2e759d84b9b8a7945f", "fusion_lat": 0.0, "is_reserved": 0, "lon": -77.04088783333333}, {"type": "electric_scooter", "name": "014753667aae497c9d87480e7769ab04", "rental_uris": {"ios": "https://dc.lft.to/lastmile_qr_scan", "android": "https://dc.lft.to/lastmile_qr_scan"}, "fusion_lon": 0.0, "lat": 38.94326483333333, "is_disabled": 0, "bike_id": "014753667aae497c9d87480e7769ab04", "fusion_lat": 0.0, "is_reserved": 0, "lon": -77.0130825}, {"type": "electric_scooter", "name": "8c0851c86518d7ab69c0d267b75cafc5", "rental_uris": {"ios": "https://dc.lft.to/lastmile_qr_scan", "android": "https://dc.lft.to/lastmile_qr_scan"}, "fusion_lon": 0.0, "lat": 38.9047055, "is_disabled": 0, "bike_id": "8c0851c86518d7ab69c0d267b75cafc5", "fusion_lat": 0.0, "is_reserved": 0, "lon": -77.03473733333334}, {"type": "electric_scooter", "name": "8efbc6600063e60863d269846410d87b", "rental_uris": {"ios": "https://dc.lft.to/lastmile_qr_scan", "android": "https://dc.lft.to/lastmile_qr_scan"}, "fusion_lon": 0.0, "lat": 38.901212, "is_disabled": 0, "bike_id": "8efbc6600063e60863d269846410d87b", "fusion_lat": 0.0, "is_reserved": 0, "lon": -77.032527}, {"type": "electric_scooter", "name": "d2cabcaf09d1d2d0f7f20bc893b42b8c", "rental_uris": {"ios": "https://dc.lft.to/lastmile_qr_scan", "android": "https://dc.lft.to/lastmile_qr_scan"}, "fusion_lon": 0.0, "lat": 38.89549133333333, "is_disabled": 0, "bike_id": "d2cabcaf09d1d2d0f7f20bc893b42b8c", "fusion_lat": 0.0, "is_reserved": 0, "lon": -77.0279135}, {"type": "electric_scooter", "name": "be40736878807fba1e30970d56d9a0f4", "rental_uris": {"ios": "https://dc.lft.to/lastmile_qr_scan", "android": "https://dc.lft.to/lastmile_qr_scan"}, "fusion_lon": 0.0, "lat": 38.87683216666667, "is_disabled": 0, "bike_id": "be40736878807fba1e30970d56d9a0f4", "fusion_lat": 0.0, "is_reserved": 0, "lon": -77.0042845}, {"type": "electric_scooter", "name": "f64955a426d67b5491c85e57b1fddeb5", "rental_uris": {"ios": "https://dc.lft.to/lastmile_qr_scan", "android": "https://dc.lft.to/lastmile_qr_scan"}, "fusion_lon": 0.0, "lat": 38.905008, "is_disabled": 0, "bike_id": "f64955a426d67b5491c85e57b1fddeb5", "fusion_lat": 0.0, "is_reserved": 0, "lon": -77.06118883333333}, {"type": "electric_scooter", "name": "74769a66b6a12a7b04ef5787f48a1081", "rental_uris": {"ios": "https://dc.lft.to/lastmile_qr_scan", "android": "https://dc.lft.to/lastmile_qr_scan"}, "fusion_lon": 0.0, "lat": 38.90753816666667, "is_disabled": 0, "bike_id": "74769a66b6a12a7b04ef5787f48a1081", "fusion_lat": 0.0, "is_reserved": 0, "lon": -77.0016775}, {"type": "electric_bike", "name": "d44b3f6dffc15709ec1212f7dde9e80e", "rental_uris": {"ios": "https://dc.lft.to/lastmile_qr_scan", "android": "https://dc.lft.to/lastmile_qr_scan"}, "fusion_lon": 0.0, "lat": 38.9317345, "is_disabled": 0, "bike_id": "d44b3f6dffc15709ec1212f7dde9e80e", "fusion_lat": 0.0, "is_reserved": 0, "lon": -77.03538333333333}, {"type": "electric_scooter", "name": "c3fc1071ef2bdb0742a6bd3b1fc572d7", "rental_uris": {"ios": "https://dc.lft.to/lastmile_qr_scan", "android": "https://dc.lft.to/lastmile_qr_scan"}, "fusion_lon": 0.0, "lat": 38.91923466666667, "is_disabled": 0, "bike_id": "c3fc1071ef2bdb0742a6bd3b1fc572d7", "fusion_lat": 0.0, "is_reserved": 0, "lon": -77.031839}, {"type": "electric_scooter", "name": "016888b896c7fe84c12c75bbc14de410", "rental_uris": {"ios": "https://dc.lft.to/lastmile_qr_scan", "android": "https://dc.lft.to/lastmile_qr_scan"}, "fusion_lon": 0.0, "lat": 38.9226695, "is_disabled": 0, "bike_id": "016888b896c7fe84c12c75bbc14de410", "fusion_lat": 0.0, "is_reserved": 0, "lon": -77.032598}, {"type": "electric_scooter", "name": "62037f9b5f4c4d37228fd243fbcbb777", "rental_uris": {"ios": "https://dc.lft.to/lastmile_qr_scan", "android": "https://dc.lft.to/lastmile_qr_scan"}, "fusion_lon": 0.0, "lat": 38.895339, "is_disabled": 0, "bike_id": "62037f9b5f4c4d37228fd243fbcbb777", "fusion_lat": 0.0, "is_reserved": 0, "lon": -77.002002}, {"type": "electric_scooter", "name": "8414a56c4213d1525f58ec4c79fc4dd0", "rental_uris": {"ios": "https://dc.lft.to/lastmile_qr_scan", "android": "https://dc.lft.to/lastmile_qr_scan"}, "fusion_lon": 0.0, "lat": 38.90910933333333, "is_disabled": 0, "bike_id": "8414a56c4213d1525f58ec4c79fc4dd0", "fusion_lat": 0.0, "is_reserved": 0, "lon": -76.986341}, {"type": "electric_scooter", "name": "7ed2b63b90d7d15446f886d73b12095a", "rental_uris": {"ios": "https://dc.lft.to/lastmile_qr_scan", "android": "https://dc.lft.to/lastmile_qr_scan"}, "fusion_lon": 0.0, "lat": 38.92042283333333, "is_disabled": 0, "bike_id": "7ed2b63b90d7d15446f886d73b12095a", "fusion_lat": 0.0, "is_reserved": 0, "lon": -77.017909}, {"type": "electric_bike", "name": "5301aedd1ce60198e8f62e570bacd802", "rental_uris": {"ios": "https://dc.lft.to/lastmile_qr_scan", "android": "https://dc.lft.to/lastmile_qr_scan"}, "fusion_lon": 0.0, "lat": 38.816094, "is_disabled": 0, "bike_id": "5301aedd1ce60198e8f62e570bacd802", "fusion_lat": 0.0, "is_reserved": 0, "lon": -76.9965925}, {"type": "electric_bike", "name": "e7fed0efae285259a217fae3ecab5361", "rental_uris": {"ios": "https://dc.lft.to/lastmile_qr_scan", "android": "https://dc.lft.to/lastmile_qr_scan"}, "fusion_lon": 0.0, "lat": 39.01414316666666, "is_disabled": 0, "bike_id": "e7fed0efae285259a217fae3ecab5361", "fusion_lat": 0.0, "is_reserved": 0, "lon": -77.0449955}, {"type": "electric_scooter", "name": "07f6ad2d7ebab9934b0480b900e1e33b", "rental_uris": {"ios": "https://dc.lft.to/lastmile_qr_scan", "android": "https://dc.lft.to/lastmile_qr_scan"}, "fusion_lon": 0.0, "lat": 38.91424716666667, "is_disabled": 0, "bike_id": "07f6ad2d7ebab9934b0480b900e1e33b", "fusion_lat": 0.0, "is_reserved": 0, "lon": -77.03922616666667}, {"type": "electric_scooter", "name": "72e290e4293d81932444ecc7f8958581", "rental_uris": {"ios": "https://dc.lft.to/lastmile_qr_scan", "android": "https://dc.lft.to/lastmile_qr_scan"}, "fusion_lon": 0.0, "lat": 38.88507216666667, "is_disabled": 0, "bike_id": "72e290e4293d81932444ecc7f8958581", "fusion_lat": 0.0, "is_reserved": 0, "lon": -76.9975055}, {"type": "electric_bike", "name": "1b6f2d0d13209547a135050787052690", "rental_uris": {"ios": "https://dc.lft.to/lastmile_qr_scan", "android": "https://dc.lft.to/lastmile_qr_scan"}, "fusion_lon": 0.0, "lat": 38.89820483333333, "is_disabled": 0, "bike_id": "1b6f2d0d13209547a135050787052690", "fusion_lat": 0.0, "is_reserved": 0, "lon": -76.99066866666666}, {"type": "electric_bike", "name": "effc0cdaeb6b7130256c5249f41d1fad", "rental_uris": {"ios": "https://dc.lft.to/lastmile_qr_scan", "android": "https://dc.lft.to/lastmile_qr_scan"}, "fusion_lon": 0.0, "lat": 38.85786516666667, "is_disabled": 0, "bike_id": "effc0cdaeb6b7130256c5249f41d1fad", "fusion_lat": 0.0, "is_reserved": 0, "lon": -77.09960116666667}, {"type": "electric_scooter", "name": "a226580de681f025b8f3cfe7c28342eb", "rental_uris": {"ios": "https://dc.lft.to/lastmile_qr_scan", "android": "https://dc.lft.to/lastmile_qr_scan"}, "fusion_lon": 0.0, "lat": 38.91777783333333, "is_disabled": 0, "bike_id": "a226580de681f025b8f3cfe7c28342eb", "fusion_lat": 0.0, "is_reserved": 0, "lon": -77.01917833333333}, {"type": "electric_bike", "name": "f0da2dc89337be100471a0afbd9f5d3f", "rental_uris": {"ios": "https://dc.lft.to/lastmile_qr_scan", "android": "https://dc.lft.to/lastmile_qr_scan"}, "fusion_lon": 0.0, "lat": 38.930458333333334, "is_disabled": 0, "bike_id": "f0da2dc89337be100471a0afbd9f5d3f", "fusion_lat": 0.0, "is_reserved": 0, "lon": -76.95836083333333}, {"type": "electric_scooter", "name": "22b832167bafac2e636431a7488a9b3f", "rental_uris": {"ios": "https://dc.lft.to/lastmile_qr_scan", "android": "https://dc.lft.to/lastmile_qr_scan"}, "fusion_lon": 0.0, "lat": 38.9211105, "is_disabled": 0, "bike_id": "22b832167bafac2e636431a7488a9b3f", "fusion_lat": 0.0, "is_reserved": 0, "lon": -77.04388666666667}, {"type": "electric_scooter", "name": "1c820c093ea05b3696a46adf8098422e", "rental_uris": {"ios": "https://dc.lft.to/lastmile_qr_scan", "android": "https://dc.lft.to/lastmile_qr_scan"}, "fusion_lon": 0.0, "lat": 38.898702, "is_disabled": 0, "bike_id": "1c820c093ea05b3696a46adf8098422e", "fusion_lat": 0.0, "is_reserved": 0, "lon": -77.03291216666666}, {"type": "electric_scooter", "name": "112be3634355c61868a8b8305a84e731", "rental_uris": {"ios": "https://dc.lft.to/lastmile_qr_scan", "android": "https://dc.lft.to/lastmile_qr_scan"}, "fusion_lon": 0.0, "lat": 38.884677333333336, "is_disabled": 0, "bike_id": "112be3634355c61868a8b8305a84e731", "fusion_lat": 0.0, "is_reserved": 0, "lon": -76.94980983333333}, {"type": "electric_scooter", "name": "7df72eed67b25b0b6051d242ad5e3118", "rental_uris": {"ios": "https://dc.lft.to/lastmile_qr_scan", "android": "https://dc.lft.to/lastmile_qr_scan"}, "fusion_lon": 0.0, "lat": 38.883095833333336, "is_disabled": 0, "bike_id": "7df72eed67b25b0b6051d242ad5e3118", "fusion_lat": 0.0, "is_reserved": 0, "lon": -77.01770383333333}, {"type": "electric_scooter", "name": "4ba8fb997313f898dcf49bb59fad303c", "rental_uris": {"ios": "https://dc.lft.to/lastmile_qr_scan", "android": "https://dc.lft.to/lastmile_qr_scan"}, "fusion_lon": 0.0, "lat": 38.936734666666666, "is_disabled": 0, "bike_id": "4ba8fb997313f898dcf49bb59fad303c", "fusion_lat": 0.0, "is_reserved": 0, "lon": -77.03592416666666}, {"type": "electric_scooter", "name": "44839e76973c6696b3a4f9d93ae45ff2", "rental_uris": {"ios": "https://dc.lft.to/lastmile_qr_scan", "android": "https://dc.lft.to/lastmile_qr_scan"}, "fusion_lon": 0.0, "lat": 38.902224833333335, "is_disabled": 0, "bike_id": "44839e76973c6696b3a4f9d93ae45ff2", "fusion_lat": 0.0, "is_reserved": 0, "lon": -77.04579016666666}, {"type": "electric_scooter", "name": "866584d60a102147f43ef3012a4ffeec", "rental_uris": {"ios": "https://dc.lft.to/lastmile_qr_scan", "android": "https://dc.lft.to/lastmile_qr_scan"}, "fusion_lon": 0.0, "lat": 38.916926, "is_disabled": 0, "bike_id": "866584d60a102147f43ef3012a4ffeec", "fusion_lat": 0.0, "is_reserved": 0, "lon": -77.03467983333333}, {"type": "electric_scooter", "name": "aebecedf34a7cc31900c8798702079cc", "rental_uris": {"ios": "https://dc.lft.to/lastmile_qr_scan", "android": "https://dc.lft.to/lastmile_qr_scan"}, "fusion_lon": 0.0, "lat": 38.92041966666667, "is_disabled": 0, "bike_id": "aebecedf34a7cc31900c8798702079cc", "fusion_lat": 0.0, "is_reserved": 0, "lon": -77.01680683333333}, {"type": "electric_scooter", "name": "b4d016d9c149f8c1273beef24c67e260", "rental_uris": {"ios": "https://dc.lft.to/lastmile_qr_scan", "android": "https://dc.lft.to/lastmile_qr_scan"}, "fusion_lon": 0.0, "lat": 38.9163245, "is_disabled": 0, "bike_id": "b4d016d9c149f8c1273beef24c67e260", "fusion_lat": 0.0, "is_reserved": 0, "lon": -77.04791383333334}, {"type": "electric_scooter", "name": "d7a44585315edaf9fa047d0c6a71f7a3", "rental_uris": {"ios": "https://dc.lft.to/lastmile_qr_scan", "android": "https://dc.lft.to/lastmile_qr_scan"}, "fusion_lon": 0.0, "lat": 38.9007635, "is_disabled": 0, "bike_id": "d7a44585315edaf9fa047d0c6a71f7a3", "fusion_lat": 0.0, "is_reserved": 0, "lon": -77.0506015}, {"type": "electric_scooter", "name": "043fd218914b19d21a3ba251ee5fc8be", "rental_uris": {"ios": "https://dc.lft.to/lastmile_qr_scan", "android": "https://dc.lft.to/lastmile_qr_scan"}, "fusion_lon": 0.0, "lat": 38.895044666666664, "is_disabled": 0, "bike_id": "043fd218914b19d21a3ba251ee5fc8be", "fusion_lat": 0.0, "is_reserved": 0, "lon": -77.021916}, {"type": "electric_scooter", "name": "5e97639b5a4a0d334d39c522f6b52647", "rental_uris": {"ios": "https://dc.lft.to/lastmile_qr_scan", "android": "https://dc.lft.to/lastmile_qr_scan"}, "fusion_lon": 0.0, "lat": 38.9044155, "is_disabled": 0, "bike_id": "5e97639b5a4a0d334d39c522f6b52647", "fusion_lat": 0.0, "is_reserved": 0, "lon": -77.018963}, {"type": "electric_scooter", "name": "511adfb630073763906c0c50ddeeb03d", "rental_uris": {"ios": "https://dc.lft.to/lastmile_qr_scan", "android": "https://dc.lft.to/lastmile_qr_scan"}, "fusion_lon": 0.0, "lat": 38.90266233333333, "is_disabled": 0, "bike_id": "511adfb630073763906c0c50ddeeb03d", "fusion_lat": 0.0, "is_reserved": 0, "lon": -77.03520833333333}, {"type": "electric_scooter", "name": "9d43da3ba19449be0f8c80e448d215d6", "rental_uris": {"ios": "https://dc.lft.to/lastmile_qr_scan", "android": "https://dc.lft.to/lastmile_qr_scan"}, "fusion_lon": 0.0, "lat": 38.892229666666665, "is_disabled": 0, "bike_id": "9d43da3ba19449be0f8c80e448d215d6", "fusion_lat": 0.0, "is_reserved": 0, "lon": -77.0333835}, {"type": "electric_scooter", "name": "7918e81adcd8d7a4e83c0fb8e96b5e9f", "rental_uris": {"ios": "https://dc.lft.to/lastmile_qr_scan", "android": "https://dc.lft.to/lastmile_qr_scan"}, "fusion_lon": 0.0, "lat": 38.901617, "is_disabled": 0, "bike_id": "7918e81adcd8d7a4e83c0fb8e96b5e9f", "fusion_lat": 0.0, "is_reserved": 0, "lon": -77.013109}, {"type": "electric_scooter", "name": "d72c494f712ee2023bf94664f90dfaf5", "rental_uris": {"ios": "https://dc.lft.to/lastmile_qr_scan", "android": "https://dc.lft.to/lastmile_qr_scan"}, "fusion_lon": 0.0, "lat": 38.912333833333335, "is_disabled": 0, "bike_id": "d72c494f712ee2023bf94664f90dfaf5", "fusion_lat": 0.0, "is_reserved": 0, "lon": -76.98789266666667}, {"type": "electric_scooter", "name": "e9203b8f6b634c512a8a3600ff5645e9", "rental_uris": {"ios": "https://dc.lft.to/lastmile_qr_scan", "android": "https://dc.lft.to/lastmile_qr_scan"}, "fusion_lon": 0.0, "lat": 38.89222733333333, "is_disabled": 0, "bike_id": "e9203b8f6b634c512a8a3600ff5645e9", "fusion_lat": 0.0, "is_reserved": 0, "lon": -77.04376016666667}, {"type": "electric_bike", "name": "db8138da763604fa4e2fee9f70f5e2d6", "rental_uris": {"ios": "https://dc.lft.to/lastmile_qr_scan", "android": "https://dc.lft.to/lastmile_qr_scan"}, "fusion_lon": 0.0, "lat": 38.859019333333336, "is_disabled": 0, "bike_id": "db8138da763604fa4e2fee9f70f5e2d6", "fusion_lat": 0.0, "is_reserved": 0, "lon": -77.09534916666667}, {"type": "electric_scooter", "name": "66e2f4fce017b2656231c167128bae92", "rental_uris": {"ios": "https://dc.lft.to/lastmile_qr_scan", "android": "https://dc.lft.to/lastmile_qr_scan"}, "fusion_lon": 0.0, "lat": 38.91335816666667, "is_disabled": 0, "bike_id": "66e2f4fce017b2656231c167128bae92", "fusion_lat": 0.0, "is_reserved": 0, "lon": -77.031712}, {"type": "electric_scooter", "name": "f13e582de323824f73188b1cc606d63c", "rental_uris": {"ios": "https://dc.lft.to/lastmile_qr_scan", "android": "https://dc.lft.to/lastmile_qr_scan"}, "fusion_lon": 0.0, "lat": 38.915614, "is_disabled": 0, "bike_id": "f13e582de323824f73188b1cc606d63c", "fusion_lat": 0.0, "is_reserved": 0, "lon": -77.02356016666667}, {"type": "electric_scooter", "name": "c0265b66700881b1574eb2c388d05e05", "rental_uris": {"ios": "https://dc.lft.to/lastmile_qr_scan", "android": "https://dc.lft.to/lastmile_qr_scan"}, "fusion_lon": 0.0, "lat": 38.865004166666665, "is_disabled": 0, "bike_id": "c0265b66700881b1574eb2c388d05e05", "fusion_lat": 0.0, "is_reserved": 0, "lon": -76.99002416666667}, {"type": "electric_scooter", "name": "65ed9f253d49ae24b399d9e1e3de7dfc", "rental_uris": {"ios": "https://dc.lft.to/lastmile_qr_scan", "android": "https://dc.lft.to/lastmile_qr_scan"}, "fusion_lon": 0.0, "lat": 38.93604033333333, "is_disabled": 0, "bike_id": "65ed9f253d49ae24b399d9e1e3de7dfc", "fusion_lat": 0.0, "is_reserved": 0, "lon": -77.05862066666667}, {"type": "electric_scooter", "name": "732070306889a7d676749f8c3d213452", "rental_uris": {"ios": "https://dc.lft.to/lastmile_qr_scan", "android": "https://dc.lft.to/lastmile_qr_scan"}, "fusion_lon": 0.0, "lat": 38.898064166666664, "is_disabled": 0, "bike_id": "732070306889a7d676749f8c3d213452", "fusion_lat": 0.0, "is_reserved": 0, "lon": -76.93126533333333}, {"type": "electric_scooter", "name": "92c8e6efeb31b241379d8382ba47da2b", "rental_uris": {"ios": "https://dc.lft.to/lastmile_qr_scan", "android": "https://dc.lft.to/lastmile_qr_scan"}, "fusion_lon": 0.0, "lat": 38.9017275, "is_disabled": 0, "bike_id": "92c8e6efeb31b241379d8382ba47da2b", "fusion_lat": 0.0, "is_reserved": 0, "lon": -76.9806515}, {"type": "electric_scooter", "name": "283b1189bfced2bb3d7f58626f0f32d6", "rental_uris": {"ios": "https://dc.lft.to/lastmile_qr_scan", "android": "https://dc.lft.to/lastmile_qr_scan"}, "fusion_lon": 0.0, "lat": 38.91008516666667, "is_disabled": 0, "bike_id": "283b1189bfced2bb3d7f58626f0f32d6", "fusion_lat": 0.0, "is_reserved": 0, "lon": -77.022061}, {"type": "electric_bike", "name": "201ea2926ef4a15d1148c63c93151015", "rental_uris": {"ios": "https://dc.lft.to/lastmile_qr_scan", "android": "https://dc.lft.to/lastmile_qr_scan"}, "fusion_lon": 0.0, "lat": 38.85511416666667, "is_disabled": 0, "bike_id": "201ea2926ef4a15d1148c63c93151015", "fusion_lat": 0.0, "is_reserved": 0, "lon": -77.10538033333333}, {"type": "electric_scooter", "name": "489950ecf51f42c398dd902e374825e7", "rental_uris": {"ios": "https://dc.lft.to/lastmile_qr_scan", "android": "https://dc.lft.to/lastmile_qr_scan"}, "fusion_lon": 0.0, "lat": 38.886315833333335, "is_disabled": 0, "bike_id": "489950ecf51f42c398dd902e374825e7", "fusion_lat": 0.0, "is_reserved": 0, "lon": -76.9258225}, {"type": "electric_scooter", "name": "1b37c4045bb98973d95051fdbb49e0c7", "rental_uris": {"ios": "https://dc.lft.to/lastmile_qr_scan", "android": "https://dc.lft.to/lastmile_qr_scan"}, "fusion_lon": 0.0, "lat": 38.892228833333334, "is_disabled": 0, "bike_id": "1b37c4045bb98973d95051fdbb49e0c7", "fusion_lat": 0.0, "is_reserved": 0, "lon": -77.04808833333334}, {"type": "electric_scooter", "name": "46d9bd507c4011d858261320e3e15232", "rental_uris": {"ios": "https://dc.lft.to/lastmile_qr_scan", "android": "https://dc.lft.to/lastmile_qr_scan"}, "fusion_lon": 0.0, "lat": 38.9275135, "is_disabled": 0, "bike_id": "46d9bd507c4011d858261320e3e15232", "fusion_lat": 0.0, "is_reserved": 0, "lon": -77.03271833333334}, {"type": "electric_scooter", "name": "2374cb31d2cf8017cb4bfac1ab7f32fe", "rental_uris": {"ios": "https://dc.lft.to/lastmile_qr_scan", "android": "https://dc.lft.to/lastmile_qr_scan"}, "fusion_lon": 0.0, "lat": 38.8760915, "is_disabled": 0, "bike_id": "2374cb31d2cf8017cb4bfac1ab7f32fe", "fusion_lat": 0.0, "is_reserved": 0, "lon": -76.965674}, {"type": "electric_scooter", "name": "098d37e03ce4489ee1ecc920a075670c", "rental_uris": {"ios": "https://dc.lft.to/lastmile_qr_scan", "android": "https://dc.lft.to/lastmile_qr_scan"}, "fusion_lon": 0.0, "lat": 38.9204415, "is_disabled": 0, "bike_id": "098d37e03ce4489ee1ecc920a075670c", "fusion_lat": 0.0, "is_reserved": 0, "lon": -77.0020575}, {"type": "electric_scooter", "name": "9a906486f74b5f4b02d63d4a614a8c84", "rental_uris": {"ios": "https://dc.lft.to/lastmile_qr_scan", "android": "https://dc.lft.to/lastmile_qr_scan"}, "fusion_lon": 0.0, "lat": 38.9072405, "is_disabled": 0, "bike_id": "9a906486f74b5f4b02d63d4a614a8c84", "fusion_lat": 0.0, "is_reserved": 0, "lon": -77.02545816666667}, {"type": "electric_scooter", "name": "aba9f2ef7bd500e17448952174611772", "rental_uris": {"ios": "https://dc.lft.to/lastmile_qr_scan", "android": "https://dc.lft.to/lastmile_qr_scan"}, "fusion_lon": 0.0, "lat": 38.9018715, "is_disabled": 0, "bike_id": "aba9f2ef7bd500e17448952174611772", "fusion_lat": 0.0, "is_reserved": 0, "lon": -76.9289605}, {"type": "electric_scooter", "name": "ffa5c2254e72dfb860fd702bfdc62ebd", "rental_uris": {"ios": "https://dc.lft.to/lastmile_qr_scan", "android": "https://dc.lft.to/lastmile_qr_scan"}, "fusion_lon": 0.0, "lat": 38.891691333333334, "is_disabled": 0, "bike_id": "ffa5c2254e72dfb860fd702bfdc62ebd", "fusion_lat": 0.0, "is_reserved": 0, "lon": -76.999462}, {"type": "electric_scooter", "name": "b9a5556ab99f27bf8c571cb39ddce800", "rental_uris": {"ios": "https://dc.lft.to/lastmile_qr_scan", "android": "https://dc.lft.to/lastmile_qr_scan"}, "fusion_lon": 0.0, "lat": 38.9023635, "is_disabled": 0, "bike_id": "b9a5556ab99f27bf8c571cb39ddce800", "fusion_lat": 0.0, "is_reserved": 0, "lon": -77.00197366666667}, {"type": "electric_scooter", "name": "163ce358ecf61f0a413169815afefa3c", "rental_uris": {"ios": "https://dc.lft.to/lastmile_qr_scan", "android": "https://dc.lft.to/lastmile_qr_scan"}, "fusion_lon": 0.0, "lat": 38.932092833333336, "is_disabled": 0, "bike_id": "163ce358ecf61f0a413169815afefa3c", "fusion_lat": 0.0, "is_reserved": 0, "lon": -77.03669366666666}, {"type": "electric_scooter", "name": "38cece6a0fba5db06c0368f7decd87c4", "rental_uris": {"ios": "https://dc.lft.to/lastmile_qr_scan", "android": "https://dc.lft.to/lastmile_qr_scan"}, "fusion_lon": 0.0, "lat": 38.92828016666667, "is_disabled": 0, "bike_id": "38cece6a0fba5db06c0368f7decd87c4", "fusion_lat": 0.0, "is_reserved": 0, "lon": -77.0543845}, {"type": "electric_scooter", "name": "51cc42ba27e35b4c817d1aa5455140a8", "rental_uris": {"ios": "https://dc.lft.to/lastmile_qr_scan", "android": "https://dc.lft.to/lastmile_qr_scan"}, "fusion_lon": 0.0, "lat": 38.90521483333333, "is_disabled": 0, "bike_id": "51cc42ba27e35b4c817d1aa5455140a8", "fusion_lat": 0.0, "is_reserved": 0, "lon": -77.06136866666667}, {"type": "electric_bike", "name": "a06f9221fe0a318fcdbda6f07a6aa9f4", "rental_uris": {"ios": "https://dc.lft.to/lastmile_qr_scan", "android": "https://dc.lft.to/lastmile_qr_scan"}, "fusion_lon": 0.0, "lat": 38.97254233333334, "is_disabled": 0, "bike_id": "a06f9221fe0a318fcdbda6f07a6aa9f4", "fusion_lat": 0.0, "is_reserved": 0, "lon": -76.99276183333333}, {"type": "electric_scooter", "name": "97f2e21f4304df7342fadef5acaf4553", "rental_uris": {"ios": "https://dc.lft.to/lastmile_qr_scan", "android": "https://dc.lft.to/lastmile_qr_scan"}, "fusion_lon": 0.0, "lat": 38.9066425, "is_disabled": 0, "bike_id": "97f2e21f4304df7342fadef5acaf4553", "fusion_lat": 0.0, "is_reserved": 0, "lon": -77.07129383333333}, {"type": "electric_scooter", "name": "9e6ec369b7478936a6dd68e1ea09448e", "rental_uris": {"ios": "https://dc.lft.to/lastmile_qr_scan", "android": "https://dc.lft.to/lastmile_qr_scan"}, "fusion_lon": 0.0, "lat": 38.88309916666667, "is_disabled": 0, "bike_id": "9e6ec369b7478936a6dd68e1ea09448e", "fusion_lat": 0.0, "is_reserved": 0, "lon": -77.01367883333333}, {"type": "electric_scooter", "name": "4efa61548acce336f7d7c6b105314ddf", "rental_uris": {"ios": "https://dc.lft.to/lastmile_qr_scan", "android": "https://dc.lft.to/lastmile_qr_scan"}, "fusion_lon": 0.0, "lat": 38.91113333333333, "is_disabled": 0, "bike_id": "4efa61548acce336f7d7c6b105314ddf", "fusion_lat": 0.0, "is_reserved": 0, "lon": -77.03735283333333}, {"type": "electric_scooter", "name": "ba38bae3a9bf931b630c47e4c512edba", "rental_uris": {"ios": "https://dc.lft.to/lastmile_qr_scan", "android": "https://dc.lft.to/lastmile_qr_scan"}, "fusion_lon": 0.0, "lat": 38.8984235, "is_disabled": 0, "bike_id": "ba38bae3a9bf931b630c47e4c512edba", "fusion_lat": 0.0, "is_reserved": 0, "lon": -77.03180033333334}, {"type": "electric_bike", "name": "c1fc8982ecc1c2d3e6f54d1a4305f095", "rental_uris": {"ios": "https://dc.lft.to/lastmile_qr_scan", "android": "https://dc.lft.to/lastmile_qr_scan"}, "fusion_lon": 0.0, "lat": 39.034236166666666, "is_disabled": 0, "bike_id": "c1fc8982ecc1c2d3e6f54d1a4305f095", "fusion_lat": 0.0, "is_reserved": 0, "lon": -77.043013}, {"type": "electric_scooter", "name": "ea752a5acd33a71c75b51f5efd365ab0", "rental_uris": {"ios": "https://dc.lft.to/lastmile_qr_scan", "android": "https://dc.lft.to/lastmile_qr_scan"}, "fusion_lon": 0.0, "lat": 38.923246666666664, "is_disabled": 0, "bike_id": "ea752a5acd33a71c75b51f5efd365ab0", "fusion_lat": 0.0, "is_reserved": 0, "lon": -77.029669}, {"type": "electric_scooter", "name": "efa216a17ee6a0fd840c9200d2fb59b7", "rental_uris": {"ios": "https://dc.lft.to/lastmile_qr_scan", "android": "https://dc.lft.to/lastmile_qr_scan"}, "fusion_lon": 0.0, "lat": 38.9253455, "is_disabled": 0, "bike_id": "efa216a17ee6a0fd840c9200d2fb59b7", "fusion_lat": 0.0, "is_reserved": 0, "lon": -77.03381}, {"type": "electric_scooter", "name": "4139f3747cc26b36af103e16af685402", "rental_uris": {"ios": "https://dc.lft.to/lastmile_qr_scan", "android": "https://dc.lft.to/lastmile_qr_scan"}, "fusion_lon": 0.0, "lat": 38.903908666666666, "is_disabled": 0, "bike_id": "4139f3747cc26b36af103e16af685402", "fusion_lat": 0.0, "is_reserved": 0, "lon": -77.06512733333334}, {"type": "electric_scooter", "name": "6e385295153e2ab33f77d9b0f3af5739", "rental_uris": {"ios": "https://dc.lft.to/lastmile_qr_scan", "android": "https://dc.lft.to/lastmile_qr_scan"}, "fusion_lon": 0.0, "lat": 38.9169765, "is_disabled": 0, "bike_id": "6e385295153e2ab33f77d9b0f3af5739", "fusion_lat": 0.0, "is_reserved": 0, "lon": -77.04036233333333}, {"type": "electric_scooter", "name": "144e46490515ebc2f351903815847a86", "rental_uris": {"ios": "https://dc.lft.to/lastmile_qr_scan", "android": "https://dc.lft.to/lastmile_qr_scan"}, "fusion_lon": 0.0, "lat": 38.937483666666665, "is_disabled": 0, "bike_id": "144e46490515ebc2f351903815847a86", "fusion_lat": 0.0, "is_reserved": 0, "lon": -77.0859485}, {"type": "electric_scooter", "name": "778e38cd84617d5fab9517c0df66550e", "rental_uris": {"ios": "https://dc.lft.to/lastmile_qr_scan", "android": "https://dc.lft.to/lastmile_qr_scan"}, "fusion_lon": 0.0, "lat": 38.9126395, "is_disabled": 0, "bike_id": "778e38cd84617d5fab9517c0df66550e", "fusion_lat": 0.0, "is_reserved": 0, "lon": -77.022189}, {"type": "electric_scooter", "name": "06cab2bd45f887dceb556b6f82451f48", "rental_uris": {"ios": "https://dc.lft.to/lastmile_qr_scan", "android": "https://dc.lft.to/lastmile_qr_scan"}, "fusion_lon": 0.0, "lat": 38.917376833333336, "is_disabled": 0, "bike_id": "06cab2bd45f887dceb556b6f82451f48", "fusion_lat": 0.0, "is_reserved": 0, "lon": -77.0211645}, {"type": "electric_scooter", "name": "c4b94be7d51990f8edf80caddbcfb0e3", "rental_uris": {"ios": "https://dc.lft.to/lastmile_qr_scan", "android": "https://dc.lft.to/lastmile_qr_scan"}, "fusion_lon": 0.0, "lat": 38.91908266666667, "is_disabled": 0, "bike_id": "c4b94be7d51990f8edf80caddbcfb0e3", "fusion_lat": 0.0, "is_reserved": 0, "lon": -77.04468683333333}, {"type": "electric_scooter", "name": "82a24295e4feada50834a5bff9913bd8", "rental_uris": {"ios": "https://dc.lft.to/lastmile_qr_scan", "android": "https://dc.lft.to/lastmile_qr_scan"}, "fusion_lon": 0.0, "lat": 38.89706616666667, "is_disabled": 0, "bike_id": "82a24295e4feada50834a5bff9913bd8", "fusion_lat": 0.0, "is_reserved": 0, "lon": -77.022891}, {"type": "electric_scooter", "name": "3746ff948b421a962252321c4a302c7c", "rental_uris": {"ios": "https://dc.lft.to/lastmile_qr_scan", "android": "https://dc.lft.to/lastmile_qr_scan"}, "fusion_lon": 0.0, "lat": 38.89919233333333, "is_disabled": 0, "bike_id": "3746ff948b421a962252321c4a302c7c", "fusion_lat": 0.0, "is_reserved": 0, "lon": -76.985386}, {"type": "electric_bike", "name": "3f7b5f14516e72c42ce260781220a946", "rental_uris": {"ios": "https://dc.lft.to/lastmile_qr_scan", "android": "https://dc.lft.to/lastmile_qr_scan"}, "fusion_lon": 0.0, "lat": 38.9481765, "is_disabled": 0, "bike_id": "3f7b5f14516e72c42ce260781220a946", "fusion_lat": 0.0, "is_reserved": 0, "lon": -77.02979666666667}, {"type": "electric_scooter", "name": "ad2dd56105c664b4595278a7ff913b0b", "rental_uris": {"ios": "https://dc.lft.to/lastmile_qr_scan", "android": "https://dc.lft.to/lastmile_qr_scan"}, "fusion_lon": 0.0, "lat": 38.855735, "is_disabled": 0, "bike_id": "ad2dd56105c664b4595278a7ff913b0b", "fusion_lat": 0.0, "is_reserved": 0, "lon": -76.96653466666666}, {"type": "electric_scooter", "name": "343a43927f2e0065ac4556ff38948eab", "rental_uris": {"ios": "https://dc.lft.to/lastmile_qr_scan", "android": "https://dc.lft.to/lastmile_qr_scan"}, "fusion_lon": 0.0, "lat": 38.92364083333333, "is_disabled": 0, "bike_id": "343a43927f2e0065ac4556ff38948eab", "fusion_lat": 0.0, "is_reserved": 0, "lon": -77.050306}, {"type": "electric_scooter", "name": "a2138fee869aaa61b7127315022a9b72", "rental_uris": {"ios": "https://dc.lft.to/lastmile_qr_scan", "android": "https://dc.lft.to/lastmile_qr_scan"}, "fusion_lon": 0.0, "lat": 38.8934375, "is_disabled": 0, "bike_id": "a2138fee869aaa61b7127315022a9b72", "fusion_lat": 0.0, "is_reserved": 0, "lon": -77.01195416666667}, {"type": "electric_scooter", "name": "40c243e8409ee61507747dfdd3e37171", "rental_uris": {"ios": "https://dc.lft.to/lastmile_qr_scan", "android": "https://dc.lft.to/lastmile_qr_scan"}, "fusion_lon": 0.0, "lat": 38.93435383333333, "is_disabled": 0, "bike_id": "40c243e8409ee61507747dfdd3e37171", "fusion_lat": 0.0, "is_reserved": 0, "lon": -77.03456316666667}, {"type": "electric_scooter", "name": "03ab45b55d2946bdb8e1da50c1f075b3", "rental_uris": {"ios": "https://dc.lft.to/lastmile_qr_scan", "android": "https://dc.lft.to/lastmile_qr_scan"}, "fusion_lon": 0.0, "lat": 38.93246216666667, "is_disabled": 0, "bike_id": "03ab45b55d2946bdb8e1da50c1f075b3", "fusion_lat": 0.0, "is_reserved": 0, "lon": -77.038705}, {"type": "electric_scooter", "name": "e1003d16d0973993dfe3bc753c0fb599", "rental_uris": {"ios": "https://dc.lft.to/lastmile_qr_scan", "android": "https://dc.lft.to/lastmile_qr_scan"}, "fusion_lon": 0.0, "lat": 38.905407, "is_disabled": 0, "bike_id": "e1003d16d0973993dfe3bc753c0fb599", "fusion_lat": 0.0, "is_reserved": 0, "lon": -77.049559}, {"type": "electric_scooter", "name": "f1f42b0592cfb36f5d85f69cb586e3a7", "rental_uris": {"ios": "https://dc.lft.to/lastmile_qr_scan", "android": "https://dc.lft.to/lastmile_qr_scan"}, "fusion_lon": 0.0, "lat": 38.887286, "is_disabled": 0, "bike_id": "f1f42b0592cfb36f5d85f69cb586e3a7", "fusion_lat": 0.0, "is_reserved": 0, "lon": -77.025845}, {"type": "electric_bike", "name": "b07575edf9ae82562b3061b5e081d441", "rental_uris": {"ios": "https://dc.lft.to/lastmile_qr_scan", "android": "https://dc.lft.to/lastmile_qr_scan"}, "fusion_lon": 0.0, "lat": 38.88008083333333, "is_disabled": 0, "bike_id": "b07575edf9ae82562b3061b5e081d441", "fusion_lat": 0.0, "is_reserved": 0, "lon": -77.1076605}, {"type": "electric_scooter", "name": "399a8c31acb30675803fc82288e62445", "rental_uris": {"ios": "https://dc.lft.to/lastmile_qr_scan", "android": "https://dc.lft.to/lastmile_qr_scan"}, "fusion_lon": 0.0, "lat": 38.88326333333333, "is_disabled": 0, "bike_id": "399a8c31acb30675803fc82288e62445", "fusion_lat": 0.0, "is_reserved": 0, "lon": -77.01774016666667}, {"type": "electric_scooter", "name": "88284aa768f27830590de1a330589715", "rental_uris": {"ios": "https://dc.lft.to/lastmile_qr_scan", "android": "https://dc.lft.to/lastmile_qr_scan"}, "fusion_lon": 0.0, "lat": 38.956364, "is_disabled": 0, "bike_id": "88284aa768f27830590de1a330589715", "fusion_lat": 0.0, "is_reserved": 0, "lon": -77.03299183333333}, {"type": "electric_scooter", "name": "cc8440c30b9b635099de996feb802594", "rental_uris": {"ios": "https://dc.lft.to/lastmile_qr_scan", "android": "https://dc.lft.to/lastmile_qr_scan"}, "fusion_lon": 0.0, "lat": 38.92729083333333, "is_disabled": 0, "bike_id": "cc8440c30b9b635099de996feb802594", "fusion_lat": 0.0, "is_reserved": 0, "lon": -77.0368315}, {"type": "electric_scooter", "name": "b7f8006ab9133a1eef144114abbe4698", "rental_uris": {"ios": "https://dc.lft.to/lastmile_qr_scan", "android": "https://dc.lft.to/lastmile_qr_scan"}, "fusion_lon": 0.0, "lat": 38.88500916666667, "is_disabled": 0, "bike_id": "b7f8006ab9133a1eef144114abbe4698", "fusion_lat": 0.0, "is_reserved": 0, "lon": -77.020888}, {"type": "electric_scooter", "name": "a62df3513dc11d907364a4e31a28fd62", "rental_uris": {"ios": "https://dc.lft.to/lastmile_qr_scan", "android": "https://dc.lft.to/lastmile_qr_scan"}, "fusion_lon": 0.0, "lat": 38.9065975, "is_disabled": 0, "bike_id": "a62df3513dc11d907364a4e31a28fd62", "fusion_lat": 0.0, "is_reserved": 0, "lon": -77.027163}, {"type": "electric_scooter", "name": "6316f9dee43f6f91c26cc99130ec08b2", "rental_uris": {"ios": "https://dc.lft.to/lastmile_qr_scan", "android": "https://dc.lft.to/lastmile_qr_scan"}, "fusion_lon": 0.0, "lat": 38.92287733333333, "is_disabled": 0, "bike_id": "6316f9dee43f6f91c26cc99130ec08b2", "fusion_lat": 0.0, "is_reserved": 0, "lon": -77.0319885}, {"type": "electric_scooter", "name": "8404fb2f22080294cbbffe57b3945842", "rental_uris": {"ios": "https://dc.lft.to/lastmile_qr_scan", "android": "https://dc.lft.to/lastmile_qr_scan"}, "fusion_lon": 0.0, "lat": 38.91809, "is_disabled": 0, "bike_id": "8404fb2f22080294cbbffe57b3945842", "fusion_lat": 0.0, "is_reserved": 0, "lon": -77.0281755}, {"type": "electric_scooter", "name": "58f3aad5ad293e75db0ec77050e8b099", "rental_uris": {"ios": "https://dc.lft.to/lastmile_qr_scan", "android": "https://dc.lft.to/lastmile_qr_scan"}, "fusion_lon": 0.0, "lat": 38.898132833333335, "is_disabled": 0, "bike_id": "58f3aad5ad293e75db0ec77050e8b099", "fusion_lat": 0.0, "is_reserved": 0, "lon": -77.03161783333333}, {"type": "electric_scooter", "name": "53b67462671702ce40182d461499f386", "rental_uris": {"ios": "https://dc.lft.to/lastmile_qr_scan", "android": "https://dc.lft.to/lastmile_qr_scan"}, "fusion_lon": 0.0, "lat": 38.911169666666666, "is_disabled": 0, "bike_id": "53b67462671702ce40182d461499f386", "fusion_lat": 0.0, "is_reserved": 0, "lon": -77.04462416666667}, {"type": "electric_bike", "name": "47370a02ffc0fd28237089e242b62df0", "rental_uris": {"ios": "https://dc.lft.to/lastmile_qr_scan", "android": "https://dc.lft.to/lastmile_qr_scan"}, "fusion_lon": 0.0, "lat": 38.924565333333334, "is_disabled": 0, "bike_id": "47370a02ffc0fd28237089e242b62df0", "fusion_lat": 0.0, "is_reserved": 0, "lon": -77.06739166666667}, {"type": "electric_scooter", "name": "50b0c24615dc3fe4ceec2b0ecfc9fc8f", "rental_uris": {"ios": "https://dc.lft.to/lastmile_qr_scan", "android": "https://dc.lft.to/lastmile_qr_scan"}, "fusion_lon": 0.0, "lat": 38.905797, "is_disabled": 0, "bike_id": "50b0c24615dc3fe4ceec2b0ecfc9fc8f", "fusion_lat": 0.0, "is_reserved": 0, "lon": -76.98431683333334}, {"type": "electric_scooter", "name": "7eaf80bc1c6fdf5102b42415ff051dbb", "rental_uris": {"ios": "https://dc.lft.to/lastmile_qr_scan", "android": "https://dc.lft.to/lastmile_qr_scan"}, "fusion_lon": 0.0, "lat": 38.917716166666665, "is_disabled": 0, "bike_id": "7eaf80bc1c6fdf5102b42415ff051dbb", "fusion_lat": 0.0, "is_reserved": 0, "lon": -77.04099833333333}, {"type": "electric_scooter", "name": "39a00a99fad8fe9caa4fb554a398e342", "rental_uris": {"ios": "https://dc.lft.to/lastmile_qr_scan", "android": "https://dc.lft.to/lastmile_qr_scan"}, "fusion_lon": 0.0, "lat": 38.902887666666665, "is_disabled": 0, "bike_id": "39a00a99fad8fe9caa4fb554a398e342", "fusion_lat": 0.0, "is_reserved": 0, "lon": -76.97637133333333}, {"type": "electric_scooter", "name": "3c098c8e2968dceca9a80122327113e0", "rental_uris": {"ios": "https://dc.lft.to/lastmile_qr_scan", "android": "https://dc.lft.to/lastmile_qr_scan"}, "fusion_lon": 0.0, "lat": 38.905248666666665, "is_disabled": 0, "bike_id": "3c098c8e2968dceca9a80122327113e0", "fusion_lat": 0.0, "is_reserved": 0, "lon": -77.04869333333333}, {"type": "electric_scooter", "name": "ac58929467a0ed2e3677bf7796cfe8ce", "rental_uris": {"ios": "https://dc.lft.to/lastmile_qr_scan", "android": "https://dc.lft.to/lastmile_qr_scan"}, "fusion_lon": 0.0, "lat": 38.975125, "is_disabled": 0, "bike_id": "ac58929467a0ed2e3677bf7796cfe8ce", "fusion_lat": 0.0, "is_reserved": 0, "lon": -77.01668416666666}, {"type": "electric_scooter", "name": "d52f9a996e2db9c8774dd9a56bf17450", "rental_uris": {"ios": "https://dc.lft.to/lastmile_qr_scan", "android": "https://dc.lft.to/lastmile_qr_scan"}, "fusion_lon": 0.0, "lat": 38.9269075, "is_disabled": 0, "bike_id": "d52f9a996e2db9c8774dd9a56bf17450", "fusion_lat": 0.0, "is_reserved": 0, "lon": -77.03250733333333}, {"type": "electric_bike", "name": "7fcff6909a9cf798d0ffe03b86c52492", "rental_uris": {"ios": "https://dc.lft.to/lastmile_qr_scan", "android": "https://dc.lft.to/lastmile_qr_scan"}, "fusion_lon": 0.0, "lat": 38.876648333333335, "is_disabled": 0, "bike_id": "7fcff6909a9cf798d0ffe03b86c52492", "fusion_lat": 0.0, "is_reserved": 0, "lon": -77.0146015}, {"type": "electric_scooter", "name": "be8dc8ae1ab2fd734ebcfbe8f3d0d51d", "rental_uris": {"ios": "https://dc.lft.to/lastmile_qr_scan", "android": "https://dc.lft.to/lastmile_qr_scan"}, "fusion_lon": 0.0, "lat": 38.912640333333336, "is_disabled": 0, "bike_id": "be8dc8ae1ab2fd734ebcfbe8f3d0d51d", "fusion_lat": 0.0, "is_reserved": 0, "lon": -77.0221505}, {"type": "electric_scooter", "name": "0d823abc30503eae9db19338b1cd7a55", "rental_uris": {"ios": "https://dc.lft.to/lastmile_qr_scan", "android": "https://dc.lft.to/lastmile_qr_scan"}, "fusion_lon": 0.0, "lat": 38.91252433333333, "is_disabled": 0, "bike_id": "0d823abc30503eae9db19338b1cd7a55", "fusion_lat": 0.0, "is_reserved": 0, "lon": -77.04436733333333}, {"type": "electric_scooter", "name": "cc23aaa6735f4853b917665299eaddf3", "rental_uris": {"ios": "https://dc.lft.to/lastmile_qr_scan", "android": "https://dc.lft.to/lastmile_qr_scan"}, "fusion_lon": 0.0, "lat": 38.92120216666667, "is_disabled": 0, "bike_id": "cc23aaa6735f4853b917665299eaddf3", "fusion_lat": 0.0, "is_reserved": 0, "lon": -77.02514316666667}, {"type": "electric_scooter", "name": "38d0aa6bec3e934a6308efd0ee10fed8", "rental_uris": {"ios": "https://dc.lft.to/lastmile_qr_scan", "android": "https://dc.lft.to/lastmile_qr_scan"}, "fusion_lon": 0.0, "lat": 38.904707, "is_disabled": 0, "bike_id": "38d0aa6bec3e934a6308efd0ee10fed8", "fusion_lat": 0.0, "is_reserved": 0, "lon": -77.0653615}, {"type": "electric_scooter", "name": "7d978dd0fdb7ce97e10f51c4ff614448", "rental_uris": {"ios": "https://dc.lft.to/lastmile_qr_scan", "android": "https://dc.lft.to/lastmile_qr_scan"}, "fusion_lon": 0.0, "lat": 38.897255333333334, "is_disabled": 0, "bike_id": "7d978dd0fdb7ce97e10f51c4ff614448", "fusion_lat": 0.0, "is_reserved": 0, "lon": -77.055227}, {"type": "electric_scooter", "name": "ef56d3b0da7976a0f07339e7ea6b250a", "rental_uris": {"ios": "https://dc.lft.to/lastmile_qr_scan", "android": "https://dc.lft.to/lastmile_qr_scan"}, "fusion_lon": 0.0, "lat": 38.89302433333334, "is_disabled": 0, "bike_id": "ef56d3b0da7976a0f07339e7ea6b250a", "fusion_lat": 0.0, "is_reserved": 0, "lon": -77.04660016666666}, {"type": "electric_scooter", "name": "22234f4f3fcadfe45649568190abc414", "rental_uris": {"ios": "https://dc.lft.to/lastmile_qr_scan", "android": "https://dc.lft.to/lastmile_qr_scan"}, "fusion_lon": 0.0, "lat": 38.9160035, "is_disabled": 0, "bike_id": "22234f4f3fcadfe45649568190abc414", "fusion_lat": 0.0, "is_reserved": 0, "lon": -77.04859983333333}, {"type": "electric_scooter", "name": "4ed15579be8d46d1bc37b16b0615e61c", "rental_uris": {"ios": "https://dc.lft.to/lastmile_qr_scan", "android": "https://dc.lft.to/lastmile_qr_scan"}, "fusion_lon": 0.0, "lat": 38.914121333333334, "is_disabled": 0, "bike_id": "4ed15579be8d46d1bc37b16b0615e61c", "fusion_lat": 0.0, "is_reserved": 0, "lon": -77.0188155}, {"type": "electric_scooter", "name": "ab1eeafb5e08d26bb4a326dc73bbe035", "rental_uris": {"ios": "https://dc.lft.to/lastmile_qr_scan", "android": "https://dc.lft.to/lastmile_qr_scan"}, "fusion_lon": 0.0, "lat": 38.93490416666667, "is_disabled": 0, "bike_id": "ab1eeafb5e08d26bb4a326dc73bbe035", "fusion_lat": 0.0, "is_reserved": 0, "lon": -77.02412283333334}, {"type": "electric_scooter", "name": "102b418c232316da5184dd051a54f792", "rental_uris": {"ios": "https://dc.lft.to/lastmile_qr_scan", "android": "https://dc.lft.to/lastmile_qr_scan"}, "fusion_lon": 0.0, "lat": 38.901247166666664, "is_disabled": 0, "bike_id": "102b418c232316da5184dd051a54f792", "fusion_lat": 0.0, "is_reserved": 0, "lon": -77.0424295}, {"type": "electric_bike", "name": "8ca2887a2499ae9f4722ec57d616e777", "rental_uris": {"ios": "https://dc.lft.to/lastmile_qr_scan", "android": "https://dc.lft.to/lastmile_qr_scan"}, "fusion_lon": 0.0, "lat": 38.9977925, "is_disabled": 0, "bike_id": "8ca2887a2499ae9f4722ec57d616e777", "fusion_lat": 0.0, "is_reserved": 0, "lon": -77.0471995}, {"type": "electric_scooter", "name": "f44ecbd9f2f83102cfe5fda88e251e99", "rental_uris": {"ios": "https://dc.lft.to/lastmile_qr_scan", "android": "https://dc.lft.to/lastmile_qr_scan"}, "fusion_lon": 0.0, "lat": 38.90573166666667, "is_disabled": 0, "bike_id": "f44ecbd9f2f83102cfe5fda88e251e99", "fusion_lat": 0.0, "is_reserved": 0, "lon": -77.00582916666667}, {"type": "electric_scooter", "name": "b752078514974a2d37c1423678940572", "rental_uris": {"ios": "https://dc.lft.to/lastmile_qr_scan", "android": "https://dc.lft.to/lastmile_qr_scan"}, "fusion_lon": 0.0, "lat": 38.93391733333333, "is_disabled": 0, "bike_id": "b752078514974a2d37c1423678940572", "fusion_lat": 0.0, "is_reserved": 0, "lon": -77.05744083333333}, {"type": "electric_scooter", "name": "280d3ca6b99f085fbc68fd753fbb18e1", "rental_uris": {"ios": "https://dc.lft.to/lastmile_qr_scan", "android": "https://dc.lft.to/lastmile_qr_scan"}, "fusion_lon": 0.0, "lat": 38.9386385, "is_disabled": 0, "bike_id": "280d3ca6b99f085fbc68fd753fbb18e1", "fusion_lat": 0.0, "is_reserved": 0, "lon": -77.0248725}, {"type": "electric_bike", "name": "e13d3a748e1e5553b8b2f7794ce8bd40", "rental_uris": {"ios": "https://dc.lft.to/lastmile_qr_scan", "android": "https://dc.lft.to/lastmile_qr_scan"}, "fusion_lon": 0.0, "lat": 38.95237933333333, "is_disabled": 0, "bike_id": "e13d3a748e1e5553b8b2f7794ce8bd40", "fusion_lat": 0.0, "is_reserved": 0, "lon": -77.00271316666667}, {"type": "electric_scooter", "name": "1f890ebe1f281656d68b1610e05845ff", "rental_uris": {"ios": "https://dc.lft.to/lastmile_qr_scan", "android": "https://dc.lft.to/lastmile_qr_scan"}, "fusion_lon": 0.0, "lat": 38.91878616666666, "is_disabled": 0, "bike_id": "1f890ebe1f281656d68b1610e05845ff", "fusion_lat": 0.0, "is_reserved": 0, "lon": -77.04185483333333}, {"type": "electric_scooter", "name": "948dbf9ae16de2e98fe4eec066a35fee", "rental_uris": {"ios": "https://dc.lft.to/lastmile_qr_scan", "android": "https://dc.lft.to/lastmile_qr_scan"}, "fusion_lon": 0.0, "lat": 38.93487433333333, "is_disabled": 0, "bike_id": "948dbf9ae16de2e98fe4eec066a35fee", "fusion_lat": 0.0, "is_reserved": 0, "lon": -77.0453515}, {"type": "electric_scooter", "name": "462235a04f9feef802ece846cf1ad8c8", "rental_uris": {"ios": "https://dc.lft.to/lastmile_qr_scan", "android": "https://dc.lft.to/lastmile_qr_scan"}, "fusion_lon": 0.0, "lat": 38.898715, "is_disabled": 0, "bike_id": "462235a04f9feef802ece846cf1ad8c8", "fusion_lat": 0.0, "is_reserved": 0, "lon": -76.93184583333333}, {"type": "electric_scooter", "name": "c2a3d0190e619b054be9d078a23c37f9", "rental_uris": {"ios": "https://dc.lft.to/lastmile_qr_scan", "android": "https://dc.lft.to/lastmile_qr_scan"}, "fusion_lon": 0.0, "lat": 38.83146583333333, "is_disabled": 0, "bike_id": "c2a3d0190e619b054be9d078a23c37f9", "fusion_lat": 0.0, "is_reserved": 0, "lon": -77.0083915}, {"type": "electric_scooter", "name": "fe9688feff9cd823a73cd2671ca5bedb", "rental_uris": {"ios": "https://dc.lft.to/lastmile_qr_scan", "android": "https://dc.lft.to/lastmile_qr_scan"}, "fusion_lon": 0.0, "lat": 38.92274666666667, "is_disabled": 0, "bike_id": "fe9688feff9cd823a73cd2671ca5bedb", "fusion_lat": 0.0, "is_reserved": 0, "lon": -77.04234333333333}, {"type": "electric_scooter", "name": "0c24e1b30c793ec80108e5c8a25cddef", "rental_uris": {"ios": "https://dc.lft.to/lastmile_qr_scan", "android": "https://dc.lft.to/lastmile_qr_scan"}, "fusion_lon": 0.0, "lat": 38.9296845, "is_disabled": 0, "bike_id": "0c24e1b30c793ec80108e5c8a25cddef", "fusion_lat": 0.0, "is_reserved": 0, "lon": -77.0318365}, {"type": "electric_scooter", "name": "0b7cca9d24c33a643424e7e203a3fec6", "rental_uris": {"ios": "https://dc.lft.to/lastmile_qr_scan", "android": "https://dc.lft.to/lastmile_qr_scan"}, "fusion_lon": 0.0, "lat": 38.90017016666667, "is_disabled": 0, "bike_id": "0b7cca9d24c33a643424e7e203a3fec6", "fusion_lat": 0.0, "is_reserved": 0, "lon": -76.9879215}, {"type": "electric_scooter", "name": "9b56add59ad64e05438144d3c46ba32f", "rental_uris": {"ios": "https://dc.lft.to/lastmile_qr_scan", "android": "https://dc.lft.to/lastmile_qr_scan"}, "fusion_lon": 0.0, "lat": 38.919412666666666, "is_disabled": 0, "bike_id": "9b56add59ad64e05438144d3c46ba32f", "fusion_lat": 0.0, "is_reserved": 0, "lon": -77.02493}, {"type": "electric_bike", "name": "f99fc99848e72410bbdf2d5440c540ce", "rental_uris": {"ios": "https://dc.lft.to/lastmile_qr_scan", "android": "https://dc.lft.to/lastmile_qr_scan"}, "fusion_lon": 0.0, "lat": 39.084477666666665, "is_disabled": 0, "bike_id": "f99fc99848e72410bbdf2d5440c540ce", "fusion_lat": 0.0, "is_reserved": 0, "lon": -76.951853}, {"type": "electric_scooter", "name": "4ca0d285e6975a14156dc08693bda592", "rental_uris": {"ios": "https://dc.lft.to/lastmile_qr_scan", "android": "https://dc.lft.to/lastmile_qr_scan"}, "fusion_lon": 0.0, "lat": 38.926655, "is_disabled": 0, "bike_id": "4ca0d285e6975a14156dc08693bda592", "fusion_lat": 0.0, "is_reserved": 0, "lon": -77.04295783333333}, {"type": "electric_scooter", "name": "db0436745850311ed2f2d4b072a15669", "rental_uris": {"ios": "https://dc.lft.to/lastmile_qr_scan", "android": "https://dc.lft.to/lastmile_qr_scan"}, "fusion_lon": 0.0, "lat": 38.89395016666667, "is_disabled": 0, "bike_id": "db0436745850311ed2f2d4b072a15669", "fusion_lat": 0.0, "is_reserved": 0, "lon": -76.9915835}, {"type": "electric_scooter", "name": "f57be14ed5d772e2ad6bb0a4b9bcfdb5", "rental_uris": {"ios": "https://dc.lft.to/lastmile_qr_scan", "android": "https://dc.lft.to/lastmile_qr_scan"}, "fusion_lon": 0.0, "lat": 38.9148035, "is_disabled": 0, "bike_id": "f57be14ed5d772e2ad6bb0a4b9bcfdb5", "fusion_lat": 0.0, "is_reserved": 0, "lon": -77.00877366666667}, {"type": "electric_scooter", "name": "90e4ed137ca4bf76be6c0c534daf8bd7", "rental_uris": {"ios": "https://dc.lft.to/lastmile_qr_scan", "android": "https://dc.lft.to/lastmile_qr_scan"}, "fusion_lon": 0.0, "lat": 38.90688933333333, "is_disabled": 0, "bike_id": "90e4ed137ca4bf76be6c0c534daf8bd7", "fusion_lat": 0.0, "is_reserved": 0, "lon": -77.05722966666667}, {"type": "electric_scooter", "name": "1f76f0015206b0e61714cf1694ba1f5e", "rental_uris": {"ios": "https://dc.lft.to/lastmile_qr_scan", "android": "https://dc.lft.to/lastmile_qr_scan"}, "fusion_lon": 0.0, "lat": 38.887274166666664, "is_disabled": 0, "bike_id": "1f76f0015206b0e61714cf1694ba1f5e", "fusion_lat": 0.0, "is_reserved": 0, "lon": -76.9948975}, {"type": "electric_scooter", "name": "dc6dd92d3bd2a102ace0cd1246f1513a", "rental_uris": {"ios": "https://dc.lft.to/lastmile_qr_scan", "android": "https://dc.lft.to/lastmile_qr_scan"}, "fusion_lon": 0.0, "lat": 38.930968666666665, "is_disabled": 0, "bike_id": "dc6dd92d3bd2a102ace0cd1246f1513a", "fusion_lat": 0.0, "is_reserved": 0, "lon": -77.02415733333333}, {"type": "electric_scooter", "name": "07b3884f2dd9422a1d8526ac4f3d3bca", "rental_uris": {"ios": "https://dc.lft.to/lastmile_qr_scan", "android": "https://dc.lft.to/lastmile_qr_scan"}, "fusion_lon": 0.0, "lat": 38.8924015, "is_disabled": 0, "bike_id": "07b3884f2dd9422a1d8526ac4f3d3bca", "fusion_lat": 0.0, "is_reserved": 0, "lon": -77.03956633333334}, {"type": "electric_scooter", "name": "2d45fe832b26d489deaef732e4552e80", "rental_uris": {"ios": "https://dc.lft.to/lastmile_qr_scan", "android": "https://dc.lft.to/lastmile_qr_scan"}, "fusion_lon": 0.0, "lat": 38.900053166666666, "is_disabled": 0, "bike_id": "2d45fe832b26d489deaef732e4552e80", "fusion_lat": 0.0, "is_reserved": 0, "lon": -77.07139366666667}, {"type": "electric_scooter", "name": "784eeb8d1b1481e3815db1f09efe8dd9", "rental_uris": {"ios": "https://dc.lft.to/lastmile_qr_scan", "android": "https://dc.lft.to/lastmile_qr_scan"}, "fusion_lon": 0.0, "lat": 38.896314333333336, "is_disabled": 0, "bike_id": "784eeb8d1b1481e3815db1f09efe8dd9", "fusion_lat": 0.0, "is_reserved": 0, "lon": -77.03322483333334}, {"type": "electric_scooter", "name": "1f3b10ffd06641f301b64c67e0121c4b", "rental_uris": {"ios": "https://dc.lft.to/lastmile_qr_scan", "android": "https://dc.lft.to/lastmile_qr_scan"}, "fusion_lon": 0.0, "lat": 38.9108495, "is_disabled": 0, "bike_id": "1f3b10ffd06641f301b64c67e0121c4b", "fusion_lat": 0.0, "is_reserved": 0, "lon": -77.01623416666666}, {"type": "electric_scooter", "name": "5bed9a1a1edff3faeb765c3905d1261d", "rental_uris": {"ios": "https://dc.lft.to/lastmile_qr_scan", "android": "https://dc.lft.to/lastmile_qr_scan"}, "fusion_lon": 0.0, "lat": 38.93870966666667, "is_disabled": 0, "bike_id": "5bed9a1a1edff3faeb765c3905d1261d", "fusion_lat": 0.0, "is_reserved": 0, "lon": -77.03083616666666}, {"type": "electric_scooter", "name": "091738585ceece7daf08f9fcdee54168", "rental_uris": {"ios": "https://dc.lft.to/lastmile_qr_scan", "android": "https://dc.lft.to/lastmile_qr_scan"}, "fusion_lon": 0.0, "lat": 38.926122666666664, "is_disabled": 0, "bike_id": "091738585ceece7daf08f9fcdee54168", "fusion_lat": 0.0, "is_reserved": 0, "lon": -77.02159616666667}, {"type": "electric_scooter", "name": "9eaceecee9317d390b747c06d7d62b2c", "rental_uris": {"ios": "https://dc.lft.to/lastmile_qr_scan", "android": "https://dc.lft.to/lastmile_qr_scan"}, "fusion_lon": 0.0, "lat": 38.93058083333333, "is_disabled": 0, "bike_id": "9eaceecee9317d390b747c06d7d62b2c", "fusion_lat": 0.0, "is_reserved": 0, "lon": -77.03206683333333}, {"type": "electric_scooter", "name": "31335d6f13cac1e440f84c98129cac2d", "rental_uris": {"ios": "https://dc.lft.to/lastmile_qr_scan", "android": "https://dc.lft.to/lastmile_qr_scan"}, "fusion_lon": 0.0, "lat": 38.922654666666666, "is_disabled": 0, "bike_id": "31335d6f13cac1e440f84c98129cac2d", "fusion_lat": 0.0, "is_reserved": 0, "lon": -77.03390616666667}, {"type": "electric_scooter", "name": "92be18e235970ebefbddb0c42b02deef", "rental_uris": {"ios": "https://dc.lft.to/lastmile_qr_scan", "android": "https://dc.lft.to/lastmile_qr_scan"}, "fusion_lon": 0.0, "lat": 38.943313833333335, "is_disabled": 0, "bike_id": "92be18e235970ebefbddb0c42b02deef", "fusion_lat": 0.0, "is_reserved": 0, "lon": -77.02686616666666}, {"type": "electric_scooter", "name": "86b537b0daf1f5303005d0b1e2062d47", "rental_uris": {"ios": "https://dc.lft.to/lastmile_qr_scan", "android": "https://dc.lft.to/lastmile_qr_scan"}, "fusion_lon": 0.0, "lat": 38.92284933333333, "is_disabled": 0, "bike_id": "86b537b0daf1f5303005d0b1e2062d47", "fusion_lat": 0.0, "is_reserved": 0, "lon": -77.02965166666667}, {"type": "electric_scooter", "name": "6ec96dfcb90b783de6108e9a2f575547", "rental_uris": {"ios": "https://dc.lft.to/lastmile_qr_scan", "android": "https://dc.lft.to/lastmile_qr_scan"}, "fusion_lon": 0.0, "lat": 38.902149333333334, "is_disabled": 0, "bike_id": "6ec96dfcb90b783de6108e9a2f575547", "fusion_lat": 0.0, "is_reserved": 0, "lon": -77.04016583333333}, {"type": "electric_scooter", "name": "bd28fe3168a873a0c8fb42824b8fd23e", "rental_uris": {"ios": "https://dc.lft.to/lastmile_qr_scan", "android": "https://dc.lft.to/lastmile_qr_scan"}, "fusion_lon": 0.0, "lat": 38.923958999999996, "is_disabled": 0, "bike_id": "bd28fe3168a873a0c8fb42824b8fd23e", "fusion_lat": 0.0, "is_reserved": 0, "lon": -77.02433983333333}, {"type": "electric_scooter", "name": "5de4ecacdb8ec8cc322ac3af81e94148", "rental_uris": {"ios": "https://dc.lft.to/lastmile_qr_scan", "android": "https://dc.lft.to/lastmile_qr_scan"}, "fusion_lon": 0.0, "lat": 38.9140365, "is_disabled": 0, "bike_id": "5de4ecacdb8ec8cc322ac3af81e94148", "fusion_lat": 0.0, "is_reserved": 0, "lon": -77.02452483333333}, {"type": "electric_scooter", "name": "8d42faf3de67059f1f3a847a1f82bb66", "rental_uris": {"ios": "https://dc.lft.to/lastmile_qr_scan", "android": "https://dc.lft.to/lastmile_qr_scan"}, "fusion_lon": 0.0, "lat": 38.879979666666664, "is_disabled": 0, "bike_id": "8d42faf3de67059f1f3a847a1f82bb66", "fusion_lat": 0.0, "is_reserved": 0, "lon": -76.9950565}, {"type": "electric_bike", "name": "9de5de3620a5dc0f67c6f970798592af", "rental_uris": {"ios": "https://dc.lft.to/lastmile_qr_scan", "android": "https://dc.lft.to/lastmile_qr_scan"}, "fusion_lon": 0.0, "lat": 38.972284333333334, "is_disabled": 0, "bike_id": "9de5de3620a5dc0f67c6f970798592af", "fusion_lat": 0.0, "is_reserved": 0, "lon": -77.02712616666666}, {"type": "electric_scooter", "name": "931259e3eff62aef2af7553da3b9c13c", "rental_uris": {"ios": "https://dc.lft.to/lastmile_qr_scan", "android": "https://dc.lft.to/lastmile_qr_scan"}, "fusion_lon": 0.0, "lat": 38.917100166666664, "is_disabled": 0, "bike_id": "931259e3eff62aef2af7553da3b9c13c", "fusion_lat": 0.0, "is_reserved": 0, "lon": -77.03864883333334}, {"type": "electric_bike", "name": "661fa13d2ce7fb76d22b3a18dcf5f6b2", "rental_uris": {"ios": "https://dc.lft.to/lastmile_qr_scan", "android": "https://dc.lft.to/lastmile_qr_scan"}, "fusion_lon": 0.0, "lat": 38.940489666666664, "is_disabled": 0, "bike_id": "661fa13d2ce7fb76d22b3a18dcf5f6b2", "fusion_lat": 0.0, "is_reserved": 0, "lon": -76.90417533333333}, {"type": "electric_scooter", "name": "d681d320eec4aa405c3561f20c1d5d75", "rental_uris": {"ios": "https://dc.lft.to/lastmile_qr_scan", "android": "https://dc.lft.to/lastmile_qr_scan"}, "fusion_lon": 0.0, "lat": 38.90977516666667, "is_disabled": 0, "bike_id": "d681d320eec4aa405c3561f20c1d5d75", "fusion_lat": 0.0, "is_reserved": 0, "lon": -77.03443083333333}, {"type": "electric_scooter", "name": "fb96f910be333968777e5cbc4449e3b9", "rental_uris": {"ios": "https://dc.lft.to/lastmile_qr_scan", "android": "https://dc.lft.to/lastmile_qr_scan"}, "fusion_lon": 0.0, "lat": 38.918298666666665, "is_disabled": 0, "bike_id": "fb96f910be333968777e5cbc4449e3b9", "fusion_lat": 0.0, "is_reserved": 0, "lon": -77.040246}, {"type": "electric_scooter", "name": "079a2431f4eb32dafaf76ca60c246956", "rental_uris": {"ios": "https://dc.lft.to/lastmile_qr_scan", "android": "https://dc.lft.to/lastmile_qr_scan"}, "fusion_lon": 0.0, "lat": 38.892488666666665, "is_disabled": 0, "bike_id": "079a2431f4eb32dafaf76ca60c246956", "fusion_lat": 0.0, "is_reserved": 0, "lon": -77.03957316666667}, {"type": "electric_scooter", "name": "56f864f43ab1f391cb05208c2f4a777f", "rental_uris": {"ios": "https://dc.lft.to/lastmile_qr_scan", "android": "https://dc.lft.to/lastmile_qr_scan"}, "fusion_lon": 0.0, "lat": 38.920516666666664, "is_disabled": 0, "bike_id": "56f864f43ab1f391cb05208c2f4a777f", "fusion_lat": 0.0, "is_reserved": 0, "lon": -77.04189133333334}, {"type": "electric_scooter", "name": "225f43d038344d98e6acc1779b3e38c8", "rental_uris": {"ios": "https://dc.lft.to/lastmile_qr_scan", "android": "https://dc.lft.to/lastmile_qr_scan"}, "fusion_lon": 0.0, "lat": 38.90157883333333, "is_disabled": 0, "bike_id": "225f43d038344d98e6acc1779b3e38c8", "fusion_lat": 0.0, "is_reserved": 0, "lon": -77.022808}, {"type": "electric_scooter", "name": "ae67920bceda133f94badeb1ff001a8f", "rental_uris": {"ios": "https://dc.lft.to/lastmile_qr_scan", "android": "https://dc.lft.to/lastmile_qr_scan"}, "fusion_lon": 0.0, "lat": 38.89741, "is_disabled": 0, "bike_id": "ae67920bceda133f94badeb1ff001a8f", "fusion_lat": 0.0, "is_reserved": 0, "lon": -77.00782833333334}, {"type": "electric_bike", "name": "02154f9020a162440d3074f70a3e64f5", "rental_uris": {"ios": "https://dc.lft.to/lastmile_qr_scan", "android": "https://dc.lft.to/lastmile_qr_scan"}, "fusion_lon": 0.0, "lat": 38.994422666666665, "is_disabled": 0, "bike_id": "02154f9020a162440d3074f70a3e64f5", "fusion_lat": 0.0, "is_reserved": 0, "lon": -76.99588033333333}, {"type": "electric_bike", "name": "2339641c9fbeef504b8f8903dcb44169", "rental_uris": {"ios": "https://dc.lft.to/lastmile_qr_scan", "android": "https://dc.lft.to/lastmile_qr_scan"}, "fusion_lon": 0.0, "lat": 38.987698, "is_disabled": 0, "bike_id": "2339641c9fbeef504b8f8903dcb44169", "fusion_lat": 0.0, "is_reserved": 0, "lon": -77.14057183333334}, {"type": "electric_scooter", "name": "6701713b5ee41050cd3ca007576e0926", "rental_uris": {"ios": "https://dc.lft.to/lastmile_qr_scan", "android": "https://dc.lft.to/lastmile_qr_scan"}, "fusion_lon": 0.0, "lat": 38.902489, "is_disabled": 0, "bike_id": "6701713b5ee41050cd3ca007576e0926", "fusion_lat": 0.0, "is_reserved": 0, "lon": -77.03522183333334}, {"type": "electric_scooter", "name": "c4a8d0cce82a69c0f0d5ca3f5ecaccd1", "rental_uris": {"ios": "https://dc.lft.to/lastmile_qr_scan", "android": "https://dc.lft.to/lastmile_qr_scan"}, "fusion_lon": 0.0, "lat": 38.89730633333333, "is_disabled": 0, "bike_id": "c4a8d0cce82a69c0f0d5ca3f5ecaccd1", "fusion_lat": 0.0, "is_reserved": 0, "lon": -77.0485375}, {"type": "electric_scooter", "name": "c9689d40ea992d7c3b43baf74e68682f", "rental_uris": {"ios": "https://dc.lft.to/lastmile_qr_scan", "android": "https://dc.lft.to/lastmile_qr_scan"}, "fusion_lon": 0.0, "lat": 38.9156545, "is_disabled": 0, "bike_id": "c9689d40ea992d7c3b43baf74e68682f", "fusion_lat": 0.0, "is_reserved": 0, "lon": -77.03855666666666}, {"type": "electric_scooter", "name": "dbe64ff734b0566b86efe3f325f47cff", "rental_uris": {"ios": "https://dc.lft.to/lastmile_qr_scan", "android": "https://dc.lft.to/lastmile_qr_scan"}, "fusion_lon": 0.0, "lat": 38.905696666666664, "is_disabled": 0, "bike_id": "dbe64ff734b0566b86efe3f325f47cff", "fusion_lat": 0.0, "is_reserved": 0, "lon": -77.022091}, {"type": "electric_scooter", "name": "c9d682db1a3550f19d471e587681561b", "rental_uris": {"ios": "https://dc.lft.to/lastmile_qr_scan", "android": "https://dc.lft.to/lastmile_qr_scan"}, "fusion_lon": 0.0, "lat": 38.92073333333333, "is_disabled": 0, "bike_id": "c9d682db1a3550f19d471e587681561b", "fusion_lat": 0.0, "is_reserved": 0, "lon": -77.03793983333334}, {"type": "electric_scooter", "name": "9141297aaa4e6007f6bbd38c2accd273", "rental_uris": {"ios": "https://dc.lft.to/lastmile_qr_scan", "android": "https://dc.lft.to/lastmile_qr_scan"}, "fusion_lon": 0.0, "lat": 38.9427045, "is_disabled": 0, "bike_id": "9141297aaa4e6007f6bbd38c2accd273", "fusion_lat": 0.0, "is_reserved": 0, "lon": -77.0325995}, {"type": "electric_scooter", "name": "66df9078571a987772a1b6efa62d45bc", "rental_uris": {"ios": "https://dc.lft.to/lastmile_qr_scan", "android": "https://dc.lft.to/lastmile_qr_scan"}, "fusion_lon": 0.0, "lat": 38.90408033333333, "is_disabled": 0, "bike_id": "66df9078571a987772a1b6efa62d45bc", "fusion_lat": 0.0, "is_reserved": 0, "lon": -76.973298}, {"type": "electric_scooter", "name": "22025a57e039de469e154bac82541623", "rental_uris": {"ios": "https://dc.lft.to/lastmile_qr_scan", "android": "https://dc.lft.to/lastmile_qr_scan"}, "fusion_lon": 0.0, "lat": 38.872391666666665, "is_disabled": 0, "bike_id": "22025a57e039de469e154bac82541623", "fusion_lat": 0.0, "is_reserved": 0, "lon": -76.97724933333333}, {"type": "electric_scooter", "name": "e4580bbe766fea08cba75100e8f5801e", "rental_uris": {"ios": "https://dc.lft.to/lastmile_qr_scan", "android": "https://dc.lft.to/lastmile_qr_scan"}, "fusion_lon": 0.0, "lat": 38.9050885, "is_disabled": 0, "bike_id": "e4580bbe766fea08cba75100e8f5801e", "fusion_lat": 0.0, "is_reserved": 0, "lon": -77.06304333333334}, {"type": "electric_scooter", "name": "5ffe4b1098d7313f77c5a9f213821e7f", "rental_uris": {"ios": "https://dc.lft.to/lastmile_qr_scan", "android": "https://dc.lft.to/lastmile_qr_scan"}, "fusion_lon": 0.0, "lat": 38.884889, "is_disabled": 0, "bike_id": "5ffe4b1098d7313f77c5a9f213821e7f", "fusion_lat": 0.0, "is_reserved": 0, "lon": -77.00710183333334}, {"type": "electric_scooter", "name": "e4e0d2c5d7e02d8bc43de62dc5063b9e", "rental_uris": {"ios": "https://dc.lft.to/lastmile_qr_scan", "android": "https://dc.lft.to/lastmile_qr_scan"}, "fusion_lon": 0.0, "lat": 38.88947066666667, "is_disabled": 0, "bike_id": "e4e0d2c5d7e02d8bc43de62dc5063b9e", "fusion_lat": 0.0, "is_reserved": 0, "lon": -76.99162883333334}, {"type": "electric_scooter", "name": "6b0a93376be58e589721b0f2e9589b8f", "rental_uris": {"ios": "https://dc.lft.to/lastmile_qr_scan", "android": "https://dc.lft.to/lastmile_qr_scan"}, "fusion_lon": 0.0, "lat": 38.9017365, "is_disabled": 0, "bike_id": "6b0a93376be58e589721b0f2e9589b8f", "fusion_lat": 0.0, "is_reserved": 0, "lon": -76.98070183333333}, {"type": "electric_scooter", "name": "f25f88559abb23269b5d469b4d99920f", "rental_uris": {"ios": "https://dc.lft.to/lastmile_qr_scan", "android": "https://dc.lft.to/lastmile_qr_scan"}, "fusion_lon": 0.0, "lat": 38.91933933333333, "is_disabled": 0, "bike_id": "f25f88559abb23269b5d469b4d99920f", "fusion_lat": 0.0, "is_reserved": 0, "lon": -77.044963}, {"type": "electric_scooter", "name": "f732cd2383f16039e696e1d06acaa0b5", "rental_uris": {"ios": "https://dc.lft.to/lastmile_qr_scan", "android": "https://dc.lft.to/lastmile_qr_scan"}, "fusion_lon": 0.0, "lat": 38.9266815, "is_disabled": 0, "bike_id": "f732cd2383f16039e696e1d06acaa0b5", "fusion_lat": 0.0, "is_reserved": 0, "lon": -77.0292395}, {"type": "electric_scooter", "name": "a62bb1411e43cfa96185e591f88eeb67", "rental_uris": {"ios": "https://dc.lft.to/lastmile_qr_scan", "android": "https://dc.lft.to/lastmile_qr_scan"}, "fusion_lon": 0.0, "lat": 38.9087935, "is_disabled": 0, "bike_id": "a62bb1411e43cfa96185e591f88eeb67", "fusion_lat": 0.0, "is_reserved": 0, "lon": -77.07527483333334}, {"type": "electric_scooter", "name": "4d6b701e78c1d8bd356b3857643e5069", "rental_uris": {"ios": "https://dc.lft.to/lastmile_qr_scan", "android": "https://dc.lft.to/lastmile_qr_scan"}, "fusion_lon": 0.0, "lat": 38.92216883333333, "is_disabled": 0, "bike_id": "4d6b701e78c1d8bd356b3857643e5069", "fusion_lat": 0.0, "is_reserved": 0, "lon": -77.02415683333334}, {"type": "electric_scooter", "name": "f7df22a1b1a677982a58b08d5d3d9f80", "rental_uris": {"ios": "https://dc.lft.to/lastmile_qr_scan", "android": "https://dc.lft.to/lastmile_qr_scan"}, "fusion_lon": 0.0, "lat": 38.92860266666667, "is_disabled": 0, "bike_id": "f7df22a1b1a677982a58b08d5d3d9f80", "fusion_lat": 0.0, "is_reserved": 0, "lon": -77.05433933333333}, {"type": "electric_scooter", "name": "b7f3e801b96446a8510074149c7cc491", "rental_uris": {"ios": "https://dc.lft.to/lastmile_qr_scan", "android": "https://dc.lft.to/lastmile_qr_scan"}, "fusion_lon": 0.0, "lat": 38.919553, "is_disabled": 0, "bike_id": "b7f3e801b96446a8510074149c7cc491", "fusion_lat": 0.0, "is_reserved": 0, "lon": -77.02393616666667}, {"type": "electric_scooter", "name": "e3873c2f3276ed1833ffbdcaeb25954c", "rental_uris": {"ios": "https://dc.lft.to/lastmile_qr_scan", "android": "https://dc.lft.to/lastmile_qr_scan"}, "fusion_lon": 0.0, "lat": 38.89694733333333, "is_disabled": 0, "bike_id": "e3873c2f3276ed1833ffbdcaeb25954c", "fusion_lat": 0.0, "is_reserved": 0, "lon": -77.0075995}, {"type": "electric_scooter", "name": "e5ed11a5a954f14477697a06d3beddfe", "rental_uris": {"ios": "https://dc.lft.to/lastmile_qr_scan", "android": "https://dc.lft.to/lastmile_qr_scan"}, "fusion_lon": 0.0, "lat": 38.9210145, "is_disabled": 0, "bike_id": "e5ed11a5a954f14477697a06d3beddfe", "fusion_lat": 0.0, "is_reserved": 0, "lon": -77.04185616666666}, {"type": "electric_scooter", "name": "ef98fc40e962ed1c1d26de5f5f32cab9", "rental_uris": {"ios": "https://dc.lft.to/lastmile_qr_scan", "android": "https://dc.lft.to/lastmile_qr_scan"}, "fusion_lon": 0.0, "lat": 38.944188, "is_disabled": 0, "bike_id": "ef98fc40e962ed1c1d26de5f5f32cab9", "fusion_lat": 0.0, "is_reserved": 0, "lon": -77.01780333333333}, {"type": "electric_scooter", "name": "109b6baeef13ee692c166f884d0d4f61", "rental_uris": {"ios": "https://dc.lft.to/lastmile_qr_scan", "android": "https://dc.lft.to/lastmile_qr_scan"}, "fusion_lon": 0.0, "lat": 38.92725033333333, "is_disabled": 0, "bike_id": "109b6baeef13ee692c166f884d0d4f61", "fusion_lat": 0.0, "is_reserved": 0, "lon": -77.0230545}, {"type": "electric_scooter", "name": "4444301acca658e042432d1d8ac32944", "rental_uris": {"ios": "https://dc.lft.to/lastmile_qr_scan", "android": "https://dc.lft.to/lastmile_qr_scan"}, "fusion_lon": 0.0, "lat": 38.91836133333334, "is_disabled": 0, "bike_id": "4444301acca658e042432d1d8ac32944", "fusion_lat": 0.0, "is_reserved": 0, "lon": -77.04025783333333}, {"type": "electric_bike", "name": "39c5a45172556ee055f507a5646c5575", "rental_uris": {"ios": "https://dc.lft.to/lastmile_qr_scan", "android": "https://dc.lft.to/lastmile_qr_scan"}, "fusion_lon": 0.0, "lat": 38.85518116666667, "is_disabled": 0, "bike_id": "39c5a45172556ee055f507a5646c5575", "fusion_lat": 0.0, "is_reserved": 0, "lon": -77.120286}, {"type": "electric_bike", "name": "11aada48bc0ed7a8b33842e7e555bde5", "rental_uris": {"ios": "https://dc.lft.to/lastmile_qr_scan", "android": "https://dc.lft.to/lastmile_qr_scan"}, "fusion_lon": 0.0, "lat": 38.85784, "is_disabled": 0, "bike_id": "11aada48bc0ed7a8b33842e7e555bde5", "fusion_lat": 0.0, "is_reserved": 0, "lon": -77.12019783333334}, {"type": "electric_scooter", "name": "38c37db2ec44e4c4df35b2e54c8afe1c", "rental_uris": {"ios": "https://dc.lft.to/lastmile_qr_scan", "android": "https://dc.lft.to/lastmile_qr_scan"}, "fusion_lon": 0.0, "lat": 38.92043066666667, "is_disabled": 0, "bike_id": "38c37db2ec44e4c4df35b2e54c8afe1c", "fusion_lat": 0.0, "is_reserved": 0, "lon": -77.025773}, {"type": "electric_scooter", "name": "bd1734ac327bd4ad6db5e922e2c05fca", "rental_uris": {"ios": "https://dc.lft.to/lastmile_qr_scan", "android": "https://dc.lft.to/lastmile_qr_scan"}, "fusion_lon": 0.0, "lat": 38.89510116666666, "is_disabled": 0, "bike_id": "bd1734ac327bd4ad6db5e922e2c05fca", "fusion_lat": 0.0, "is_reserved": 0, "lon": -77.02558983333333}, {"type": "electric_scooter", "name": "92288b0b64faaf66d2c9ea533e2980dd", "rental_uris": {"ios": "https://dc.lft.to/lastmile_qr_scan", "android": "https://dc.lft.to/lastmile_qr_scan"}, "fusion_lon": 0.0, "lat": 38.910329, "is_disabled": 0, "bike_id": "92288b0b64faaf66d2c9ea533e2980dd", "fusion_lat": 0.0, "is_reserved": 0, "lon": -77.03373033333334}, {"type": "electric_scooter", "name": "478ad207e3caa423962c3924cd2bd1d6", "rental_uris": {"ios": "https://dc.lft.to/lastmile_qr_scan", "android": "https://dc.lft.to/lastmile_qr_scan"}, "fusion_lon": 0.0, "lat": 38.898029, "is_disabled": 0, "bike_id": "478ad207e3caa423962c3924cd2bd1d6", "fusion_lat": 0.0, "is_reserved": 0, "lon": -77.03318616666667}, {"type": "electric_scooter", "name": "b0823e9e584b05d95ab641d168e2ac8e", "rental_uris": {"ios": "https://dc.lft.to/lastmile_qr_scan", "android": "https://dc.lft.to/lastmile_qr_scan"}, "fusion_lon": 0.0, "lat": 38.8761285, "is_disabled": 0, "bike_id": "b0823e9e584b05d95ab641d168e2ac8e", "fusion_lat": 0.0, "is_reserved": 0, "lon": -77.00604716666666}, {"type": "electric_scooter", "name": "f1dfd23ecc06b032a38dd847a4c7f63c", "rental_uris": {"ios": "https://dc.lft.to/lastmile_qr_scan", "android": "https://dc.lft.to/lastmile_qr_scan"}, "fusion_lon": 0.0, "lat": 38.9166855, "is_disabled": 0, "bike_id": "f1dfd23ecc06b032a38dd847a4c7f63c", "fusion_lat": 0.0, "is_reserved": 0, "lon": -77.02713866666667}, {"type": "electric_bike", "name": "61797c1fa2690c01c0792e7d07aeb28d", "rental_uris": {"ios": "https://dc.lft.to/lastmile_qr_scan", "android": "https://dc.lft.to/lastmile_qr_scan"}, "fusion_lon": 0.0, "lat": 38.992236, "is_disabled": 0, "bike_id": "61797c1fa2690c01c0792e7d07aeb28d", "fusion_lat": 0.0, "is_reserved": 0, "lon": -76.94403833333334}, {"type": "electric_scooter", "name": "b6fd4f0dec518bad8d42cb2232207de4", "rental_uris": {"ios": "https://dc.lft.to/lastmile_qr_scan", "android": "https://dc.lft.to/lastmile_qr_scan"}, "fusion_lon": 0.0, "lat": 38.96477016666667, "is_disabled": 0, "bike_id": "b6fd4f0dec518bad8d42cb2232207de4", "fusion_lat": 0.0, "is_reserved": 0, "lon": -77.01192333333333}, {"type": "electric_scooter", "name": "410cc142c9a3863e8856c0d7c4c6ac7e", "rental_uris": {"ios": "https://dc.lft.to/lastmile_qr_scan", "android": "https://dc.lft.to/lastmile_qr_scan"}, "fusion_lon": 0.0, "lat": 38.892117166666665, "is_disabled": 0, "bike_id": "410cc142c9a3863e8856c0d7c4c6ac7e", "fusion_lat": 0.0, "is_reserved": 0, "lon": -76.95696}, {"type": "electric_bike", "name": "699b99c01b91a77995a0b3168c912f02", "rental_uris": {"ios": "https://dc.lft.to/lastmile_qr_scan", "android": "https://dc.lft.to/lastmile_qr_scan"}, "fusion_lon": 0.0, "lat": 38.92525466666667, "is_disabled": 0, "bike_id": "699b99c01b91a77995a0b3168c912f02", "fusion_lat": 0.0, "is_reserved": 0, "lon": -77.07896366666667}, {"type": "electric_bike", "name": "502e355bc990a13acbc4df60d9ec3be0", "rental_uris": {"ios": "https://dc.lft.to/lastmile_qr_scan", "android": "https://dc.lft.to/lastmile_qr_scan"}, "fusion_lon": 0.0, "lat": 38.813288, "is_disabled": 0, "bike_id": "502e355bc990a13acbc4df60d9ec3be0", "fusion_lat": 0.0, "is_reserved": 0, "lon": -77.05084516666666}, {"type": "electric_bike", "name": "53096dbb2f4080917e327db16c9975fa", "rental_uris": {"ios": "https://dc.lft.to/lastmile_qr_scan", "android": "https://dc.lft.to/lastmile_qr_scan"}, "fusion_lon": 0.0, "lat": 38.93192783333333, "is_disabled": 0, "bike_id": "53096dbb2f4080917e327db16c9975fa", "fusion_lat": 0.0, "is_reserved": 0, "lon": -77.2292595}, {"type": "electric_scooter", "name": "ca116951c3fe69a2e06e6ad1d23636af", "rental_uris": {"ios": "https://dc.lft.to/lastmile_qr_scan", "android": "https://dc.lft.to/lastmile_qr_scan"}, "fusion_lon": 0.0, "lat": 38.920729333333334, "is_disabled": 0, "bike_id": "ca116951c3fe69a2e06e6ad1d23636af", "fusion_lat": 0.0, "is_reserved": 0, "lon": -76.99729633333334}, {"type": "electric_scooter", "name": "8102d951bfd5657bf73ca1e3547d6450", "rental_uris": {"ios": "https://dc.lft.to/lastmile_qr_scan", "android": "https://dc.lft.to/lastmile_qr_scan"}, "fusion_lon": 0.0, "lat": 38.88370966666667, "is_disabled": 0, "bike_id": "8102d951bfd5657bf73ca1e3547d6450", "fusion_lat": 0.0, "is_reserved": 0, "lon": -77.0199225}, {"type": "electric_scooter", "name": "e292ee36ba7056536384751546a9f1ac", "rental_uris": {"ios": "https://dc.lft.to/lastmile_qr_scan", "android": "https://dc.lft.to/lastmile_qr_scan"}, "fusion_lon": 0.0, "lat": 38.927083, "is_disabled": 0, "bike_id": "e292ee36ba7056536384751546a9f1ac", "fusion_lat": 0.0, "is_reserved": 0, "lon": -77.015927}, {"type": "electric_scooter", "name": "3479bbaae9a9ad54d512efcd99a624d7", "rental_uris": {"ios": "https://dc.lft.to/lastmile_qr_scan", "android": "https://dc.lft.to/lastmile_qr_scan"}, "fusion_lon": 0.0, "lat": 38.90559733333333, "is_disabled": 0, "bike_id": "3479bbaae9a9ad54d512efcd99a624d7", "fusion_lat": 0.0, "is_reserved": 0, "lon": -77.0241075}, {"type": "electric_bike", "name": "abd6244cd549eb54e298cc462388c73a", "rental_uris": {"ios": "https://dc.lft.to/lastmile_qr_scan", "android": "https://dc.lft.to/lastmile_qr_scan"}, "fusion_lon": 0.0, "lat": 38.84983783333333, "is_disabled": 0, "bike_id": "abd6244cd549eb54e298cc462388c73a", "fusion_lat": 0.0, "is_reserved": 0, "lon": -77.0976265}, {"type": "electric_scooter", "name": "d4e782848e442394d3b0608ed117185b", "rental_uris": {"ios": "https://dc.lft.to/lastmile_qr_scan", "android": "https://dc.lft.to/lastmile_qr_scan"}, "fusion_lon": 0.0, "lat": 38.883019, "is_disabled": 0, "bike_id": "d4e782848e442394d3b0608ed117185b", "fusion_lat": 0.0, "is_reserved": 0, "lon": -77.024788}, {"type": "electric_scooter", "name": "889f710f28b479a148e7f8e9bf2be3c7", "rental_uris": {"ios": "https://dc.lft.to/lastmile_qr_scan", "android": "https://dc.lft.to/lastmile_qr_scan"}, "fusion_lon": 0.0, "lat": 38.917057666666665, "is_disabled": 0, "bike_id": "889f710f28b479a148e7f8e9bf2be3c7", "fusion_lat": 0.0, "is_reserved": 0, "lon": -77.04151016666667}, {"type": "electric_scooter", "name": "b2741bead00621bbd14e3e73bc5dbcbc", "rental_uris": {"ios": "https://dc.lft.to/lastmile_qr_scan", "android": "https://dc.lft.to/lastmile_qr_scan"}, "fusion_lon": 0.0, "lat": 38.9039325, "is_disabled": 0, "bike_id": "b2741bead00621bbd14e3e73bc5dbcbc", "fusion_lat": 0.0, "is_reserved": 0, "lon": -77.0629835}, {"type": "electric_scooter", "name": "5255b2a754a9ca74fa35ba93576c865f", "rental_uris": {"ios": "https://dc.lft.to/lastmile_qr_scan", "android": "https://dc.lft.to/lastmile_qr_scan"}, "fusion_lon": 0.0, "lat": 38.91357816666667, "is_disabled": 0, "bike_id": "5255b2a754a9ca74fa35ba93576c865f", "fusion_lat": 0.0, "is_reserved": 0, "lon": -77.03435816666666}, {"type": "electric_scooter", "name": "d2e623e82167434d76c15a69ff198c49", "rental_uris": {"ios": "https://dc.lft.to/lastmile_qr_scan", "android": "https://dc.lft.to/lastmile_qr_scan"}, "fusion_lon": 0.0, "lat": 38.926015, "is_disabled": 0, "bike_id": "d2e623e82167434d76c15a69ff198c49", "fusion_lat": 0.0, "is_reserved": 0, "lon": -77.02156316666667}, {"type": "electric_bike", "name": "5c6c047c2fc52e100104587af1fd3462", "rental_uris": {"ios": "https://dc.lft.to/lastmile_qr_scan", "android": "https://dc.lft.to/lastmile_qr_scan"}, "fusion_lon": 0.0, "lat": 38.84609833333333, "is_disabled": 0, "bike_id": "5c6c047c2fc52e100104587af1fd3462", "fusion_lat": 0.0, "is_reserved": 0, "lon": -76.96910383333334}, {"type": "electric_scooter", "name": "392f6e3a22ca90a8bb41682b33e371a9", "rental_uris": {"ios": "https://dc.lft.to/lastmile_qr_scan", "android": "https://dc.lft.to/lastmile_qr_scan"}, "fusion_lon": 0.0, "lat": 38.9330275, "is_disabled": 0, "bike_id": "392f6e3a22ca90a8bb41682b33e371a9", "fusion_lat": 0.0, "is_reserved": 0, "lon": -77.02137516666667}, {"type": "electric_scooter", "name": "efe016657089d4a7a8163e10280a46d6", "rental_uris": {"ios": "https://dc.lft.to/lastmile_qr_scan", "android": "https://dc.lft.to/lastmile_qr_scan"}, "fusion_lon": 0.0, "lat": 38.91422683333333, "is_disabled": 0, "bike_id": "efe016657089d4a7a8163e10280a46d6", "fusion_lat": 0.0, "is_reserved": 0, "lon": -77.039234}, {"type": "electric_bike", "name": "484e657e4529b6f3c0a92588f8883fd7", "rental_uris": {"ios": "https://dc.lft.to/lastmile_qr_scan", "android": "https://dc.lft.to/lastmile_qr_scan"}, "fusion_lon": 0.0, "lat": 38.863986, "is_disabled": 0, "bike_id": "484e657e4529b6f3c0a92588f8883fd7", "fusion_lat": 0.0, "is_reserved": 0, "lon": -77.06339233333334}, {"type": "electric_scooter", "name": "f3dfeb4241af1afe8508db4f99242582", "rental_uris": {"ios": "https://dc.lft.to/lastmile_qr_scan", "android": "https://dc.lft.to/lastmile_qr_scan"}, "fusion_lon": 0.0, "lat": 38.90567516666667, "is_disabled": 0, "bike_id": "f3dfeb4241af1afe8508db4f99242582", "fusion_lat": 0.0, "is_reserved": 0, "lon": -77.00585133333334}, {"type": "electric_scooter", "name": "f4a031062d445899460c355ae4a66c27", "rental_uris": {"ios": "https://dc.lft.to/lastmile_qr_scan", "android": "https://dc.lft.to/lastmile_qr_scan"}, "fusion_lon": 0.0, "lat": 38.897297, "is_disabled": 0, "bike_id": "f4a031062d445899460c355ae4a66c27", "fusion_lat": 0.0, "is_reserved": 0, "lon": -77.045424}, {"type": "electric_scooter", "name": "67d2cc2981ba67493c0a2b6c0ff28115", "rental_uris": {"ios": "https://dc.lft.to/lastmile_qr_scan", "android": "https://dc.lft.to/lastmile_qr_scan"}, "fusion_lon": 0.0, "lat": 38.932630333333336, "is_disabled": 0, "bike_id": "67d2cc2981ba67493c0a2b6c0ff28115", "fusion_lat": 0.0, "is_reserved": 0, "lon": -77.02095083333333}, {"type": "electric_scooter", "name": "c537c0e543d6fcaa86867e544ff22c7c", "rental_uris": {"ios": "https://dc.lft.to/lastmile_qr_scan", "android": "https://dc.lft.to/lastmile_qr_scan"}, "fusion_lon": 0.0, "lat": 38.9188265, "is_disabled": 0, "bike_id": "c537c0e543d6fcaa86867e544ff22c7c", "fusion_lat": 0.0, "is_reserved": 0, "lon": -77.03502766666666}, {"type": "electric_bike", "name": "4c5e54210d445f96cc6751b5df1c6019", "rental_uris": {"ios": "https://dc.lft.to/lastmile_qr_scan", "android": "https://dc.lft.to/lastmile_qr_scan"}, "fusion_lon": 0.0, "lat": 38.874904666666666, "is_disabled": 0, "bike_id": "4c5e54210d445f96cc6751b5df1c6019", "fusion_lat": 0.0, "is_reserved": 0, "lon": -77.2112615}, {"type": "electric_scooter", "name": "004b69ea275a9e63aa1dd398ffb9997f", "rental_uris": {"ios": "https://dc.lft.to/lastmile_qr_scan", "android": "https://dc.lft.to/lastmile_qr_scan"}, "fusion_lon": 0.0, "lat": 38.91718916666667, "is_disabled": 0, "bike_id": "004b69ea275a9e63aa1dd398ffb9997f", "fusion_lat": 0.0, "is_reserved": 0, "lon": -77.0230055}, {"type": "electric_bike", "name": "3191d68dbd6bf7116405d346214f8962", "rental_uris": {"ios": "https://dc.lft.to/lastmile_qr_scan", "android": "https://dc.lft.to/lastmile_qr_scan"}, "fusion_lon": 0.0, "lat": 38.87975816666667, "is_disabled": 0, "bike_id": "3191d68dbd6bf7116405d346214f8962", "fusion_lat": 0.0, "is_reserved": 0, "lon": -76.91601633333333}, {"type": "electric_scooter", "name": "d66327dab9f8b84a7469b8864f089178", "rental_uris": {"ios": "https://dc.lft.to/lastmile_qr_scan", "android": "https://dc.lft.to/lastmile_qr_scan"}, "fusion_lon": 0.0, "lat": 38.9170715, "is_disabled": 0, "bike_id": "d66327dab9f8b84a7469b8864f089178", "fusion_lat": 0.0, "is_reserved": 0, "lon": -77.02285016666667}, {"type": "electric_scooter", "name": "3773c6444483531a7408e48d9a4df090", "rental_uris": {"ios": "https://dc.lft.to/lastmile_qr_scan", "android": "https://dc.lft.to/lastmile_qr_scan"},