{"data": {"bikes": [{"lon": -77.04450616666666, "bike_id": "d47cdd2d9d598d56616b4f41dcd29ff8", "lat": 38.91939683333333, "fusion_lon": 0.0, "fusion_lat": 0.0, "type": "electric_scooter", "name": "d47cdd2d9d598d56616b4f41dcd29ff8", "is_disabled": 0, "rental_uris": {"ios": "https://dc.lft.to/lastmile_qr_scan", "android": "https://dc.lft.to/lastmile_qr_scan"}, "is_reserved": 0}, {"lon": -77.03477433333333, "bike_id": "59de7addae89220668292bfcff8eff03", "lat": 38.928694666666665, "fusion_lon": 0.0, "fusion_lat": 0.0, "type": "electric_scooter", "name": "59de7addae89220668292bfcff8eff03", "is_disabled": 0, "rental_uris": {"ios": "https://dc.lft.to/lastmile_qr_scan", "android": "https://dc.lft.to/lastmile_qr_scan"}, "is_reserved": 0}, {"lon": -77.03853, "bike_id": "cc74ec121d55c1d93d60cdd4579b431e", "lat": 38.93131016666667, "fusion_lon": 0.0, "fusion_lat": 0.0, "type": "electric_scooter", "name": "cc74ec121d55c1d93d60cdd4579b431e", "is_disabled": 0, "rental_uris": {"ios": "https://dc.lft.to/lastmile_qr_scan", "android": "https://dc.lft.to/lastmile_qr_scan"}, "is_reserved": 0}, {"lon": -76.988163, "bike_id": "0faf8dac8a0c4a43af99714b7cebfe73", "lat": 38.858291666666666, "fusion_lon": 0.0, "fusion_lat": 0.0, "type": "electric_scooter", "name": "0faf8dac8a0c4a43af99714b7cebfe73", "is_disabled": 0, "rental_uris": {"ios": "https://dc.lft.to/lastmile_qr_scan", "android": "https://dc.lft.to/lastmile_qr_scan"}, "is_reserved": 0}, {"lon": -77.012027, "bike_id": "9e70c84b026790a148a1a61d9aa21eae", "lat": 38.91249783333333, "fusion_lon": 0.0, "fusion_lat": 0.0, "type": "electric_scooter", "name": "9e70c84b026790a148a1a61d9aa21eae", "is_disabled": 0, "rental_uris": {"ios": "https://dc.lft.to/lastmile_qr_scan", "android": "https://dc.lft.to/lastmile_qr_scan"}, "is_reserved": 0}, {"lon": -76.93176966666667, "bike_id": "dfde569eaac188c235a5ec8928e97bde", "lat": 38.8988315, "fusion_lon": 0.0, "fusion_lat": 0.0, "type": "electric_scooter", "name": "dfde569eaac188c235a5ec8928e97bde", "is_disabled": 0, "rental_uris": {"ios": "https://dc.lft.to/lastmile_qr_scan", "android": "https://dc.lft.to/lastmile_qr_scan"}, "is_reserved": 0}, {"lon": -77.0218185, "bike_id": "0e57894405aa60ca165ec0db1f90cc98", "lat": 38.914782, "fusion_lon": 0.0, "fusion_lat": 0.0, "type": "electric_scooter", "name": "0e57894405aa60ca165ec0db1f90cc98", "is_disabled": 0, "rental_uris": {"ios": "https://dc.lft.to/lastmile_qr_scan", "android": "https://dc.lft.to/lastmile_qr_scan"}, "is_reserved": 0}, {"lon": -77.0338385, "bike_id": "019045bde28a53bda49bf69d5d024cb9", "lat": 38.90963416666666, "fusion_lon": 0.0, "fusion_lat": 0.0, "type": "electric_scooter", "name": "019045bde28a53bda49bf69d5d024cb9", "is_disabled": 0, "rental_uris": {"ios": "https://dc.lft.to/lastmile_qr_scan", "android": "https://dc.lft.to/lastmile_qr_scan"}, "is_reserved": 0}, {"lon": -76.9961235, "bike_id": "95ba48a7e834c860507b239cb14a2362", "lat": 38.8831895, "fusion_lon": 0.0, "fusion_lat": 0.0, "type": "electric_scooter", "name": "95ba48a7e834c860507b239cb14a2362", "is_disabled": 0, "rental_uris": {"ios": "https://dc.lft.to/lastmile_qr_scan", "android": "https://dc.lft.to/lastmile_qr_scan"}, "is_reserved": 0}, {"lon": -76.9336605, "bike_id": "05a5f130555b1401a60630008b94e4fb", "lat": 38.899156833333336, "fusion_lon": 0.0, "fusion_lat": 0.0, "type": "electric_scooter", "name": "05a5f130555b1401a60630008b94e4fb", "is_disabled": 0, "rental_uris": {"ios": "https://dc.lft.to/lastmile_qr_scan", "android": "https://dc.lft.to/lastmile_qr_scan"}, "is_reserved": 0}, {"lon": -76.99569766666667, "bike_id": "d37bd7db8e1903caaa4e6e4f5ea62d86", "lat": 38.8518285, "fusion_lon": 0.0, "fusion_lat": 0.0, "type": "electric_bike", "name": "d37bd7db8e1903caaa4e6e4f5ea62d86", "is_disabled": 0, "rental_uris": {"ios": "https://dc.lft.to/lastmile_qr_scan", "android": "https://dc.lft.to/lastmile_qr_scan"}, "is_reserved": 0}, {"lon": -77.0238685, "bike_id": "03799953fb90f63cfa32bac0f2f33ef0", "lat": 38.907166833333335, "fusion_lon": 0.0, "fusion_lat": 0.0, "type": "electric_scooter", "name": "03799953fb90f63cfa32bac0f2f33ef0", "is_disabled": 0, "rental_uris": {"ios": "https://dc.lft.to/lastmile_qr_scan", "android": "https://dc.lft.to/lastmile_qr_scan"}, "is_reserved": 0}, {"lon": -77.02974266666666, "bike_id": "8aca578b8f016480b5e70f1880b00cc2", "lat": 38.912547833333335, "fusion_lon": 0.0, "fusion_lat": 0.0, "type": "electric_scooter", "name": "8aca578b8f016480b5e70f1880b00cc2", "is_disabled": 0, "rental_uris": {"ios": "https://dc.lft.to/lastmile_qr_scan", "android": "https://dc.lft.to/lastmile_qr_scan"}, "is_reserved": 0}, {"lon": -76.99877216666667, "bike_id": "66b8bebd6f69467b521024c00028fb14", "lat": 38.90749516666666, "fusion_lon": 0.0, "fusion_lat": 0.0, "type": "electric_scooter", "name": "66b8bebd6f69467b521024c00028fb14", "is_disabled": 0, "rental_uris": {"ios": "https://dc.lft.to/lastmile_qr_scan", "android": "https://dc.lft.to/lastmile_qr_scan"}, "is_reserved": 0}, {"lon": -77.04356566666667, "bike_id": "e20b738c7cd39163959d60b311cc5087", "lat": 38.921642, "fusion_lon": 0.0, "fusion_lat": 0.0, "type": "electric_scooter", "name": "e20b738c7cd39163959d60b311cc5087", "is_disabled": 0, "rental_uris": {"ios": "https://dc.lft.to/lastmile_qr_scan", "android": "https://dc.lft.to/lastmile_qr_scan"}, "is_reserved": 0}, {"lon": -76.96086883333334, "bike_id": "6c5f5540f5a73a378921fc8665b1684c", "lat": 38.918573333333335, "fusion_lon": 0.0, "fusion_lat": 0.0, "type": "electric_bike", "name": "6c5f5540f5a73a378921fc8665b1684c", "is_disabled": 0, "rental_uris": {"ios": "https://dc.lft.to/lastmile_qr_scan", "android": "https://dc.lft.to/lastmile_qr_scan"}, "is_reserved": 0}, {"lon": -77.04342483333333, "bike_id": "122017e908836518e10ccab405522e1a", "lat": 38.9281105, "fusion_lon": 0.0, "fusion_lat": 0.0, "type": "electric_scooter", "name": "122017e908836518e10ccab405522e1a", "is_disabled": 0, "rental_uris": {"ios": "https://dc.lft.to/lastmile_qr_scan", "android": "https://dc.lft.to/lastmile_qr_scan"}, "is_reserved": 0}, {"lon": -76.949567, "bike_id": "6a536f89fff46ceffdfd3832d87941c4", "lat": 38.89439633333333, "fusion_lon": 0.0, "fusion_lat": 0.0, "type": "electric_scooter", "name": "6a536f89fff46ceffdfd3832d87941c4", "is_disabled": 0, "rental_uris": {"ios": "https://dc.lft.to/lastmile_qr_scan", "android": "https://dc.lft.to/lastmile_qr_scan"}, "is_reserved": 0}, {"lon": -77.02379466666666, "bike_id": "e21f3a25503fad9ce19159377017a605", "lat": 38.905838333333335, "fusion_lon": 0.0, "fusion_lat": 0.0, "type": "electric_scooter", "name": "e21f3a25503fad9ce19159377017a605", "is_disabled": 0, "rental_uris": {"ios": "https://dc.lft.to/lastmile_qr_scan", "android": "https://dc.lft.to/lastmile_qr_scan"}, "is_reserved": 0}, {"lon": -77.03273983333334, "bike_id": "fb479e76b75dfbac685423c1d179b5a8", "lat": 38.905665, "fusion_lon": 0.0, "fusion_lat": 0.0, "type": "electric_scooter", "name": "fb479e76b75dfbac685423c1d179b5a8", "is_disabled": 0, "rental_uris": {"ios": "https://dc.lft.to/lastmile_qr_scan", "android": "https://dc.lft.to/lastmile_qr_scan"}, "is_reserved": 0}, {"lon": -76.9519455, "bike_id": "e5b3242fc3c93f0815b5ed9ba4be0517", "lat": 38.90002966666667, "fusion_lon": 0.0, "fusion_lat": 0.0, "type": "electric_scooter", "name": "e5b3242fc3c93f0815b5ed9ba4be0517", "is_disabled": 0, "rental_uris": {"ios": "https://dc.lft.to/lastmile_qr_scan", "android": "https://dc.lft.to/lastmile_qr_scan"}, "is_reserved": 0}, {"lon": -77.02197266666667, "bike_id": "f931264940b07bfa6c71d7ebd4e35fb8", "lat": 38.9113705, "fusion_lon": 0.0, "fusion_lat": 0.0, "type": "electric_scooter", "name": "f931264940b07bfa6c71d7ebd4e35fb8", "is_disabled": 0, "rental_uris": {"ios": "https://dc.lft.to/lastmile_qr_scan", "android": "https://dc.lft.to/lastmile_qr_scan"}, "is_reserved": 0}, {"lon": -77.04432866666667, "bike_id": "0285a46f4779d11a8eacd681e9d832af", "lat": 38.921687666666664, "fusion_lon": 0.0, "fusion_lat": 0.0, "type": "electric_scooter", "name": "0285a46f4779d11a8eacd681e9d832af", "is_disabled": 0, "rental_uris": {"ios": "https://dc.lft.to/lastmile_qr_scan", "android": "https://dc.lft.to/lastmile_qr_scan"}, "is_reserved": 0}, {"lon": -76.97731633333333, "bike_id": "f571a760cdb3524706975f2471fbc545", "lat": 38.872922, "fusion_lon": 0.0, "fusion_lat": 0.0, "type": "electric_scooter", "name": "f571a760cdb3524706975f2471fbc545", "is_disabled": 0, "rental_uris": {"ios": "https://dc.lft.to/lastmile_qr_scan", "android": "https://dc.lft.to/lastmile_qr_scan"}, "is_reserved": 0}, {"lon": -77.01408016666667, "bike_id": "45a8fe6dc535e0cfeaca5f6c854a145b", "lat": 38.92801983333333, "fusion_lon": 0.0, "fusion_lat": 0.0, "type": "electric_scooter", "name": "45a8fe6dc535e0cfeaca5f6c854a145b", "is_disabled": 0, "rental_uris": {"ios": "https://dc.lft.to/lastmile_qr_scan", "android": "https://dc.lft.to/lastmile_qr_scan"}, "is_reserved": 0}, {"lon": -77.029544, "bike_id": "d5fd0b0272b01ad537b15b1b5351d121", "lat": 38.90498016666667, "fusion_lon": 0.0, "fusion_lat": 0.0, "type": "electric_scooter", "name": "d5fd0b0272b01ad537b15b1b5351d121", "is_disabled": 0, "rental_uris": {"ios": "https://dc.lft.to/lastmile_qr_scan", "android": "https://dc.lft.to/lastmile_qr_scan"}, "is_reserved": 0}, {"lon": -77.03855216666666, "bike_id": "319659beaa22e3f48b9f10783b6acb48", "lat": 38.93201066666666, "fusion_lon": 0.0, "fusion_lat": 0.0, "type": "electric_scooter", "name": "319659beaa22e3f48b9f10783b6acb48", "is_disabled": 0, "rental_uris": {"ios": "https://dc.lft.to/lastmile_qr_scan", "android": "https://dc.lft.to/lastmile_qr_scan"}, "is_reserved": 0}, {"lon": -77.031953, "bike_id": "715cb8442db14c827ae49545f3104167", "lat": 38.91067, "fusion_lon": 0.0, "fusion_lat": 0.0, "type": "electric_scooter", "name": "715cb8442db14c827ae49545f3104167", "is_disabled": 0, "rental_uris": {"ios": "https://dc.lft.to/lastmile_qr_scan", "android": "https://dc.lft.to/lastmile_qr_scan"}, "is_reserved": 0}, {"lon": -77.03203816666667, "bike_id": "2759c40461e483a909b49aab3638880a", "lat": 38.93969083333333, "fusion_lon": 0.0, "fusion_lat": 0.0, "type": "electric_scooter", "name": "2759c40461e483a909b49aab3638880a", "is_disabled": 0, "rental_uris": {"ios": "https://dc.lft.to/lastmile_qr_scan", "android": "https://dc.lft.to/lastmile_qr_scan"}, "is_reserved": 0}, {"lon": -77.02091466666667, "bike_id": "4d6619d2fb3a599a863a47b450d8e6f6", "lat": 38.90147, "fusion_lon": 0.0, "fusion_lat": 0.0, "type": "electric_scooter", "name": "4d6619d2fb3a599a863a47b450d8e6f6", "is_disabled": 0, "rental_uris": {"ios": "https://dc.lft.to/lastmile_qr_scan", "android": "https://dc.lft.to/lastmile_qr_scan"}, "is_reserved": 0}, {"lon": -77.0441715, "bike_id": "937e9a288a6890912d096f711be529b8", "lat": 38.9212245, "fusion_lon": 0.0, "fusion_lat": 0.0, "type": "electric_scooter", "name": "937e9a288a6890912d096f711be529b8", "is_disabled": 0, "rental_uris": {"ios": "https://dc.lft.to/lastmile_qr_scan", "android": "https://dc.lft.to/lastmile_qr_scan"}, "is_reserved": 0}, {"lon": -77.01112916666666, "bike_id": "0e7e1e9294051e8f58902fc42dd437f7", "lat": 38.903507, "fusion_lon": 0.0, "fusion_lat": 0.0, "type": "electric_scooter", "name": "0e7e1e9294051e8f58902fc42dd437f7", "is_disabled": 0, "rental_uris": {"ios": "https://dc.lft.to/lastmile_qr_scan", "android": "https://dc.lft.to/lastmile_qr_scan"}, "is_reserved": 0}, {"lon": -77.03046316666666, "bike_id": "cc531d52114210b6611f51e8cd8f66e9", "lat": 38.878404, "fusion_lon": 0.0, "fusion_lat": 0.0, "type": "electric_scooter", "name": "cc531d52114210b6611f51e8cd8f66e9", "is_disabled": 0, "rental_uris": {"ios": "https://dc.lft.to/lastmile_qr_scan", "android": "https://dc.lft.to/lastmile_qr_scan"}, "is_reserved": 0}, {"lon": -77.03190333333333, "bike_id": "20d1563bd8afbe71b9e3b2c454ef7a19", "lat": 38.90974, "fusion_lon": 0.0, "fusion_lat": 0.0, "type": "electric_scooter", "name": "20d1563bd8afbe71b9e3b2c454ef7a19", "is_disabled": 0, "rental_uris": {"ios": "https://dc.lft.to/lastmile_qr_scan", "android": "https://dc.lft.to/lastmile_qr_scan"}, "is_reserved": 0}, {"lon": -77.00332116666667, "bike_id": "4c888744aa6469de41cb4fab95272e82", "lat": 38.88502033333333, "fusion_lon": 0.0, "fusion_lat": 0.0, "type": "electric_scooter", "name": "4c888744aa6469de41cb4fab95272e82", "is_disabled": 0, "rental_uris": {"ios": "https://dc.lft.to/lastmile_qr_scan", "android": "https://dc.lft.to/lastmile_qr_scan"}, "is_reserved": 0}, {"lon": -77.02581883333333, "bike_id": "3f54c2985f291279bae75dc8b50b0d93", "lat": 38.892303166666665, "fusion_lon": 0.0, "fusion_lat": 0.0, "type": "electric_scooter", "name": "3f54c2985f291279bae75dc8b50b0d93", "is_disabled": 0, "rental_uris": {"ios": "https://dc.lft.to/lastmile_qr_scan", "android": "https://dc.lft.to/lastmile_qr_scan"}, "is_reserved": 0}, {"lon": -77.02013433333333, "bike_id": "6f11592e1db814fcdc6341b480e560d6", "lat": 38.9241455, "fusion_lon": 0.0, "fusion_lat": 0.0, "type": "electric_scooter", "name": "6f11592e1db814fcdc6341b480e560d6", "is_disabled": 0, "rental_uris": {"ios": "https://dc.lft.to/lastmile_qr_scan", "android": "https://dc.lft.to/lastmile_qr_scan"}, "is_reserved": 0}, {"lon": -77.051076, "bike_id": "cb104094692566b3d8e86d52fce08dea", "lat": 38.923023666666666, "fusion_lon": 0.0, "fusion_lat": 0.0, "type": "electric_scooter", "name": "cb104094692566b3d8e86d52fce08dea", "is_disabled": 0, "rental_uris": {"ios": "https://dc.lft.to/lastmile_qr_scan", "android": "https://dc.lft.to/lastmile_qr_scan"}, "is_reserved": 0}, {"lon": -77.03204066666666, "bike_id": "24250d4e60fb5058f1b29e864beef858", "lat": 38.914742333333336, "fusion_lon": 0.0, "fusion_lat": 0.0, "type": "electric_scooter", "name": "24250d4e60fb5058f1b29e864beef858", "is_disabled": 0, "rental_uris": {"ios": "https://dc.lft.to/lastmile_qr_scan", "android": "https://dc.lft.to/lastmile_qr_scan"}, "is_reserved": 0}, {"lon": -77.0208415, "bike_id": "8df08e672dd70c42a73b2538ae58ed2d", "lat": 38.927076666666665, "fusion_lon": 0.0, "fusion_lat": 0.0, "type": "electric_scooter", "name": "8df08e672dd70c42a73b2538ae58ed2d", "is_disabled": 0, "rental_uris": {"ios": "https://dc.lft.to/lastmile_qr_scan", "android": "https://dc.lft.to/lastmile_qr_scan"}, "is_reserved": 0}, {"lon": -77.0030635, "bike_id": "6a683cd67154bd1fe12a58d9e613afa1", "lat": 38.89495216666667, "fusion_lon": 0.0, "fusion_lat": 0.0, "type": "electric_scooter", "name": "6a683cd67154bd1fe12a58d9e613afa1", "is_disabled": 0, "rental_uris": {"ios": "https://dc.lft.to/lastmile_qr_scan", "android": "https://dc.lft.to/lastmile_qr_scan"}, "is_reserved": 0}, {"lon": -77.0469555, "bike_id": "13247c49f409e9a23b1dd12c413253aa", "lat": 38.90171566666667, "fusion_lon": 0.0, "fusion_lat": 0.0, "type": "electric_scooter", "name": "13247c49f409e9a23b1dd12c413253aa", "is_disabled": 0, "rental_uris": {"ios": "https://dc.lft.to/lastmile_qr_scan", "android": "https://dc.lft.to/lastmile_qr_scan"}, "is_reserved": 0}, {"lon": -77.0523515, "bike_id": "37f23978d4a58804020cbc6fb2d8cc2d", "lat": 38.9246425, "fusion_lon": 0.0, "fusion_lat": 0.0, "type": "electric_scooter", "name": "37f23978d4a58804020cbc6fb2d8cc2d", "is_disabled": 0, "rental_uris": {"ios": "https://dc.lft.to/lastmile_qr_scan", "android": "https://dc.lft.to/lastmile_qr_scan"}, "is_reserved": 0}, {"lon": -77.00069166666667, "bike_id": "5d44de657d86408266d86a47d879f1d5", "lat": 38.90137583333333, "fusion_lon": 0.0, "fusion_lat": 0.0, "type": "electric_scooter", "name": "5d44de657d86408266d86a47d879f1d5", "is_disabled": 0, "rental_uris": {"ios": "https://dc.lft.to/lastmile_qr_scan", "android": "https://dc.lft.to/lastmile_qr_scan"}, "is_reserved": 0}, {"lon": -76.93735983333333, "bike_id": "5337fb1fc57774634d5e493ef736ce90", "lat": 38.890121, "fusion_lon": 0.0, "fusion_lat": 0.0, "type": "electric_scooter", "name": "5337fb1fc57774634d5e493ef736ce90", "is_disabled": 0, "rental_uris": {"ios": "https://dc.lft.to/lastmile_qr_scan", "android": "https://dc.lft.to/lastmile_qr_scan"}, "is_reserved": 0}, {"lon": -77.03617866666667, "bike_id": "ec90d527406fb21fa85914847df73553", "lat": 38.92877033333333, "fusion_lon": 0.0, "fusion_lat": 0.0, "type": "electric_scooter", "name": "ec90d527406fb21fa85914847df73553", "is_disabled": 0, "rental_uris": {"ios": "https://dc.lft.to/lastmile_qr_scan", "android": "https://dc.lft.to/lastmile_qr_scan"}, "is_reserved": 0}, {"lon": -77.03264533333333, "bike_id": "70e68eedbebbf2d25b5401e716f4ee44", "lat": 38.93698216666667, "fusion_lon": 0.0, "fusion_lat": 0.0, "type": "electric_scooter", "name": "70e68eedbebbf2d25b5401e716f4ee44", "is_disabled": 0, "rental_uris": {"ios": "https://dc.lft.to/lastmile_qr_scan", "android": "https://dc.lft.to/lastmile_qr_scan"}, "is_reserved": 0}, {"lon": -77.0367415, "bike_id": "54c3c8318ab9aed1966c51dac259b0bd", "lat": 38.909644, "fusion_lon": 0.0, "fusion_lat": 0.0, "type": "electric_scooter", "name": "54c3c8318ab9aed1966c51dac259b0bd", "is_disabled": 0, "rental_uris": {"ios": "https://dc.lft.to/lastmile_qr_scan", "android": "https://dc.lft.to/lastmile_qr_scan"}, "is_reserved": 0}, {"lon": -77.02318416666667, "bike_id": "5f2604555aabe724ce432b5cfc80d1d4", "lat": 38.88736733333333, "fusion_lon": 0.0, "fusion_lat": 0.0, "type": "electric_scooter", "name": "5f2604555aabe724ce432b5cfc80d1d4", "is_disabled": 0, "rental_uris": {"ios": "https://dc.lft.to/lastmile_qr_scan", "android": "https://dc.lft.to/lastmile_qr_scan"}, "is_reserved": 0}, {"lon": -76.931297, "bike_id": "80c358cc96184002f3cbdf65d1ca41e4", "lat": 38.87612166666667, "fusion_lon": 0.0, "fusion_lat": 0.0, "type": "electric_scooter", "name": "80c358cc96184002f3cbdf65d1ca41e4", "is_disabled": 0, "rental_uris": {"ios": "https://dc.lft.to/lastmile_qr_scan", "android": "https://dc.lft.to/lastmile_qr_scan"}, "is_reserved": 0}, {"lon": -77.052322, "bike_id": "2f47a9529227baf6da370346e0d17f5a", "lat": 38.9245845, "fusion_lon": 0.0, "fusion_lat": 0.0, "type": "electric_scooter", "name": "2f47a9529227baf6da370346e0d17f5a", "is_disabled": 0, "rental_uris": {"ios": "https://dc.lft.to/lastmile_qr_scan", "android": "https://dc.lft.to/lastmile_qr_scan"}, "is_reserved": 0}, {"lon": -77.04206583333334, "bike_id": "637002208887824ebc5d15abfcdb82ed", "lat": 38.892757, "fusion_lon": 0.0, "fusion_lat": 0.0, "type": "electric_scooter", "name": "637002208887824ebc5d15abfcdb82ed", "is_disabled": 0, "rental_uris": {"ios": "https://dc.lft.to/lastmile_qr_scan", "android": "https://dc.lft.to/lastmile_qr_scan"}, "is_reserved": 0}, {"lon": -77.0318635, "bike_id": "2f6a9d078bee32f81e7bfd9ff7ef1227", "lat": 38.91336366666667, "fusion_lon": 0.0, "fusion_lat": 0.0, "type": "electric_scooter", "name": "2f6a9d078bee32f81e7bfd9ff7ef1227", "is_disabled": 0, "rental_uris": {"ios": "https://dc.lft.to/lastmile_qr_scan", "android": "https://dc.lft.to/lastmile_qr_scan"}, "is_reserved": 0}, {"lon": -76.99551833333334, "bike_id": "656a1b4ab10af13fa0ef7fe198e631a0", "lat": 38.86253, "fusion_lon": 0.0, "fusion_lat": 0.0, "type": "electric_scooter", "name": "656a1b4ab10af13fa0ef7fe198e631a0", "is_disabled": 0, "rental_uris": {"ios": "https://dc.lft.to/lastmile_qr_scan", "android": "https://dc.lft.to/lastmile_qr_scan"}, "is_reserved": 0}, {"lon": -77.05803583333334, "bike_id": "1e676b43842913ab520e4ccee72df7da", "lat": 38.93452333333333, "fusion_lon": 0.0, "fusion_lat": 0.0, "type": "electric_scooter", "name": "1e676b43842913ab520e4ccee72df7da", "is_disabled": 0, "rental_uris": {"ios": "https://dc.lft.to/lastmile_qr_scan", "android": "https://dc.lft.to/lastmile_qr_scan"}, "is_reserved": 0}, {"lon": -77.01655766666667, "bike_id": "2cd29c5a4b1a48f65f571169373e3011", "lat": 38.928959666666664, "fusion_lon": 0.0, "fusion_lat": 0.0, "type": "electric_scooter", "name": "2cd29c5a4b1a48f65f571169373e3011", "is_disabled": 0, "rental_uris": {"ios": "https://dc.lft.to/lastmile_qr_scan", "android": "https://dc.lft.to/lastmile_qr_scan"}, "is_reserved": 0}, {"lon": -77.048814, "bike_id": "bc6b55553e0f8e22b8d3e0a22f616ca5", "lat": 38.903578833333334, "fusion_lon": 0.0, "fusion_lat": 0.0, "type": "electric_scooter", "name": "bc6b55553e0f8e22b8d3e0a22f616ca5", "is_disabled": 0, "rental_uris": {"ios": "https://dc.lft.to/lastmile_qr_scan", "android": "https://dc.lft.to/lastmile_qr_scan"}, "is_reserved": 0}, {"lon": -77.04201983333333, "bike_id": "57d8db7902e23f5d32c1e1c81de2f53f", "lat": 38.9206585, "fusion_lon": 0.0, "fusion_lat": 0.0, "type": "electric_scooter", "name": "57d8db7902e23f5d32c1e1c81de2f53f", "is_disabled": 0, "rental_uris": {"ios": "https://dc.lft.to/lastmile_qr_scan", "android": "https://dc.lft.to/lastmile_qr_scan"}, "is_reserved": 0}, {"lon": -77.0416035, "bike_id": "03bba0753dd2ccdec77af71228db105b", "lat": 38.903564833333334, "fusion_lon": 0.0, "fusion_lat": 0.0, "type": "electric_scooter", "name": "03bba0753dd2ccdec77af71228db105b", "is_disabled": 0, "rental_uris": {"ios": "https://dc.lft.to/lastmile_qr_scan", "android": "https://dc.lft.to/lastmile_qr_scan"}, "is_reserved": 0}, {"lon": -76.9889875, "bike_id": "27679f380219e836f7d63aedb270587e", "lat": 38.91347066666667, "fusion_lon": 0.0, "fusion_lat": 0.0, "type": "electric_scooter", "name": "27679f380219e836f7d63aedb270587e", "is_disabled": 0, "rental_uris": {"ios": "https://dc.lft.to/lastmile_qr_scan", "android": "https://dc.lft.to/lastmile_qr_scan"}, "is_reserved": 0}, {"lon": -77.03359266666666, "bike_id": "34e4157cb7cf20a866336cc4f60c7e19", "lat": 38.90155133333333, "fusion_lon": 0.0, "fusion_lat": 0.0, "type": "electric_scooter", "name": "34e4157cb7cf20a866336cc4f60c7e19", "is_disabled": 0, "rental_uris": {"ios": "https://dc.lft.to/lastmile_qr_scan", "android": "https://dc.lft.to/lastmile_qr_scan"}, "is_reserved": 0}, {"lon": -77.01971583333334, "bike_id": "b2477ae3ad9a3d7076d3ae3926069efd", "lat": 38.977508, "fusion_lon": 0.0, "fusion_lat": 0.0, "type": "electric_scooter", "name": "b2477ae3ad9a3d7076d3ae3926069efd", "is_disabled": 0, "rental_uris": {"ios": "https://dc.lft.to/lastmile_qr_scan", "android": "https://dc.lft.to/lastmile_qr_scan"}, "is_reserved": 0}, {"lon": -77.0020825, "bike_id": "cb07cc426bb54f452a0d0ee96f44d1ae", "lat": 38.90242833333333, "fusion_lon": 0.0, "fusion_lat": 0.0, "type": "electric_scooter", "name": "cb07cc426bb54f452a0d0ee96f44d1ae", "is_disabled": 0, "rental_uris": {"ios": "https://dc.lft.to/lastmile_qr_scan", "android": "https://dc.lft.to/lastmile_qr_scan"}, "is_reserved": 0}, {"lon": -77.029354, "bike_id": "87cb3ae50245743978f1789a566799a5", "lat": 38.9208145, "fusion_lon": 0.0, "fusion_lat": 0.0, "type": "electric_scooter", "name": "87cb3ae50245743978f1789a566799a5", "is_disabled": 0, "rental_uris": {"ios": "https://dc.lft.to/lastmile_qr_scan", "android": "https://dc.lft.to/lastmile_qr_scan"}, "is_reserved": 0}, {"lon": -77.04262683333333, "bike_id": "8fb1ac4e6bb16d4e5749711087b0107d", "lat": 38.922464833333336, "fusion_lon": 0.0, "fusion_lat": 0.0, "type": "electric_scooter", "name": "8fb1ac4e6bb16d4e5749711087b0107d", "is_disabled": 0, "rental_uris": {"ios": "https://dc.lft.to/lastmile_qr_scan", "android": "https://dc.lft.to/lastmile_qr_scan"}, "is_reserved": 0}, {"lon": -77.02988633333334, "bike_id": "1c53ed215c208ae566c60b0dcaf37fee", "lat": 38.902686833333334, "fusion_lon": 0.0, "fusion_lat": 0.0, "type": "electric_scooter", "name": "1c53ed215c208ae566c60b0dcaf37fee", "is_disabled": 0, "rental_uris": {"ios": "https://dc.lft.to/lastmile_qr_scan", "android": "https://dc.lft.to/lastmile_qr_scan"}, "is_reserved": 0}, {"lon": -77.03529183333333, "bike_id": "ca24921f25547936bce78f43ed364f1e", "lat": 38.922102833333334, "fusion_lon": 0.0, "fusion_lat": 0.0, "type": "electric_scooter", "name": "ca24921f25547936bce78f43ed364f1e", "is_disabled": 0, "rental_uris": {"ios": "https://dc.lft.to/lastmile_qr_scan", "android": "https://dc.lft.to/lastmile_qr_scan"}, "is_reserved": 0}, {"lon": -77.05917983333333, "bike_id": "5be1e53e32e074fb69aef57a242c53e6", "lat": 38.86247383333333, "fusion_lon": 0.0, "fusion_lat": 0.0, "type": "electric_scooter", "name": "5be1e53e32e074fb69aef57a242c53e6", "is_disabled": 0, "rental_uris": {"ios": "https://dc.lft.to/lastmile_qr_scan", "android": "https://dc.lft.to/lastmile_qr_scan"}, "is_reserved": 0}, {"lon": -77.00837916666667, "bike_id": "bb5704645701e370f50cf6e414c2ad45", "lat": 38.91627183333333, "fusion_lon": 0.0, "fusion_lat": 0.0, "type": "electric_scooter", "name": "bb5704645701e370f50cf6e414c2ad45", "is_disabled": 0, "rental_uris": {"ios": "https://dc.lft.to/lastmile_qr_scan", "android": "https://dc.lft.to/lastmile_qr_scan"}, "is_reserved": 0}, {"lon": -77.0151025, "bike_id": "efe4657ba4013272e56ccdc557abe80b", "lat": 38.8996185, "fusion_lon": 0.0, "fusion_lat": 0.0, "type": "electric_scooter", "name": "efe4657ba4013272e56ccdc557abe80b", "is_disabled": 0, "rental_uris": {"ios": "https://dc.lft.to/lastmile_qr_scan", "android": "https://dc.lft.to/lastmile_qr_scan"}, "is_reserved": 0}, {"lon": -77.04662983333333, "bike_id": "524eee32308cf8e0057e3293802ffa14", "lat": 38.90063, "fusion_lon": 0.0, "fusion_lat": 0.0, "type": "electric_scooter", "name": "524eee32308cf8e0057e3293802ffa14", "is_disabled": 0, "rental_uris": {"ios": "https://dc.lft.to/lastmile_qr_scan", "android": "https://dc.lft.to/lastmile_qr_scan"}, "is_reserved": 0}, {"lon": -77.02552733333333, "bike_id": "9b83cab86c5d44c5341ea1467ee0a698", "lat": 38.9414, "fusion_lon": 0.0, "fusion_lat": 0.0, "type": "electric_scooter", "name": "9b83cab86c5d44c5341ea1467ee0a698", "is_disabled": 0, "rental_uris": {"ios": "https://dc.lft.to/lastmile_qr_scan", "android": "https://dc.lft.to/lastmile_qr_scan"}, "is_reserved": 0}, {"lon": -76.94186616666667, "bike_id": "f0fbf4e3728c161b044aef5beb452b3d", "lat": 38.89315083333334, "fusion_lon": 0.0, "fusion_lat": 0.0, "type": "electric_bike", "name": "f0fbf4e3728c161b044aef5beb452b3d", "is_disabled": 0, "rental_uris": {"ios": "https://dc.lft.to/lastmile_qr_scan", "android": "https://dc.lft.to/lastmile_qr_scan"}, "is_reserved": 0}, {"lon": -77.03502366666666, "bike_id": "7651b3273d191affd87a6a0b90532b0e", "lat": 38.932641833333335, "fusion_lon": 0.0, "fusion_lat": 0.0, "type": "electric_scooter", "name": "7651b3273d191affd87a6a0b90532b0e", "is_disabled": 0, "rental_uris": {"ios": "https://dc.lft.to/lastmile_qr_scan", "android": "https://dc.lft.to/lastmile_qr_scan"}, "is_reserved": 0}, {"lon": -76.98225083333334, "bike_id": "9c5b97bcde85d6e5f8635f9c47287fae", "lat": 38.916472666666664, "fusion_lon": 0.0, "fusion_lat": 0.0, "type": "electric_scooter", "name": "9c5b97bcde85d6e5f8635f9c47287fae", "is_disabled": 0, "rental_uris": {"ios": "https://dc.lft.to/lastmile_qr_scan", "android": "https://dc.lft.to/lastmile_qr_scan"}, "is_reserved": 0}, {"lon": -77.05597533333334, "bike_id": "aa7788b07c329438ab67564f68cf5423", "lat": 38.936966, "fusion_lon": 0.0, "fusion_lat": 0.0, "type": "electric_scooter", "name": "aa7788b07c329438ab67564f68cf5423", "is_disabled": 0, "rental_uris": {"ios": "https://dc.lft.to/lastmile_qr_scan", "android": "https://dc.lft.to/lastmile_qr_scan"}, "is_reserved": 0}, {"lon": -76.98673783333334, "bike_id": "e910cfc05d5c2addff3482ab2d70247b", "lat": 38.899666333333336, "fusion_lon": 0.0, "fusion_lat": 0.0, "type": "electric_bike", "name": "e910cfc05d5c2addff3482ab2d70247b", "is_disabled": 0, "rental_uris": {"ios": "https://dc.lft.to/lastmile_qr_scan", "android": "https://dc.lft.to/lastmile_qr_scan"}, "is_reserved": 0}, {"lon": -77.02393133333334, "bike_id": "06e439c1b9d519de9b7973bbdcc17f9a", "lat": 38.899595833333336, "fusion_lon": 0.0, "fusion_lat": 0.0, "type": "electric_scooter", "name": "06e439c1b9d519de9b7973bbdcc17f9a", "is_disabled": 0, "rental_uris": {"ios": "https://dc.lft.to/lastmile_qr_scan", "android": "https://dc.lft.to/lastmile_qr_scan"}, "is_reserved": 0}, {"lon": -77.078253, "bike_id": "35bf7915c794749e8785fdba315421e7", "lat": 38.943242833333336, "fusion_lon": 0.0, "fusion_lat": 0.0, "type": "electric_scooter", "name": "35bf7915c794749e8785fdba315421e7", "is_disabled": 0, "rental_uris": {"ios": "https://dc.lft.to/lastmile_qr_scan", "android": "https://dc.lft.to/lastmile_qr_scan"}, "is_reserved": 0}, {"lon": -77.03635133333333, "bike_id": "ec714ec3b68764cd602b9a4b981e479f", "lat": 38.91860633333334, "fusion_lon": 0.0, "fusion_lat": 0.0, "type": "electric_scooter", "name": "ec714ec3b68764cd602b9a4b981e479f", "is_disabled": 0, "rental_uris": {"ios": "https://dc.lft.to/lastmile_qr_scan", "android": "https://dc.lft.to/lastmile_qr_scan"}, "is_reserved": 0}, {"lon": -77.0376605, "bike_id": "21b392649e8edd309bd0ae089d43057f", "lat": 38.918847, "fusion_lon": 0.0, "fusion_lat": 0.0, "type": "electric_scooter", "name": "21b392649e8edd309bd0ae089d43057f", "is_disabled": 0, "rental_uris": {"ios": "https://dc.lft.to/lastmile_qr_scan", "android": "https://dc.lft.to/lastmile_qr_scan"}, "is_reserved": 0}, {"lon": -77.03261483333333, "bike_id": "a96d613720a06be3639121a9c0e0e5bb", "lat": 38.91986716666667, "fusion_lon": 0.0, "fusion_lat": 0.0, "type": "electric_scooter", "name": "a96d613720a06be3639121a9c0e0e5bb", "is_disabled": 0, "rental_uris": {"ios": "https://dc.lft.to/lastmile_qr_scan", "android": "https://dc.lft.to/lastmile_qr_scan"}, "is_reserved": 0}, {"lon": -76.936477, "bike_id": "1a4ffd9a9b39718f91e89d1a96c359ca", "lat": 38.900626, "fusion_lon": 0.0, "fusion_lat": 0.0, "type": "electric_scooter", "name": "1a4ffd9a9b39718f91e89d1a96c359ca", "is_disabled": 0, "rental_uris": {"ios": "https://dc.lft.to/lastmile_qr_scan", "android": "https://dc.lft.to/lastmile_qr_scan"}, "is_reserved": 0}, {"lon": -77.02110916666666, "bike_id": "2cb1dd3294e26dd2b8742c754177cd00", "lat": 38.9029015, "fusion_lon": 0.0, "fusion_lat": 0.0, "type": "electric_scooter", "name": "2cb1dd3294e26dd2b8742c754177cd00", "is_disabled": 0, "rental_uris": {"ios": "https://dc.lft.to/lastmile_qr_scan", "android": "https://dc.lft.to/lastmile_qr_scan"}, "is_reserved": 0}, {"lon": -77.02523383333333, "bike_id": "998e6f95e88672ddcd5158002e3601e2", "lat": 38.91682316666667, "fusion_lon": 0.0, "fusion_lat": 0.0, "type": "electric_scooter", "name": "998e6f95e88672ddcd5158002e3601e2", "is_disabled": 0, "rental_uris": {"ios": "https://dc.lft.to/lastmile_qr_scan", "android": "https://dc.lft.to/lastmile_qr_scan"}, "is_reserved": 0}, {"lon": -76.93175333333333, "bike_id": "cb9fa327260e6f6c9a42842bc381a2ce", "lat": 38.898829666666664, "fusion_lon": 0.0, "fusion_lat": 0.0, "type": "electric_scooter", "name": "cb9fa327260e6f6c9a42842bc381a2ce", "is_disabled": 0, "rental_uris": {"ios": "https://dc.lft.to/lastmile_qr_scan", "android": "https://dc.lft.to/lastmile_qr_scan"}, "is_reserved": 0}, {"lon": -77.04892633333333, "bike_id": "967f6e4bbaf5e80e461a537b9bef9e60", "lat": 38.892463166666666, "fusion_lon": 0.0, "fusion_lat": 0.0, "type": "electric_scooter", "name": "967f6e4bbaf5e80e461a537b9bef9e60", "is_disabled": 0, "rental_uris": {"ios": "https://dc.lft.to/lastmile_qr_scan", "android": "https://dc.lft.to/lastmile_qr_scan"}, "is_reserved": 0}, {"lon": -77.02594233333333, "bike_id": "5942b552e67ab28a28d2ead480363e50", "lat": 38.96396383333333, "fusion_lon": 0.0, "fusion_lat": 0.0, "type": "electric_scooter", "name": "5942b552e67ab28a28d2ead480363e50", "is_disabled": 0, "rental_uris": {"ios": "https://dc.lft.to/lastmile_qr_scan", "android": "https://dc.lft.to/lastmile_qr_scan"}, "is_reserved": 0}, {"lon": -76.93012716666667, "bike_id": "7812f8a6c59244fe1fa2f2f8e8e5d27c", "lat": 38.89651666666666, "fusion_lon": 0.0, "fusion_lat": 0.0, "type": "electric_bike", "name": "7812f8a6c59244fe1fa2f2f8e8e5d27c", "is_disabled": 0, "rental_uris": {"ios": "https://dc.lft.to/lastmile_qr_scan", "android": "https://dc.lft.to/lastmile_qr_scan"}, "is_reserved": 0}, {"lon": -77.04368083333334, "bike_id": "61046ddddd088ef750e29f5572f5c74a", "lat": 38.90236183333333, "fusion_lon": 0.0, "fusion_lat": 0.0, "type": "electric_scooter", "name": "61046ddddd088ef750e29f5572f5c74a", "is_disabled": 0, "rental_uris": {"ios": "https://dc.lft.to/lastmile_qr_scan", "android": "https://dc.lft.to/lastmile_qr_scan"}, "is_reserved": 0}, {"lon": -77.03287016666667, "bike_id": "835d9d4abf16a4c3e3da749c318332a3", "lat": 38.95645866666667, "fusion_lon": 0.0, "fusion_lat": 0.0, "type": "electric_scooter", "name": "835d9d4abf16a4c3e3da749c318332a3", "is_disabled": 0, "rental_uris": {"ios": "https://dc.lft.to/lastmile_qr_scan", "android": "https://dc.lft.to/lastmile_qr_scan"}, "is_reserved": 0}, {"lon": -77.025216, "bike_id": "96fd723d3bf1fcae3570f0a5bd3760fa", "lat": 38.90501916666667, "fusion_lon": 0.0, "fusion_lat": 0.0, "type": "electric_scooter", "name": "96fd723d3bf1fcae3570f0a5bd3760fa", "is_disabled": 0, "rental_uris": {"ios": "https://dc.lft.to/lastmile_qr_scan", "android": "https://dc.lft.to/lastmile_qr_scan"}, "is_reserved": 0}, {"lon": -77.029712, "bike_id": "b2c632803fcbbd400722361bceb7b9c6", "lat": 38.91723733333333, "fusion_lon": 0.0, "fusion_lat": 0.0, "type": "electric_scooter", "name": "b2c632803fcbbd400722361bceb7b9c6", "is_disabled": 0, "rental_uris": {"ios": "https://dc.lft.to/lastmile_qr_scan", "android": "https://dc.lft.to/lastmile_qr_scan"}, "is_reserved": 0}, {"lon": -77.03721883333333, "bike_id": "d4b4cd9ec573d4af6e60fce4e5b8d3af", "lat": 38.926388, "fusion_lon": 0.0, "fusion_lat": 0.0, "type": "electric_scooter", "name": "d4b4cd9ec573d4af6e60fce4e5b8d3af", "is_disabled": 0, "rental_uris": {"ios": "https://dc.lft.to/lastmile_qr_scan", "android": "https://dc.lft.to/lastmile_qr_scan"}, "is_reserved": 0}, {"lon": -77.021003, "bike_id": "0446ce7f3097a417e59c758cf8afa166", "lat": 38.90977, "fusion_lon": 0.0, "fusion_lat": 0.0, "type": "electric_scooter", "name": "0446ce7f3097a417e59c758cf8afa166", "is_disabled": 0, "rental_uris": {"ios": "https://dc.lft.to/lastmile_qr_scan", "android": "https://dc.lft.to/lastmile_qr_scan"}, "is_reserved": 0}, {"lon": -76.99547516666667, "bike_id": "77b7997a2a105503b13ae24bfee716db", "lat": 38.862533666666664, "fusion_lon": 0.0, "fusion_lat": 0.0, "type": "electric_scooter", "name": "77b7997a2a105503b13ae24bfee716db", "is_disabled": 0, "rental_uris": {"ios": "https://dc.lft.to/lastmile_qr_scan", "android": "https://dc.lft.to/lastmile_qr_scan"}, "is_reserved": 0}, {"lon": -77.02312933333333, "bike_id": "fb8f7d3b038aa518cc80454744c86adb", "lat": 38.90956583333333, "fusion_lon": 0.0, "fusion_lat": 0.0, "type": "electric_scooter", "name": "fb8f7d3b038aa518cc80454744c86adb", "is_disabled": 0, "rental_uris": {"ios": "https://dc.lft.to/lastmile_qr_scan", "android": "https://dc.lft.to/lastmile_qr_scan"}, "is_reserved": 0}, {"lon": -77.034471, "bike_id": "ff3efb67ab15c89f10ae6a5aa4debc90", "lat": 38.90287683333333, "fusion_lon": 0.0, "fusion_lat": 0.0, "type": "electric_scooter", "name": "ff3efb67ab15c89f10ae6a5aa4debc90", "is_disabled": 0, "rental_uris": {"ios": "https://dc.lft.to/lastmile_qr_scan", "android": "https://dc.lft.to/lastmile_qr_scan"}, "is_reserved": 0}, {"lon": -77.0218175, "bike_id": "71f13ebfbf77188792f170e97ecfce65", "lat": 38.90407416666667, "fusion_lon": 0.0, "fusion_lat": 0.0, "type": "electric_scooter", "name": "71f13ebfbf77188792f170e97ecfce65", "is_disabled": 0, "rental_uris": {"ios": "https://dc.lft.to/lastmile_qr_scan", "android": "https://dc.lft.to/lastmile_qr_scan"}, "is_reserved": 0}, {"lon": -77.03328383333333, "bike_id": "acab38857fbb2afbcdbb8be1893e79f8", "lat": 38.96054916666667, "fusion_lon": 0.0, "fusion_lat": 0.0, "type": "electric_scooter", "name": "acab38857fbb2afbcdbb8be1893e79f8", "is_disabled": 0, "rental_uris": {"ios": "https://dc.lft.to/lastmile_qr_scan", "android": "https://dc.lft.to/lastmile_qr_scan"}, "is_reserved": 0}, {"lon": -76.96381733333334, "bike_id": "de8ef34386d1f08decabd918e512cdb7", "lat": 38.9518015, "fusion_lon": 0.0, "fusion_lat": 0.0, "type": "electric_bike", "name": "de8ef34386d1f08decabd918e512cdb7", "is_disabled": 0, "rental_uris": {"ios": "https://dc.lft.to/lastmile_qr_scan", "android": "https://dc.lft.to/lastmile_qr_scan"}, "is_reserved": 0}, {"lon": -77.02793716666666, "bike_id": "b84d86e6846fd8d321bbb955c6dca0f8", "lat": 38.9540395, "fusion_lon": 0.0, "fusion_lat": 0.0, "type": "electric_scooter", "name": "b84d86e6846fd8d321bbb955c6dca0f8", "is_disabled": 0, "rental_uris": {"ios": "https://dc.lft.to/lastmile_qr_scan", "android": "https://dc.lft.to/lastmile_qr_scan"}, "is_reserved": 0}, {"lon": -76.99122616666666, "bike_id": "b647c5658e6264817bbb855bc1faa002", "lat": 38.9227465, "fusion_lon": 0.0, "fusion_lat": 0.0, "type": "electric_scooter", "name": "b647c5658e6264817bbb855bc1faa002", "is_disabled": 0, "rental_uris": {"ios": "https://dc.lft.to/lastmile_qr_scan", "android": "https://dc.lft.to/lastmile_qr_scan"}, "is_reserved": 0}, {"lon": -77.03871233333334, "bike_id": "c04e5479aa14a7e1f771d74b8bc44341", "lat": 38.9141685, "fusion_lon": 0.0, "fusion_lat": 0.0, "type": "electric_scooter", "name": "c04e5479aa14a7e1f771d74b8bc44341", "is_disabled": 0, "rental_uris": {"ios": "https://dc.lft.to/lastmile_qr_scan", "android": "https://dc.lft.to/lastmile_qr_scan"}, "is_reserved": 0}, {"lon": -77.02003766666667, "bike_id": "3fe81017387b01dafec2ce72329ad9c9", "lat": 38.904506833333336, "fusion_lon": 0.0, "fusion_lat": 0.0, "type": "electric_scooter", "name": "3fe81017387b01dafec2ce72329ad9c9", "is_disabled": 0, "rental_uris": {"ios": "https://dc.lft.to/lastmile_qr_scan", "android": "https://dc.lft.to/lastmile_qr_scan"}, "is_reserved": 0}, {"lon": -77.02672866666667, "bike_id": "42041f8c368d864a2916dc5d97853b8f", "lat": 38.9846475, "fusion_lon": 0.0, "fusion_lat": 0.0, "type": "electric_scooter", "name": "42041f8c368d864a2916dc5d97853b8f", "is_disabled": 0, "rental_uris": {"ios": "https://dc.lft.to/lastmile_qr_scan", "android": "https://dc.lft.to/lastmile_qr_scan"}, "is_reserved": 0}, {"lon": -77.031668, "bike_id": "7851670f2d95f887458a42a7435ca76a", "lat": 38.915599, "fusion_lon": 0.0, "fusion_lat": 0.0, "type": "electric_scooter", "name": "7851670f2d95f887458a42a7435ca76a", "is_disabled": 0, "rental_uris": {"ios": "https://dc.lft.to/lastmile_qr_scan", "android": "https://dc.lft.to/lastmile_qr_scan"}, "is_reserved": 0}, {"lon": -77.003527, "bike_id": "7cf3572a6d797db8dd85b01d9d603dbe", "lat": 38.91678483333333, "fusion_lon": 0.0, "fusion_lat": 0.0, "type": "electric_scooter", "name": "7cf3572a6d797db8dd85b01d9d603dbe", "is_disabled": 0, "rental_uris": {"ios": "https://dc.lft.to/lastmile_qr_scan", "android": "https://dc.lft.to/lastmile_qr_scan"}, "is_reserved": 0}, {"lon": -77.03868383333334, "bike_id": "572a461bd3ab657e9db3523cdc73ac2a", "lat": 38.906437, "fusion_lon": 0.0, "fusion_lat": 0.0, "type": "electric_scooter", "name": "572a461bd3ab657e9db3523cdc73ac2a", "is_disabled": 0, "rental_uris": {"ios": "https://dc.lft.to/lastmile_qr_scan", "android": "https://dc.lft.to/lastmile_qr_scan"}, "is_reserved": 0}, {"lon": -77.03179366666667, "bike_id": "62c9ebe2227c8424f696b0b07952111f", "lat": 38.91340316666667, "fusion_lon": 0.0, "fusion_lat": 0.0, "type": "electric_scooter", "name": "62c9ebe2227c8424f696b0b07952111f", "is_disabled": 0, "rental_uris": {"ios": "https://dc.lft.to/lastmile_qr_scan", "android": "https://dc.lft.to/lastmile_qr_scan"}, "is_reserved": 0}, {"lon": -77.0280385, "bike_id": "30db0092fa5c60499821e74c12e2b1dd", "lat": 38.934223333333335, "fusion_lon": 0.0, "fusion_lat": 0.0, "type": "electric_scooter", "name": "30db0092fa5c60499821e74c12e2b1dd", "is_disabled": 0, "rental_uris": {"ios": "https://dc.lft.to/lastmile_qr_scan", "android": "https://dc.lft.to/lastmile_qr_scan"}, "is_reserved": 0}, {"lon": -77.05730233333334, "bike_id": "a88b3d908baa04b551397592874644c7", "lat": 38.933661666666666, "fusion_lon": 0.0, "fusion_lat": 0.0, "type": "electric_scooter", "name": "a88b3d908baa04b551397592874644c7", "is_disabled": 0, "rental_uris": {"ios": "https://dc.lft.to/lastmile_qr_scan", "android": "https://dc.lft.to/lastmile_qr_scan"}, "is_reserved": 0}, {"lon": -76.9823285, "bike_id": "4d729dc246187c0bf15be9735eee9e5b", "lat": 38.916494666666665, "fusion_lon": 0.0, "fusion_lat": 0.0, "type": "electric_scooter", "name": "4d729dc246187c0bf15be9735eee9e5b", "is_disabled": 0, "rental_uris": {"ios": "https://dc.lft.to/lastmile_qr_scan", "android": "https://dc.lft.to/lastmile_qr_scan"}, "is_reserved": 0}, {"lon": -77.0509675, "bike_id": "86f71e114aa22375055e17dcfe9ee75e", "lat": 38.909689166666666, "fusion_lon": 0.0, "fusion_lat": 0.0, "type": "electric_scooter", "name": "86f71e114aa22375055e17dcfe9ee75e", "is_disabled": 0, "rental_uris": {"ios": "https://dc.lft.to/lastmile_qr_scan", "android": "https://dc.lft.to/lastmile_qr_scan"}, "is_reserved": 0}, {"lon": -76.99967633333333, "bike_id": "9f841a61c7811fee04be885368496035", "lat": 38.9085985, "fusion_lon": 0.0, "fusion_lat": 0.0, "type": "electric_scooter", "name": "9f841a61c7811fee04be885368496035", "is_disabled": 0, "rental_uris": {"ios": "https://dc.lft.to/lastmile_qr_scan", "android": "https://dc.lft.to/lastmile_qr_scan"}, "is_reserved": 0}, {"lon": -77.03702416666667, "bike_id": "fc1eebe02c502923fb70c3cd80acadc2", "lat": 38.932866833333335, "fusion_lon": 0.0, "fusion_lat": 0.0, "type": "electric_scooter", "name": "fc1eebe02c502923fb70c3cd80acadc2", "is_disabled": 0, "rental_uris": {"ios": "https://dc.lft.to/lastmile_qr_scan", "android": "https://dc.lft.to/lastmile_qr_scan"}, "is_reserved": 0}, {"lon": -77.0457815, "bike_id": "cc1714d028307d165e6fcc218cc4298b", "lat": 38.921271833333336, "fusion_lon": 0.0, "fusion_lat": 0.0, "type": "electric_scooter", "name": "cc1714d028307d165e6fcc218cc4298b", "is_disabled": 0, "rental_uris": {"ios": "https://dc.lft.to/lastmile_qr_scan", "android": "https://dc.lft.to/lastmile_qr_scan"}, "is_reserved": 0}, {"lon": -77.031783, "bike_id": "32d1281bbe7f94a245c223b9644fe797", "lat": 38.908292833333334, "fusion_lon": 0.0, "fusion_lat": 0.0, "type": "electric_scooter", "name": "32d1281bbe7f94a245c223b9644fe797", "is_disabled": 0, "rental_uris": {"ios": "https://dc.lft.to/lastmile_qr_scan", "android": "https://dc.lft.to/lastmile_qr_scan"}, "is_reserved": 0}, {"lon": -77.022836, "bike_id": "bdc4a932536f85543cb4ee806e21285a", "lat": 38.901679, "fusion_lon": 0.0, "fusion_lat": 0.0, "type": "electric_scooter", "name": "bdc4a932536f85543cb4ee806e21285a", "is_disabled": 0, "rental_uris": {"ios": "https://dc.lft.to/lastmile_qr_scan", "android": "https://dc.lft.to/lastmile_qr_scan"}, "is_reserved": 0}, {"lon": -76.99496466666666, "bike_id": "db5a3c1521d3137280a36509070313da", "lat": 38.8805735, "fusion_lon": 0.0, "fusion_lat": 0.0, "type": "electric_scooter", "name": "db5a3c1521d3137280a36509070313da", "is_disabled": 0, "rental_uris": {"ios": "https://dc.lft.to/lastmile_qr_scan", "android": "https://dc.lft.to/lastmile_qr_scan"}, "is_reserved": 0}, {"lon": -77.11167966666666, "bike_id": "241ea7df29fb8fbe1e0807f22396158c", "lat": 38.855114666666665, "fusion_lon": 0.0, "fusion_lat": 0.0, "type": "electric_bike", "name": "241ea7df29fb8fbe1e0807f22396158c", "is_disabled": 0, "rental_uris": {"ios": "https://dc.lft.to/lastmile_qr_scan", "android": "https://dc.lft.to/lastmile_qr_scan"}, "is_reserved": 0}, {"lon": -77.07295183333333, "bike_id": "2f23b75400bc78258fc1583c4f77bb14", "lat": 38.92469333333333, "fusion_lon": 0.0, "fusion_lat": 0.0, "type": "electric_scooter", "name": "2f23b75400bc78258fc1583c4f77bb14", "is_disabled": 0, "rental_uris": {"ios": "https://dc.lft.to/lastmile_qr_scan", "android": "https://dc.lft.to/lastmile_qr_scan"}, "is_reserved": 0}, {"lon": -77.1047895, "bike_id": "225e37af7e48b917ca85c6b024a59935", "lat": 38.8561065, "fusion_lon": 0.0, "fusion_lat": 0.0, "type": "electric_bike", "name": "225e37af7e48b917ca85c6b024a59935", "is_disabled": 0, "rental_uris": {"ios": "https://dc.lft.to/lastmile_qr_scan", "android": "https://dc.lft.to/lastmile_qr_scan"}, "is_reserved": 0}, {"lon": -76.97317933333333, "bike_id": "f8d8e0768fe20fe07b1749b4353cfb7b", "lat": 38.8656575, "fusion_lon": 0.0, "fusion_lat": 0.0, "type": "electric_scooter", "name": "f8d8e0768fe20fe07b1749b4353cfb7b", "is_disabled": 0, "rental_uris": {"ios": "https://dc.lft.to/lastmile_qr_scan", "android": "https://dc.lft.to/lastmile_qr_scan"}, "is_reserved": 0}, {"lon": -77.02430466666667, "bike_id": "4f0ab424ab0870b146ba34c54988bfa5", "lat": 38.92080833333333, "fusion_lon": 0.0, "fusion_lat": 0.0, "type": "electric_scooter", "name": "4f0ab424ab0870b146ba34c54988bfa5", "is_disabled": 0, "rental_uris": {"ios": "https://dc.lft.to/lastmile_qr_scan", "android": "https://dc.lft.to/lastmile_qr_scan"}, "is_reserved": 0}, {"lon": -77.00568983333334, "bike_id": "04e5316de91153aca07e801524c30b6c", "lat": 38.874715333333334, "fusion_lon": 0.0, "fusion_lat": 0.0, "type": "electric_scooter", "name": "04e5316de91153aca07e801524c30b6c", "is_disabled": 0, "rental_uris": {"ios": "https://dc.lft.to/lastmile_qr_scan", "android": "https://dc.lft.to/lastmile_qr_scan"}, "is_reserved": 0}, {"lon": -77.02956966666666, "bike_id": "35f727cea9dfc75f6b4934e7e1250aba", "lat": 38.91076366666667, "fusion_lon": 0.0, "fusion_lat": 0.0, "type": "electric_scooter", "name": "35f727cea9dfc75f6b4934e7e1250aba", "is_disabled": 0, "rental_uris": {"ios": "https://dc.lft.to/lastmile_qr_scan", "android": "https://dc.lft.to/lastmile_qr_scan"}, "is_reserved": 0}, {"lon": -76.98229383333333, "bike_id": "7966b52252fb47cd26af0fa71e3cd216", "lat": 38.88647983333333, "fusion_lon": 0.0, "fusion_lat": 0.0, "type": "electric_scooter", "name": "7966b52252fb47cd26af0fa71e3cd216", "is_disabled": 0, "rental_uris": {"ios": "https://dc.lft.to/lastmile_qr_scan", "android": "https://dc.lft.to/lastmile_qr_scan"}, "is_reserved": 0}, {"lon": -77.04570433333333, "bike_id": "ac615919ab6dcc637485439df0c210f9", "lat": 38.908637, "fusion_lon": 0.0, "fusion_lat": 0.0, "type": "electric_scooter", "name": "ac615919ab6dcc637485439df0c210f9", "is_disabled": 0, "rental_uris": {"ios": "https://dc.lft.to/lastmile_qr_scan", "android": "https://dc.lft.to/lastmile_qr_scan"}, "is_reserved": 0}, {"lon": -77.02448116666666, "bike_id": "12b0c2cd3d37165c404c5309f05a058a", "lat": 38.93799333333333, "fusion_lon": 0.0, "fusion_lat": 0.0, "type": "electric_scooter", "name": "12b0c2cd3d37165c404c5309f05a058a", "is_disabled": 0, "rental_uris": {"ios": "https://dc.lft.to/lastmile_qr_scan", "android": "https://dc.lft.to/lastmile_qr_scan"}, "is_reserved": 0}, {"lon": -77.04369916666667, "bike_id": "a9378f3a0101bf11853d03f07e081c15", "lat": 38.9023815, "fusion_lon": 0.0, "fusion_lat": 0.0, "type": "electric_scooter", "name": "a9378f3a0101bf11853d03f07e081c15", "is_disabled": 0, "rental_uris": {"ios": "https://dc.lft.to/lastmile_qr_scan", "android": "https://dc.lft.to/lastmile_qr_scan"}, "is_reserved": 0}, {"lon": -77.05407183333334, "bike_id": "4bd614e32c64c290ccf7f071947dcd5b", "lat": 38.90147316666667, "fusion_lon": 0.0, "fusion_lat": 0.0, "type": "electric_scooter", "name": "4bd614e32c64c290ccf7f071947dcd5b", "is_disabled": 0, "rental_uris": {"ios": "https://dc.lft.to/lastmile_qr_scan", "android": "https://dc.lft.to/lastmile_qr_scan"}, "is_reserved": 0}, {"lon": -77.03202266666666, "bike_id": "130bff67020e91a4ffc8fee8c636c3a1", "lat": 38.94410766666667, "fusion_lon": 0.0, "fusion_lat": 0.0, "type": "electric_scooter", "name": "130bff67020e91a4ffc8fee8c636c3a1", "is_disabled": 0, "rental_uris": {"ios": "https://dc.lft.to/lastmile_qr_scan", "android": "https://dc.lft.to/lastmile_qr_scan"}, "is_reserved": 0}, {"lon": -77.0202595, "bike_id": "c65a67ca1c7445e8e6b2fea1af7c5769", "lat": 38.90153033333333, "fusion_lon": 0.0, "fusion_lat": 0.0, "type": "electric_scooter", "name": "c65a67ca1c7445e8e6b2fea1af7c5769", "is_disabled": 0, "rental_uris": {"ios": "https://dc.lft.to/lastmile_qr_scan", "android": "https://dc.lft.to/lastmile_qr_scan"}, "is_reserved": 0}, {"lon": -77.033589, "bike_id": "9d8992cac221ab08216e1a86642ba0d1", "lat": 38.902878333333334, "fusion_lon": 0.0, "fusion_lat": 0.0, "type": "electric_scooter", "name": "9d8992cac221ab08216e1a86642ba0d1", "is_disabled": 0, "rental_uris": {"ios": "https://dc.lft.to/lastmile_qr_scan", "android": "https://dc.lft.to/lastmile_qr_scan"}, "is_reserved": 0}, {"lon": -76.98887, "bike_id": "7faf69302429c1278fc99194a8104232", "lat": 38.86656966666666, "fusion_lon": 0.0, "fusion_lat": 0.0, "type": "electric_scooter", "name": "7faf69302429c1278fc99194a8104232", "is_disabled": 0, "rental_uris": {"ios": "https://dc.lft.to/lastmile_qr_scan", "android": "https://dc.lft.to/lastmile_qr_scan"}, "is_reserved": 0}, {"lon": -77.03776983333333, "bike_id": "7d78e863afdb9a40ca782be6b534b76a", "lat": 38.92945533333334, "fusion_lon": 0.0, "fusion_lat": 0.0, "type": "electric_scooter", "name": "7d78e863afdb9a40ca782be6b534b76a", "is_disabled": 0, "rental_uris": {"ios": "https://dc.lft.to/lastmile_qr_scan", "android": "https://dc.lft.to/lastmile_qr_scan"}, "is_reserved": 0}, {"lon": -77.0004795, "bike_id": "354fd2b6d038c01a79f48355e3bb2e6d", "lat": 38.96800416666667, "fusion_lon": 0.0, "fusion_lat": 0.0, "type": "electric_bike", "name": "354fd2b6d038c01a79f48355e3bb2e6d", "is_disabled": 0, "rental_uris": {"ios": "https://dc.lft.to/lastmile_qr_scan", "android": "https://dc.lft.to/lastmile_qr_scan"}, "is_reserved": 0}, {"lon": -77.04154516666667, "bike_id": "e3f77badf57c8889737698e1aea5be5b", "lat": 38.89561583333333, "fusion_lon": 0.0, "fusion_lat": 0.0, "type": "electric_scooter", "name": "e3f77badf57c8889737698e1aea5be5b", "is_disabled": 0, "rental_uris": {"ios": "https://dc.lft.to/lastmile_qr_scan", "android": "https://dc.lft.to/lastmile_qr_scan"}, "is_reserved": 0}, {"lon": -76.97680466666667, "bike_id": "5d47e939528ffd11d9f82dc85e0dee73", "lat": 38.896192166666665, "fusion_lon": 0.0, "fusion_lat": 0.0, "type": "electric_scooter", "name": "5d47e939528ffd11d9f82dc85e0dee73", "is_disabled": 0, "rental_uris": {"ios": "https://dc.lft.to/lastmile_qr_scan", "android": "https://dc.lft.to/lastmile_qr_scan"}, "is_reserved": 0}, {"lon": -77.04429733333333, "bike_id": "0776c51578dc95018b879ca22d9e3386", "lat": 38.90943083333333, "fusion_lon": 0.0, "fusion_lat": 0.0, "type": "electric_scooter", "name": "0776c51578dc95018b879ca22d9e3386", "is_disabled": 0, "rental_uris": {"ios": "https://dc.lft.to/lastmile_qr_scan", "android": "https://dc.lft.to/lastmile_qr_scan"}, "is_reserved": 0}, {"lon": -76.98651983333333, "bike_id": "ec0537edd2958b5220435d56dd8868e1", "lat": 38.901425833333334, "fusion_lon": 0.0, "fusion_lat": 0.0, "type": "electric_scooter", "name": "ec0537edd2958b5220435d56dd8868e1", "is_disabled": 0, "rental_uris": {"ios": "https://dc.lft.to/lastmile_qr_scan", "android": "https://dc.lft.to/lastmile_qr_scan"}, "is_reserved": 0}, {"lon": -77.03852266666667, "bike_id": "b891ac3b0d6770fc66e818810113ae18", "lat": 38.91578416666667, "fusion_lon": 0.0, "fusion_lat": 0.0, "type": "electric_scooter", "name": "b891ac3b0d6770fc66e818810113ae18", "is_disabled": 0, "rental_uris": {"ios": "https://dc.lft.to/lastmile_qr_scan", "android": "https://dc.lft.to/lastmile_qr_scan"}, "is_reserved": 0}, {"lon": -77.02561683333333, "bike_id": "0a445e7f9575a680d2fde9d365d54338", "lat": 38.996750666666664, "fusion_lon": 0.0, "fusion_lat": 0.0, "type": "electric_bike", "name": "0a445e7f9575a680d2fde9d365d54338", "is_disabled": 0, "rental_uris": {"ios": "https://dc.lft.to/lastmile_qr_scan", "android": "https://dc.lft.to/lastmile_qr_scan"}, "is_reserved": 0}, {"lon": -77.0365005, "bike_id": "00817d757fe23deb53ff298ae71adc9f", "lat": 38.90278033333333, "fusion_lon": 0.0, "fusion_lat": 0.0, "type": "electric_scooter", "name": "00817d757fe23deb53ff298ae71adc9f", "is_disabled": 0, "rental_uris": {"ios": "https://dc.lft.to/lastmile_qr_scan", "android": "https://dc.lft.to/lastmile_qr_scan"}, "is_reserved": 0}, {"lon": -77.10926916666666, "bike_id": "63023cff1081bd3f2800a5eaf0a49942", "lat": 39.051952, "fusion_lon": 0.0, "fusion_lat": 0.0, "type": "electric_bike", "name": "63023cff1081bd3f2800a5eaf0a49942", "is_disabled": 0, "rental_uris": {"ios": "https://dc.lft.to/lastmile_qr_scan", "android": "https://dc.lft.to/lastmile_qr_scan"}, "is_reserved": 0}, {"lon": -77.08573683333333, "bike_id": "0670041dc4b3f9ac55471b7c972b0ab5", "lat": 38.933594, "fusion_lon": 0.0, "fusion_lat": 0.0, "type": "electric_scooter", "name": "0670041dc4b3f9ac55471b7c972b0ab5", "is_disabled": 0, "rental_uris": {"ios": "https://dc.lft.to/lastmile_qr_scan", "android": "https://dc.lft.to/lastmile_qr_scan"}, "is_reserved": 0}, {"lon": -77.04198816666667, "bike_id": "93265144aadafd433afac8cecd6ee8d7", "lat": 38.91255916666667, "fusion_lon": 0.0, "fusion_lat": 0.0, "type": "electric_scooter", "name": "93265144aadafd433afac8cecd6ee8d7", "is_disabled": 0, "rental_uris": {"ios": "https://dc.lft.to/lastmile_qr_scan", "android": "https://dc.lft.to/lastmile_qr_scan"}, "is_reserved": 0}, {"lon": -76.99719783333333, "bike_id": "ff76d9a9dbc68af670c5eccba25a00df", "lat": 38.91075883333333, "fusion_lon": 0.0, "fusion_lat": 0.0, "type": "electric_scooter", "name": "ff76d9a9dbc68af670c5eccba25a00df", "is_disabled": 0, "rental_uris": {"ios": "https://dc.lft.to/lastmile_qr_scan", "android": "https://dc.lft.to/lastmile_qr_scan"}, "is_reserved": 0}, {"lon": -77.0334685, "bike_id": "1d09f4fd1bbb0d2a5a36eda0872a3913", "lat": 38.928755833333334, "fusion_lon": 0.0, "fusion_lat": 0.0, "type": "electric_bike", "name": "1d09f4fd1bbb0d2a5a36eda0872a3913", "is_disabled": 0, "rental_uris": {"ios": "https://dc.lft.to/lastmile_qr_scan", "android": "https://dc.lft.to/lastmile_qr_scan"}, "is_reserved": 0}, {"lon": -77.05931283333334, "bike_id": "612a167199d4b002bb7054821876cb57", "lat": 38.912419666666665, "fusion_lon": 0.0, "fusion_lat": 0.0, "type": "electric_scooter", "name": "612a167199d4b002bb7054821876cb57", "is_disabled": 0, "rental_uris": {"ios": "https://dc.lft.to/lastmile_qr_scan", "android": "https://dc.lft.to/lastmile_qr_scan"}, "is_reserved": 0}, {"lon": -76.92994216666666, "bike_id": "c36f606d0d622858ef79977971c17a4f", "lat": 38.90188666666667, "fusion_lon": 0.0, "fusion_lat": 0.0, "type": "electric_scooter", "name": "c36f606d0d622858ef79977971c17a4f", "is_disabled": 0, "rental_uris": {"ios": "https://dc.lft.to/lastmile_qr_scan", "android": "https://dc.lft.to/lastmile_qr_scan"}, "is_reserved": 0}, {"lon": -77.02113333333334, "bike_id": "a503837b839dc3d2816b00ad289f1626", "lat": 38.91740166666666, "fusion_lon": 0.0, "fusion_lat": 0.0, "type": "electric_scooter", "name": "a503837b839dc3d2816b00ad289f1626", "is_disabled": 0, "rental_uris": {"ios": "https://dc.lft.to/lastmile_qr_scan", "android": "https://dc.lft.to/lastmile_qr_scan"}, "is_reserved": 0}, {"lon": -77.038886, "bike_id": "df57173941b397d31ff9a0ed861bb18e", "lat": 38.920103833333336, "fusion_lon": 0.0, "fusion_lat": 0.0, "type": "electric_scooter", "name": "df57173941b397d31ff9a0ed861bb18e", "is_disabled": 0, "rental_uris": {"ios": "https://dc.lft.to/lastmile_qr_scan", "android": "https://dc.lft.to/lastmile_qr_scan"}, "is_reserved": 0}, {"lon": -77.0672605, "bike_id": "bd13d12c8020f629cf29e3f3fb0c68e3", "lat": 38.909735833333336, "fusion_lon": 0.0, "fusion_lat": 0.0, "type": "electric_scooter", "name": "bd13d12c8020f629cf29e3f3fb0c68e3", "is_disabled": 0, "rental_uris": {"ios": "https://dc.lft.to/lastmile_qr_scan", "android": "https://dc.lft.to/lastmile_qr_scan"}, "is_reserved": 0}, {"lon": -77.0500085, "bike_id": "9c21b0a77fa36e0206ea05205bb447c4", "lat": 38.9009035, "fusion_lon": 0.0, "fusion_lat": 0.0, "type": "electric_scooter", "name": "9c21b0a77fa36e0206ea05205bb447c4", "is_disabled": 0, "rental_uris": {"ios": "https://dc.lft.to/lastmile_qr_scan", "android": "https://dc.lft.to/lastmile_qr_scan"}, "is_reserved": 0}, {"lon": -77.02529716666666, "bike_id": "dbdb0b21e90e607bc70b2a0d1c55b054", "lat": 38.91690833333333, "fusion_lon": 0.0, "fusion_lat": 0.0, "type": "electric_scooter", "name": "dbdb0b21e90e607bc70b2a0d1c55b054", "is_disabled": 0, "rental_uris": {"ios": "https://dc.lft.to/lastmile_qr_scan", "android": "https://dc.lft.to/lastmile_qr_scan"}, "is_reserved": 0}, {"lon": -77.01416383333333, "bike_id": "901417f0a7bd93d503b6e210793ee527", "lat": 38.92835383333333, "fusion_lon": 0.0, "fusion_lat": 0.0, "type": "electric_scooter", "name": "901417f0a7bd93d503b6e210793ee527", "is_disabled": 0, "rental_uris": {"ios": "https://dc.lft.to/lastmile_qr_scan", "android": "https://dc.lft.to/lastmile_qr_scan"}, "is_reserved": 0}, {"lon": -77.02579883333334, "bike_id": "3d2920cd1d240fc490f1564160094043", "lat": 38.897456, "fusion_lon": 0.0, "fusion_lat": 0.0, "type": "electric_scooter", "name": "3d2920cd1d240fc490f1564160094043", "is_disabled": 0, "rental_uris": {"ios": "https://dc.lft.to/lastmile_qr_scan", "android": "https://dc.lft.to/lastmile_qr_scan"}, "is_reserved": 0}, {"lon": -77.02943183333333, "bike_id": "dcaa67d78dfcd8ce614e1374c18f5f7c", "lat": 38.916729833333335, "fusion_lon": 0.0, "fusion_lat": 0.0, "type": "electric_scooter", "name": "dcaa67d78dfcd8ce614e1374c18f5f7c", "is_disabled": 0, "rental_uris": {"ios": "https://dc.lft.to/lastmile_qr_scan", "android": "https://dc.lft.to/lastmile_qr_scan"}, "is_reserved": 0}, {"lon": -77.0480025, "bike_id": "e32780760952baeaf3f9e8213a5445b0", "lat": 38.887184, "fusion_lon": 0.0, "fusion_lat": 0.0, "type": "electric_scooter", "name": "e32780760952baeaf3f9e8213a5445b0", "is_disabled": 0, "rental_uris": {"ios": "https://dc.lft.to/lastmile_qr_scan", "android": "https://dc.lft.to/lastmile_qr_scan"}, "is_reserved": 0}, {"lon": -77.03677733333333, "bike_id": "4d9fd2b3e5c2302ab8f6fea0adce4ae4", "lat": 38.908386166666666, "fusion_lon": 0.0, "fusion_lat": 0.0, "type": "electric_scooter", "name": "4d9fd2b3e5c2302ab8f6fea0adce4ae4", "is_disabled": 0, "rental_uris": {"ios": "https://dc.lft.to/lastmile_qr_scan", "android": "https://dc.lft.to/lastmile_qr_scan"}, "is_reserved": 0}, {"lon": -77.03408766666666, "bike_id": "f0845dc6259f3c5b09cd7d2a060d72b4", "lat": 38.92737916666667, "fusion_lon": 0.0, "fusion_lat": 0.0, "type": "electric_scooter", "name": "f0845dc6259f3c5b09cd7d2a060d72b4", "is_disabled": 0, "rental_uris": {"ios": "https://dc.lft.to/lastmile_qr_scan", "android": "https://dc.lft.to/lastmile_qr_scan"}, "is_reserved": 0}, {"lon": -77.03068133333333, "bike_id": "d7a9ed1db31bf9d7021cd71d3c7bda16", "lat": 38.90559483333333, "fusion_lon": 0.0, "fusion_lat": 0.0, "type": "electric_scooter", "name": "d7a9ed1db31bf9d7021cd71d3c7bda16", "is_disabled": 0, "rental_uris": {"ios": "https://dc.lft.to/lastmile_qr_scan", "android": "https://dc.lft.to/lastmile_qr_scan"}, "is_reserved": 0}, {"lon": -77.03353883333334, "bike_id": "0764e1ae340731fe58928f18ba9be8cc", "lat": 38.96253733333333, "fusion_lon": 0.0, "fusion_lat": 0.0, "type": "electric_scooter", "name": "0764e1ae340731fe58928f18ba9be8cc", "is_disabled": 0, "rental_uris": {"ios": "https://dc.lft.to/lastmile_qr_scan", "android": "https://dc.lft.to/lastmile_qr_scan"}, "is_reserved": 0}, {"lon": -77.06737383333333, "bike_id": "bc080e0eb85d38d8ccf4af60945cd581", "lat": 38.90348783333334, "fusion_lon": 0.0, "fusion_lat": 0.0, "type": "electric_scooter", "name": "bc080e0eb85d38d8ccf4af60945cd581", "is_disabled": 0, "rental_uris": {"ios": "https://dc.lft.to/lastmile_qr_scan", "android": "https://dc.lft.to/lastmile_qr_scan"}, "is_reserved": 0}, {"lon": -77.04383016666667, "bike_id": "7520b50a25b581a74815ac6858ebb9f4", "lat": 38.921114, "fusion_lon": 0.0, "fusion_lat": 0.0, "type": "electric_scooter", "name": "7520b50a25b581a74815ac6858ebb9f4", "is_disabled": 0, "rental_uris": {"ios": "https://dc.lft.to/lastmile_qr_scan", "android": "https://dc.lft.to/lastmile_qr_scan"}, "is_reserved": 0}, {"lon": -77.021797, "bike_id": "fd5febad10c1998c363dc1a9d7487920", "lat": 38.91485466666666, "fusion_lon": 0.0, "fusion_lat": 0.0, "type": "electric_scooter", "name": "fd5febad10c1998c363dc1a9d7487920", "is_disabled": 0, "rental_uris": {"ios": "https://dc.lft.to/lastmile_qr_scan", "android": "https://dc.lft.to/lastmile_qr_scan"}, "is_reserved": 0}, {"lon": -77.0633545, "bike_id": "1e6917e1e909c08076113f136b2b0e1b", "lat": 38.90524883333333, "fusion_lon": 0.0, "fusion_lat": 0.0, "type": "electric_scooter", "name": "1e6917e1e909c08076113f136b2b0e1b", "is_disabled": 0, "rental_uris": {"ios": "https://dc.lft.to/lastmile_qr_scan", "android": "https://dc.lft.to/lastmile_qr_scan"}, "is_reserved": 0}, {"lon": -77.02272566666667, "bike_id": "2224121aa0e067764d63cf915a68c549", "lat": 38.887377666666666, "fusion_lon": 0.0, "fusion_lat": 0.0, "type": "electric_scooter", "name": "2224121aa0e067764d63cf915a68c549", "is_disabled": 0, "rental_uris": {"ios": "https://dc.lft.to/lastmile_qr_scan", "android": "https://dc.lft.to/lastmile_qr_scan"}, "is_reserved": 0}, {"lon": -77.0320815, "bike_id": "6d6fe8a05e404cb890b67ab08c2225b4", "lat": 38.912531666666666, "fusion_lon": 0.0, "fusion_lat": 0.0, "type": "electric_scooter", "name": "6d6fe8a05e404cb890b67ab08c2225b4", "is_disabled": 0, "rental_uris": {"ios": "https://dc.lft.to/lastmile_qr_scan", "android": "https://dc.lft.to/lastmile_qr_scan"}, "is_reserved": 0}, {"lon": -77.0433355, "bike_id": "9df16c978748e3bc93da35cf264bb823", "lat": 38.90744016666667, "fusion_lon": 0.0, "fusion_lat": 0.0, "type": "electric_scooter", "name": "9df16c978748e3bc93da35cf264bb823", "is_disabled": 0, "rental_uris": {"ios": "https://dc.lft.to/lastmile_qr_scan", "android": "https://dc.lft.to/lastmile_qr_scan"}, "is_reserved": 0}, {"lon": -77.02628416666667, "bike_id": "94422faaca924adcad184843b7fe28f3", "lat": 38.962176, "fusion_lon": 0.0, "fusion_lat": 0.0, "type": "electric_bike", "name": "94422faaca924adcad184843b7fe28f3", "is_disabled": 0, "rental_uris": {"ios": "https://dc.lft.to/lastmile_qr_scan", "android": "https://dc.lft.to/lastmile_qr_scan"}, "is_reserved": 0}, {"lon": -77.019133, "bike_id": "8cafcb1637d86b02bc8522892003d364", "lat": 38.886035666666665, "fusion_lon": 0.0, "fusion_lat": 0.0, "type": "electric_scooter", "name": "8cafcb1637d86b02bc8522892003d364", "is_disabled": 0, "rental_uris": {"ios": "https://dc.lft.to/lastmile_qr_scan", "android": "https://dc.lft.to/lastmile_qr_scan"}, "is_reserved": 0}, {"lon": -77.00929383333333, "bike_id": "0d05c18142d4370852d9e0ef06fe6363", "lat": 38.896085, "fusion_lon": 0.0, "fusion_lat": 0.0, "type": "electric_scooter", "name": "0d05c18142d4370852d9e0ef06fe6363", "is_disabled": 0, "rental_uris": {"ios": "https://dc.lft.to/lastmile_qr_scan", "android": "https://dc.lft.to/lastmile_qr_scan"}, "is_reserved": 0}, {"lon": -77.03640283333333, "bike_id": "e23418accdb85bf4572046ff59cbe65b", "lat": 38.92413783333333, "fusion_lon": 0.0, "fusion_lat": 0.0, "type": "electric_scooter", "name": "e23418accdb85bf4572046ff59cbe65b", "is_disabled": 0, "rental_uris": {"ios": "https://dc.lft.to/lastmile_qr_scan", "android": "https://dc.lft.to/lastmile_qr_scan"}, "is_reserved": 0}, {"lon": -77.01107883333333, "bike_id": "7342bc48d02f2eee2bd71add3e0f19aa", "lat": 38.89480783333333, "fusion_lon": 0.0, "fusion_lat": 0.0, "type": "electric_scooter", "name": "7342bc48d02f2eee2bd71add3e0f19aa", "is_disabled": 0, "rental_uris": {"ios": "https://dc.lft.to/lastmile_qr_scan", "android": "https://dc.lft.to/lastmile_qr_scan"}, "is_reserved": 0}, {"lon": -77.05212216666666, "bike_id": "4ff806cd71ac4b3d88ccc0c30b455c57", "lat": 38.9156675, "fusion_lon": 0.0, "fusion_lat": 0.0, "type": "electric_scooter", "name": "4ff806cd71ac4b3d88ccc0c30b455c57", "is_disabled": 0, "rental_uris": {"ios": "https://dc.lft.to/lastmile_qr_scan", "android": "https://dc.lft.to/lastmile_qr_scan"}, "is_reserved": 0}, {"lon": -76.941321, "bike_id": "76b435d6e5a1513d9cb02ac14df7623b", "lat": 38.886193, "fusion_lon": 0.0, "fusion_lat": 0.0, "type": "electric_scooter", "name": "76b435d6e5a1513d9cb02ac14df7623b", "is_disabled": 0, "rental_uris": {"ios": "https://dc.lft.to/lastmile_qr_scan", "android": "https://dc.lft.to/lastmile_qr_scan"}, "is_reserved": 0}, {"lon": -77.02718183333333, "bike_id": "643df9c9f5d00e9e5446c836984fda37", "lat": 38.916873, "fusion_lon": 0.0, "fusion_lat": 0.0, "type": "electric_scooter", "name": "643df9c9f5d00e9e5446c836984fda37", "is_disabled": 0, "rental_uris": {"ios": "https://dc.lft.to/lastmile_qr_scan", "android": "https://dc.lft.to/lastmile_qr_scan"}, "is_reserved": 0}, {"lon": -76.98492983333334, "bike_id": "ada819019313e563395a777716723730", "lat": 38.8783305, "fusion_lon": 0.0, "fusion_lat": 0.0, "type": "electric_scooter", "name": "ada819019313e563395a777716723730", "is_disabled": 0, "rental_uris": {"ios": "https://dc.lft.to/lastmile_qr_scan", "android": "https://dc.lft.to/lastmile_qr_scan"}, "is_reserved": 0}, {"lon": -77.03535216666667, "bike_id": "49c942e53c81d96420d76447a7fddb00", "lat": 38.90768416666667, "fusion_lon": 0.0, "fusion_lat": 0.0, "type": "electric_scooter", "name": "49c942e53c81d96420d76447a7fddb00", "is_disabled": 0, "rental_uris": {"ios": "https://dc.lft.to/lastmile_qr_scan", "android": "https://dc.lft.to/lastmile_qr_scan"}, "is_reserved": 0}, {"lon": -77.03259583333333, "bike_id": "a40135b9355a3fc67a9e21a6ae9392c1", "lat": 38.920590833333335, "fusion_lon": 0.0, "fusion_lat": 0.0, "type": "electric_scooter", "name": "a40135b9355a3fc67a9e21a6ae9392c1", "is_disabled": 0, "rental_uris": {"ios": "https://dc.lft.to/lastmile_qr_scan", "android": "https://dc.lft.to/lastmile_qr_scan"}, "is_reserved": 0}, {"lon": -77.02986483333333, "bike_id": "71f0f8b4acfa96faa870c3a7e1bd066e", "lat": 38.90182, "fusion_lon": 0.0, "fusion_lat": 0.0, "type": "electric_scooter", "name": "71f0f8b4acfa96faa870c3a7e1bd066e", "is_disabled": 0, "rental_uris": {"ios": "https://dc.lft.to/lastmile_qr_scan", "android": "https://dc.lft.to/lastmile_qr_scan"}, "is_reserved": 0}, {"lon": -76.94633283333333, "bike_id": "9131f91c62c834e538d92bb7e30855b9", "lat": 38.898336, "fusion_lon": 0.0, "fusion_lat": 0.0, "type": "electric_scooter", "name": "9131f91c62c834e538d92bb7e30855b9", "is_disabled": 0, "rental_uris": {"ios": "https://dc.lft.to/lastmile_qr_scan", "android": "https://dc.lft.to/lastmile_qr_scan"}, "is_reserved": 0}, {"lon": -77.05348916666667, "bike_id": "977dbcc75d77ed69bd8df1c27da4a2be", "lat": 38.92705816666667, "fusion_lon": 0.0, "fusion_lat": 0.0, "type": "electric_scooter", "name": "977dbcc75d77ed69bd8df1c27da4a2be", "is_disabled": 0, "rental_uris": {"ios": "https://dc.lft.to/lastmile_qr_scan", "android": "https://dc.lft.to/lastmile_qr_scan"}, "is_reserved": 0}, {"lon": -77.0309535, "bike_id": "344e0e1c3ff48033b59d313199ad9e05", "lat": 38.93454066666666, "fusion_lon": 0.0, "fusion_lat": 0.0, "type": "electric_scooter", "name": "344e0e1c3ff48033b59d313199ad9e05", "is_disabled": 0, "rental_uris": {"ios": "https://dc.lft.to/lastmile_qr_scan", "android": "https://dc.lft.to/lastmile_qr_scan"}, "is_reserved": 0}, {"lon": -77.03198333333333, "bike_id": "9b265b4501effd26889d895971a6a8f3", "lat": 38.916821166666665, "fusion_lon": 0.0, "fusion_lat": 0.0, "type": "electric_scooter", "name": "9b265b4501effd26889d895971a6a8f3", "is_disabled": 0, "rental_uris": {"ios": "https://dc.lft.to/lastmile_qr_scan", "android": "https://dc.lft.to/lastmile_qr_scan"}, "is_reserved": 0}, {"lon": -77.05536683333334, "bike_id": "8762197b35285d5c0c7222425b2568e9", "lat": 38.909357666666665, "fusion_lon": 0.0, "fusion_lat": 0.0, "type": "electric_scooter", "name": "8762197b35285d5c0c7222425b2568e9", "is_disabled": 0, "rental_uris": {"ios": "https://dc.lft.to/lastmile_qr_scan", "android": "https://dc.lft.to/lastmile_qr_scan"}, "is_reserved": 0}, {"lon": -77.04942933333334, "bike_id": "bad3e9d16e745e0fb060a1400fabd585", "lat": 38.90847566666667, "fusion_lon": 0.0, "fusion_lat": 0.0, "type": "electric_scooter", "name": "bad3e9d16e745e0fb060a1400fabd585", "is_disabled": 0, "rental_uris": {"ios": "https://dc.lft.to/lastmile_qr_scan", "android": "https://dc.lft.to/lastmile_qr_scan"}, "is_reserved": 0}, {"lon": -77.05021866666667, "bike_id": "da46683d4d7e8059ab7206abddba4f17", "lat": 38.8981655, "fusion_lon": 0.0, "fusion_lat": 0.0, "type": "electric_scooter", "name": "da46683d4d7e8059ab7206abddba4f17", "is_disabled": 0, "rental_uris": {"ios": "https://dc.lft.to/lastmile_qr_scan", "android": "https://dc.lft.to/lastmile_qr_scan"}, "is_reserved": 0}, {"lon": -77.04387266666667, "bike_id": "3afeeca8a97e0a677fd6d7583320dfe5", "lat": 38.898605333333336, "fusion_lon": 0.0, "fusion_lat": 0.0, "type": "electric_scooter", "name": "3afeeca8a97e0a677fd6d7583320dfe5", "is_disabled": 0, "rental_uris": {"ios": "https://dc.lft.to/lastmile_qr_scan", "android": "https://dc.lft.to/lastmile_qr_scan"}, "is_reserved": 0}, {"lon": -77.03122516666667, "bike_id": "51a651ac89f6df2a252bd9309b1b68af", "lat": 38.920270333333335, "fusion_lon": 0.0, "fusion_lat": 0.0, "type": "electric_scooter", "name": "51a651ac89f6df2a252bd9309b1b68af", "is_disabled": 0, "rental_uris": {"ios": "https://dc.lft.to/lastmile_qr_scan", "android": "https://dc.lft.to/lastmile_qr_scan"}, "is_reserved": 0}, {"lon": -77.03255433333334, "bike_id": "8cae75c986e5de44f79dde64ee6b7cd8", "lat": 38.91565333333333, "fusion_lon": 0.0, "fusion_lat": 0.0, "type": "electric_scooter", "name": "8cae75c986e5de44f79dde64ee6b7cd8", "is_disabled": 0, "rental_uris": {"ios": "https://dc.lft.to/lastmile_qr_scan", "android": "https://dc.lft.to/lastmile_qr_scan"}, "is_reserved": 0}, {"lon": -76.93069166666666, "bike_id": "1e3cc77b3d4dbc8e57f5804df2ab6e86", "lat": 38.895568833333336, "fusion_lon": 0.0, "fusion_lat": 0.0, "type": "electric_scooter", "name": "1e3cc77b3d4dbc8e57f5804df2ab6e86", "is_disabled": 0, "rental_uris": {"ios": "https://dc.lft.to/lastmile_qr_scan", "android": "https://dc.lft.to/lastmile_qr_scan"}, "is_reserved": 0}, {"lon": -77.02207116666666, "bike_id": "cef0cd441beb2d5275a37de415a66cb2", "lat": 38.90396533333333, "fusion_lon": 0.0, "fusion_lat": 0.0, "type": "electric_scooter", "name": "cef0cd441beb2d5275a37de415a66cb2", "is_disabled": 0, "rental_uris": {"ios": "https://dc.lft.to/lastmile_qr_scan", "android": "https://dc.lft.to/lastmile_qr_scan"}, "is_reserved": 0}, {"lon": -76.978317, "bike_id": "e13ae48541d61ed5547b596374b6817f", "lat": 38.843645333333335, "fusion_lon": 0.0, "fusion_lat": 0.0, "type": "electric_bike", "name": "e13ae48541d61ed5547b596374b6817f", "is_disabled": 0, "rental_uris": {"ios": "https://dc.lft.to/lastmile_qr_scan", "android": "https://dc.lft.to/lastmile_qr_scan"}, "is_reserved": 0}, {"lon": -77.02479983333333, "bike_id": "cdfd0a1bcfcc9aeb0dc0b5f5828d343c", "lat": 38.91985966666667, "fusion_lon": 0.0, "fusion_lat": 0.0, "type": "electric_scooter", "name": "cdfd0a1bcfcc9aeb0dc0b5f5828d343c", "is_disabled": 0, "rental_uris": {"ios": "https://dc.lft.to/lastmile_qr_scan", "android": "https://dc.lft.to/lastmile_qr_scan"}, "is_reserved": 0}, {"lon": -77.036549, "bike_id": "8d74ede7cbfc51620203246c56f0afc5", "lat": 38.95610033333333, "fusion_lon": 0.0, "fusion_lat": 0.0, "type": "electric_scooter", "name": "8d74ede7cbfc51620203246c56f0afc5", "is_disabled": 0, "rental_uris": {"ios": "https://dc.lft.to/lastmile_qr_scan", "android": "https://dc.lft.to/lastmile_qr_scan"}, "is_reserved": 0}, {"lon": -76.98264516666667, "bike_id": "39ff4f871c4186dbe0f2c42d92ff1803", "lat": 38.901325166666666, "fusion_lon": 0.0, "fusion_lat": 0.0, "type": "electric_scooter", "name": "39ff4f871c4186dbe0f2c42d92ff1803", "is_disabled": 0, "rental_uris": {"ios": "https://dc.lft.to/lastmile_qr_scan", "android": "https://dc.lft.to/lastmile_qr_scan"}, "is_reserved": 0}, {"lon": -77.02612383333333, "bike_id": "8aace08137e08e64debc2ff5fe8b4a15", "lat": 38.90330633333333, "fusion_lon": 0.0, "fusion_lat": 0.0, "type": "electric_scooter", "name": "8aace08137e08e64debc2ff5fe8b4a15", "is_disabled": 0, "rental_uris": {"ios": "https://dc.lft.to/lastmile_qr_scan", "android": "https://dc.lft.to/lastmile_qr_scan"}, "is_reserved": 0}, {"lon": -77.02012333333333, "bike_id": "6100169010f38c3c5a57f16d9ba79cb4", "lat": 38.915600166666664, "fusion_lon": 0.0, "fusion_lat": 0.0, "type": "electric_scooter", "name": "6100169010f38c3c5a57f16d9ba79cb4", "is_disabled": 0, "rental_uris": {"ios": "https://dc.lft.to/lastmile_qr_scan", "android": "https://dc.lft.to/lastmile_qr_scan"}, "is_reserved": 0}, {"lon": -77.09062416666667, "bike_id": "8ab45c7a178acf86b71b034e45b4be68", "lat": 38.86259283333333, "fusion_lon": 0.0, "fusion_lat": 0.0, "type": "electric_bike", "name": "8ab45c7a178acf86b71b034e45b4be68", "is_disabled": 0, "rental_uris": {"ios": "https://dc.lft.to/lastmile_qr_scan", "android": "https://dc.lft.to/lastmile_qr_scan"}, "is_reserved": 0}, {"lon": -77.0310995, "bike_id": "72d76b2f6365f40e339937dac817d8da", "lat": 38.93325466666667, "fusion_lon": 0.0, "fusion_lat": 0.0, "type": "electric_scooter", "name": "72d76b2f6365f40e339937dac817d8da", "is_disabled": 0, "rental_uris": {"ios": "https://dc.lft.to/lastmile_qr_scan", "android": "https://dc.lft.to/lastmile_qr_scan"}, "is_reserved": 0}, {"lon": -77.03163033333334, "bike_id": "4b93060c5e5dec9ee8c303061f422eb1", "lat": 38.88422333333333, "fusion_lon": 0.0, "fusion_lat": 0.0, "type": "electric_scooter", "name": "4b93060c5e5dec9ee8c303061f422eb1", "is_disabled": 0, "rental_uris": {"ios": "https://dc.lft.to/lastmile_qr_scan", "android": "https://dc.lft.to/lastmile_qr_scan"}, "is_reserved": 0}, {"lon": -76.93176433333333, "bike_id": "790e538c1a44946f71eccfcecb088182", "lat": 38.898849166666665, "fusion_lon": 0.0, "fusion_lat": 0.0, "type": "electric_scooter", "name": "790e538c1a44946f71eccfcecb088182", "is_disabled": 0, "rental_uris": {"ios": "https://dc.lft.to/lastmile_qr_scan", "android": "https://dc.lft.to/lastmile_qr_scan"}, "is_reserved": 0}, {"lon": -77.02372333333334, "bike_id": "933d61fafc768bc836ba8300ea657842", "lat": 38.933233666666666, "fusion_lon": 0.0, "fusion_lat": 0.0, "type": "electric_scooter", "name": "933d61fafc768bc836ba8300ea657842", "is_disabled": 0, "rental_uris": {"ios": "https://dc.lft.to/lastmile_qr_scan", "android": "https://dc.lft.to/lastmile_qr_scan"}, "is_reserved": 0}, {"lon": -76.98753766666667, "bike_id": "a18f2e73f46baf7df0e98003d9be8de1", "lat": 38.9038095, "fusion_lon": 0.0, "fusion_lat": 0.0, "type": "electric_scooter", "name": "a18f2e73f46baf7df0e98003d9be8de1", "is_disabled": 0, "rental_uris": {"ios": "https://dc.lft.to/lastmile_qr_scan", "android": "https://dc.lft.to/lastmile_qr_scan"}, "is_reserved": 0}, {"lon": -77.04326266666666, "bike_id": "63d209931118e3256e70b412e5042ed7", "lat": 38.9187295, "fusion_lon": 0.0, "fusion_lat": 0.0, "type": "electric_scooter", "name": "63d209931118e3256e70b412e5042ed7", "is_disabled": 0, "rental_uris": {"ios": "https://dc.lft.to/lastmile_qr_scan", "android": "https://dc.lft.to/lastmile_qr_scan"}, "is_reserved": 0}, {"lon": -77.01408216666667, "bike_id": "62a5d6e0a5e7d69e31313862858c4943", "lat": 38.928086, "fusion_lon": 0.0, "fusion_lat": 0.0, "type": "electric_scooter", "name": "62a5d6e0a5e7d69e31313862858c4943", "is_disabled": 0, "rental_uris": {"ios": "https://dc.lft.to/lastmile_qr_scan", "android": "https://dc.lft.to/lastmile_qr_scan"}, "is_reserved": 0}, {"lon": -76.94995416666667, "bike_id": "018ceb7fe4408088ea0a9d1b489d7c14", "lat": 38.89392183333333, "fusion_lon": 0.0, "fusion_lat": 0.0, "type": "electric_scooter", "name": "018ceb7fe4408088ea0a9d1b489d7c14", "is_disabled": 0, "rental_uris": {"ios": "https://dc.lft.to/lastmile_qr_scan", "android": "https://dc.lft.to/lastmile_qr_scan"}, "is_reserved": 0}, {"lon": -77.031963, "bike_id": "0489a1c0d209fcec5727964ff8cc2147", "lat": 38.919698, "fusion_lon": 0.0, "fusion_lat": 0.0, "type": "electric_scooter", "name": "0489a1c0d209fcec5727964ff8cc2147", "is_disabled": 0, "rental_uris": {"ios": "https://dc.lft.to/lastmile_qr_scan", "android": "https://dc.lft.to/lastmile_qr_scan"}, "is_reserved": 0}, {"lon": -77.04327, "bike_id": "3c3cc82ccfc888d1e3d810316eceddf5", "lat": 38.908869333333335, "fusion_lon": 0.0, "fusion_lat": 0.0, "type": "electric_scooter", "name": "3c3cc82ccfc888d1e3d810316eceddf5", "is_disabled": 0, "rental_uris": {"ios": "https://dc.lft.to/lastmile_qr_scan", "android": "https://dc.lft.to/lastmile_qr_scan"}, "is_reserved": 0}, {"lon": -77.0269125, "bike_id": "26a92def2d9e8a78d6403a907cae39ae", "lat": 38.948878, "fusion_lon": 0.0, "fusion_lat": 0.0, "type": "electric_scooter", "name": "26a92def2d9e8a78d6403a907cae39ae", "is_disabled": 0, "rental_uris": {"ios": "https://dc.lft.to/lastmile_qr_scan", "android": "https://dc.lft.to/lastmile_qr_scan"}, "is_reserved": 0}, {"lon": -76.985401, "bike_id": "e7c0c7863a1b8f8e3fb3c18b74eb2b17", "lat": 38.91021933333333, "fusion_lon": 0.0, "fusion_lat": 0.0, "type": "electric_scooter", "name": "e7c0c7863a1b8f8e3fb3c18b74eb2b17", "is_disabled": 0, "rental_uris": {"ios": "https://dc.lft.to/lastmile_qr_scan", "android": "https://dc.lft.to/lastmile_qr_scan"}, "is_reserved": 0}, {"lon": -77.0268075, "bike_id": "0d8743dc01bf1453f74214959a57397d", "lat": 38.984862166666666, "fusion_lon": 0.0, "fusion_lat": 0.0, "type": "electric_scooter", "name": "0d8743dc01bf1453f74214959a57397d", "is_disabled": 0, "rental_uris": {"ios": "https://dc.lft.to/lastmile_qr_scan", "android": "https://dc.lft.to/lastmile_qr_scan"}, "is_reserved": 0}, {"lon": -77.014729, "bike_id": "97a52c467c1e3e1aa54b70ee27f8c853", "lat": 38.92688833333333, "fusion_lon": 0.0, "fusion_lat": 0.0, "type": "electric_scooter", "name": "97a52c467c1e3e1aa54b70ee27f8c853", "is_disabled": 0, "rental_uris": {"ios": "https://dc.lft.to/lastmile_qr_scan", "android": "https://dc.lft.to/lastmile_qr_scan"}, "is_reserved": 0}, {"lon": -77.003031, "bike_id": "95b05071df67aacaab60b2a06974cbdb", "lat": 38.9117735, "fusion_lon": 0.0, "fusion_lat": 0.0, "type": "electric_bike", "name": "95b05071df67aacaab60b2a06974cbdb", "is_disabled": 0, "rental_uris": {"ios": "https://dc.lft.to/lastmile_qr_scan", "android": "https://dc.lft.to/lastmile_qr_scan"}, "is_reserved": 0}, {"lon": -77.01981833333333, "bike_id": "77e44d0b27160e9665e796d3faac8f22", "lat": 38.960269833333335, "fusion_lon": 0.0, "fusion_lat": 0.0, "type": "electric_scooter", "name": "77e44d0b27160e9665e796d3faac8f22", "is_disabled": 0, "rental_uris": {"ios": "https://dc.lft.to/lastmile_qr_scan", "android": "https://dc.lft.to/lastmile_qr_scan"}, "is_reserved": 0}, {"lon": -77.01541833333333, "bike_id": "31da73b527fa34b3dfe994da3a0e8c45", "lat": 38.88326683333333, "fusion_lon": 0.0, "fusion_lat": 0.0, "type": "electric_scooter", "name": "31da73b527fa34b3dfe994da3a0e8c45", "is_disabled": 0, "rental_uris": {"ios": "https://dc.lft.to/lastmile_qr_scan", "android": "https://dc.lft.to/lastmile_qr_scan"}, "is_reserved": 0}, {"lon": -77.0688365, "bike_id": "c8c713d577269ad202530b72b2540793", "lat": 38.95266383333333, "fusion_lon": 0.0, "fusion_lat": 0.0, "type": "electric_scooter", "name": "c8c713d577269ad202530b72b2540793", "is_disabled": 0, "rental_uris": {"ios": "https://dc.lft.to/lastmile_qr_scan", "android": "https://dc.lft.to/lastmile_qr_scan"}, "is_reserved": 0}, {"lon": -77.00137333333333, "bike_id": "327d5bcab8f9860c60de5af5fb545bd3", "lat": 38.842763, "fusion_lon": 0.0, "fusion_lat": 0.0, "type": "electric_scooter", "name": "327d5bcab8f9860c60de5af5fb545bd3", "is_disabled": 0, "rental_uris": {"ios": "https://dc.lft.to/lastmile_qr_scan", "android": "https://dc.lft.to/lastmile_qr_scan"}, "is_reserved": 0}, {"lon": -77.03228333333334, "bike_id": "54b4d2ba190a113c26474d93cc349b17", "lat": 38.914036833333334, "fusion_lon": 0.0, "fusion_lat": 0.0, "type": "electric_scooter", "name": "54b4d2ba190a113c26474d93cc349b17", "is_disabled": 0, "rental_uris": {"ios": "https://dc.lft.to/lastmile_qr_scan", "android": "https://dc.lft.to/lastmile_qr_scan"}, "is_reserved": 0}, {"lon": -77.042259, "bike_id": "0ff438467578e15571c4d1a207ae3242", "lat": 38.9213165, "fusion_lon": 0.0, "fusion_lat": 0.0, "type": "electric_scooter", "name": "0ff438467578e15571c4d1a207ae3242", "is_disabled": 0, "rental_uris": {"ios": "https://dc.lft.to/lastmile_qr_scan", "android": "https://dc.lft.to/lastmile_qr_scan"}, "is_reserved": 0}, {"lon": -77.04402616666667, "bike_id": "4b7bee7e7df5ab59179d427347b08b3c", "lat": 38.93322966666667, "fusion_lon": 0.0, "fusion_lat": 0.0, "type": "electric_scooter", "name": "4b7bee7e7df5ab59179d427347b08b3c", "is_disabled": 0, "rental_uris": {"ios": "https://dc.lft.to/lastmile_qr_scan", "android": "https://dc.lft.to/lastmile_qr_scan"}, "is_reserved": 0}, {"lon": -76.92754266666667, "bike_id": "72fcf2df2a20b70adf5cdca786a5647c", "lat": 38.88054183333333, "fusion_lon": 0.0, "fusion_lat": 0.0, "type": "electric_scooter", "name": "72fcf2df2a20b70adf5cdca786a5647c", "is_disabled": 0, "rental_uris": {"ios": "https://dc.lft.to/lastmile_qr_scan", "android": "https://dc.lft.to/lastmile_qr_scan"}, "is_reserved": 0}, {"lon": -77.02307883333333, "bike_id": "05809f7b0795f833d1646469e8750009", "lat": 38.909593666666666, "fusion_lon": 0.0, "fusion_lat": 0.0, "type": "electric_scooter", "name": "05809f7b0795f833d1646469e8750009", "is_disabled": 0, "rental_uris": {"ios": "https://dc.lft.to/lastmile_qr_scan", "android": "https://dc.lft.to/lastmile_qr_scan"}, "is_reserved": 0}, {"lon": -77.024082, "bike_id": "f7fed4ea490203c58d18754ce581ef84", "lat": 38.93405166666667, "fusion_lon": 0.0, "fusion_lat": 0.0, "type": "electric_scooter", "name": "f7fed4ea490203c58d18754ce581ef84", "is_disabled": 0, "rental_uris": {"ios": "https://dc.lft.to/lastmile_qr_scan", "android": "https://dc.lft.to/lastmile_qr_scan"}, "is_reserved": 0}, {"lon": -77.007727, "bike_id": "a4562058eacdddf699c842809f81563b", "lat": 38.906553, "fusion_lon": 0.0, "fusion_lat": 0.0, "type": "electric_scooter", "name": "a4562058eacdddf699c842809f81563b", "is_disabled": 0, "rental_uris": {"ios": "https://dc.lft.to/lastmile_qr_scan", "android": "https://dc.lft.to/lastmile_qr_scan"}, "is_reserved": 0}, {"lon": -77.038557, "bike_id": "261df93423ec77bf981ac193d054249a", "lat": 38.915873166666664, "fusion_lon": 0.0, "fusion_lat": 0.0, "type": "electric_scooter", "name": "261df93423ec77bf981ac193d054249a", "is_disabled": 0, "rental_uris": {"ios": "https://dc.lft.to/lastmile_qr_scan", "android": "https://dc.lft.to/lastmile_qr_scan"}, "is_reserved": 0}, {"lon": -77.037069, "bike_id": "16dd91f5e94d3d6e4be1a6e5dc3f99e7", "lat": 38.906264, "fusion_lon": 0.0, "fusion_lat": 0.0, "type": "electric_scooter", "name": "16dd91f5e94d3d6e4be1a6e5dc3f99e7", "is_disabled": 0, "rental_uris": {"ios": "https://dc.lft.to/lastmile_qr_scan", "android": "https://dc.lft.to/lastmile_qr_scan"}, "is_reserved": 0}, {"lon": -77.04474316666666, "bike_id": "a6897fccc6afaaa8e2f9777f99f23419", "lat": 38.915410333333334, "fusion_lon": 0.0, "fusion_lat": 0.0, "type": "electric_scooter", "name": "a6897fccc6afaaa8e2f9777f99f23419", "is_disabled": 0, "rental_uris": {"ios": "https://dc.lft.to/lastmile_qr_scan", "android": "https://dc.lft.to/lastmile_qr_scan"}, "is_reserved": 0}, {"lon": -77.05343366666666, "bike_id": "41ce21896d16f66627860fff12b14b80", "lat": 38.92707816666667, "fusion_lon": 0.0, "fusion_lat": 0.0, "type": "electric_scooter", "name": "41ce21896d16f66627860fff12b14b80", "is_disabled": 0, "rental_uris": {"ios": "https://dc.lft.to/lastmile_qr_scan", "android": "https://dc.lft.to/lastmile_qr_scan"}, "is_reserved": 0}, {"lon": -77.0513215, "bike_id": "c186788f7310e7952cef5fc7fbf639df", "lat": 38.92364366666666, "fusion_lon": 0.0, "fusion_lat": 0.0, "type": "electric_scooter", "name": "c186788f7310e7952cef5fc7fbf639df", "is_disabled": 0, "rental_uris": {"ios": "https://dc.lft.to/lastmile_qr_scan", "android": "https://dc.lft.to/lastmile_qr_scan"}, "is_reserved": 0}, {"lon": -77.05264216666667, "bike_id": "8a5d37492da0329c655f69a1ed3e4b9a", "lat": 38.910159166666666, "fusion_lon": 0.0, "fusion_lat": 0.0, "type": "electric_scooter", "name": "8a5d37492da0329c655f69a1ed3e4b9a", "is_disabled": 0, "rental_uris": {"ios": "https://dc.lft.to/lastmile_qr_scan", "android": "https://dc.lft.to/lastmile_qr_scan"}, "is_reserved": 0}, {"lon": -77.05594883333333, "bike_id": "6ba642a42325d5cda29bd6a016ebe3ac", "lat": 38.9233785, "fusion_lon": 0.0, "fusion_lat": 0.0, "type": "electric_scooter", "name": "6ba642a42325d5cda29bd6a016ebe3ac", "is_disabled": 0, "rental_uris": {"ios": "https://dc.lft.to/lastmile_qr_scan", "android": "https://dc.lft.to/lastmile_qr_scan"}, "is_reserved": 0}, {"lon": -77.0248165, "bike_id": "8549c741dc4b55918c35d8b481880fd3", "lat": 38.938831666666665, "fusion_lon": 0.0, "fusion_lat": 0.0, "type": "electric_scooter", "name": "8549c741dc4b55918c35d8b481880fd3", "is_disabled": 0, "rental_uris": {"ios": "https://dc.lft.to/lastmile_qr_scan", "android": "https://dc.lft.to/lastmile_qr_scan"}, "is_reserved": 0}, {"lon": -77.05239133333333, "bike_id": "7b6149b53151050ccf2d39c1a2b20e2d", "lat": 38.924691, "fusion_lon": 0.0, "fusion_lat": 0.0, "type": "electric_scooter", "name": "7b6149b53151050ccf2d39c1a2b20e2d", "is_disabled": 0, "rental_uris": {"ios": "https://dc.lft.to/lastmile_qr_scan", "android": "https://dc.lft.to/lastmile_qr_scan"}, "is_reserved": 0}, {"lon": -77.02795, "bike_id": "48bf97bcd1bce6cc611eaca0ea053337", "lat": 38.956845, "fusion_lon": 0.0, "fusion_lat": 0.0, "type": "electric_scooter", "name": "48bf97bcd1bce6cc611eaca0ea053337", "is_disabled": 0, "rental_uris": {"ios": "https://dc.lft.to/lastmile_qr_scan", "android": "https://dc.lft.to/lastmile_qr_scan"}, "is_reserved": 0}, {"lon": -77.0339515, "bike_id": "96c8b90e1103153da5d03b7fcce78930", "lat": 38.899676666666664, "fusion_lon": 0.0, "fusion_lat": 0.0, "type": "electric_scooter", "name": "96c8b90e1103153da5d03b7fcce78930", "is_disabled": 0, "rental_uris": {"ios": "https://dc.lft.to/lastmile_qr_scan", "android": "https://dc.lft.to/lastmile_qr_scan"}, "is_reserved": 0}, {"lon": -77.02365083333333, "bike_id": "8dc57261f675809853c502cf31ebace9", "lat": 38.90386516666667, "fusion_lon": 0.0, "fusion_lat": 0.0, "type": "electric_scooter", "name": "8dc57261f675809853c502cf31ebace9", "is_disabled": 0, "rental_uris": {"ios": "https://dc.lft.to/lastmile_qr_scan", "android": "https://dc.lft.to/lastmile_qr_scan"}, "is_reserved": 0}, {"lon": -76.98837366666666, "bike_id": "c145593706980e631aa77cfc49163624", "lat": 38.900737, "fusion_lon": 0.0, "fusion_lat": 0.0, "type": "electric_scooter", "name": "c145593706980e631aa77cfc49163624", "is_disabled": 0, "rental_uris": {"ios": "https://dc.lft.to/lastmile_qr_scan", "android": "https://dc.lft.to/lastmile_qr_scan"}, "is_reserved": 0}, {"lon": -77.03873416666667, "bike_id": "d40e35929baf498d07f77791fade8efe", "lat": 38.9171105, "fusion_lon": 0.0, "fusion_lat": 0.0, "type": "electric_scooter", "name": "d40e35929baf498d07f77791fade8efe", "is_disabled": 0, "rental_uris": {"ios": "https://dc.lft.to/lastmile_qr_scan", "android": "https://dc.lft.to/lastmile_qr_scan"}, "is_reserved": 0}, {"lon": -77.0256435, "bike_id": "38a5b774c717ace241d31b8d67c5c54a", "lat": 38.9418465, "fusion_lon": 0.0, "fusion_lat": 0.0, "type": "electric_scooter", "name": "38a5b774c717ace241d31b8d67c5c54a", "is_disabled": 0, "rental_uris": {"ios": "https://dc.lft.to/lastmile_qr_scan", "android": "https://dc.lft.to/lastmile_qr_scan"}, "is_reserved": 0}, {"lon": -77.04022083333334, "bike_id": "0a927b660368b8e4a0c8526ccc766af1", "lat": 38.916139333333334, "fusion_lon": 0.0, "fusion_lat": 0.0, "type": "electric_scooter", "name": "0a927b660368b8e4a0c8526ccc766af1", "is_disabled": 0, "rental_uris": {"ios": "https://dc.lft.to/lastmile_qr_scan", "android": "https://dc.lft.to/lastmile_qr_scan"}, "is_reserved": 0}, {"lon": -77.02474066666667, "bike_id": "c56c5722837de90d110f1f732cb02ad7", "lat": 38.916922166666666, "fusion_lon": 0.0, "fusion_lat": 0.0, "type": "electric_scooter", "name": "c56c5722837de90d110f1f732cb02ad7", "is_disabled": 0, "rental_uris": {"ios": "https://dc.lft.to/lastmile_qr_scan", "android": "https://dc.lft.to/lastmile_qr_scan"}, "is_reserved": 0}, {"lon": -77.06082416666666, "bike_id": "0115819c3fce2472971de289db1aa9c8", "lat": 38.943825, "fusion_lon": 0.0, "fusion_lat": 0.0, "type": "electric_scooter", "name": "0115819c3fce2472971de289db1aa9c8", "is_disabled": 0, "rental_uris": {"ios": "https://dc.lft.to/lastmile_qr_scan", "android": "https://dc.lft.to/lastmile_qr_scan"}, "is_reserved": 0}, {"lon": -76.9837415, "bike_id": "127425bd5f2f8d971f354a702fe3227b", "lat": 38.89145216666667, "fusion_lon": 0.0, "fusion_lat": 0.0, "type": "electric_scooter", "name": "127425bd5f2f8d971f354a702fe3227b", "is_disabled": 0, "rental_uris": {"ios": "https://dc.lft.to/lastmile_qr_scan", "android": "https://dc.lft.to/lastmile_qr_scan"}, "is_reserved": 0}, {"lon": -76.98569766666667, "bike_id": "6905345849fdcd4392d8123c1d482048", "lat": 38.8961845, "fusion_lon": 0.0, "fusion_lat": 0.0, "type": "electric_scooter", "name": "6905345849fdcd4392d8123c1d482048", "is_disabled": 0, "rental_uris": {"ios": "https://dc.lft.to/lastmile_qr_scan", "android": "https://dc.lft.to/lastmile_qr_scan"}, "is_reserved": 0}, {"lon": -77.0318335, "bike_id": "ee5273240fcdc3f242d85b536658819f", "lat": 38.9360975, "fusion_lon": 0.0, "fusion_lat": 0.0, "type": "electric_scooter", "name": "ee5273240fcdc3f242d85b536658819f", "is_disabled": 0, "rental_uris": {"ios": "https://dc.lft.to/lastmile_qr_scan", "android": "https://dc.lft.to/lastmile_qr_scan"}, "is_reserved": 0}, {"lon": -77.026822, "bike_id": "58303a4f199a2f28f03e29ccc6c3e8ef", "lat": 38.8976155, "fusion_lon": 0.0, "fusion_lat": 0.0, "type": "electric_scooter", "name": "58303a4f199a2f28f03e29ccc6c3e8ef", "is_disabled": 0, "rental_uris": {"ios": "https://dc.lft.to/lastmile_qr_scan", "android": "https://dc.lft.to/lastmile_qr_scan"}, "is_reserved": 0}, {"lon": -77.000093, "bike_id": "fd4c477209694ddebf1ff7b39939b41d", "lat": 38.897394, "fusion_lon": 0.0, "fusion_lat": 0.0, "type": "electric_scooter", "name": "fd4c477209694ddebf1ff7b39939b41d", "is_disabled": 0, "rental_uris": {"ios": "https://dc.lft.to/lastmile_qr_scan", "android": "https://dc.lft.to/lastmile_qr_scan"}, "is_reserved": 0}, {"lon": -76.96498733333334, "bike_id": "b52d4526574c201b1d38f203c9756837", "lat": 38.876431833333335, "fusion_lon": 0.0, "fusion_lat": 0.0, "type": "electric_scooter", "name": "b52d4526574c201b1d38f203c9756837", "is_disabled": 0, "rental_uris": {"ios": "https://dc.lft.to/lastmile_qr_scan", "android": "https://dc.lft.to/lastmile_qr_scan"}, "is_reserved": 0}, {"lon": -77.10803983333334, "bike_id": "e7b50737c9f3a1b3a1268eb16e7bb02a", "lat": 38.812054833333335, "fusion_lon": 0.0, "fusion_lat": 0.0, "type": "electric_bike", "name": "e7b50737c9f3a1b3a1268eb16e7bb02a", "is_disabled": 0, "rental_uris": {"ios": "https://dc.lft.to/lastmile_qr_scan", "android": "https://dc.lft.to/lastmile_qr_scan"}, "is_reserved": 0}, {"lon": -76.99870966666667, "bike_id": "45cccbfd42cb57125e73c31ddf174d54", "lat": 38.90027083333333, "fusion_lon": 0.0, "fusion_lat": 0.0, "type": "electric_scooter", "name": "45cccbfd42cb57125e73c31ddf174d54", "is_disabled": 0, "rental_uris": {"ios": "https://dc.lft.to/lastmile_qr_scan", "android": "https://dc.lft.to/lastmile_qr_scan"}, "is_reserved": 0}, {"lon": -77.06018866666666, "bike_id": "f4616bff8f7bf22c1ff99ac7645d9a53", "lat": 38.9025695, "fusion_lon": 0.0, "fusion_lat": 0.0, "type": "electric_scooter", "name": "f4616bff8f7bf22c1ff99ac7645d9a53", "is_disabled": 0, "rental_uris": {"ios": "https://dc.lft.to/lastmile_qr_scan", "android": "https://dc.lft.to/lastmile_qr_scan"}, "is_reserved": 0}, {"lon": -77.03344666666666, "bike_id": "7d2d49d507ca55c72e28cd44000dfd50", "lat": 38.89235333333333, "fusion_lon": 0.0, "fusion_lat": 0.0, "type": "electric_scooter", "name": "7d2d49d507ca55c72e28cd44000dfd50", "is_disabled": 0, "rental_uris": {"ios": "https://dc.lft.to/lastmile_qr_scan", "android": "https://dc.lft.to/lastmile_qr_scan"}, "is_reserved": 0}, {"lon": -77.01073666666667, "bike_id": "40bd3ef5d2a20a492209a9e71aa7fe5a", "lat": 38.89446083333333, "fusion_lon": 0.0, "fusion_lat": 0.0, "type": "electric_scooter", "name": "40bd3ef5d2a20a492209a9e71aa7fe5a", "is_disabled": 0, "rental_uris": {"ios": "https://dc.lft.to/lastmile_qr_scan", "android": "https://dc.lft.to/lastmile_qr_scan"}, "is_reserved": 0}, {"lon": -77.0629995, "bike_id": "0ae925a6b9bee705ff9fea001c33610f", "lat": 38.906879333333336, "fusion_lon": 0.0, "fusion_lat": 0.0, "type": "electric_scooter", "name": "0ae925a6b9bee705ff9fea001c33610f", "is_disabled": 0, "rental_uris": {"ios": "https://dc.lft.to/lastmile_qr_scan", "android": "https://dc.lft.to/lastmile_qr_scan"}, "is_reserved": 0}, {"lon": -77.01320266666667, "bike_id": "0ee454d39c08a3c1856f6684a1cf37d6", "lat": 38.880439, "fusion_lon": 0.0, "fusion_lat": 0.0, "type": "electric_bike", "name": "0ee454d39c08a3c1856f6684a1cf37d6", "is_disabled": 0, "rental_uris": {"ios": "https://dc.lft.to/lastmile_qr_scan", "android": "https://dc.lft.to/lastmile_qr_scan"}, "is_reserved": 0}, {"lon": -76.98542983333333, "bike_id": "cc8d8b17aa90a750feb88ef969c1c3bb", "lat": 38.925019, "fusion_lon": 0.0, "fusion_lat": 0.0, "type": "electric_bike", "name": "cc8d8b17aa90a750feb88ef969c1c3bb", "is_disabled": 0, "rental_uris": {"ios": "https://dc.lft.to/lastmile_qr_scan", "android": "https://dc.lft.to/lastmile_qr_scan"}, "is_reserved": 0}, {"lon": -77.02498066666666, "bike_id": "2791e7eb74a9b608dcf1de6923a61750", "lat": 38.91985866666667, "fusion_lon": 0.0, "fusion_lat": 0.0, "type": "electric_scooter", "name": "2791e7eb74a9b608dcf1de6923a61750", "is_disabled": 0, "rental_uris": {"ios": "https://dc.lft.to/lastmile_qr_scan", "android": "https://dc.lft.to/lastmile_qr_scan"}, "is_reserved": 0}, {"lon": -76.98948833333333, "bike_id": "a75ad35d204f9aa7cf4616dc5eb57091", "lat": 38.89993066666667, "fusion_lon": 0.0, "fusion_lat": 0.0, "type": "electric_scooter", "name": "a75ad35d204f9aa7cf4616dc5eb57091", "is_disabled": 0, "rental_uris": {"ios": "https://dc.lft.to/lastmile_qr_scan", "android": "https://dc.lft.to/lastmile_qr_scan"}, "is_reserved": 0}, {"lon": -77.02520316666667, "bike_id": "8b6ae01a6d4f2af6d5e7d39842af16c7", "lat": 38.930981833333334, "fusion_lon": 0.0, "fusion_lat": 0.0, "type": "electric_scooter", "name": "8b6ae01a6d4f2af6d5e7d39842af16c7", "is_disabled": 0, "rental_uris": {"ios": "https://dc.lft.to/lastmile_qr_scan", "android": "https://dc.lft.to/lastmile_qr_scan"}, "is_reserved": 0}, {"lon": -77.01526433333333, "bike_id": "40832a1d3c07682c2210a62b15926875", "lat": 38.884955833333336, "fusion_lon": 0.0, "fusion_lat": 0.0, "type": "electric_scooter", "name": "40832a1d3c07682c2210a62b15926875", "is_disabled": 0, "rental_uris": {"ios": "https://dc.lft.to/lastmile_qr_scan", "android": "https://dc.lft.to/lastmile_qr_scan"}, "is_reserved": 0}, {"lon": -77.05184866666667, "bike_id": "7c4875bd2c0cbae873998e5c628eb624", "lat": 38.92395116666667, "fusion_lon": 0.0, "fusion_lat": 0.0, "type": "electric_scooter", "name": "7c4875bd2c0cbae873998e5c628eb624", "is_disabled": 0, "rental_uris": {"ios": "https://dc.lft.to/lastmile_qr_scan", "android": "https://dc.lft.to/lastmile_qr_scan"}, "is_reserved": 0}, {"lon": -77.02387383333334, "bike_id": "6cbb9e930a92a1c35ce9dfd81ad8665d", "lat": 38.909522, "fusion_lon": 0.0, "fusion_lat": 0.0, "type": "electric_scooter", "name": "6cbb9e930a92a1c35ce9dfd81ad8665d", "is_disabled": 0, "rental_uris": {"ios": "https://dc.lft.to/lastmile_qr_scan", "android": "https://dc.lft.to/lastmile_qr_scan"}, "is_reserved": 0}, {"lon": -77.03934066666666, "bike_id": "4beddade81c984d24aaaa5d773e893fe", "lat": 38.91570183333333, "fusion_lon": 0.0, "fusion_lat": 0.0, "type": "electric_scooter", "name": "4beddade81c984d24aaaa5d773e893fe", "is_disabled": 0, "rental_uris": {"ios": "https://dc.lft.to/lastmile_qr_scan", "android": "https://dc.lft.to/lastmile_qr_scan"}, "is_reserved": 0}, {"lon": -77.0303625, "bike_id": "2076d35cdfc6d6dd7395fc1e81138356", "lat": 38.9371925, "fusion_lon": 0.0, "fusion_lat": 0.0, "type": "electric_scooter", "name": "2076d35cdfc6d6dd7395fc1e81138356", "is_disabled": 0, "rental_uris": {"ios": "https://dc.lft.to/lastmile_qr_scan", "android": "https://dc.lft.to/lastmile_qr_scan"}, "is_reserved": 0}, {"lon": -77.074167, "bike_id": "8da8611a5669f758b36142a6b7f616b4", "lat": 38.9289025, "fusion_lon": 0.0, "fusion_lat": 0.0, "type": "electric_scooter", "name": "8da8611a5669f758b36142a6b7f616b4", "is_disabled": 0, "rental_uris": {"ios": "https://dc.lft.to/lastmile_qr_scan", "android": "https://dc.lft.to/lastmile_qr_scan"}, "is_reserved": 0}, {"lon": -77.000651, "bike_id": "ebcb8dde7b52bf5ecafc09500bccfb63", "lat": 38.90726016666667, "fusion_lon": 0.0, "fusion_lat": 0.0, "type": "electric_scooter", "name": "ebcb8dde7b52bf5ecafc09500bccfb63", "is_disabled": 0, "rental_uris": {"ios": "https://dc.lft.to/lastmile_qr_scan", "android": "https://dc.lft.to/lastmile_qr_scan"}, "is_reserved": 0}, {"lon": -77.0410815, "bike_id": "52a826a9b09cd46b335836ec264466a8", "lat": 38.90521016666667, "fusion_lon": 0.0, "fusion_lat": 0.0, "type": "electric_scooter", "name": "52a826a9b09cd46b335836ec264466a8", "is_disabled": 0, "rental_uris": {"ios": "https://dc.lft.to/lastmile_qr_scan", "android": "https://dc.lft.to/lastmile_qr_scan"}, "is_reserved": 0}, {"lon": -77.02261933333334, "bike_id": "a8c2c0cc0a908b13c0460374022785e5", "lat": 38.927392166666664, "fusion_lon": 0.0, "fusion_lat": 0.0, "type": "electric_scooter", "name": "a8c2c0cc0a908b13c0460374022785e5", "is_disabled": 0, "rental_uris": {"ios": "https://dc.lft.to/lastmile_qr_scan", "android": "https://dc.lft.to/lastmile_qr_scan"}, "is_reserved": 0}, {"lon": -77.0239515, "bike_id": "1838df11decc9951d4f5cbe5f72ed9a4", "lat": 38.933209, "fusion_lon": 0.0, "fusion_lat": 0.0, "type": "electric_scooter", "name": "1838df11decc9951d4f5cbe5f72ed9a4", "is_disabled": 0, "rental_uris": {"ios": "https://dc.lft.to/lastmile_qr_scan", "android": "https://dc.lft.to/lastmile_qr_scan"}, "is_reserved": 0}, {"lon": -76.98061983333334, "bike_id": "c4ed7043ec572ed02e9b66f3a82cd7b7", "lat": 38.88495283333334, "fusion_lon": 0.0, "fusion_lat": 0.0, "type": "electric_scooter", "name": "c4ed7043ec572ed02e9b66f3a82cd7b7", "is_disabled": 0, "rental_uris": {"ios": "https://dc.lft.to/lastmile_qr_scan", "android": "https://dc.lft.to/lastmile_qr_scan"}, "is_reserved": 0}, {"lon": -76.945987, "bike_id": "aa51a6334b0f98e8ce2b636197698a75", "lat": 38.901631, "fusion_lon": 0.0, "fusion_lat": 0.0, "type": "electric_scooter", "name": "aa51a6334b0f98e8ce2b636197698a75", "is_disabled": 0, "rental_uris": {"ios": "https://dc.lft.to/lastmile_qr_scan", "android": "https://dc.lft.to/lastmile_qr_scan"}, "is_reserved": 0}, {"lon": -77.08805883333333, "bike_id": "07bb7983092b7d39e92eba3506139623", "lat": 38.91177583333333, "fusion_lon": 0.0, "fusion_lat": 0.0, "type": "electric_scooter", "name": "07bb7983092b7d39e92eba3506139623", "is_disabled": 0, "rental_uris": {"ios": "https://dc.lft.to/lastmile_qr_scan", "android": "https://dc.lft.to/lastmile_qr_scan"}, "is_reserved": 0}, {"lon": -77.0031555, "bike_id": "560a1fba62cd4de5714fcab79903c9e5", "lat": 38.919064, "fusion_lon": 0.0, "fusion_lat": 0.0, "type": "electric_scooter", "name": "560a1fba62cd4de5714fcab79903c9e5", "is_disabled": 0, "rental_uris": {"ios": "https://dc.lft.to/lastmile_qr_scan", "android": "https://dc.lft.to/lastmile_qr_scan"}, "is_reserved": 0}, {"lon": -77.03230516666666, "bike_id": "3412797189e32ab784832c6d1f1407f2", "lat": 38.92747683333333, "fusion_lon": 0.0, "fusion_lat": 0.0, "type": "electric_scooter", "name": "3412797189e32ab784832c6d1f1407f2", "is_disabled": 0, "rental_uris": {"ios": "https://dc.lft.to/lastmile_qr_scan", "android": "https://dc.lft.to/lastmile_qr_scan"}, "is_reserved": 0}, {"lon": -77.0848975, "bike_id": "cec5b9fdd7df88994abf46ed4dc413d9", "lat": 38.84849483333333, "fusion_lon": 0.0, "fusion_lat": 0.0, "type": "electric_bike", "name": "cec5b9fdd7df88994abf46ed4dc413d9", "is_disabled": 0, "rental_uris": {"ios": "https://dc.lft.to/lastmile_qr_scan", "android": "https://dc.lft.to/lastmile_qr_scan"}, "is_reserved": 0}, {"lon": -76.98917483333334, "bike_id": "9212ba5ce83a857a25473b996f08b17c", "lat": 38.86490216666667, "fusion_lon": 0.0, "fusion_lat": 0.0, "type": "electric_scooter", "name": "9212ba5ce83a857a25473b996f08b17c", "is_disabled": 0, "rental_uris": {"ios": "https://dc.lft.to/lastmile_qr_scan", "android": "https://dc.lft.to/lastmile_qr_scan"}, "is_reserved": 0}, {"lon": -77.03994633333333, "bike_id": "90c3511d3c5575fb4167ed6003ee64dc", "lat": 38.934336333333334, "fusion_lon": 0.0, "fusion_lat": 0.0, "type": "electric_scooter", "name": "90c3511d3c5575fb4167ed6003ee64dc", "is_disabled": 0, "rental_uris": {"ios": "https://dc.lft.to/lastmile_qr_scan", "android": "https://dc.lft.to/lastmile_qr_scan"}, "is_reserved": 0},