{"data": {"bikes": [{"fusion_lon": 0.0, "bike_id": "8b8401250c7db886722d6198fbac8cfd", "is_disabled": 0, "is_reserved": 0, "lat": 38.928708666666665, "name": "8b8401250c7db886722d6198fbac8cfd", "rental_uris": {"ios": "https://dc.lft.to/lastmile_qr_scan", "android": "https://dc.lft.to/lastmile_qr_scan"}, "type": "electric_scooter", "fusion_lat": 0.0, "lon": -77.01407933333333}, {"fusion_lon": 0.0, "bike_id": "51858499c85bf4e914cc9f87bc90db34", "is_disabled": 0, "is_reserved": 0, "lat": 38.9358985, "name": "51858499c85bf4e914cc9f87bc90db34", "rental_uris": {"ios": "https://dc.lft.to/lastmile_qr_scan", "android": "https://dc.lft.to/lastmile_qr_scan"}, "type": "electric_bike", "fusion_lat": 0.0, "lon": -77.0212635}, {"fusion_lon": 0.0, "bike_id": "89fe693a3d543cd58a000f7df867b1ab", "is_disabled": 0, "is_reserved": 0, "lat": 38.9518665, "name": "89fe693a3d543cd58a000f7df867b1ab", "rental_uris": {"ios": "https://dc.lft.to/lastmile_qr_scan", "android": "https://dc.lft.to/lastmile_qr_scan"}, "type": "electric_bike", "fusion_lat": 0.0, "lon": -76.93545266666666}, {"fusion_lon": 0.0, "bike_id": "ffc95921500be2f2ded5f546bddc56ad", "is_disabled": 0, "is_reserved": 0, "lat": 38.925089, "name": "ffc95921500be2f2ded5f546bddc56ad", "rental_uris": {"ios": "https://dc.lft.to/lastmile_qr_scan", "android": "https://dc.lft.to/lastmile_qr_scan"}, "type": "electric_scooter", "fusion_lat": 0.0, "lon": -77.02576416666666}, {"fusion_lon": 0.0, "bike_id": "ab31cc4b3ae318f4e74e9bb879bccae5", "is_disabled": 0, "is_reserved": 0, "lat": 38.8922535, "name": "ab31cc4b3ae318f4e74e9bb879bccae5", "rental_uris": {"ios": "https://dc.lft.to/lastmile_qr_scan", "android": "https://dc.lft.to/lastmile_qr_scan"}, "type": "electric_scooter", "fusion_lat": 0.0, "lon": -77.0398715}, {"fusion_lon": 0.0, "bike_id": "c160b22bd9bc477afa50aaa95353583f", "is_disabled": 0, "is_reserved": 0, "lat": 38.91824316666667, "name": "c160b22bd9bc477afa50aaa95353583f", "rental_uris": {"ios": "https://dc.lft.to/lastmile_qr_scan", "android": "https://dc.lft.to/lastmile_qr_scan"}, "type": "electric_scooter", "fusion_lat": 0.0, "lon": -77.04001683333334}, {"fusion_lon": 0.0, "bike_id": "7ffc8379948d738af3b4696d186168fd", "is_disabled": 0, "is_reserved": 0, "lat": 38.92382833333333, "name": "7ffc8379948d738af3b4696d186168fd", "rental_uris": {"ios": "https://dc.lft.to/lastmile_qr_scan", "android": "https://dc.lft.to/lastmile_qr_scan"}, "type": "electric_scooter", "fusion_lat": 0.0, "lon": -77.08063583333333}, {"fusion_lon": 0.0, "bike_id": "2de5c9b220a6fda9e23ea16ff56e1a45", "is_disabled": 0, "is_reserved": 0, "lat": 38.911145833333336, "name": "2de5c9b220a6fda9e23ea16ff56e1a45", "rental_uris": {"ios": "https://dc.lft.to/lastmile_qr_scan", "android": "https://dc.lft.to/lastmile_qr_scan"}, "type": "electric_scooter", "fusion_lat": 0.0, "lon": -77.03267183333334}, {"fusion_lon": 0.0, "bike_id": "600d7b62de89f79939753cb28d08b900", "is_disabled": 0, "is_reserved": 0, "lat": 38.9103295, "name": "600d7b62de89f79939753cb28d08b900", "rental_uris": {"ios": "https://dc.lft.to/lastmile_qr_scan", "android": "https://dc.lft.to/lastmile_qr_scan"}, "type": "electric_scooter", "fusion_lat": 0.0, "lon": -76.990937}, {"fusion_lon": 0.0, "bike_id": "5b54e5249083d04b538faf33b7c3686d", "is_disabled": 0, "is_reserved": 0, "lat": 38.8961435, "name": "5b54e5249083d04b538faf33b7c3686d", "rental_uris": {"ios": "https://dc.lft.to/lastmile_qr_scan", "android": "https://dc.lft.to/lastmile_qr_scan"}, "type": "electric_scooter", "fusion_lat": 0.0, "lon": -77.00561983333333}, {"fusion_lon": 0.0, "bike_id": "10570551c449968d51a87d6b988e4483", "is_disabled": 0, "is_reserved": 0, "lat": 38.9471935, "name": "10570551c449968d51a87d6b988e4483", "rental_uris": {"ios": "https://dc.lft.to/lastmile_qr_scan", "android": "https://dc.lft.to/lastmile_qr_scan"}, "type": "electric_bike", "fusion_lat": 0.0, "lon": -77.098785}, {"fusion_lon": 0.0, "bike_id": "3128e4748c1696667052c65178a8709f", "is_disabled": 0, "is_reserved": 0, "lat": 38.836922, "name": "3128e4748c1696667052c65178a8709f", "rental_uris": {"ios": "https://dc.lft.to/lastmile_qr_scan", "android": "https://dc.lft.to/lastmile_qr_scan"}, "type": "electric_bike", "fusion_lat": 0.0, "lon": -77.1030855}, {"fusion_lon": 0.0, "bike_id": "82068e7f6dd7521aeba480207b40edd2", "is_disabled": 0, "is_reserved": 0, "lat": 38.980113833333334, "name": "82068e7f6dd7521aeba480207b40edd2", "rental_uris": {"ios": "https://dc.lft.to/lastmile_qr_scan", "android": "https://dc.lft.to/lastmile_qr_scan"}, "type": "electric_bike", "fusion_lat": 0.0, "lon": -77.06412016666667}, {"fusion_lon": 0.0, "bike_id": "b5043eeffe794b9c25e6d0eec7df7206", "is_disabled": 0, "is_reserved": 0, "lat": 38.92750783333334, "name": "b5043eeffe794b9c25e6d0eec7df7206", "rental_uris": {"ios": "https://dc.lft.to/lastmile_qr_scan", "android": "https://dc.lft.to/lastmile_qr_scan"}, "type": "electric_scooter", "fusion_lat": 0.0, "lon": -77.03362683333333}, {"fusion_lon": 0.0, "bike_id": "c5844b8a9ea796c198d7ccf25dfb973e", "is_disabled": 0, "is_reserved": 0, "lat": 38.8959615, "name": "c5844b8a9ea796c198d7ccf25dfb973e", "rental_uris": {"ios": "https://dc.lft.to/lastmile_qr_scan", "android": "https://dc.lft.to/lastmile_qr_scan"}, "type": "electric_scooter", "fusion_lat": 0.0, "lon": -77.00898216666667}, {"fusion_lon": 0.0, "bike_id": "6a18f10463842c8d72f6208e07dea157", "is_disabled": 0, "is_reserved": 0, "lat": 38.90080533333333, "name": "6a18f10463842c8d72f6208e07dea157", "rental_uris": {"ios": "https://dc.lft.to/lastmile_qr_scan", "android": "https://dc.lft.to/lastmile_qr_scan"}, "type": "electric_scooter", "fusion_lat": 0.0, "lon": -77.05068566666667}, {"fusion_lon": 0.0, "bike_id": "ba00877b719d1daa58454c888cedc161", "is_disabled": 0, "is_reserved": 0, "lat": 38.916549, "name": "ba00877b719d1daa58454c888cedc161", "rental_uris": {"ios": "https://dc.lft.to/lastmile_qr_scan", "android": "https://dc.lft.to/lastmile_qr_scan"}, "type": "electric_scooter", "fusion_lat": 0.0, "lon": -77.0227605}, {"fusion_lon": 0.0, "bike_id": "3e1dd69bec14d3c3b25b70b5a7f692d2", "is_disabled": 0, "is_reserved": 0, "lat": 38.922058166666666, "name": "3e1dd69bec14d3c3b25b70b5a7f692d2", "rental_uris": {"ios": "https://dc.lft.to/lastmile_qr_scan", "android": "https://dc.lft.to/lastmile_qr_scan"}, "type": "electric_scooter", "fusion_lat": 0.0, "lon": -77.04258233333333}, {"fusion_lon": 0.0, "bike_id": "9f90479ed73017367d7d9add5841d68b", "is_disabled": 0, "is_reserved": 0, "lat": 38.9265815, "name": "9f90479ed73017367d7d9add5841d68b", "rental_uris": {"ios": "https://dc.lft.to/lastmile_qr_scan", "android": "https://dc.lft.to/lastmile_qr_scan"}, "type": "electric_scooter", "fusion_lat": 0.0, "lon": -77.03724016666666}, {"fusion_lon": 0.0, "bike_id": "370d40bafc38c1a5925748f816b0975e", "is_disabled": 0, "is_reserved": 0, "lat": 38.91103416666667, "name": "370d40bafc38c1a5925748f816b0975e", "rental_uris": {"ios": "https://dc.lft.to/lastmile_qr_scan", "android": "https://dc.lft.to/lastmile_qr_scan"}, "type": "electric_scooter", "fusion_lat": 0.0, "lon": -77.00937533333334}, {"fusion_lon": 0.0, "bike_id": "2832211d4ac127bbf9d9733835aa9295", "is_disabled": 0, "is_reserved": 0, "lat": 38.935399, "name": "2832211d4ac127bbf9d9733835aa9295", "rental_uris": {"ios": "https://dc.lft.to/lastmile_qr_scan", "android": "https://dc.lft.to/lastmile_qr_scan"}, "type": "electric_scooter", "fusion_lat": 0.0, "lon": -77.0309035}, {"fusion_lon": 0.0, "bike_id": "e3a5119e026e146d04b4145559f557e1", "is_disabled": 0, "is_reserved": 0, "lat": 38.923640166666665, "name": "e3a5119e026e146d04b4145559f557e1", "rental_uris": {"ios": "https://dc.lft.to/lastmile_qr_scan", "android": "https://dc.lft.to/lastmile_qr_scan"}, "type": "electric_scooter", "fusion_lat": 0.0, "lon": -77.01962733333333}, {"fusion_lon": 0.0, "bike_id": "723705ad0ed7159cd080d527aa705355", "is_disabled": 0, "is_reserved": 0, "lat": 38.933232333333336, "name": "723705ad0ed7159cd080d527aa705355", "rental_uris": {"ios": "https://dc.lft.to/lastmile_qr_scan", "android": "https://dc.lft.to/lastmile_qr_scan"}, "type": "electric_scooter", "fusion_lat": 0.0, "lon": -77.07258366666667}, {"fusion_lon": 0.0, "bike_id": "7f1eaf64bbb39c6b03eddd97ddb5e7ca", "is_disabled": 0, "is_reserved": 0, "lat": 38.905077166666665, "name": "7f1eaf64bbb39c6b03eddd97ddb5e7ca", "rental_uris": {"ios": "https://dc.lft.to/lastmile_qr_scan", "android": "https://dc.lft.to/lastmile_qr_scan"}, "type": "electric_scooter", "fusion_lat": 0.0, "lon": -76.98482916666667}, {"fusion_lon": 0.0, "bike_id": "de8de580f9fdbddc3ec883356e5c41e7", "is_disabled": 0, "is_reserved": 0, "lat": 38.878642, "name": "de8de580f9fdbddc3ec883356e5c41e7", "rental_uris": {"ios": "https://dc.lft.to/lastmile_qr_scan", "android": "https://dc.lft.to/lastmile_qr_scan"}, "type": "electric_scooter", "fusion_lat": 0.0, "lon": -77.00702966666667}, {"fusion_lon": 0.0, "bike_id": "32e1e2cdbdc6b7436b94bcc3395d8049", "is_disabled": 0, "is_reserved": 0, "lat": 38.91314666666667, "name": "32e1e2cdbdc6b7436b94bcc3395d8049", "rental_uris": {"ios": "https://dc.lft.to/lastmile_qr_scan", "android": "https://dc.lft.to/lastmile_qr_scan"}, "type": "electric_scooter", "fusion_lat": 0.0, "lon": -77.06228216666666}, {"fusion_lon": 0.0, "bike_id": "d8796623359707e321d1e8a9d19dd825", "is_disabled": 0, "is_reserved": 0, "lat": 38.935774, "name": "d8796623359707e321d1e8a9d19dd825", "rental_uris": {"ios": "https://dc.lft.to/lastmile_qr_scan", "android": "https://dc.lft.to/lastmile_qr_scan"}, "type": "electric_scooter", "fusion_lat": 0.0, "lon": -77.0328455}, {"fusion_lon": 0.0, "bike_id": "f4b48f68c4f5404a28811430c9d50271", "is_disabled": 0, "is_reserved": 0, "lat": 38.96736533333333, "name": "f4b48f68c4f5404a28811430c9d50271", "rental_uris": {"ios": "https://dc.lft.to/lastmile_qr_scan", "android": "https://dc.lft.to/lastmile_qr_scan"}, "type": "electric_bike", "fusion_lat": 0.0, "lon": -76.96046916666667}, {"fusion_lon": 0.0, "bike_id": "c60251b9a8905f2c36f3f840fc235ea5", "is_disabled": 0, "is_reserved": 0, "lat": 38.91474483333333, "name": "c60251b9a8905f2c36f3f840fc235ea5", "rental_uris": {"ios": "https://dc.lft.to/lastmile_qr_scan", "android": "https://dc.lft.to/lastmile_qr_scan"}, "type": "electric_scooter", "fusion_lat": 0.0, "lon": -77.00208966666666}, {"fusion_lon": 0.0, "bike_id": "6ced7081e81b316e05421cf4437436c6", "is_disabled": 0, "is_reserved": 0, "lat": 38.900682833333335, "name": "6ced7081e81b316e05421cf4437436c6", "rental_uris": {"ios": "https://dc.lft.to/lastmile_qr_scan", "android": "https://dc.lft.to/lastmile_qr_scan"}, "type": "electric_scooter", "fusion_lat": 0.0, "lon": -77.04633833333334}, {"fusion_lon": 0.0, "bike_id": "9a895dbc8955626bcefd102d84d9b1a0", "is_disabled": 0, "is_reserved": 0, "lat": 38.89744266666666, "name": "9a895dbc8955626bcefd102d84d9b1a0", "rental_uris": {"ios": "https://dc.lft.to/lastmile_qr_scan", "android": "https://dc.lft.to/lastmile_qr_scan"}, "type": "electric_scooter", "fusion_lat": 0.0, "lon": -77.02098466666666}, {"fusion_lon": 0.0, "bike_id": "37023b850fc4443d63bfcfc70e218593", "is_disabled": 0, "is_reserved": 0, "lat": 38.875483833333334, "name": "37023b850fc4443d63bfcfc70e218593", "rental_uris": {"ios": "https://dc.lft.to/lastmile_qr_scan", "android": "https://dc.lft.to/lastmile_qr_scan"}, "type": "electric_scooter", "fusion_lat": 0.0, "lon": -77.00540366666667}, {"fusion_lon": 0.0, "bike_id": "715c425eff9a9e69dc6ce823695992c2", "is_disabled": 0, "is_reserved": 0, "lat": 38.881250666666666, "name": "715c425eff9a9e69dc6ce823695992c2", "rental_uris": {"ios": "https://dc.lft.to/lastmile_qr_scan", "android": "https://dc.lft.to/lastmile_qr_scan"}, "type": "electric_bike", "fusion_lat": 0.0, "lon": -76.9979645}, {"fusion_lon": 0.0, "bike_id": "f30550650090a6859325e90ddcd23a57", "is_disabled": 0, "is_reserved": 0, "lat": 38.9527235, "name": "f30550650090a6859325e90ddcd23a57", "rental_uris": {"ios": "https://dc.lft.to/lastmile_qr_scan", "android": "https://dc.lft.to/lastmile_qr_scan"}, "type": "electric_scooter", "fusion_lat": 0.0, "lon": -77.01772666666666}, {"fusion_lon": 0.0, "bike_id": "840ed41a679fcbc481b028a0447c9e63", "is_disabled": 0, "is_reserved": 0, "lat": 38.91114, "name": "840ed41a679fcbc481b028a0447c9e63", "rental_uris": {"ios": "https://dc.lft.to/lastmile_qr_scan", "android": "https://dc.lft.to/lastmile_qr_scan"}, "type": "electric_scooter", "fusion_lat": 0.0, "lon": -77.03830733333334}, {"fusion_lon": 0.0, "bike_id": "995ff0bd8a9cef8fbf773f90da1564c5", "is_disabled": 0, "is_reserved": 0, "lat": 38.922390666666665, "name": "995ff0bd8a9cef8fbf773f90da1564c5", "rental_uris": {"ios": "https://dc.lft.to/lastmile_qr_scan", "android": "https://dc.lft.to/lastmile_qr_scan"}, "type": "electric_scooter", "fusion_lat": 0.0, "lon": -77.035277}, {"fusion_lon": 0.0, "bike_id": "972ebc3957647cac0b116557d127786c", "is_disabled": 0, "is_reserved": 0, "lat": 38.950784, "name": "972ebc3957647cac0b116557d127786c", "rental_uris": {"ios": "https://dc.lft.to/lastmile_qr_scan", "android": "https://dc.lft.to/lastmile_qr_scan"}, "type": "electric_bike", "fusion_lat": 0.0, "lon": -77.01202466666666}, {"fusion_lon": 0.0, "bike_id": "8b045eab0fb828a56eabb2a9fdfccafe", "is_disabled": 0, "is_reserved": 0, "lat": 39.0053715, "name": "8b045eab0fb828a56eabb2a9fdfccafe", "rental_uris": {"ios": "https://dc.lft.to/lastmile_qr_scan", "android": "https://dc.lft.to/lastmile_qr_scan"}, "type": "electric_bike", "fusion_lat": 0.0, "lon": -77.10402283333333}, {"fusion_lon": 0.0, "bike_id": "1ebce9ca5d2276f8145737843d9d55b2", "is_disabled": 0, "is_reserved": 0, "lat": 38.912529, "name": "1ebce9ca5d2276f8145737843d9d55b2", "rental_uris": {"ios": "https://dc.lft.to/lastmile_qr_scan", "android": "https://dc.lft.to/lastmile_qr_scan"}, "type": "electric_scooter", "fusion_lat": 0.0, "lon": -77.03218866666667}, {"fusion_lon": 0.0, "bike_id": "e6bce08742f422b6ec7fff08e8798bbb", "is_disabled": 0, "is_reserved": 0, "lat": 38.87742183333334, "name": "e6bce08742f422b6ec7fff08e8798bbb", "rental_uris": {"ios": "https://dc.lft.to/lastmile_qr_scan", "android": "https://dc.lft.to/lastmile_qr_scan"}, "type": "electric_bike", "fusion_lat": 0.0, "lon": -77.14871433333333}, {"fusion_lon": 0.0, "bike_id": "ad5812e1b1380e9b6b6abecf9490eb3e", "is_disabled": 0, "is_reserved": 0, "lat": 38.9162665, "name": "ad5812e1b1380e9b6b6abecf9490eb3e", "rental_uris": {"ios": "https://dc.lft.to/lastmile_qr_scan", "android": "https://dc.lft.to/lastmile_qr_scan"}, "type": "electric_scooter", "fusion_lat": 0.0, "lon": -77.02559383333333}, {"fusion_lon": 0.0, "bike_id": "fe6dbcf0eebae1e1d43a6f956b9bc658", "is_disabled": 0, "is_reserved": 0, "lat": 38.895568833333336, "name": "fe6dbcf0eebae1e1d43a6f956b9bc658", "rental_uris": {"ios": "https://dc.lft.to/lastmile_qr_scan", "android": "https://dc.lft.to/lastmile_qr_scan"}, "type": "electric_scooter", "fusion_lat": 0.0, "lon": -77.00921033333333}, {"fusion_lon": 0.0, "bike_id": "ec271a9e47053d278b5a4802e2310b7f", "is_disabled": 0, "is_reserved": 0, "lat": 38.90603766666667, "name": "ec271a9e47053d278b5a4802e2310b7f", "rental_uris": {"ios": "https://dc.lft.to/lastmile_qr_scan", "android": "https://dc.lft.to/lastmile_qr_scan"}, "type": "electric_scooter", "fusion_lat": 0.0, "lon": -77.03413516666667}, {"fusion_lon": 0.0, "bike_id": "1319436b567dc9dbc1418b5d3d706bcd", "is_disabled": 0, "is_reserved": 0, "lat": 38.935955666666665, "name": "1319436b567dc9dbc1418b5d3d706bcd", "rental_uris": {"ios": "https://dc.lft.to/lastmile_qr_scan", "android": "https://dc.lft.to/lastmile_qr_scan"}, "type": "electric_scooter", "fusion_lat": 0.0, "lon": -77.03501166666666}, {"fusion_lon": 0.0, "bike_id": "f68112f576dc5d33f4d00bb1ef0f3077", "is_disabled": 0, "is_reserved": 0, "lat": 38.93750716666667, "name": "f68112f576dc5d33f4d00bb1ef0f3077", "rental_uris": {"ios": "https://dc.lft.to/lastmile_qr_scan", "android": "https://dc.lft.to/lastmile_qr_scan"}, "type": "electric_scooter", "fusion_lat": 0.0, "lon": -77.03434116666666}, {"fusion_lon": 0.0, "bike_id": "d0b7a42448267a214ce515d7d56f952b", "is_disabled": 0, "is_reserved": 0, "lat": 38.907573166666666, "name": "d0b7a42448267a214ce515d7d56f952b", "rental_uris": {"ios": "https://dc.lft.to/lastmile_qr_scan", "android": "https://dc.lft.to/lastmile_qr_scan"}, "type": "electric_scooter", "fusion_lat": 0.0, "lon": -77.0169575}, {"fusion_lon": 0.0, "bike_id": "4bf2e9e346b10f0f6554f293630f71bb", "is_disabled": 0, "is_reserved": 0, "lat": 38.91217866666667, "name": "4bf2e9e346b10f0f6554f293630f71bb", "rental_uris": {"ios": "https://dc.lft.to/lastmile_qr_scan", "android": "https://dc.lft.to/lastmile_qr_scan"}, "type": "electric_scooter", "fusion_lat": 0.0, "lon": -77.07595516666666}, {"fusion_lon": 0.0, "bike_id": "1a4d06f65eb9a703ff407d0b04299754", "is_disabled": 0, "is_reserved": 0, "lat": 38.94185983333333, "name": "1a4d06f65eb9a703ff407d0b04299754", "rental_uris": {"ios": "https://dc.lft.to/lastmile_qr_scan", "android": "https://dc.lft.to/lastmile_qr_scan"}, "type": "electric_scooter", "fusion_lat": 0.0, "lon": -77.02403916666667}, {"fusion_lon": 0.0, "bike_id": "65feb3011917d74dc59b288ec49e94f4", "is_disabled": 0, "is_reserved": 0, "lat": 38.908311, "name": "65feb3011917d74dc59b288ec49e94f4", "rental_uris": {"ios": "https://dc.lft.to/lastmile_qr_scan", "android": "https://dc.lft.to/lastmile_qr_scan"}, "type": "electric_scooter", "fusion_lat": 0.0, "lon": -76.99183766666667}, {"fusion_lon": 0.0, "bike_id": "0915a9af5f0c66bd40619ad64b344718", "is_disabled": 0, "is_reserved": 0, "lat": 38.93007016666667, "name": "0915a9af5f0c66bd40619ad64b344718", "rental_uris": {"ios": "https://dc.lft.to/lastmile_qr_scan", "android": "https://dc.lft.to/lastmile_qr_scan"}, "type": "electric_scooter", "fusion_lat": 0.0, "lon": -77.03275383333333}, {"fusion_lon": 0.0, "bike_id": "8101fc1195165ea4f9c0e1dd468ef5a0", "is_disabled": 0, "is_reserved": 0, "lat": 38.833015833333334, "name": "8101fc1195165ea4f9c0e1dd468ef5a0", "rental_uris": {"ios": "https://dc.lft.to/lastmile_qr_scan", "android": "https://dc.lft.to/lastmile_qr_scan"}, "type": "electric_bike", "fusion_lat": 0.0, "lon": -77.08411}, {"fusion_lon": 0.0, "bike_id": "c8b92be39946591c02721e26e3a60fd4", "is_disabled": 0, "is_reserved": 0, "lat": 38.901429666666665, "name": "c8b92be39946591c02721e26e3a60fd4", "rental_uris": {"ios": "https://dc.lft.to/lastmile_qr_scan", "android": "https://dc.lft.to/lastmile_qr_scan"}, "type": "electric_scooter", "fusion_lat": 0.0, "lon": -77.02740116666666}, {"fusion_lon": 0.0, "bike_id": "a245f257444f1aa1676de352b3c79135", "is_disabled": 0, "is_reserved": 0, "lat": 38.89614666666667, "name": "a245f257444f1aa1676de352b3c79135", "rental_uris": {"ios": "https://dc.lft.to/lastmile_qr_scan", "android": "https://dc.lft.to/lastmile_qr_scan"}, "type": "electric_scooter", "fusion_lat": 0.0, "lon": -77.02207083333333}, {"fusion_lon": 0.0, "bike_id": "a570ac23a1b9cec0ecb3fd52c0e06359", "is_disabled": 0, "is_reserved": 0, "lat": 38.898491, "name": "a570ac23a1b9cec0ecb3fd52c0e06359", "rental_uris": {"ios": "https://dc.lft.to/lastmile_qr_scan", "android": "https://dc.lft.to/lastmile_qr_scan"}, "type": "electric_scooter", "fusion_lat": 0.0, "lon": -76.92750683333334}, {"fusion_lon": 0.0, "bike_id": "bfdecf97ec42065571487229a2b1045c", "is_disabled": 0, "is_reserved": 0, "lat": 38.8369525, "name": "bfdecf97ec42065571487229a2b1045c", "rental_uris": {"ios": "https://dc.lft.to/lastmile_qr_scan", "android": "https://dc.lft.to/lastmile_qr_scan"}, "type": "electric_bike", "fusion_lat": 0.0, "lon": -77.05721316666667}, {"fusion_lon": 0.0, "bike_id": "f8d4f47455a55c496560b6ca8988da7a", "is_disabled": 0, "is_reserved": 0, "lat": 38.93777033333333, "name": "f8d4f47455a55c496560b6ca8988da7a", "rental_uris": {"ios": "https://dc.lft.to/lastmile_qr_scan", "android": "https://dc.lft.to/lastmile_qr_scan"}, "type": "electric_scooter", "fusion_lat": 0.0, "lon": -76.99307416666667}, {"fusion_lon": 0.0, "bike_id": "3b2ce710ff2801ba82f560253cf6535d", "is_disabled": 0, "is_reserved": 0, "lat": 38.90812433333333, "name": "3b2ce710ff2801ba82f560253cf6535d", "rental_uris": {"ios": "https://dc.lft.to/lastmile_qr_scan", "android": "https://dc.lft.to/lastmile_qr_scan"}, "type": "electric_scooter", "fusion_lat": 0.0, "lon": -77.003471}, {"fusion_lon": 0.0, "bike_id": "425e84dc3fb1fe1f59713854bfec2e92", "is_disabled": 0, "is_reserved": 0, "lat": 38.922499333333334, "name": "425e84dc3fb1fe1f59713854bfec2e92", "rental_uris": {"ios": "https://dc.lft.to/lastmile_qr_scan", "android": "https://dc.lft.to/lastmile_qr_scan"}, "type": "electric_scooter", "fusion_lat": 0.0, "lon": -77.01969733333334}, {"fusion_lon": 0.0, "bike_id": "d4d25db64f3c60794c1738fcfa9b03d7", "is_disabled": 0, "is_reserved": 0, "lat": 38.91582016666667, "name": "d4d25db64f3c60794c1738fcfa9b03d7", "rental_uris": {"ios": "https://dc.lft.to/lastmile_qr_scan", "android": "https://dc.lft.to/lastmile_qr_scan"}, "type": "electric_scooter", "fusion_lat": 0.0, "lon": -77.03184366666666}, {"fusion_lon": 0.0, "bike_id": "1b6a6d1e39173afacb601aceeb783509", "is_disabled": 0, "is_reserved": 0, "lat": 38.899764, "name": "1b6a6d1e39173afacb601aceeb783509", "rental_uris": {"ios": "https://dc.lft.to/lastmile_qr_scan", "android": "https://dc.lft.to/lastmile_qr_scan"}, "type": "electric_scooter", "fusion_lat": 0.0, "lon": -77.049031}, {"fusion_lon": 0.0, "bike_id": "9ee15127aaed2d611bf2284110dd2cad", "is_disabled": 0, "is_reserved": 0, "lat": 38.90068016666667, "name": "9ee15127aaed2d611bf2284110dd2cad", "rental_uris": {"ios": "https://dc.lft.to/lastmile_qr_scan", "android": "https://dc.lft.to/lastmile_qr_scan"}, "type": "electric_scooter", "fusion_lat": 0.0, "lon": -77.04540666666666}, {"fusion_lon": 0.0, "bike_id": "cfabe48fc0f1bea1d5c108f568b25f07", "is_disabled": 0, "is_reserved": 0, "lat": 38.9215235, "name": "cfabe48fc0f1bea1d5c108f568b25f07", "rental_uris": {"ios": "https://dc.lft.to/lastmile_qr_scan", "android": "https://dc.lft.to/lastmile_qr_scan"}, "type": "electric_scooter", "fusion_lat": 0.0, "lon": -77.04242433333333}, {"fusion_lon": 0.0, "bike_id": "6064dc6182151fe89228448b446609bb", "is_disabled": 0, "is_reserved": 0, "lat": 38.92429666666666, "name": "6064dc6182151fe89228448b446609bb", "rental_uris": {"ios": "https://dc.lft.to/lastmile_qr_scan", "android": "https://dc.lft.to/lastmile_qr_scan"}, "type": "electric_scooter", "fusion_lat": 0.0, "lon": -77.04043983333334}, {"fusion_lon": 0.0, "bike_id": "54af9fd845f829df0f28e606376ab99d", "is_disabled": 0, "is_reserved": 0, "lat": 38.91695833333333, "name": "54af9fd845f829df0f28e606376ab99d", "rental_uris": {"ios": "https://dc.lft.to/lastmile_qr_scan", "android": "https://dc.lft.to/lastmile_qr_scan"}, "type": "electric_scooter", "fusion_lat": 0.0, "lon": -77.025959}, {"fusion_lon": 0.0, "bike_id": "b6772a20ff3b9878b6904da15a72bd9c", "is_disabled": 0, "is_reserved": 0, "lat": 38.900683, "name": "b6772a20ff3b9878b6904da15a72bd9c", "rental_uris": {"ios": "https://dc.lft.to/lastmile_qr_scan", "android": "https://dc.lft.to/lastmile_qr_scan"}, "type": "electric_scooter", "fusion_lat": 0.0, "lon": -77.048775}, {"fusion_lon": 0.0, "bike_id": "b0c7ea622070ce8346727d7cb5a6d7fd", "is_disabled": 0, "is_reserved": 0, "lat": 38.91885683333334, "name": "b0c7ea622070ce8346727d7cb5a6d7fd", "rental_uris": {"ios": "https://dc.lft.to/lastmile_qr_scan", "android": "https://dc.lft.to/lastmile_qr_scan"}, "type": "electric_scooter", "fusion_lat": 0.0, "lon": -77.03511533333334}, {"fusion_lon": 0.0, "bike_id": "5b55acdf59921803d4b0f0e129c4265b", "is_disabled": 0, "is_reserved": 0, "lat": 38.8973105, "name": "5b55acdf59921803d4b0f0e129c4265b", "rental_uris": {"ios": "https://dc.lft.to/lastmile_qr_scan", "android": "https://dc.lft.to/lastmile_qr_scan"}, "type": "electric_scooter", "fusion_lat": 0.0, "lon": -77.05524383333334}, {"fusion_lon": 0.0, "bike_id": "5607c94015ce4b05593982a0d3712fb4", "is_disabled": 0, "is_reserved": 0, "lat": 38.917587, "name": "5607c94015ce4b05593982a0d3712fb4", "rental_uris": {"ios": "https://dc.lft.to/lastmile_qr_scan", "android": "https://dc.lft.to/lastmile_qr_scan"}, "type": "electric_scooter", "fusion_lat": 0.0, "lon": -77.04002083333333}, {"fusion_lon": 0.0, "bike_id": "68cfd13fd116d8e8c265184225cc5c9e", "is_disabled": 0, "is_reserved": 0, "lat": 38.8974165, "name": "68cfd13fd116d8e8c265184225cc5c9e", "rental_uris": {"ios": "https://dc.lft.to/lastmile_qr_scan", "android": "https://dc.lft.to/lastmile_qr_scan"}, "type": "electric_scooter", "fusion_lat": 0.0, "lon": -77.02542983333333}, {"fusion_lon": 0.0, "bike_id": "3dc8bcc7f8a700091d77ffeabf7256bd", "is_disabled": 0, "is_reserved": 0, "lat": 38.92737, "name": "3dc8bcc7f8a700091d77ffeabf7256bd", "rental_uris": {"ios": "https://dc.lft.to/lastmile_qr_scan", "android": "https://dc.lft.to/lastmile_qr_scan"}, "type": "electric_scooter", "fusion_lat": 0.0, "lon": -77.022144}, {"fusion_lon": 0.0, "bike_id": "27fa4a2796a834893e9e215ed3967a4e", "is_disabled": 0, "is_reserved": 0, "lat": 38.87895533333333, "name": "27fa4a2796a834893e9e215ed3967a4e", "rental_uris": {"ios": "https://dc.lft.to/lastmile_qr_scan", "android": "https://dc.lft.to/lastmile_qr_scan"}, "type": "electric_scooter", "fusion_lat": 0.0, "lon": -76.93521833333334}, {"fusion_lon": 0.0, "bike_id": "c78345e5eec5c6779da94dde5ab1283f", "is_disabled": 0, "is_reserved": 0, "lat": 38.919310833333334, "name": "c78345e5eec5c6779da94dde5ab1283f", "rental_uris": {"ios": "https://dc.lft.to/lastmile_qr_scan", "android": "https://dc.lft.to/lastmile_qr_scan"}, "type": "electric_scooter", "fusion_lat": 0.0, "lon": -77.04168983333334}, {"fusion_lon": 0.0, "bike_id": "6312ed86ee9c04b927e001b30096a5cc", "is_disabled": 0, "is_reserved": 0, "lat": 38.96737666666667, "name": "6312ed86ee9c04b927e001b30096a5cc", "rental_uris": {"ios": "https://dc.lft.to/lastmile_qr_scan", "android": "https://dc.lft.to/lastmile_qr_scan"}, "type": "electric_scooter", "fusion_lat": 0.0, "lon": -77.02529833333334}, {"fusion_lon": 0.0, "bike_id": "97723c22f50df47b0b4854c5e308fe89", "is_disabled": 0, "is_reserved": 0, "lat": 38.82211816666667, "name": "97723c22f50df47b0b4854c5e308fe89", "rental_uris": {"ios": "https://dc.lft.to/lastmile_qr_scan", "android": "https://dc.lft.to/lastmile_qr_scan"}, "type": "electric_bike", "fusion_lat": 0.0, "lon": -76.97699683333333}, {"fusion_lon": 0.0, "bike_id": "efda371003f9ca337a4f2dd9f81cab4e", "is_disabled": 0, "is_reserved": 0, "lat": 38.905166, "name": "efda371003f9ca337a4f2dd9f81cab4e", "rental_uris": {"ios": "https://dc.lft.to/lastmile_qr_scan", "android": "https://dc.lft.to/lastmile_qr_scan"}, "type": "electric_scooter", "fusion_lat": 0.0, "lon": -76.98402666666667}, {"fusion_lon": 0.0, "bike_id": "74deaac44ccd0c5e3e8a98df73206196", "is_disabled": 0, "is_reserved": 0, "lat": 38.9508955, "name": "74deaac44ccd0c5e3e8a98df73206196", "rental_uris": {"ios": "https://dc.lft.to/lastmile_qr_scan", "android": "https://dc.lft.to/lastmile_qr_scan"}, "type": "electric_bike", "fusion_lat": 0.0, "lon": -77.01230333333334}, {"fusion_lon": 0.0, "bike_id": "f4fb758cc3c10a77c92988be6e5fb523", "is_disabled": 0, "is_reserved": 0, "lat": 38.944493333333334, "name": "f4fb758cc3c10a77c92988be6e5fb523", "rental_uris": {"ios": "https://dc.lft.to/lastmile_qr_scan", "android": "https://dc.lft.to/lastmile_qr_scan"}, "type": "electric_scooter", "fusion_lat": 0.0, "lon": -77.06354383333333}, {"fusion_lon": 0.0, "bike_id": "0c258332c1f832b1ad840c8fb1157137", "is_disabled": 0, "is_reserved": 0, "lat": 38.85439316666667, "name": "0c258332c1f832b1ad840c8fb1157137", "rental_uris": {"ios": "https://dc.lft.to/lastmile_qr_scan", "android": "https://dc.lft.to/lastmile_qr_scan"}, "type": "electric_bike", "fusion_lat": 0.0, "lon": -77.083171}, {"fusion_lon": 0.0, "bike_id": "759439e8e764430cafcbdbbf85243a70", "is_disabled": 0, "is_reserved": 0, "lat": 38.91748716666667, "name": "759439e8e764430cafcbdbbf85243a70", "rental_uris": {"ios": "https://dc.lft.to/lastmile_qr_scan", "android": "https://dc.lft.to/lastmile_qr_scan"}, "type": "electric_scooter", "fusion_lat": 0.0, "lon": -77.0237975}, {"fusion_lon": 0.0, "bike_id": "aa6c0916cb88728b85028b9d1d5f363c", "is_disabled": 0, "is_reserved": 0, "lat": 38.9105785, "name": "aa6c0916cb88728b85028b9d1d5f363c", "rental_uris": {"ios": "https://dc.lft.to/lastmile_qr_scan", "android": "https://dc.lft.to/lastmile_qr_scan"}, "type": "electric_scooter", "fusion_lat": 0.0, "lon": -77.02184266666667}, {"fusion_lon": 0.0, "bike_id": "3a5d23f1f8f5623a1698e063859810b8", "is_disabled": 0, "is_reserved": 0, "lat": 38.89981133333333, "name": "3a5d23f1f8f5623a1698e063859810b8", "rental_uris": {"ios": "https://dc.lft.to/lastmile_qr_scan", "android": "https://dc.lft.to/lastmile_qr_scan"}, "type": "electric_scooter", "fusion_lat": 0.0, "lon": -77.02628966666667}, {"fusion_lon": 0.0, "bike_id": "a46b9de0f0caca81d489b4162cea234f", "is_disabled": 0, "is_reserved": 0, "lat": 38.8193955, "name": "a46b9de0f0caca81d489b4162cea234f", "rental_uris": {"ios": "https://dc.lft.to/lastmile_qr_scan", "android": "https://dc.lft.to/lastmile_qr_scan"}, "type": "electric_bike", "fusion_lat": 0.0, "lon": -77.00203033333334}, {"fusion_lon": 0.0, "bike_id": "32520dfcd45be3636b4277930311830e", "is_disabled": 0, "is_reserved": 0, "lat": 38.92618916666667, "name": "32520dfcd45be3636b4277930311830e", "rental_uris": {"ios": "https://dc.lft.to/lastmile_qr_scan", "android": "https://dc.lft.to/lastmile_qr_scan"}, "type": "electric_scooter", "fusion_lat": 0.0, "lon": -77.02161266666667}, {"fusion_lon": 0.0, "bike_id": "c4f6d235f1b896c97fb3ca2cc8960026", "is_disabled": 0, "is_reserved": 0, "lat": 38.890296666666664, "name": "c4f6d235f1b896c97fb3ca2cc8960026", "rental_uris": {"ios": "https://dc.lft.to/lastmile_qr_scan", "android": "https://dc.lft.to/lastmile_qr_scan"}, "type": "electric_scooter", "fusion_lat": 0.0, "lon": -76.94467616666667}, {"fusion_lon": 0.0, "bike_id": "ef0950df8fc1c45ee96569c7d5d0903c", "is_disabled": 0, "is_reserved": 0, "lat": 38.898913666666665, "name": "ef0950df8fc1c45ee96569c7d5d0903c", "rental_uris": {"ios": "https://dc.lft.to/lastmile_qr_scan", "android": "https://dc.lft.to/lastmile_qr_scan"}, "type": "electric_bike", "fusion_lat": 0.0, "lon": -77.021881}, {"fusion_lon": 0.0, "bike_id": "767fa86a2c59f188e1d5d1425076a87a", "is_disabled": 0, "is_reserved": 0, "lat": 38.932008833333335, "name": "767fa86a2c59f188e1d5d1425076a87a", "rental_uris": {"ios": "https://dc.lft.to/lastmile_qr_scan", "android": "https://dc.lft.to/lastmile_qr_scan"}, "type": "electric_scooter", "fusion_lat": 0.0, "lon": -77.0187105}, {"fusion_lon": 0.0, "bike_id": "340cfdb402a92d403323cc55903504e6", "is_disabled": 0, "is_reserved": 0, "lat": 38.902021500000004, "name": "340cfdb402a92d403323cc55903504e6", "rental_uris": {"ios": "https://dc.lft.to/lastmile_qr_scan", "android": "https://dc.lft.to/lastmile_qr_scan"}, "type": "electric_scooter", "fusion_lat": 0.0, "lon": -77.048347}, {"fusion_lon": 0.0, "bike_id": "80db124c52ed747276fbdb8f174390d6", "is_disabled": 0, "is_reserved": 0, "lat": 38.90668633333333, "name": "80db124c52ed747276fbdb8f174390d6", "rental_uris": {"ios": "https://dc.lft.to/lastmile_qr_scan", "android": "https://dc.lft.to/lastmile_qr_scan"}, "type": "electric_scooter", "fusion_lat": 0.0, "lon": -77.044988}, {"fusion_lon": 0.0, "bike_id": "77ca9e16d5f2480d15df01142245cb74", "is_disabled": 0, "is_reserved": 0, "lat": 38.91677833333333, "name": "77ca9e16d5f2480d15df01142245cb74", "rental_uris": {"ios": "https://dc.lft.to/lastmile_qr_scan", "android": "https://dc.lft.to/lastmile_qr_scan"}, "type": "electric_scooter", "fusion_lat": 0.0, "lon": -77.02607833333333}, {"fusion_lon": 0.0, "bike_id": "296a010638e9f7f9aebea9e0caf02795", "is_disabled": 0, "is_reserved": 0, "lat": 38.91466166666667, "name": "296a010638e9f7f9aebea9e0caf02795", "rental_uris": {"ios": "https://dc.lft.to/lastmile_qr_scan", "android": "https://dc.lft.to/lastmile_qr_scan"}, "type": "electric_scooter", "fusion_lat": 0.0, "lon": -77.00203266666666}, {"fusion_lon": 0.0, "bike_id": "247ad4b8f31e40fa60f443b1c51904d5", "is_disabled": 0, "is_reserved": 0, "lat": 38.913383, "name": "247ad4b8f31e40fa60f443b1c51904d5", "rental_uris": {"ios": "https://dc.lft.to/lastmile_qr_scan", "android": "https://dc.lft.to/lastmile_qr_scan"}, "type": "electric_scooter", "fusion_lat": 0.0, "lon": -77.00332616666667}, {"fusion_lon": 0.0, "bike_id": "f292529ea51bb0a162cd8d18dbee1d90", "is_disabled": 0, "is_reserved": 0, "lat": 38.87467983333333, "name": "f292529ea51bb0a162cd8d18dbee1d90", "rental_uris": {"ios": "https://dc.lft.to/lastmile_qr_scan", "android": "https://dc.lft.to/lastmile_qr_scan"}, "type": "electric_scooter", "fusion_lat": 0.0, "lon": -77.0157255}, {"fusion_lon": 0.0, "bike_id": "ce7a94983541f7294c66587284f1bde8", "is_disabled": 0, "is_reserved": 0, "lat": 38.90827683333333, "name": "ce7a94983541f7294c66587284f1bde8", "rental_uris": {"ios": "https://dc.lft.to/lastmile_qr_scan", "android": "https://dc.lft.to/lastmile_qr_scan"}, "type": "electric_scooter", "fusion_lat": 0.0, "lon": -77.0319915}, {"fusion_lon": 0.0, "bike_id": "bfe99addfc5032b67f6870e37c294830", "is_disabled": 0, "is_reserved": 0, "lat": 38.98327716666667, "name": "bfe99addfc5032b67f6870e37c294830", "rental_uris": {"ios": "https://dc.lft.to/lastmile_qr_scan", "android": "https://dc.lft.to/lastmile_qr_scan"}, "type": "electric_bike", "fusion_lat": 0.0, "lon": -76.95497883333333}, {"fusion_lon": 0.0, "bike_id": "e41404da4c28d83b981fad3d842ee4c2", "is_disabled": 0, "is_reserved": 0, "lat": 38.90698583333333, "name": "e41404da4c28d83b981fad3d842ee4c2", "rental_uris": {"ios": "https://dc.lft.to/lastmile_qr_scan", "android": "https://dc.lft.to/lastmile_qr_scan"}, "type": "electric_bike", "fusion_lat": 0.0, "lon": -76.952514}, {"fusion_lon": 0.0, "bike_id": "32fa110ca2e91fc6de67ce5d95b681fd", "is_disabled": 0, "is_reserved": 0, "lat": 38.89493483333333, "name": "32fa110ca2e91fc6de67ce5d95b681fd", "rental_uris": {"ios": "https://dc.lft.to/lastmile_qr_scan", "android": "https://dc.lft.to/lastmile_qr_scan"}, "type": "electric_scooter", "fusion_lat": 0.0, "lon": -77.0216855}, {"fusion_lon": 0.0, "bike_id": "1fa5fee1a25afe781893896e3523b337", "is_disabled": 0, "is_reserved": 0, "lat": 38.925037, "name": "1fa5fee1a25afe781893896e3523b337", "rental_uris": {"ios": "https://dc.lft.to/lastmile_qr_scan", "android": "https://dc.lft.to/lastmile_qr_scan"}, "type": "electric_scooter", "fusion_lat": 0.0, "lon": -77.032437}, {"fusion_lon": 0.0, "bike_id": "c6d837afa0f4bceb06f5be59bc716a90", "is_disabled": 0, "is_reserved": 0, "lat": 38.942675, "name": "c6d837afa0f4bceb06f5be59bc716a90", "rental_uris": {"ios": "https://dc.lft.to/lastmile_qr_scan", "android": "https://dc.lft.to/lastmile_qr_scan"}, "type": "electric_scooter", "fusion_lat": 0.0, "lon": -77.02979916666666}, {"fusion_lon": 0.0, "bike_id": "3ad65d822ae989c5817006bc90cdb2d8", "is_disabled": 0, "is_reserved": 0, "lat": 38.963877833333335, "name": "3ad65d822ae989c5817006bc90cdb2d8", "rental_uris": {"ios": "https://dc.lft.to/lastmile_qr_scan", "android": "https://dc.lft.to/lastmile_qr_scan"}, "type": "electric_scooter", "fusion_lat": 0.0, "lon": -77.02769266666667}, {"fusion_lon": 0.0, "bike_id": "fec02fb6f35e07a8b9ea1582f6bd1e96", "is_disabled": 0, "is_reserved": 0, "lat": 38.92562383333333, "name": "fec02fb6f35e07a8b9ea1582f6bd1e96", "rental_uris": {"ios": "https://dc.lft.to/lastmile_qr_scan", "android": "https://dc.lft.to/lastmile_qr_scan"}, "type": "electric_scooter", "fusion_lat": 0.0, "lon": -77.02687083333333}, {"fusion_lon": 0.0, "bike_id": "9aed9c779f95483a28330588e6087477", "is_disabled": 0, "is_reserved": 0, "lat": 38.9215735, "name": "9aed9c779f95483a28330588e6087477", "rental_uris": {"ios": "https://dc.lft.to/lastmile_qr_scan", "android": "https://dc.lft.to/lastmile_qr_scan"}, "type": "electric_scooter", "fusion_lat": 0.0, "lon": -77.0424215}, {"fusion_lon": 0.0, "bike_id": "a458b94eafd985800bafa206fea6f0d3", "is_disabled": 0, "is_reserved": 0, "lat": 38.8813265, "name": "a458b94eafd985800bafa206fea6f0d3", "rental_uris": {"ios": "https://dc.lft.to/lastmile_qr_scan", "android": "https://dc.lft.to/lastmile_qr_scan"}, "type": "electric_bike", "fusion_lat": 0.0, "lon": -77.01666083333333}, {"fusion_lon": 0.0, "bike_id": "0586930f4360581bba8d094cdd7a15bb", "is_disabled": 0, "is_reserved": 0, "lat": 38.89769866666666, "name": "0586930f4360581bba8d094cdd7a15bb", "rental_uris": {"ios": "https://dc.lft.to/lastmile_qr_scan", "android": "https://dc.lft.to/lastmile_qr_scan"}, "type": "electric_scooter", "fusion_lat": 0.0, "lon": -77.02197633333333}, {"fusion_lon": 0.0, "bike_id": "8145ce8c18151ffc93550618b30e882e", "is_disabled": 0, "is_reserved": 0, "lat": 38.8338465, "name": "8145ce8c18151ffc93550618b30e882e", "rental_uris": {"ios": "https://dc.lft.to/lastmile_qr_scan", "android": "https://dc.lft.to/lastmile_qr_scan"}, "type": "electric_scooter", "fusion_lat": 0.0, "lon": -77.003005}, {"fusion_lon": 0.0, "bike_id": "b74b7d22d6f5a60bd922fc54e78fce63", "is_disabled": 0, "is_reserved": 0, "lat": 38.9203685, "name": "b74b7d22d6f5a60bd922fc54e78fce63", "rental_uris": {"ios": "https://dc.lft.to/lastmile_qr_scan", "android": "https://dc.lft.to/lastmile_qr_scan"}, "type": "electric_bike", "fusion_lat": 0.0, "lon": -76.979583}, {"fusion_lon": 0.0, "bike_id": "c77268be1ff9a2949096790e965d2cd6", "is_disabled": 0, "is_reserved": 0, "lat": 38.9073135, "name": "c77268be1ff9a2949096790e965d2cd6", "rental_uris": {"ios": "https://dc.lft.to/lastmile_qr_scan", "android": "https://dc.lft.to/lastmile_qr_scan"}, "type": "electric_scooter", "fusion_lat": 0.0, "lon": -77.03992216666667}, {"fusion_lon": 0.0, "bike_id": "a536d21aa19edb0d5589e656eec2019f", "is_disabled": 0, "is_reserved": 0, "lat": 38.899702833333336, "name": "a536d21aa19edb0d5589e656eec2019f", "rental_uris": {"ios": "https://dc.lft.to/lastmile_qr_scan", "android": "https://dc.lft.to/lastmile_qr_scan"}, "type": "electric_scooter", "fusion_lat": 0.0, "lon": -77.04721133333334}, {"fusion_lon": 0.0, "bike_id": "c23e14a2b2f11e223cbdc580a50c5bbf", "is_disabled": 0, "is_reserved": 0, "lat": 38.91104083333333, "name": "c23e14a2b2f11e223cbdc580a50c5bbf", "rental_uris": {"ios": "https://dc.lft.to/lastmile_qr_scan", "android": "https://dc.lft.to/lastmile_qr_scan"}, "type": "electric_scooter", "fusion_lat": 0.0, "lon": -77.02379766666667}, {"fusion_lon": 0.0, "bike_id": "8be4a4e0c54ae5deb84fb7fae24ca77e", "is_disabled": 0, "is_reserved": 0, "lat": 38.911927166666665, "name": "8be4a4e0c54ae5deb84fb7fae24ca77e", "rental_uris": {"ios": "https://dc.lft.to/lastmile_qr_scan", "android": "https://dc.lft.to/lastmile_qr_scan"}, "type": "electric_scooter", "fusion_lat": 0.0, "lon": -77.01809483333334}, {"fusion_lon": 0.0, "bike_id": "7c127eee16c77935f92ac85269cc5678", "is_disabled": 0, "is_reserved": 0, "lat": 38.92260183333333, "name": "7c127eee16c77935f92ac85269cc5678", "rental_uris": {"ios": "https://dc.lft.to/lastmile_qr_scan", "android": "https://dc.lft.to/lastmile_qr_scan"}, "type": "electric_scooter", "fusion_lat": 0.0, "lon": -77.03640533333333}, {"fusion_lon": 0.0, "bike_id": "92b271989bdc4bf5c955af26f9308523", "is_disabled": 0, "is_reserved": 0, "lat": 38.9095655, "name": "92b271989bdc4bf5c955af26f9308523", "rental_uris": {"ios": "https://dc.lft.to/lastmile_qr_scan", "android": "https://dc.lft.to/lastmile_qr_scan"}, "type": "electric_scooter", "fusion_lat": 0.0, "lon": -77.03335416666667}, {"fusion_lon": 0.0, "bike_id": "8984a934b6609c004bef80658b5a60d7", "is_disabled": 0, "is_reserved": 0, "lat": 38.83607716666667, "name": "8984a934b6609c004bef80658b5a60d7", "rental_uris": {"ios": "https://dc.lft.to/lastmile_qr_scan", "android": "https://dc.lft.to/lastmile_qr_scan"}, "type": "electric_bike", "fusion_lat": 0.0, "lon": -77.00374916666667}, {"fusion_lon": 0.0, "bike_id": "e1e656c0a5bca9247c0a80dedeabd053", "is_disabled": 0, "is_reserved": 0, "lat": 38.907458166666665, "name": "e1e656c0a5bca9247c0a80dedeabd053", "rental_uris": {"ios": "https://dc.lft.to/lastmile_qr_scan", "android": "https://dc.lft.to/lastmile_qr_scan"}, "type": "electric_scooter", "fusion_lat": 0.0, "lon": -76.9983725}, {"fusion_lon": 0.0, "bike_id": "99fbd396dd53e1a4ed4a8966b41df424", "is_disabled": 0, "is_reserved": 0, "lat": 38.87699633333333, "name": "99fbd396dd53e1a4ed4a8966b41df424", "rental_uris": {"ios": "https://dc.lft.to/lastmile_qr_scan", "android": "https://dc.lft.to/lastmile_qr_scan"}, "type": "electric_scooter", "fusion_lat": 0.0, "lon": -77.0075135}, {"fusion_lon": 0.0, "bike_id": "f44b805d14c75f43bc266b3520f965fd", "is_disabled": 0, "is_reserved": 0, "lat": 38.92236, "name": "f44b805d14c75f43bc266b3520f965fd", "rental_uris": {"ios": "https://dc.lft.to/lastmile_qr_scan", "android": "https://dc.lft.to/lastmile_qr_scan"}, "type": "electric_scooter", "fusion_lat": 0.0, "lon": -77.033801}, {"fusion_lon": 0.0, "bike_id": "8bdfaaa1636b1c61b5a1c20a23ff2408", "is_disabled": 0, "is_reserved": 0, "lat": 38.90347033333333, "name": "8bdfaaa1636b1c61b5a1c20a23ff2408", "rental_uris": {"ios": "https://dc.lft.to/lastmile_qr_scan", "android": "https://dc.lft.to/lastmile_qr_scan"}, "type": "electric_scooter", "fusion_lat": 0.0, "lon": -77.01897766666667}, {"fusion_lon": 0.0, "bike_id": "df00722dac3c074ce26b1086bc8eb67a", "is_disabled": 0, "is_reserved": 0, "lat": 38.923322666666664, "name": "df00722dac3c074ce26b1086bc8eb67a", "rental_uris": {"ios": "https://dc.lft.to/lastmile_qr_scan", "android": "https://dc.lft.to/lastmile_qr_scan"}, "type": "electric_scooter", "fusion_lat": 0.0, "lon": -77.00893466666666}, {"fusion_lon": 0.0, "bike_id": "892606369595a2f9c8cff370ded94e5f", "is_disabled": 0, "is_reserved": 0, "lat": 38.922259333333336, "name": "892606369595a2f9c8cff370ded94e5f", "rental_uris": {"ios": "https://dc.lft.to/lastmile_qr_scan", "android": "https://dc.lft.to/lastmile_qr_scan"}, "type": "electric_scooter", "fusion_lat": 0.0, "lon": -77.03731366666666}, {"fusion_lon": 0.0, "bike_id": "0c6fa83a5ca5cbe56cde97f988725483", "is_disabled": 0, "is_reserved": 0, "lat": 38.87671116666667, "name": "0c6fa83a5ca5cbe56cde97f988725483", "rental_uris": {"ios": "https://dc.lft.to/lastmile_qr_scan", "android": "https://dc.lft.to/lastmile_qr_scan"}, "type": "electric_scooter", "fusion_lat": 0.0, "lon": -77.00590916666667}, {"fusion_lon": 0.0, "bike_id": "cb0ece69d79e58c09f47fab85232833c", "is_disabled": 0, "is_reserved": 0, "lat": 38.90743116666667, "name": "cb0ece69d79e58c09f47fab85232833c", "rental_uris": {"ios": "https://dc.lft.to/lastmile_qr_scan", "android": "https://dc.lft.to/lastmile_qr_scan"}, "type": "electric_scooter", "fusion_lat": 0.0, "lon": -77.04202883333333}, {"fusion_lon": 0.0, "bike_id": "7b18acfce066078d46e015f9b02a957c", "is_disabled": 0, "is_reserved": 0, "lat": 38.91840933333334, "name": "7b18acfce066078d46e015f9b02a957c", "rental_uris": {"ios": "https://dc.lft.to/lastmile_qr_scan", "android": "https://dc.lft.to/lastmile_qr_scan"}, "type": "electric_scooter", "fusion_lat": 0.0, "lon": -77.02289933333333}, {"fusion_lon": 0.0, "bike_id": "fa44a6f886bc1395525e2bf34adac727", "is_disabled": 0, "is_reserved": 0, "lat": 38.928714, "name": "fa44a6f886bc1395525e2bf34adac727", "rental_uris": {"ios": "https://dc.lft.to/lastmile_qr_scan", "android": "https://dc.lft.to/lastmile_qr_scan"}, "type": "electric_scooter", "fusion_lat": 0.0, "lon": -77.03475083333333}, {"fusion_lon": 0.0, "bike_id": "21796d6b373e4a615eb98025328d65a0", "is_disabled": 0, "is_reserved": 0, "lat": 38.875082166666665, "name": "21796d6b373e4a615eb98025328d65a0", "rental_uris": {"ios": "https://dc.lft.to/lastmile_qr_scan", "android": "https://dc.lft.to/lastmile_qr_scan"}, "type": "electric_scooter", "fusion_lat": 0.0, "lon": -76.97661116666667}, {"fusion_lon": 0.0, "bike_id": "854191cb421e16138a74f1b6b7921e72", "is_disabled": 0, "is_reserved": 0, "lat": 38.911009, "name": "854191cb421e16138a74f1b6b7921e72", "rental_uris": {"ios": "https://dc.lft.to/lastmile_qr_scan", "android": "https://dc.lft.to/lastmile_qr_scan"}, "type": "electric_scooter", "fusion_lat": 0.0, "lon": -77.04494533333333}, {"fusion_lon": 0.0, "bike_id": "165230e043c2f16b36e600d125683355", "is_disabled": 0, "is_reserved": 0, "lat": 38.913548, "name": "165230e043c2f16b36e600d125683355", "rental_uris": {"ios": "https://dc.lft.to/lastmile_qr_scan", "android": "https://dc.lft.to/lastmile_qr_scan"}, "type": "electric_scooter", "fusion_lat": 0.0, "lon": -77.032078}, {"fusion_lon": 0.0, "bike_id": "8864b80413a6d4cc034da78121ecec0c", "is_disabled": 0, "is_reserved": 0, "lat": 38.92536166666667, "name": "8864b80413a6d4cc034da78121ecec0c", "rental_uris": {"ios": "https://dc.lft.to/lastmile_qr_scan", "android": "https://dc.lft.to/lastmile_qr_scan"}, "type": "electric_scooter", "fusion_lat": 0.0, "lon": -77.04259633333334}, {"fusion_lon": 0.0, "bike_id": "07b6b41419a567809b6aaeddf6e45b9c", "is_disabled": 0, "is_reserved": 0, "lat": 38.886135833333334, "name": "07b6b41419a567809b6aaeddf6e45b9c", "rental_uris": {"ios": "https://dc.lft.to/lastmile_qr_scan", "android": "https://dc.lft.to/lastmile_qr_scan"}, "type": "electric_scooter", "fusion_lat": 0.0, "lon": -76.98547333333333}, {"fusion_lon": 0.0, "bike_id": "a0fbc459e508478d194478301ffcb7d1", "is_disabled": 0, "is_reserved": 0, "lat": 38.9140555, "name": "a0fbc459e508478d194478301ffcb7d1", "rental_uris": {"ios": "https://dc.lft.to/lastmile_qr_scan", "android": "https://dc.lft.to/lastmile_qr_scan"}, "type": "electric_scooter", "fusion_lat": 0.0, "lon": -77.03913583333333}, {"fusion_lon": 0.0, "bike_id": "0e27aa8fa299cbb1dab91a82bc64cb95", "is_disabled": 0, "is_reserved": 0, "lat": 38.87840883333333, "name": "0e27aa8fa299cbb1dab91a82bc64cb95", "rental_uris": {"ios": "https://dc.lft.to/lastmile_qr_scan", "android": "https://dc.lft.to/lastmile_qr_scan"}, "type": "electric_scooter", "fusion_lat": 0.0, "lon": -77.0227865}, {"fusion_lon": 0.0, "bike_id": "16953e83a12f0174eb9cac301f957ea6", "is_disabled": 0, "is_reserved": 0, "lat": 38.923032, "name": "16953e83a12f0174eb9cac301f957ea6", "rental_uris": {"ios": "https://dc.lft.to/lastmile_qr_scan", "android": "https://dc.lft.to/lastmile_qr_scan"}, "type": "electric_scooter", "fusion_lat": 0.0, "lon": -77.035118}, {"fusion_lon": 0.0, "bike_id": "7a0b4292cf177e8c01d953832eff6afe", "is_disabled": 0, "is_reserved": 0, "lat": 38.90738483333333, "name": "7a0b4292cf177e8c01d953832eff6afe", "rental_uris": {"ios": "https://dc.lft.to/lastmile_qr_scan", "android": "https://dc.lft.to/lastmile_qr_scan"}, "type": "electric_scooter", "fusion_lat": 0.0, "lon": -77.045635}, {"fusion_lon": 0.0, "bike_id": "5f5bc3c57d9b97d76f1b14077f0155a1", "is_disabled": 0, "is_reserved": 0, "lat": 38.83068016666667, "name": "5f5bc3c57d9b97d76f1b14077f0155a1", "rental_uris": {"ios": "https://dc.lft.to/lastmile_qr_scan", "android": "https://dc.lft.to/lastmile_qr_scan"}, "type": "electric_bike", "fusion_lat": 0.0, "lon": -77.040789}, {"fusion_lon": 0.0, "bike_id": "e23d1da51e88694e8b3376198d2fc7a6", "is_disabled": 0, "is_reserved": 0, "lat": 38.96677533333333, "name": "e23d1da51e88694e8b3376198d2fc7a6", "rental_uris": {"ios": "https://dc.lft.to/lastmile_qr_scan", "android": "https://dc.lft.to/lastmile_qr_scan"}, "type": "electric_bike", "fusion_lat": 0.0, "lon": -77.02302333333333}, {"fusion_lon": 0.0, "bike_id": "58c18a08921bfa3c1b49bd5413597a92", "is_disabled": 0, "is_reserved": 0, "lat": 38.925536, "name": "58c18a08921bfa3c1b49bd5413597a92", "rental_uris": {"ios": "https://dc.lft.to/lastmile_qr_scan", "android": "https://dc.lft.to/lastmile_qr_scan"}, "type": "electric_scooter", "fusion_lat": 0.0, "lon": -76.97209166666667}, {"fusion_lon": 0.0, "bike_id": "8b9fb2840f4c654a49a66041558cee8c", "is_disabled": 0, "is_reserved": 0, "lat": 38.908226, "name": "8b9fb2840f4c654a49a66041558cee8c", "rental_uris": {"ios": "https://dc.lft.to/lastmile_qr_scan", "android": "https://dc.lft.to/lastmile_qr_scan"}, "type": "electric_scooter", "fusion_lat": 0.0, "lon": -77.031878}, {"fusion_lon": 0.0, "bike_id": "2104fd2777e644b1decff520c39c422f", "is_disabled": 0, "is_reserved": 0, "lat": 38.9260445, "name": "2104fd2777e644b1decff520c39c422f", "rental_uris": {"ios": "https://dc.lft.to/lastmile_qr_scan", "android": "https://dc.lft.to/lastmile_qr_scan"}, "type": "electric_bike", "fusion_lat": 0.0, "lon": -77.06634966666667}, {"fusion_lon": 0.0, "bike_id": "2c6a177bc9445f335bd10b709e1ab43b", "is_disabled": 0, "is_reserved": 0, "lat": 38.908562333333336, "name": "2c6a177bc9445f335bd10b709e1ab43b", "rental_uris": {"ios": "https://dc.lft.to/lastmile_qr_scan", "android": "https://dc.lft.to/lastmile_qr_scan"}, "type": "electric_scooter", "fusion_lat": 0.0, "lon": -77.06379883333334}, {"fusion_lon": 0.0, "bike_id": "f1f194a8bf132711ce67ec09b7b2313f", "is_disabled": 0, "is_reserved": 0, "lat": 38.91412016666666, "name": "f1f194a8bf132711ce67ec09b7b2313f", "rental_uris": {"ios": "https://dc.lft.to/lastmile_qr_scan", "android": "https://dc.lft.to/lastmile_qr_scan"}, "type": "electric_scooter", "fusion_lat": 0.0, "lon": -77.06700683333334}, {"fusion_lon": 0.0, "bike_id": "c8177ccf98965fb2f60ed5835338bded", "is_disabled": 0, "is_reserved": 0, "lat": 38.9988715, "name": "c8177ccf98965fb2f60ed5835338bded", "rental_uris": {"ios": "https://dc.lft.to/lastmile_qr_scan", "android": "https://dc.lft.to/lastmile_qr_scan"}, "type": "electric_bike", "fusion_lat": 0.0, "lon": -76.91089633333333}, {"fusion_lon": 0.0, "bike_id": "1311ad9d71506f61679d9a937a43e179", "is_disabled": 0, "is_reserved": 0, "lat": 38.941539, "name": "1311ad9d71506f61679d9a937a43e179", "rental_uris": {"ios": "https://dc.lft.to/lastmile_qr_scan", "android": "https://dc.lft.to/lastmile_qr_scan"}, "type": "electric_bike", "fusion_lat": 0.0, "lon": -77.00201466666667}, {"fusion_lon": 0.0, "bike_id": "db48b2e5b0cda3b83b440bd07ffbc338", "is_disabled": 0, "is_reserved": 0, "lat": 38.88559716666666, "name": "db48b2e5b0cda3b83b440bd07ffbc338", "rental_uris": {"ios": "https://dc.lft.to/lastmile_qr_scan", "android": "https://dc.lft.to/lastmile_qr_scan"}, "type": "electric_scooter", "fusion_lat": 0.0, "lon": -77.019897}, {"fusion_lon": 0.0, "bike_id": "2947c3d926c9ca94ade80f6c4019ad61", "is_disabled": 0, "is_reserved": 0, "lat": 38.908197, "name": "2947c3d926c9ca94ade80f6c4019ad61", "rental_uris": {"ios": "https://dc.lft.to/lastmile_qr_scan", "android": "https://dc.lft.to/lastmile_qr_scan"}, "type": "electric_scooter", "fusion_lat": 0.0, "lon": -77.02970366666666}, {"fusion_lon": 0.0, "bike_id": "d64fe00b4e874a1115cb6d20dd1cd68e", "is_disabled": 0, "is_reserved": 0, "lat": 38.9089075, "name": "d64fe00b4e874a1115cb6d20dd1cd68e", "rental_uris": {"ios": "https://dc.lft.to/lastmile_qr_scan", "android": "https://dc.lft.to/lastmile_qr_scan"}, "type": "electric_scooter", "fusion_lat": 0.0, "lon": -77.04394016666667}, {"fusion_lon": 0.0, "bike_id": "b6d0cd15cc94cae34c5b24f3c74e5bd0", "is_disabled": 0, "is_reserved": 0, "lat": 38.908294833333336, "name": "b6d0cd15cc94cae34c5b24f3c74e5bd0", "rental_uris": {"ios": "https://dc.lft.to/lastmile_qr_scan", "android": "https://dc.lft.to/lastmile_qr_scan"}, "type": "electric_scooter", "fusion_lat": 0.0, "lon": -76.9918905}, {"fusion_lon": 0.0, "bike_id": "210c8fa970c4d47bf6da6502031533ff", "is_disabled": 0, "is_reserved": 0, "lat": 38.915386833333336, "name": "210c8fa970c4d47bf6da6502031533ff", "rental_uris": {"ios": "https://dc.lft.to/lastmile_qr_scan", "android": "https://dc.lft.to/lastmile_qr_scan"}, "type": "electric_scooter", "fusion_lat": 0.0, "lon": -77.07544516666667}, {"fusion_lon": 0.0, "bike_id": "226517eb5a7ea7b1372c003b179d25e6", "is_disabled": 0, "is_reserved": 0, "lat": 38.90510283333333, "name": "226517eb5a7ea7b1372c003b179d25e6", "rental_uris": {"ios": "https://dc.lft.to/lastmile_qr_scan", "android": "https://dc.lft.to/lastmile_qr_scan"}, "type": "electric_scooter", "fusion_lat": 0.0, "lon": -77.051272}, {"fusion_lon": 0.0, "bike_id": "f88304ee0b728b6ba6a4083209636026", "is_disabled": 0, "is_reserved": 0, "lat": 38.921256666666665, "name": "f88304ee0b728b6ba6a4083209636026", "rental_uris": {"ios": "https://dc.lft.to/lastmile_qr_scan", "android": "https://dc.lft.to/lastmile_qr_scan"}, "type": "electric_scooter", "fusion_lat": 0.0, "lon": -77.01776416666667}, {"fusion_lon": 0.0, "bike_id": "f57708e8af3c68fef94ba81d0f2b789c", "is_disabled": 0, "is_reserved": 0, "lat": 38.92420216666667, "name": "f57708e8af3c68fef94ba81d0f2b789c", "rental_uris": {"ios": "https://dc.lft.to/lastmile_qr_scan", "android": "https://dc.lft.to/lastmile_qr_scan"}, "type": "electric_scooter", "fusion_lat": 0.0, "lon": -77.021378}, {"fusion_lon": 0.0, "bike_id": "4876ef947dcf5459f65a821100257654", "is_disabled": 0, "is_reserved": 0, "lat": 38.90029233333333, "name": "4876ef947dcf5459f65a821100257654", "rental_uris": {"ios": "https://dc.lft.to/lastmile_qr_scan", "android": "https://dc.lft.to/lastmile_qr_scan"}, "type": "electric_scooter", "fusion_lat": 0.0, "lon": -76.99125983333333}, {"fusion_lon": 0.0, "bike_id": "ed59a3ff285ca6d979e555f714ada55f", "is_disabled": 0, "is_reserved": 0, "lat": 38.918087166666666, "name": "ed59a3ff285ca6d979e555f714ada55f", "rental_uris": {"ios": "https://dc.lft.to/lastmile_qr_scan", "android": "https://dc.lft.to/lastmile_qr_scan"}, "type": "electric_scooter", "fusion_lat": 0.0, "lon": -77.03301883333333}, {"fusion_lon": 0.0, "bike_id": "c12c2d89ecb4ae5afdd406908bfb3d09", "is_disabled": 0, "is_reserved": 0, "lat": 38.904119666666666, "name": "c12c2d89ecb4ae5afdd406908bfb3d09", "rental_uris": {"ios": "https://dc.lft.to/lastmile_qr_scan", "android": "https://dc.lft.to/lastmile_qr_scan"}, "type": "electric_scooter", "fusion_lat": 0.0, "lon": -76.9733195}, {"fusion_lon": 0.0, "bike_id": "952bb6bd44e5848f060355e838aa04c0", "is_disabled": 0, "is_reserved": 0, "lat": 38.893647, "name": "952bb6bd44e5848f060355e838aa04c0", "rental_uris": {"ios": "https://dc.lft.to/lastmile_qr_scan", "android": "https://dc.lft.to/lastmile_qr_scan"}, "type": "electric_scooter", "fusion_lat": 0.0, "lon": -77.04481433333333}, {"fusion_lon": 0.0, "bike_id": "3cb3760cec876c320280bdc844c174b3", "is_disabled": 0, "is_reserved": 0, "lat": 38.88121266666667, "name": "3cb3760cec876c320280bdc844c174b3", "rental_uris": {"ios": "https://dc.lft.to/lastmile_qr_scan", "android": "https://dc.lft.to/lastmile_qr_scan"}, "type": "electric_scooter", "fusion_lat": 0.0, "lon": -77.01502016666667}, {"fusion_lon": 0.0, "bike_id": "52bcbafe1c7e35f153bfcae70e47ac42", "is_disabled": 0, "is_reserved": 0, "lat": 38.923707666666665, "name": "52bcbafe1c7e35f153bfcae70e47ac42", "rental_uris": {"ios": "https://dc.lft.to/lastmile_qr_scan", "android": "https://dc.lft.to/lastmile_qr_scan"}, "type": "electric_scooter", "fusion_lat": 0.0, "lon": -77.02125766666667}, {"fusion_lon": 0.0, "bike_id": "76cacb58b9b84bddd561d5b9f0b12f71", "is_disabled": 0, "is_reserved": 0, "lat": 38.90731383333333, "name": "76cacb58b9b84bddd561d5b9f0b12f71", "rental_uris": {"ios": "https://dc.lft.to/lastmile_qr_scan", "android": "https://dc.lft.to/lastmile_qr_scan"}, "type": "electric_scooter", "fusion_lat": 0.0, "lon": -77.01842616666667}, {"fusion_lon": 0.0, "bike_id": "5c17e05bacd5d5d165b00ea5f48e7d16", "is_disabled": 0, "is_reserved": 0, "lat": 38.92111583333333, "name": "5c17e05bacd5d5d165b00ea5f48e7d16", "rental_uris": {"ios": "https://dc.lft.to/lastmile_qr_scan", "android": "https://dc.lft.to/lastmile_qr_scan"}, "type": "electric_scooter", "fusion_lat": 0.0, "lon": -77.0204865}, {"fusion_lon": 0.0, "bike_id": "7cb8e2af22515edaa8a1d80fd17a35c7", "is_disabled": 0, "is_reserved": 0, "lat": 38.855943833333335, "name": "7cb8e2af22515edaa8a1d80fd17a35c7", "rental_uris": {"ios": "https://dc.lft.to/lastmile_qr_scan", "android": "https://dc.lft.to/lastmile_qr_scan"}, "type": "electric_bike", "fusion_lat": 0.0, "lon": -76.97269533333333}, {"fusion_lon": 0.0, "bike_id": "f6682bd5bb91af9af055149ca29807ab", "is_disabled": 0, "is_reserved": 0, "lat": 38.924299833333336, "name": "f6682bd5bb91af9af055149ca29807ab", "rental_uris": {"ios": "https://dc.lft.to/lastmile_qr_scan", "android": "https://dc.lft.to/lastmile_qr_scan"}, "type": "electric_scooter", "fusion_lat": 0.0, "lon": -77.022607}, {"fusion_lon": 0.0, "bike_id": "c1e8d9d6a8798bebe2d789a2c2e5e560", "is_disabled": 0, "is_reserved": 0, "lat": 38.92418883333333, "name": "c1e8d9d6a8798bebe2d789a2c2e5e560", "rental_uris": {"ios": "https://dc.lft.to/lastmile_qr_scan", "android": "https://dc.lft.to/lastmile_qr_scan"}, "type": "electric_scooter", "fusion_lat": 0.0, "lon": -77.02135516666667}, {"fusion_lon": 0.0, "bike_id": "c6005dd6dccde8ff305db8318a214799", "is_disabled": 0, "is_reserved": 0, "lat": 38.901693, "name": "c6005dd6dccde8ff305db8318a214799", "rental_uris": {"ios": "https://dc.lft.to/lastmile_qr_scan", "android": "https://dc.lft.to/lastmile_qr_scan"}, "type": "electric_scooter", "fusion_lat": 0.0, "lon": -77.0478525}, {"fusion_lon": 0.0, "bike_id": "e69197350486f1b76e9a40d21c558d99", "is_disabled": 0, "is_reserved": 0, "lat": 38.8709465, "name": "e69197350486f1b76e9a40d21c558d99", "rental_uris": {"ios": "https://dc.lft.to/lastmile_qr_scan", "android": "https://dc.lft.to/lastmile_qr_scan"}, "type": "electric_bike", "fusion_lat": 0.0, "lon": -77.012045}, {"fusion_lon": 0.0, "bike_id": "b522b24e6e1e0343581dacf6ac61bf1b", "is_disabled": 0, "is_reserved": 0, "lat": 38.92133066666667, "name": "b522b24e6e1e0343581dacf6ac61bf1b", "rental_uris": {"ios": "https://dc.lft.to/lastmile_qr_scan", "android": "https://dc.lft.to/lastmile_qr_scan"}, "type": "electric_scooter", "fusion_lat": 0.0, "lon": -77.02137416666666}, {"fusion_lon": 0.0, "bike_id": "aaa5c08d11cbf0da4136c365773c3836", "is_disabled": 0, "is_reserved": 0, "lat": 38.88360816666667, "name": "aaa5c08d11cbf0da4136c365773c3836", "rental_uris": {"ios": "https://dc.lft.to/lastmile_qr_scan", "android": "https://dc.lft.to/lastmile_qr_scan"}, "type": "electric_scooter", "fusion_lat": 0.0, "lon": -76.9576605}, {"fusion_lon": 0.0, "bike_id": "16371428d4545246cb6596df85f0f450", "is_disabled": 0, "is_reserved": 0, "lat": 38.8744505, "name": "16371428d4545246cb6596df85f0f450", "rental_uris": {"ios": "https://dc.lft.to/lastmile_qr_scan", "android": "https://dc.lft.to/lastmile_qr_scan"}, "type": "electric_scooter", "fusion_lat": 0.0, "lon": -77.000554}, {"fusion_lon": 0.0, "bike_id": "54b1d63201ea32add2a7e97c2a09a459", "is_disabled": 0, "is_reserved": 0, "lat": 38.9231345, "name": "54b1d63201ea32add2a7e97c2a09a459", "rental_uris": {"ios": "https://dc.lft.to/lastmile_qr_scan", "android": "https://dc.lft.to/lastmile_qr_scan"}, "type": "electric_scooter", "fusion_lat": 0.0, "lon": -77.0417075}, {"fusion_lon": 0.0, "bike_id": "3d17448f3ec68b578c358f895b227bbf", "is_disabled": 0, "is_reserved": 0, "lat": 38.926500833333336, "name": "3d17448f3ec68b578c358f895b227bbf", "rental_uris": {"ios": "https://dc.lft.to/lastmile_qr_scan", "android": "https://dc.lft.to/lastmile_qr_scan"}, "type": "electric_scooter", "fusion_lat": 0.0, "lon": -77.0330515}, {"fusion_lon": 0.0, "bike_id": "77715e0c403a57a14ad3a5df2f2b3524", "is_disabled": 0, "is_reserved": 0, "lat": 38.91697216666667, "name": "77715e0c403a57a14ad3a5df2f2b3524", "rental_uris": {"ios": "https://dc.lft.to/lastmile_qr_scan", "android": "https://dc.lft.to/lastmile_qr_scan"}, "type": "electric_scooter", "fusion_lat": 0.0, "lon": -77.02675716666667}, {"fusion_lon": 0.0, "bike_id": "2c91c268a981c10bec5c181f0b22b0fd", "is_disabled": 0, "is_reserved": 0, "lat": 38.896740333333334, "name": "2c91c268a981c10bec5c181f0b22b0fd", "rental_uris": {"ios": "https://dc.lft.to/lastmile_qr_scan", "android": "https://dc.lft.to/lastmile_qr_scan"}, "type": "electric_scooter", "fusion_lat": 0.0, "lon": -76.932095}, {"fusion_lon": 0.0, "bike_id": "bbdfd09c02aeb7b5a35440245d25b59c", "is_disabled": 0, "is_reserved": 0, "lat": 38.910984666666664, "name": "bbdfd09c02aeb7b5a35440245d25b59c", "rental_uris": {"ios": "https://dc.lft.to/lastmile_qr_scan", "android": "https://dc.lft.to/lastmile_qr_scan"}, "type": "electric_scooter", "fusion_lat": 0.0, "lon": -77.03207833333333}, {"fusion_lon": 0.0, "bike_id": "ebe95af2fec1e07d386bca8dbc4a8de0", "is_disabled": 0, "is_reserved": 0, "lat": 38.857961, "name": "ebe95af2fec1e07d386bca8dbc4a8de0", "rental_uris": {"ios": "https://dc.lft.to/lastmile_qr_scan", "android": "https://dc.lft.to/lastmile_qr_scan"}, "type": "electric_bike", "fusion_lat": 0.0, "lon": -77.0996235}, {"fusion_lon": 0.0, "bike_id": "7e901c0204690fe70dd2d02606679b7f", "is_disabled": 0, "is_reserved": 0, "lat": 38.9056855, "name": "7e901c0204690fe70dd2d02606679b7f", "rental_uris": {"ios": "https://dc.lft.to/lastmile_qr_scan", "android": "https://dc.lft.to/lastmile_qr_scan"}, "type": "electric_scooter", "fusion_lat": 0.0, "lon": -77.034423}, {"fusion_lon": 0.0, "bike_id": "48c97a2769d723bcbfd275806e470a94", "is_disabled": 0, "is_reserved": 0, "lat": 38.875509, "name": "48c97a2769d723bcbfd275806e470a94", "rental_uris": {"ios": "https://dc.lft.to/lastmile_qr_scan", "android": "https://dc.lft.to/lastmile_qr_scan"}, "type": "electric_scooter", "fusion_lat": 0.0, "lon": -77.00584716666667}, {"fusion_lon": 0.0, "bike_id": "650c97673fab1f43744a7625e861b694", "is_disabled": 0, "is_reserved": 0, "lat": 38.8651835, "name": "650c97673fab1f43744a7625e861b694", "rental_uris": {"ios": "https://dc.lft.to/lastmile_qr_scan", "android": "https://dc.lft.to/lastmile_qr_scan"}, "type": "electric_bike", "fusion_lat": 0.0, "lon": -76.9730045}, {"fusion_lon": 0.0, "bike_id": "615fec727b750b61ec245e177886c3bc", "is_disabled": 0, "is_reserved": 0, "lat": 38.8849795, "name": "615fec727b750b61ec245e177886c3bc", "rental_uris": {"ios": "https://dc.lft.to/lastmile_qr_scan", "android": "https://dc.lft.to/lastmile_qr_scan"}, "type": "electric_scooter", "fusion_lat": 0.0, "lon": -77.02501183333334}, {"fusion_lon": 0.0, "bike_id": "1fafe7cbbb3aead407f07ef98327738f", "is_disabled": 0, "is_reserved": 0, "lat": 38.91829283333333, "name": "1fafe7cbbb3aead407f07ef98327738f", "rental_uris": {"ios": "https://dc.lft.to/lastmile_qr_scan", "android": "https://dc.lft.to/lastmile_qr_scan"}, "type": "electric_scooter", "fusion_lat": 0.0, "lon": -77.03643616666666}, {"fusion_lon": 0.0, "bike_id": "c7ef1795b7d5f04fa6799d825a7f9626", "is_disabled": 0, "is_reserved": 0, "lat": 38.917094, "name": "c7ef1795b7d5f04fa6799d825a7f9626", "rental_uris": {"ios": "https://dc.lft.to/lastmile_qr_scan", "android": "https://dc.lft.to/lastmile_qr_scan"}, "type": "electric_scooter", "fusion_lat": 0.0, "lon": -77.03864583333333}, {"fusion_lon": 0.0, "bike_id": "dc9e58f14b0d20aec0066b4ca939f1a4", "is_disabled": 0, "is_reserved": 0, "lat": 38.9219435, "name": "dc9e58f14b0d20aec0066b4ca939f1a4", "rental_uris": {"ios": "https://dc.lft.to/lastmile_qr_scan", "android": "https://dc.lft.to/lastmile_qr_scan"}, "type": "electric_scooter", "fusion_lat": 0.0, "lon": -77.0366535}, {"fusion_lon": 0.0, "bike_id": "d786b5d83f97a94b9dbffd8dcd3b2318", "is_disabled": 0, "is_reserved": 0, "lat": 38.91189766666667, "name": "d786b5d83f97a94b9dbffd8dcd3b2318", "rental_uris": {"ios": "https://dc.lft.to/lastmile_qr_scan", "android": "https://dc.lft.to/lastmile_qr_scan"}, "type": "electric_scooter", "fusion_lat": 0.0, "lon": -77.0396745}, {"fusion_lon": 0.0, "bike_id": "0543d7d190062d7a171074e680c63d70", "is_disabled": 0, "is_reserved": 0, "lat": 38.914181666666664, "name": "0543d7d190062d7a171074e680c63d70", "rental_uris": {"ios": "https://dc.lft.to/lastmile_qr_scan", "android": "https://dc.lft.to/lastmile_qr_scan"}, "type": "electric_scooter", "fusion_lat": 0.0, "lon": -77.02917416666666}, {"fusion_lon": 0.0, "bike_id": "7468e1a5773eaa377891e4eae3c86c40", "is_disabled": 0, "is_reserved": 0, "lat": 38.930881666666664, "name": "7468e1a5773eaa377891e4eae3c86c40", "rental_uris": {"ios": "https://dc.lft.to/lastmile_qr_scan", "android": "https://dc.lft.to/lastmile_qr_scan"}, "type": "electric_scooter", "fusion_lat": 0.0, "lon": -77.00200983333333}, {"fusion_lon": 0.0, "bike_id": "29d4db50ecb46c12c0376ea4d2bbc4fc", "is_disabled": 0, "is_reserved": 0, "lat": 38.90196816666667, "name": "29d4db50ecb46c12c0376ea4d2bbc4fc", "rental_uris": {"ios": "https://dc.lft.to/lastmile_qr_scan", "android": "https://dc.lft.to/lastmile_qr_scan"}, "type": "electric_scooter", "fusion_lat": 0.0, "lon": -77.048185}, {"fusion_lon": 0.0, "bike_id": "a88042ba60a614e4e5f86a821727149e", "is_disabled": 0, "is_reserved": 0, "lat": 38.89222016666667, "name": "a88042ba60a614e4e5f86a821727149e", "rental_uris": {"ios": "https://dc.lft.to/lastmile_qr_scan", "android": "https://dc.lft.to/lastmile_qr_scan"}, "type": "electric_scooter", "fusion_lat": 0.0, "lon": -77.025368}, {"fusion_lon": 0.0, "bike_id": "b1934174b4602b47dfdeec4d1fa25401", "is_disabled": 0, "is_reserved": 0, "lat": 38.921230333333334, "name": "b1934174b4602b47dfdeec4d1fa25401", "rental_uris": {"ios": "https://dc.lft.to/lastmile_qr_scan", "android": "https://dc.lft.to/lastmile_qr_scan"}, "type": "electric_scooter", "fusion_lat": 0.0, "lon": -77.036587}, {"fusion_lon": 0.0, "bike_id": "7a382d6d1159aa2160100ec3cb6d7b75", "is_disabled": 0, "is_reserved": 0, "lat": 38.90415183333333, "name": "7a382d6d1159aa2160100ec3cb6d7b75", "rental_uris": {"ios": "https://dc.lft.to/lastmile_qr_scan", "android": "https://dc.lft.to/lastmile_qr_scan"}, "type": "electric_scooter", "fusion_lat": 0.0, "lon": -77.04023483333333}, {"fusion_lon": 0.0, "bike_id": "53bfc6e9f8826fbf8ec8f81008d6f7ab", "is_disabled": 0, "is_reserved": 0, "lat": 38.9073095, "name": "53bfc6e9f8826fbf8ec8f81008d6f7ab", "rental_uris": {"ios": "https://dc.lft.to/lastmile_qr_scan", "android": "https://dc.lft.to/lastmile_qr_scan"}, "type": "electric_scooter", "fusion_lat": 0.0, "lon": -77.029648}, {"fusion_lon": 0.0, "bike_id": "5f669954379f733dd39ff5c8a0d4fe5d", "is_disabled": 0, "is_reserved": 0, "lat": 38.921735, "name": "5f669954379f733dd39ff5c8a0d4fe5d", "rental_uris": {"ios": "https://dc.lft.to/lastmile_qr_scan", "android": "https://dc.lft.to/lastmile_qr_scan"}, "type": "electric_scooter", "fusion_lat": 0.0, "lon": -77.0266965}, {"fusion_lon": 0.0, "bike_id": "b60a1f226e842e7bca5d457259b2f1b0", "is_disabled": 0, "is_reserved": 0, "lat": 38.9134205, "name": "b60a1f226e842e7bca5d457259b2f1b0", "rental_uris": {"ios": "https://dc.lft.to/lastmile_qr_scan", "android": "https://dc.lft.to/lastmile_qr_scan"}, "type": "electric_scooter", "fusion_lat": 0.0, "lon": -77.024158}, {"fusion_lon": 0.0, "bike_id": "b279f491a2205e790b7bd7fdb5bd6c2b", "is_disabled": 0, "is_reserved": 0, "lat": 38.897642833333336, "name": "b279f491a2205e790b7bd7fdb5bd6c2b", "rental_uris": {"ios": "https://dc.lft.to/lastmile_qr_scan", "android": "https://dc.lft.to/lastmile_qr_scan"}, "type": "electric_scooter", "fusion_lat": 0.0, "lon": -77.007508}, {"fusion_lon": 0.0, "bike_id": "e313be22ea0d68552199a6b253a25c91", "is_disabled": 0, "is_reserved": 0, "lat": 38.998622833333336, "name": "e313be22ea0d68552199a6b253a25c91", "rental_uris": {"ios": "https://dc.lft.to/lastmile_qr_scan", "android": "https://dc.lft.to/lastmile_qr_scan"}, "type": "electric_bike", "fusion_lat": 0.0, "lon": -77.003902}, {"fusion_lon": 0.0, "bike_id": "b4236752ecb4aeb7d971b408477df0b8", "is_disabled": 0, "is_reserved": 0, "lat": 38.909842833333336, "name": "b4236752ecb4aeb7d971b408477df0b8", "rental_uris": {"ios": "https://dc.lft.to/lastmile_qr_scan", "android": "https://dc.lft.to/lastmile_qr_scan"}, "type": "electric_scooter", "fusion_lat": 0.0, "lon": -77.024078}, {"fusion_lon": 0.0, "bike_id": "38fb5704cf1c99e67577d2917990de58", "is_disabled": 0, "is_reserved": 0, "lat": 38.90588366666667, "name": "38fb5704cf1c99e67577d2917990de58", "rental_uris": {"ios": "https://dc.lft.to/lastmile_qr_scan", "android": "https://dc.lft.to/lastmile_qr_scan"}, "type": "electric_scooter", "fusion_lat": 0.0, "lon": -77.06518833333334}, {"fusion_lon": 0.0, "bike_id": "55915f9b9a15f5e32985965cbb870bc9", "is_disabled": 0, "is_reserved": 0, "lat": 38.92370666666667, "name": "55915f9b9a15f5e32985965cbb870bc9", "rental_uris": {"ios": "https://dc.lft.to/lastmile_qr_scan", "android": "https://dc.lft.to/lastmile_qr_scan"}, "type": "electric_scooter", "fusion_lat": 0.0, "lon": -77.0195255}, {"fusion_lon": 0.0, "bike_id": "070aa94a91f415a9b6281b03ef0ffb3a", "is_disabled": 0, "is_reserved": 0, "lat": 38.92501583333333, "name": "070aa94a91f415a9b6281b03ef0ffb3a", "rental_uris": {"ios": "https://dc.lft.to/lastmile_qr_scan", "android": "https://dc.lft.to/lastmile_qr_scan"}, "type": "electric_scooter", "fusion_lat": 0.0, "lon": -77.04347766666666}, {"fusion_lon": 0.0, "bike_id": "187555330b2a5826c26e047d93430b1b", "is_disabled": 0, "is_reserved": 0, "lat": 38.92509833333333, "name": "187555330b2a5826c26e047d93430b1b", "rental_uris": {"ios": "https://dc.lft.to/lastmile_qr_scan", "android": "https://dc.lft.to/lastmile_qr_scan"}, "type": "electric_scooter", "fusion_lat": 0.0, "lon": -77.02586616666666}, {"fusion_lon": 0.0, "bike_id": "2ecfe361881afe6646126759a838e184", "is_disabled": 0, "is_reserved": 0, "lat": 38.89919866666666, "name": "2ecfe361881afe6646126759a838e184", "rental_uris": {"ios": "https://dc.lft.to/lastmile_qr_scan", "android": "https://dc.lft.to/lastmile_qr_scan"}, "type": "electric_scooter", "fusion_lat": 0.0, "lon": -77.033777}, {"fusion_lon": 0.0, "bike_id": "2101e27774a2017e57c0b3f1fd70ec23", "is_disabled": 0, "is_reserved": 0, "lat": 38.90029666666667, "name": "2101e27774a2017e57c0b3f1fd70ec23", "rental_uris": {"ios": "https://dc.lft.to/lastmile_qr_scan", "android": "https://dc.lft.to/lastmile_qr_scan"}, "type": "electric_scooter", "fusion_lat": 0.0, "lon": -77.0219795}, {"fusion_lon": 0.0, "bike_id": "d3cc7dfdc83b100d45964561f6a91790", "is_disabled": 0, "is_reserved": 0, "lat": 38.8973335, "name": "d3cc7dfdc83b100d45964561f6a91790", "rental_uris": {"ios": "https://dc.lft.to/lastmile_qr_scan", "android": "https://dc.lft.to/lastmile_qr_scan"}, "type": "electric_scooter", "fusion_lat": 0.0, "lon": -77.01915366666667}, {"fusion_lon": 0.0, "bike_id": "2abd9a6af10a87f83672d1851e11d57b", "is_disabled": 0, "is_reserved": 0, "lat": 38.90395933333333, "name": "2abd9a6af10a87f83672d1851e11d57b", "rental_uris": {"ios": "https://dc.lft.to/lastmile_qr_scan", "android": "https://dc.lft.to/lastmile_qr_scan"}, "type": "electric_scooter", "fusion_lat": 0.0, "lon": -77.03836216666667}, {"fusion_lon": 0.0, "bike_id": "0c68d63ac278369dc93b430a3b759b18", "is_disabled": 0, "is_reserved": 0, "lat": 38.90166983333334, "name": "0c68d63ac278369dc93b430a3b759b18", "rental_uris": {"ios": "https://dc.lft.to/lastmile_qr_scan", "android": "https://dc.lft.to/lastmile_qr_scan"}, "type": "electric_scooter", "fusion_lat": 0.0, "lon": -77.05133233333333}, {"fusion_lon": 0.0, "bike_id": "85e12c705d2e8003900d99458ec06034", "is_disabled": 0, "is_reserved": 0, "lat": 38.966928333333335, "name": "85e12c705d2e8003900d99458ec06034", "rental_uris": {"ios": "https://dc.lft.to/lastmile_qr_scan", "android": "https://dc.lft.to/lastmile_qr_scan"}, "type": "electric_scooter", "fusion_lat": 0.0, "lon": -77.03411283333334}, {"fusion_lon": 0.0, "bike_id": "00fb35ae5103c05ce7b3efede97c74b1", "is_disabled": 0, "is_reserved": 0, "lat": 38.905797166666666, "name": "00fb35ae5103c05ce7b3efede97c74b1", "rental_uris": {"ios": "https://dc.lft.to/lastmile_qr_scan", "android": "https://dc.lft.to/lastmile_qr_scan"}, "type": "electric_scooter", "fusion_lat": 0.0, "lon": -77.01425983333333}, {"fusion_lon": 0.0, "bike_id": "4770e649e587a29255220574333c90ca", "is_disabled": 0, "is_reserved": 0, "lat": 38.96777933333333, "name": "4770e649e587a29255220574333c90ca", "rental_uris": {"ios": "https://dc.lft.to/lastmile_qr_scan", "android": "https://dc.lft.to/lastmile_qr_scan"}, "type": "electric_bike", "fusion_lat": 0.0, "lon": -76.996553}, {"fusion_lon": 0.0, "bike_id": "6cf6b46c7758f45777b4228493afe07e", "is_disabled": 0, "is_reserved": 0, "lat": 38.899774666666666, "name": "6cf6b46c7758f45777b4228493afe07e", "rental_uris": {"ios": "https://dc.lft.to/lastmile_qr_scan", "android": "https://dc.lft.to/lastmile_qr_scan"}, "type": "electric_scooter", "fusion_lat": 0.0, "lon": -76.9949255}, {"fusion_lon": 0.0, "bike_id": "c0b47a28320367b27da1ef4e52d6d1db", "is_disabled": 0, "is_reserved": 0, "lat": 38.916938, "name": "c0b47a28320367b27da1ef4e52d6d1db", "rental_uris": {"ios": "https://dc.lft.to/lastmile_qr_scan", "android": "https://dc.lft.to/lastmile_qr_scan"}, "type": "electric_scooter", "fusion_lat": 0.0, "lon": -77.038319}, {"fusion_lon": 0.0, "bike_id": "1b184f165de1e4581886255ebc241e3b", "is_disabled": 0, "is_reserved": 0, "lat": 38.918307, "name": "1b184f165de1e4581886255ebc241e3b", "rental_uris": {"ios": "https://dc.lft.to/lastmile_qr_scan", "android": "https://dc.lft.to/lastmile_qr_scan"}, "type": "electric_scooter", "fusion_lat": 0.0, "lon": -77.06970333333334}, {"fusion_lon": 0.0, "bike_id": "3a7f82e598c823998632d638af5fb512", "is_disabled": 0, "is_reserved": 0, "lat": 38.904999333333336, "name": "3a7f82e598c823998632d638af5fb512", "rental_uris": {"ios": "https://dc.lft.to/lastmile_qr_scan", "android": "https://dc.lft.to/lastmile_qr_scan"}, "type": "electric_scooter", "fusion_lat": 0.0, "lon": -77.04079116666666}, {"fusion_lon": 0.0, "bike_id": "846eba7f1f6198848453a52b15b436e0", "is_disabled": 0, "is_reserved": 0, "lat": 38.907724333333334, "name": "846eba7f1f6198848453a52b15b436e0", "rental_uris": {"ios": "https://dc.lft.to/lastmile_qr_scan", "android": "https://dc.lft.to/lastmile_qr_scan"}, "type": "electric_scooter", "fusion_lat": 0.0, "lon": -77.07156866666666}, {"fusion_lon": 0.0, "bike_id": "fa9dd2485e2185943fb5472999b28175", "is_disabled": 0, "is_reserved": 0, "lat": 38.91533316666667, "name": "fa9dd2485e2185943fb5472999b28175", "rental_uris": {"ios": "https://dc.lft.to/lastmile_qr_scan", "android": "https://dc.lft.to/lastmile_qr_scan"}, "type": "electric_scooter", "fusion_lat": 0.0, "lon": -77.04605166666667}, {"fusion_lon": 0.0, "bike_id": "c133fb5a6479623176b945e84a4e8664", "is_disabled": 0, "is_reserved": 0, "lat": 38.917903333333335, "name": "c133fb5a6479623176b945e84a4e8664", "rental_uris": {"ios": "https://dc.lft.to/lastmile_qr_scan", "android": "https://dc.lft.to/lastmile_qr_scan"}, "type": "electric_scooter", "fusion_lat": 0.0, "lon": -77.02495416666666}, {"fusion_lon": 0.0, "bike_id": "dd2c811a24f2a4f85d94c8cfc611e4ea", "is_disabled": 0, "is_reserved": 0, "lat": 38.905986666666664, "name": "dd2c811a24f2a4f85d94c8cfc611e4ea", "rental_uris": {"ios": "https://dc.lft.to/lastmile_qr_scan", "android": "https://dc.lft.to/lastmile_qr_scan"}, "type": "electric_scooter", "fusion_lat": 0.0, "lon": -77.03975566666666}, {"fusion_lon": 0.0, "bike_id": "7ec834a9d54d8c938bfa95c7a35a951c", "is_disabled": 0, "is_reserved": 0, "lat": 38.899966, "name": "7ec834a9d54d8c938bfa95c7a35a951c", "rental_uris": {"ios": "https://dc.lft.to/lastmile_qr_scan", "android": "https://dc.lft.to/lastmile_qr_scan"}, "type": "electric_scooter", "fusion_lat": 0.0, "lon": -77.026698}, {"fusion_lon": 0.0, "bike_id": "8a02934c61626a33d47b83cc14f1fd24", "is_disabled": 0, "is_reserved": 0, "lat": 38.91452733333333, "name": "8a02934c61626a33d47b83cc14f1fd24", "rental_uris": {"ios": "https://dc.lft.to/lastmile_qr_scan", "android": "https://dc.lft.to/lastmile_qr_scan"}, "type": "electric_scooter", "fusion_lat": 0.0, "lon": -77.02118466666667}, {"fusion_lon": 0.0, "bike_id": "1d42a3dc12ea9944f9702d5d4a9adacc", "is_disabled": 0, "is_reserved": 0, "lat": 38.92265966666667, "name": "1d42a3dc12ea9944f9702d5d4a9adacc", "rental_uris": {"ios": "https://dc.lft.to/lastmile_qr_scan", "android": "https://dc.lft.to/lastmile_qr_scan"}, "type": "electric_scooter", "fusion_lat": 0.0, "lon": -77.0430265}, {"fusion_lon": 0.0, "bike_id": "26d0337ceca64a9dcc9f5872a8d75d10", "is_disabled": 0, "is_reserved": 0, "lat": 38.90945033333333, "name": "26d0337ceca64a9dcc9f5872a8d75d10", "rental_uris": {"ios": "https://dc.lft.to/lastmile_qr_scan", "android": "https://dc.lft.to/lastmile_qr_scan"}, "type": "electric_scooter", "fusion_lat": 0.0, "lon": -76.93595516666667}, {"fusion_lon": 0.0, "bike_id": "fcf331941be05c632a10e63dea4d60a2", "is_disabled": 0, "is_reserved": 0, "lat": 38.9081065, "name": "fcf331941be05c632a10e63dea4d60a2", "rental_uris": {"ios": "https://dc.lft.to/lastmile_qr_scan", "android": "https://dc.lft.to/lastmile_qr_scan"}, "type": "electric_scooter", "fusion_lat": 0.0, "lon": -77.063805}, {"fusion_lon": 0.0, "bike_id": "808757a9ad9fc7a5f8549a685fbc8219", "is_disabled": 0, "is_reserved": 0, "lat": 39.08430966666667, "name": "808757a9ad9fc7a5f8549a685fbc8219", "rental_uris": {"ios": "https://dc.lft.to/lastmile_qr_scan", "android": "https://dc.lft.to/lastmile_qr_scan"}, "type": "electric_bike", "fusion_lat": 0.0, "lon": -76.95137083333333}, {"fusion_lon": 0.0, "bike_id": "24dff7f44fb19f2276b138b80792e8ca", "is_disabled": 0, "is_reserved": 0, "lat": 38.926516166666666, "name": "24dff7f44fb19f2276b138b80792e8ca", "rental_uris": {"ios": "https://dc.lft.to/lastmile_qr_scan", "android": "https://dc.lft.to/lastmile_qr_scan"}, "type": "electric_bike", "fusion_lat": 0.0, "lon": -77.09021983333334}, {"fusion_lon": 0.0, "bike_id": "4eb5746edec2060c7a40a3da0c3d09a8", "is_disabled": 0, "is_reserved": 0, "lat": 38.92131966666667, "name": "4eb5746edec2060c7a40a3da0c3d09a8", "rental_uris": {"ios": "https://dc.lft.to/lastmile_qr_scan", "android": "https://dc.lft.to/lastmile_qr_scan"}, "type": "electric_scooter", "fusion_lat": 0.0, "lon": -77.01878266666667}, {"fusion_lon": 0.0, "bike_id": "a4c6991aa62897f5895b2f0ee7dc40d6", "is_disabled": 0, "is_reserved": 0, "lat": 38.89857766666667, "name": "a4c6991aa62897f5895b2f0ee7dc40d6", "rental_uris": {"ios": "https://dc.lft.to/lastmile_qr_scan", "android": "https://dc.lft.to/lastmile_qr_scan"}, "type": "electric_scooter", "fusion_lat": 0.0, "lon": -77.0466725}, {"fusion_lon": 0.0, "bike_id": "d53e3ff51720f293891b4abbf34093a8", "is_disabled": 0, "is_reserved": 0, "lat": 38.94308133333333, "name": "d53e3ff51720f293891b4abbf34093a8", "rental_uris": {"ios": "https://dc.lft.to/lastmile_qr_scan", "android": "https://dc.lft.to/lastmile_qr_scan"}, "type": "electric_scooter", "fusion_lat": 0.0, "lon": -77.0295455}, {"fusion_lon": 0.0, "bike_id": "2b96e5f22c1732fc3c258e7052c41786", "is_disabled": 0, "is_reserved": 0, "lat": 38.92277516666667, "name": "2b96e5f22c1732fc3c258e7052c41786", "rental_uris": {"ios": "https://dc.lft.to/lastmile_qr_scan", "android": "https://dc.lft.to/lastmile_qr_scan"}, "type": "electric_scooter", "fusion_lat": 0.0, "lon": -77.02131133333333}, {"fusion_lon": 0.0, "bike_id": "78fe97a61febe43993ee3517ad672ba4", "is_disabled": 0, "is_reserved": 0, "lat": 38.916289, "name": "78fe97a61febe43993ee3517ad672ba4", "rental_uris": {"ios": "https://dc.lft.to/lastmile_qr_scan", "android": "https://dc.lft.to/lastmile_qr_scan"}, "type": "electric_scooter", "fusion_lat": 0.0, "lon": -77.005027}, {"fusion_lon": 0.0, "bike_id": "d742502346ee656b511232b771980412", "is_disabled": 0, "is_reserved": 0, "lat": 38.91104516666667, "name": "d742502346ee656b511232b771980412", "rental_uris": {"ios": "https://dc.lft.to/lastmile_qr_scan", "android": "https://dc.lft.to/lastmile_qr_scan"}, "type": "electric_scooter", "fusion_lat": 0.0, "lon": -77.009403}, {"fusion_lon": 0.0, "bike_id": "837ca1874b837915cfa839fb65fe60a8", "is_disabled": 0, "is_reserved": 0, "lat": 38.9247255, "name": "837ca1874b837915cfa839fb65fe60a8", "rental_uris": {"ios": "https://dc.lft.to/lastmile_qr_scan", "android": "https://dc.lft.to/lastmile_qr_scan"}, "type": "electric_scooter", "fusion_lat": 0.0, "lon": -77.0220195}, {"fusion_lon": 0.0, "bike_id": "da978b974852a402c4647ad19cb6104f", "is_disabled": 0, "is_reserved": 0, "lat": 38.907189, "name": "da978b974852a402c4647ad19cb6104f", "rental_uris": {"ios": "https://dc.lft.to/lastmile_qr_scan", "android": "https://dc.lft.to/lastmile_qr_scan"}, "type": "electric_scooter", "fusion_lat": 0.0, "lon": -76.99817933333334}, {"fusion_lon": 0.0, "bike_id": "21bd6a7db0207bff053ef9be069d5dba", "is_disabled": 0, "is_reserved": 0, "lat": 38.9741195, "name": "21bd6a7db0207bff053ef9be069d5dba", "rental_uris": {"ios": "https://dc.lft.to/lastmile_qr_scan", "android": "https://dc.lft.to/lastmile_qr_scan"}, "type": "electric_bike", "fusion_lat": 0.0, "lon": -76.98415333333334}, {"fusion_lon": 0.0, "bike_id": "657fef728e91283e9f3a41b100d1bfd1", "is_disabled": 0, "is_reserved": 0, "lat": 38.9125245, "name": "657fef728e91283e9f3a41b100d1bfd1", "rental_uris": {"ios": "https://dc.lft.to/lastmile_qr_scan", "android": "https://dc.lft.to/lastmile_qr_scan"}, "type": "electric_scooter", "fusion_lat": 0.0, "lon": -77.03218383333333}, {"fusion_lon": 0.0, "bike_id": "aa8f8eff090ef1627998e1cb41f1a5ad", "is_disabled": 0, "is_reserved": 0, "lat": 38.90026983333333, "name": "aa8f8eff090ef1627998e1cb41f1a5ad", "rental_uris": {"ios": "https://dc.lft.to/lastmile_qr_scan", "android": "https://dc.lft.to/lastmile_qr_scan"}, "type": "electric_scooter", "fusion_lat": 0.0, "lon": -77.03319916666666}, {"fusion_lon": 0.0, "bike_id": "78d0af2e506812ee53ecdca726e4e3fc", "is_disabled": 0, "is_reserved": 0, "lat": 38.9111865, "name": "78d0af2e506812ee53ecdca726e4e3fc", "rental_uris": {"ios": "https://dc.lft.to/lastmile_qr_scan", "android": "https://dc.lft.to/lastmile_qr_scan"}, "type": "electric_scooter", "fusion_lat": 0.0, "lon": -77.03872}, {"fusion_lon": 0.0, "bike_id": "7089988ceb0edc403ede74481dad7f8d", "is_disabled": 0, "is_reserved": 0, "lat": 38.89783533333333, "name": "7089988ceb0edc403ede74481dad7f8d", "rental_uris": {"ios": "https://dc.lft.to/lastmile_qr_scan", "android": "https://dc.lft.to/lastmile_qr_scan"}, "type": "electric_scooter", "fusion_lat": 0.0, "lon": -77.0497585}, {"fusion_lon": 0.0, "bike_id": "3d1d5b9ff957809cf386e13a181c778c", "is_disabled": 0, "is_reserved": 0, "lat": 38.9111365, "name": "3d1d5b9ff957809cf386e13a181c778c", "rental_uris": {"ios": "https://dc.lft.to/lastmile_qr_scan", "android": "https://dc.lft.to/lastmile_qr_scan"}, "type": "electric_scooter", "fusion_lat": 0.0, "lon": -77.03219016666667}, {"fusion_lon": 0.0, "bike_id": "5c43ea5221adbb826987fa95bbd7786f", "is_disabled": 0, "is_reserved": 0, "lat": 38.927883666666666, "name": "5c43ea5221adbb826987fa95bbd7786f", "rental_uris": {"ios": "https://dc.lft.to/lastmile_qr_scan", "android": "https://dc.lft.to/lastmile_qr_scan"}, "type": "electric_scooter", "fusion_lat": 0.0, "lon": -77.03774133333333}, {"fusion_lon": 0.0, "bike_id": "ffae9d1145eba0ffe5bf8e49346e7e2b", "is_disabled": 0, "is_reserved": 0, "lat": 38.96631566666667, "name": "ffae9d1145eba0ffe5bf8e49346e7e2b", "rental_uris": {"ios": "https://dc.lft.to/lastmile_qr_scan", "android": "https://dc.lft.to/lastmile_qr_scan"}, "type": "electric_scooter", "fusion_lat": 0.0, "lon": -77.02756783333334}, {"fusion_lon": 0.0, "bike_id": "2f161f5c26dd753e140f49a37f250e4c", "is_disabled": 0, "is_reserved": 0, "lat": 38.92089133333333, "name": "2f161f5c26dd753e140f49a37f250e4c", "rental_uris": {"ios": "https://dc.lft.to/lastmile_qr_scan", "android": "https://dc.lft.to/lastmile_qr_scan"}, "type": "electric_scooter", "fusion_lat": 0.0, "lon": -77.0387695}, {"fusion_lon": 0.0, "bike_id": "47edff8d91894d6b52e0ff9ea3d9ab31", "is_disabled": 0, "is_reserved": 0, "lat": 38.904269666666664, "name": "47edff8d91894d6b52e0ff9ea3d9ab31", "rental_uris": {"ios": "https://dc.lft.to/lastmile_qr_scan", "android": "https://dc.lft.to/lastmile_qr_scan"}, "type": "electric_scooter", "fusion_lat": 0.0, "lon": -77.02080166666667}, {"fusion_lon": 0.0, "bike_id": "ff9ea1a41844101b701060d65dada18f", "is_disabled": 0, "is_reserved": 0, "lat": 38.927097, "name": "ff9ea1a41844101b701060d65dada18f", "rental_uris": {"ios": "https://dc.lft.to/lastmile_qr_scan", "android": "https://dc.lft.to/lastmile_qr_scan"}, "type": "electric_scooter", "fusion_lat": 0.0, "lon": -77.05996733333333}, {"fusion_lon": 0.0, "bike_id": "f81ed805a32b8ea7a0d69d31353e82e3", "is_disabled": 0, "is_reserved": 0, "lat": 38.86336333333333, "name": "f81ed805a32b8ea7a0d69d31353e82e3", "rental_uris": {"ios": "https://dc.lft.to/lastmile_qr_scan", "android": "https://dc.lft.to/lastmile_qr_scan"}, "type": "electric_bike", "fusion_lat": 0.0, "lon": -76.98724}, {"fusion_lon": 0.0, "bike_id": "67456627f349fa773b30324fab923c7c", "is_disabled": 0, "is_reserved": 0, "lat": 38.87267333333333, "name": "67456627f349fa773b30324fab923c7c", "rental_uris": {"ios": "https://dc.lft.to/lastmile_qr_scan", "android": "https://dc.lft.to/lastmile_qr_scan"}, "type": "electric_bike", "fusion_lat": 0.0, "lon": -76.9756015}, {"fusion_lon": 0.0, "bike_id": "6873ebfe71f18d9f7ad2192d2a27bc54", "is_disabled": 0, "is_reserved": 0, "lat": 38.917696, "name": "6873ebfe71f18d9f7ad2192d2a27bc54", "rental_uris": {"ios": "https://dc.lft.to/lastmile_qr_scan", "android": "https://dc.lft.to/lastmile_qr_scan"}, "type": "electric_scooter", "fusion_lat": 0.0, "lon": -77.00359066666667}, {"fusion_lon": 0.0, "bike_id": "d0dcf652fcee4241c3036664f64a5ae5", "is_disabled": 0, "is_reserved": 0, "lat": 38.8975515, "name": "d0dcf652fcee4241c3036664f64a5ae5", "rental_uris": {"ios": "https://dc.lft.to/lastmile_qr_scan", "android": "https://dc.lft.to/lastmile_qr_scan"}, "type": "electric_scooter", "fusion_lat": 0.0, "lon": -77.0315845}, {"fusion_lon": 0.0, "bike_id": "2293cbc18d84b0c47354546c2dee4bc4", "is_disabled": 0, "is_reserved": 0, "lat": 38.8048345, "name": "2293cbc18d84b0c47354546c2dee4bc4", "rental_uris": {"ios": "https://dc.lft.to/lastmile_qr_scan", "android": "https://dc.lft.to/lastmile_qr_scan"}, "type": "electric_bike", "fusion_lat": 0.0, "lon": -76.99100033333333}, {"fusion_lon": 0.0, "bike_id": "94512ab3850fe560ae84e9f81488591c", "is_disabled": 0, "is_reserved": 0, "lat": 38.94888183333333, "name": "94512ab3850fe560ae84e9f81488591c", "rental_uris": {"ios": "https://dc.lft.to/lastmile_qr_scan", "android": "https://dc.lft.to/lastmile_qr_scan"}, "type": "electric_scooter", "fusion_lat": 0.0, "lon": -77.01853716666666}, {"fusion_lon": 0.0, "bike_id": "ae254d8025daa83dd242bf349a65e326", "is_disabled": 0, "is_reserved": 0, "lat": 38.917900333333336, "name": "ae254d8025daa83dd242bf349a65e326", "rental_uris": {"ios": "https://dc.lft.to/lastmile_qr_scan", "android": "https://dc.lft.to/lastmile_qr_scan"}, "type": "electric_scooter", "fusion_lat": 0.0, "lon": -77.03190666666667}, {"fusion_lon": 0.0, "bike_id": "7be6868be5f68fe3b5b9c61877d47a5b", "is_disabled": 0, "is_reserved": 0, "lat": 38.912540166666666, "name": "7be6868be5f68fe3b5b9c61877d47a5b", "rental_uris": {"ios": "https://dc.lft.to/lastmile_qr_scan", "android": "https://dc.lft.to/lastmile_qr_scan"}, "type": "electric_scooter", "fusion_lat": 0.0, "lon": -77.03207166666667}, {"fusion_lon": 0.0, "bike_id": "b2c18eae785732bd7885e596f5c15fc8", "is_disabled": 0, "is_reserved": 0, "lat": 38.903806833333334, "name": "b2c18eae785732bd7885e596f5c15fc8", "rental_uris": {"ios": "https://dc.lft.to/lastmile_qr_scan", "android": "https://dc.lft.to/lastmile_qr_scan"}, "type": "electric_scooter", "fusion_lat": 0.0, "lon": -77.01650766666667}, {"fusion_lon": 0.0, "bike_id": "d2a6cb9d36709f6e848fb799c9051038", "is_disabled": 0, "is_reserved": 0, "lat": 38.92368466666667, "name": "d2a6cb9d36709f6e848fb799c9051038", "rental_uris": {"ios": "https://dc.lft.to/lastmile_qr_scan", "android": "https://dc.lft.to/lastmile_qr_scan"}, "type": "electric_scooter", "fusion_lat": 0.0, "lon": -77.028088}, {"fusion_lon": 0.0, "bike_id": "91acc6ebbd25ab781a954de95b9f41d3", "is_disabled": 0, "is_reserved": 0, "lat": 38.90054716666667, "name": "91acc6ebbd25ab781a954de95b9f41d3", "rental_uris": {"ios": "https://dc.lft.to/lastmile_qr_scan", "android": "https://dc.lft.to/lastmile_qr_scan"}, "type": "electric_scooter", "fusion_lat": 0.0, "lon": -77.05153966666667}, {"fusion_lon": 0.0, "bike_id": "459af03ec694621f4dc76dd9d6a1abd1", "is_disabled": 0, "is_reserved": 0, "lat": 38.89365266666667, "name": "459af03ec694621f4dc76dd9d6a1abd1", "rental_uris": {"ios": "https://dc.lft.to/lastmile_qr_scan", "android": "https://dc.lft.to/lastmile_qr_scan"}, "type": "electric_scooter", "fusion_lat": 0.0, "lon": -77.02811016666666}, {"fusion_lon": 0.0, "bike_id": "5d3e2fada9518c2ced91099561b1eaf5", "is_disabled": 0, "is_reserved": 0, "lat": 38.9248195, "name": "5d3e2fada9518c2ced91099561b1eaf5", "rental_uris": {"ios": "https://dc.lft.to/lastmile_qr_scan", "android": "https://dc.lft.to/lastmile_qr_scan"}, "type": "electric_scooter", "fusion_lat": 0.0, "lon": -77.02232533333333}, {"fusion_lon": 0.0, "bike_id": "65f0372e660f616020d85d382dda0de2", "is_disabled": 0, "is_reserved": 0, "lat": 38.921425666666664, "name": "65f0372e660f616020d85d382dda0de2", "rental_uris": {"ios": "https://dc.lft.to/lastmile_qr_scan", "android": "https://dc.lft.to/lastmile_qr_scan"}, "type": "electric_scooter", "fusion_lat": 0.0, "lon": -77.03485933333333}, {"fusion_lon": 0.0, "bike_id": "b9dba124ff40794966fd0fea39cc0ece", "is_disabled": 0, "is_reserved": 0, "lat": 38.924194666666665, "name": "b9dba124ff40794966fd0fea39cc0ece", "rental_uris": {"ios": "https://dc.lft.to/lastmile_qr_scan", "android": "https://dc.lft.to/lastmile_qr_scan"}, "type": "electric_scooter", "fusion_lat": 0.0, "lon": -77.021313}, {"fusion_lon": 0.0, "bike_id": "a237c9cb3a9fb278df2d2e4e26d35d79", "is_disabled": 0, "is_reserved": 0, "lat": 38.89954516666667, "name": "a237c9cb3a9fb278df2d2e4e26d35d79", "rental_uris": {"ios": "https://dc.lft.to/lastmile_qr_scan", "android": "https://dc.lft.to/lastmile_qr_scan"}, "type": "electric_scooter", "fusion_lat": 0.0, "lon": -77.04504433333334}, {"fusion_lon": 0.0, "bike_id": "1570a3ddeded9e9736886b0e2c1ee11a", "is_disabled": 0, "is_reserved": 0, "lat": 38.920527166666666, "name": "1570a3ddeded9e9736886b0e2c1ee11a", "rental_uris": {"ios": "https://dc.lft.to/lastmile_qr_scan", "android": "https://dc.lft.to/lastmile_qr_scan"}, "type": "electric_scooter", "fusion_lat": 0.0, "lon": -77.03403616666667}, {"fusion_lon": 0.0, "bike_id": "3d38922ef8fd460ad82fcd0dd8c22a3e", "is_disabled": 0, "is_reserved": 0, "lat": 38.910019166666665, "name": "3d38922ef8fd460ad82fcd0dd8c22a3e", "rental_uris": {"ios": "https://dc.lft.to/lastmile_qr_scan", "android": "https://dc.lft.to/lastmile_qr_scan"}, "type": "electric_bike", "fusion_lat": 0.0, "lon": -76.98419616666666}, {"fusion_lon": 0.0, "bike_id": "cfc4f3fb83fee6f2d2d09c198cc1a8f9", "is_disabled": 0, "is_reserved": 0, "lat": 38.91111083333333, "name": "cfc4f3fb83fee6f2d2d09c198cc1a8f9", "rental_uris": {"ios": "https://dc.lft.to/lastmile_qr_scan", "android": "https://dc.lft.to/lastmile_qr_scan"}, "type": "electric_scooter", "fusion_lat": 0.0, "lon": -77.0383695}, {"fusion_lon": 0.0, "bike_id": "7b68a9c1e2f49c5702b30cf2fd726c73", "is_disabled": 0, "is_reserved": 0, "lat": 38.893621333333336, "name": "7b68a9c1e2f49c5702b30cf2fd726c73", "rental_uris": {"ios": "https://dc.lft.to/lastmile_qr_scan", "android": "https://dc.lft.to/lastmile_qr_scan"}, "type": "electric_scooter", "fusion_lat": 0.0, "lon": -77.03201516666667}, {"fusion_lon": 0.0, "bike_id": "d678a796ef1e427d7e8b52724bc761e1", "is_disabled": 0, "is_reserved": 0, "lat": 38.90992283333333, "name": "d678a796ef1e427d7e8b52724bc761e1", "rental_uris": {"ios": "https://dc.lft.to/lastmile_qr_scan", "android": "https://dc.lft.to/lastmile_qr_scan"}, "type": "electric_scooter", "fusion_lat": 0.0, "lon": -77.0046985}, {"fusion_lon": 0.0, "bike_id": "af6540600fdf6d7f030d379ce2651b45", "is_disabled": 0, "is_reserved": 0, "lat": 38.813400666666666, "name": "af6540600fdf6d7f030d379ce2651b45", "rental_uris": {"ios": "https://dc.lft.to/lastmile_qr_scan", "android": "https://dc.lft.to/lastmile_qr_scan"}, "type": "electric_bike", "fusion_lat": 0.0, "lon": -77.050832}, {"fusion_lon": 0.0, "bike_id": "ef9a09e9d3e8b5ac2b3ee9789f9cbe91", "is_disabled": 0, "is_reserved": 0, "lat": 38.9086955, "name": "ef9a09e9d3e8b5ac2b3ee9789f9cbe91", "rental_uris": {"ios": "https://dc.lft.to/lastmile_qr_scan", "android": "https://dc.lft.to/lastmile_qr_scan"}, "type": "electric_scooter", "fusion_lat": 0.0, "lon": -77.02716916666667}, {"fusion_lon": 0.0, "bike_id": "ec11e35375377fc179c2cc357f02ff66", "is_disabled": 0, "is_reserved": 0, "lat": 38.892355333333334, "name": "ec11e35375377fc179c2cc357f02ff66", "rental_uris": {"ios": "https://dc.lft.to/lastmile_qr_scan", "android": "https://dc.lft.to/lastmile_qr_scan"}, "type": "electric_scooter", "fusion_lat": 0.0, "lon": -77.03167133333334}, {"fusion_lon": 0.0, "bike_id": "a4e44a3b7dbc785ea3346ab22a14998c", "is_disabled": 0, "is_reserved": 0, "lat": 38.91574216666667, "name": "a4e44a3b7dbc785ea3346ab22a14998c", "rental_uris": {"ios": "https://dc.lft.to/lastmile_qr_scan", "android": "https://dc.lft.to/lastmile_qr_scan"}, "type": "electric_scooter", "fusion_lat": 0.0, "lon": -77.03197933333334}, {"fusion_lon": 0.0, "bike_id": "148122f5271f7f323949bc9533366aa1", "is_disabled": 0, "is_reserved": 0, "lat": 38.88393683333334, "name": "148122f5271f7f323949bc9533366aa1", "rental_uris": {"ios": "https://dc.lft.to/lastmile_qr_scan", "android": "https://dc.lft.to/lastmile_qr_scan"}, "type": "electric_scooter", "fusion_lat": 0.0, "lon": -77.04449966666667}, {"fusion_lon": 0.0, "bike_id": "0a977301ee86f90daa5b851257a9cdfa", "is_disabled": 0, "is_reserved": 0, "lat": 38.92188616666667, "name": "0a977301ee86f90daa5b851257a9cdfa", "rental_uris": {"ios": "https://dc.lft.to/lastmile_qr_scan", "android": "https://dc.lft.to/lastmile_qr_scan"}, "type": "electric_scooter", "fusion_lat": 0.0, "lon": -77.0434555}, {"fusion_lon": 0.0, "bike_id": "bdf614539739a1acd9de2fd046ade4b0", "is_disabled": 0, "is_reserved": 0, "lat": 38.913414, "name": "bdf614539739a1acd9de2fd046ade4b0", "rental_uris": {"ios": "https://dc.lft.to/lastmile_qr_scan", "android": "https://dc.lft.to/lastmile_qr_scan"}, "type": "electric_scooter", "fusion_lat": 0.0, "lon": -77.04237766666667}, {"fusion_lon": 0.0, "bike_id": "6e20925a5b3cdc1c2c82d1660a6c5182", "is_disabled": 0, "is_reserved": 0, "lat": 38.92410983333333, "name": "6e20925a5b3cdc1c2c82d1660a6c5182", "rental_uris": {"ios": "https://dc.lft.to/lastmile_qr_scan", "android": "https://dc.lft.to/lastmile_qr_scan"}, "type": "electric_scooter", "fusion_lat": 0.0, "lon": -77.02275683333333}, {"fusion_lon": 0.0, "bike_id": "ce49c901f917a59131fec4ae3dcdd885", "is_disabled": 0, "is_reserved": 0, "lat": 38.93788133333334, "name": "ce49c901f917a59131fec4ae3dcdd885", "rental_uris": {"ios": "https://dc.lft.to/lastmile_qr_scan", "android": "https://dc.lft.to/lastmile_qr_scan"}, "type": "electric_scooter", "fusion_lat": 0.0, "lon": -77.03302633333334}, {"fusion_lon": 0.0, "bike_id": "9cf2246b71ba78b7aa46b3c55cf63be9", "is_disabled": 0, "is_reserved": 0, "lat": 38.9455855, "name": "9cf2246b71ba78b7aa46b3c55cf63be9", "rental_uris": {"ios": "https://dc.lft.to/lastmile_qr_scan", "android": "https://dc.lft.to/lastmile_qr_scan"}, "type": "electric_scooter", "fusion_lat": 0.0, "lon": -77.064082}, {"fusion_lon": 0.0, "bike_id": "b11ac517d0fffcdf8e748a885f38dfb7", "is_disabled": 0, "is_reserved": 0, "lat": 38.90756283333333, "name": "b11ac517d0fffcdf8e748a885f38dfb7", "rental_uris": {"ios": "https://dc.lft.to/lastmile_qr_scan", "android": "https://dc.lft.to/lastmile_qr_scan"}, "type": "electric_scooter", "fusion_lat": 0.0, "lon": -77.04158383333333}, {"fusion_lon": 0.0, "bike_id": "7b2feaefce958f66aa60e85d5f3cde33", "is_disabled": 0, "is_reserved": 0, "lat": 38.928089166666666, "name": "7b2feaefce958f66aa60e85d5f3cde33", "rental_uris": {"ios": "https://dc.lft.to/lastmile_qr_scan", "android": "https://dc.lft.to/lastmile_qr_scan"}, "type": "electric_bike", "fusion_lat": 0.0, "lon": -77.2295085}, {"fusion_lon": 0.0, "bike_id": "542f9b2835097b95e8e9a0034bff91ca", "is_disabled": 0, "is_reserved": 0, "lat": 38.946108333333335, "name": "542f9b2835097b95e8e9a0034bff91ca", "rental_uris": {"ios": "https://dc.lft.to/lastmile_qr_scan", "android": "https://dc.lft.to/lastmile_qr_scan"}, "type": "electric_scooter", "fusion_lat": 0.0, "lon": -77.03285983333333}, {"fusion_lon": 0.0, "bike_id": "028fbaa36f97b431126ece00a5e0a6da", "is_disabled": 0, "is_reserved": 0, "lat": 38.913461833333336, "name": "028fbaa36f97b431126ece00a5e0a6da", "rental_uris": {"ios": "https://dc.lft.to/lastmile_qr_scan", "android": "https://dc.lft.to/lastmile_qr_scan"}, "type": "electric_scooter", "fusion_lat": 0.0, "lon": -77.0427315}, {"fusion_lon": 0.0, "bike_id": "6d345824ff5c120739a6520cadfe8765", "is_disabled": 0, "is_reserved": 0, "lat": 38.88520583333333, "name": "6d345824ff5c120739a6520cadfe8765", "rental_uris": {"ios": "https://dc.lft.to/lastmile_qr_scan", "android": "https://dc.lft.to/lastmile_qr_scan"}, "type": "electric_scooter", "fusion_lat": 0.0, "lon": -76.97709066666667}, {"fusion_lon": 0.0, "bike_id": "149d0e45592daedddb488802d742cd8f", "is_disabled": 0, "is_reserved": 0, "lat": 38.91128333333333, "name": "149d0e45592daedddb488802d742cd8f", "rental_uris": {"ios": "https://dc.lft.to/lastmile_qr_scan", "android": "https://dc.lft.to/lastmile_qr_scan"}, "type": "electric_scooter", "fusion_lat": 0.0, "lon": -77.03214833333334}, {"fusion_lon": 0.0, "bike_id": "a5f480c26c96a846347167d75fcc5de9", "is_disabled": 0, "is_reserved": 0, "lat": 38.90743533333333, "name": "a5f480c26c96a846347167d75fcc5de9", "rental_uris": {"ios": "https://dc.lft.to/lastmile_qr_scan", "android": "https://dc.lft.to/lastmile_qr_scan"}, "type": "electric_scooter", "fusion_lat": 0.0, "lon": -77.04562916666667}, {"fusion_lon": 0.0, "bike_id": "203250fc7a1fee5f0fffc3f7c79117ac", "is_disabled": 0, "is_reserved": 0, "lat": 38.909579666666666, "name": "203250fc7a1fee5f0fffc3f7c79117ac", "rental_uris": {"ios": "https://dc.lft.to/lastmile_qr_scan", "android": "https://dc.lft.to/lastmile_qr_scan"}, "type": "electric_scooter", "fusion_lat": 0.0, "lon": -77.01179}, {"fusion_lon": 0.0, "bike_id": "8dffa9c8275e323c0d80ef35d30cca38", "is_disabled": 0, "is_reserved": 0, "lat": 38.929854666666664, "name": "8dffa9c8275e323c0d80ef35d30cca38", "rental_uris": {"ios": "https://dc.lft.to/lastmile_qr_scan", "android": "https://dc.lft.to/lastmile_qr_scan"}, "type": "electric_scooter", "fusion_lat": 0.0, "lon": -77.05507033333333}, {"fusion_lon": 0.0, "bike_id": "fed40fe5d3677f45f034f5f8834607f9", "is_disabled": 0, "is_reserved": 0, "lat": 38.920652833333335, "name": "fed40fe5d3677f45f034f5f8834607f9", "rental_uris": {"ios": "https://dc.lft.to/lastmile_qr_scan", "android": "https://dc.lft.to/lastmile_qr_scan"}, "type": "electric_scooter", "fusion_lat": 0.0, "lon": -77.0219945}, {"fusion_lon": 0.0, "bike_id": "3ad2b251a4b91370600ccaf2d48c0f56", "is_disabled": 0, "is_reserved": 0, "lat": 38.900813, "name": "3ad2b251a4b91370600ccaf2d48c0f56", "rental_uris": {"ios": "https://dc.lft.to/lastmile_qr_scan", "android": "https://dc.lft.to/lastmile_qr_scan"}, "type": "electric_scooter", "fusion_lat": 0.0, "lon": -77.02714833333333}, {"fusion_lon": 0.0, "bike_id": "d8b8fbe51b1769338dd4086a8dea930e", "is_disabled": 0, "is_reserved": 0, "lat": 38.897635666666666, "name": "d8b8fbe51b1769338dd4086a8dea930e", "rental_uris": {"ios": "https://dc.lft.to/lastmile_qr_scan", "android": "https://dc.lft.to/lastmile_qr_scan"}, "type": "electric_scooter", "fusion_lat": 0.0, "lon": -77.05497316666667}, {"fusion_lon": 0.0, "bike_id": "0d822a36f4b08e344353cb86409e85a6", "is_disabled": 0, "is_reserved": 0, "lat": 38.91809633333333, "name": "0d822a36f4b08e344353cb86409e85a6", "rental_uris": {"ios": "https://dc.lft.to/lastmile_qr_scan", "android": "https://dc.lft.to/lastmile_qr_scan"}, "type": "electric_scooter", "fusion_lat": 0.0, "lon": -77.0115745}, {"fusion_lon": 0.0, "bike_id": "08ef3538ba19865de37102a12267646e", "is_disabled": 0, "is_reserved": 0, "lat": 38.928639833333335, "name": "08ef3538ba19865de37102a12267646e", "rental_uris": {"ios": "https://dc.lft.to/lastmile_qr_scan", "android": "https://dc.lft.to/lastmile_qr_scan"}, "type": "electric_scooter", "fusion_lat": 0.0, "lon": -77.032941}, {"fusion_lon": 0.0, "bike_id": "5530255a130cb359232369907892009e", "is_disabled": 0, "is_reserved": 0, "lat": 38.913131, "name": "5530255a130cb359232369907892009e", "rental_uris": {"ios": "https://dc.lft.to/lastmile_qr_scan", "android": "https://dc.lft.to/lastmile_qr_scan"}, "type": "electric_scooter", "fusion_lat": 0.0, "lon": -77.03643733333334},