{"data": {"bikes": [{"rental_uris": {"android": "https://dc.lft.to/lastmile_qr_scan", "ios": "https://dc.lft.to/lastmile_qr_scan"}, "lat": 38.922243333333334, "type": "electric_scooter", "name": "49113110d96a46ffae58d0b6ba6ca6c2", "fusion_lon": 0.0, "fusion_lat": 0.0, "is_reserved": 0, "bike_id": "49113110d96a46ffae58d0b6ba6ca6c2", "lon": -77.04238933333333, "is_disabled": 0}, {"rental_uris": {"android": "https://dc.lft.to/lastmile_qr_scan", "ios": "https://dc.lft.to/lastmile_qr_scan"}, "lat": 38.92448316666667, "type": "electric_scooter", "name": "e1c26516bfe0492ba8978e3aa897e1b5", "fusion_lon": 0.0, "fusion_lat": 0.0, "is_reserved": 0, "bike_id": "e1c26516bfe0492ba8978e3aa897e1b5", "lon": -77.03359533333334, "is_disabled": 0}, {"rental_uris": {"android": "https://dc.lft.to/lastmile_qr_scan", "ios": "https://dc.lft.to/lastmile_qr_scan"}, "lat": 38.896133666666664, "type": "electric_scooter", "name": "16b5e0ef7cc15d22d018976e2aa04077", "fusion_lon": 0.0, "fusion_lat": 0.0, "is_reserved": 0, "bike_id": "16b5e0ef7cc15d22d018976e2aa04077", "lon": -76.9485115, "is_disabled": 0}, {"rental_uris": {"android": "https://dc.lft.to/lastmile_qr_scan", "ios": "https://dc.lft.to/lastmile_qr_scan"}, "lat": 38.90105333333333, "type": "electric_scooter", "name": "d10b8387497baffa9ec8e6c93c0e31fb", "fusion_lon": 0.0, "fusion_lat": 0.0, "is_reserved": 0, "bike_id": "d10b8387497baffa9ec8e6c93c0e31fb", "lon": -77.03364033333334, "is_disabled": 0}, {"rental_uris": {"android": "https://dc.lft.to/lastmile_qr_scan", "ios": "https://dc.lft.to/lastmile_qr_scan"}, "lat": 38.887903666666666, "type": "electric_scooter", "name": "976997a1306f178147660bcdb0381e23", "fusion_lon": 0.0, "fusion_lat": 0.0, "is_reserved": 0, "bike_id": "976997a1306f178147660bcdb0381e23", "lon": -77.01596216666667, "is_disabled": 0}, {"rental_uris": {"android": "https://dc.lft.to/lastmile_qr_scan", "ios": "https://dc.lft.to/lastmile_qr_scan"}, "lat": 38.93307733333333, "type": "electric_scooter", "name": "69a1d7b0b23c0abee253870cec7b3e25", "fusion_lon": 0.0, "fusion_lat": 0.0, "is_reserved": 0, "bike_id": "69a1d7b0b23c0abee253870cec7b3e25", "lon": -77.03078683333334, "is_disabled": 0}, {"rental_uris": {"android": "https://dc.lft.to/lastmile_qr_scan", "ios": "https://dc.lft.to/lastmile_qr_scan"}, "lat": 38.89851633333333, "type": "electric_bike", "name": "4ac0caffbcb0e6280501496417b6a16e", "fusion_lon": 0.0, "fusion_lat": 0.0, "is_reserved": 0, "bike_id": "4ac0caffbcb0e6280501496417b6a16e", "lon": -76.9318615, "is_disabled": 0}, {"rental_uris": {"android": "https://dc.lft.to/lastmile_qr_scan", "ios": "https://dc.lft.to/lastmile_qr_scan"}, "lat": 38.8922525, "type": "electric_scooter", "name": "88470506287d6cbf4c5e53e67b43e716", "fusion_lon": 0.0, "fusion_lat": 0.0, "is_reserved": 0, "bike_id": "88470506287d6cbf4c5e53e67b43e716", "lon": -77.02411033333334, "is_disabled": 0}, {"rental_uris": {"android": "https://dc.lft.to/lastmile_qr_scan", "ios": "https://dc.lft.to/lastmile_qr_scan"}, "lat": 38.956146833333335, "type": "electric_bike", "name": "ab1d776e6b46d49eb64b66b21c11760b", "fusion_lon": 0.0, "fusion_lat": 0.0, "is_reserved": 0, "bike_id": "ab1d776e6b46d49eb64b66b21c11760b", "lon": -76.96270366666667, "is_disabled": 0}, {"rental_uris": {"android": "https://dc.lft.to/lastmile_qr_scan", "ios": "https://dc.lft.to/lastmile_qr_scan"}, "lat": 38.892267, "type": "electric_scooter", "name": "cf92e720814792949edf45d4f223d337", "fusion_lon": 0.0, "fusion_lat": 0.0, "is_reserved": 0, "bike_id": "cf92e720814792949edf45d4f223d337", "lon": -77.04502316666667, "is_disabled": 0}, {"rental_uris": {"android": "https://dc.lft.to/lastmile_qr_scan", "ios": "https://dc.lft.to/lastmile_qr_scan"}, "lat": 38.92308583333333, "type": "electric_scooter", "name": "b9bd9899eb7919dbe430ff3c0317faf8", "fusion_lon": 0.0, "fusion_lat": 0.0, "is_reserved": 0, "bike_id": "b9bd9899eb7919dbe430ff3c0317faf8", "lon": -77.0310445, "is_disabled": 0}, {"rental_uris": {"android": "https://dc.lft.to/lastmile_qr_scan", "ios": "https://dc.lft.to/lastmile_qr_scan"}, "lat": 38.881358166666665, "type": "electric_scooter", "name": "0db9a2d26076a00ed17cf46da596007b", "fusion_lon": 0.0, "fusion_lat": 0.0, "is_reserved": 0, "bike_id": "0db9a2d26076a00ed17cf46da596007b", "lon": -77.02268083333334, "is_disabled": 0}, {"rental_uris": {"android": "https://dc.lft.to/lastmile_qr_scan", "ios": "https://dc.lft.to/lastmile_qr_scan"}, "lat": 38.89355716666667, "type": "electric_scooter", "name": "615ccfa1ff0c5368cf413cc6f45ef7ce", "fusion_lon": 0.0, "fusion_lat": 0.0, "is_reserved": 0, "bike_id": "615ccfa1ff0c5368cf413cc6f45ef7ce", "lon": -77.0033325, "is_disabled": 0}, {"rental_uris": {"android": "https://dc.lft.to/lastmile_qr_scan", "ios": "https://dc.lft.to/lastmile_qr_scan"}, "lat": 38.902203166666666, "type": "electric_bike", "name": "f1f105b5c8d797b9a4abf478e2b811dd", "fusion_lon": 0.0, "fusion_lat": 0.0, "is_reserved": 0, "bike_id": "f1f105b5c8d797b9a4abf478e2b811dd", "lon": -76.93175616666667, "is_disabled": 0}, {"rental_uris": {"android": "https://dc.lft.to/lastmile_qr_scan", "ios": "https://dc.lft.to/lastmile_qr_scan"}, "lat": 38.924448, "type": "electric_scooter", "name": "929261151701c0252b9056eeea744088", "fusion_lon": 0.0, "fusion_lat": 0.0, "is_reserved": 0, "bike_id": "929261151701c0252b9056eeea744088", "lon": -77.0215075, "is_disabled": 0}, {"rental_uris": {"android": "https://dc.lft.to/lastmile_qr_scan", "ios": "https://dc.lft.to/lastmile_qr_scan"}, "lat": 38.9093665, "type": "electric_scooter", "name": "c01c3790c83d41fb669da22ab02646cf", "fusion_lon": 0.0, "fusion_lat": 0.0, "is_reserved": 0, "bike_id": "c01c3790c83d41fb669da22ab02646cf", "lon": -76.98309966666666, "is_disabled": 0}, {"rental_uris": {"android": "https://dc.lft.to/lastmile_qr_scan", "ios": "https://dc.lft.to/lastmile_qr_scan"}, "lat": 38.838594666666665, "type": "electric_bike", "name": "b2256463af8cf81620a9c236434f7bde", "fusion_lon": 0.0, "fusion_lat": 0.0, "is_reserved": 0, "bike_id": "b2256463af8cf81620a9c236434f7bde", "lon": -76.996973, "is_disabled": 0}, {"rental_uris": {"android": "https://dc.lft.to/lastmile_qr_scan", "ios": "https://dc.lft.to/lastmile_qr_scan"}, "lat": 38.905158, "type": "electric_scooter", "name": "8acd11cb32051e900b4c11e2476aa588", "fusion_lon": 0.0, "fusion_lat": 0.0, "is_reserved": 0, "bike_id": "8acd11cb32051e900b4c11e2476aa588", "lon": -77.06047133333334, "is_disabled": 0}, {"rental_uris": {"android": "https://dc.lft.to/lastmile_qr_scan", "ios": "https://dc.lft.to/lastmile_qr_scan"}, "lat": 38.91051683333333, "type": "electric_scooter", "name": "352ae88b8fb345099ab41a2a3f95237b", "fusion_lon": 0.0, "fusion_lat": 0.0, "is_reserved": 0, "bike_id": "352ae88b8fb345099ab41a2a3f95237b", "lon": -77.0217835, "is_disabled": 0}, {"rental_uris": {"android": "https://dc.lft.to/lastmile_qr_scan", "ios": "https://dc.lft.to/lastmile_qr_scan"}, "lat": 38.9172225, "type": "electric_scooter", "name": "40ce63234c81113f08040d2e3fa0e889", "fusion_lon": 0.0, "fusion_lat": 0.0, "is_reserved": 0, "bike_id": "40ce63234c81113f08040d2e3fa0e889", "lon": -77.02299566666667, "is_disabled": 0}, {"rental_uris": {"android": "https://dc.lft.to/lastmile_qr_scan", "ios": "https://dc.lft.to/lastmile_qr_scan"}, "lat": 38.928166833333336, "type": "electric_scooter", "name": "1eeeba22bcbedb272e07d6e35939247e", "fusion_lon": 0.0, "fusion_lat": 0.0, "is_reserved": 0, "bike_id": "1eeeba22bcbedb272e07d6e35939247e", "lon": -77.02327016666666, "is_disabled": 0}, {"rental_uris": {"android": "https://dc.lft.to/lastmile_qr_scan", "ios": "https://dc.lft.to/lastmile_qr_scan"}, "lat": 38.9083325, "type": "electric_scooter", "name": "973567b2aa55926b6c1cd4c6bdf25a7b", "fusion_lon": 0.0, "fusion_lat": 0.0, "is_reserved": 0, "bike_id": "973567b2aa55926b6c1cd4c6bdf25a7b", "lon": -77.042566, "is_disabled": 0}, {"rental_uris": {"android": "https://dc.lft.to/lastmile_qr_scan", "ios": "https://dc.lft.to/lastmile_qr_scan"}, "lat": 38.905001166666665, "type": "electric_scooter", "name": "0b9496bf8cc3065016e7b6d1e70f4883", "fusion_lon": 0.0, "fusion_lat": 0.0, "is_reserved": 0, "bike_id": "0b9496bf8cc3065016e7b6d1e70f4883", "lon": -77.04866083333333, "is_disabled": 0}, {"rental_uris": {"android": "https://dc.lft.to/lastmile_qr_scan", "ios": "https://dc.lft.to/lastmile_qr_scan"}, "lat": 38.90421633333333, "type": "electric_scooter", "name": "3ef8aa6da815874cabfc0eb7f1310410", "fusion_lon": 0.0, "fusion_lat": 0.0, "is_reserved": 0, "bike_id": "3ef8aa6da815874cabfc0eb7f1310410", "lon": -77.04649516666667, "is_disabled": 0}, {"rental_uris": {"android": "https://dc.lft.to/lastmile_qr_scan", "ios": "https://dc.lft.to/lastmile_qr_scan"}, "lat": 38.942637500000004, "type": "electric_scooter", "name": "b5c1b51d0a8a6eb01f79cfe9c8b18ae7", "fusion_lon": 0.0, "fusion_lat": 0.0, "is_reserved": 0, "bike_id": "b5c1b51d0a8a6eb01f79cfe9c8b18ae7", "lon": -77.02844233333333, "is_disabled": 0}, {"rental_uris": {"android": "https://dc.lft.to/lastmile_qr_scan", "ios": "https://dc.lft.to/lastmile_qr_scan"}, "lat": 38.923185833333335, "type": "electric_scooter", "name": "40212a33a328f95234926f85d9371306", "fusion_lon": 0.0, "fusion_lat": 0.0, "is_reserved": 0, "bike_id": "40212a33a328f95234926f85d9371306", "lon": -77.0195305, "is_disabled": 0}, {"rental_uris": {"android": "https://dc.lft.to/lastmile_qr_scan", "ios": "https://dc.lft.to/lastmile_qr_scan"}, "lat": 38.909097833333334, "type": "electric_scooter", "name": "81c6dc2eee25b1feea55f65d1626854c", "fusion_lon": 0.0, "fusion_lat": 0.0, "is_reserved": 0, "bike_id": "81c6dc2eee25b1feea55f65d1626854c", "lon": -76.9918585, "is_disabled": 0}, {"rental_uris": {"android": "https://dc.lft.to/lastmile_qr_scan", "ios": "https://dc.lft.to/lastmile_qr_scan"}, "lat": 38.88672783333333, "type": "electric_scooter", "name": "69e8203c383485e988268191ce5ab633", "fusion_lon": 0.0, "fusion_lat": 0.0, "is_reserved": 0, "bike_id": "69e8203c383485e988268191ce5ab633", "lon": -77.02208516666667, "is_disabled": 0}, {"rental_uris": {"android": "https://dc.lft.to/lastmile_qr_scan", "ios": "https://dc.lft.to/lastmile_qr_scan"}, "lat": 38.892264, "type": "electric_scooter", "name": "0fe9b082e2dc8e566e3687c32e6f2835", "fusion_lon": 0.0, "fusion_lat": 0.0, "is_reserved": 0, "bike_id": "0fe9b082e2dc8e566e3687c32e6f2835", "lon": -77.02410766666667, "is_disabled": 0}, {"rental_uris": {"android": "https://dc.lft.to/lastmile_qr_scan", "ios": "https://dc.lft.to/lastmile_qr_scan"}, "lat": 38.92875933333333, "type": "electric_scooter", "name": "42edaf97821723bc46c40784c5d75600", "fusion_lon": 0.0, "fusion_lat": 0.0, "is_reserved": 0, "bike_id": "42edaf97821723bc46c40784c5d75600", "lon": -77.01369933333334, "is_disabled": 0}, {"rental_uris": {"android": "https://dc.lft.to/lastmile_qr_scan", "ios": "https://dc.lft.to/lastmile_qr_scan"}, "lat": 38.909462833333336, "type": "electric_scooter", "name": "88d462333099544d31d2fe40f07bdb37", "fusion_lon": 0.0, "fusion_lat": 0.0, "is_reserved": 0, "bike_id": "88d462333099544d31d2fe40f07bdb37", "lon": -77.06436033333334, "is_disabled": 0}, {"rental_uris": {"android": "https://dc.lft.to/lastmile_qr_scan", "ios": "https://dc.lft.to/lastmile_qr_scan"}, "lat": 38.902732666666665, "type": "electric_scooter", "name": "4b72799eff2658ba7352743e4493f88b", "fusion_lon": 0.0, "fusion_lat": 0.0, "is_reserved": 0, "bike_id": "4b72799eff2658ba7352743e4493f88b", "lon": -77.03832366666667, "is_disabled": 0}, {"rental_uris": {"android": "https://dc.lft.to/lastmile_qr_scan", "ios": "https://dc.lft.to/lastmile_qr_scan"}, "lat": 38.90734, "type": "electric_scooter", "name": "b73268151e60394c073ec5f3dec991fe", "fusion_lon": 0.0, "fusion_lat": 0.0, "is_reserved": 0, "bike_id": "b73268151e60394c073ec5f3dec991fe", "lon": -77.03957516666667, "is_disabled": 0}, {"rental_uris": {"android": "https://dc.lft.to/lastmile_qr_scan", "ios": "https://dc.lft.to/lastmile_qr_scan"}, "lat": 38.893939833333334, "type": "electric_scooter", "name": "5dd41468ec29b3ce9d2e111ddeec439c", "fusion_lon": 0.0, "fusion_lat": 0.0, "is_reserved": 0, "bike_id": "5dd41468ec29b3ce9d2e111ddeec439c", "lon": -77.04654966666666, "is_disabled": 0}, {"rental_uris": {"android": "https://dc.lft.to/lastmile_qr_scan", "ios": "https://dc.lft.to/lastmile_qr_scan"}, "lat": 38.9272075, "type": "electric_scooter", "name": "eb75155c22574adbf68685ce72901324", "fusion_lon": 0.0, "fusion_lat": 0.0, "is_reserved": 0, "bike_id": "eb75155c22574adbf68685ce72901324", "lon": -77.05140983333334, "is_disabled": 0}, {"rental_uris": {"android": "https://dc.lft.to/lastmile_qr_scan", "ios": "https://dc.lft.to/lastmile_qr_scan"}, "lat": 38.95927966666667, "type": "electric_bike", "name": "928bdf567136e4f367fc5c18d024d8fc", "fusion_lon": 0.0, "fusion_lat": 0.0, "is_reserved": 0, "bike_id": "928bdf567136e4f367fc5c18d024d8fc", "lon": -76.92546116666666, "is_disabled": 0}, {"rental_uris": {"android": "https://dc.lft.to/lastmile_qr_scan", "ios": "https://dc.lft.to/lastmile_qr_scan"}, "lat": 38.939493166666665, "type": "electric_scooter", "name": "e2267f23069e9b3f1a9e09ffa538049f", "fusion_lon": 0.0, "fusion_lat": 0.0, "is_reserved": 0, "bike_id": "e2267f23069e9b3f1a9e09ffa538049f", "lon": -77.07244933333334, "is_disabled": 0}, {"rental_uris": {"android": "https://dc.lft.to/lastmile_qr_scan", "ios": "https://dc.lft.to/lastmile_qr_scan"}, "lat": 38.905889, "type": "electric_scooter", "name": "94d17dbb591ca2547de7f8bf7f51d5e3", "fusion_lon": 0.0, "fusion_lat": 0.0, "is_reserved": 0, "bike_id": "94d17dbb591ca2547de7f8bf7f51d5e3", "lon": -77.06279266666667, "is_disabled": 0}, {"rental_uris": {"android": "https://dc.lft.to/lastmile_qr_scan", "ios": "https://dc.lft.to/lastmile_qr_scan"}, "lat": 38.928992, "type": "electric_scooter", "name": "29c73e2c3d5964f6d05900be4b3c5161", "fusion_lon": 0.0, "fusion_lat": 0.0, "is_reserved": 0, "bike_id": "29c73e2c3d5964f6d05900be4b3c5161", "lon": -77.0322775, "is_disabled": 0}, {"rental_uris": {"android": "https://dc.lft.to/lastmile_qr_scan", "ios": "https://dc.lft.to/lastmile_qr_scan"}, "lat": 38.92338216666667, "type": "electric_scooter", "name": "a84fdc0cae906a8ffb7d641a4b3526a9", "fusion_lon": 0.0, "fusion_lat": 0.0, "is_reserved": 0, "bike_id": "a84fdc0cae906a8ffb7d641a4b3526a9", "lon": -77.01892966666666, "is_disabled": 0}, {"rental_uris": {"android": "https://dc.lft.to/lastmile_qr_scan", "ios": "https://dc.lft.to/lastmile_qr_scan"}, "lat": 38.8580195, "type": "electric_bike", "name": "5c83928b09cfdf474d9548a3f9702e69", "fusion_lon": 0.0, "fusion_lat": 0.0, "is_reserved": 0, "bike_id": "5c83928b09cfdf474d9548a3f9702e69", "lon": -76.98752983333333, "is_disabled": 0}, {"rental_uris": {"android": "https://dc.lft.to/lastmile_qr_scan", "ios": "https://dc.lft.to/lastmile_qr_scan"}, "lat": 38.90866366666667, "type": "electric_scooter", "name": "69b4c865d60248cd3023f5311da351f1", "fusion_lon": 0.0, "fusion_lat": 0.0, "is_reserved": 0, "bike_id": "69b4c865d60248cd3023f5311da351f1", "lon": -77.07095766666667, "is_disabled": 0}, {"rental_uris": {"android": "https://dc.lft.to/lastmile_qr_scan", "ios": "https://dc.lft.to/lastmile_qr_scan"}, "lat": 38.90286533333333, "type": "electric_scooter", "name": "ab88bbf46317a98ff5e1852622295531", "fusion_lon": 0.0, "fusion_lat": 0.0, "is_reserved": 0, "bike_id": "ab88bbf46317a98ff5e1852622295531", "lon": -77.03830766666667, "is_disabled": 0}, {"rental_uris": {"android": "https://dc.lft.to/lastmile_qr_scan", "ios": "https://dc.lft.to/lastmile_qr_scan"}, "lat": 38.87803533333334, "type": "electric_scooter", "name": "f086633c3132e5a5826e5ca2f403a5b9", "fusion_lon": 0.0, "fusion_lat": 0.0, "is_reserved": 0, "bike_id": "f086633c3132e5a5826e5ca2f403a5b9", "lon": -76.9882335, "is_disabled": 0}, {"rental_uris": {"android": "https://dc.lft.to/lastmile_qr_scan", "ios": "https://dc.lft.to/lastmile_qr_scan"}, "lat": 38.90001916666667, "type": "electric_scooter", "name": "18be088637c26a4e033ad2c2f48346fa", "fusion_lon": 0.0, "fusion_lat": 0.0, "is_reserved": 0, "bike_id": "18be088637c26a4e033ad2c2f48346fa", "lon": -77.029387, "is_disabled": 0}, {"rental_uris": {"android": "https://dc.lft.to/lastmile_qr_scan", "ios": "https://dc.lft.to/lastmile_qr_scan"}, "lat": 38.902595166666664, "type": "electric_scooter", "name": "adf71a8c823b22ab4d1641aa63e6e2f1", "fusion_lon": 0.0, "fusion_lat": 0.0, "is_reserved": 0, "bike_id": "adf71a8c823b22ab4d1641aa63e6e2f1", "lon": -77.03852916666666, "is_disabled": 0}, {"rental_uris": {"android": "https://dc.lft.to/lastmile_qr_scan", "ios": "https://dc.lft.to/lastmile_qr_scan"}, "lat": 38.953486, "type": "electric_bike", "name": "a69ab02dd72bf46bc28f49bd29958f5d", "fusion_lon": 0.0, "fusion_lat": 0.0, "is_reserved": 0, "bike_id": "a69ab02dd72bf46bc28f49bd29958f5d", "lon": -76.92475933333333, "is_disabled": 0}, {"rental_uris": {"android": "https://dc.lft.to/lastmile_qr_scan", "ios": "https://dc.lft.to/lastmile_qr_scan"}, "lat": 39.02625066666667, "type": "electric_bike", "name": "165739742b61a68347221a1a683b2a94", "fusion_lon": 0.0, "fusion_lat": 0.0, "is_reserved": 0, "bike_id": "165739742b61a68347221a1a683b2a94", "lon": -77.03879466666666, "is_disabled": 0}, {"rental_uris": {"android": "https://dc.lft.to/lastmile_qr_scan", "ios": "https://dc.lft.to/lastmile_qr_scan"}, "lat": 38.92256016666666, "type": "electric_scooter", "name": "f91e87d483e7b5fbb3abb233d4167afc", "fusion_lon": 0.0, "fusion_lat": 0.0, "is_reserved": 0, "bike_id": "f91e87d483e7b5fbb3abb233d4167afc", "lon": -77.01948583333333, "is_disabled": 0}, {"rental_uris": {"android": "https://dc.lft.to/lastmile_qr_scan", "ios": "https://dc.lft.to/lastmile_qr_scan"}, "lat": 38.92574316666666, "type": "electric_scooter", "name": "7720b4fc9ad4805ea6f8c20444300458", "fusion_lon": 0.0, "fusion_lat": 0.0, "is_reserved": 0, "bike_id": "7720b4fc9ad4805ea6f8c20444300458", "lon": -77.02572866666667, "is_disabled": 0}, {"rental_uris": {"android": "https://dc.lft.to/lastmile_qr_scan", "ios": "https://dc.lft.to/lastmile_qr_scan"}, "lat": 38.90038083333334, "type": "electric_bike", "name": "3f9d288b3dafd3bc7059b1fe1066fe0e", "fusion_lon": 0.0, "fusion_lat": 0.0, "is_reserved": 0, "bike_id": "3f9d288b3dafd3bc7059b1fe1066fe0e", "lon": -77.0432025, "is_disabled": 0}, {"rental_uris": {"android": "https://dc.lft.to/lastmile_qr_scan", "ios": "https://dc.lft.to/lastmile_qr_scan"}, "lat": 38.89972, "type": "electric_scooter", "name": "563e59227146d9ba2b078dbe9b31558f", "fusion_lon": 0.0, "fusion_lat": 0.0, "is_reserved": 0, "bike_id": "563e59227146d9ba2b078dbe9b31558f", "lon": -77.02242, "is_disabled": 0}, {"rental_uris": {"android": "https://dc.lft.to/lastmile_qr_scan", "ios": "https://dc.lft.to/lastmile_qr_scan"}, "lat": 38.91559, "type": "electric_scooter", "name": "936484cd003da73248563849b7b77b2f", "fusion_lon": 0.0, "fusion_lat": 0.0, "is_reserved": 0, "bike_id": "936484cd003da73248563849b7b77b2f", "lon": -77.05205766666667, "is_disabled": 0}, {"rental_uris": {"android": "https://dc.lft.to/lastmile_qr_scan", "ios": "https://dc.lft.to/lastmile_qr_scan"}, "lat": 38.900786833333335, "type": "electric_scooter", "name": "5044dbe12c4c067056f4ae2b438b2c26", "fusion_lon": 0.0, "fusion_lat": 0.0, "is_reserved": 0, "bike_id": "5044dbe12c4c067056f4ae2b438b2c26", "lon": -77.048958, "is_disabled": 0}, {"rental_uris": {"android": "https://dc.lft.to/lastmile_qr_scan", "ios": "https://dc.lft.to/lastmile_qr_scan"}, "lat": 38.91178266666667, "type": "electric_scooter", "name": "558dc271a783b4b370abdd04ee2848c5", "fusion_lon": 0.0, "fusion_lat": 0.0, "is_reserved": 0, "bike_id": "558dc271a783b4b370abdd04ee2848c5", "lon": -77.04282183333333, "is_disabled": 0}, {"rental_uris": {"android": "https://dc.lft.to/lastmile_qr_scan", "ios": "https://dc.lft.to/lastmile_qr_scan"}, "lat": 38.927695166666666, "type": "electric_scooter", "name": "ae56a4d50384d2f25e3874bf5da1b108", "fusion_lon": 0.0, "fusion_lat": 0.0, "is_reserved": 0, "bike_id": "ae56a4d50384d2f25e3874bf5da1b108", "lon": -77.0274065, "is_disabled": 0}, {"rental_uris": {"android": "https://dc.lft.to/lastmile_qr_scan", "ios": "https://dc.lft.to/lastmile_qr_scan"}, "lat": 38.92934566666667, "type": "electric_scooter", "name": "60718ae4d946ff9ffda7ef3d26bbf801", "fusion_lon": 0.0, "fusion_lat": 0.0, "is_reserved": 0, "bike_id": "60718ae4d946ff9ffda7ef3d26bbf801", "lon": -77.03262366666667, "is_disabled": 0}, {"rental_uris": {"android": "https://dc.lft.to/lastmile_qr_scan", "ios": "https://dc.lft.to/lastmile_qr_scan"}, "lat": 38.92015166666667, "type": "electric_scooter", "name": "d942bf89ebee7ed067748d39b31ef470", "fusion_lon": 0.0, "fusion_lat": 0.0, "is_reserved": 0, "bike_id": "d942bf89ebee7ed067748d39b31ef470", "lon": -77.03098883333334, "is_disabled": 0}, {"rental_uris": {"android": "https://dc.lft.to/lastmile_qr_scan", "ios": "https://dc.lft.to/lastmile_qr_scan"}, "lat": 38.95762883333333, "type": "electric_scooter", "name": "38532d517169b6b3b0c105716b773e66", "fusion_lon": 0.0, "fusion_lat": 0.0, "is_reserved": 0, "bike_id": "38532d517169b6b3b0c105716b773e66", "lon": -77.00913733333333, "is_disabled": 0}, {"rental_uris": {"android": "https://dc.lft.to/lastmile_qr_scan", "ios": "https://dc.lft.to/lastmile_qr_scan"}, "lat": 38.92345016666667, "type": "electric_scooter", "name": "f24ba86581789fd4f69c1105b9095362", "fusion_lon": 0.0, "fusion_lat": 0.0, "is_reserved": 0, "bike_id": "f24ba86581789fd4f69c1105b9095362", "lon": -77.03508216666667, "is_disabled": 0}, {"rental_uris": {"android": "https://dc.lft.to/lastmile_qr_scan", "ios": "https://dc.lft.to/lastmile_qr_scan"}, "lat": 38.928780833333334, "type": "electric_scooter", "name": "9d842cf1c4145d87f238b75a1762bc6b", "fusion_lon": 0.0, "fusion_lat": 0.0, "is_reserved": 0, "bike_id": "9d842cf1c4145d87f238b75a1762bc6b", "lon": -77.01365983333334, "is_disabled": 0}, {"rental_uris": {"android": "https://dc.lft.to/lastmile_qr_scan", "ios": "https://dc.lft.to/lastmile_qr_scan"}, "lat": 38.8961095, "type": "electric_scooter", "name": "9a670b8d8ffc9f6cffd60eb93dd5c70e", "fusion_lon": 0.0, "fusion_lat": 0.0, "is_reserved": 0, "bike_id": "9a670b8d8ffc9f6cffd60eb93dd5c70e", "lon": -77.02213483333334, "is_disabled": 0}, {"rental_uris": {"android": "https://dc.lft.to/lastmile_qr_scan", "ios": "https://dc.lft.to/lastmile_qr_scan"}, "lat": 38.9106995, "type": "electric_scooter", "name": "911eee6c1261f881951036dd8f28b185", "fusion_lon": 0.0, "fusion_lat": 0.0, "is_reserved": 0, "bike_id": "911eee6c1261f881951036dd8f28b185", "lon": -77.05389266666667, "is_disabled": 0}, {"rental_uris": {"android": "https://dc.lft.to/lastmile_qr_scan", "ios": "https://dc.lft.to/lastmile_qr_scan"}, "lat": 38.901907666666666, "type": "electric_scooter", "name": "e77d2e9c7e96961d22ab32207cc5acc7", "fusion_lon": 0.0, "fusion_lat": 0.0, "is_reserved": 0, "bike_id": "e77d2e9c7e96961d22ab32207cc5acc7", "lon": -77.0229575, "is_disabled": 0}, {"rental_uris": {"android": "https://dc.lft.to/lastmile_qr_scan", "ios": "https://dc.lft.to/lastmile_qr_scan"}, "lat": 38.90991116666667, "type": "electric_scooter", "name": "e35e430f85eb02d91bd629daff8113ad", "fusion_lon": 0.0, "fusion_lat": 0.0, "is_reserved": 0, "bike_id": "e35e430f85eb02d91bd629daff8113ad", "lon": -77.04439766666667, "is_disabled": 0}, {"rental_uris": {"android": "https://dc.lft.to/lastmile_qr_scan", "ios": "https://dc.lft.to/lastmile_qr_scan"}, "lat": 38.92672566666667, "type": "electric_scooter", "name": "5259024437fd8b982c3b8b227ccb2043", "fusion_lon": 0.0, "fusion_lat": 0.0, "is_reserved": 0, "bike_id": "5259024437fd8b982c3b8b227ccb2043", "lon": -77.0151035, "is_disabled": 0}, {"rental_uris": {"android": "https://dc.lft.to/lastmile_qr_scan", "ios": "https://dc.lft.to/lastmile_qr_scan"}, "lat": 38.90082966666667, "type": "electric_scooter", "name": "8807fafec4b984a948a7e4dfd4241997", "fusion_lon": 0.0, "fusion_lat": 0.0, "is_reserved": 0, "bike_id": "8807fafec4b984a948a7e4dfd4241997", "lon": -77.04781516666667, "is_disabled": 0}, {"rental_uris": {"android": "https://dc.lft.to/lastmile_qr_scan", "ios": "https://dc.lft.to/lastmile_qr_scan"}, "lat": 38.862531833333335, "type": "electric_bike", "name": "d2c6dfa6f49fa8453c7ac104732dba4a", "fusion_lon": 0.0, "fusion_lat": 0.0, "is_reserved": 0, "bike_id": "d2c6dfa6f49fa8453c7ac104732dba4a", "lon": -77.05993266666667, "is_disabled": 0}, {"rental_uris": {"android": "https://dc.lft.to/lastmile_qr_scan", "ios": "https://dc.lft.to/lastmile_qr_scan"}, "lat": 38.89223783333333, "type": "electric_scooter", "name": "431f176d470037b11246db0c364ccfa3", "fusion_lon": 0.0, "fusion_lat": 0.0, "is_reserved": 0, "bike_id": "431f176d470037b11246db0c364ccfa3", "lon": -77.043667, "is_disabled": 0}, {"rental_uris": {"android": "https://dc.lft.to/lastmile_qr_scan", "ios": "https://dc.lft.to/lastmile_qr_scan"}, "lat": 38.90518616666667, "type": "electric_scooter", "name": "2b262c52d4dbfed9431e3b9d3d6ca221", "fusion_lon": 0.0, "fusion_lat": 0.0, "is_reserved": 0, "bike_id": "2b262c52d4dbfed9431e3b9d3d6ca221", "lon": -77.06444666666667, "is_disabled": 0}, {"rental_uris": {"android": "https://dc.lft.to/lastmile_qr_scan", "ios": "https://dc.lft.to/lastmile_qr_scan"}, "lat": 38.906355833333336, "type": "electric_scooter", "name": "756dd4c1771f07ef6356b04a1261f510", "fusion_lon": 0.0, "fusion_lat": 0.0, "is_reserved": 0, "bike_id": "756dd4c1771f07ef6356b04a1261f510", "lon": -77.06285633333333, "is_disabled": 0}, {"rental_uris": {"android": "https://dc.lft.to/lastmile_qr_scan", "ios": "https://dc.lft.to/lastmile_qr_scan"}, "lat": 38.92058466666667, "type": "electric_scooter", "name": "65545c04f698e9191699926d0edce351", "fusion_lon": 0.0, "fusion_lat": 0.0, "is_reserved": 0, "bike_id": "65545c04f698e9191699926d0edce351", "lon": -77.0250965, "is_disabled": 0}, {"rental_uris": {"android": "https://dc.lft.to/lastmile_qr_scan", "ios": "https://dc.lft.to/lastmile_qr_scan"}, "lat": 38.8807, "type": "electric_bike", "name": "414adc62a41a75c1fc381e1b2316a909", "fusion_lon": 0.0, "fusion_lat": 0.0, "is_reserved": 0, "bike_id": "414adc62a41a75c1fc381e1b2316a909", "lon": -76.98790116666666, "is_disabled": 0}, {"rental_uris": {"android": "https://dc.lft.to/lastmile_qr_scan", "ios": "https://dc.lft.to/lastmile_qr_scan"}, "lat": 38.9163125, "type": "electric_scooter", "name": "e44299230a9ab0a0ac9b93a88cf2c3a0", "fusion_lon": 0.0, "fusion_lat": 0.0, "is_reserved": 0, "bike_id": "e44299230a9ab0a0ac9b93a88cf2c3a0", "lon": -77.048467, "is_disabled": 0}, {"rental_uris": {"android": "https://dc.lft.to/lastmile_qr_scan", "ios": "https://dc.lft.to/lastmile_qr_scan"}, "lat": 38.905658333333335, "type": "electric_scooter", "name": "b22bf1cdcea095394ec5f297e3e31809", "fusion_lon": 0.0, "fusion_lat": 0.0, "is_reserved": 0, "bike_id": "b22bf1cdcea095394ec5f297e3e31809", "lon": -77.03800033333333, "is_disabled": 0}, {"rental_uris": {"android": "https://dc.lft.to/lastmile_qr_scan", "ios": "https://dc.lft.to/lastmile_qr_scan"}, "lat": 38.89485116666667, "type": "electric_scooter", "name": "bdf8976f7e7e1ec043e5b9510e0899ed", "fusion_lon": 0.0, "fusion_lat": 0.0, "is_reserved": 0, "bike_id": "bdf8976f7e7e1ec043e5b9510e0899ed", "lon": -76.99517683333333, "is_disabled": 0}, {"rental_uris": {"android": "https://dc.lft.to/lastmile_qr_scan", "ios": "https://dc.lft.to/lastmile_qr_scan"}, "lat": 38.89718666666667, "type": "electric_scooter", "name": "cccdbb060fbd73cd62e6642da32121f4", "fusion_lon": 0.0, "fusion_lat": 0.0, "is_reserved": 0, "bike_id": "cccdbb060fbd73cd62e6642da32121f4", "lon": -77.0323665, "is_disabled": 0}, {"rental_uris": {"android": "https://dc.lft.to/lastmile_qr_scan", "ios": "https://dc.lft.to/lastmile_qr_scan"}, "lat": 38.90375, "type": "electric_scooter", "name": "ac3f5294cf048cfdbc84009261a32263", "fusion_lon": 0.0, "fusion_lat": 0.0, "is_reserved": 0, "bike_id": "ac3f5294cf048cfdbc84009261a32263", "lon": -77.03454383333333, "is_disabled": 0}, {"rental_uris": {"android": "https://dc.lft.to/lastmile_qr_scan", "ios": "https://dc.lft.to/lastmile_qr_scan"}, "lat": 38.892905999999996, "type": "electric_bike", "name": "0021f062b884d79ff6f8085c6c3c9127", "fusion_lon": 0.0, "fusion_lat": 0.0, "is_reserved": 0, "bike_id": "0021f062b884d79ff6f8085c6c3c9127", "lon": -76.92234516666667, "is_disabled": 0}, {"rental_uris": {"android": "https://dc.lft.to/lastmile_qr_scan", "ios": "https://dc.lft.to/lastmile_qr_scan"}, "lat": 38.8976, "type": "electric_scooter", "name": "f881e73db1c9c180485ca03410766ced", "fusion_lon": 0.0, "fusion_lat": 0.0, "is_reserved": 0, "bike_id": "f881e73db1c9c180485ca03410766ced", "lon": -77.0095215, "is_disabled": 0}, {"rental_uris": {"android": "https://dc.lft.to/lastmile_qr_scan", "ios": "https://dc.lft.to/lastmile_qr_scan"}, "lat": 38.938783666666666, "type": "electric_scooter", "name": "2a80ac55e2156ed16a83a39fc4ceace2", "fusion_lon": 0.0, "fusion_lat": 0.0, "is_reserved": 0, "bike_id": "2a80ac55e2156ed16a83a39fc4ceace2", "lon": -77.02482383333333, "is_disabled": 0}, {"rental_uris": {"android": "https://dc.lft.to/lastmile_qr_scan", "ios": "https://dc.lft.to/lastmile_qr_scan"}, "lat": 38.96415833333333, "type": "electric_scooter", "name": "3a74289e0135a3e0137e1e3ede5135d6", "fusion_lon": 0.0, "fusion_lat": 0.0, "is_reserved": 0, "bike_id": "3a74289e0135a3e0137e1e3ede5135d6", "lon": -77.03261083333334, "is_disabled": 0}, {"rental_uris": {"android": "https://dc.lft.to/lastmile_qr_scan", "ios": "https://dc.lft.to/lastmile_qr_scan"}, "lat": 38.91833966666667, "type": "electric_scooter", "name": "2bc4101b0c171764c09c4ab8932ad5fd", "fusion_lon": 0.0, "fusion_lat": 0.0, "is_reserved": 0, "bike_id": "2bc4101b0c171764c09c4ab8932ad5fd", "lon": -77.053173, "is_disabled": 0}, {"rental_uris": {"android": "https://dc.lft.to/lastmile_qr_scan", "ios": "https://dc.lft.to/lastmile_qr_scan"}, "lat": 38.838638833333334, "type": "electric_bike", "name": "ab14be9fceeabfd33fb52c971ed89ff0", "fusion_lon": 0.0, "fusion_lat": 0.0, "is_reserved": 0, "bike_id": "ab14be9fceeabfd33fb52c971ed89ff0", "lon": -76.9948725, "is_disabled": 0}, {"rental_uris": {"android": "https://dc.lft.to/lastmile_qr_scan", "ios": "https://dc.lft.to/lastmile_qr_scan"}, "lat": 38.87930566666667, "type": "electric_scooter", "name": "64a16fd315426613aecf70a4a799d647", "fusion_lon": 0.0, "fusion_lat": 0.0, "is_reserved": 0, "bike_id": "64a16fd315426613aecf70a4a799d647", "lon": -77.02378183333333, "is_disabled": 0}, {"rental_uris": {"android": "https://dc.lft.to/lastmile_qr_scan", "ios": "https://dc.lft.to/lastmile_qr_scan"}, "lat": 38.87777283333333, "type": "electric_scooter", "name": "add602fb44052523e1d94f72d8b542f3", "fusion_lon": 0.0, "fusion_lat": 0.0, "is_reserved": 0, "bike_id": "add602fb44052523e1d94f72d8b542f3", "lon": -77.00210283333334, "is_disabled": 0}, {"rental_uris": {"android": "https://dc.lft.to/lastmile_qr_scan", "ios": "https://dc.lft.to/lastmile_qr_scan"}, "lat": 38.930385, "type": "electric_scooter", "name": "fb31a6685e46fd644c30e5755b7b994f", "fusion_lon": 0.0, "fusion_lat": 0.0, "is_reserved": 0, "bike_id": "fb31a6685e46fd644c30e5755b7b994f", "lon": -77.02962766666667, "is_disabled": 0}, {"rental_uris": {"android": "https://dc.lft.to/lastmile_qr_scan", "ios": "https://dc.lft.to/lastmile_qr_scan"}, "lat": 38.92138083333333, "type": "electric_scooter", "name": "ee4e89ea0d2254720959d883e8410289", "fusion_lon": 0.0, "fusion_lat": 0.0, "is_reserved": 0, "bike_id": "ee4e89ea0d2254720959d883e8410289", "lon": -77.01796033333333, "is_disabled": 0}, {"rental_uris": {"android": "https://dc.lft.to/lastmile_qr_scan", "ios": "https://dc.lft.to/lastmile_qr_scan"}, "lat": 38.9016985, "type": "electric_scooter", "name": "a4059bbd726c4900d05b2a6cc52677ef", "fusion_lon": 0.0, "fusion_lat": 0.0, "is_reserved": 0, "bike_id": "a4059bbd726c4900d05b2a6cc52677ef", "lon": -77.02189866666667, "is_disabled": 0}, {"rental_uris": {"android": "https://dc.lft.to/lastmile_qr_scan", "ios": "https://dc.lft.to/lastmile_qr_scan"}, "lat": 38.934001333333335, "type": "electric_scooter", "name": "d7dc2305312c9d5418f0861577226d76", "fusion_lon": 0.0, "fusion_lat": 0.0, "is_reserved": 0, "bike_id": "d7dc2305312c9d5418f0861577226d76", "lon": -77.04126883333333, "is_disabled": 0}, {"rental_uris": {"android": "https://dc.lft.to/lastmile_qr_scan", "ios": "https://dc.lft.to/lastmile_qr_scan"}, "lat": 38.896731833333334, "type": "electric_bike", "name": "21cab1b0234310928be86fbb8fc28abb", "fusion_lon": 0.0, "fusion_lat": 0.0, "is_reserved": 0, "bike_id": "21cab1b0234310928be86fbb8fc28abb", "lon": -76.98166533333334, "is_disabled": 0}, {"rental_uris": {"android": "https://dc.lft.to/lastmile_qr_scan", "ios": "https://dc.lft.to/lastmile_qr_scan"}, "lat": 38.90636766666667, "type": "electric_scooter", "name": "9800bde055af3ee0f0c89b14b35bb196", "fusion_lon": 0.0, "fusion_lat": 0.0, "is_reserved": 0, "bike_id": "9800bde055af3ee0f0c89b14b35bb196", "lon": -77.05315, "is_disabled": 0}, {"rental_uris": {"android": "https://dc.lft.to/lastmile_qr_scan", "ios": "https://dc.lft.to/lastmile_qr_scan"}, "lat": 38.941113666666666, "type": "electric_scooter", "name": "3ce5e4d7a8eb02a5404ebf237e5b3799", "fusion_lon": 0.0, "fusion_lat": 0.0, "is_reserved": 0, "bike_id": "3ce5e4d7a8eb02a5404ebf237e5b3799", "lon": -77.061423, "is_disabled": 0}, {"rental_uris": {"android": "https://dc.lft.to/lastmile_qr_scan", "ios": "https://dc.lft.to/lastmile_qr_scan"}, "lat": 38.934647166666664, "type": "electric_scooter", "name": "18bd28567b9c389c19b0aaa0d213600a", "fusion_lon": 0.0, "fusion_lat": 0.0, "is_reserved": 0, "bike_id": "18bd28567b9c389c19b0aaa0d213600a", "lon": -77.058099, "is_disabled": 0}, {"rental_uris": {"android": "https://dc.lft.to/lastmile_qr_scan", "ios": "https://dc.lft.to/lastmile_qr_scan"}, "lat": 38.923447833333334, "type": "electric_scooter", "name": "421d8b5fb6642ef23107a4ba804dbca1", "fusion_lon": 0.0, "fusion_lat": 0.0, "is_reserved": 0, "bike_id": "421d8b5fb6642ef23107a4ba804dbca1", "lon": -77.01901216666667, "is_disabled": 0}, {"rental_uris": {"android": "https://dc.lft.to/lastmile_qr_scan", "ios": "https://dc.lft.to/lastmile_qr_scan"}, "lat": 38.898765, "type": "electric_scooter", "name": "01986ed9a1189360d839ffd873f01de7", "fusion_lon": 0.0, "fusion_lat": 0.0, "is_reserved": 0, "bike_id": "01986ed9a1189360d839ffd873f01de7", "lon": -77.04992316666667, "is_disabled": 0}, {"rental_uris": {"android": "https://dc.lft.to/lastmile_qr_scan", "ios": "https://dc.lft.to/lastmile_qr_scan"}, "lat": 38.893586, "type": "electric_scooter", "name": "446cda35a03ac72738bc6f5922720a75", "fusion_lon": 0.0, "fusion_lat": 0.0, "is_reserved": 0, "bike_id": "446cda35a03ac72738bc6f5922720a75", "lon": -77.003356, "is_disabled": 0}, {"rental_uris": {"android": "https://dc.lft.to/lastmile_qr_scan", "ios": "https://dc.lft.to/lastmile_qr_scan"}, "lat": 38.918931, "type": "electric_scooter", "name": "f6b522bf94668c5b969d7bc692535300", "fusion_lon": 0.0, "fusion_lat": 0.0, "is_reserved": 0, "bike_id": "f6b522bf94668c5b969d7bc692535300", "lon": -77.031302, "is_disabled": 0}, {"rental_uris": {"android": "https://dc.lft.to/lastmile_qr_scan", "ios": "https://dc.lft.to/lastmile_qr_scan"}, "lat": 38.924881666666664, "type": "electric_scooter", "name": "57dcea9f2afd52e2be3139bedee14012", "fusion_lon": 0.0, "fusion_lat": 0.0, "is_reserved": 0, "bike_id": "57dcea9f2afd52e2be3139bedee14012", "lon": -77.02698716666667, "is_disabled": 0}, {"rental_uris": {"android": "https://dc.lft.to/lastmile_qr_scan", "ios": "https://dc.lft.to/lastmile_qr_scan"}, "lat": 38.904395, "type": "electric_scooter", "name": "c79a2db2d21313598d6865279ba2ef99", "fusion_lon": 0.0, "fusion_lat": 0.0, "is_reserved": 0, "bike_id": "c79a2db2d21313598d6865279ba2ef99", "lon": -77.034283, "is_disabled": 0}, {"rental_uris": {"android": "https://dc.lft.to/lastmile_qr_scan", "ios": "https://dc.lft.to/lastmile_qr_scan"}, "lat": 38.93760483333333, "type": "electric_bike", "name": "5985451f36305f947d3f507763715372", "fusion_lon": 0.0, "fusion_lat": 0.0, "is_reserved": 0, "bike_id": "5985451f36305f947d3f507763715372", "lon": -76.990574, "is_disabled": 0}, {"rental_uris": {"android": "https://dc.lft.to/lastmile_qr_scan", "ios": "https://dc.lft.to/lastmile_qr_scan"}, "lat": 38.906892166666665, "type": "electric_scooter", "name": "3ed17913dfded5ad8fbb40c85316ecc0", "fusion_lon": 0.0, "fusion_lat": 0.0, "is_reserved": 0, "bike_id": "3ed17913dfded5ad8fbb40c85316ecc0", "lon": -77.03827666666666, "is_disabled": 0}, {"rental_uris": {"android": "https://dc.lft.to/lastmile_qr_scan", "ios": "https://dc.lft.to/lastmile_qr_scan"}, "lat": 38.9111515, "type": "electric_scooter", "name": "d2c780572be688e3f78c7a6094dcc15c", "fusion_lon": 0.0, "fusion_lat": 0.0, "is_reserved": 0, "bike_id": "d2c780572be688e3f78c7a6094dcc15c", "lon": -77.0447415, "is_disabled": 0}, {"rental_uris": {"android": "https://dc.lft.to/lastmile_qr_scan", "ios": "https://dc.lft.to/lastmile_qr_scan"}, "lat": 38.95650916666666, "type": "electric_scooter", "name": "b041448dbc239911f957d01ec6fed5d6", "fusion_lon": 0.0, "fusion_lat": 0.0, "is_reserved": 0, "bike_id": "b041448dbc239911f957d01ec6fed5d6", "lon": -77.01235066666666, "is_disabled": 0}, {"rental_uris": {"android": "https://dc.lft.to/lastmile_qr_scan", "ios": "https://dc.lft.to/lastmile_qr_scan"}, "lat": 38.90378783333333, "type": "electric_scooter", "name": "90d6e6a630b1db2dd96989b703cad1e3", "fusion_lon": 0.0, "fusion_lat": 0.0, "is_reserved": 0, "bike_id": "90d6e6a630b1db2dd96989b703cad1e3", "lon": -77.041819, "is_disabled": 0}, {"rental_uris": {"android": "https://dc.lft.to/lastmile_qr_scan", "ios": "https://dc.lft.to/lastmile_qr_scan"}, "lat": 38.896322166666664, "type": "electric_scooter", "name": "5fa9db6cd8d0eb48569ba16c9c2080e3", "fusion_lon": 0.0, "fusion_lat": 0.0, "is_reserved": 0, "bike_id": "5fa9db6cd8d0eb48569ba16c9c2080e3", "lon": -77.04060033333333, "is_disabled": 0}, {"rental_uris": {"android": "https://dc.lft.to/lastmile_qr_scan", "ios": "https://dc.lft.to/lastmile_qr_scan"}, "lat": 38.922098166666665, "type": "electric_scooter", "name": "7005ea52a2d59eec05e81047819369f9", "fusion_lon": 0.0, "fusion_lat": 0.0, "is_reserved": 0, "bike_id": "7005ea52a2d59eec05e81047819369f9", "lon": -77.02033133333333, "is_disabled": 0}, {"rental_uris": {"android": "https://dc.lft.to/lastmile_qr_scan", "ios": "https://dc.lft.to/lastmile_qr_scan"}, "lat": 38.92669383333333, "type": "electric_scooter", "name": "2852d8e58acd6cf4c56a599e9e8f9e8a", "fusion_lon": 0.0, "fusion_lat": 0.0, "is_reserved": 0, "bike_id": "2852d8e58acd6cf4c56a599e9e8f9e8a", "lon": -77.06012783333334, "is_disabled": 0}, {"rental_uris": {"android": "https://dc.lft.to/lastmile_qr_scan", "ios": "https://dc.lft.to/lastmile_qr_scan"}, "lat": 38.877795, "type": "electric_scooter", "name": "fa935e7949538890acd32ebb88789fd0", "fusion_lon": 0.0, "fusion_lat": 0.0, "is_reserved": 0, "bike_id": "fa935e7949538890acd32ebb88789fd0", "lon": -76.99404266666667, "is_disabled": 0}, {"rental_uris": {"android": "https://dc.lft.to/lastmile_qr_scan", "ios": "https://dc.lft.to/lastmile_qr_scan"}, "lat": 38.84029366666667, "type": "electric_bike", "name": "24a8c1bb72d3e5e4da147e2681509e36", "fusion_lon": 0.0, "fusion_lat": 0.0, "is_reserved": 0, "bike_id": "24a8c1bb72d3e5e4da147e2681509e36", "lon": -76.98859566666667, "is_disabled": 0}, {"rental_uris": {"android": "https://dc.lft.to/lastmile_qr_scan", "ios": "https://dc.lft.to/lastmile_qr_scan"}, "lat": 38.92577683333333, "type": "electric_scooter", "name": "d71dff10304a5f11bc535e4fb0a7708d", "fusion_lon": 0.0, "fusion_lat": 0.0, "is_reserved": 0, "bike_id": "d71dff10304a5f11bc535e4fb0a7708d", "lon": -77.02569383333334, "is_disabled": 0}, {"rental_uris": {"android": "https://dc.lft.to/lastmile_qr_scan", "ios": "https://dc.lft.to/lastmile_qr_scan"}, "lat": 38.86889166666667, "type": "electric_scooter", "name": "4dbf71f5a4cb559ec51da47e03f85ed4", "fusion_lon": 0.0, "fusion_lat": 0.0, "is_reserved": 0, "bike_id": "4dbf71f5a4cb559ec51da47e03f85ed4", "lon": -76.9900115, "is_disabled": 0}, {"rental_uris": {"android": "https://dc.lft.to/lastmile_qr_scan", "ios": "https://dc.lft.to/lastmile_qr_scan"}, "lat": 38.917803166666666, "type": "electric_scooter", "name": "f8e700c127f74057c1631f7fdbee752c", "fusion_lon": 0.0, "fusion_lat": 0.0, "is_reserved": 0, "bike_id": "f8e700c127f74057c1631f7fdbee752c", "lon": -77.03196583333333, "is_disabled": 0}, {"rental_uris": {"android": "https://dc.lft.to/lastmile_qr_scan", "ios": "https://dc.lft.to/lastmile_qr_scan"}, "lat": 38.898804, "type": "electric_scooter", "name": "2fb8d4f56b4f098fc867ed61c71f09be", "fusion_lon": 0.0, "fusion_lat": 0.0, "is_reserved": 0, "bike_id": "2fb8d4f56b4f098fc867ed61c71f09be", "lon": -77.043371, "is_disabled": 0}, {"rental_uris": {"android": "https://dc.lft.to/lastmile_qr_scan", "ios": "https://dc.lft.to/lastmile_qr_scan"}, "lat": 38.915771666666664, "type": "electric_scooter", "name": "5af36534f45cd8b2101fb2575a475933", "fusion_lon": 0.0, "fusion_lat": 0.0, "is_reserved": 0, "bike_id": "5af36534f45cd8b2101fb2575a475933", "lon": -77.05036116666666, "is_disabled": 0}, {"rental_uris": {"android": "https://dc.lft.to/lastmile_qr_scan", "ios": "https://dc.lft.to/lastmile_qr_scan"}, "lat": 38.9212595, "type": "electric_scooter", "name": "73ebc70325667d92b269af6900d4af1c", "fusion_lon": 0.0, "fusion_lat": 0.0, "is_reserved": 0, "bike_id": "73ebc70325667d92b269af6900d4af1c", "lon": -77.03658416666667, "is_disabled": 0}, {"rental_uris": {"android": "https://dc.lft.to/lastmile_qr_scan", "ios": "https://dc.lft.to/lastmile_qr_scan"}, "lat": 38.89953883333333, "type": "electric_scooter", "name": "5998d0d7676bcb002ec275ff4ee87cf1", "fusion_lon": 0.0, "fusion_lat": 0.0, "is_reserved": 0, "bike_id": "5998d0d7676bcb002ec275ff4ee87cf1", "lon": -77.0144755, "is_disabled": 0}, {"rental_uris": {"android": "https://dc.lft.to/lastmile_qr_scan", "ios": "https://dc.lft.to/lastmile_qr_scan"}, "lat": 38.85559283333333, "type": "electric_bike", "name": "c732f2c7446bee85ef469e28eb101048", "fusion_lon": 0.0, "fusion_lat": 0.0, "is_reserved": 0, "bike_id": "c732f2c7446bee85ef469e28eb101048", "lon": -77.06329516666666, "is_disabled": 0}, {"rental_uris": {"android": "https://dc.lft.to/lastmile_qr_scan", "ios": "https://dc.lft.to/lastmile_qr_scan"}, "lat": 38.862472, "type": "electric_scooter", "name": "ac33f37728cd59ef93a0a1d7afb5c079", "fusion_lon": 0.0, "fusion_lat": 0.0, "is_reserved": 0, "bike_id": "ac33f37728cd59ef93a0a1d7afb5c079", "lon": -76.99499133333333, "is_disabled": 0}, {"rental_uris": {"android": "https://dc.lft.to/lastmile_qr_scan", "ios": "https://dc.lft.to/lastmile_qr_scan"}, "lat": 38.85218533333333, "type": "electric_scooter", "name": "45df0f6724a9e570746a39d506441b68", "fusion_lon": 0.0, "fusion_lat": 0.0, "is_reserved": 0, "bike_id": "45df0f6724a9e570746a39d506441b68", "lon": -76.99374433333334, "is_disabled": 0}, {"rental_uris": {"android": "https://dc.lft.to/lastmile_qr_scan", "ios": "https://dc.lft.to/lastmile_qr_scan"}, "lat": 38.91113, "type": "electric_scooter", "name": "defbb8476c170ec84bb9cc1e9e6096d3", "fusion_lon": 0.0, "fusion_lat": 0.0, "is_reserved": 0, "bike_id": "defbb8476c170ec84bb9cc1e9e6096d3", "lon": -77.02603616666667, "is_disabled": 0}, {"rental_uris": {"android": "https://dc.lft.to/lastmile_qr_scan", "ios": "https://dc.lft.to/lastmile_qr_scan"}, "lat": 38.902688833333336, "type": "electric_scooter", "name": "9cb4f92e3d62b1a556db361e25c27c2c", "fusion_lon": 0.0, "fusion_lat": 0.0, "is_reserved": 0, "bike_id": "9cb4f92e3d62b1a556db361e25c27c2c", "lon": -77.02833816666667, "is_disabled": 0}, {"rental_uris": {"android": "https://dc.lft.to/lastmile_qr_scan", "ios": "https://dc.lft.to/lastmile_qr_scan"}, "lat": 38.90617483333333, "type": "electric_scooter", "name": "a2c6f56032c626f3b961d61064a017d8", "fusion_lon": 0.0, "fusion_lat": 0.0, "is_reserved": 0, "bike_id": "a2c6f56032c626f3b961d61064a017d8", "lon": -77.042981, "is_disabled": 0}, {"rental_uris": {"android": "https://dc.lft.to/lastmile_qr_scan", "ios": "https://dc.lft.to/lastmile_qr_scan"}, "lat": 38.90510483333333, "type": "electric_scooter", "name": "3f25aa3f605193cb1ea55c96b6f1b2db", "fusion_lon": 0.0, "fusion_lat": 0.0, "is_reserved": 0, "bike_id": "3f25aa3f605193cb1ea55c96b6f1b2db", "lon": -77.034686, "is_disabled": 0}, {"rental_uris": {"android": "https://dc.lft.to/lastmile_qr_scan", "ios": "https://dc.lft.to/lastmile_qr_scan"}, "lat": 38.8947055, "type": "electric_scooter", "name": "ebfadd0277481c7b309ae3fd1e3ab781", "fusion_lon": 0.0, "fusion_lat": 0.0, "is_reserved": 0, "bike_id": "ebfadd0277481c7b309ae3fd1e3ab781", "lon": -77.041813, "is_disabled": 0}, {"rental_uris": {"android": "https://dc.lft.to/lastmile_qr_scan", "ios": "https://dc.lft.to/lastmile_qr_scan"}, "lat": 38.8422315, "type": "electric_bike", "name": "5bfd9e2bb38fc214c6e4815cbd1b633b", "fusion_lon": 0.0, "fusion_lat": 0.0, "is_reserved": 0, "bike_id": "5bfd9e2bb38fc214c6e4815cbd1b633b", "lon": -76.94892483333334, "is_disabled": 0}, {"rental_uris": {"android": "https://dc.lft.to/lastmile_qr_scan", "ios": "https://dc.lft.to/lastmile_qr_scan"}, "lat": 38.92588716666667, "type": "electric_scooter", "name": "6ee8d588a9115db842b060d4b095c28d", "fusion_lon": 0.0, "fusion_lat": 0.0, "is_reserved": 0, "bike_id": "6ee8d588a9115db842b060d4b095c28d", "lon": -77.02574216666666, "is_disabled": 0}, {"rental_uris": {"android": "https://dc.lft.to/lastmile_qr_scan", "ios": "https://dc.lft.to/lastmile_qr_scan"}, "lat": 38.94421066666666, "type": "electric_scooter", "name": "dd07e7329f9753d1caab44323fbffcdd", "fusion_lon": 0.0, "fusion_lat": 0.0, "is_reserved": 0, "bike_id": "dd07e7329f9753d1caab44323fbffcdd", "lon": -77.05518966666666, "is_disabled": 0}, {"rental_uris": {"android": "https://dc.lft.to/lastmile_qr_scan", "ios": "https://dc.lft.to/lastmile_qr_scan"}, "lat": 38.905275, "type": "electric_scooter", "name": "7689af66ce08e469037a41e8a5812308", "fusion_lon": 0.0, "fusion_lat": 0.0, "is_reserved": 0, "bike_id": "7689af66ce08e469037a41e8a5812308", "lon": -77.06102633333333, "is_disabled": 0}, {"rental_uris": {"android": "https://dc.lft.to/lastmile_qr_scan", "ios": "https://dc.lft.to/lastmile_qr_scan"}, "lat": 38.923289, "type": "electric_scooter", "name": "6b78da85505e10ae7e835a333dfa6255", "fusion_lon": 0.0, "fusion_lat": 0.0, "is_reserved": 0, "bike_id": "6b78da85505e10ae7e835a333dfa6255", "lon": -77.056785, "is_disabled": 0}, {"rental_uris": {"android": "https://dc.lft.to/lastmile_qr_scan", "ios": "https://dc.lft.to/lastmile_qr_scan"}, "lat": 38.913619, "type": "electric_scooter", "name": "8d50cba3ea5dc9d7bfbdb0ac98fafc1c", "fusion_lon": 0.0, "fusion_lat": 0.0, "is_reserved": 0, "bike_id": "8d50cba3ea5dc9d7bfbdb0ac98fafc1c", "lon": -77.044931, "is_disabled": 0}, {"rental_uris": {"android": "https://dc.lft.to/lastmile_qr_scan", "ios": "https://dc.lft.to/lastmile_qr_scan"}, "lat": 38.89906083333333, "type": "electric_scooter", "name": "db541e7ff352596e902f5355ca76931d", "fusion_lon": 0.0, "fusion_lat": 0.0, "is_reserved": 0, "bike_id": "db541e7ff352596e902f5355ca76931d", "lon": -77.03282566666667, "is_disabled": 0}, {"rental_uris": {"android": "https://dc.lft.to/lastmile_qr_scan", "ios": "https://dc.lft.to/lastmile_qr_scan"}, "lat": 38.91027533333333, "type": "electric_scooter", "name": "86db07145ff73d46c488e435a8877f82", "fusion_lon": 0.0, "fusion_lat": 0.0, "is_reserved": 0, "bike_id": "86db07145ff73d46c488e435a8877f82", "lon": -77.0450215, "is_disabled": 0}, {"rental_uris": {"android": "https://dc.lft.to/lastmile_qr_scan", "ios": "https://dc.lft.to/lastmile_qr_scan"}, "lat": 38.89231566666667, "type": "electric_scooter", "name": "bde166f93f6447087146f093da2f09a9", "fusion_lon": 0.0, "fusion_lat": 0.0, "is_reserved": 0, "bike_id": "bde166f93f6447087146f093da2f09a9", "lon": -77.02511466666667, "is_disabled": 0}, {"rental_uris": {"android": "https://dc.lft.to/lastmile_qr_scan", "ios": "https://dc.lft.to/lastmile_qr_scan"}, "lat": 38.924359333333335, "type": "electric_scooter", "name": "869cdc64bd70c6bb4a6463ec8d93b561", "fusion_lon": 0.0, "fusion_lat": 0.0, "is_reserved": 0, "bike_id": "869cdc64bd70c6bb4a6463ec8d93b561", "lon": -77.01948116666667, "is_disabled": 0}, {"rental_uris": {"android": "https://dc.lft.to/lastmile_qr_scan", "ios": "https://dc.lft.to/lastmile_qr_scan"}, "lat": 38.8922205, "type": "electric_scooter", "name": "5734cac952d61fd7782ed322d33a9ea4", "fusion_lon": 0.0, "fusion_lat": 0.0, "is_reserved": 0, "bike_id": "5734cac952d61fd7782ed322d33a9ea4", "lon": -77.04643833333333, "is_disabled": 0}, {"rental_uris": {"android": "https://dc.lft.to/lastmile_qr_scan", "ios": "https://dc.lft.to/lastmile_qr_scan"}, "lat": 38.899831666666664, "type": "electric_scooter", "name": "bbb165fff4e867a9aaaa04603a476c9c", "fusion_lon": 0.0, "fusion_lat": 0.0, "is_reserved": 0, "bike_id": "bbb165fff4e867a9aaaa04603a476c9c", "lon": -77.048179, "is_disabled": 0}, {"rental_uris": {"android": "https://dc.lft.to/lastmile_qr_scan", "ios": "https://dc.lft.to/lastmile_qr_scan"}, "lat": 38.809793, "type": "electric_bike", "name": "c1a2bea65775637fc9ce92dcda7dba07", "fusion_lon": 0.0, "fusion_lat": 0.0, "is_reserved": 0, "bike_id": "c1a2bea65775637fc9ce92dcda7dba07", "lon": -77.0765875, "is_disabled": 0}, {"rental_uris": {"android": "https://dc.lft.to/lastmile_qr_scan", "ios": "https://dc.lft.to/lastmile_qr_scan"}, "lat": 38.924693833333336, "type": "electric_scooter", "name": "637f7aa749086dc8659e30458adfa87a", "fusion_lon": 0.0, "fusion_lat": 0.0, "is_reserved": 0, "bike_id": "637f7aa749086dc8659e30458adfa87a", "lon": -77.0224335, "is_disabled": 0}, {"rental_uris": {"android": "https://dc.lft.to/lastmile_qr_scan", "ios": "https://dc.lft.to/lastmile_qr_scan"}, "lat": 38.9014045, "type": "electric_scooter", "name": "523647f56df79942ecbe9c652a0a614a", "fusion_lon": 0.0, "fusion_lat": 0.0, "is_reserved": 0, "bike_id": "523647f56df79942ecbe9c652a0a614a", "lon": -77.03210766666666, "is_disabled": 0}, {"rental_uris": {"android": "https://dc.lft.to/lastmile_qr_scan", "ios": "https://dc.lft.to/lastmile_qr_scan"}, "lat": 38.92008083333333, "type": "electric_scooter", "name": "13795146ad00cfb5344550175bd0674b", "fusion_lon": 0.0, "fusion_lat": 0.0, "is_reserved": 0, "bike_id": "13795146ad00cfb5344550175bd0674b", "lon": -77.04191133333333, "is_disabled": 0}, {"rental_uris": {"android": "https://dc.lft.to/lastmile_qr_scan", "ios": "https://dc.lft.to/lastmile_qr_scan"}, "lat": 38.891103333333334, "type": "electric_bike", "name": "3a447e9ac6d73b7518f346daa4aafdfe", "fusion_lon": 0.0, "fusion_lat": 0.0, "is_reserved": 0, "bike_id": "3a447e9ac6d73b7518f346daa4aafdfe", "lon": -77.18419883333334, "is_disabled": 0}, {"rental_uris": {"android": "https://dc.lft.to/lastmile_qr_scan", "ios": "https://dc.lft.to/lastmile_qr_scan"}, "lat": 38.93246233333333, "type": "electric_scooter", "name": "7f43e8e3b0b828c93f429e738f8431e4", "fusion_lon": 0.0, "fusion_lat": 0.0, "is_reserved": 0, "bike_id": "7f43e8e3b0b828c93f429e738f8431e4", "lon": -77.03272716666666, "is_disabled": 0}, {"rental_uris": {"android": "https://dc.lft.to/lastmile_qr_scan", "ios": "https://dc.lft.to/lastmile_qr_scan"}, "lat": 38.902618333333336, "type": "electric_scooter", "name": "a2342259e5685b9c9d5ad17567a4ec54", "fusion_lon": 0.0, "fusion_lat": 0.0, "is_reserved": 0, "bike_id": "a2342259e5685b9c9d5ad17567a4ec54", "lon": -77.0389115, "is_disabled": 0}, {"rental_uris": {"android": "https://dc.lft.to/lastmile_qr_scan", "ios": "https://dc.lft.to/lastmile_qr_scan"}, "lat": 39.084970166666665, "type": "electric_bike", "name": "0c615a484d6f854012b8221dcc60c6e6", "fusion_lon": 0.0, "fusion_lat": 0.0, "is_reserved": 0, "bike_id": "0c615a484d6f854012b8221dcc60c6e6", "lon": -76.950493, "is_disabled": 0}, {"rental_uris": {"android": "https://dc.lft.to/lastmile_qr_scan", "ios": "https://dc.lft.to/lastmile_qr_scan"}, "lat": 38.90055516666666, "type": "electric_scooter", "name": "5b0e732e2f70f7bb0380bb8b8bc87cf3", "fusion_lon": 0.0, "fusion_lat": 0.0, "is_reserved": 0, "bike_id": "5b0e732e2f70f7bb0380bb8b8bc87cf3", "lon": -77.00734516666667, "is_disabled": 0}, {"rental_uris": {"android": "https://dc.lft.to/lastmile_qr_scan", "ios": "https://dc.lft.to/lastmile_qr_scan"}, "lat": 38.89834616666667, "type": "electric_scooter", "name": "340e395a3b83f379f411da429c1c3583", "fusion_lon": 0.0, "fusion_lat": 0.0, "is_reserved": 0, "bike_id": "340e395a3b83f379f411da429c1c3583", "lon": -77.04817583333333, "is_disabled": 0}, {"rental_uris": {"android": "https://dc.lft.to/lastmile_qr_scan", "ios": "https://dc.lft.to/lastmile_qr_scan"}, "lat": 38.90573083333334, "type": "electric_scooter", "name": "66a01b9982a4405028910e2c57a09748", "fusion_lon": 0.0, "fusion_lat": 0.0, "is_reserved": 0, "bike_id": "66a01b9982a4405028910e2c57a09748", "lon": -77.00941783333333, "is_disabled": 0}, {"rental_uris": {"android": "https://dc.lft.to/lastmile_qr_scan", "ios": "https://dc.lft.to/lastmile_qr_scan"}, "lat": 38.896476166666666, "type": "electric_scooter", "name": "a20f614a2b709f39b878f477f163b8a4", "fusion_lon": 0.0, "fusion_lat": 0.0, "is_reserved": 0, "bike_id": "a20f614a2b709f39b878f477f163b8a4", "lon": -77.02402966666666, "is_disabled": 0}, {"rental_uris": {"android": "https://dc.lft.to/lastmile_qr_scan", "ios": "https://dc.lft.to/lastmile_qr_scan"}, "lat": 38.90384616666667, "type": "electric_scooter", "name": "ac15243ad7c6134b402c77cf61c4abe8", "fusion_lon": 0.0, "fusion_lat": 0.0, "is_reserved": 0, "bike_id": "ac15243ad7c6134b402c77cf61c4abe8", "lon": -77.03836766666667, "is_disabled": 0}, {"rental_uris": {"android": "https://dc.lft.to/lastmile_qr_scan", "ios": "https://dc.lft.to/lastmile_qr_scan"}, "lat": 38.923603166666666, "type": "electric_scooter", "name": "36c0e78121ae9e64f10d315fda02e7af", "fusion_lon": 0.0, "fusion_lat": 0.0, "is_reserved": 0, "bike_id": "36c0e78121ae9e64f10d315fda02e7af", "lon": -77.05071083333333, "is_disabled": 0}, {"rental_uris": {"android": "https://dc.lft.to/lastmile_qr_scan", "ios": "https://dc.lft.to/lastmile_qr_scan"}, "lat": 38.8922255, "type": "electric_scooter", "name": "27dbfe7606a18097b3461b23e925d188", "fusion_lon": 0.0, "fusion_lat": 0.0, "is_reserved": 0, "bike_id": "27dbfe7606a18097b3461b23e925d188", "lon": -77.03139183333333, "is_disabled": 0}, {"rental_uris": {"android": "https://dc.lft.to/lastmile_qr_scan", "ios": "https://dc.lft.to/lastmile_qr_scan"}, "lat": 38.92866816666667, "type": "electric_scooter", "name": "b2781389747f6a278b91c1c497105be3", "fusion_lon": 0.0, "fusion_lat": 0.0, "is_reserved": 0, "bike_id": "b2781389747f6a278b91c1c497105be3", "lon": -77.03431616666667, "is_disabled": 0}, {"rental_uris": {"android": "https://dc.lft.to/lastmile_qr_scan", "ios": "https://dc.lft.to/lastmile_qr_scan"}, "lat": 38.9279155, "type": "electric_scooter", "name": "6ff15afbb8917cdf58558505fc0e5ab6", "fusion_lon": 0.0, "fusion_lat": 0.0, "is_reserved": 0, "bike_id": "6ff15afbb8917cdf58558505fc0e5ab6", "lon": -77.05335716666667, "is_disabled": 0}, {"rental_uris": {"android": "https://dc.lft.to/lastmile_qr_scan", "ios": "https://dc.lft.to/lastmile_qr_scan"}, "lat": 38.9181035, "type": "electric_scooter", "name": "fe47608f11eb2239b2e2846c33ecd4bc", "fusion_lon": 0.0, "fusion_lat": 0.0, "is_reserved": 0, "bike_id": "fe47608f11eb2239b2e2846c33ecd4bc", "lon": -77.02506, "is_disabled": 0}, {"rental_uris": {"android": "https://dc.lft.to/lastmile_qr_scan", "ios": "https://dc.lft.to/lastmile_qr_scan"}, "lat": 38.8765575, "type": "electric_scooter", "name": "2b7de805f7fbc1a1e27ae5ad43081ce5", "fusion_lon": 0.0, "fusion_lat": 0.0, "is_reserved": 0, "bike_id": "2b7de805f7fbc1a1e27ae5ad43081ce5", "lon": -77.01171766666667, "is_disabled": 0}, {"rental_uris": {"android": "https://dc.lft.to/lastmile_qr_scan", "ios": "https://dc.lft.to/lastmile_qr_scan"}, "lat": 38.89700333333333, "type": "electric_scooter", "name": "62fb5a5de8420701e889dee61b4d2426", "fusion_lon": 0.0, "fusion_lat": 0.0, "is_reserved": 0, "bike_id": "62fb5a5de8420701e889dee61b4d2426", "lon": -76.9390755, "is_disabled": 0}, {"rental_uris": {"android": "https://dc.lft.to/lastmile_qr_scan", "ios": "https://dc.lft.to/lastmile_qr_scan"}, "lat": 38.9243335, "type": "electric_scooter", "name": "57c85eb01258c81cad02b13b9abef62f", "fusion_lon": 0.0, "fusion_lat": 0.0, "is_reserved": 0, "bike_id": "57c85eb01258c81cad02b13b9abef62f", "lon": -77.00320933333333, "is_disabled": 0}, {"rental_uris": {"android": "https://dc.lft.to/lastmile_qr_scan", "ios": "https://dc.lft.to/lastmile_qr_scan"}, "lat": 38.8937215, "type": "electric_scooter", "name": "9358a78e9f46aa372e2687e8caaec212", "fusion_lon": 0.0, "fusion_lat": 0.0, "is_reserved": 0, "bike_id": "9358a78e9f46aa372e2687e8caaec212", "lon": -77.04615083333333, "is_disabled": 0}, {"rental_uris": {"android": "https://dc.lft.to/lastmile_qr_scan", "ios": "https://dc.lft.to/lastmile_qr_scan"}, "lat": 38.91333066666667, "type": "electric_scooter", "name": "30d13c5f6199629938384e85108afdcf", "fusion_lon": 0.0, "fusion_lat": 0.0, "is_reserved": 0, "bike_id": "30d13c5f6199629938384e85108afdcf", "lon": -77.0481635, "is_disabled": 0}, {"rental_uris": {"android": "https://dc.lft.to/lastmile_qr_scan", "ios": "https://dc.lft.to/lastmile_qr_scan"}, "lat": 38.918586833333336, "type": "electric_scooter", "name": "acb8da8abf9d66da820bf2cdeb9013b8", "fusion_lon": 0.0, "fusion_lat": 0.0, "is_reserved": 0, "bike_id": "acb8da8abf9d66da820bf2cdeb9013b8", "lon": -77.04462633333333, "is_disabled": 0}, {"rental_uris": {"android": "https://dc.lft.to/lastmile_qr_scan", "ios": "https://dc.lft.to/lastmile_qr_scan"}, "lat": 38.89739066666667, "type": "electric_scooter", "name": "90c242ba1e5a15bd4c35a692e6f2187a", "fusion_lon": 0.0, "fusion_lat": 0.0, "is_reserved": 0, "bike_id": "90c242ba1e5a15bd4c35a692e6f2187a", "lon": -77.02471, "is_disabled": 0}, {"rental_uris": {"android": "https://dc.lft.to/lastmile_qr_scan", "ios": "https://dc.lft.to/lastmile_qr_scan"}, "lat": 38.892458833333336, "type": "electric_scooter", "name": "6f89f1ca6244d74698e84d727b9ca214", "fusion_lon": 0.0, "fusion_lat": 0.0, "is_reserved": 0, "bike_id": "6f89f1ca6244d74698e84d727b9ca214", "lon": -76.95216666666667, "is_disabled": 0}, {"rental_uris": {"android": "https://dc.lft.to/lastmile_qr_scan", "ios": "https://dc.lft.to/lastmile_qr_scan"}, "lat": 38.90435433333333, "type": "electric_bike", "name": "d2c523ea71500c06afc9edb0edd91dbe", "fusion_lon": 0.0, "fusion_lat": 0.0, "is_reserved": 0, "bike_id": "d2c523ea71500c06afc9edb0edd91dbe", "lon": -76.97231516666666, "is_disabled": 0}, {"rental_uris": {"android": "https://dc.lft.to/lastmile_qr_scan", "ios": "https://dc.lft.to/lastmile_qr_scan"}, "lat": 38.892246, "type": "electric_scooter", "name": "2d8c4cb3759a05b86fc996c915787b8c", "fusion_lon": 0.0, "fusion_lat": 0.0, "is_reserved": 0, "bike_id": "2d8c4cb3759a05b86fc996c915787b8c", "lon": -77.02620033333334, "is_disabled": 0}, {"rental_uris": {"android": "https://dc.lft.to/lastmile_qr_scan", "ios": "https://dc.lft.to/lastmile_qr_scan"}, "lat": 38.898762, "type": "electric_scooter", "name": "b59ef53713f36d43bac4472fce2a7691", "fusion_lon": 0.0, "fusion_lat": 0.0, "is_reserved": 0, "bike_id": "b59ef53713f36d43bac4472fce2a7691", "lon": -77.048938, "is_disabled": 0}, {"rental_uris": {"android": "https://dc.lft.to/lastmile_qr_scan", "ios": "https://dc.lft.to/lastmile_qr_scan"}, "lat": 38.941821833333336, "type": "electric_scooter", "name": "3ff738cc9eb8df25c74d6415bf808492", "fusion_lon": 0.0, "fusion_lat": 0.0, "is_reserved": 0, "bike_id": "3ff738cc9eb8df25c74d6415bf808492", "lon": -77.02486033333334, "is_disabled": 0}, {"rental_uris": {"android": "https://dc.lft.to/lastmile_qr_scan", "ios": "https://dc.lft.to/lastmile_qr_scan"}, "lat": 38.926061, "type": "electric_scooter", "name": "959317192ccc0a36e0a08cc3811b704e", "fusion_lon": 0.0, "fusion_lat": 0.0, "is_reserved": 0, "bike_id": "959317192ccc0a36e0a08cc3811b704e", "lon": -77.0215415, "is_disabled": 0}, {"rental_uris": {"android": "https://dc.lft.to/lastmile_qr_scan", "ios": "https://dc.lft.to/lastmile_qr_scan"}, "lat": 38.91266066666667, "type": "electric_scooter", "name": "e038799444843c34d9d504d1f9703959", "fusion_lon": 0.0, "fusion_lat": 0.0, "is_reserved": 0, "bike_id": "e038799444843c34d9d504d1f9703959", "lon": -77.03869166666667, "is_disabled": 0}, {"rental_uris": {"android": "https://dc.lft.to/lastmile_qr_scan", "ios": "https://dc.lft.to/lastmile_qr_scan"}, "lat": 38.9137265, "type": "electric_scooter", "name": "96a00c9c6666c82b0c99efcce3dab652", "fusion_lon": 0.0, "fusion_lat": 0.0, "is_reserved": 0, "bike_id": "96a00c9c6666c82b0c99efcce3dab652", "lon": -77.046625, "is_disabled": 0}, {"rental_uris": {"android": "https://dc.lft.to/lastmile_qr_scan", "ios": "https://dc.lft.to/lastmile_qr_scan"}, "lat": 38.937487833333336, "type": "electric_scooter", "name": "3d7628c3aca7366ba049327f5e568c37", "fusion_lon": 0.0, "fusion_lat": 0.0, "is_reserved": 0, "bike_id": "3d7628c3aca7366ba049327f5e568c37", "lon": -77.02439083333333, "is_disabled": 0}, {"rental_uris": {"android": "https://dc.lft.to/lastmile_qr_scan", "ios": "https://dc.lft.to/lastmile_qr_scan"}, "lat": 38.99884333333333, "type": "electric_bike", "name": "35036eb8f36b5a8996f662e6aafbca1c", "fusion_lon": 0.0, "fusion_lat": 0.0, "is_reserved": 0, "bike_id": "35036eb8f36b5a8996f662e6aafbca1c", "lon": -76.91142766666667, "is_disabled": 0}, {"rental_uris": {"android": "https://dc.lft.to/lastmile_qr_scan", "ios": "https://dc.lft.to/lastmile_qr_scan"}, "lat": 38.926924666666665, "type": "electric_scooter", "name": "f77917ed0ade384b2d2d4abbd6dd66fb", "fusion_lon": 0.0, "fusion_lat": 0.0, "is_reserved": 0, "bike_id": "f77917ed0ade384b2d2d4abbd6dd66fb", "lon": -77.02081316666667, "is_disabled": 0}, {"rental_uris": {"android": "https://dc.lft.to/lastmile_qr_scan", "ios": "https://dc.lft.to/lastmile_qr_scan"}, "lat": 38.928202666666664, "type": "electric_scooter", "name": "dd361553a31d64d4e47d8273126b416f", "fusion_lon": 0.0, "fusion_lat": 0.0, "is_reserved": 0, "bike_id": "dd361553a31d64d4e47d8273126b416f", "lon": -77.0272675, "is_disabled": 0}, {"rental_uris": {"android": "https://dc.lft.to/lastmile_qr_scan", "ios": "https://dc.lft.to/lastmile_qr_scan"}, "lat": 38.905202333333335, "type": "electric_scooter", "name": "89ebca337e267d64800c12bd5e28d788", "fusion_lon": 0.0, "fusion_lat": 0.0, "is_reserved": 0, "bike_id": "89ebca337e267d64800c12bd5e28d788", "lon": -77.06451933333334, "is_disabled": 0}, {"rental_uris": {"android": "https://dc.lft.to/lastmile_qr_scan", "ios": "https://dc.lft.to/lastmile_qr_scan"}, "lat": 38.91632283333333, "type": "electric_scooter", "name": "97a74f3baa4d931e8762acf570f62376", "fusion_lon": 0.0, "fusion_lat": 0.0, "is_reserved": 0, "bike_id": "97a74f3baa4d931e8762acf570f62376", "lon": -77.04624766666667, "is_disabled": 0}, {"rental_uris": {"android": "https://dc.lft.to/lastmile_qr_scan", "ios": "https://dc.lft.to/lastmile_qr_scan"}, "lat": 38.90112583333333, "type": "electric_scooter", "name": "83aab3cffb43c9a40815c5b37d422539", "fusion_lon": 0.0, "fusion_lat": 0.0, "is_reserved": 0, "bike_id": "83aab3cffb43c9a40815c5b37d422539", "lon": -77.03171, "is_disabled": 0}, {"rental_uris": {"android": "https://dc.lft.to/lastmile_qr_scan", "ios": "https://dc.lft.to/lastmile_qr_scan"}, "lat": 38.905052833333336, "type": "electric_scooter", "name": "3443da263fd92fd710040b8c3bae8a82", "fusion_lon": 0.0, "fusion_lat": 0.0, "is_reserved": 0, "bike_id": "3443da263fd92fd710040b8c3bae8a82", "lon": -77.02948266666667, "is_disabled": 0}, {"rental_uris": {"android": "https://dc.lft.to/lastmile_qr_scan", "ios": "https://dc.lft.to/lastmile_qr_scan"}, "lat": 38.89620983333333, "type": "electric_bike", "name": "504ec65f8d1f158db35799f9b658cd20", "fusion_lon": 0.0, "fusion_lat": 0.0, "is_reserved": 0, "bike_id": "504ec65f8d1f158db35799f9b658cd20", "lon": -76.90753166666667, "is_disabled": 0}, {"rental_uris": {"android": "https://dc.lft.to/lastmile_qr_scan", "ios": "https://dc.lft.to/lastmile_qr_scan"}, "lat": 38.9205935, "type": "electric_scooter", "name": "fd185aabd169dfd57ab8cb4b8251e824", "fusion_lon": 0.0, "fusion_lat": 0.0, "is_reserved": 0, "bike_id": "fd185aabd169dfd57ab8cb4b8251e824", "lon": -77.025085, "is_disabled": 0}, {"rental_uris": {"android": "https://dc.lft.to/lastmile_qr_scan", "ios": "https://dc.lft.to/lastmile_qr_scan"}, "lat": 38.928771833333336, "type": "electric_scooter", "name": "c770518b37643f7ad1efa47ee6e07798", "fusion_lon": 0.0, "fusion_lat": 0.0, "is_reserved": 0, "bike_id": "c770518b37643f7ad1efa47ee6e07798", "lon": -77.0137215, "is_disabled": 0}, {"rental_uris": {"android": "https://dc.lft.to/lastmile_qr_scan", "ios": "https://dc.lft.to/lastmile_qr_scan"}, "lat": 38.908317333333336, "type": "electric_scooter", "name": "ec569771988a0647033982ec2ba72dab", "fusion_lon": 0.0, "fusion_lat": 0.0, "is_reserved": 0, "bike_id": "ec569771988a0647033982ec2ba72dab", "lon": -77.0020585, "is_disabled": 0}, {"rental_uris": {"android": "https://dc.lft.to/lastmile_qr_scan", "ios": "https://dc.lft.to/lastmile_qr_scan"}, "lat": 38.9056115, "type": "electric_scooter", "name": "c4e57936bcc61fcefa3a6fcc7e4ad53b", "fusion_lon": 0.0, "fusion_lat": 0.0, "is_reserved": 0, "bike_id": "c4e57936bcc61fcefa3a6fcc7e4ad53b", "lon": -77.00212033333334, "is_disabled": 0}, {"rental_uris": {"android": "https://dc.lft.to/lastmile_qr_scan", "ios": "https://dc.lft.to/lastmile_qr_scan"}, "lat": 38.90595033333334, "type": "electric_scooter", "name": "58c9d6e29752f78b09320b949222774a", "fusion_lon": 0.0, "fusion_lat": 0.0, "is_reserved": 0, "bike_id": "58c9d6e29752f78b09320b949222774a", "lon": -77.04080716666667, "is_disabled": 0}, {"rental_uris": {"android": "https://dc.lft.to/lastmile_qr_scan", "ios": "https://dc.lft.to/lastmile_qr_scan"}, "lat": 38.903765166666666, "type": "electric_scooter", "name": "5a1d3e9a4b5dbde6f7820442be4e5261", "fusion_lon": 0.0, "fusion_lat": 0.0, "is_reserved": 0, "bike_id": "5a1d3e9a4b5dbde6f7820442be4e5261", "lon": -77.02630133333334, "is_disabled": 0}, {"rental_uris": {"android": "https://dc.lft.to/lastmile_qr_scan", "ios": "https://dc.lft.to/lastmile_qr_scan"}, "lat": 38.898976, "type": "electric_scooter", "name": "ad96ab381801e8e91122c22a91f92ea5", "fusion_lon": 0.0, "fusion_lat": 0.0, "is_reserved": 0, "bike_id": "ad96ab381801e8e91122c22a91f92ea5", "lon": -77.0477055, "is_disabled": 0}, {"rental_uris": {"android": "https://dc.lft.to/lastmile_qr_scan", "ios": "https://dc.lft.to/lastmile_qr_scan"}, "lat": 38.9325045, "type": "electric_scooter", "name": "f9ddc5bd48a3bb645b6e3544c326b80e", "fusion_lon": 0.0, "fusion_lat": 0.0, "is_reserved": 0, "bike_id": "f9ddc5bd48a3bb645b6e3544c326b80e", "lon": -77.03277566666667, "is_disabled": 0}, {"rental_uris": {"android": "https://dc.lft.to/lastmile_qr_scan", "ios": "https://dc.lft.to/lastmile_qr_scan"}, "lat": 38.89511866666667, "type": "electric_scooter", "name": "08a0713e7f1950cf5849b1d85f9d2477", "fusion_lon": 0.0, "fusion_lat": 0.0, "is_reserved": 0, "bike_id": "08a0713e7f1950cf5849b1d85f9d2477", "lon": -77.04672133333334, "is_disabled": 0}, {"rental_uris": {"android": "https://dc.lft.to/lastmile_qr_scan", "ios": "https://dc.lft.to/lastmile_qr_scan"}, "lat": 38.9233055, "type": "electric_scooter", "name": "eec4e4e35b72913400a34223dde3faa6", "fusion_lon": 0.0, "fusion_lat": 0.0, "is_reserved": 0, "bike_id": "eec4e4e35b72913400a34223dde3faa6", "lon": -77.05683133333334, "is_disabled": 0}, {"rental_uris": {"android": "https://dc.lft.to/lastmile_qr_scan", "ios": "https://dc.lft.to/lastmile_qr_scan"}, "lat": 38.905135, "type": "electric_scooter", "name": "01d82e6a9a53ae8e5b7184f26010cdbe", "fusion_lon": 0.0, "fusion_lat": 0.0, "is_reserved": 0, "bike_id": "01d82e6a9a53ae8e5b7184f26010cdbe", "lon": -77.06050383333333, "is_disabled": 0}, {"rental_uris": {"android": "https://dc.lft.to/lastmile_qr_scan", "ios": "https://dc.lft.to/lastmile_qr_scan"}, "lat": 38.922327333333335, "type": "electric_scooter", "name": "d4a7940070189c87bd2a8fac7c86baf1", "fusion_lon": 0.0, "fusion_lat": 0.0, "is_reserved": 0, "bike_id": "d4a7940070189c87bd2a8fac7c86baf1", "lon": -77.0351995, "is_disabled": 0}, {"rental_uris": {"android": "https://dc.lft.to/lastmile_qr_scan", "ios": "https://dc.lft.to/lastmile_qr_scan"}, "lat": 38.89895533333333, "type": "electric_scooter", "name": "5fa7523b862f531f7440fd555518d806", "fusion_lon": 0.0, "fusion_lat": 0.0, "is_reserved": 0, "bike_id": "5fa7523b862f531f7440fd555518d806", "lon": -77.04071883333333, "is_disabled": 0}, {"rental_uris": {"android": "https://dc.lft.to/lastmile_qr_scan", "ios": "https://dc.lft.to/lastmile_qr_scan"}, "lat": 38.90474966666667, "type": "electric_scooter", "name": "e60b04f5b29960d5b4e63183db06212a", "fusion_lon": 0.0, "fusion_lat": 0.0, "is_reserved": 0, "bike_id": "e60b04f5b29960d5b4e63183db06212a", "lon": -77.03560683333333, "is_disabled": 0}, {"rental_uris": {"android": "https://dc.lft.to/lastmile_qr_scan", "ios": "https://dc.lft.to/lastmile_qr_scan"}, "lat": 38.92416033333333, "type": "electric_scooter", "name": "e2a96246e91e737d582b437375328050", "fusion_lon": 0.0, "fusion_lat": 0.0, "is_reserved": 0, "bike_id": "e2a96246e91e737d582b437375328050", "lon": -77.02276466666666, "is_disabled": 0}, {"rental_uris": {"android": "https://dc.lft.to/lastmile_qr_scan", "ios": "https://dc.lft.to/lastmile_qr_scan"}, "lat": 38.935551333333336, "type": "electric_scooter", "name": "c76a207217ab6542d97996218d9b5eaf", "fusion_lon": 0.0, "fusion_lat": 0.0, "is_reserved": 0, "bike_id": "c76a207217ab6542d97996218d9b5eaf", "lon": -77.07706716666667, "is_disabled": 0}, {"rental_uris": {"android": "https://dc.lft.to/lastmile_qr_scan", "ios": "https://dc.lft.to/lastmile_qr_scan"}, "lat": 38.9385845, "type": "electric_scooter", "name": "d043b27060a06f642a43ed8167dad0c6", "fusion_lon": 0.0, "fusion_lat": 0.0, "is_reserved": 0, "bike_id": "d043b27060a06f642a43ed8167dad0c6", "lon": -76.9943205, "is_disabled": 0}, {"rental_uris": {"android": "https://dc.lft.to/lastmile_qr_scan", "ios": "https://dc.lft.to/lastmile_qr_scan"}, "lat": 38.9051195, "type": "electric_scooter", "name": "58b9da8ea9ae9f8900f06b10b7a5eb2d", "fusion_lon": 0.0, "fusion_lat": 0.0, "is_reserved": 0, "bike_id": "58b9da8ea9ae9f8900f06b10b7a5eb2d", "lon": -77.07015716666666, "is_disabled": 0}, {"rental_uris": {"android": "https://dc.lft.to/lastmile_qr_scan", "ios": "https://dc.lft.to/lastmile_qr_scan"}, "lat": 38.92241033333333, "type": "electric_scooter", "name": "34b0963a1ee391f8e6b64a24af029b52", "fusion_lon": 0.0, "fusion_lat": 0.0, "is_reserved": 0, "bike_id": "34b0963a1ee391f8e6b64a24af029b52", "lon": -77.03521633333334, "is_disabled": 0}, {"rental_uris": {"android": "https://dc.lft.to/lastmile_qr_scan", "ios": "https://dc.lft.to/lastmile_qr_scan"}, "lat": 38.89355116666667, "type": "electric_scooter", "name": "f802548e0cde93be489ab7d59aa91481", "fusion_lon": 0.0, "fusion_lat": 0.0, "is_reserved": 0, "bike_id": "f802548e0cde93be489ab7d59aa91481", "lon": -77.00337133333333, "is_disabled": 0}, {"rental_uris": {"android": "https://dc.lft.to/lastmile_qr_scan", "ios": "https://dc.lft.to/lastmile_qr_scan"}, "lat": 38.94464116666666, "type": "electric_scooter", "name": "e2f7e8c9f40f78d39cf15d4fb1d48775", "fusion_lon": 0.0, "fusion_lat": 0.0, "is_reserved": 0, "bike_id": "e2f7e8c9f40f78d39cf15d4fb1d48775", "lon": -77.00657733333334, "is_disabled": 0}, {"rental_uris": {"android": "https://dc.lft.to/lastmile_qr_scan", "ios": "https://dc.lft.to/lastmile_qr_scan"}, "lat": 38.92076616666667, "type": "electric_scooter", "name": "2549f26380c1390c799e28024a7d2fc1", "fusion_lon": 0.0, "fusion_lat": 0.0, "is_reserved": 0, "bike_id": "2549f26380c1390c799e28024a7d2fc1", "lon": -77.02311366666666, "is_disabled": 0}, {"rental_uris": {"android": "https://dc.lft.to/lastmile_qr_scan", "ios": "https://dc.lft.to/lastmile_qr_scan"}, "lat": 38.916365166666665, "type": "electric_scooter", "name": "87f20c47cb58d3c3f02f176c17027ad8", "fusion_lon": 0.0, "fusion_lat": 0.0, "is_reserved": 0, "bike_id": "87f20c47cb58d3c3f02f176c17027ad8", "lon": -77.026953, "is_disabled": 0}, {"rental_uris": {"android": "https://dc.lft.to/lastmile_qr_scan", "ios": "https://dc.lft.to/lastmile_qr_scan"}, "lat": 38.905861333333334, "type": "electric_scooter", "name": "9465b805cf09409bc956f0dae0087e70", "fusion_lon": 0.0, "fusion_lat": 0.0, "is_reserved": 0, "bike_id": "9465b805cf09409bc956f0dae0087e70", "lon": -77.04100733333334, "is_disabled": 0}, {"rental_uris": {"android": "https://dc.lft.to/lastmile_qr_scan", "ios": "https://dc.lft.to/lastmile_qr_scan"}, "lat": 38.923023, "type": "electric_scooter", "name": "7a36948eb72f14848b2ece44ead809d2", "fusion_lon": 0.0, "fusion_lat": 0.0, "is_reserved": 0, "bike_id": "7a36948eb72f14848b2ece44ead809d2", "lon": -77.04199533333333, "is_disabled": 0}, {"rental_uris": {"android": "https://dc.lft.to/lastmile_qr_scan", "ios": "https://dc.lft.to/lastmile_qr_scan"}, "lat": 38.96393883333333, "type": "electric_scooter", "name": "a56c84ba27e3f5ff104d7eea89e2c7b6", "fusion_lon": 0.0, "fusion_lat": 0.0, "is_reserved": 0, "bike_id": "a56c84ba27e3f5ff104d7eea89e2c7b6", "lon": -77.0259265, "is_disabled": 0}, {"rental_uris": {"android": "https://dc.lft.to/lastmile_qr_scan", "ios": "https://dc.lft.to/lastmile_qr_scan"}, "lat": 38.899604833333335, "type": "electric_bike", "name": "d8701e66fd4e0e4f135caca6b0298937", "fusion_lon": 0.0, "fusion_lat": 0.0, "is_reserved": 0, "bike_id": "d8701e66fd4e0e4f135caca6b0298937", "lon": -77.041828, "is_disabled": 0}, {"rental_uris": {"android": "https://dc.lft.to/lastmile_qr_scan", "ios": "https://dc.lft.to/lastmile_qr_scan"}, "lat": 38.91896116666667, "type": "electric_bike", "name": "2d835e30d19f78aceb270f4d479964f8", "fusion_lon": 0.0, "fusion_lat": 0.0, "is_reserved": 0, "bike_id": "2d835e30d19f78aceb270f4d479964f8", "lon": -77.101731, "is_disabled": 0}, {"rental_uris": {"android": "https://dc.lft.to/lastmile_qr_scan", "ios": "https://dc.lft.to/lastmile_qr_scan"}, "lat": 38.900266333333335, "type": "electric_scooter", "name": "a8dcd7eb64ced64d6698e5a989f1e0d7", "fusion_lon": 0.0, "fusion_lat": 0.0, "is_reserved": 0, "bike_id": "a8dcd7eb64ced64d6698e5a989f1e0d7", "lon": -76.988285, "is_disabled": 0}, {"rental_uris": {"android": "https://dc.lft.to/lastmile_qr_scan", "ios": "https://dc.lft.to/lastmile_qr_scan"}, "lat": 38.83586433333333, "type": "electric_bike", "name": "897c53e8c7826247cea02877bc46531f", "fusion_lon": 0.0, "fusion_lat": 0.0, "is_reserved": 0, "bike_id": "897c53e8c7826247cea02877bc46531f", "lon": -76.99030633333334, "is_disabled": 0}, {"rental_uris": {"android": "https://dc.lft.to/lastmile_qr_scan", "ios": "https://dc.lft.to/lastmile_qr_scan"}, "lat": 38.901338333333335, "type": "electric_scooter", "name": "f6bbd648b2308b5d06dc17305d25bdef", "fusion_lon": 0.0, "fusion_lat": 0.0, "is_reserved": 0, "bike_id": "f6bbd648b2308b5d06dc17305d25bdef", "lon": -77.0432885, "is_disabled": 0}, {"rental_uris": {"android": "https://dc.lft.to/lastmile_qr_scan", "ios": "https://dc.lft.to/lastmile_qr_scan"}, "lat": 38.87517233333333, "type": "electric_bike", "name": "2bdc6ddc8537275b923f3e460cbb09e3", "fusion_lon": 0.0, "fusion_lat": 0.0, "is_reserved": 0, "bike_id": "2bdc6ddc8537275b923f3e460cbb09e3", "lon": -77.1175915, "is_disabled": 0}, {"rental_uris": {"android": "https://dc.lft.to/lastmile_qr_scan", "ios": "https://dc.lft.to/lastmile_qr_scan"}, "lat": 38.98570633333333, "type": "electric_bike", "name": "206207b491aa8d3ab042ee8fd26d0988", "fusion_lon": 0.0, "fusion_lat": 0.0, "is_reserved": 0, "bike_id": "206207b491aa8d3ab042ee8fd26d0988", "lon": -77.08746566666667, "is_disabled": 0}, {"rental_uris": {"android": "https://dc.lft.to/lastmile_qr_scan", "ios": "https://dc.lft.to/lastmile_qr_scan"}, "lat": 38.89705433333334, "type": "electric_scooter", "name": "68a907c169520f9f044a2c2636cb5ba5", "fusion_lon": 0.0, "fusion_lat": 0.0, "is_reserved": 0, "bike_id": "68a907c169520f9f044a2c2636cb5ba5", "lon": -77.02306533333334, "is_disabled": 0}, {"rental_uris": {"android": "https://dc.lft.to/lastmile_qr_scan", "ios": "https://dc.lft.to/lastmile_qr_scan"}, "lat": 38.91118733333333, "type": "electric_scooter", "name": "417eb3a96e2050fa23890d54e3f3e8a9", "fusion_lon": 0.0, "fusion_lat": 0.0, "is_reserved": 0, "bike_id": "417eb3a96e2050fa23890d54e3f3e8a9", "lon": -77.04465166666667, "is_disabled": 0}, {"rental_uris": {"android": "https://dc.lft.to/lastmile_qr_scan", "ios": "https://dc.lft.to/lastmile_qr_scan"}, "lat": 38.9037405, "type": "electric_scooter", "name": "7bd29a14e229cf09ea09571f82ea96e1", "fusion_lon": 0.0, "fusion_lat": 0.0, "is_reserved": 0, "bike_id": "7bd29a14e229cf09ea09571f82ea96e1", "lon": -77.022027, "is_disabled": 0}, {"rental_uris": {"android": "https://dc.lft.to/lastmile_qr_scan", "ios": "https://dc.lft.to/lastmile_qr_scan"}, "lat": 38.910922166666666, "type": "electric_scooter", "name": "5b0f11c7692a15c5d3a015d5a9620d59", "fusion_lon": 0.0, "fusion_lat": 0.0, "is_reserved": 0, "bike_id": "5b0f11c7692a15c5d3a015d5a9620d59", "lon": -77.04489483333333, "is_disabled": 0}, {"rental_uris": {"android": "https://dc.lft.to/lastmile_qr_scan", "ios": "https://dc.lft.to/lastmile_qr_scan"}, "lat": 38.902411, "type": "electric_scooter", "name": "4d9f11fbc23fa7c0fa9c335e268f4c57", "fusion_lon": 0.0, "fusion_lat": 0.0, "is_reserved": 0, "bike_id": "4d9f11fbc23fa7c0fa9c335e268f4c57", "lon": -77.019314, "is_disabled": 0}, {"rental_uris": {"android": "https://dc.lft.to/lastmile_qr_scan", "ios": "https://dc.lft.to/lastmile_qr_scan"}, "lat": 38.926935, "type": "electric_scooter", "name": "8c42e9a7eddf9d14e37d52186c9daa76", "fusion_lon": 0.0, "fusion_lat": 0.0, "is_reserved": 0, "bike_id": "8c42e9a7eddf9d14e37d52186c9daa76", "lon": -77.00772133333334, "is_disabled": 0}, {"rental_uris": {"android": "https://dc.lft.to/lastmile_qr_scan", "ios": "https://dc.lft.to/lastmile_qr_scan"}, "lat": 38.9232065, "type": "electric_scooter", "name": "ea028f081c10669244878c3abff5f2d3", "fusion_lon": 0.0, "fusion_lat": 0.0, "is_reserved": 0, "bike_id": "ea028f081c10669244878c3abff5f2d3", "lon": -77.03859566666667, "is_disabled": 0}, {"rental_uris": {"android": "https://dc.lft.to/lastmile_qr_scan", "ios": "https://dc.lft.to/lastmile_qr_scan"}, "lat": 38.928495, "type": "electric_scooter", "name": "0ee07b235e63a60a05558f5a60fec64d", "fusion_lon": 0.0, "fusion_lat": 0.0, "is_reserved": 0, "bike_id": "0ee07b235e63a60a05558f5a60fec64d", "lon": -77.0342195, "is_disabled": 0}, {"rental_uris": {"android": "https://dc.lft.to/lastmile_qr_scan", "ios": "https://dc.lft.to/lastmile_qr_scan"}, "lat": 38.876976166666665, "type": "electric_scooter", "name": "fdb792d19a0305c768ad8aa2f2f368f3", "fusion_lon": 0.0, "fusion_lat": 0.0, "is_reserved": 0, "bike_id": "fdb792d19a0305c768ad8aa2f2f368f3", "lon": -77.01776, "is_disabled": 0}, {"rental_uris": {"android": "https://dc.lft.to/lastmile_qr_scan", "ios": "https://dc.lft.to/lastmile_qr_scan"}, "lat": 38.92092866666667, "type": "electric_scooter", "name": "93585777be17e5cddc864809b7309ab0", "fusion_lon": 0.0, "fusion_lat": 0.0, "is_reserved": 0, "bike_id": "93585777be17e5cddc864809b7309ab0", "lon": -77.0230435, "is_disabled": 0}, {"rental_uris": {"android": "https://dc.lft.to/lastmile_qr_scan", "ios": "https://dc.lft.to/lastmile_qr_scan"}, "lat": 38.92553616666667, "type": "electric_scooter", "name": "b5cbc7435a6dbfe03f530a126f10dcff", "fusion_lon": 0.0, "fusion_lat": 0.0, "is_reserved": 0, "bike_id": "b5cbc7435a6dbfe03f530a126f10dcff", "lon": -77.021473, "is_disabled": 0}, {"rental_uris": {"android": "https://dc.lft.to/lastmile_qr_scan", "ios": "https://dc.lft.to/lastmile_qr_scan"}, "lat": 38.9003505, "type": "electric_scooter", "name": "1c2f06ea547d980479593e3a44da9e56", "fusion_lon": 0.0, "fusion_lat": 0.0, "is_reserved": 0, "bike_id": "1c2f06ea547d980479593e3a44da9e56", "lon": -77.00197533333333, "is_disabled": 0}, {"rental_uris": {"android": "https://dc.lft.to/lastmile_qr_scan", "ios": "https://dc.lft.to/lastmile_qr_scan"}, "lat": 38.917392666666665, "type": "electric_scooter", "name": "384730b92ed5e63a453c26061de5a0e4", "fusion_lon": 0.0, "fusion_lat": 0.0, "is_reserved": 0, "bike_id": "384730b92ed5e63a453c26061de5a0e4", "lon": -77.02115516666667, "is_disabled": 0}, {"rental_uris": {"android": "https://dc.lft.to/lastmile_qr_scan", "ios": "https://dc.lft.to/lastmile_qr_scan"}, "lat": 38.90040583333333, "type": "electric_scooter", "name": "86909b9f7217c22af2fe91772af3887e", "fusion_lon": 0.0, "fusion_lat": 0.0, "is_reserved": 0, "bike_id": "86909b9f7217c22af2fe91772af3887e", "lon": -77.04329766666666, "is_disabled": 0}, {"rental_uris": {"android": "https://dc.lft.to/lastmile_qr_scan", "ios": "https://dc.lft.to/lastmile_qr_scan"}, "lat": 38.934623333333334, "type": "electric_scooter", "name": "bb699e0bbdb81f843850f670bfe51aa1", "fusion_lon": 0.0, "fusion_lat": 0.0, "is_reserved": 0, "bike_id": "bb699e0bbdb81f843850f670bfe51aa1", "lon": -77.029248, "is_disabled": 0}, {"rental_uris": {"android": "https://dc.lft.to/lastmile_qr_scan", "ios": "https://dc.lft.to/lastmile_qr_scan"}, "lat": 38.919591833333335, "type": "electric_scooter", "name": "f420e8f341fbda820f2f4cdd1eba8384", "fusion_lon": 0.0, "fusion_lat": 0.0, "is_reserved": 0, "bike_id": "f420e8f341fbda820f2f4cdd1eba8384", "lon": -77.02377516666667, "is_disabled": 0}, {"rental_uris": {"android": "https://dc.lft.to/lastmile_qr_scan", "ios": "https://dc.lft.to/lastmile_qr_scan"}, "lat": 38.9170915, "type": "electric_scooter", "name": "0ea3044fb6fd76ed57f932670dc90417", "fusion_lon": 0.0, "fusion_lat": 0.0, "is_reserved": 0, "bike_id": "0ea3044fb6fd76ed57f932670dc90417", "lon": -77.040064, "is_disabled": 0}, {"rental_uris": {"android": "https://dc.lft.to/lastmile_qr_scan", "ios": "https://dc.lft.to/lastmile_qr_scan"}, "lat": 38.910928, "type": "electric_scooter", "name": "9d7be9d4e0c9dcde330185df388d51c3", "fusion_lon": 0.0, "fusion_lat": 0.0, "is_reserved": 0, "bike_id": "9d7be9d4e0c9dcde330185df388d51c3", "lon": -77.038407, "is_disabled": 0}, {"rental_uris": {"android": "https://dc.lft.to/lastmile_qr_scan", "ios": "https://dc.lft.to/lastmile_qr_scan"}, "lat": 38.92347616666667, "type": "electric_scooter", "name": "773e88127263560a81b4130ed8322f47", "fusion_lon": 0.0, "fusion_lat": 0.0, "is_reserved": 0, "bike_id": "773e88127263560a81b4130ed8322f47", "lon": -77.0225485, "is_disabled": 0}, {"rental_uris": {"android": "https://dc.lft.to/lastmile_qr_scan", "ios": "https://dc.lft.to/lastmile_qr_scan"}, "lat": 38.892236, "type": "electric_scooter", "name": "18da75cf3c2f580ab8e2dfdf8695a3bf", "fusion_lon": 0.0, "fusion_lat": 0.0, "is_reserved": 0, "bike_id": "18da75cf3c2f580ab8e2dfdf8695a3bf", "lon": -77.0462305, "is_disabled": 0}, {"rental_uris": {"android": "https://dc.lft.to/lastmile_qr_scan", "ios": "https://dc.lft.to/lastmile_qr_scan"}, "lat": 38.91542, "type": "electric_scooter", "name": "48a13623d6af965577a13a2e3746415d", "fusion_lon": 0.0, "fusion_lat": 0.0, "is_reserved": 0, "bike_id": "48a13623d6af965577a13a2e3746415d", "lon": -77.007731, "is_disabled": 0}, {"rental_uris": {"android": "https://dc.lft.to/lastmile_qr_scan", "ios": "https://dc.lft.to/lastmile_qr_scan"}, "lat": 38.9221355, "type": "electric_scooter", "name": "944e1fcc73cfbdcfc1b1ddb8440a06f2", "fusion_lon": 0.0, "fusion_lat": 0.0, "is_reserved": 0, "bike_id": "944e1fcc73cfbdcfc1b1ddb8440a06f2", "lon": -77.04241233333333, "is_disabled": 0}, {"rental_uris": {"android": "https://dc.lft.to/lastmile_qr_scan", "ios": "https://dc.lft.to/lastmile_qr_scan"}, "lat": 38.89227183333333, "type": "electric_scooter", "name": "bf5b7bf49dfa68935b68dbd707b87d31", "fusion_lon": 0.0, "fusion_lat": 0.0, "is_reserved": 0, "bike_id": "bf5b7bf49dfa68935b68dbd707b87d31", "lon": -77.03134383333334, "is_disabled": 0}, {"rental_uris": {"android": "https://dc.lft.to/lastmile_qr_scan", "ios": "https://dc.lft.to/lastmile_qr_scan"}, "lat": 38.920586, "type": "electric_scooter", "name": "32697eabba3af5fd52380e7fe01b2982", "fusion_lon": 0.0, "fusion_lat": 0.0, "is_reserved": 0, "bike_id": "32697eabba3af5fd52380e7fe01b2982", "lon": -77.02297066666667, "is_disabled": 0}, {"rental_uris": {"android": "https://dc.lft.to/lastmile_qr_scan", "ios": "https://dc.lft.to/lastmile_qr_scan"}, "lat": 38.91055983333333, "type": "electric_scooter", "name": "8f383e8eda6948784c717b126e33c3aa", "fusion_lon": 0.0, "fusion_lat": 0.0, "is_reserved": 0, "bike_id": "8f383e8eda6948784c717b126e33c3aa", "lon": -77.05389866666667, "is_disabled": 0}, {"rental_uris": {"android": "https://dc.lft.to/lastmile_qr_scan", "ios": "https://dc.lft.to/lastmile_qr_scan"}, "lat": 38.92961866666667, "type": "electric_scooter", "name": "2fcf87cf2fa7d5ef8dc550e7d2b571b2", "fusion_lon": 0.0, "fusion_lat": 0.0, "is_reserved": 0, "bike_id": "2fcf87cf2fa7d5ef8dc550e7d2b571b2", "lon": -77.01147933333333, "is_disabled": 0}, {"rental_uris": {"android": "https://dc.lft.to/lastmile_qr_scan", "ios": "https://dc.lft.to/lastmile_qr_scan"}, "lat": 38.8871825, "type": "electric_scooter", "name": "958c86a7f494a3e0a90d3e3bc2911d5a", "fusion_lon": 0.0, "fusion_lat": 0.0, "is_reserved": 0, "bike_id": "958c86a7f494a3e0a90d3e3bc2911d5a", "lon": -77.02823533333333, "is_disabled": 0}, {"rental_uris": {"android": "https://dc.lft.to/lastmile_qr_scan", "ios": "https://dc.lft.to/lastmile_qr_scan"}, "lat": 38.915969833333335, "type": "electric_scooter", "name": "9b4774d197e169e73d32d94b9bdbcc84", "fusion_lon": 0.0, "fusion_lat": 0.0, "is_reserved": 0, "bike_id": "9b4774d197e169e73d32d94b9bdbcc84", "lon": -77.02284933333334, "is_disabled": 0}, {"rental_uris": {"android": "https://dc.lft.to/lastmile_qr_scan", "ios": "https://dc.lft.to/lastmile_qr_scan"}, "lat": 38.9001795, "type": "electric_scooter", "name": "2630fffa0d138f1f383fc146b32cb42e", "fusion_lon": 0.0, "fusion_lat": 0.0, "is_reserved": 0, "bike_id": "2630fffa0d138f1f383fc146b32cb42e", "lon": -77.048143, "is_disabled": 0}, {"rental_uris": {"android": "https://dc.lft.to/lastmile_qr_scan", "ios": "https://dc.lft.to/lastmile_qr_scan"}, "lat": 38.925095166666665, "type": "electric_scooter", "name": "f7e53169d013a25212b84351bbf2a412", "fusion_lon": 0.0, "fusion_lat": 0.0, "is_reserved": 0, "bike_id": "f7e53169d013a25212b84351bbf2a412", "lon": -77.00226116666667, "is_disabled": 0}, {"rental_uris": {"android": "https://dc.lft.to/lastmile_qr_scan", "ios": "https://dc.lft.to/lastmile_qr_scan"}, "lat": 38.9015785, "type": "electric_scooter", "name": "dbfefad63abd5a7581fabf9f380436ac", "fusion_lon": 0.0, "fusion_lat": 0.0, "is_reserved": 0, "bike_id": "dbfefad63abd5a7581fabf9f380436ac", "lon": -77.02951216666666, "is_disabled": 0}, {"rental_uris": {"android": "https://dc.lft.to/lastmile_qr_scan", "ios": "https://dc.lft.to/lastmile_qr_scan"}, "lat": 38.873749333333336, "type": "electric_scooter", "name": "93eaa358ebfd0545bbadd668ddf9d653", "fusion_lon": 0.0, "fusion_lat": 0.0, "is_reserved": 0, "bike_id": "93eaa358ebfd0545bbadd668ddf9d653", "lon": -77.00091783333333, "is_disabled": 0}, {"rental_uris": {"android": "https://dc.lft.to/lastmile_qr_scan", "ios": "https://dc.lft.to/lastmile_qr_scan"}, "lat": 38.88655416666667, "type": "electric_scooter", "name": "115e35596a250366e4c7ffdb66aed370", "fusion_lon": 0.0, "fusion_lat": 0.0, "is_reserved": 0, "bike_id": "115e35596a250366e4c7ffdb66aed370", "lon": -77.00202733333333, "is_disabled": 0}, {"rental_uris": {"android": "https://dc.lft.to/lastmile_qr_scan", "ios": "https://dc.lft.to/lastmile_qr_scan"}, "lat": 38.910625833333334, "type": "electric_scooter", "name": "68456e31edd8e62563958e46b741d642", "fusion_lon": 0.0, "fusion_lat": 0.0, "is_reserved": 0, "bike_id": "68456e31edd8e62563958e46b741d642", "lon": -77.043868, "is_disabled": 0}, {"rental_uris": {"android": "https://dc.lft.to/lastmile_qr_scan", "ios": "https://dc.lft.to/lastmile_qr_scan"}, "lat": 38.92251316666667, "type": "electric_scooter", "name": "19ac6a24c850957c4998709c0beb5a48", "fusion_lon": 0.0, "fusion_lat": 0.0, "is_reserved": 0, "bike_id": "19ac6a24c850957c4998709c0beb5a48", "lon": -77.01942583333333, "is_disabled": 0}, {"rental_uris": {"android": "https://dc.lft.to/lastmile_qr_scan", "ios": "https://dc.lft.to/lastmile_qr_scan"}, "lat": 38.936605666666665, "type": "electric_scooter", "name": "d13c54674a0beefef24087ce73af582b", "fusion_lon": 0.0, "fusion_lat": 0.0, "is_reserved": 0, "bike_id": "d13c54674a0beefef24087ce73af582b", "lon": -77.0661025, "is_disabled": 0}, {"rental_uris": {"android": "https://dc.lft.to/lastmile_qr_scan", "ios": "https://dc.lft.to/lastmile_qr_scan"}, "lat": 38.9087765, "type": "electric_scooter", "name": "fa9b91a03138bc716651d714ec83b8c4", "fusion_lon": 0.0, "fusion_lat": 0.0, "is_reserved": 0, "bike_id": "fa9b91a03138bc716651d714ec83b8c4", "lon": -77.03759866666667, "is_disabled": 0}, {"rental_uris": {"android": "https://dc.lft.to/lastmile_qr_scan", "ios": "https://dc.lft.to/lastmile_qr_scan"}, "lat": 38.921532666666664, "type": "electric_scooter", "name": "aa3c5cd5f9ad9152596ea9a6d6da671f", "fusion_lon": 0.0, "fusion_lat": 0.0, "is_reserved": 0, "bike_id": "aa3c5cd5f9ad9152596ea9a6d6da671f", "lon": -77.0351065, "is_disabled": 0}, {"rental_uris": {"android": "https://dc.lft.to/lastmile_qr_scan", "ios": "https://dc.lft.to/lastmile_qr_scan"}, "lat": 38.89976, "type": "electric_scooter", "name": "2879371f42bfec57c28c8564c72c9f69", "fusion_lon": 0.0, "fusion_lat": 0.0, "is_reserved": 0, "bike_id": "2879371f42bfec57c28c8564c72c9f69", "lon": -77.04718833333334, "is_disabled": 0}, {"rental_uris": {"android": "https://dc.lft.to/lastmile_qr_scan", "ios": "https://dc.lft.to/lastmile_qr_scan"}, "lat": 38.90273533333333, "type": "electric_scooter", "name": "05525d1347416f3b287e2fc3aabcf1fa", "fusion_lon": 0.0, "fusion_lat": 0.0, "is_reserved": 0, "bike_id": "05525d1347416f3b287e2fc3aabcf1fa", "lon": -77.03834766666667, "is_disabled": 0}, {"rental_uris": {"android": "https://dc.lft.to/lastmile_qr_scan", "ios": "https://dc.lft.to/lastmile_qr_scan"}, "lat": 38.892262, "type": "electric_scooter", "name": "02ee3e43911e52a24d554f3da02b4eb1", "fusion_lon": 0.0, "fusion_lat": 0.0, "is_reserved": 0, "bike_id": "02ee3e43911e52a24d554f3da02b4eb1", "lon": -77.04364016666666, "is_disabled": 0}, {"rental_uris": {"android": "https://dc.lft.to/lastmile_qr_scan", "ios": "https://dc.lft.to/lastmile_qr_scan"}, "lat": 38.920927666666664, "type": "electric_scooter", "name": "ce85b652b3c2b9ead6c2adc567ba5b61", "fusion_lon": 0.0, "fusion_lat": 0.0, "is_reserved": 0, "bike_id": "ce85b652b3c2b9ead6c2adc567ba5b61", "lon": -77.02305166666666, "is_disabled": 0}, {"rental_uris": {"android": "https://dc.lft.to/lastmile_qr_scan", "ios": "https://dc.lft.to/lastmile_qr_scan"}, "lat": 38.92390966666667, "type": "electric_scooter", "name": "13d252c03d8628657a2a6d8472f501f7", "fusion_lon": 0.0, "fusion_lat": 0.0, "is_reserved": 0, "bike_id": "13d252c03d8628657a2a6d8472f501f7", "lon": -77.02651133333333, "is_disabled": 0}, {"rental_uris": {"android": "https://dc.lft.to/lastmile_qr_scan", "ios": "https://dc.lft.to/lastmile_qr_scan"}, "lat": 38.905678333333334, "type": "electric_scooter", "name": "718cfc1960bb18ac8c966c522010f594", "fusion_lon": 0.0, "fusion_lat": 0.0, "is_reserved": 0, "bike_id": "718cfc1960bb18ac8c966c522010f594", "lon": -77.0346885, "is_disabled": 0}, {"rental_uris": {"android": "https://dc.lft.to/lastmile_qr_scan", "ios": "https://dc.lft.to/lastmile_qr_scan"}, "lat": 38.807339166666665, "type": "electric_bike", "name": "bf45fc1966435db5181a2042dd0c3cff", "fusion_lon": 0.0, "fusion_lat": 0.0, "is_reserved": 0, "bike_id": "bf45fc1966435db5181a2042dd0c3cff", "lon": -76.99258466666667, "is_disabled": 0}, {"rental_uris": {"android": "https://dc.lft.to/lastmile_qr_scan", "ios": "https://dc.lft.to/lastmile_qr_scan"}, "lat": 38.897359, "type": "electric_scooter", "name": "bca693ad78f57323e35435cf69737df5", "fusion_lon": 0.0, "fusion_lat": 0.0, "is_reserved": 0, "bike_id": "bca693ad78f57323e35435cf69737df5", "lon": -77.04477416666667, "is_disabled": 0}, {"rental_uris": {"android": "https://dc.lft.to/lastmile_qr_scan", "ios": "https://dc.lft.to/lastmile_qr_scan"}, "lat": 38.901697, "type": "electric_scooter", "name": "6d08af2a52c71a62f33d700051d2056c", "fusion_lon": 0.0, "fusion_lat": 0.0, "is_reserved": 0, "bike_id": "6d08af2a52c71a62f33d700051d2056c", "lon": -76.98076666666667, "is_disabled": 0}, {"rental_uris": {"android": "https://dc.lft.to/lastmile_qr_scan", "ios": "https://dc.lft.to/lastmile_qr_scan"}, "lat": 38.894703666666665, "type": "electric_bike", "name": "c77e581509fb5591f0c56ec087916c83", "fusion_lon": 0.0, "fusion_lat": 0.0, "is_reserved": 0, "bike_id": "c77e581509fb5591f0c56ec087916c83", "lon": -77.04658933333333, "is_disabled": 0}, {"rental_uris": {"android": "https://dc.lft.to/lastmile_qr_scan", "ios": "https://dc.lft.to/lastmile_qr_scan"}, "lat": 38.92456216666667, "type": "electric_scooter", "name": "b82e15f05f107c525388ba7711e619e5", "fusion_lon": 0.0, "fusion_lat": 0.0, "is_reserved": 0, "bike_id": "b82e15f05f107c525388ba7711e619e5", "lon": -77.0203615, "is_disabled": 0}, {"rental_uris": {"android": "https://dc.lft.to/lastmile_qr_scan", "ios": "https://dc.lft.to/lastmile_qr_scan"}, "lat": 38.88431766666667, "type": "electric_scooter", "name": "8d4134c8b82ad4a05095cb5b38450506", "fusion_lon": 0.0, "fusion_lat": 0.0, "is_reserved": 0, "bike_id": "8d4134c8b82ad4a05095cb5b38450506", "lon": -76.95745083333334, "is_disabled": 0}, {"rental_uris": {"android": "https://dc.lft.to/lastmile_qr_scan", "ios": "https://dc.lft.to/lastmile_qr_scan"}, "lat": 38.80403316666667, "type": "electric_bike", "name": "971c907df6ab9ebe650c29ade11e9307", "fusion_lon": 0.0, "fusion_lat": 0.0, "is_reserved": 0, "bike_id": "971c907df6ab9ebe650c29ade11e9307", "lon": -77.11328933333333, "is_disabled": 0}, {"rental_uris": {"android": "https://dc.lft.to/lastmile_qr_scan", "ios": "https://dc.lft.to/lastmile_qr_scan"}, "lat": 38.91046333333333, "type": "electric_scooter", "name": "1b77e2eea9f8a9b84354620681800ae5", "fusion_lon": 0.0, "fusion_lat": 0.0, "is_reserved": 0, "bike_id": "1b77e2eea9f8a9b84354620681800ae5", "lon": -77.040954, "is_disabled": 0}, {"rental_uris": {"android": "https://dc.lft.to/lastmile_qr_scan", "ios": "https://dc.lft.to/lastmile_qr_scan"}, "lat": 38.8721625, "type": "electric_scooter", "name": "c439fffe32953a68464c217551c59e19", "fusion_lon": 0.0, "fusion_lat": 0.0, "is_reserved": 0, "bike_id": "c439fffe32953a68464c217551c59e19", "lon": -77.01613983333333, "is_disabled": 0}, {"rental_uris": {"android": "https://dc.lft.to/lastmile_qr_scan", "ios": "https://dc.lft.to/lastmile_qr_scan"}, "lat": 38.9073495, "type": "electric_scooter", "name": "20af29893dfb38b2c74140552d37665c", "fusion_lon": 0.0, "fusion_lat": 0.0, "is_reserved": 0, "bike_id": "20af29893dfb38b2c74140552d37665c", "lon": -77.0457395, "is_disabled": 0}, {"rental_uris": {"android": "https://dc.lft.to/lastmile_qr_scan", "ios": "https://dc.lft.to/lastmile_qr_scan"}, "lat": 38.900610666666665, "type": "electric_scooter", "name": "cf84468fb22c667a309601046f81836d", "fusion_lon": 0.0, "fusion_lat": 0.0, "is_reserved": 0, "bike_id": "cf84468fb22c667a309601046f81836d", "lon": -76.987068, "is_disabled": 0}, {"rental_uris": {"android": "https://dc.lft.to/lastmile_qr_scan", "ios": "https://dc.lft.to/lastmile_qr_scan"}, "lat": 38.900568666666665, "type": "electric_scooter", "name": "e2d13df588372b49c41184a533068113", "fusion_lon": 0.0, "fusion_lat": 0.0, "is_reserved": 0, "bike_id": "e2d13df588372b49c41184a533068113", "lon": -77.0317225, "is_disabled": 0}, {"rental_uris": {"android": "https://dc.lft.to/lastmile_qr_scan", "ios": "https://dc.lft.to/lastmile_qr_scan"}, "lat": 38.92192933333333, "type": "electric_scooter", "name": "4d1c1a554be901a76cf3f94d39b83f08", "fusion_lon": 0.0, "fusion_lat": 0.0, "is_reserved": 0, "bike_id": "4d1c1a554be901a76cf3f94d39b83f08", "lon": -77.042335, "is_disabled": 0}, {"rental_uris": {"android": "https://dc.lft.to/lastmile_qr_scan", "ios": "https://dc.lft.to/lastmile_qr_scan"}, "lat": 38.8876375, "type": "electric_bike", "name": "84b54841cab7b4f5224a56650fbe3b2b", "fusion_lon": 0.0, "fusion_lat": 0.0, "is_reserved": 0, "bike_id": "84b54841cab7b4f5224a56650fbe3b2b", "lon": -77.04910633333333, "is_disabled": 0}, {"rental_uris": {"android": "https://dc.lft.to/lastmile_qr_scan", "ios": "https://dc.lft.to/lastmile_qr_scan"}, "lat": 38.912586833333336, "type": "electric_scooter", "name": "7ce6371c01b258acead2d25765a3a3f7", "fusion_lon": 0.0, "fusion_lat": 0.0, "is_reserved": 0, "bike_id": "7ce6371c01b258acead2d25765a3a3f7", "lon": -77.07547383333333, "is_disabled": 0}, {"rental_uris": {"android": "https://dc.lft.to/lastmile_qr_scan", "ios": "https://dc.lft.to/lastmile_qr_scan"}, "lat": 38.93244816666667, "type": "electric_bike", "name": "11f0426b4e94a87303e9a8c1d94bcf5e", "fusion_lon": 0.0, "fusion_lat": 0.0, "is_reserved": 0, "bike_id": "11f0426b4e94a87303e9a8c1d94bcf5e", "lon": -76.99734783333334, "is_disabled": 0}, {"rental_uris": {"android": "https://dc.lft.to/lastmile_qr_scan", "ios": "https://dc.lft.to/lastmile_qr_scan"}, "lat": 38.92499016666667, "type": "electric_scooter", "name": "3e82517038c6685a8d287782461179fd", "fusion_lon": 0.0, "fusion_lat": 0.0, "is_reserved": 0, "bike_id": "3e82517038c6685a8d287782461179fd", "lon": -77.0216075, "is_disabled": 0}, {"rental_uris": {"android": "https://dc.lft.to/lastmile_qr_scan", "ios": "https://dc.lft.to/lastmile_qr_scan"}, "lat": 38.89223916666667, "type": "electric_scooter", "name": "7bec3e0b4b5b2311091dc18614eb264b", "fusion_lon": 0.0, "fusion_lat": 0.0, "is_reserved": 0, "bike_id": "7bec3e0b4b5b2311091dc18614eb264b", "lon": -77.04800483333334, "is_disabled": 0}, {"rental_uris": {"android": "https://dc.lft.to/lastmile_qr_scan", "ios": "https://dc.lft.to/lastmile_qr_scan"}, "lat": 38.888395833333334, "type": "electric_scooter", "name": "529bfdacf27ba17d7b42c669a02da26a", "fusion_lon": 0.0, "fusion_lat": 0.0, "is_reserved": 0, "bike_id": "529bfdacf27ba17d7b42c669a02da26a", "lon": -76.97717933333334, "is_disabled": 0}, {"rental_uris": {"android": "https://dc.lft.to/lastmile_qr_scan", "ios": "https://dc.lft.to/lastmile_qr_scan"}, "lat": 38.92443516666667, "type": "electric_scooter", "name": "90e8269ba06a76ffbeb6501398c34f42", "fusion_lon": 0.0, "fusion_lat": 0.0, "is_reserved": 0, "bike_id": "90e8269ba06a76ffbeb6501398c34f42", "lon": -77.02153733333333, "is_disabled": 0}, {"rental_uris": {"android": "https://dc.lft.to/lastmile_qr_scan", "ios": "https://dc.lft.to/lastmile_qr_scan"}, "lat": 38.894915833333336, "type": "electric_scooter", "name": "c55d80e024fdc8e886e18941aad78132", "fusion_lon": 0.0, "fusion_lat": 0.0, "is_reserved": 0, "bike_id": "c55d80e024fdc8e886e18941aad78132", "lon": -77.00968066666667, "is_disabled": 0}, {"rental_uris": {"android": "https://dc.lft.to/lastmile_qr_scan", "ios": "https://dc.lft.to/lastmile_qr_scan"}, "lat": 38.9019555, "type": "electric_scooter", "name": "c894960400af442fe1c39217e502a463", "fusion_lon": 0.0, "fusion_lat": 0.0, "is_reserved": 0, "bike_id": "c894960400af442fe1c39217e502a463", "lon": -76.98209633333333, "is_disabled": 0}, {"rental_uris": {"android": "https://dc.lft.to/lastmile_qr_scan", "ios": "https://dc.lft.to/lastmile_qr_scan"}, "lat": 38.898469666666664, "type": "electric_scooter", "name": "e0a29b52426f8ee1d75cda02698d9b80", "fusion_lon": 0.0, "fusion_lat": 0.0, "is_reserved": 0, "bike_id": "e0a29b52426f8ee1d75cda02698d9b80", "lon": -77.01964083333333, "is_disabled": 0}, {"rental_uris": {"android": "https://dc.lft.to/lastmile_qr_scan", "ios": "https://dc.lft.to/lastmile_qr_scan"}, "lat": 38.864901833333334, "type": "electric_bike", "name": "7af26c76482191493ef5f91adeba59a9", "fusion_lon": 0.0, "fusion_lat": 0.0, "is_reserved": 0, "bike_id": "7af26c76482191493ef5f91adeba59a9", "lon": -76.97744816666666, "is_disabled": 0}, {"rental_uris": {"android": "https://dc.lft.to/lastmile_qr_scan", "ios": "https://dc.lft.to/lastmile_qr_scan"}, "lat": 38.9026785, "type": "electric_scooter", "name": "996c01a8e315d4c3c53671cf2fdf1022", "fusion_lon": 0.0, "fusion_lat": 0.0, "is_reserved": 0, "bike_id": "996c01a8e315d4c3c53671cf2fdf1022", "lon": -77.03900966666667, "is_disabled": 0}, {"rental_uris": {"android": "https://dc.lft.to/lastmile_qr_scan", "ios": "https://dc.lft.to/lastmile_qr_scan"}, "lat": 38.89971666666667, "type": "electric_scooter", "name": "d03786a13416382530eae720a0684afc", "fusion_lon": 0.0, "fusion_lat": 0.0, "is_reserved": 0, "bike_id": "d03786a13416382530eae720a0684afc", "lon": -77.02167866666667, "is_disabled": 0}, {"rental_uris": {"android": "https://dc.lft.to/lastmile_qr_scan", "ios": "https://dc.lft.to/lastmile_qr_scan"},