{"data": {"bikes": [{"bike_id": "9d15675ae2990090aa56fed671292e49", "type": "electric_scooter", "is_disabled": 0, "lat": 38.91699083333334, "rental_uris": {"ios": "https://dc.lft.to/lastmile_qr_scan", "android": "https://dc.lft.to/lastmile_qr_scan"}, "is_reserved": 0, "fusion_lon": 0.0, "fusion_lat": 0.0, "lon": -77.00656666666667, "name": "9d15675ae2990090aa56fed671292e49"}, {"bike_id": "629ce7d3d0cff701f42dbdd14f4eaca7", "type": "electric_scooter", "is_disabled": 0, "lat": 38.9000475, "rental_uris": {"ios": "https://dc.lft.to/lastmile_qr_scan", "android": "https://dc.lft.to/lastmile_qr_scan"}, "is_reserved": 0, "fusion_lon": 0.0, "fusion_lat": 0.0, "lon": -77.04151083333333, "name": "629ce7d3d0cff701f42dbdd14f4eaca7"}, {"bike_id": "151b032b4aa9de30cb7d84c1f3e4bc9c", "type": "electric_bike", "is_disabled": 0, "lat": 39.052819666666664, "rental_uris": {"ios": "https://dc.lft.to/lastmile_qr_scan", "android": "https://dc.lft.to/lastmile_qr_scan"}, "is_reserved": 0, "fusion_lon": 0.0, "fusion_lat": 0.0, "lon": -77.080735, "name": "151b032b4aa9de30cb7d84c1f3e4bc9c"}, {"bike_id": "7e0f5cd770cf61324b5749b8456a915b", "type": "electric_scooter", "is_disabled": 0, "lat": 38.910522666666665, "rental_uris": {"ios": "https://dc.lft.to/lastmile_qr_scan", "android": "https://dc.lft.to/lastmile_qr_scan"}, "is_reserved": 0, "fusion_lon": 0.0, "fusion_lat": 0.0, "lon": -77.02682916666667, "name": "7e0f5cd770cf61324b5749b8456a915b"}, {"bike_id": "a34ba488dcea7359c13f770305fac1f6", "type": "electric_scooter", "is_disabled": 0, "lat": 38.8783045, "rental_uris": {"ios": "https://dc.lft.to/lastmile_qr_scan", "android": "https://dc.lft.to/lastmile_qr_scan"}, "is_reserved": 0, "fusion_lon": 0.0, "fusion_lat": 0.0, "lon": -76.963055, "name": "a34ba488dcea7359c13f770305fac1f6"}, {"bike_id": "e902196c645fc79da2f961ba1e73162c", "type": "electric_scooter", "is_disabled": 0, "lat": 38.86698483333333, "rental_uris": {"ios": "https://dc.lft.to/lastmile_qr_scan", "android": "https://dc.lft.to/lastmile_qr_scan"}, "is_reserved": 0, "fusion_lon": 0.0, "fusion_lat": 0.0, "lon": -76.987196, "name": "e902196c645fc79da2f961ba1e73162c"}, {"bike_id": "a9d09f97ea779f142eb01a7e845c53c6", "type": "electric_scooter", "is_disabled": 0, "lat": 38.870922666666665, "rental_uris": {"ios": "https://dc.lft.to/lastmile_qr_scan", "android": "https://dc.lft.to/lastmile_qr_scan"}, "is_reserved": 0, "fusion_lon": 0.0, "fusion_lat": 0.0, "lon": -76.96585033333334, "name": "a9d09f97ea779f142eb01a7e845c53c6"}, {"bike_id": "108ce86b2b8cbe5d5de31cc42b616877", "type": "electric_scooter", "is_disabled": 0, "lat": 38.940865333333335, "rental_uris": {"ios": "https://dc.lft.to/lastmile_qr_scan", "android": "https://dc.lft.to/lastmile_qr_scan"}, "is_reserved": 0, "fusion_lon": 0.0, "fusion_lat": 0.0, "lon": -77.02727533333334, "name": "108ce86b2b8cbe5d5de31cc42b616877"}, {"bike_id": "e3dc69dbae38d03634502faece9f4279", "type": "electric_scooter", "is_disabled": 0, "lat": 38.902536833333336, "rental_uris": {"ios": "https://dc.lft.to/lastmile_qr_scan", "android": "https://dc.lft.to/lastmile_qr_scan"}, "is_reserved": 0, "fusion_lon": 0.0, "fusion_lat": 0.0, "lon": -77.01812966666667, "name": "e3dc69dbae38d03634502faece9f4279"}, {"bike_id": "720ed7ed60bf67daecf688fd1ddd7bba", "type": "electric_scooter", "is_disabled": 0, "lat": 38.9155105, "rental_uris": {"ios": "https://dc.lft.to/lastmile_qr_scan", "android": "https://dc.lft.to/lastmile_qr_scan"}, "is_reserved": 0, "fusion_lon": 0.0, "fusion_lat": 0.0, "lon": -76.98337016666666, "name": "720ed7ed60bf67daecf688fd1ddd7bba"}, {"bike_id": "152457591af36cb24cfaad727c9d39bd", "type": "electric_scooter", "is_disabled": 0, "lat": 38.914649833333335, "rental_uris": {"ios": "https://dc.lft.to/lastmile_qr_scan", "android": "https://dc.lft.to/lastmile_qr_scan"}, "is_reserved": 0, "fusion_lon": 0.0, "fusion_lat": 0.0, "lon": -76.984124, "name": "152457591af36cb24cfaad727c9d39bd"}, {"bike_id": "cce293e39e1c3545dc8d44f3921dfe5d", "type": "electric_scooter", "is_disabled": 0, "lat": 38.918205666666665, "rental_uris": {"ios": "https://dc.lft.to/lastmile_qr_scan", "android": "https://dc.lft.to/lastmile_qr_scan"}, "is_reserved": 0, "fusion_lon": 0.0, "fusion_lat": 0.0, "lon": -77.04939833333333, "name": "cce293e39e1c3545dc8d44f3921dfe5d"}, {"bike_id": "81087a9857a4a555fbe8ea6ef3375dea", "type": "electric_scooter", "is_disabled": 0, "lat": 38.9396675, "rental_uris": {"ios": "https://dc.lft.to/lastmile_qr_scan", "android": "https://dc.lft.to/lastmile_qr_scan"}, "is_reserved": 0, "fusion_lon": 0.0, "fusion_lat": 0.0, "lon": -77.02490766666666, "name": "81087a9857a4a555fbe8ea6ef3375dea"}, {"bike_id": "74678559cfc1a5c9703d9835219aa0bd", "type": "electric_scooter", "is_disabled": 0, "lat": 38.92344716666667, "rental_uris": {"ios": "https://dc.lft.to/lastmile_qr_scan", "android": "https://dc.lft.to/lastmile_qr_scan"}, "is_reserved": 0, "fusion_lon": 0.0, "fusion_lat": 0.0, "lon": -77.0505355, "name": "74678559cfc1a5c9703d9835219aa0bd"}, {"bike_id": "abe6a39e789fba880f9930783589f464", "type": "electric_scooter", "is_disabled": 0, "lat": 38.909455, "rental_uris": {"ios": "https://dc.lft.to/lastmile_qr_scan", "android": "https://dc.lft.to/lastmile_qr_scan"}, "is_reserved": 0, "fusion_lon": 0.0, "fusion_lat": 0.0, "lon": -77.02702966666666, "name": "abe6a39e789fba880f9930783589f464"}, {"bike_id": "316f36be68b0b66f014a3f4c8f902d9a", "type": "electric_scooter", "is_disabled": 0, "lat": 38.9254855, "rental_uris": {"ios": "https://dc.lft.to/lastmile_qr_scan", "android": "https://dc.lft.to/lastmile_qr_scan"}, "is_reserved": 0, "fusion_lon": 0.0, "fusion_lat": 0.0, "lon": -77.02281383333333, "name": "316f36be68b0b66f014a3f4c8f902d9a"}, {"bike_id": "e362f669d803ea154bc758c037a27f56", "type": "electric_scooter", "is_disabled": 0, "lat": 38.916133333333335, "rental_uris": {"ios": "https://dc.lft.to/lastmile_qr_scan", "android": "https://dc.lft.to/lastmile_qr_scan"}, "is_reserved": 0, "fusion_lon": 0.0, "fusion_lat": 0.0, "lon": -77.03642933333333, "name": "e362f669d803ea154bc758c037a27f56"}, {"bike_id": "5b96d0405a09ecdca71ab5965daf4336", "type": "electric_scooter", "is_disabled": 0, "lat": 38.908992, "rental_uris": {"ios": "https://dc.lft.to/lastmile_qr_scan", "android": "https://dc.lft.to/lastmile_qr_scan"}, "is_reserved": 0, "fusion_lon": 0.0, "fusion_lat": 0.0, "lon": -77.086183, "name": "5b96d0405a09ecdca71ab5965daf4336"}, {"bike_id": "c8b7367747e382e58c6c6d455a4a6eba", "type": "electric_scooter", "is_disabled": 0, "lat": 38.9589495, "rental_uris": {"ios": "https://dc.lft.to/lastmile_qr_scan", "android": "https://dc.lft.to/lastmile_qr_scan"}, "is_reserved": 0, "fusion_lon": 0.0, "fusion_lat": 0.0, "lon": -77.0859725, "name": "c8b7367747e382e58c6c6d455a4a6eba"}, {"bike_id": "0b5436396c31511eaaa5e3d6278b0d93", "type": "electric_scooter", "is_disabled": 0, "lat": 38.8708135, "rental_uris": {"ios": "https://dc.lft.to/lastmile_qr_scan", "android": "https://dc.lft.to/lastmile_qr_scan"}, "is_reserved": 0, "fusion_lon": 0.0, "fusion_lat": 0.0, "lon": -77.01184033333334, "name": "0b5436396c31511eaaa5e3d6278b0d93"}, {"bike_id": "e32e6924e5e1530db44c25efa663cd89", "type": "electric_scooter", "is_disabled": 0, "lat": 38.8712335, "rental_uris": {"ios": "https://dc.lft.to/lastmile_qr_scan", "android": "https://dc.lft.to/lastmile_qr_scan"}, "is_reserved": 0, "fusion_lon": 0.0, "fusion_lat": 0.0, "lon": -77.0075595, "name": "e32e6924e5e1530db44c25efa663cd89"}, {"bike_id": "49e5d38d3c2359b5d1e388dfcf4d9db4", "type": "electric_scooter", "is_disabled": 0, "lat": 38.931945666666664, "rental_uris": {"ios": "https://dc.lft.to/lastmile_qr_scan", "android": "https://dc.lft.to/lastmile_qr_scan"}, "is_reserved": 0, "fusion_lon": 0.0, "fusion_lat": 0.0, "lon": -77.01957666666667, "name": "49e5d38d3c2359b5d1e388dfcf4d9db4"}, {"bike_id": "6dda20212bb2a13fa036668cd34da3f7", "type": "electric_scooter", "is_disabled": 0, "lat": 38.916388166666664, "rental_uris": {"ios": "https://dc.lft.to/lastmile_qr_scan", "android": "https://dc.lft.to/lastmile_qr_scan"}, "is_reserved": 0, "fusion_lon": 0.0, "fusion_lat": 0.0, "lon": -77.00050883333333, "name": "6dda20212bb2a13fa036668cd34da3f7"}, {"bike_id": "c8716ba5ed0f2fbb31b5fafb0421e35a", "type": "electric_scooter", "is_disabled": 0, "lat": 38.91483566666667, "rental_uris": {"ios": "https://dc.lft.to/lastmile_qr_scan", "android": "https://dc.lft.to/lastmile_qr_scan"}, "is_reserved": 0, "fusion_lon": 0.0, "fusion_lat": 0.0, "lon": -77.02185983333334, "name": "c8716ba5ed0f2fbb31b5fafb0421e35a"}, {"bike_id": "acc7112525241c10b1691fb72874b9a0", "type": "electric_scooter", "is_disabled": 0, "lat": 38.92085566666667, "rental_uris": {"ios": "https://dc.lft.to/lastmile_qr_scan", "android": "https://dc.lft.to/lastmile_qr_scan"}, "is_reserved": 0, "fusion_lon": 0.0, "fusion_lat": 0.0, "lon": -77.024011, "name": "acc7112525241c10b1691fb72874b9a0"}, {"bike_id": "83e75e47b5981cabd351ea4f37962265", "type": "electric_scooter", "is_disabled": 0, "lat": 38.91789, "rental_uris": {"ios": "https://dc.lft.to/lastmile_qr_scan", "android": "https://dc.lft.to/lastmile_qr_scan"}, "is_reserved": 0, "fusion_lon": 0.0, "fusion_lat": 0.0, "lon": -77.02308066666667, "name": "83e75e47b5981cabd351ea4f37962265"}, {"bike_id": "62306649636a0abde807e029cb4d04ef", "type": "electric_bike", "is_disabled": 0, "lat": 38.836102, "rental_uris": {"ios": "https://dc.lft.to/lastmile_qr_scan", "android": "https://dc.lft.to/lastmile_qr_scan"}, "is_reserved": 0, "fusion_lon": 0.0, "fusion_lat": 0.0, "lon": -77.00384066666666, "name": "62306649636a0abde807e029cb4d04ef"}, {"bike_id": "dcea64cdd602f6fc78d9a7f2ad841ca8", "type": "electric_scooter", "is_disabled": 0, "lat": 38.902594666666666, "rental_uris": {"ios": "https://dc.lft.to/lastmile_qr_scan", "android": "https://dc.lft.to/lastmile_qr_scan"}, "is_reserved": 0, "fusion_lon": 0.0, "fusion_lat": 0.0, "lon": -77.0184075, "name": "dcea64cdd602f6fc78d9a7f2ad841ca8"}, {"bike_id": "7a33285fa3b5b3649335e2b66dbdae93", "type": "electric_bike", "is_disabled": 0, "lat": 38.871364666666665, "rental_uris": {"ios": "https://dc.lft.to/lastmile_qr_scan", "android": "https://dc.lft.to/lastmile_qr_scan"}, "is_reserved": 0, "fusion_lon": 0.0, "fusion_lat": 0.0, "lon": -77.100319, "name": "7a33285fa3b5b3649335e2b66dbdae93"}, {"bike_id": "1126f93150f21ebdb0dbf932c9e58c4c", "type": "electric_scooter", "is_disabled": 0, "lat": 38.90951833333333, "rental_uris": {"ios": "https://dc.lft.to/lastmile_qr_scan", "android": "https://dc.lft.to/lastmile_qr_scan"}, "is_reserved": 0, "fusion_lon": 0.0, "fusion_lat": 0.0, "lon": -77.02381016666666, "name": "1126f93150f21ebdb0dbf932c9e58c4c"}, {"bike_id": "75cb335377399c3961745e05fa2ee92c", "type": "electric_scooter", "is_disabled": 0, "lat": 38.91621083333333, "rental_uris": {"ios": "https://dc.lft.to/lastmile_qr_scan", "android": "https://dc.lft.to/lastmile_qr_scan"}, "is_reserved": 0, "fusion_lon": 0.0, "fusion_lat": 0.0, "lon": -77.04870116666666, "name": "75cb335377399c3961745e05fa2ee92c"}, {"bike_id": "8b06b85ae32946d60796f4b70c679eb8", "type": "electric_scooter", "is_disabled": 0, "lat": 38.918610666666666, "rental_uris": {"ios": "https://dc.lft.to/lastmile_qr_scan", "android": "https://dc.lft.to/lastmile_qr_scan"}, "is_reserved": 0, "fusion_lon": 0.0, "fusion_lat": 0.0, "lon": -77.02807016666667, "name": "8b06b85ae32946d60796f4b70c679eb8"}, {"bike_id": "a3f01424ce7ddf514d79c7648170a06b", "type": "electric_scooter", "is_disabled": 0, "lat": 38.89617583333333, "rental_uris": {"ios": "https://dc.lft.to/lastmile_qr_scan", "android": "https://dc.lft.to/lastmile_qr_scan"}, "is_reserved": 0, "fusion_lon": 0.0, "fusion_lat": 0.0, "lon": -77.0002625, "name": "a3f01424ce7ddf514d79c7648170a06b"}, {"bike_id": "76a70d6ad6502d0f2782aa64d498f979", "type": "electric_scooter", "is_disabled": 0, "lat": 38.892579166666664, "rental_uris": {"ios": "https://dc.lft.to/lastmile_qr_scan", "android": "https://dc.lft.to/lastmile_qr_scan"}, "is_reserved": 0, "fusion_lon": 0.0, "fusion_lat": 0.0, "lon": -77.03343683333334, "name": "76a70d6ad6502d0f2782aa64d498f979"}, {"bike_id": "eef023d9aa6aaa3e93f260df8a0f3973", "type": "electric_scooter", "is_disabled": 0, "lat": 38.908472333333336, "rental_uris": {"ios": "https://dc.lft.to/lastmile_qr_scan", "android": "https://dc.lft.to/lastmile_qr_scan"}, "is_reserved": 0, "fusion_lon": 0.0, "fusion_lat": 0.0, "lon": -77.04328166666667, "name": "eef023d9aa6aaa3e93f260df8a0f3973"}, {"bike_id": "946e5124563fff735c00466b80829833", "type": "electric_scooter", "is_disabled": 0, "lat": 38.879186, "rental_uris": {"ios": "https://dc.lft.to/lastmile_qr_scan", "android": "https://dc.lft.to/lastmile_qr_scan"}, "is_reserved": 0, "fusion_lon": 0.0, "fusion_lat": 0.0, "lon": -77.00903866666667, "name": "946e5124563fff735c00466b80829833"}, {"bike_id": "e45f8dd3462ab1e75267815f4d731eee", "type": "electric_bike", "is_disabled": 0, "lat": 38.97395316666667, "rental_uris": {"ios": "https://dc.lft.to/lastmile_qr_scan", "android": "https://dc.lft.to/lastmile_qr_scan"}, "is_reserved": 0, "fusion_lon": 0.0, "fusion_lat": 0.0, "lon": -77.0644925, "name": "e45f8dd3462ab1e75267815f4d731eee"}, {"bike_id": "26ce2cfeefdaa0932b75ca9715ff2161", "type": "electric_scooter", "is_disabled": 0, "lat": 38.931329833333336, "rental_uris": {"ios": "https://dc.lft.to/lastmile_qr_scan", "android": "https://dc.lft.to/lastmile_qr_scan"}, "is_reserved": 0, "fusion_lon": 0.0, "fusion_lat": 0.0, "lon": -77.028068, "name": "26ce2cfeefdaa0932b75ca9715ff2161"}, {"bike_id": "3793c16b2e852545f3cffb702e184520", "type": "electric_scooter", "is_disabled": 0, "lat": 38.937741333333335, "rental_uris": {"ios": "https://dc.lft.to/lastmile_qr_scan", "android": "https://dc.lft.to/lastmile_qr_scan"}, "is_reserved": 0, "fusion_lon": 0.0, "fusion_lat": 0.0, "lon": -77.0248665, "name": "3793c16b2e852545f3cffb702e184520"}, {"bike_id": "f74b754b0e9f24909d77866eeb63c752", "type": "electric_scooter", "is_disabled": 0, "lat": 38.923687, "rental_uris": {"ios": "https://dc.lft.to/lastmile_qr_scan", "android": "https://dc.lft.to/lastmile_qr_scan"}, "is_reserved": 0, "fusion_lon": 0.0, "fusion_lat": 0.0, "lon": -77.019174, "name": "f74b754b0e9f24909d77866eeb63c752"}, {"bike_id": "e2fee4785fdf46bd4a4321afaf0db1bf", "type": "electric_scooter", "is_disabled": 0, "lat": 38.901190666666665, "rental_uris": {"ios": "https://dc.lft.to/lastmile_qr_scan", "android": "https://dc.lft.to/lastmile_qr_scan"}, "is_reserved": 0, "fusion_lon": 0.0, "fusion_lat": 0.0, "lon": -76.929513, "name": "e2fee4785fdf46bd4a4321afaf0db1bf"}, {"bike_id": "d02ad98d32c8d8f7a1839b3dd7926bf5", "type": "electric_scooter", "is_disabled": 0, "lat": 38.90301683333333, "rental_uris": {"ios": "https://dc.lft.to/lastmile_qr_scan", "android": "https://dc.lft.to/lastmile_qr_scan"}, "is_reserved": 0, "fusion_lon": 0.0, "fusion_lat": 0.0, "lon": -77.003218, "name": "d02ad98d32c8d8f7a1839b3dd7926bf5"}, {"bike_id": "bc555c611a8808a97f635913c3119fe8", "type": "electric_scooter", "is_disabled": 0, "lat": 38.9562555, "rental_uris": {"ios": "https://dc.lft.to/lastmile_qr_scan", "android": "https://dc.lft.to/lastmile_qr_scan"}, "is_reserved": 0, "fusion_lon": 0.0, "fusion_lat": 0.0, "lon": -77.036154, "name": "bc555c611a8808a97f635913c3119fe8"}, {"bike_id": "0f3673f4575d68ce3016c7024f028a3a", "type": "electric_scooter", "is_disabled": 0, "lat": 38.92453166666667, "rental_uris": {"ios": "https://dc.lft.to/lastmile_qr_scan", "android": "https://dc.lft.to/lastmile_qr_scan"}, "is_reserved": 0, "fusion_lon": 0.0, "fusion_lat": 0.0, "lon": -77.02406683333334, "name": "0f3673f4575d68ce3016c7024f028a3a"}, {"bike_id": "600d3a4e01573e6c54a938a7ce65293c", "type": "electric_scooter", "is_disabled": 0, "lat": 38.92332116666667, "rental_uris": {"ios": "https://dc.lft.to/lastmile_qr_scan", "android": "https://dc.lft.to/lastmile_qr_scan"}, "is_reserved": 0, "fusion_lon": 0.0, "fusion_lat": 0.0, "lon": -77.03782266666667, "name": "600d3a4e01573e6c54a938a7ce65293c"}, {"bike_id": "97f50626c29375c333056e2a3e4d0694", "type": "electric_scooter", "is_disabled": 0, "lat": 38.87334516666667, "rental_uris": {"ios": "https://dc.lft.to/lastmile_qr_scan", "android": "https://dc.lft.to/lastmile_qr_scan"}, "is_reserved": 0, "fusion_lon": 0.0, "fusion_lat": 0.0, "lon": -76.96782233333333, "name": "97f50626c29375c333056e2a3e4d0694"}, {"bike_id": "0358dadf904dfea2c0db08db5f9a6471", "type": "electric_scooter", "is_disabled": 0, "lat": 38.91713383333333, "rental_uris": {"ios": "https://dc.lft.to/lastmile_qr_scan", "android": "https://dc.lft.to/lastmile_qr_scan"}, "is_reserved": 0, "fusion_lon": 0.0, "fusion_lat": 0.0, "lon": -77.0346405, "name": "0358dadf904dfea2c0db08db5f9a6471"}, {"bike_id": "3fa4c727c8b186fc150737e4b25c6719", "type": "electric_scooter", "is_disabled": 0, "lat": 38.877173166666665, "rental_uris": {"ios": "https://dc.lft.to/lastmile_qr_scan", "android": "https://dc.lft.to/lastmile_qr_scan"}, "is_reserved": 0, "fusion_lon": 0.0, "fusion_lat": 0.0, "lon": -77.0199525, "name": "3fa4c727c8b186fc150737e4b25c6719"}, {"bike_id": "c62c44daed4acc19c9f3f6db7bea9d01", "type": "electric_scooter", "is_disabled": 0, "lat": 38.929008833333334, "rental_uris": {"ios": "https://dc.lft.to/lastmile_qr_scan", "android": "https://dc.lft.to/lastmile_qr_scan"}, "is_reserved": 0, "fusion_lon": 0.0, "fusion_lat": 0.0, "lon": -77.05456783333334, "name": "c62c44daed4acc19c9f3f6db7bea9d01"}, {"bike_id": "b3680cd451560bc899e8424ba152404f", "type": "electric_scooter", "is_disabled": 0, "lat": 38.918866666666666, "rental_uris": {"ios": "https://dc.lft.to/lastmile_qr_scan", "android": "https://dc.lft.to/lastmile_qr_scan"}, "is_reserved": 0, "fusion_lon": 0.0, "fusion_lat": 0.0, "lon": -77.03487233333334, "name": "b3680cd451560bc899e8424ba152404f"}, {"bike_id": "03e7040a70c7b9905cac0a21c6821566", "type": "electric_scooter", "is_disabled": 0, "lat": 38.90263983333333, "rental_uris": {"ios": "https://dc.lft.to/lastmile_qr_scan", "android": "https://dc.lft.to/lastmile_qr_scan"}, "is_reserved": 0, "fusion_lon": 0.0, "fusion_lat": 0.0, "lon": -77.003262, "name": "03e7040a70c7b9905cac0a21c6821566"}, {"bike_id": "56a4ff74fa5ec051b47f17244ec85af7", "type": "electric_scooter", "is_disabled": 0, "lat": 38.92229666666667, "rental_uris": {"ios": "https://dc.lft.to/lastmile_qr_scan", "android": "https://dc.lft.to/lastmile_qr_scan"}, "is_reserved": 0, "fusion_lon": 0.0, "fusion_lat": 0.0, "lon": -77.044162, "name": "56a4ff74fa5ec051b47f17244ec85af7"}, {"bike_id": "1fba96f8b5b8f536946e9605faedfa8b", "type": "electric_scooter", "is_disabled": 0, "lat": 38.865144, "rental_uris": {"ios": "https://dc.lft.to/lastmile_qr_scan", "android": "https://dc.lft.to/lastmile_qr_scan"}, "is_reserved": 0, "fusion_lon": 0.0, "fusion_lat": 0.0, "lon": -76.99018183333334, "name": "1fba96f8b5b8f536946e9605faedfa8b"}, {"bike_id": "ad67dd352a405db07307f335ce3cdfbe", "type": "electric_scooter", "is_disabled": 0, "lat": 38.89960833333333, "rental_uris": {"ios": "https://dc.lft.to/lastmile_qr_scan", "android": "https://dc.lft.to/lastmile_qr_scan"}, "is_reserved": 0, "fusion_lon": 0.0, "fusion_lat": 0.0, "lon": -77.02392416666666, "name": "ad67dd352a405db07307f335ce3cdfbe"}, {"bike_id": "158e3a737ff0048ed73b049cfbb90610", "type": "electric_scooter", "is_disabled": 0, "lat": 38.907878833333335, "rental_uris": {"ios": "https://dc.lft.to/lastmile_qr_scan", "android": "https://dc.lft.to/lastmile_qr_scan"}, "is_reserved": 0, "fusion_lon": 0.0, "fusion_lat": 0.0, "lon": -77.01019183333334, "name": "158e3a737ff0048ed73b049cfbb90610"}, {"bike_id": "cd4ed57cfdc4385b0564abbd7a1319ad", "type": "electric_scooter", "is_disabled": 0, "lat": 38.923651666666665, "rental_uris": {"ios": "https://dc.lft.to/lastmile_qr_scan", "android": "https://dc.lft.to/lastmile_qr_scan"}, "is_reserved": 0, "fusion_lon": 0.0, "fusion_lat": 0.0, "lon": -77.051311, "name": "cd4ed57cfdc4385b0564abbd7a1319ad"}, {"bike_id": "9c07b3c156612fa3c2e20ebf842ab2d5", "type": "electric_scooter", "is_disabled": 0, "lat": 38.916906, "rental_uris": {"ios": "https://dc.lft.to/lastmile_qr_scan", "android": "https://dc.lft.to/lastmile_qr_scan"}, "is_reserved": 0, "fusion_lon": 0.0, "fusion_lat": 0.0, "lon": -77.01053116666667, "name": "9c07b3c156612fa3c2e20ebf842ab2d5"}, {"bike_id": "c7eb2a90cbe9b9fa9bd04e8d7ab69481", "type": "electric_scooter", "is_disabled": 0, "lat": 38.90213216666667, "rental_uris": {"ios": "https://dc.lft.to/lastmile_qr_scan", "android": "https://dc.lft.to/lastmile_qr_scan"}, "is_reserved": 0, "fusion_lon": 0.0, "fusion_lat": 0.0, "lon": -77.0512395, "name": "c7eb2a90cbe9b9fa9bd04e8d7ab69481"}, {"bike_id": "cef2632a4e23c44579bc9d10187050d3", "type": "electric_scooter", "is_disabled": 0, "lat": 38.94046066666667, "rental_uris": {"ios": "https://dc.lft.to/lastmile_qr_scan", "android": "https://dc.lft.to/lastmile_qr_scan"}, "is_reserved": 0, "fusion_lon": 0.0, "fusion_lat": 0.0, "lon": -77.029789, "name": "cef2632a4e23c44579bc9d10187050d3"}, {"bike_id": "80c692c3e59155caf678caaa7d853e9c", "type": "electric_scooter", "is_disabled": 0, "lat": 38.92863416666667, "rental_uris": {"ios": "https://dc.lft.to/lastmile_qr_scan", "android": "https://dc.lft.to/lastmile_qr_scan"}, "is_reserved": 0, "fusion_lon": 0.0, "fusion_lat": 0.0, "lon": -77.037141, "name": "80c692c3e59155caf678caaa7d853e9c"}, {"bike_id": "cb36797ea0edaa57fbf2337097f0b690", "type": "electric_scooter", "is_disabled": 0, "lat": 38.922160833333336, "rental_uris": {"ios": "https://dc.lft.to/lastmile_qr_scan", "android": "https://dc.lft.to/lastmile_qr_scan"}, "is_reserved": 0, "fusion_lon": 0.0, "fusion_lat": 0.0, "lon": -77.02665516666667, "name": "cb36797ea0edaa57fbf2337097f0b690"}, {"bike_id": "ed0610dc4d5bba2007a05377c96d545c", "type": "electric_scooter", "is_disabled": 0, "lat": 38.91896916666666, "rental_uris": {"ios": "https://dc.lft.to/lastmile_qr_scan", "android": "https://dc.lft.to/lastmile_qr_scan"}, "is_reserved": 0, "fusion_lon": 0.0, "fusion_lat": 0.0, "lon": -77.00319433333334, "name": "ed0610dc4d5bba2007a05377c96d545c"}, {"bike_id": "48ee8374ee688036d6f9f88a73c3667d", "type": "electric_scooter", "is_disabled": 0, "lat": 38.92167933333333, "rental_uris": {"ios": "https://dc.lft.to/lastmile_qr_scan", "android": "https://dc.lft.to/lastmile_qr_scan"}, "is_reserved": 0, "fusion_lon": 0.0, "fusion_lat": 0.0, "lon": -77.01910783333334, "name": "48ee8374ee688036d6f9f88a73c3667d"}, {"bike_id": "a97bc28d4e1b45bea7faed758affacb2", "type": "electric_scooter", "is_disabled": 0, "lat": 38.89043983333333, "rental_uris": {"ios": "https://dc.lft.to/lastmile_qr_scan", "android": "https://dc.lft.to/lastmile_qr_scan"}, "is_reserved": 0, "fusion_lon": 0.0, "fusion_lat": 0.0, "lon": -77.01508583333333, "name": "a97bc28d4e1b45bea7faed758affacb2"}, {"bike_id": "f30c4a82f0818904f261e051ad580a30", "type": "electric_scooter", "is_disabled": 0, "lat": 38.905228, "rental_uris": {"ios": "https://dc.lft.to/lastmile_qr_scan", "android": "https://dc.lft.to/lastmile_qr_scan"}, "is_reserved": 0, "fusion_lon": 0.0, "fusion_lat": 0.0, "lon": -77.025332, "name": "f30c4a82f0818904f261e051ad580a30"}, {"bike_id": "cf6536f500d04bc536daeeaf9da957ef", "type": "electric_scooter", "is_disabled": 0, "lat": 38.95731766666667, "rental_uris": {"ios": "https://dc.lft.to/lastmile_qr_scan", "android": "https://dc.lft.to/lastmile_qr_scan"}, "is_reserved": 0, "fusion_lon": 0.0, "fusion_lat": 0.0, "lon": -77.0240305, "name": "cf6536f500d04bc536daeeaf9da957ef"}, {"bike_id": "ec0edcc0e02b7b5f9d237430e57a2fbf", "type": "electric_scooter", "is_disabled": 0, "lat": 38.8643995, "rental_uris": {"ios": "https://dc.lft.to/lastmile_qr_scan", "android": "https://dc.lft.to/lastmile_qr_scan"}, "is_reserved": 0, "fusion_lon": 0.0, "fusion_lat": 0.0, "lon": -77.01265983333333, "name": "ec0edcc0e02b7b5f9d237430e57a2fbf"}, {"bike_id": "77a2b1022f75de2664ad6a65837d8418", "type": "electric_scooter", "is_disabled": 0, "lat": 38.90410966666666, "rental_uris": {"ios": "https://dc.lft.to/lastmile_qr_scan", "android": "https://dc.lft.to/lastmile_qr_scan"}, "is_reserved": 0, "fusion_lon": 0.0, "fusion_lat": 0.0, "lon": -76.97331316666667, "name": "77a2b1022f75de2664ad6a65837d8418"}, {"bike_id": "dce2dca7b72dff0449d1c64f3fae2fbb", "type": "electric_scooter", "is_disabled": 0, "lat": 38.92368466666667, "rental_uris": {"ios": "https://dc.lft.to/lastmile_qr_scan", "android": "https://dc.lft.to/lastmile_qr_scan"}, "is_reserved": 0, "fusion_lon": 0.0, "fusion_lat": 0.0, "lon": -77.0253955, "name": "dce2dca7b72dff0449d1c64f3fae2fbb"}, {"bike_id": "a639edf716add14056e56339e00d8d49", "type": "electric_scooter", "is_disabled": 0, "lat": 38.9227715, "rental_uris": {"ios": "https://dc.lft.to/lastmile_qr_scan", "android": "https://dc.lft.to/lastmile_qr_scan"}, "is_reserved": 0, "fusion_lon": 0.0, "fusion_lat": 0.0, "lon": -76.99443783333334, "name": "a639edf716add14056e56339e00d8d49"}, {"bike_id": "d5643b6a098cefe0f30f176ae3b26598", "type": "electric_scooter", "is_disabled": 0, "lat": 38.951474833333336, "rental_uris": {"ios": "https://dc.lft.to/lastmile_qr_scan", "android": "https://dc.lft.to/lastmile_qr_scan"}, "is_reserved": 0, "fusion_lon": 0.0, "fusion_lat": 0.0, "lon": -77.018674, "name": "d5643b6a098cefe0f30f176ae3b26598"}, {"bike_id": "97e2cd6b63033b760b1c6b3617590c96", "type": "electric_scooter", "is_disabled": 0, "lat": 38.91707016666667, "rental_uris": {"ios": "https://dc.lft.to/lastmile_qr_scan", "android": "https://dc.lft.to/lastmile_qr_scan"}, "is_reserved": 0, "fusion_lon": 0.0, "fusion_lat": 0.0, "lon": -77.09583116666667, "name": "97e2cd6b63033b760b1c6b3617590c96"}, {"bike_id": "a26c1f460f9d8f78197f55aab52804ab", "type": "electric_scooter", "is_disabled": 0, "lat": 38.92069983333333, "rental_uris": {"ios": "https://dc.lft.to/lastmile_qr_scan", "android": "https://dc.lft.to/lastmile_qr_scan"}, "is_reserved": 0, "fusion_lon": 0.0, "fusion_lat": 0.0, "lon": -77.02508533333334, "name": "a26c1f460f9d8f78197f55aab52804ab"}, {"bike_id": "78291dbc3f744addfa0aa9d091b33679", "type": "electric_scooter", "is_disabled": 0, "lat": 38.914025333333335, "rental_uris": {"ios": "https://dc.lft.to/lastmile_qr_scan", "android": "https://dc.lft.to/lastmile_qr_scan"}, "is_reserved": 0, "fusion_lon": 0.0, "fusion_lat": 0.0, "lon": -77.03225783333333, "name": "78291dbc3f744addfa0aa9d091b33679"}, {"bike_id": "060f5a678eaf836128557be1e2dd440f", "type": "electric_bike", "is_disabled": 0, "lat": 38.962021666666665, "rental_uris": {"ios": "https://dc.lft.to/lastmile_qr_scan", "android": "https://dc.lft.to/lastmile_qr_scan"}, "is_reserved": 0, "fusion_lon": 0.0, "fusion_lat": 0.0, "lon": -77.02782633333334, "name": "060f5a678eaf836128557be1e2dd440f"}, {"bike_id": "2f7e128f113bb08034f83938ffb39720", "type": "electric_scooter", "is_disabled": 0, "lat": 38.9332655, "rental_uris": {"ios": "https://dc.lft.to/lastmile_qr_scan", "android": "https://dc.lft.to/lastmile_qr_scan"}, "is_reserved": 0, "fusion_lon": 0.0, "fusion_lat": 0.0, "lon": -77.03257683333334, "name": "2f7e128f113bb08034f83938ffb39720"}, {"bike_id": "ecaa610544fb21ba36fe5e98a313412f", "type": "electric_scooter", "is_disabled": 0, "lat": 38.919757, "rental_uris": {"ios": "https://dc.lft.to/lastmile_qr_scan", "android": "https://dc.lft.to/lastmile_qr_scan"}, "is_reserved": 0, "fusion_lon": 0.0, "fusion_lat": 0.0, "lon": -77.03185066666667, "name": "ecaa610544fb21ba36fe5e98a313412f"}, {"bike_id": "c25f55d33b1f7bb0141f535e41a49474", "type": "electric_scooter", "is_disabled": 0, "lat": 38.92320866666667, "rental_uris": {"ios": "https://dc.lft.to/lastmile_qr_scan", "android": "https://dc.lft.to/lastmile_qr_scan"}, "is_reserved": 0, "fusion_lon": 0.0, "fusion_lat": 0.0, "lon": -77.02140483333334, "name": "c25f55d33b1f7bb0141f535e41a49474"}, {"bike_id": "137a90334dcac5236c315b23ead08c5a", "type": "electric_scooter", "is_disabled": 0, "lat": 38.91809133333334, "rental_uris": {"ios": "https://dc.lft.to/lastmile_qr_scan", "android": "https://dc.lft.to/lastmile_qr_scan"}, "is_reserved": 0, "fusion_lon": 0.0, "fusion_lat": 0.0, "lon": -77.031443, "name": "137a90334dcac5236c315b23ead08c5a"}, {"bike_id": "9dd1ad3e19d7f9791337af039c04202c", "type": "electric_scooter", "is_disabled": 0, "lat": 38.90058833333333, "rental_uris": {"ios": "https://dc.lft.to/lastmile_qr_scan", "android": "https://dc.lft.to/lastmile_qr_scan"}, "is_reserved": 0, "fusion_lon": 0.0, "fusion_lat": 0.0, "lon": -77.05565066666666, "name": "9dd1ad3e19d7f9791337af039c04202c"}, {"bike_id": "321cd1e0e542787fcab7912f2c7d437f", "type": "electric_scooter", "is_disabled": 0, "lat": 38.9150675, "rental_uris": {"ios": "https://dc.lft.to/lastmile_qr_scan", "android": "https://dc.lft.to/lastmile_qr_scan"}, "is_reserved": 0, "fusion_lon": 0.0, "fusion_lat": 0.0, "lon": -77.02288566666667, "name": "321cd1e0e542787fcab7912f2c7d437f"}, {"bike_id": "754608534564f98de3ed6a501ec299cc", "type": "electric_bike", "is_disabled": 0, "lat": 38.8587975, "rental_uris": {"ios": "https://dc.lft.to/lastmile_qr_scan", "android": "https://dc.lft.to/lastmile_qr_scan"}, "is_reserved": 0, "fusion_lon": 0.0, "fusion_lat": 0.0, "lon": -77.09558083333333, "name": "754608534564f98de3ed6a501ec299cc"}, {"bike_id": "3a1e7e9df452d87ec23fbc916b5cf2bd", "type": "electric_scooter", "is_disabled": 0, "lat": 38.9119525, "rental_uris": {"ios": "https://dc.lft.to/lastmile_qr_scan", "android": "https://dc.lft.to/lastmile_qr_scan"}, "is_reserved": 0, "fusion_lon": 0.0, "fusion_lat": 0.0, "lon": -77.01899783333333, "name": "3a1e7e9df452d87ec23fbc916b5cf2bd"}, {"bike_id": "8fa2600909f267038a86ee3dbb19f2ac", "type": "electric_scooter", "is_disabled": 0, "lat": 38.935329333333335, "rental_uris": {"ios": "https://dc.lft.to/lastmile_qr_scan", "android": "https://dc.lft.to/lastmile_qr_scan"}, "is_reserved": 0, "fusion_lon": 0.0, "fusion_lat": 0.0, "lon": -77.05429116666667, "name": "8fa2600909f267038a86ee3dbb19f2ac"}, {"bike_id": "11d6efe051853d829c0b292bade85648", "type": "electric_bike", "is_disabled": 0, "lat": 38.9953255, "rental_uris": {"ios": "https://dc.lft.to/lastmile_qr_scan", "android": "https://dc.lft.to/lastmile_qr_scan"}, "is_reserved": 0, "fusion_lon": 0.0, "fusion_lat": 0.0, "lon": -77.06948783333333, "name": "11d6efe051853d829c0b292bade85648"}, {"bike_id": "b7dbfc4817540acb56e3c7f7f82244ff", "type": "electric_bike", "is_disabled": 0, "lat": 38.89205966666667, "rental_uris": {"ios": "https://dc.lft.to/lastmile_qr_scan", "android": "https://dc.lft.to/lastmile_qr_scan"}, "is_reserved": 0, "fusion_lon": 0.0, "fusion_lat": 0.0, "lon": -76.976827, "name": "b7dbfc4817540acb56e3c7f7f82244ff"}, {"bike_id": "ced69eff94894793856d37f7280a241a", "type": "electric_scooter", "is_disabled": 0, "lat": 38.95109716666666, "rental_uris": {"ios": "https://dc.lft.to/lastmile_qr_scan", "android": "https://dc.lft.to/lastmile_qr_scan"}, "is_reserved": 0, "fusion_lon": 0.0, "fusion_lat": 0.0, "lon": -77.01433583333333, "name": "ced69eff94894793856d37f7280a241a"}, {"bike_id": "75c378c2e7592d4fb03f2c851c95b0d5", "type": "electric_scooter", "is_disabled": 0, "lat": 38.866806833333335, "rental_uris": {"ios": "https://dc.lft.to/lastmile_qr_scan", "android": "https://dc.lft.to/lastmile_qr_scan"}, "is_reserved": 0, "fusion_lon": 0.0, "fusion_lat": 0.0, "lon": -76.98580366666667, "name": "75c378c2e7592d4fb03f2c851c95b0d5"}, {"bike_id": "57c33a9c7ee7e827dfb48e231c249616", "type": "electric_scooter", "is_disabled": 0, "lat": 38.92614616666667, "rental_uris": {"ios": "https://dc.lft.to/lastmile_qr_scan", "android": "https://dc.lft.to/lastmile_qr_scan"}, "is_reserved": 0, "fusion_lon": 0.0, "fusion_lat": 0.0, "lon": -77.043297, "name": "57c33a9c7ee7e827dfb48e231c249616"}, {"bike_id": "f6629f66844f8da6fe44fb4b04710ac7", "type": "electric_scooter", "is_disabled": 0, "lat": 38.9253575, "rental_uris": {"ios": "https://dc.lft.to/lastmile_qr_scan", "android": "https://dc.lft.to/lastmile_qr_scan"}, "is_reserved": 0, "fusion_lon": 0.0, "fusion_lat": 0.0, "lon": -77.03361116666666, "name": "f6629f66844f8da6fe44fb4b04710ac7"}, {"bike_id": "5eceb2ddcaece6cb4c50a686a5f48e63", "type": "electric_scooter", "is_disabled": 0, "lat": 38.9149455, "rental_uris": {"ios": "https://dc.lft.to/lastmile_qr_scan", "android": "https://dc.lft.to/lastmile_qr_scan"}, "is_reserved": 0, "fusion_lon": 0.0, "fusion_lat": 0.0, "lon": -76.98368866666667, "name": "5eceb2ddcaece6cb4c50a686a5f48e63"}, {"bike_id": "ba891ce003a2cd623ad6cd828319ce41", "type": "electric_scooter", "is_disabled": 0, "lat": 38.91254266666667, "rental_uris": {"ios": "https://dc.lft.to/lastmile_qr_scan", "android": "https://dc.lft.to/lastmile_qr_scan"}, "is_reserved": 0, "fusion_lon": 0.0, "fusion_lat": 0.0, "lon": -77.0386155, "name": "ba891ce003a2cd623ad6cd828319ce41"}, {"bike_id": "7a6a9ae90c4fe36ef2d2f583a0749f5a", "type": "electric_scooter", "is_disabled": 0, "lat": 38.895000333333336, "rental_uris": {"ios": "https://dc.lft.to/lastmile_qr_scan", "android": "https://dc.lft.to/lastmile_qr_scan"}, "is_reserved": 0, "fusion_lon": 0.0, "fusion_lat": 0.0, "lon": -76.93478283333333, "name": "7a6a9ae90c4fe36ef2d2f583a0749f5a"}, {"bike_id": "ad2cb05c5ce714ba7fe5878a6e70e12f", "type": "electric_bike", "is_disabled": 0, "lat": 38.94259983333333, "rental_uris": {"ios": "https://dc.lft.to/lastmile_qr_scan", "android": "https://dc.lft.to/lastmile_qr_scan"}, "is_reserved": 0, "fusion_lon": 0.0, "fusion_lat": 0.0, "lon": -76.99070883333333, "name": "ad2cb05c5ce714ba7fe5878a6e70e12f"}, {"bike_id": "714b933f0a5ad877e3355a218f3efcb2", "type": "electric_scooter", "is_disabled": 0, "lat": 38.93292116666667, "rental_uris": {"ios": "https://dc.lft.to/lastmile_qr_scan", "android": "https://dc.lft.to/lastmile_qr_scan"}, "is_reserved": 0, "fusion_lon": 0.0, "fusion_lat": 0.0, "lon": -77.03548766666667, "name": "714b933f0a5ad877e3355a218f3efcb2"}, {"bike_id": "880f1b0c695aabf273bfd822fb6be879", "type": "electric_scooter", "is_disabled": 0, "lat": 38.8996925, "rental_uris": {"ios": "https://dc.lft.to/lastmile_qr_scan", "android": "https://dc.lft.to/lastmile_qr_scan"}, "is_reserved": 0, "fusion_lon": 0.0, "fusion_lat": 0.0, "lon": -77.0478135, "name": "880f1b0c695aabf273bfd822fb6be879"}, {"bike_id": "ab99b5e7cda4e8d018926c9618ea461d", "type": "electric_scooter", "is_disabled": 0, "lat": 38.923331833333336, "rental_uris": {"ios": "https://dc.lft.to/lastmile_qr_scan", "android": "https://dc.lft.to/lastmile_qr_scan"}, "is_reserved": 0, "fusion_lon": 0.0, "fusion_lat": 0.0, "lon": -77.03592, "name": "ab99b5e7cda4e8d018926c9618ea461d"}, {"bike_id": "c76997c32490b4877f3e4b1ed8d5588a", "type": "electric_scooter", "is_disabled": 0, "lat": 38.9104795, "rental_uris": {"ios": "https://dc.lft.to/lastmile_qr_scan", "android": "https://dc.lft.to/lastmile_qr_scan"}, "is_reserved": 0, "fusion_lon": 0.0, "fusion_lat": 0.0, "lon": -77.00919033333334, "name": "c76997c32490b4877f3e4b1ed8d5588a"}, {"bike_id": "e7692c2ec14152750921d6201af82374", "type": "electric_scooter", "is_disabled": 0, "lat": 38.9110745, "rental_uris": {"ios": "https://dc.lft.to/lastmile_qr_scan", "android": "https://dc.lft.to/lastmile_qr_scan"}, "is_reserved": 0, "fusion_lon": 0.0, "fusion_lat": 0.0, "lon": -77.03840133333334, "name": "e7692c2ec14152750921d6201af82374"}, {"bike_id": "9d61e0db43423627900797c99a199a6e", "type": "electric_bike", "is_disabled": 0, "lat": 39.043002333333334, "rental_uris": {"ios": "https://dc.lft.to/lastmile_qr_scan", "android": "https://dc.lft.to/lastmile_qr_scan"}, "is_reserved": 0, "fusion_lon": 0.0, "fusion_lat": 0.0, "lon": -77.05159416666666, "name": "9d61e0db43423627900797c99a199a6e"}, {"bike_id": "29f0357bfea146f94ed1bf71a0b2a43f", "type": "electric_scooter", "is_disabled": 0, "lat": 38.86197683333333, "rental_uris": {"ios": "https://dc.lft.to/lastmile_qr_scan", "android": "https://dc.lft.to/lastmile_qr_scan"}, "is_reserved": 0, "fusion_lon": 0.0, "fusion_lat": 0.0, "lon": -77.0882235, "name": "29f0357bfea146f94ed1bf71a0b2a43f"}, {"bike_id": "5f83b4ac3868ece927e358c28c53e864", "type": "electric_scooter", "is_disabled": 0, "lat": 38.9386285, "rental_uris": {"ios": "https://dc.lft.to/lastmile_qr_scan", "android": "https://dc.lft.to/lastmile_qr_scan"}, "is_reserved": 0, "fusion_lon": 0.0, "fusion_lat": 0.0, "lon": -77.03082666666667, "name": "5f83b4ac3868ece927e358c28c53e864"}, {"bike_id": "75ed0f9bd8f9b795bd9f2e3ba76d959d", "type": "electric_scooter", "is_disabled": 0, "lat": 38.844375666666664, "rental_uris": {"ios": "https://dc.lft.to/lastmile_qr_scan", "android": "https://dc.lft.to/lastmile_qr_scan"}, "is_reserved": 0, "fusion_lon": 0.0, "fusion_lat": 0.0, "lon": -76.997753, "name": "75ed0f9bd8f9b795bd9f2e3ba76d959d"}, {"bike_id": "7fcc95fb085522506b886f714fb75ce7", "type": "electric_scooter", "is_disabled": 0, "lat": 38.92186483333333, "rental_uris": {"ios": "https://dc.lft.to/lastmile_qr_scan", "android": "https://dc.lft.to/lastmile_qr_scan"}, "is_reserved": 0, "fusion_lon": 0.0, "fusion_lat": 0.0, "lon": -76.99363416666667, "name": "7fcc95fb085522506b886f714fb75ce7"}, {"bike_id": "f8a10845bc219d60f66add4241706a58", "type": "electric_bike", "is_disabled": 0, "lat": 38.82379383333333, "rental_uris": {"ios": "https://dc.lft.to/lastmile_qr_scan", "android": "https://dc.lft.to/lastmile_qr_scan"}, "is_reserved": 0, "fusion_lon": 0.0, "fusion_lat": 0.0, "lon": -77.002227, "name": "f8a10845bc219d60f66add4241706a58"}, {"bike_id": "4cd2f9c2e9cf9b8da84b339887e7e88e", "type": "electric_scooter", "is_disabled": 0, "lat": 38.90176183333333, "rental_uris": {"ios": "https://dc.lft.to/lastmile_qr_scan", "android": "https://dc.lft.to/lastmile_qr_scan"}, "is_reserved": 0, "fusion_lon": 0.0, "fusion_lat": 0.0, "lon": -77.03189466666667, "name": "4cd2f9c2e9cf9b8da84b339887e7e88e"}, {"bike_id": "e521010011fb1e2ac22689fcca620044", "type": "electric_scooter", "is_disabled": 0, "lat": 38.900948666666665, "rental_uris": {"ios": "https://dc.lft.to/lastmile_qr_scan", "android": "https://dc.lft.to/lastmile_qr_scan"}, "is_reserved": 0, "fusion_lon": 0.0, "fusion_lat": 0.0, "lon": -77.02415066666667, "name": "e521010011fb1e2ac22689fcca620044"}, {"bike_id": "e72ef8023e2f18cab65c7e4824bb12e8", "type": "electric_bike", "is_disabled": 0, "lat": 38.90508466666667, "rental_uris": {"ios": "https://dc.lft.to/lastmile_qr_scan", "android": "https://dc.lft.to/lastmile_qr_scan"}, "is_reserved": 0, "fusion_lon": 0.0, "fusion_lat": 0.0, "lon": -76.98723966666667, "name": "e72ef8023e2f18cab65c7e4824bb12e8"}, {"bike_id": "ab7eb35991d0f425e2f7e26fde11dce6", "type": "electric_scooter", "is_disabled": 0, "lat": 38.918796666666665, "rental_uris": {"ios": "https://dc.lft.to/lastmile_qr_scan", "android": "https://dc.lft.to/lastmile_qr_scan"}, "is_reserved": 0, "fusion_lon": 0.0, "fusion_lat": 0.0, "lon": -77.03506466666667, "name": "ab7eb35991d0f425e2f7e26fde11dce6"}, {"bike_id": "c07ea20cfd52e18eac8628d6e08e5278", "type": "electric_scooter", "is_disabled": 0, "lat": 38.9104655, "rental_uris": {"ios": "https://dc.lft.to/lastmile_qr_scan", "android": "https://dc.lft.to/lastmile_qr_scan"}, "is_reserved": 0, "fusion_lon": 0.0, "fusion_lat": 0.0, "lon": -77.073564, "name": "c07ea20cfd52e18eac8628d6e08e5278"}, {"bike_id": "eb1bf89d40be4fd3795542593bd0e057", "type": "electric_scooter", "is_disabled": 0, "lat": 38.89356766666667, "rental_uris": {"ios": "https://dc.lft.to/lastmile_qr_scan", "android": "https://dc.lft.to/lastmile_qr_scan"}, "is_reserved": 0, "fusion_lon": 0.0, "fusion_lat": 0.0, "lon": -76.94934033333334, "name": "eb1bf89d40be4fd3795542593bd0e057"}, {"bike_id": "4aebd0370f0338a3703bcb6ce3e5ad3b", "type": "electric_scooter", "is_disabled": 0, "lat": 38.91538083333333, "rental_uris": {"ios": "https://dc.lft.to/lastmile_qr_scan", "android": "https://dc.lft.to/lastmile_qr_scan"}, "is_reserved": 0, "fusion_lon": 0.0, "fusion_lat": 0.0, "lon": -76.9700805, "name": "4aebd0370f0338a3703bcb6ce3e5ad3b"}, {"bike_id": "d14735a2a8859468279fe1abca59dd18", "type": "electric_scooter", "is_disabled": 0, "lat": 38.900147, "rental_uris": {"ios": "https://dc.lft.to/lastmile_qr_scan", "android": "https://dc.lft.to/lastmile_qr_scan"}, "is_reserved": 0, "fusion_lon": 0.0, "fusion_lat": 0.0, "lon": -76.99604916666667, "name": "d14735a2a8859468279fe1abca59dd18"}, {"bike_id": "988990485536c91cc4faea518db10a5b", "type": "electric_scooter", "is_disabled": 0, "lat": 38.9279645, "rental_uris": {"ios": "https://dc.lft.to/lastmile_qr_scan", "android": "https://dc.lft.to/lastmile_qr_scan"}, "is_reserved": 0, "fusion_lon": 0.0, "fusion_lat": 0.0, "lon": -77.0319825, "name": "988990485536c91cc4faea518db10a5b"}, {"bike_id": "33a052c3831c69a2d288b44454563454", "type": "electric_scooter", "is_disabled": 0, "lat": 38.90264483333333, "rental_uris": {"ios": "https://dc.lft.to/lastmile_qr_scan", "android": "https://dc.lft.to/lastmile_qr_scan"}, "is_reserved": 0, "fusion_lon": 0.0, "fusion_lat": 0.0, "lon": -77.01874283333333, "name": "33a052c3831c69a2d288b44454563454"}, {"bike_id": "4626edf0b2753cda03a955813a4102b4", "type": "electric_scooter", "is_disabled": 0, "lat": 38.90729183333333, "rental_uris": {"ios": "https://dc.lft.to/lastmile_qr_scan", "android": "https://dc.lft.to/lastmile_qr_scan"}, "is_reserved": 0, "fusion_lon": 0.0, "fusion_lat": 0.0, "lon": -77.03450583333333, "name": "4626edf0b2753cda03a955813a4102b4"}, {"bike_id": "61a711d7fbdd8ba517fca7406345c913", "type": "electric_bike", "is_disabled": 0, "lat": 38.882450166666665, "rental_uris": {"ios": "https://dc.lft.to/lastmile_qr_scan", "android": "https://dc.lft.to/lastmile_qr_scan"}, "is_reserved": 0, "fusion_lon": 0.0, "fusion_lat": 0.0, "lon": -76.96250666666667, "name": "61a711d7fbdd8ba517fca7406345c913"}, {"bike_id": "3f8c68f03d84ec98fd0a4b87fd9babed", "type": "electric_scooter", "is_disabled": 0, "lat": 38.89490033333333, "rental_uris": {"ios": "https://dc.lft.to/lastmile_qr_scan", "android": "https://dc.lft.to/lastmile_qr_scan"}, "is_reserved": 0, "fusion_lon": 0.0, "fusion_lat": 0.0, "lon": -77.022022, "name": "3f8c68f03d84ec98fd0a4b87fd9babed"}, {"bike_id": "fb9e7f4a16489254f2650da1c48ea4e6", "type": "electric_scooter", "is_disabled": 0, "lat": 38.8794605, "rental_uris": {"ios": "https://dc.lft.to/lastmile_qr_scan", "android": "https://dc.lft.to/lastmile_qr_scan"}, "is_reserved": 0, "fusion_lon": 0.0, "fusion_lat": 0.0, "lon": -77.02357316666667, "name": "fb9e7f4a16489254f2650da1c48ea4e6"}, {"bike_id": "cee10560fc04295a338935ee228efd6b", "type": "electric_scooter", "is_disabled": 0, "lat": 38.931015, "rental_uris": {"ios": "https://dc.lft.to/lastmile_qr_scan", "android": "https://dc.lft.to/lastmile_qr_scan"}, "is_reserved": 0, "fusion_lon": 0.0, "fusion_lat": 0.0, "lon": -77.02660416666667, "name": "cee10560fc04295a338935ee228efd6b"}, {"bike_id": "f432780b007331f52adc41a834edd581", "type": "electric_scooter", "is_disabled": 0, "lat": 38.91799133333333, "rental_uris": {"ios": "https://dc.lft.to/lastmile_qr_scan", "android": "https://dc.lft.to/lastmile_qr_scan"}, "is_reserved": 0, "fusion_lon": 0.0, "fusion_lat": 0.0, "lon": -77.0345165, "name": "f432780b007331f52adc41a834edd581"}, {"bike_id": "6697971842670b72fe0ae83fe887c857", "type": "electric_scooter", "is_disabled": 0, "lat": 38.90512066666667, "rental_uris": {"ios": "https://dc.lft.to/lastmile_qr_scan", "android": "https://dc.lft.to/lastmile_qr_scan"}, "is_reserved": 0, "fusion_lon": 0.0, "fusion_lat": 0.0, "lon": -77.06200933333334, "name": "6697971842670b72fe0ae83fe887c857"}, {"bike_id": "a71df1482a0ba8fd521adc2c0f07f880", "type": "electric_scooter", "is_disabled": 0, "lat": 38.90131433333333, "rental_uris": {"ios": "https://dc.lft.to/lastmile_qr_scan", "android": "https://dc.lft.to/lastmile_qr_scan"}, "is_reserved": 0, "fusion_lon": 0.0, "fusion_lat": 0.0, "lon": -77.00856566666667, "name": "a71df1482a0ba8fd521adc2c0f07f880"}, {"bike_id": "c045e3a59723bedb04f68e4f6087f413", "type": "electric_scooter", "is_disabled": 0, "lat": 38.95098383333333, "rental_uris": {"ios": "https://dc.lft.to/lastmile_qr_scan", "android": "https://dc.lft.to/lastmile_qr_scan"}, "is_reserved": 0, "fusion_lon": 0.0, "fusion_lat": 0.0, "lon": -77.02961433333333, "name": "c045e3a59723bedb04f68e4f6087f413"}, {"bike_id": "b549cda3e0ce2f51212f4e101cd55d7d", "type": "electric_scooter", "is_disabled": 0, "lat": 38.8961525, "rental_uris": {"ios": "https://dc.lft.to/lastmile_qr_scan", "android": "https://dc.lft.to/lastmile_qr_scan"}, "is_reserved": 0, "fusion_lon": 0.0, "fusion_lat": 0.0, "lon": -76.98569383333333, "name": "b549cda3e0ce2f51212f4e101cd55d7d"}, {"bike_id": "a9db34eef5de7dcb054666d500151598", "type": "electric_scooter", "is_disabled": 0, "lat": 38.905288, "rental_uris": {"ios": "https://dc.lft.to/lastmile_qr_scan", "android": "https://dc.lft.to/lastmile_qr_scan"}, "is_reserved": 0, "fusion_lon": 0.0, "fusion_lat": 0.0, "lon": -77.02956483333334, "name": "a9db34eef5de7dcb054666d500151598"}, {"bike_id": "eea9e5839e591a69b8180cc092addb39", "type": "electric_scooter", "is_disabled": 0, "lat": 38.946185, "rental_uris": {"ios": "https://dc.lft.to/lastmile_qr_scan", "android": "https://dc.lft.to/lastmile_qr_scan"}, "is_reserved": 0, "fusion_lon": 0.0, "fusion_lat": 0.0, "lon": -77.02650133333333, "name": "eea9e5839e591a69b8180cc092addb39"}, {"bike_id": "7c372ffe3af02ec231bebf0d5d8a61c4", "type": "electric_scooter", "is_disabled": 0, "lat": 38.9119655, "rental_uris": {"ios": "https://dc.lft.to/lastmile_qr_scan", "android": "https://dc.lft.to/lastmile_qr_scan"}, "is_reserved": 0, "fusion_lon": 0.0, "fusion_lat": 0.0, "lon": -77.04563, "name": "7c372ffe3af02ec231bebf0d5d8a61c4"}, {"bike_id": "068b4e8bc0ce518975394b8aca3accca", "type": "electric_scooter", "is_disabled": 0, "lat": 38.90534666666667, "rental_uris": {"ios": "https://dc.lft.to/lastmile_qr_scan", "android": "https://dc.lft.to/lastmile_qr_scan"}, "is_reserved": 0, "fusion_lon": 0.0, "fusion_lat": 0.0, "lon": -77.041669, "name": "068b4e8bc0ce518975394b8aca3accca"}, {"bike_id": "781cca1e238940272fa5638d4c09364a", "type": "electric_scooter", "is_disabled": 0, "lat": 38.923516166666666, "rental_uris": {"ios": "https://dc.lft.to/lastmile_qr_scan", "android": "https://dc.lft.to/lastmile_qr_scan"}, "is_reserved": 0, "fusion_lon": 0.0, "fusion_lat": 0.0, "lon": -77.04152866666666, "name": "781cca1e238940272fa5638d4c09364a"}, {"bike_id": "e4181b7e111c4d218e21e315d853419c", "type": "electric_scooter", "is_disabled": 0, "lat": 38.9094545, "rental_uris": {"ios": "https://dc.lft.to/lastmile_qr_scan", "android": "https://dc.lft.to/lastmile_qr_scan"}, "is_reserved": 0, "fusion_lon": 0.0, "fusion_lat": 0.0, "lon": -77.03445816666667, "name": "e4181b7e111c4d218e21e315d853419c"}, {"bike_id": "23ef3efabcc6735493bb839c64ca1f00", "type": "electric_scooter", "is_disabled": 0, "lat": 38.904104, "rental_uris": {"ios": "https://dc.lft.to/lastmile_qr_scan", "android": "https://dc.lft.to/lastmile_qr_scan"}, "is_reserved": 0, "fusion_lon": 0.0, "fusion_lat": 0.0, "lon": -77.005936, "name": "23ef3efabcc6735493bb839c64ca1f00"}, {"bike_id": "1db873365b5d9a9ad548dfe08ecfd245", "type": "electric_scooter", "is_disabled": 0, "lat": 38.9200095, "rental_uris": {"ios": "https://dc.lft.to/lastmile_qr_scan", "android": "https://dc.lft.to/lastmile_qr_scan"}, "is_reserved": 0, "fusion_lon": 0.0, "fusion_lat": 0.0, "lon": -77.03165983333334, "name": "1db873365b5d9a9ad548dfe08ecfd245"}, {"bike_id": "d74a01006c87805bc53baaf961dea672", "type": "electric_bike", "is_disabled": 0, "lat": 38.86192833333333, "rental_uris": {"ios": "https://dc.lft.to/lastmile_qr_scan", "android": "https://dc.lft.to/lastmile_qr_scan"}, "is_reserved": 0, "fusion_lon": 0.0, "fusion_lat": 0.0, "lon": -76.94810283333334, "name": "d74a01006c87805bc53baaf961dea672"}, {"bike_id": "1ebe9cd79b4d05d1133961d65b5ab2a9", "type": "electric_scooter", "is_disabled": 0, "lat": 38.90423283333333, "rental_uris": {"ios": "https://dc.lft.to/lastmile_qr_scan", "android": "https://dc.lft.to/lastmile_qr_scan"}, "is_reserved": 0, "fusion_lon": 0.0, "fusion_lat": 0.0, "lon": -77.028738, "name": "1ebe9cd79b4d05d1133961d65b5ab2a9"}, {"bike_id": "1a16079f713003b1d23d43f1e98853ea", "type": "electric_scooter", "is_disabled": 0, "lat": 38.913590666666664, "rental_uris": {"ios": "https://dc.lft.to/lastmile_qr_scan", "android": "https://dc.lft.to/lastmile_qr_scan"}, "is_reserved": 0, "fusion_lon": 0.0, "fusion_lat": 0.0, "lon": -77.04562516666667, "name": "1a16079f713003b1d23d43f1e98853ea"}, {"bike_id": "5ab3d68b0802acf8617fc841e8594ecb", "type": "electric_scooter", "is_disabled": 0, "lat": 38.909749833333336, "rental_uris": {"ios": "https://dc.lft.to/lastmile_qr_scan", "android": "https://dc.lft.to/lastmile_qr_scan"}, "is_reserved": 0, "fusion_lon": 0.0, "fusion_lat": 0.0, "lon": -77.031792, "name": "5ab3d68b0802acf8617fc841e8594ecb"}, {"bike_id": "1e69f4368369dc5d7891fb607b81ae92", "type": "electric_scooter", "is_disabled": 0, "lat": 38.911074166666666, "rental_uris": {"ios": "https://dc.lft.to/lastmile_qr_scan", "android": "https://dc.lft.to/lastmile_qr_scan"}, "is_reserved": 0, "fusion_lon": 0.0, "fusion_lat": 0.0, "lon": -77.03843633333334, "name": "1e69f4368369dc5d7891fb607b81ae92"}, {"bike_id": "950599bd2b9ecd52b8ec440fbc3d36c3", "type": "electric_scooter", "is_disabled": 0, "lat": 38.89230083333333, "rental_uris": {"ios": "https://dc.lft.to/lastmile_qr_scan", "android": "https://dc.lft.to/lastmile_qr_scan"}, "is_reserved": 0, "fusion_lon": 0.0, "fusion_lat": 0.0, "lon": -77.0238435, "name": "950599bd2b9ecd52b8ec440fbc3d36c3"}, {"bike_id": "901f4261f3eb4de8119c32c64460593a", "type": "electric_scooter", "is_disabled": 0, "lat": 38.926020333333334, "rental_uris": {"ios": "https://dc.lft.to/lastmile_qr_scan", "android": "https://dc.lft.to/lastmile_qr_scan"}, "is_reserved": 0, "fusion_lon": 0.0, "fusion_lat": 0.0, "lon": -77.021546, "name": "901f4261f3eb4de8119c32c64460593a"}, {"bike_id": "80faae8ddbb21272742d3e667b683e43", "type": "electric_scooter", "is_disabled": 0, "lat": 38.879337, "rental_uris": {"ios": "https://dc.lft.to/lastmile_qr_scan", "android": "https://dc.lft.to/lastmile_qr_scan"}, "is_reserved": 0, "fusion_lon": 0.0, "fusion_lat": 0.0, "lon": -77.01536016666667, "name": "80faae8ddbb21272742d3e667b683e43"}, {"bike_id": "d76e34b5d89c5d8dc93efa4ff57bf332", "type": "electric_scooter", "is_disabled": 0, "lat": 38.90190233333333, "rental_uris": {"ios": "https://dc.lft.to/lastmile_qr_scan", "android": "https://dc.lft.to/lastmile_qr_scan"}, "is_reserved": 0, "fusion_lon": 0.0, "fusion_lat": 0.0, "lon": -76.988456, "name": "d76e34b5d89c5d8dc93efa4ff57bf332"}, {"bike_id": "aa7d2223618fcea9d63f9f45fd239eff", "type": "electric_scooter", "is_disabled": 0, "lat": 38.90001633333333, "rental_uris": {"ios": "https://dc.lft.to/lastmile_qr_scan", "android": "https://dc.lft.to/lastmile_qr_scan"}, "is_reserved": 0, "fusion_lon": 0.0, "fusion_lat": 0.0, "lon": -77.01264233333333, "name": "aa7d2223618fcea9d63f9f45fd239eff"}, {"bike_id": "0c2646d3ea66c7060231e02124cb5670", "type": "electric_scooter", "is_disabled": 0, "lat": 38.9234765, "rental_uris": {"ios": "https://dc.lft.to/lastmile_qr_scan", "android": "https://dc.lft.to/lastmile_qr_scan"}, "is_reserved": 0, "fusion_lon": 0.0, "fusion_lat": 0.0, "lon": -77.0542635, "name": "0c2646d3ea66c7060231e02124cb5670"}, {"bike_id": "5b717e430305d8805ce9e821da0d4b83", "type": "electric_scooter", "is_disabled": 0, "lat": 38.940731666666665, "rental_uris": {"ios": "https://dc.lft.to/lastmile_qr_scan", "android": "https://dc.lft.to/lastmile_qr_scan"}, "is_reserved": 0, "fusion_lon": 0.0, "fusion_lat": 0.0, "lon": -77.05254616666667, "name": "5b717e430305d8805ce9e821da0d4b83"}, {"bike_id": "00e67e38e8fd343315418fe67a53154a", "type": "electric_scooter", "is_disabled": 0, "lat": 38.915631, "rental_uris": {"ios": "https://dc.lft.to/lastmile_qr_scan", "android": "https://dc.lft.to/lastmile_qr_scan"}, "is_reserved": 0, "fusion_lon": 0.0, "fusion_lat": 0.0, "lon": -77.0411285, "name": "00e67e38e8fd343315418fe67a53154a"}, {"bike_id": "57af60c7271b16d854004daed00d0716", "type": "electric_scooter", "is_disabled": 0, "lat": 38.900827166666666, "rental_uris": {"ios": "https://dc.lft.to/lastmile_qr_scan", "android": "https://dc.lft.to/lastmile_qr_scan"}, "is_reserved": 0, "fusion_lon": 0.0, "fusion_lat": 0.0, "lon": -77.05004716666667, "name": "57af60c7271b16d854004daed00d0716"}, {"bike_id": "5df73203fd7ed086dcbc84f92c5a25e0", "type": "electric_scooter", "is_disabled": 0, "lat": 38.885587, "rental_uris": {"ios": "https://dc.lft.to/lastmile_qr_scan", "android": "https://dc.lft.to/lastmile_qr_scan"}, "is_reserved": 0, "fusion_lon": 0.0, "fusion_lat": 0.0, "lon": -77.00203766666667, "name": "5df73203fd7ed086dcbc84f92c5a25e0"}, {"bike_id": "97915be05ef346a484d760410f9d4b02", "type": "electric_scooter", "is_disabled": 0, "lat": 38.90474533333333, "rental_uris": {"ios": "https://dc.lft.to/lastmile_qr_scan", "android": "https://dc.lft.to/lastmile_qr_scan"}, "is_reserved": 0, "fusion_lon": 0.0, "fusion_lat": 0.0, "lon": -77.00729283333334, "name": "97915be05ef346a484d760410f9d4b02"}, {"bike_id": "96f7959fadfc64e2437d60f72edce5ed", "type": "electric_scooter", "is_disabled": 0, "lat": 38.90080016666667, "rental_uris": {"ios": "https://dc.lft.to/lastmile_qr_scan", "android": "https://dc.lft.to/lastmile_qr_scan"}, "is_reserved": 0, "fusion_lon": 0.0, "fusion_lat": 0.0, "lon": -77.04755816666666, "name": "96f7959fadfc64e2437d60f72edce5ed"}, {"bike_id": "17910a68fdb79b74f0e1c053aa44ef4e", "type": "electric_scooter", "is_disabled": 0, "lat": 38.94295366666667, "rental_uris": {"ios": "https://dc.lft.to/lastmile_qr_scan", "android": "https://dc.lft.to/lastmile_qr_scan"}, "is_reserved": 0, "fusion_lon": 0.0, "fusion_lat": 0.0, "lon": -77.02168783333333, "name": "17910a68fdb79b74f0e1c053aa44ef4e"}, {"bike_id": "43393f860fb3a16d64d6b62e597b32a8", "type": "electric_scooter", "is_disabled": 0, "lat": 38.92722666666667, "rental_uris": {"ios": "https://dc.lft.to/lastmile_qr_scan", "android": "https://dc.lft.to/lastmile_qr_scan"}, "is_reserved": 0, "fusion_lon": 0.0, "fusion_lat": 0.0, "lon": -77.03995866666666, "name": "43393f860fb3a16d64d6b62e597b32a8"}, {"bike_id": "304a06469f2e80b837881c111c954ca1", "type": "electric_bike", "is_disabled": 0, "lat": 38.87272883333333, "rental_uris": {"ios": "https://dc.lft.to/lastmile_qr_scan", "android": "https://dc.lft.to/lastmile_qr_scan"}, "is_reserved": 0, "fusion_lon": 0.0, "fusion_lat": 0.0, "lon": -77.2332845, "name": "304a06469f2e80b837881c111c954ca1"}, {"bike_id": "570a56d4f345336524c219f939fe7c80", "type": "electric_scooter", "is_disabled": 0, "lat": 38.913755333333334, "rental_uris": {"ios": "https://dc.lft.to/lastmile_qr_scan", "android": "https://dc.lft.to/lastmile_qr_scan"}, "is_reserved": 0, "fusion_lon": 0.0, "fusion_lat": 0.0, "lon": -77.0413655, "name": "570a56d4f345336524c219f939fe7c80"}, {"bike_id": "764430cfbea499093504039eb6cf3596", "type": "electric_scooter", "is_disabled": 0, "lat": 38.90826283333333, "rental_uris": {"ios": "https://dc.lft.to/lastmile_qr_scan", "android": "https://dc.lft.to/lastmile_qr_scan"}, "is_reserved": 0, "fusion_lon": 0.0, "fusion_lat": 0.0, "lon": -76.94158066666667, "name": "764430cfbea499093504039eb6cf3596"}, {"bike_id": "ce1a5aa1a6d74d9a5c2f20a9c415ecc9", "type": "electric_scooter", "is_disabled": 0, "lat": 38.93305633333333, "rental_uris": {"ios": "https://dc.lft.to/lastmile_qr_scan", "android": "https://dc.lft.to/lastmile_qr_scan"}, "is_reserved": 0, "fusion_lon": 0.0, "fusion_lat": 0.0, "lon": -77.02158733333333, "name": "ce1a5aa1a6d74d9a5c2f20a9c415ecc9"}, {"bike_id": "2e0338d6a62e04e6e1f6abe05e1dcf67", "type": "electric_bike", "is_disabled": 0, "lat": 38.9647055, "rental_uris": {"ios": "https://dc.lft.to/lastmile_qr_scan", "android": "https://dc.lft.to/lastmile_qr_scan"}, "is_reserved": 0, "fusion_lon": 0.0, "fusion_lat": 0.0, "lon": -77.03566733333334, "name": "2e0338d6a62e04e6e1f6abe05e1dcf67"}, {"bike_id": "9d2eee79814bcfcc3262324b50e71f4b", "type": "electric_scooter", "is_disabled": 0, "lat": 38.86470416666667, "rental_uris": {"ios": "https://dc.lft.to/lastmile_qr_scan", "android": "https://dc.lft.to/lastmile_qr_scan"}, "is_reserved": 0, "fusion_lon": 0.0, "fusion_lat": 0.0, "lon": -76.98239316666667, "name": "9d2eee79814bcfcc3262324b50e71f4b"}, {"bike_id": "99c079ede5d609c9ddb5d5a297702dbe", "type": "electric_scooter", "is_disabled": 0, "lat": 38.90514016666667, "rental_uris": {"ios": "https://dc.lft.to/lastmile_qr_scan", "android": "https://dc.lft.to/lastmile_qr_scan"}, "is_reserved": 0, "fusion_lon": 0.0, "fusion_lat": 0.0, "lon": -77.02975683333334, "name": "99c079ede5d609c9ddb5d5a297702dbe"}, {"bike_id": "6f5d070cd900c8c364c7c3aa17c92792", "type": "electric_scooter", "is_disabled": 0, "lat": 38.90866483333333, "rental_uris": {"ios": "https://dc.lft.to/lastmile_qr_scan", "android": "https://dc.lft.to/lastmile_qr_scan"}, "is_reserved": 0, "fusion_lon": 0.0, "fusion_lat": 0.0, "lon": -77.08593683333334, "name": "6f5d070cd900c8c364c7c3aa17c92792"}, {"bike_id": "4cc8984d0ca6680e875ec939c5e268f7", "type": "electric_bike", "is_disabled": 0, "lat": 38.98359583333333, "rental_uris": {"ios": "https://dc.lft.to/lastmile_qr_scan", "android": "https://dc.lft.to/lastmile_qr_scan"}, "is_reserved": 0, "fusion_lon": 0.0, "fusion_lat": 0.0, "lon": -76.97211783333333, "name": "4cc8984d0ca6680e875ec939c5e268f7"}, {"bike_id": "43eee260601feb45885db8ed4fa29a57", "type": "electric_scooter", "is_disabled": 0, "lat": 38.9274585, "rental_uris": {"ios": "https://dc.lft.to/lastmile_qr_scan", "android": "https://dc.lft.to/lastmile_qr_scan"}, "is_reserved": 0, "fusion_lon": 0.0, "fusion_lat": 0.0, "lon": -77.025355, "name": "43eee260601feb45885db8ed4fa29a57"}, {"bike_id": "5b997212dc0eacc713fa55d4fefd3345", "type": "electric_bike", "is_disabled": 0, "lat": 38.89735783333333, "rental_uris": {"ios": "https://dc.lft.to/lastmile_qr_scan", "android": "https://dc.lft.to/lastmile_qr_scan"}, "is_reserved": 0, "fusion_lon": 0.0, "fusion_lat": 0.0, "lon": -77.0222315, "name": "5b997212dc0eacc713fa55d4fefd3345"}, {"bike_id": "fede34ece98dc8d778f91cfc97c09c6a", "type": "electric_scooter", "is_disabled": 0, "lat": 38.93667333333333, "rental_uris": {"ios": "https://dc.lft.to/lastmile_qr_scan", "android": "https://dc.lft.to/lastmile_qr_scan"}, "is_reserved": 0, "fusion_lon": 0.0, "fusion_lat": 0.0, "lon": -77.0356505, "name": "fede34ece98dc8d778f91cfc97c09c6a"}, {"bike_id": "7ff1b51810f93578b4f88f66f2e4f4e8", "type": "electric_bike", "is_disabled": 0, "lat": 38.927425666666664, "rental_uris": {"ios": "https://dc.lft.to/lastmile_qr_scan", "android": "https://dc.lft.to/lastmile_qr_scan"}, "is_reserved": 0, "fusion_lon": 0.0, "fusion_lat": 0.0, "lon": -76.99361416666666, "name": "7ff1b51810f93578b4f88f66f2e4f4e8"}, {"bike_id": "f8294970aa2b30fca9d084674aa26a0d", "type": "electric_scooter", "is_disabled": 0, "lat": 38.8624825, "rental_uris": {"ios": "https://dc.lft.to/lastmile_qr_scan", "android": "https://dc.lft.to/lastmile_qr_scan"}, "is_reserved": 0, "fusion_lon": 0.0, "fusion_lat": 0.0, "lon": -76.99500933333333, "name": "f8294970aa2b30fca9d084674aa26a0d"}, {"bike_id": "bcb96814081d60c6c65cef607be50988", "type": "electric_scooter", "is_disabled": 0, "lat": 38.96206883333333, "rental_uris": {"ios": "https://dc.lft.to/lastmile_qr_scan", "android": "https://dc.lft.to/lastmile_qr_scan"}, "is_reserved": 0, "fusion_lon": 0.0, "fusion_lat": 0.0, "lon": -77.02236833333333, "name": "bcb96814081d60c6c65cef607be50988"}, {"bike_id": "1654d9b1ecea66d2f3fa67b659211a2e", "type": "electric_scooter", "is_disabled": 0, "lat": 38.89297083333334, "rental_uris": {"ios": "https://dc.lft.to/lastmile_qr_scan", "android": "https://dc.lft.to/lastmile_qr_scan"}, "is_reserved": 0, "fusion_lon": 0.0, "fusion_lat": 0.0, "lon": -77.012305, "name": "1654d9b1ecea66d2f3fa67b659211a2e"}, {"bike_id": "3d47a479e93617d809b961507c5f4c80", "type": "electric_scooter", "is_disabled": 0, "lat": 38.924586833333336, "rental_uris": {"ios": "https://dc.lft.to/lastmile_qr_scan", "android": "https://dc.lft.to/lastmile_qr_scan"}, "is_reserved": 0, "fusion_lon": 0.0, "fusion_lat": 0.0, "lon": -76.9991275, "name": "3d47a479e93617d809b961507c5f4c80"}, {"bike_id": "0781a9b0cd34a2a44d8da837f3f1920c", "type": "electric_scooter", "is_disabled": 0, "lat": 38.8781545, "rental_uris": {"ios": "https://dc.lft.to/lastmile_qr_scan", "android": "https://dc.lft.to/lastmile_qr_scan"}, "is_reserved": 0, "fusion_lon": 0.0, "fusion_lat": 0.0, "lon": -76.9309865, "name": "0781a9b0cd34a2a44d8da837f3f1920c"}, {"bike_id": "8efa2c668347e55b732a5b5b74fbccbc", "type": "electric_scooter", "is_disabled": 0, "lat": 38.932476333333334, "rental_uris": {"ios": "https://dc.lft.to/lastmile_qr_scan", "android": "https://dc.lft.to/lastmile_qr_scan"}, "is_reserved": 0, "fusion_lon": 0.0, "fusion_lat": 0.0, "lon": -77.03838683333333, "name": "8efa2c668347e55b732a5b5b74fbccbc"}, {"bike_id": "f738cf18f5927acca5c5a88ecea7bf9c", "type": "electric_bike", "is_disabled": 0, "lat": 38.936380166666666, "rental_uris": {"ios": "https://dc.lft.to/lastmile_qr_scan", "android": "https://dc.lft.to/lastmile_qr_scan"}, "is_reserved": 0, "fusion_lon": 0.0, "fusion_lat": 0.0, "lon": -77.02090683333333, "name": "f738cf18f5927acca5c5a88ecea7bf9c"}, {"bike_id": "a2d9a03a18390e22c5009529f82bba9a", "type": "electric_scooter", "is_disabled": 0, "lat": 38.900069, "rental_uris": {"ios": "https://dc.lft.to/lastmile_qr_scan", "android": "https://dc.lft.to/lastmile_qr_scan"}, "is_reserved": 0, "fusion_lon": 0.0, "fusion_lat": 0.0, "lon": -77.0446475, "name": "a2d9a03a18390e22c5009529f82bba9a"}, {"bike_id": "883b230bfa8cba958c8619fd0b5e5ed5", "type": "electric_scooter", "is_disabled": 0, "lat": 38.94994283333333, "rental_uris": {"ios": "https://dc.lft.to/lastmile_qr_scan", "android": "https://dc.lft.to/lastmile_qr_scan"}, "is_reserved": 0, "fusion_lon": 0.0, "fusion_lat": 0.0, "lon": -77.02699033333333, "name": "883b230bfa8cba958c8619fd0b5e5ed5"}, {"bike_id": "0ce761aaca321a9253bc3c6d7f268b10", "type": "electric_scooter", "is_disabled": 0, "lat": 38.908434166666666, "rental_uris": {"ios": "https://dc.lft.to/lastmile_qr_scan", "android": "https://dc.lft.to/lastmile_qr_scan"}, "is_reserved": 0, "fusion_lon": 0.0, "fusion_lat": 0.0, "lon": -77.04374833333334, "name": "0ce761aaca321a9253bc3c6d7f268b10"}, {"bike_id": "5d171a7f2d5bee4a9c30c4d2a38eaeff", "type": "electric_scooter", "is_disabled": 0, "lat": 38.905867, "rental_uris": {"ios": "https://dc.lft.to/lastmile_qr_scan", "android": "https://dc.lft.to/lastmile_qr_scan"}, "is_reserved": 0, "fusion_lon": 0.0, "fusion_lat": 0.0, "lon": -77.0489195, "name": "5d171a7f2d5bee4a9c30c4d2a38eaeff"}, {"bike_id": "e7343e1f0a710987393eea6c059d3d27", "type": "electric_scooter", "is_disabled": 0, "lat": 38.923137833333335, "rental_uris": {"ios": "https://dc.lft.to/lastmile_qr_scan", "android": "https://dc.lft.to/lastmile_qr_scan"}, "is_reserved": 0, "fusion_lon": 0.0, "fusion_lat": 0.0, "lon": -77.03811116666667, "name": "e7343e1f0a710987393eea6c059d3d27"}, {"bike_id": "1f5952d6919b76aa4876174d93df0e5b", "type": "electric_scooter", "is_disabled": 0, "lat": 38.885818, "rental_uris": {"ios": "https://dc.lft.to/lastmile_qr_scan", "android": "https://dc.lft.to/lastmile_qr_scan"}, "is_reserved": 0, "fusion_lon": 0.0, "fusion_lat": 0.0, "lon": -77.02839583333333, "name": "1f5952d6919b76aa4876174d93df0e5b"}, {"bike_id": "45d48236a93163180ecc080ada4fb97f", "type": "electric_scooter", "is_disabled": 0, "lat": 38.9040675, "rental_uris": {"ios": "https://dc.lft.to/lastmile_qr_scan", "android": "https://dc.lft.to/lastmile_qr_scan"}, "is_reserved": 0, "fusion_lon": 0.0, "fusion_lat": 0.0, "lon": -76.97330433333333, "name": "45d48236a93163180ecc080ada4fb97f"}, {"bike_id": "aad496cf27e1d7be0e69809c3ced37ab", "type": "electric_bike", "is_disabled": 0, "lat": 38.8729895, "rental_uris": {"ios": "https://dc.lft.to/lastmile_qr_scan", "android": "https://dc.lft.to/lastmile_qr_scan"}, "is_reserved": 0, "fusion_lon": 0.0, "fusion_lat": 0.0, "lon": -76.969828, "name": "aad496cf27e1d7be0e69809c3ced37ab"}, {"bike_id": "cf8e0aa241faa661e350398808c1293c", "type": "electric_scooter", "is_disabled": 0, "lat": 38.9102775, "rental_uris": {"ios": "https://dc.lft.to/lastmile_qr_scan", "android": "https://dc.lft.to/lastmile_qr_scan"}, "is_reserved": 0, "fusion_lon": 0.0, "fusion_lat": 0.0, "lon": -76.986646, "name": "cf8e0aa241faa661e350398808c1293c"}, {"bike_id": "efe8287e57f0289701f9fa27c49e5d9a", "type": "electric_scooter", "is_disabled": 0, "lat": 38.9081205, "rental_uris": {"ios": "https://dc.lft.to/lastmile_qr_scan", "android": "https://dc.lft.to/lastmile_qr_scan"}, "is_reserved": 0, "fusion_lon": 0.0, "fusion_lat": 0.0, "lon": -77.04969333333334, "name": "efe8287e57f0289701f9fa27c49e5d9a"}, {"bike_id": "a309145afd62a5e5e18bf6bcd3804ea9", "type": "electric_scooter", "is_disabled": 0, "lat": 38.95178833333333, "rental_uris": {"ios": "https://dc.lft.to/lastmile_qr_scan", "android": "https://dc.lft.to/lastmile_qr_scan"}, "is_reserved": 0, "fusion_lon": 0.0, "fusion_lat": 0.0, "lon": -77.02615583333333, "name": "a309145afd62a5e5e18bf6bcd3804ea9"}, {"bike_id": "ed4b427c6a9079072db9248654d72637", "type": "electric_scooter", "is_disabled": 0, "lat": 38.93006, "rental_uris": {"ios": "https://dc.lft.to/lastmile_qr_scan", "android": "https://dc.lft.to/lastmile_qr_scan"}, "is_reserved": 0, "fusion_lon": 0.0, "fusion_lat": 0.0, "lon": -77.03772183333334, "name": "ed4b427c6a9079072db9248654d72637"}, {"bike_id": "e2f56055f0ecdde25312dbd2e06b1d2e", "type": "electric_scooter", "is_disabled": 0, "lat": 38.904086666666664, "rental_uris": {"ios": "https://dc.lft.to/lastmile_qr_scan", "android": "https://dc.lft.to/lastmile_qr_scan"}, "is_reserved": 0, "fusion_lon": 0.0, "fusion_lat": 0.0, "lon": -76.97333266666666, "name": "e2f56055f0ecdde25312dbd2e06b1d2e"}, {"bike_id": "b93cb36511476baf99d367df1e5cd9d4", "type": "electric_bike", "is_disabled": 0, "lat": 38.944716166666666, "rental_uris": {"ios": "https://dc.lft.to/lastmile_qr_scan", "android": "https://dc.lft.to/lastmile_qr_scan"}, "is_reserved": 0, "fusion_lon": 0.0, "fusion_lat": 0.0, "lon": -76.98689566666667, "name": "b93cb36511476baf99d367df1e5cd9d4"}, {"bike_id": "292fb408506d23974ac48f68495f4bd6", "type": "electric_scooter", "is_disabled": 0, "lat": 38.902660166666664, "rental_uris": {"ios": "https://dc.lft.to/lastmile_qr_scan", "android": "https://dc.lft.to/lastmile_qr_scan"}, "is_reserved": 0, "fusion_lon": 0.0, "fusion_lat": 0.0, "lon": -77.01967116666667, "name": "292fb408506d23974ac48f68495f4bd6"}, {"bike_id": "5dabef118deeb060b0175f1d2e928780", "type": "electric_scooter", "is_disabled": 0, "lat": 38.92386916666667, "rental_uris": {"ios": "https://dc.lft.to/lastmile_qr_scan", "android": "https://dc.lft.to/lastmile_qr_scan"}, "is_reserved": 0, "fusion_lon": 0.0, "fusion_lat": 0.0, "lon": -77.0366195, "name": "5dabef118deeb060b0175f1d2e928780"}, {"bike_id": "c4c93bd40c50353af9053d0154378152", "type": "electric_bike", "is_disabled": 0, "lat": 38.8491635, "rental_uris": {"ios": "https://dc.lft.to/lastmile_qr_scan", "android": "https://dc.lft.to/lastmile_qr_scan"}, "is_reserved": 0, "fusion_lon": 0.0, "fusion_lat": 0.0, "lon": -77.07794883333334, "name": "c4c93bd40c50353af9053d0154378152"}, {"bike_id": "60ec542c3677f2edd5eb061e64d6e58e", "type": "electric_scooter", "is_disabled": 0, "lat": 38.86660416666667, "rental_uris": {"ios": "https://dc.lft.to/lastmile_qr_scan", "android": "https://dc.lft.to/lastmile_qr_scan"}, "is_reserved": 0, "fusion_lon": 0.0, "fusion_lat": 0.0, "lon": -76.98884833333334, "name": "60ec542c3677f2edd5eb061e64d6e58e"}, {"bike_id": "8ef120383e8197073a99554648da1529", "type": "electric_scooter", "is_disabled": 0, "lat": 38.929047833333335, "rental_uris": {"ios": "https://dc.lft.to/lastmile_qr_scan", "android": "https://dc.lft.to/lastmile_qr_scan"}, "is_reserved": 0, "fusion_lon": 0.0, "fusion_lat": 0.0, "lon": -77.022662, "name": "8ef120383e8197073a99554648da1529"}, {"bike_id": "a8a26dcae4f75988e01767041d008a97", "type": "electric_scooter", "is_disabled": 0, "lat": 38.90710883333333, "rental_uris": {"ios": "https://dc.lft.to/lastmile_qr_scan", "android": "https://dc.lft.to/lastmile_qr_scan"}, "is_reserved": 0, "fusion_lon": 0.0, "fusion_lat": 0.0, "lon": -76.99818816666667, "name": "a8a26dcae4f75988e01767041d008a97"}, {"bike_id": "dde15a7276e8ab597561ce9ceeb33284", "type": "electric_scooter", "is_disabled": 0, "lat": 38.904089166666665, "rental_uris": {"ios": "https://dc.lft.to/lastmile_qr_scan", "android": "https://dc.lft.to/lastmile_qr_scan"}, "is_reserved": 0, "fusion_lon": 0.0, "fusion_lat": 0.0, "lon": -77.06871166666667, "name": "dde15a7276e8ab597561ce9ceeb33284"}, {"bike_id": "e33b73028a898a4ffb2587817ed8d8c0", "type": "electric_scooter", "is_disabled": 0, "lat": 38.885151, "rental_uris": {"ios": "https://dc.lft.to/lastmile_qr_scan", "android": "https://dc.lft.to/lastmile_qr_scan"}, "is_reserved": 0, "fusion_lon": 0.0, "fusion_lat": 0.0, "lon": -77.0282305, "name": "e33b73028a898a4ffb2587817ed8d8c0"}, {"bike_id": "d517ff20f7c85ce03e736fab414e76a2", "type": "electric_scooter", "is_disabled": 0, "lat": 38.9144915, "rental_uris": {"ios": "https://dc.lft.to/lastmile_qr_scan", "android": "https://dc.lft.to/lastmile_qr_scan"}, "is_reserved": 0, "fusion_lon": 0.0, "fusion_lat": 0.0, "lon": -77.07274216666667, "name": "d517ff20f7c85ce03e736fab414e76a2"}, {"bike_id": "92f5a5642482eb97cd0825d2a1e74897", "type": "electric_scooter", "is_disabled": 0, "lat": 38.92343666666667, "rental_uris": {"ios": "https://dc.lft.to/lastmile_qr_scan", "android": "https://dc.lft.to/lastmile_qr_scan"}, "is_reserved": 0, "fusion_lon": 0.0, "fusion_lat": 0.0, "lon": -77.05052316666666, "name": "92f5a5642482eb97cd0825d2a1e74897"}, {"bike_id": "cea0ccde331bd7a152372011a00c1a1c", "type": "electric_scooter", "is_disabled": 0, "lat": 38.865001166666666, "rental_uris": {"ios": "https://dc.lft.to/lastmile_qr_scan", "android": "https://dc.lft.to/lastmile_qr_scan"}, "is_reserved": 0, "fusion_lon": 0.0, "fusion_lat": 0.0, "lon": -76.974619, "name": "cea0ccde331bd7a152372011a00c1a1c"}, {"bike_id": "94eea97bcfc1193b61a7a63761b58c6f", "type": "electric_scooter", "is_disabled": 0, "lat": 38.90016216666667, "rental_uris": {"ios": "https://dc.lft.to/lastmile_qr_scan", "android": "https://dc.lft.to/lastmile_qr_scan"}, "is_reserved": 0, "fusion_lon": 0.0, "fusion_lat": 0.0, "lon": -77.00680433333333, "name": "94eea97bcfc1193b61a7a63761b58c6f"}, {"bike_id": "1b7a06772ba0109d1098da88c0026051", "type": "electric_bike", "is_disabled": 0, "lat": 38.95621283333333, "rental_uris": {"ios": "https://dc.lft.to/lastmile_qr_scan", "android": "https://dc.lft.to/lastmile_qr_scan"}, "is_reserved": 0, "fusion_lon": 0.0, "fusion_lat": 0.0, "lon": -77.0259175, "name": "1b7a06772ba0109d1098da88c0026051"}, {"bike_id": "3fb41d4d26f6f8029eac3a3ea37db28f", "type": "electric_scooter", "is_disabled": 0, "lat": 38.870994333333336, "rental_uris": {"ios": "https://dc.lft.to/lastmile_qr_scan", "android": "https://dc.lft.to/lastmile_qr_scan"}, "is_reserved": 0, "fusion_lon": 0.0, "fusion_lat": 0.0, "lon": -77.00806616666667, "name": "3fb41d4d26f6f8029eac3a3ea37db28f"}, {"bike_id": "d99c863abe4e87efb5f00f95a5aa7239", "type": "electric_scooter", "is_disabled": 0, "lat": 38.921192, "rental_uris": {"ios": "https://dc.lft.to/lastmile_qr_scan", "android": "https://dc.lft.to/lastmile_qr_scan"}, "is_reserved": 0, "fusion_lon": 0.0, "fusion_lat": 0.0, "lon": -77.04429933333333, "name": "d99c863abe4e87efb5f00f95a5aa7239"}, {"bike_id": "160e36a764a66c72287e0cc2f7a0569f", "type": "electric_scooter", "is_disabled": 0, "lat": 38.913669666666664, "rental_uris": {"ios": "https://dc.lft.to/lastmile_qr_scan", "android": "https://dc.lft.to/lastmile_qr_scan"}, "is_reserved": 0, "fusion_lon": 0.0, "fusion_lat": 0.0, "lon": -77.0301555, "name": "160e36a764a66c72287e0cc2f7a0569f"}, {"bike_id": "71b7c54cf43c4c89ecd552802750eb82", "type": "electric_scooter", "is_disabled": 0, "lat": 38.905977166666666, "rental_uris": {"ios": "https://dc.lft.to/lastmile_qr_scan", "android": "https://dc.lft.to/lastmile_qr_scan"}, "is_reserved": 0, "fusion_lon": 0.0, "fusion_lat": 0.0, "lon": -77.04126066666667, "name": "71b7c54cf43c4c89ecd552802750eb82"}, {"bike_id": "adb30418e1cbf956b14ba8129b60206f", "type": "electric_scooter", "is_disabled": 0, "lat": 38.90036416666667, "rental_uris": {"ios": "https://dc.lft.to/lastmile_qr_scan", "android": "https://dc.lft.to/lastmile_qr_scan"}, "is_reserved": 0, "fusion_lon": 0.0, "fusion_lat": 0.0, "lon": -77.0351, "name": "adb30418e1cbf956b14ba8129b60206f"}, {"bike_id": "7658951ec73ce132733551a236c0f1e2", "type": "electric_scooter", "is_disabled": 0, "lat": 38.9219945, "rental_uris": {"ios": "https://dc.lft.to/lastmile_qr_scan", "android": "https://dc.lft.to/lastmile_qr_scan"}, "is_reserved": 0, "fusion_lon": 0.0, "fusion_lat": 0.0, "lon": -77.03898166666667, "name": "7658951ec73ce132733551a236c0f1e2"}, {"bike_id": "6c092c0cfb0e54c26e29f4f581c76697", "type": "electric_scooter", "is_disabled": 0, "lat": 38.901714166666665, "rental_uris": {"ios": "https://dc.lft.to/lastmile_qr_scan", "android": "https://dc.lft.to/lastmile_qr_scan"}, "is_reserved": 0, "fusion_lon": 0.0, "fusion_lat": 0.0, "lon": -77.02488816666667, "name": "6c092c0cfb0e54c26e29f4f581c76697"}, {"bike_id": "8a9420be6e9a56d2ea24438e1081fadf", "type": "electric_scooter", "is_disabled": 0, "lat": 38.929705166666665, "rental_uris": {"ios": "https://dc.lft.to/lastmile_qr_scan", "android": "https://dc.lft.to/lastmile_qr_scan"}, "is_reserved": 0, "fusion_lon": 0.0, "fusion_lat": 0.0, "lon": -77.01690166666667, "name": "8a9420be6e9a56d2ea24438e1081fadf"}, {"bike_id": "eab9f56d73f7e73fafd27e4d43d09350", "type": "electric_scooter", "is_disabled": 0, "lat": 38.90582833333333, "rental_uris": {"ios": "https://dc.lft.to/lastmile_qr_scan", "android": "https://dc.lft.to/lastmile_qr_scan"}, "is_reserved": 0, "fusion_lon": 0.0, "fusion_lat": 0.0, "lon": -77.03025633333333, "name": "eab9f56d73f7e73fafd27e4d43d09350"}, {"bike_id": "519c9d15ff0f3fbf30ebe30030eb5a71", "type": "electric_scooter", "is_disabled": 0, "lat": 38.902686, "rental_uris": {"ios": "https://dc.lft.to/lastmile_qr_scan", "android": "https://dc.lft.to/lastmile_qr_scan"}, "is_reserved": 0, "fusion_lon": 0.0, "fusion_lat": 0.0, "lon": -77.0383805, "name": "519c9d15ff0f3fbf30ebe30030eb5a71"}, {"bike_id": "ac6d412e7fc448d639b0736c1bcba0af", "type": "electric_scooter", "is_disabled": 0, "lat": 38.94199716666667, "rental_uris": {"ios": "https://dc.lft.to/lastmile_qr_scan", "android": "https://dc.lft.to/lastmile_qr_scan"}, "is_reserved": 0, "fusion_lon": 0.0, "fusion_lat": 0.0, "lon": -77.02349683333334, "name": "ac6d412e7fc448d639b0736c1bcba0af"}, {"bike_id": "03f784303b802efe65cd982ab95c85a3", "type": "electric_scooter", "is_disabled": 0, "lat": 38.90967216666667, "rental_uris": {"ios": "https://dc.lft.to/lastmile_qr_scan", "android": "https://dc.lft.to/lastmile_qr_scan"}, "is_reserved": 0, "fusion_lon": 0.0, "fusion_lat": 0.0, "lon": -77.03367666666666, "name": "03f784303b802efe65cd982ab95c85a3"}, {"bike_id": "315ca6703c9936b0982240e3cf8d0456", "type": "electric_scooter", "is_disabled": 0, "lat": 38.93618516666667, "rental_uris": {"ios": "https://dc.lft.to/lastmile_qr_scan", "android": "https://dc.lft.to/lastmile_qr_scan"}, "is_reserved": 0, "fusion_lon": 0.0, "fusion_lat": 0.0, "lon": -77.06754816666667, "name": "315ca6703c9936b0982240e3cf8d0456"}, {"bike_id": "cbb666096e14ddeec6d58cdd0d265f21", "type": "electric_scooter", "is_disabled": 0, "lat": 38.90558866666667, "rental_uris": {"ios": "https://dc.lft.to/lastmile_qr_scan", "android": "https://dc.lft.to/lastmile_qr_scan"}, "is_reserved": 0, "fusion_lon": 0.0, "fusion_lat": 0.0, "lon": -77.00563166666667, "name": "cbb666096e14ddeec6d58cdd0d265f21"}, {"bike_id": "b9448512df18485ddab1c5f9cf3a7446", "type": "electric_scooter", "is_disabled": 0, "lat": 38.90308266666667, "rental_uris": {"ios": "https://dc.lft.to/lastmile_qr_scan", "android": "https://dc.lft.to/lastmile_qr_scan"}, "is_reserved": 0, "fusion_lon": 0.0, "fusion_lat": 0.0, "lon": -76.98357, "name": "b9448512df18485ddab1c5f9cf3a7446"}, {"bike_id": "e62c35a055d57d3f1ba78cae22448c5e", "type": "electric_scooter", "is_disabled": 0, "lat": 38.92579383333333, "rental_uris": {"ios": "https://dc.lft.to/lastmile_qr_scan", "android": "https://dc.lft.to/lastmile_qr_scan"}, "is_reserved": 0, "fusion_lon": 0.0, "fusion_lat": 0.0, "lon": -77.03930633333333, "name": "e62c35a055d57d3f1ba78cae22448c5e"}, {"bike_id": "8c5fc761f686eea3c18eb94b3dee4f38", "type": "electric_scooter", "is_disabled": 0, "lat": 38.918070166666666, "rental_uris": {"ios": "https://dc.lft.to/lastmile_qr_scan", "android": "https://dc.lft.to/lastmile_qr_scan"}, "is_reserved": 0, "fusion_lon": 0.0, "fusion_lat": 0.0, "lon": -77.00476733333333, "name": "8c5fc761f686eea3c18eb94b3dee4f38"}, {"bike_id": "f95ffefa3b3cb8eb50d3dfc1c404ae53", "type": "electric_scooter", "is_disabled": 0, "lat": 38.907585, "rental_uris": {"ios": "https://dc.lft.to/lastmile_qr_scan", "android": "https://dc.lft.to/lastmile_qr_scan"}, "is_reserved": 0, "fusion_lon": 0.0, "fusion_lat": 0.0, "lon": -77.01208833333334, "name": "f95ffefa3b3cb8eb50d3dfc1c404ae53"}, {"bike_id": "6d5ed2b5b66b93a3c8e8f5f24f80e340", "type": "electric_scooter", "is_disabled": 0, "lat": 38.91691483333334, "rental_uris": {"ios": "https://dc.lft.to/lastmile_qr_scan", "android": "https://dc.lft.to/lastmile_qr_scan"}, "is_reserved": 0, "fusion_lon": 0.0, "fusion_lat": 0.0, "lon": -77.03219316666667, "name": "6d5ed2b5b66b93a3c8e8f5f24f80e340"}, {"bike_id": "170d666d52fd30c30acde950e1bdf1bb", "type": "electric_bike", "is_disabled": 0, "lat": 38.8730205, "rental_uris": {"ios": "https://dc.lft.to/lastmile_qr_scan", "android": "https://dc.lft.to/lastmile_qr_scan"}, "is_reserved": 0, "fusion_lon": 0.0, "fusion_lat": 0.0, "lon": -77.13923633333333, "name": "170d666d52fd30c30acde950e1bdf1bb"}, {"bike_id": "a76afea6bcf312e77f79e165b76cc23d", "type": "electric_bike", "is_disabled": 0, "lat": 38.9116985, "rental_uris": {"ios": "https://dc.lft.to/lastmile_qr_scan", "android": "https://dc.lft.to/lastmile_qr_scan"}, "is_reserved": 0, "fusion_lon": 0.0, "fusion_lat": 0.0, "lon": -77.00272933333333, "name": "a76afea6bcf312e77f79e165b76cc23d"}, {"bike_id": "572bd8919af7cd4a753c46ba8dacb5f4", "type": "electric_scooter", "is_disabled": 0, "lat": 38.95199233333334, "rental_uris": {"ios": "https://dc.lft.to/lastmile_qr_scan", "android": "https://dc.lft.to/lastmile_qr_scan"}, "is_reserved": 0, "fusion_lon": 0.0, "fusion_lat": 0.0, "lon": -77.06793016666667, "name": "572bd8919af7cd4a753c46ba8dacb5f4"}, {"bike_id": "c9230c2f763e9c8f0a5348de7e2ddc8e", "type": "electric_scooter", "is_disabled": 0, "lat": 38.936016, "rental_uris": {"ios": "https://dc.lft.to/lastmile_qr_scan", "android": "https://dc.lft.to/lastmile_qr_scan"}, "is_reserved": 0, "fusion_lon": 0.0, "fusion_lat": 0.0, "lon": -77.03783166666666, "name": "c9230c2f763e9c8f0a5348de7e2ddc8e"}, {"bike_id": "d72b2de7a8eea4879a6e3d43bc12cfdc", "type": "electric_bike", "is_disabled": 0, "lat": 38.9559355, "rental_uris": {"ios": "https://dc.lft.to/lastmile_qr_scan", "android": "https://dc.lft.to/lastmile_qr_scan"}, "is_reserved": 0, "fusion_lon": 0.0, "fusion_lat": 0.0, "lon": -77.08804966666666, "name": "d72b2de7a8eea4879a6e3d43bc12cfdc"}, {"bike_id": "289569c233974b7a5022157dbea91520", "type": "electric_scooter", "is_disabled": 0, "lat": 38.93544516666667, "rental_uris": {"ios": "https://dc.lft.to/lastmile_qr_scan", "android": "https://dc.lft.to/lastmile_qr_scan"}, "is_reserved": 0, "fusion_lon": 0.0, "fusion_lat": 0.0, "lon": -77.05828316666667, "name": "289569c233974b7a5022157dbea91520"}, {"bike_id": "cfd0ca02e3abd8b06a53d8b5c71643f2", "type": "electric_scooter", "is_disabled": 0, "lat": 38.972209, "rental_uris": {"ios": "https://dc.lft.to/lastmile_qr_scan", "android": "https://dc.lft.to/lastmile_qr_scan"}, "is_reserved": 0, "fusion_lon": 0.0, "fusion_lat": 0.0, "lon": -77.027031, "name": "cfd0ca02e3abd8b06a53d8b5c71643f2"}, {"bike_id": "e1037461f95284d7b8317b693a05e0c4", "type": "electric_scooter", "is_disabled": 0, "lat": 38.905635, "rental_uris": {"ios": "https://dc.lft.to/lastmile_qr_scan", "android": "https://dc.lft.to/lastmile_qr_scan"}, "is_reserved": 0, "fusion_lon": 0.0, "fusion_lat": 0.0, "lon": -77.05012816666667, "name": "e1037461f95284d7b8317b693a05e0c4"}, {"bike_id": "508d216d238a63ffa4a014e0d89c164d", "type": "electric_scooter", "is_disabled": 0, "lat": 38.89342333333333, "rental_uris": {"ios": "https://dc.lft.to/lastmile_qr_scan", "android": "https://dc.lft.to/lastmile_qr_scan"}, "is_reserved": 0, "fusion_lon": 0.0, "fusion_lat": 0.0, "lon": -77.024047, "name": "508d216d238a63ffa4a014e0d89c164d"}, {"bike_id": "093f472b9d99d494fd3dc688e50b1e88", "type": "electric_scooter", "is_disabled": 0, "lat": 38.9387175, "rental_uris": {"ios": "https://dc.lft.to/lastmile_qr_scan", "android": "https://dc.lft.to/lastmile_qr_scan"}, "is_reserved": 0, "fusion_lon": 0.0, "fusion_lat": 0.0, "lon": -77.0292015, "name": "093f472b9d99d494fd3dc688e50b1e88"}, {"bike_id": "e079cc9224283edd372d110891360cd6", "type": "electric_scooter", "is_disabled": 0, "lat": 38.91651783333333, "rental_uris": {"ios": "https://dc.lft.to/lastmile_qr_scan", "android": "https://dc.lft.to/lastmile_qr_scan"}, "is_reserved": 0, "fusion_lon": 0.0, "fusion_lat": 0.0, "lon": -77.0317225, "name": "e079cc9224283edd372d110891360cd6"}, {"bike_id": "c64e9df78b733f5795616c85b2031b05", "type": "electric_bike", "is_disabled": 0, "lat": 38.95247633333334, "rental_uris": {"ios": "https://dc.lft.to/lastmile_qr_scan", "android": "https://dc.lft.to/lastmile_qr_scan"}, "is_reserved": 0, "fusion_lon": 0.0, "fusion_lat": 0.0, "lon": -76.97675383333333, "name": "c64e9df78b733f5795616c85b2031b05"}, {"bike_id": "8803c39b2b4a14aa2ac5be0ac9d25687", "type": "electric_scooter", "is_disabled": 0, "lat": 38.9111595, "rental_uris": {"ios": "https://dc.lft.to/lastmile_qr_scan", "android": "https://dc.lft.to/lastmile_qr_scan"}, "is_reserved": 0, "fusion_lon": 0.0, "fusion_lat": 0.0, "lon": -77.039184, "name": "8803c39b2b4a14aa2ac5be0ac9d25687"}, {"bike_id": "0797ddbe5e03e659e66fb69f7a8f9a06", "type": "electric_scooter", "is_disabled": 0, "lat": 38.917086, "rental_uris": {"ios": "https://dc.lft.to/lastmile_qr_scan", "android": "https://dc.lft.to/lastmile_qr_scan"}, "is_reserved": 0, "fusion_lon": 0.0, "fusion_lat": 0.0, "lon": -77.03455433333333, "name": "0797ddbe5e03e659e66fb69f7a8f9a06"}, {"bike_id": "3252648a29c5be299d9159c84e1d8163", "type": "electric_scooter", "is_disabled": 0, "lat": 38.935232, "rental_uris": {"ios": "https://dc.lft.to/lastmile_qr_scan", "android": "https://dc.lft.to/lastmile_qr_scan"}, "is_reserved": 0, "fusion_lon": 0.0, "fusion_lat": 0.0, "lon": -77.0297575, "name": "3252648a29c5be299d9159c84e1d8163"}, {"bike_id": "b9ebe9a9bf4b0274144db13880e1ea02", "type": "electric_scooter", "is_disabled": 0, "lat": 38.90647416666667, "rental_uris": {"ios": "https://dc.lft.to/lastmile_qr_scan", "android": "https://dc.lft.to/lastmile_qr_scan"}, "is_reserved": 0, "fusion_lon": 0.0, "fusion_lat": 0.0, "lon": -77.01012633333333, "name": "b9ebe9a9bf4b0274144db13880e1ea02"}, {"bike_id": "206089909a1ea329922ff965fc18dcb0", "type": "electric_bike", "is_disabled": 0, "lat": 38.9492665, "rental_uris": {"ios": "https://dc.lft.to/lastmile_qr_scan", "android": "https://dc.lft.to/lastmile_qr_scan"}, "is_reserved": 0, "fusion_lon": 0.0, "fusion_lat": 0.0, "lon": -77.00798216666666, "name": "206089909a1ea329922ff965fc18dcb0"}, {"bike_id": "0edab29addc57a15eee75f96541d1fd0", "type": "electric_scooter", "is_disabled": 0, "lat": 38.905097166666664, "rental_uris": {"ios": "https://dc.lft.to/lastmile_qr_scan", "android": "https://dc.lft.to/lastmile_qr_scan"}, "is_reserved": 0, "fusion_lon": 0.0, "fusion_lat": 0.0, "lon": -77.0297735, "name": "0edab29addc57a15eee75f96541d1fd0"}, {"bike_id": "7c69d45520c74d169329ce88ad74829d", "type": "electric_scooter", "is_disabled": 0, "lat": 38.918094833333335, "rental_uris": {"ios": "https://dc.lft.to/lastmile_qr_scan", "android": "https://dc.lft.to/lastmile_qr_scan"}, "is_reserved": 0, "fusion_lon": 0.0, "fusion_lat": 0.0, "lon": -77.03259766666666, "name": "7c69d45520c74d169329ce88ad74829d"}, {"bike_id": "7ff0be5b6390d8896b784cc452ffc405", "type": "electric_scooter", "is_disabled": 0, "lat": 38.9114395, "rental_uris": {"ios": "https://dc.lft.to/lastmile_qr_scan", "android": "https://dc.lft.to/lastmile_qr_scan"}, "is_reserved": 0, "fusion_lon": 0.0, "fusion_lat": 0.0, "lon": -77.02802433333333, "name": "7ff0be5b6390d8896b784cc452ffc405"}, {"bike_id": "6e35840bfcfaf4bed9f3a6364476820f", "type": "electric_bike", "is_disabled": 0, "lat": 38.94651, "rental_uris": {"ios": "https://dc.lft.to/lastmile_qr_scan", "android": "https://dc.lft.to/lastmile_qr_scan"}, "is_reserved": 0, "fusion_lon": 0.0, "fusion_lat": 0.0, "lon": -76.99488916666667, "name": "6e35840bfcfaf4bed9f3a6364476820f"}, {"bike_id": "01323115764d7d979517e5ae0f381c2d", "type": "electric_scooter", "is_disabled": 0, "lat": 38.906433, "rental_uris": {"ios": "https://dc.lft.to/lastmile_qr_scan", "android": "https://dc.lft.to/lastmile_qr_scan"}, "is_reserved": 0, "fusion_lon": 0.0, "fusion_lat": 0.0, "lon": -77.01419883333334, "name": "01323115764d7d979517e5ae0f381c2d"}, {"bike_id": "9faab5f82b5bf68abb15fa6a310e90a4", "type": "electric_scooter", "is_disabled": 0, "lat": 38.92618216666666, "rental_uris": {"ios": "https://dc.lft.to/lastmile_qr_scan", "android": "https://dc.lft.to/lastmile_qr_scan"}, "is_reserved": 0, "fusion_lon": 0.0, "fusion_lat": 0.0, "lon": -77.04328533333333, "name": "9faab5f82b5bf68abb15fa6a310e90a4"}, {"bike_id": "85e39bd493d196a9ae31c0825bdba0a7", "type": "electric_scooter", "is_disabled": 0, "lat": 38.9353655, "rental_uris": {"ios": "https://dc.lft.to/lastmile_qr_scan", "android": "https://dc.lft.to/lastmile_qr_scan"}, "is_reserved": 0, "fusion_lon": 0.0, "fusion_lat": 0.0, "lon": -77.03891333333333, "name": "85e39bd493d196a9ae31c0825bdba0a7"}, {"bike_id": "7a5d1855646aec9b6eeb081a6545f920", "type": "electric_scooter", "is_disabled": 0, "lat": 38.899951, "rental_uris": {"ios": "https://dc.lft.to/lastmile_qr_scan", "android": "https://dc.lft.to/lastmile_qr_scan"}, "is_reserved": 0, "fusion_lon": 0.0, "fusion_lat": 0.0, "lon": -77.001976, "name": "7a5d1855646aec9b6eeb081a6545f920"}, {"bike_id": "54c9af32bfbbff48f00d21779470134b", "type": "electric_scooter", "is_disabled": 0, "lat": 38.907977333333335, "rental_uris": {"ios": "https://dc.lft.to/lastmile_qr_scan", "android": "https://dc.lft.to/lastmile_qr_scan"}, "is_reserved": 0, "fusion_lon": 0.0, "fusion_lat": 0.0, "lon": -77.03131833333333, "name": "54c9af32bfbbff48f00d21779470134b"}, {"bike_id": "a7cbf0c3e3b88415147f9c11c8270c5e", "type": "electric_scooter", "is_disabled": 0, "lat": 38.91012333333333, "rental_uris": {"ios": "https://dc.lft.to/lastmile_qr_scan", "android": "https://dc.lft.to/lastmile_qr_scan"}, "is_reserved": 0, "fusion_lon": 0.0, "fusion_lat": 0.0, "lon": -77.01620583333333, "name": "a7cbf0c3e3b88415147f9c11c8270c5e"}, {"bike_id": "98a1d3189496cf212e45e617d62f4d36", "type": "electric_scooter", "is_disabled": 0, "lat": 38.9141855, "rental_uris": {"ios": "https://dc.lft.to/lastmile_qr_scan", "android": "https://dc.lft.to/lastmile_qr_scan"}, "is_reserved": 0, "fusion_lon": 0.0, "fusion_lat": 0.0, "lon": -77.02287916666667, "name": "98a1d3189496cf212e45e617d62f4d36"}, {"bike_id": "28deb6506dafe81db1561b750e3c86ff", "type": "electric_scooter", "is_disabled": 0, "lat": 38.91701116666667, "rental_uris": {"ios": "https://dc.lft.to/lastmile_qr_scan", "android": "https://dc.lft.to/lastmile_qr_scan"}, "is_reserved": 0, "fusion_lon": 0.0, "fusion_lat": 0.0, "lon": -77.01072816666667, "name": "28deb6506dafe81db1561b750e3c86ff"}, {"bike_id": "8f857a180b98dfd6182713c7b8cead21", "type": "electric_scooter", "is_disabled": 0, "lat": 38.88064583333333, "rental_uris": {"ios": "https://dc.lft.to/lastmile_qr_scan", "android": "https://dc.lft.to/lastmile_qr_scan"}, "is_reserved": 0, "fusion_lon": 0.0, "fusion_lat": 0.0, "lon": -76.93214883333333, "name": "8f857a180b98dfd6182713c7b8cead21"}, {"bike_id": "7f0958384a89ffdac5d45040763cd2da", "type": "electric_scooter", "is_disabled": 0, "lat": 38.92196533333333, "rental_uris": {"ios": "https://dc.lft.to/lastmile_qr_scan", "android": "https://dc.lft.to/lastmile_qr_scan"}, "is_reserved": 0, "fusion_lon": 0.0, "fusion_lat": 0.0, "lon": -77.03515966666667, "name": "7f0958384a89ffdac5d45040763cd2da"}, {"bike_id": "60911e9f7edbe6846216723061a7ebf6", "type": "electric_scooter", "is_disabled": 0, "lat": 38.954037, "rental_uris": {"ios": "https://dc.lft.to/lastmile_qr_scan", "android": "https://dc.lft.to/lastmile_qr_scan"}, "is_reserved": 0, "fusion_lon": 0.0, "fusion_lat": 0.0, "lon": -76.9984935, "name": "60911e9f7edbe6846216723061a7ebf6"}, {"bike_id": "bb793b8184da26f6a3e3bcdead3c8364", "type": "electric_scooter", "is_disabled": 0, "lat": 38.92657533333333, "rental_uris": {"ios": "https://dc.lft.to/lastmile_qr_scan", "android": "https://dc.lft.to/lastmile_qr_scan"}, "is_reserved": 0, "fusion_lon": 0.0, "fusion_lat": 0.0, "lon": -77.03729766666666, "name": "bb793b8184da26f6a3e3bcdead3c8364"}, {"bike_id": "85d5dd9b1a8caf5dcdb2fb273c24a084", "type": "electric_scooter", "is_disabled": 0, "lat": 38.9333435, "rental_uris": {"ios": "https://dc.lft.to/lastmile_qr_scan", "android": "https://dc.lft.to/lastmile_qr_scan"}, "is_reserved": 0, "fusion_lon": 0.0, "fusion_lat": 0.0, "lon": -77.038723, "name": "85d5dd9b1a8caf5dcdb2fb273c24a084"}, {"bike_id": "82dd2806dff1d22e17b779231637e3c9", "type": "electric_scooter", "is_disabled": 0, "lat": 38.915605666666664, "rental_uris": {"ios": "https://dc.lft.to/lastmile_qr_scan", "android": "https://dc.lft.to/lastmile_qr_scan"}, "is_reserved": 0, "fusion_lon": 0.0, "fusion_lat": 0.0, "lon": -77.03139416666667, "name": "82dd2806dff1d22e17b779231637e3c9"}, {"bike_id": "400353f1d252724ff626aa04e12652ae", "type": "electric_scooter", "is_disabled": 0, "lat": 38.92843633333333, "rental_uris": {"ios": "https://dc.lft.to/lastmile_qr_scan", "android": "https://dc.lft.to/lastmile_qr_scan"}, "is_reserved": 0, "fusion_lon": 0.0, "fusion_lat": 0.0, "lon": -77.02741916666666, "name": "400353f1d252724ff626aa04e12652ae"}, {"bike_id": "8eeb0d5152bd666b8baf628e918e2376", "type": "electric_scooter", "is_disabled": 0, "lat": 38.9336995, "rental_uris": {"ios": "https://dc.lft.to/lastmile_qr_scan", "android": "https://dc.lft.to/lastmile_qr_scan"}, "is_reserved": 0, "fusion_lon": 0.0, "fusion_lat": 0.0, "lon": -77.03988266666667, "name": "8eeb0d5152bd666b8baf628e918e2376"}, {"bike_id": "bc0e155bb9b7cac0fedd30b6fda5fefb", "type": "electric_scooter", "is_disabled": 0, "lat": 38.90674683333334, "rental_uris": {"ios": "https://dc.lft.to/lastmile_qr_scan", "android": "https://dc.lft.to/lastmile_qr_scan"}, "is_reserved": 0, "fusion_lon": 0.0, "fusion_lat": 0.0, "lon": -77.07167216666667, "name": "bc0e155bb9b7cac0fedd30b6fda5fefb"}, {"bike_id": "a25e089bdcc6e5215941b660f59c656a", "type": "electric_scooter", "is_disabled": 0, "lat": 38.862468, "rental_uris": {"ios": "https://dc.lft.to/lastmile_qr_scan", "android": "https://dc.lft.to/lastmile_qr_scan"}, "is_reserved": 0, "fusion_lon": 0.0, "fusion_lat": 0.0, "lon": -76.99501966666666, "name": "a25e089bdcc6e5215941b660f59c656a"}, {"bike_id": "094d01d7b49e89402873e7e4b26ab416", "type": "electric_scooter", "is_disabled": 0, "lat": 38.9019075, "rental_uris": {"ios": "https://dc.lft.to/lastmile_qr_scan", "android": "https://dc.lft.to/lastmile_qr_scan"}, "is_reserved": 0, "fusion_lon": 0.0, "fusion_lat": 0.0, "lon": -77.03931433333334, "name": "094d01d7b49e89402873e7e4b26ab416"}, {"bike_id": "115f1e350a5e502010327a9f67ff8d58", "type": "electric_bike", "is_disabled": 0, "lat": 38.85437483333333, "rental_uris": {"ios": "https://dc.lft.to/lastmile_qr_scan", "android": "https://dc.lft.to/lastmile_qr_scan"}, "is_reserved": 0, "fusion_lon": 0.0, "fusion_lat": 0.0, "lon": -77.0830845, "name": "115f1e350a5e502010327a9f67ff8d58"}, {"bike_id": "23a77d937447296547940407d47e51da", "type": "electric_scooter", "is_disabled": 0, "lat": 38.952873333333336, "rental_uris": {"ios": "https://dc.lft.to/lastmile_qr_scan", "android": "https://dc.lft.to/lastmile_qr_scan"}, "is_reserved": 0, "fusion_lon": 0.0, "fusion_lat": 0.0, "lon": -77.06835533333333, "name": "23a77d937447296547940407d47e51da"}, {"bike_id": "c364b6e5612acdb0d7c9a5f56123bdba", "type": "electric_scooter", "is_disabled": 0, "lat": 38.936338, "rental_uris": {"ios": "https://dc.lft.to/lastmile_qr_scan", "android": "https://dc.lft.to/lastmile_qr_scan"}, "is_reserved": 0, "fusion_lon": 0.0, "fusion_lat": 0.0, "lon": -77.03654116666667, "name": "c364b6e5612acdb0d7c9a5f56123bdba"}, {"bike_id": "a84fcf60a25625ca73b2d1dc1b23437e", "type": "electric_scooter", "is_disabled": 0, "lat": 38.923403666666665, "rental_uris": {"ios": "https://dc.lft.to/lastmile_qr_scan", "android": "https://dc.lft.to/lastmile_qr_scan"}, "is_reserved": 0, "fusion_lon": 0.0, "fusion_lat": 0.0, "lon": -77.05048233333333, "name": "a84fcf60a25625ca73b2d1dc1b23437e"}, {"bike_id": "138bd0565c59a8939781223d2231312b", "type": "electric_scooter", "is_disabled": 0, "lat": 38.90546616666666, "rental_uris": {"ios": "https://dc.lft.to/lastmile_qr_scan", "android": "https://dc.lft.to/lastmile_qr_scan"}, "is_reserved": 0, "fusion_lon": 0.0, "fusion_lat": 0.0, "lon": -77.0346065, "name": "138bd0565c59a8939781223d2231312b"}, {"bike_id": "0ebf5d250f4bb13d880ed696102dd58e", "type": "electric_scooter", "is_disabled": 0, "lat": 38.92483216666667, "rental_uris": {"ios": "https://dc.lft.to/lastmile_qr_scan", "android": "https://dc.lft.to/lastmile_qr_scan"}, "is_reserved": 0, "fusion_lon": 0.0, "fusion_lat": 0.0, "lon": -77.02712883333334, "name": "0ebf5d250f4bb13d880ed696102dd58e"}, {"bike_id": "b3837262add07f2c2279949d050f92b2", "type": "electric_bike", "is_disabled": 0, "lat": 38.935546, "rental_uris": {"ios": "https://dc.lft.to/lastmile_qr_scan", "android": "https://dc.lft.to/lastmile_qr_scan"}, "is_reserved": 0, "fusion_lon": 0.0, "fusion_lat": 0.0, "lon": -77.03702933333334, "name": "b3837262add07f2c2279949d050f92b2"}, {"bike_id": "b8c74c2d7c53e55e5aeaaccee05f6605", "type": "electric_scooter", "is_disabled": 0, "lat": 38.9286515, "rental_uris": {"ios": "https://dc.lft.to/lastmile_qr_scan", "android": "https://dc.lft.to/lastmile_qr_scan"}, "is_reserved": 0, "fusion_lon": 0.0, "fusion_lat": 0.0, "lon": -77.02175066666666, "name": "b8c74c2d7c53e55e5aeaaccee05f6605"}, {"bike_id": "e1b0230156eaf8d22c03cd7b494bbf4a", "type": "electric_scooter", "is_disabled": 0, "lat": 38.876821666666665, "rental_uris": {"ios": "https://dc.lft.to/lastmile_qr_scan", "android": "https://dc.lft.to/lastmile_qr_scan"}, "is_reserved": 0, "fusion_lon": 0.0, "fusion_lat": 0.0, "lon": -77.0197995, "name": "e1b0230156eaf8d22c03cd7b494bbf4a"}, {"bike_id": "81f0d34c156a49256f9e772c8385529e", "type": "electric_scooter", "is_disabled": 0, "lat": 38.92318383333333, "rental_uris": {"ios": "https://dc.lft.to/lastmile_qr_scan", "android": "https://dc.lft.to/lastmile_qr_scan"}, "is_reserved": 0, "fusion_lon": 0.0, "fusion_lat": 0.0, "lon": -77.0089025, "name": "81f0d34c156a49256f9e772c8385529e"}, {"bike_id": "efda12cba58bfa105202f42255682695", "type": "electric_scooter", "is_disabled": 0, "lat": 38.9050315, "rental_uris": {"ios": "https://dc.lft.to/lastmile_qr_scan", "android": "https://dc.lft.to/lastmile_qr_scan"}, "is_reserved": 0, "fusion_lon": 0.0, "fusion_lat": 0.0, "lon": -77.060213, "name": "efda12cba58bfa105202f42255682695"}, {"bike_id": "62ef2010415445a96e4cfbc49447d80d", "type": "electric_scooter", "is_disabled": 0, "lat": 38.902795, "rental_uris": {"ios": "https://dc.lft.to/lastmile_qr_scan", "android": "https://dc.lft.to/lastmile_qr_scan"}, "is_reserved": 0, "fusion_lon": 0.0, "fusion_lat": 0.0, "lon": -77.0386885, "name": "62ef2010415445a96e4cfbc49447d80d"}, {"bike_id": "346a7be73c2ecce0e3dc96669edac0f2", "type": "electric_scooter", "is_disabled": 0, "lat": 38.9026815, "rental_uris": {"ios": "https://dc.lft.to/lastmile_qr_scan", "android": "https://dc.lft.to/lastmile_qr_scan"}, "is_reserved": 0, "fusion_lon": 0.0, "fusion_lat": 0.0, "lon": -77.00322683333333, "name": "346a7be73c2ecce0e3dc96669edac0f2"}, {"bike_id": "7650bfb29458f1b78f745c46528f86d0", "type": "electric_scooter", "is_disabled": 0, "lat": 38.91117083333334, "rental_uris": {"ios": "https://dc.lft.to/lastmile_qr_scan", "android": "https://dc.lft.to/lastmile_qr_scan"}, "is_reserved": 0, "fusion_lon": 0.0, "fusion_lat": 0.0, "lon": -77.00538783333333, "name": "7650bfb29458f1b78f745c46528f86d0"}, {"bike_id": "671b0b2e19c70283e326bba724dfcd7d", "type": "electric_scooter", "is_disabled": 0, "lat": 38.9175585, "rental_uris": {"ios": "https://dc.lft.to/lastmile_qr_scan", "android": "https://dc.lft.to/lastmile_qr_scan"}, "is_reserved": 0, "fusion_lon": 0.0, "fusion_lat": 0.0, "lon": -77.02815183333334, "name": "671b0b2e19c70283e326bba724dfcd7d"}, {"bike_id": "478e7971396dbce0e7a658f4c98dc134", "type": "electric_scooter", "is_disabled": 0, "lat": 38.9308365, "rental_uris": {"ios": "https://dc.lft.to/lastmile_qr_scan", "android": "https://dc.lft.to/lastmile_qr_scan"}, "is_reserved": 0, "fusion_lon": 0.0, "fusion_lat": 0.0, "lon": -77.02805783333334, "name": "478e7971396dbce0e7a658f4c98dc134"}, {"bike_id": "826533073d9658cafc332c3360a020ca", "type": "electric_scooter", "is_disabled": 0, "lat": 38.907183833333335, "rental_uris": {"ios": "https://dc.lft.to/lastmile_qr_scan", "android": "https://dc.lft.to/lastmile_qr_scan"}, "is_reserved": 0, "fusion_lon": 0.0, "fusion_lat": 0.0, "lon": -77.02564283333334, "name": "826533073d9658cafc332c3360a020ca"}, {"bike_id": "38f837b1602182034f43591ba4ce119a", "type": "electric_scooter", "is_disabled": 0, "lat": 38.904960833333334, "rental_uris": {"ios": "https://dc.lft.to/lastmile_qr_scan", "android": "https://dc.lft.to/lastmile_qr_scan"}, "is_reserved": 0, "fusion_lon": 0.0, "fusion_lat": 0.0, "lon": -77.01982633333333, "name": "38f837b1602182034f43591ba4ce119a"}, {"bike_id": "1a848088bbdfc64d030a2d700c4694e4", "type": "electric_bike", "is_disabled": 0, "lat": 38.87883083333333, "rental_uris": {"ios": "https://dc.lft.to/lastmile_qr_scan", "android": "https://dc.lft.to/lastmile_qr_scan"}, "is_reserved": 0, "fusion_lon": 0.0, "fusion_lat": 0.0, "lon": -77.0961195, "name": "1a848088bbdfc64d030a2d700c4694e4"}, {"bike_id": "8a143130faf30f0ee5b9b8c4a9aebcff", "type": "electric_scooter", "is_disabled": 0, "lat": 38.919833, "rental_uris": {"ios": "https://dc.lft.to/lastmile_qr_scan", "android": "https://dc.lft.to/lastmile_qr_scan"}, "is_reserved": 0, "fusion_lon": 0.0, "fusion_lat": 0.0, "lon": -77.03266833333333, "name": "8a143130faf30f0ee5b9b8c4a9aebcff"}, {"bike_id": "b8bab549c0ef239b1a6d329e93f7d667", "type": "electric_scooter", "is_disabled": 0, "lat": 38.91102883333333, "rental_uris": {"ios": "https://dc.lft.to/lastmile_qr_scan", "android": "https://dc.lft.to/lastmile_qr_scan"}, "is_reserved": 0, "fusion_lon": 0.0, "fusion_lat": 0.0, "lon": -77.02720033333334, "name": "b8bab549c0ef239b1a6d329e93f7d667"}, {"bike_id": "65e3d45e533a2f2c3a480a8e9579a88a", "type": "electric_scooter", "is_disabled": 0, "lat": 38.93207066666667, "rental_uris": {"ios": "https://dc.lft.to/lastmile_qr_scan", "android": "https://dc.lft.to/lastmile_qr_scan"}, "is_reserved": 0, "fusion_lon": 0.0, "fusion_lat": 0.0, "lon": -77.03661333333334, "name": "65e3d45e533a2f2c3a480a8e9579a88a"}, {"bike_id": "16a38581247d9092ee5ef58ecfe53083", "type": "electric_scooter", "is_disabled": 0, "lat": 38.9208785, "rental_uris": {"ios": "https://dc.lft.to/lastmile_qr_scan", "android": "https://dc.lft.to/lastmile_qr_scan"}, "is_reserved": 0, "fusion_lon": 0.0, "fusion_lat": 0.0, "lon": -77.025371, "name": "16a38581247d9092ee5ef58ecfe53083"}, {"bike_id": "f71308ec6734e0aecf6ef2e8180e248e", "type": "electric_scooter", "is_disabled": 0, "lat": 38.901227666666664, "rental_uris": {"ios": "https://dc.lft.to/lastmile_qr_scan", "android": "https://dc.lft.to/lastmile_qr_scan"}, "is_reserved": 0, "fusion_lon": 0.0, "fusion_lat": 0.0, "lon": -77.04519533333334, "name": "f71308ec6734e0aecf6ef2e8180e248e"},