{"data": {"bikes": [{"lat": 38.921359333333335, "lon": -77.0184035, "is_disabled": 0, "fusion_lon": 0.0, "is_reserved": 0, "name": "49d14b70777e166095222b64b3005a63", "type": "electric_scooter", "bike_id": "49d14b70777e166095222b64b3005a63", "rental_uris": {"ios": "https://dc.lft.to/lastmile_qr_scan", "android": "https://dc.lft.to/lastmile_qr_scan"}, "fusion_lat": 0.0}, {"lat": 38.90137766666667, "lon": -77.013461, "is_disabled": 0, "fusion_lon": 0.0, "is_reserved": 0, "name": "4b422198b54d90f931a3f899880d477b", "type": "electric_scooter", "bike_id": "4b422198b54d90f931a3f899880d477b", "rental_uris": {"ios": "https://dc.lft.to/lastmile_qr_scan", "android": "https://dc.lft.to/lastmile_qr_scan"}, "fusion_lat": 0.0}, {"lat": 38.89884933333333, "lon": -76.931737, "is_disabled": 0, "fusion_lon": 0.0, "is_reserved": 0, "name": "03002f471cd32d2a33f4582fe003bb46", "type": "electric_scooter", "bike_id": "03002f471cd32d2a33f4582fe003bb46", "rental_uris": {"ios": "https://dc.lft.to/lastmile_qr_scan", "android": "https://dc.lft.to/lastmile_qr_scan"}, "fusion_lat": 0.0}, {"lat": 38.91403533333333, "lon": -77.02836816666667, "is_disabled": 0, "fusion_lon": 0.0, "is_reserved": 0, "name": "d748da0adb080fab2e52015b3cfc13d7", "type": "electric_scooter", "bike_id": "d748da0adb080fab2e52015b3cfc13d7", "rental_uris": {"ios": "https://dc.lft.to/lastmile_qr_scan", "android": "https://dc.lft.to/lastmile_qr_scan"}, "fusion_lat": 0.0}, {"lat": 38.9155045, "lon": -77.01018116666667, "is_disabled": 0, "fusion_lon": 0.0, "is_reserved": 0, "name": "6b258d6717eb933a184eccdc4e0f9b49", "type": "electric_scooter", "bike_id": "6b258d6717eb933a184eccdc4e0f9b49", "rental_uris": {"ios": "https://dc.lft.to/lastmile_qr_scan", "android": "https://dc.lft.to/lastmile_qr_scan"}, "fusion_lat": 0.0}, {"lat": 38.910594833333334, "lon": -77.052903, "is_disabled": 0, "fusion_lon": 0.0, "is_reserved": 0, "name": "15e52b55a268c648b79c61110a7a008a", "type": "electric_scooter", "bike_id": "15e52b55a268c648b79c61110a7a008a", "rental_uris": {"ios": "https://dc.lft.to/lastmile_qr_scan", "android": "https://dc.lft.to/lastmile_qr_scan"}, "fusion_lat": 0.0}, {"lat": 38.932768833333334, "lon": -76.98435766666667, "is_disabled": 0, "fusion_lon": 0.0, "is_reserved": 0, "name": "ff5eb819b20c11e224a1ef492cfe517c", "type": "electric_scooter", "bike_id": "ff5eb819b20c11e224a1ef492cfe517c", "rental_uris": {"ios": "https://dc.lft.to/lastmile_qr_scan", "android": "https://dc.lft.to/lastmile_qr_scan"}, "fusion_lat": 0.0}, {"lat": 38.89810116666666, "lon": -77.02231516666667, "is_disabled": 0, "fusion_lon": 0.0, "is_reserved": 0, "name": "b690e10fdcc56ad171cdc4283477b1ee", "type": "electric_scooter", "bike_id": "b690e10fdcc56ad171cdc4283477b1ee", "rental_uris": {"ios": "https://dc.lft.to/lastmile_qr_scan", "android": "https://dc.lft.to/lastmile_qr_scan"}, "fusion_lat": 0.0}, {"lat": 38.916210166666666, "lon": -77.031822, "is_disabled": 0, "fusion_lon": 0.0, "is_reserved": 0, "name": "69b3a3e3248c88e556003aae216d377c", "type": "electric_scooter", "bike_id": "69b3a3e3248c88e556003aae216d377c", "rental_uris": {"ios": "https://dc.lft.to/lastmile_qr_scan", "android": "https://dc.lft.to/lastmile_qr_scan"}, "fusion_lat": 0.0}, {"lat": 38.938791, "lon": -77.02483416666666, "is_disabled": 0, "fusion_lon": 0.0, "is_reserved": 0, "name": "d21f5ee2b66f58a583de261906e0413f", "type": "electric_scooter", "bike_id": "d21f5ee2b66f58a583de261906e0413f", "rental_uris": {"ios": "https://dc.lft.to/lastmile_qr_scan", "android": "https://dc.lft.to/lastmile_qr_scan"}, "fusion_lat": 0.0}, {"lat": 38.90282083333334, "lon": -77.0347185, "is_disabled": 0, "fusion_lon": 0.0, "is_reserved": 0, "name": "1bbd6f7ca37d398373cd56318d380bb4", "type": "electric_scooter", "bike_id": "1bbd6f7ca37d398373cd56318d380bb4", "rental_uris": {"ios": "https://dc.lft.to/lastmile_qr_scan", "android": "https://dc.lft.to/lastmile_qr_scan"}, "fusion_lat": 0.0}, {"lat": 38.899203166666666, "lon": -76.98527416666667, "is_disabled": 0, "fusion_lon": 0.0, "is_reserved": 0, "name": "005812e00fa398ab67c04f96d16eafe2", "type": "electric_scooter", "bike_id": "005812e00fa398ab67c04f96d16eafe2", "rental_uris": {"ios": "https://dc.lft.to/lastmile_qr_scan", "android": "https://dc.lft.to/lastmile_qr_scan"}, "fusion_lat": 0.0}, {"lat": 38.91983483333333, "lon": -77.023782, "is_disabled": 0, "fusion_lon": 0.0, "is_reserved": 0, "name": "8a0579c862bbb091deecd27c1564c056", "type": "electric_scooter", "bike_id": "8a0579c862bbb091deecd27c1564c056", "rental_uris": {"ios": "https://dc.lft.to/lastmile_qr_scan", "android": "https://dc.lft.to/lastmile_qr_scan"}, "fusion_lat": 0.0}, {"lat": 38.93081766666667, "lon": -76.9960945, "is_disabled": 0, "fusion_lon": 0.0, "is_reserved": 0, "name": "cad4017250deb8b30bf82626973c72be", "type": "electric_scooter", "bike_id": "cad4017250deb8b30bf82626973c72be", "rental_uris": {"ios": "https://dc.lft.to/lastmile_qr_scan", "android": "https://dc.lft.to/lastmile_qr_scan"}, "fusion_lat": 0.0}, {"lat": 38.927601, "lon": -77.052689, "is_disabled": 0, "fusion_lon": 0.0, "is_reserved": 0, "name": "49244cb1b4ff8fc5163be8ceec678cd2", "type": "electric_scooter", "bike_id": "49244cb1b4ff8fc5163be8ceec678cd2", "rental_uris": {"ios": "https://dc.lft.to/lastmile_qr_scan", "android": "https://dc.lft.to/lastmile_qr_scan"}, "fusion_lat": 0.0}, {"lat": 38.90852483333333, "lon": -77.04525633333333, "is_disabled": 0, "fusion_lon": 0.0, "is_reserved": 0, "name": "b6d6793d94f8dcb0885e2ed9d950929f", "type": "electric_scooter", "bike_id": "b6d6793d94f8dcb0885e2ed9d950929f", "rental_uris": {"ios": "https://dc.lft.to/lastmile_qr_scan", "android": "https://dc.lft.to/lastmile_qr_scan"}, "fusion_lat": 0.0}, {"lat": 38.900138, "lon": -77.039217, "is_disabled": 0, "fusion_lon": 0.0, "is_reserved": 0, "name": "6675273dfb37433566efed8d4f00466b", "type": "electric_scooter", "bike_id": "6675273dfb37433566efed8d4f00466b", "rental_uris": {"ios": "https://dc.lft.to/lastmile_qr_scan", "android": "https://dc.lft.to/lastmile_qr_scan"}, "fusion_lat": 0.0}, {"lat": 38.904064, "lon": -76.97332883333333, "is_disabled": 0, "fusion_lon": 0.0, "is_reserved": 0, "name": "55ad3be35f4a7b1cfccfd7552fe1cd58", "type": "electric_scooter", "bike_id": "55ad3be35f4a7b1cfccfd7552fe1cd58", "rental_uris": {"ios": "https://dc.lft.to/lastmile_qr_scan", "android": "https://dc.lft.to/lastmile_qr_scan"}, "fusion_lat": 0.0}, {"lat": 38.89725333333333, "lon": -77.03342616666667, "is_disabled": 0, "fusion_lon": 0.0, "is_reserved": 0, "name": "2debe1dc46240f2324ae78cdd859fd90", "type": "electric_scooter", "bike_id": "2debe1dc46240f2324ae78cdd859fd90", "rental_uris": {"ios": "https://dc.lft.to/lastmile_qr_scan", "android": "https://dc.lft.to/lastmile_qr_scan"}, "fusion_lat": 0.0}, {"lat": 38.9215035, "lon": -77.02517916666666, "is_disabled": 0, "fusion_lon": 0.0, "is_reserved": 0, "name": "abfa71b1419cf2ff9d42b10e3311960e", "type": "electric_scooter", "bike_id": "abfa71b1419cf2ff9d42b10e3311960e", "rental_uris": {"ios": "https://dc.lft.to/lastmile_qr_scan", "android": "https://dc.lft.to/lastmile_qr_scan"}, "fusion_lat": 0.0}, {"lat": 38.90940716666667, "lon": -77.03053366666667, "is_disabled": 0, "fusion_lon": 0.0, "is_reserved": 0, "name": "e8b7ba0595c3be4a9eeb82409ebaa931", "type": "electric_scooter", "bike_id": "e8b7ba0595c3be4a9eeb82409ebaa931", "rental_uris": {"ios": "https://dc.lft.to/lastmile_qr_scan", "android": "https://dc.lft.to/lastmile_qr_scan"}, "fusion_lat": 0.0}, {"lat": 38.923379, "lon": -77.05673866666666, "is_disabled": 0, "fusion_lon": 0.0, "is_reserved": 0, "name": "b761cef379841a26b502df2c3e138b74", "type": "electric_scooter", "bike_id": "b761cef379841a26b502df2c3e138b74", "rental_uris": {"ios": "https://dc.lft.to/lastmile_qr_scan", "android": "https://dc.lft.to/lastmile_qr_scan"}, "fusion_lat": 0.0}, {"lat": 38.932886333333336, "lon": -77.02835566666667, "is_disabled": 0, "fusion_lon": 0.0, "is_reserved": 0, "name": "4334c402b4c1006fcb86c0d89ad8e97a", "type": "electric_scooter", "bike_id": "4334c402b4c1006fcb86c0d89ad8e97a", "rental_uris": {"ios": "https://dc.lft.to/lastmile_qr_scan", "android": "https://dc.lft.to/lastmile_qr_scan"}, "fusion_lat": 0.0}, {"lat": 38.9244925, "lon": -77.02246183333334, "is_disabled": 0, "fusion_lon": 0.0, "is_reserved": 0, "name": "1d17e884e6c140f03a5fcf170756c143", "type": "electric_scooter", "bike_id": "1d17e884e6c140f03a5fcf170756c143", "rental_uris": {"ios": "https://dc.lft.to/lastmile_qr_scan", "android": "https://dc.lft.to/lastmile_qr_scan"}, "fusion_lat": 0.0}, {"lat": 38.92287816666666, "lon": -77.031962, "is_disabled": 0, "fusion_lon": 0.0, "is_reserved": 0, "name": "8f41382584ce33d9730fbb202747d7f1", "type": "electric_scooter", "bike_id": "8f41382584ce33d9730fbb202747d7f1", "rental_uris": {"ios": "https://dc.lft.to/lastmile_qr_scan", "android": "https://dc.lft.to/lastmile_qr_scan"}, "fusion_lat": 0.0}, {"lat": 38.920019, "lon": -77.03227983333333, "is_disabled": 0, "fusion_lon": 0.0, "is_reserved": 0, "name": "7ff3ac4926f3da09a3f49417b57e474f", "type": "electric_scooter", "bike_id": "7ff3ac4926f3da09a3f49417b57e474f", "rental_uris": {"ios": "https://dc.lft.to/lastmile_qr_scan", "android": "https://dc.lft.to/lastmile_qr_scan"}, "fusion_lat": 0.0}, {"lat": 38.84343966666667, "lon": -76.9991385, "is_disabled": 0, "fusion_lon": 0.0, "is_reserved": 0, "name": "cc4a489006bd49f5c4b21036eccb6fc2", "type": "electric_scooter", "bike_id": "cc4a489006bd49f5c4b21036eccb6fc2", "rental_uris": {"ios": "https://dc.lft.to/lastmile_qr_scan", "android": "https://dc.lft.to/lastmile_qr_scan"}, "fusion_lat": 0.0}, {"lat": 38.883413, "lon": -76.93500716666667, "is_disabled": 0, "fusion_lon": 0.0, "is_reserved": 0, "name": "df7fc0358872a008701f01408bc2e163", "type": "electric_scooter", "bike_id": "df7fc0358872a008701f01408bc2e163", "rental_uris": {"ios": "https://dc.lft.to/lastmile_qr_scan", "android": "https://dc.lft.to/lastmile_qr_scan"}, "fusion_lat": 0.0}, {"lat": 38.90668083333333, "lon": -77.03755116666666, "is_disabled": 0, "fusion_lon": 0.0, "is_reserved": 0, "name": "152c0b2779c5b3bdb9fd8859818d7aee", "type": "electric_scooter", "bike_id": "152c0b2779c5b3bdb9fd8859818d7aee", "rental_uris": {"ios": "https://dc.lft.to/lastmile_qr_scan", "android": "https://dc.lft.to/lastmile_qr_scan"}, "fusion_lat": 0.0}, {"lat": 38.89917883333333, "lon": -77.0337765, "is_disabled": 0, "fusion_lon": 0.0, "is_reserved": 0, "name": "dfd495441dcaae81d57342a22cab458b", "type": "electric_scooter", "bike_id": "dfd495441dcaae81d57342a22cab458b", "rental_uris": {"ios": "https://dc.lft.to/lastmile_qr_scan", "android": "https://dc.lft.to/lastmile_qr_scan"}, "fusion_lat": 0.0}, {"lat": 38.92785716666667, "lon": -77.02709116666666, "is_disabled": 0, "fusion_lon": 0.0, "is_reserved": 0, "name": "390bf9dbe47dff7e9b10f7f444959ea4", "type": "electric_scooter", "bike_id": "390bf9dbe47dff7e9b10f7f444959ea4", "rental_uris": {"ios": "https://dc.lft.to/lastmile_qr_scan", "android": "https://dc.lft.to/lastmile_qr_scan"}, "fusion_lat": 0.0}, {"lat": 38.90592616666667, "lon": -77.03980866666667, "is_disabled": 0, "fusion_lon": 0.0, "is_reserved": 0, "name": "800242c39cbbce763d6036e14f428d1b", "type": "electric_scooter", "bike_id": "800242c39cbbce763d6036e14f428d1b", "rental_uris": {"ios": "https://dc.lft.to/lastmile_qr_scan", "android": "https://dc.lft.to/lastmile_qr_scan"}, "fusion_lat": 0.0}, {"lat": 38.8924735, "lon": -76.9884515, "is_disabled": 0, "fusion_lon": 0.0, "is_reserved": 0, "name": "3b2b51240719c67acf103bd812f9e716", "type": "electric_scooter", "bike_id": "3b2b51240719c67acf103bd812f9e716", "rental_uris": {"ios": "https://dc.lft.to/lastmile_qr_scan", "android": "https://dc.lft.to/lastmile_qr_scan"}, "fusion_lat": 0.0}, {"lat": 38.83966316666667, "lon": -76.97733716666667, "is_disabled": 0, "fusion_lon": 0.0, "is_reserved": 0, "name": "32896522ccdee138d0815d6c9c0e5fe1", "type": "electric_bike", "bike_id": "32896522ccdee138d0815d6c9c0e5fe1", "rental_uris": {"ios": "https://dc.lft.to/lastmile_qr_scan", "android": "https://dc.lft.to/lastmile_qr_scan"}, "fusion_lat": 0.0}, {"lat": 39.00484083333333, "lon": -77.02188816666667, "is_disabled": 0, "fusion_lon": 0.0, "is_reserved": 0, "name": "3ba63042fd4552bca1669972fcf25b45", "type": "electric_bike", "bike_id": "3ba63042fd4552bca1669972fcf25b45", "rental_uris": {"ios": "https://dc.lft.to/lastmile_qr_scan", "android": "https://dc.lft.to/lastmile_qr_scan"}, "fusion_lat": 0.0}, {"lat": 38.91795116666667, "lon": -77.0401415, "is_disabled": 0, "fusion_lon": 0.0, "is_reserved": 0, "name": "1f5f5fc4e41dc384d563f95ec7af9856", "type": "electric_scooter", "bike_id": "1f5f5fc4e41dc384d563f95ec7af9856", "rental_uris": {"ios": "https://dc.lft.to/lastmile_qr_scan", "android": "https://dc.lft.to/lastmile_qr_scan"}, "fusion_lat": 0.0}, {"lat": 38.8953265, "lon": -77.04650066666666, "is_disabled": 0, "fusion_lon": 0.0, "is_reserved": 0, "name": "1b93276952df260a81f2ea6265275384", "type": "electric_scooter", "bike_id": "1b93276952df260a81f2ea6265275384", "rental_uris": {"ios": "https://dc.lft.to/lastmile_qr_scan", "android": "https://dc.lft.to/lastmile_qr_scan"}, "fusion_lat": 0.0}, {"lat": 38.927366166666665, "lon": -76.99560083333333, "is_disabled": 0, "fusion_lon": 0.0, "is_reserved": 0, "name": "bffbdc2e0594cece14ea465bc1f7064d", "type": "electric_scooter", "bike_id": "bffbdc2e0594cece14ea465bc1f7064d", "rental_uris": {"ios": "https://dc.lft.to/lastmile_qr_scan", "android": "https://dc.lft.to/lastmile_qr_scan"}, "fusion_lat": 0.0}, {"lat": 38.9102185, "lon": -77.02935083333334, "is_disabled": 0, "fusion_lon": 0.0, "is_reserved": 0, "name": "1f2f6dc8a6c16b211d7b9068477ad5a4", "type": "electric_scooter", "bike_id": "1f2f6dc8a6c16b211d7b9068477ad5a4", "rental_uris": {"ios": "https://dc.lft.to/lastmile_qr_scan", "android": "https://dc.lft.to/lastmile_qr_scan"}, "fusion_lat": 0.0}, {"lat": 38.90174283333333, "lon": -77.01615066666666, "is_disabled": 0, "fusion_lon": 0.0, "is_reserved": 0, "name": "5344a5dfe2681290ecbe9e391340b81d", "type": "electric_scooter", "bike_id": "5344a5dfe2681290ecbe9e391340b81d", "rental_uris": {"ios": "https://dc.lft.to/lastmile_qr_scan", "android": "https://dc.lft.to/lastmile_qr_scan"}, "fusion_lat": 0.0}, {"lat": 38.91085116666667, "lon": -77.04480433333333, "is_disabled": 0, "fusion_lon": 0.0, "is_reserved": 0, "name": "66874c2e2e4a436374a718e48c23ce48", "type": "electric_scooter", "bike_id": "66874c2e2e4a436374a718e48c23ce48", "rental_uris": {"ios": "https://dc.lft.to/lastmile_qr_scan", "android": "https://dc.lft.to/lastmile_qr_scan"}, "fusion_lat": 0.0}, {"lat": 38.90526216666667, "lon": -77.04850833333333, "is_disabled": 0, "fusion_lon": 0.0, "is_reserved": 0, "name": "339901e583086032e4d910a1b62d4a01", "type": "electric_scooter", "bike_id": "339901e583086032e4d910a1b62d4a01", "rental_uris": {"ios": "https://dc.lft.to/lastmile_qr_scan", "android": "https://dc.lft.to/lastmile_qr_scan"}, "fusion_lat": 0.0}, {"lat": 38.903623, "lon": -77.03911633333334, "is_disabled": 0, "fusion_lon": 0.0, "is_reserved": 0, "name": "a7fc18f8b00e0788a24c30097add8b19", "type": "electric_scooter", "bike_id": "a7fc18f8b00e0788a24c30097add8b19", "rental_uris": {"ios": "https://dc.lft.to/lastmile_qr_scan", "android": "https://dc.lft.to/lastmile_qr_scan"}, "fusion_lat": 0.0}, {"lat": 38.87094916666667, "lon": -76.9420345, "is_disabled": 0, "fusion_lon": 0.0, "is_reserved": 0, "name": "1194b6bc4b41625b58d0d3190d797acb", "type": "electric_scooter", "bike_id": "1194b6bc4b41625b58d0d3190d797acb", "rental_uris": {"ios": "https://dc.lft.to/lastmile_qr_scan", "android": "https://dc.lft.to/lastmile_qr_scan"}, "fusion_lat": 0.0}, {"lat": 38.90651533333333, "lon": -77.03798516666667, "is_disabled": 0, "fusion_lon": 0.0, "is_reserved": 0, "name": "b35ca9ddae21aebc1562f0d244d446ea", "type": "electric_scooter", "bike_id": "b35ca9ddae21aebc1562f0d244d446ea", "rental_uris": {"ios": "https://dc.lft.to/lastmile_qr_scan", "android": "https://dc.lft.to/lastmile_qr_scan"}, "fusion_lat": 0.0}, {"lat": 38.903271333333336, "lon": -77.04651283333334, "is_disabled": 0, "fusion_lon": 0.0, "is_reserved": 0, "name": "97031d7b4ea24d6558c29383bfd4c0ad", "type": "electric_scooter", "bike_id": "97031d7b4ea24d6558c29383bfd4c0ad", "rental_uris": {"ios": "https://dc.lft.to/lastmile_qr_scan", "android": "https://dc.lft.to/lastmile_qr_scan"}, "fusion_lat": 0.0}, {"lat": 38.89825033333334, "lon": -77.0467935, "is_disabled": 0, "fusion_lon": 0.0, "is_reserved": 0, "name": "bd38a4b500d2957c5a9310f16b8e1c38", "type": "electric_bike", "bike_id": "bd38a4b500d2957c5a9310f16b8e1c38", "rental_uris": {"ios": "https://dc.lft.to/lastmile_qr_scan", "android": "https://dc.lft.to/lastmile_qr_scan"}, "fusion_lat": 0.0}, {"lat": 38.90369583333333, "lon": -77.03816683333334, "is_disabled": 0, "fusion_lon": 0.0, "is_reserved": 0, "name": "a82c2e2bcd28eb4ba52d295cbb95152c", "type": "electric_scooter", "bike_id": "a82c2e2bcd28eb4ba52d295cbb95152c", "rental_uris": {"ios": "https://dc.lft.to/lastmile_qr_scan", "android": "https://dc.lft.to/lastmile_qr_scan"}, "fusion_lat": 0.0}, {"lat": 38.9304845, "lon": -77.032626, "is_disabled": 0, "fusion_lon": 0.0, "is_reserved": 0, "name": "fa586614c15175f09490118f1ce4d5e3", "type": "electric_scooter", "bike_id": "fa586614c15175f09490118f1ce4d5e3", "rental_uris": {"ios": "https://dc.lft.to/lastmile_qr_scan", "android": "https://dc.lft.to/lastmile_qr_scan"}, "fusion_lat": 0.0}, {"lat": 38.89898683333333, "lon": -77.04866983333334, "is_disabled": 0, "fusion_lon": 0.0, "is_reserved": 0, "name": "a44c91850f0d2f7c72c7c02de1952f3d", "type": "electric_bike", "bike_id": "a44c91850f0d2f7c72c7c02de1952f3d", "rental_uris": {"ios": "https://dc.lft.to/lastmile_qr_scan", "android": "https://dc.lft.to/lastmile_qr_scan"}, "fusion_lat": 0.0}, {"lat": 38.927701, "lon": -77.0206705, "is_disabled": 0, "fusion_lon": 0.0, "is_reserved": 0, "name": "d9311aad13fec6cd8342e11503d7a0a2", "type": "electric_scooter", "bike_id": "d9311aad13fec6cd8342e11503d7a0a2", "rental_uris": {"ios": "https://dc.lft.to/lastmile_qr_scan", "android": "https://dc.lft.to/lastmile_qr_scan"}, "fusion_lat": 0.0}, {"lat": 38.92141483333333, "lon": -77.03506483333334, "is_disabled": 0, "fusion_lon": 0.0, "is_reserved": 0, "name": "608105be4fdd5046b5ca99605ad3963a", "type": "electric_scooter", "bike_id": "608105be4fdd5046b5ca99605ad3963a", "rental_uris": {"ios": "https://dc.lft.to/lastmile_qr_scan", "android": "https://dc.lft.to/lastmile_qr_scan"}, "fusion_lat": 0.0}, {"lat": 39.036062333333334, "lon": -77.05546533333333, "is_disabled": 0, "fusion_lon": 0.0, "is_reserved": 0, "name": "54cff19effeb6459a10e432be9e065e7", "type": "electric_bike", "bike_id": "54cff19effeb6459a10e432be9e065e7", "rental_uris": {"ios": "https://dc.lft.to/lastmile_qr_scan", "android": "https://dc.lft.to/lastmile_qr_scan"}, "fusion_lat": 0.0}, {"lat": 38.92601883333333, "lon": -77.02155433333333, "is_disabled": 0, "fusion_lon": 0.0, "is_reserved": 0, "name": "f253522a9174bf2726d543984ac36c55", "type": "electric_scooter", "bike_id": "f253522a9174bf2726d543984ac36c55", "rental_uris": {"ios": "https://dc.lft.to/lastmile_qr_scan", "android": "https://dc.lft.to/lastmile_qr_scan"}, "fusion_lat": 0.0}, {"lat": 38.91703916666667, "lon": -77.00712016666667, "is_disabled": 0, "fusion_lon": 0.0, "is_reserved": 0, "name": "befc4ff769464ac3c07ff40f82f367e1", "type": "electric_scooter", "bike_id": "befc4ff769464ac3c07ff40f82f367e1", "rental_uris": {"ios": "https://dc.lft.to/lastmile_qr_scan", "android": "https://dc.lft.to/lastmile_qr_scan"}, "fusion_lat": 0.0}, {"lat": 38.933995333333336, "lon": -77.03987283333333, "is_disabled": 0, "fusion_lon": 0.0, "is_reserved": 0, "name": "be8e3365da397e78111c6496042d807f", "type": "electric_scooter", "bike_id": "be8e3365da397e78111c6496042d807f", "rental_uris": {"ios": "https://dc.lft.to/lastmile_qr_scan", "android": "https://dc.lft.to/lastmile_qr_scan"}, "fusion_lat": 0.0}, {"lat": 38.89851516666667, "lon": -77.03948383333334, "is_disabled": 0, "fusion_lon": 0.0, "is_reserved": 0, "name": "1335202d415000526c33c7adf6a0bd47", "type": "electric_scooter", "bike_id": "1335202d415000526c33c7adf6a0bd47", "rental_uris": {"ios": "https://dc.lft.to/lastmile_qr_scan", "android": "https://dc.lft.to/lastmile_qr_scan"}, "fusion_lat": 0.0}, {"lat": 38.9066505, "lon": -77.02707766666667, "is_disabled": 0, "fusion_lon": 0.0, "is_reserved": 0, "name": "dd96497de487fd92c953488ccdb833ee", "type": "electric_scooter", "bike_id": "dd96497de487fd92c953488ccdb833ee", "rental_uris": {"ios": "https://dc.lft.to/lastmile_qr_scan", "android": "https://dc.lft.to/lastmile_qr_scan"}, "fusion_lat": 0.0}, {"lat": 38.945647, "lon": -77.0796035, "is_disabled": 0, "fusion_lon": 0.0, "is_reserved": 0, "name": "c4737acde4f36f26e86547b3a66af30b", "type": "electric_scooter", "bike_id": "c4737acde4f36f26e86547b3a66af30b", "rental_uris": {"ios": "https://dc.lft.to/lastmile_qr_scan", "android": "https://dc.lft.to/lastmile_qr_scan"}, "fusion_lat": 0.0}, {"lat": 38.9122275, "lon": -77.0269595, "is_disabled": 0, "fusion_lon": 0.0, "is_reserved": 0, "name": "03cc2c5ee798aec29f992d32104825a2", "type": "electric_scooter", "bike_id": "03cc2c5ee798aec29f992d32104825a2", "rental_uris": {"ios": "https://dc.lft.to/lastmile_qr_scan", "android": "https://dc.lft.to/lastmile_qr_scan"}, "fusion_lat": 0.0}, {"lat": 38.9102645, "lon": -77.04260033333334, "is_disabled": 0, "fusion_lon": 0.0, "is_reserved": 0, "name": "358782b84b36e7db9b0c1c80663769a0", "type": "electric_scooter", "bike_id": "358782b84b36e7db9b0c1c80663769a0", "rental_uris": {"ios": "https://dc.lft.to/lastmile_qr_scan", "android": "https://dc.lft.to/lastmile_qr_scan"}, "fusion_lat": 0.0}, {"lat": 38.878102, "lon": -77.0173155, "is_disabled": 0, "fusion_lon": 0.0, "is_reserved": 0, "name": "172ad4c5f05c87b64dc6e331ad2935eb", "type": "electric_scooter", "bike_id": "172ad4c5f05c87b64dc6e331ad2935eb", "rental_uris": {"ios": "https://dc.lft.to/lastmile_qr_scan", "android": "https://dc.lft.to/lastmile_qr_scan"}, "fusion_lat": 0.0}, {"lat": 38.901981166666666, "lon": -77.02375566666667, "is_disabled": 0, "fusion_lon": 0.0, "is_reserved": 0, "name": "9612b066c960f648902f2a4b7ff14b71", "type": "electric_scooter", "bike_id": "9612b066c960f648902f2a4b7ff14b71", "rental_uris": {"ios": "https://dc.lft.to/lastmile_qr_scan", "android": "https://dc.lft.to/lastmile_qr_scan"}, "fusion_lat": 0.0}, {"lat": 38.927195166666664, "lon": -77.02779016666666, "is_disabled": 0, "fusion_lon": 0.0, "is_reserved": 0, "name": "3e5696fdc0d52da2ba742352ccc11c51", "type": "electric_scooter", "bike_id": "3e5696fdc0d52da2ba742352ccc11c51", "rental_uris": {"ios": "https://dc.lft.to/lastmile_qr_scan", "android": "https://dc.lft.to/lastmile_qr_scan"}, "fusion_lat": 0.0}, {"lat": 38.87237916666667, "lon": -77.008858, "is_disabled": 0, "fusion_lon": 0.0, "is_reserved": 0, "name": "fcca12b3705f84667a6614a53ea91ebe", "type": "electric_bike", "bike_id": "fcca12b3705f84667a6614a53ea91ebe", "rental_uris": {"ios": "https://dc.lft.to/lastmile_qr_scan", "android": "https://dc.lft.to/lastmile_qr_scan"}, "fusion_lat": 0.0}, {"lat": 38.89010433333333, "lon": -76.93736983333334, "is_disabled": 0, "fusion_lon": 0.0, "is_reserved": 0, "name": "ef070f5e6726fb6c3412184a962d64ac", "type": "electric_scooter", "bike_id": "ef070f5e6726fb6c3412184a962d64ac", "rental_uris": {"ios": "https://dc.lft.to/lastmile_qr_scan", "android": "https://dc.lft.to/lastmile_qr_scan"}, "fusion_lat": 0.0}, {"lat": 38.8938335, "lon": -77.046706, "is_disabled": 0, "fusion_lon": 0.0, "is_reserved": 0, "name": "4fdcc74d96e3d3423cc088dfd3fd48c4", "type": "electric_scooter", "bike_id": "4fdcc74d96e3d3423cc088dfd3fd48c4", "rental_uris": {"ios": "https://dc.lft.to/lastmile_qr_scan", "android": "https://dc.lft.to/lastmile_qr_scan"}, "fusion_lat": 0.0}, {"lat": 38.944303833333336, "lon": -77.06322083333333, "is_disabled": 0, "fusion_lon": 0.0, "is_reserved": 0, "name": "d8a360d9d162a324cad4d2f6794f3981", "type": "electric_scooter", "bike_id": "d8a360d9d162a324cad4d2f6794f3981", "rental_uris": {"ios": "https://dc.lft.to/lastmile_qr_scan", "android": "https://dc.lft.to/lastmile_qr_scan"}, "fusion_lat": 0.0}, {"lat": 38.92482433333333, "lon": -77.2334275, "is_disabled": 0, "fusion_lon": 0.0, "is_reserved": 0, "name": "e7cb31be3c37cb6d0c08f8c2b01f409a", "type": "electric_bike", "bike_id": "e7cb31be3c37cb6d0c08f8c2b01f409a", "rental_uris": {"ios": "https://dc.lft.to/lastmile_qr_scan", "android": "https://dc.lft.to/lastmile_qr_scan"}, "fusion_lat": 0.0}, {"lat": 38.8921815, "lon": -77.04361783333333, "is_disabled": 0, "fusion_lon": 0.0, "is_reserved": 0, "name": "720dfe387291f70727f8f654e1201d0d", "type": "electric_scooter", "bike_id": "720dfe387291f70727f8f654e1201d0d", "rental_uris": {"ios": "https://dc.lft.to/lastmile_qr_scan", "android": "https://dc.lft.to/lastmile_qr_scan"}, "fusion_lat": 0.0}, {"lat": 38.8903945, "lon": -76.9376455, "is_disabled": 0, "fusion_lon": 0.0, "is_reserved": 0, "name": "0dd347da9c8df63c31744895e3451914", "type": "electric_scooter", "bike_id": "0dd347da9c8df63c31744895e3451914", "rental_uris": {"ios": "https://dc.lft.to/lastmile_qr_scan", "android": "https://dc.lft.to/lastmile_qr_scan"}, "fusion_lat": 0.0}, {"lat": 38.93606716666667, "lon": -77.03179616666667, "is_disabled": 0, "fusion_lon": 0.0, "is_reserved": 0, "name": "98948f9d14aa96508d2a0fdc9fec0741", "type": "electric_scooter", "bike_id": "98948f9d14aa96508d2a0fdc9fec0741", "rental_uris": {"ios": "https://dc.lft.to/lastmile_qr_scan", "android": "https://dc.lft.to/lastmile_qr_scan"}, "fusion_lat": 0.0}, {"lat": 38.92765166666667, "lon": -76.97347183333333, "is_disabled": 0, "fusion_lon": 0.0, "is_reserved": 0, "name": "e7509c8cc9d532e68198e0928c3b03cc", "type": "electric_scooter", "bike_id": "e7509c8cc9d532e68198e0928c3b03cc", "rental_uris": {"ios": "https://dc.lft.to/lastmile_qr_scan", "android": "https://dc.lft.to/lastmile_qr_scan"}, "fusion_lat": 0.0}, {"lat": 38.915984333333334, "lon": -77.03198033333334, "is_disabled": 0, "fusion_lon": 0.0, "is_reserved": 0, "name": "8e023974f47bf3f5d22543eb86c28b97", "type": "electric_scooter", "bike_id": "8e023974f47bf3f5d22543eb86c28b97", "rental_uris": {"ios": "https://dc.lft.to/lastmile_qr_scan", "android": "https://dc.lft.to/lastmile_qr_scan"}, "fusion_lat": 0.0}, {"lat": 38.94189383333333, "lon": -77.04110833333333, "is_disabled": 0, "fusion_lon": 0.0, "is_reserved": 0, "name": "44318e0ab9cab3d326706eecac12dde5", "type": "electric_scooter", "bike_id": "44318e0ab9cab3d326706eecac12dde5", "rental_uris": {"ios": "https://dc.lft.to/lastmile_qr_scan", "android": "https://dc.lft.to/lastmile_qr_scan"}, "fusion_lat": 0.0}, {"lat": 38.900776666666665, "lon": -77.02308083333334, "is_disabled": 0, "fusion_lon": 0.0, "is_reserved": 0, "name": "50e733e40677f43d6b7041adc2e5b965", "type": "electric_scooter", "bike_id": "50e733e40677f43d6b7041adc2e5b965", "rental_uris": {"ios": "https://dc.lft.to/lastmile_qr_scan", "android": "https://dc.lft.to/lastmile_qr_scan"}, "fusion_lat": 0.0}, {"lat": 38.9803895, "lon": -76.95788683333333, "is_disabled": 0, "fusion_lon": 0.0, "is_reserved": 0, "name": "44f3d6c63a3e0f2a8f05f8b7cc41b875", "type": "electric_bike", "bike_id": "44f3d6c63a3e0f2a8f05f8b7cc41b875", "rental_uris": {"ios": "https://dc.lft.to/lastmile_qr_scan", "android": "https://dc.lft.to/lastmile_qr_scan"}, "fusion_lat": 0.0}, {"lat": 38.91003383333333, "lon": -77.04007033333333, "is_disabled": 0, "fusion_lon": 0.0, "is_reserved": 0, "name": "d4478f879e1a2fd1929a0d4c03ac9df5", "type": "electric_scooter", "bike_id": "d4478f879e1a2fd1929a0d4c03ac9df5", "rental_uris": {"ios": "https://dc.lft.to/lastmile_qr_scan", "android": "https://dc.lft.to/lastmile_qr_scan"}, "fusion_lat": 0.0}, {"lat": 38.961469, "lon": -77.02783833333334, "is_disabled": 0, "fusion_lon": 0.0, "is_reserved": 0, "name": "6c1a9af02ee1a7c63a02aac900baff07", "type": "electric_scooter", "bike_id": "6c1a9af02ee1a7c63a02aac900baff07", "rental_uris": {"ios": "https://dc.lft.to/lastmile_qr_scan", "android": "https://dc.lft.to/lastmile_qr_scan"}, "fusion_lat": 0.0}, {"lat": 38.938782333333336, "lon": -77.02489266666667, "is_disabled": 0, "fusion_lon": 0.0, "is_reserved": 0, "name": "3f097e686ad78044d430161f98ecd8cd", "type": "electric_scooter", "bike_id": "3f097e686ad78044d430161f98ecd8cd", "rental_uris": {"ios": "https://dc.lft.to/lastmile_qr_scan", "android": "https://dc.lft.to/lastmile_qr_scan"}, "fusion_lat": 0.0}, {"lat": 38.89630433333333, "lon": -77.029396, "is_disabled": 0, "fusion_lon": 0.0, "is_reserved": 0, "name": "82db470524a66bda9dc6f01a940db939", "type": "electric_scooter", "bike_id": "82db470524a66bda9dc6f01a940db939", "rental_uris": {"ios": "https://dc.lft.to/lastmile_qr_scan", "android": "https://dc.lft.to/lastmile_qr_scan"}, "fusion_lat": 0.0}, {"lat": 38.8765505, "lon": -77.00067916666667, "is_disabled": 0, "fusion_lon": 0.0, "is_reserved": 0, "name": "511e4db964247166d2543f128d33d878", "type": "electric_scooter", "bike_id": "511e4db964247166d2543f128d33d878", "rental_uris": {"ios": "https://dc.lft.to/lastmile_qr_scan", "android": "https://dc.lft.to/lastmile_qr_scan"}, "fusion_lat": 0.0}, {"lat": 38.93450383333333, "lon": -77.02913616666666, "is_disabled": 0, "fusion_lon": 0.0, "is_reserved": 0, "name": "6d8cb9d557bf328a95f3b7ecd93dada9", "type": "electric_scooter", "bike_id": "6d8cb9d557bf328a95f3b7ecd93dada9", "rental_uris": {"ios": "https://dc.lft.to/lastmile_qr_scan", "android": "https://dc.lft.to/lastmile_qr_scan"}, "fusion_lat": 0.0}, {"lat": 38.900668333333336, "lon": -77.02613516666666, "is_disabled": 0, "fusion_lon": 0.0, "is_reserved": 0, "name": "f44a1afe93d03dfea75854b5c01d8930", "type": "electric_scooter", "bike_id": "f44a1afe93d03dfea75854b5c01d8930", "rental_uris": {"ios": "https://dc.lft.to/lastmile_qr_scan", "android": "https://dc.lft.to/lastmile_qr_scan"}, "fusion_lat": 0.0}, {"lat": 38.924971, "lon": -77.02405433333334, "is_disabled": 0, "fusion_lon": 0.0, "is_reserved": 0, "name": "cd569e9f305e2aa3d00d67990fd58f21", "type": "electric_scooter", "bike_id": "cd569e9f305e2aa3d00d67990fd58f21", "rental_uris": {"ios": "https://dc.lft.to/lastmile_qr_scan", "android": "https://dc.lft.to/lastmile_qr_scan"}, "fusion_lat": 0.0}, {"lat": 38.8970445, "lon": -76.935767, "is_disabled": 0, "fusion_lon": 0.0, "is_reserved": 0, "name": "13aea22854e0e3cfc4a7fb4646ce9ef1", "type": "electric_scooter", "bike_id": "13aea22854e0e3cfc4a7fb4646ce9ef1", "rental_uris": {"ios": "https://dc.lft.to/lastmile_qr_scan", "android": "https://dc.lft.to/lastmile_qr_scan"}, "fusion_lat": 0.0}, {"lat": 38.89926833333333, "lon": -77.01275066666666, "is_disabled": 0, "fusion_lon": 0.0, "is_reserved": 0, "name": "9ac946eb01b22e0abbdf915dd0af482e", "type": "electric_scooter", "bike_id": "9ac946eb01b22e0abbdf915dd0af482e", "rental_uris": {"ios": "https://dc.lft.to/lastmile_qr_scan", "android": "https://dc.lft.to/lastmile_qr_scan"}, "fusion_lat": 0.0}, {"lat": 38.92716766666667, "lon": -77.02072333333334, "is_disabled": 0, "fusion_lon": 0.0, "is_reserved": 0, "name": "4b4e54794d6be873401025c043cc1c01", "type": "electric_scooter", "bike_id": "4b4e54794d6be873401025c043cc1c01", "rental_uris": {"ios": "https://dc.lft.to/lastmile_qr_scan", "android": "https://dc.lft.to/lastmile_qr_scan"}, "fusion_lat": 0.0}, {"lat": 38.9005575, "lon": -77.02415666666667, "is_disabled": 0, "fusion_lon": 0.0, "is_reserved": 0, "name": "8e09d27d826183c7ed3a0b493482bffb", "type": "electric_scooter", "bike_id": "8e09d27d826183c7ed3a0b493482bffb", "rental_uris": {"ios": "https://dc.lft.to/lastmile_qr_scan", "android": "https://dc.lft.to/lastmile_qr_scan"}, "fusion_lat": 0.0}, {"lat": 38.922297666666665, "lon": -77.02828716666667, "is_disabled": 0, "fusion_lon": 0.0, "is_reserved": 0, "name": "51f9b0c18367079d5d0db329bf4a4c30", "type": "electric_scooter", "bike_id": "51f9b0c18367079d5d0db329bf4a4c30", "rental_uris": {"ios": "https://dc.lft.to/lastmile_qr_scan", "android": "https://dc.lft.to/lastmile_qr_scan"}, "fusion_lat": 0.0}, {"lat": 38.9071395, "lon": -77.04347083333333, "is_disabled": 0, "fusion_lon": 0.0, "is_reserved": 0, "name": "b8831c2c3d5173366711abefd58fd0b7", "type": "electric_scooter", "bike_id": "b8831c2c3d5173366711abefd58fd0b7", "rental_uris": {"ios": "https://dc.lft.to/lastmile_qr_scan", "android": "https://dc.lft.to/lastmile_qr_scan"}, "fusion_lat": 0.0}, {"lat": 38.91399966666667, "lon": -77.01657666666667, "is_disabled": 0, "fusion_lon": 0.0, "is_reserved": 0, "name": "45e10d2796ae38f220779d896db89c99", "type": "electric_scooter", "bike_id": "45e10d2796ae38f220779d896db89c99", "rental_uris": {"ios": "https://dc.lft.to/lastmile_qr_scan", "android": "https://dc.lft.to/lastmile_qr_scan"}, "fusion_lat": 0.0}, {"lat": 38.8922385, "lon": -77.02579566666667, "is_disabled": 0, "fusion_lon": 0.0, "is_reserved": 0, "name": "3ea7c8e63dff2b2a21e0530993cea7fd", "type": "electric_scooter", "bike_id": "3ea7c8e63dff2b2a21e0530993cea7fd", "rental_uris": {"ios": "https://dc.lft.to/lastmile_qr_scan", "android": "https://dc.lft.to/lastmile_qr_scan"}, "fusion_lat": 0.0}, {"lat": 38.90148933333333, "lon": -76.93070433333334, "is_disabled": 0, "fusion_lon": 0.0, "is_reserved": 0, "name": "627402b6e50dc8a86502f33383efb596", "type": "electric_scooter", "bike_id": "627402b6e50dc8a86502f33383efb596", "rental_uris": {"ios": "https://dc.lft.to/lastmile_qr_scan", "android": "https://dc.lft.to/lastmile_qr_scan"}, "fusion_lat": 0.0}, {"lat": 38.92425516666667, "lon": -77.05179666666666, "is_disabled": 0, "fusion_lon": 0.0, "is_reserved": 0, "name": "96e699d44a55bebc6ea4b380d1369265", "type": "electric_scooter", "bike_id": "96e699d44a55bebc6ea4b380d1369265", "rental_uris": {"ios": "https://dc.lft.to/lastmile_qr_scan", "android": "https://dc.lft.to/lastmile_qr_scan"}, "fusion_lat": 0.0}, {"lat": 38.88502666666667, "lon": -77.00567966666667, "is_disabled": 0, "fusion_lon": 0.0, "is_reserved": 0, "name": "3f8da249c635637ac0adc728f418ea09", "type": "electric_scooter", "bike_id": "3f8da249c635637ac0adc728f418ea09", "rental_uris": {"ios": "https://dc.lft.to/lastmile_qr_scan", "android": "https://dc.lft.to/lastmile_qr_scan"}, "fusion_lat": 0.0}, {"lat": 38.911028333333334, "lon": -77.04473316666666, "is_disabled": 0, "fusion_lon": 0.0, "is_reserved": 0, "name": "ce15fb84869f5ce333784ac0bb9d1612", "type": "electric_scooter", "bike_id": "ce15fb84869f5ce333784ac0bb9d1612", "rental_uris": {"ios": "https://dc.lft.to/lastmile_qr_scan", "android": "https://dc.lft.to/lastmile_qr_scan"}, "fusion_lat": 0.0}, {"lat": 38.90282, "lon": -77.0335045, "is_disabled": 0, "fusion_lon": 0.0, "is_reserved": 0, "name": "abe8ca0460d3a9a762b40908546ac087", "type": "electric_scooter", "bike_id": "abe8ca0460d3a9a762b40908546ac087", "rental_uris": {"ios": "https://dc.lft.to/lastmile_qr_scan", "android": "https://dc.lft.to/lastmile_qr_scan"}, "fusion_lat": 0.0}, {"lat": 38.95058183333333, "lon": -77.08026533333333, "is_disabled": 0, "fusion_lon": 0.0, "is_reserved": 0, "name": "5bd53adfd1438fd2cfca83e9c4b2ba01", "type": "electric_scooter", "bike_id": "5bd53adfd1438fd2cfca83e9c4b2ba01", "rental_uris": {"ios": "https://dc.lft.to/lastmile_qr_scan", "android": "https://dc.lft.to/lastmile_qr_scan"}, "fusion_lat": 0.0}, {"lat": 38.901720166666664, "lon": -77.05090183333333, "is_disabled": 0, "fusion_lon": 0.0, "is_reserved": 0, "name": "f590b8ba968994f0fd72518397c8bf05", "type": "electric_scooter", "bike_id": "f590b8ba968994f0fd72518397c8bf05", "rental_uris": {"ios": "https://dc.lft.to/lastmile_qr_scan", "android": "https://dc.lft.to/lastmile_qr_scan"}, "fusion_lat": 0.0}, {"lat": 38.924124166666665, "lon": -76.997319, "is_disabled": 0, "fusion_lon": 0.0, "is_reserved": 0, "name": "f94a05513668c9ab32f63007cca861d6", "type": "electric_scooter", "bike_id": "f94a05513668c9ab32f63007cca861d6", "rental_uris": {"ios": "https://dc.lft.to/lastmile_qr_scan", "android": "https://dc.lft.to/lastmile_qr_scan"}, "fusion_lat": 0.0}, {"lat": 38.909731666666666, "lon": -77.05188033333333, "is_disabled": 0, "fusion_lon": 0.0, "is_reserved": 0, "name": "28423f5fee17a1aaae8f7e97c1c027bc", "type": "electric_scooter", "bike_id": "28423f5fee17a1aaae8f7e97c1c027bc", "rental_uris": {"ios": "https://dc.lft.to/lastmile_qr_scan", "android": "https://dc.lft.to/lastmile_qr_scan"}, "fusion_lat": 0.0}, {"lat": 38.8852695, "lon": -77.02185083333333, "is_disabled": 0, "fusion_lon": 0.0, "is_reserved": 0, "name": "470e6c2a048acb042e4d0f1165031ae7", "type": "electric_scooter", "bike_id": "470e6c2a048acb042e4d0f1165031ae7", "rental_uris": {"ios": "https://dc.lft.to/lastmile_qr_scan", "android": "https://dc.lft.to/lastmile_qr_scan"}, "fusion_lat": 0.0}, {"lat": 38.973506666666665, "lon": -77.02785783333333, "is_disabled": 0, "fusion_lon": 0.0, "is_reserved": 0, "name": "b9249ab9ef616747037691cdbabe9bd4", "type": "electric_scooter", "bike_id": "b9249ab9ef616747037691cdbabe9bd4", "rental_uris": {"ios": "https://dc.lft.to/lastmile_qr_scan", "android": "https://dc.lft.to/lastmile_qr_scan"}, "fusion_lat": 0.0}, {"lat": 38.84192933333333, "lon": -77.06756383333334, "is_disabled": 0, "fusion_lon": 0.0, "is_reserved": 0, "name": "e60cb6f66e828deabff9b513bb7fa6c6", "type": "electric_bike", "bike_id": "e60cb6f66e828deabff9b513bb7fa6c6", "rental_uris": {"ios": "https://dc.lft.to/lastmile_qr_scan", "android": "https://dc.lft.to/lastmile_qr_scan"}, "fusion_lat": 0.0}, {"lat": 38.89825416666667, "lon": -76.94653666666666, "is_disabled": 0, "fusion_lon": 0.0, "is_reserved": 0, "name": "b6536f6b3d70b2056f705e1d60d19598", "type": "electric_scooter", "bike_id": "b6536f6b3d70b2056f705e1d60d19598", "rental_uris": {"ios": "https://dc.lft.to/lastmile_qr_scan", "android": "https://dc.lft.to/lastmile_qr_scan"}, "fusion_lat": 0.0}, {"lat": 38.893556833333335, "lon": -77.00337016666667, "is_disabled": 0, "fusion_lon": 0.0, "is_reserved": 0, "name": "6c11d23099fee0883266d21964118e43", "type": "electric_scooter", "bike_id": "6c11d23099fee0883266d21964118e43", "rental_uris": {"ios": "https://dc.lft.to/lastmile_qr_scan", "android": "https://dc.lft.to/lastmile_qr_scan"}, "fusion_lat": 0.0}, {"lat": 38.863968666666665, "lon": -77.20110366666667, "is_disabled": 0, "fusion_lon": 0.0, "is_reserved": 0, "name": "3dc39b35fa65de4d951187a0a9a17d0f", "type": "electric_bike", "bike_id": "3dc39b35fa65de4d951187a0a9a17d0f", "rental_uris": {"ios": "https://dc.lft.to/lastmile_qr_scan", "android": "https://dc.lft.to/lastmile_qr_scan"}, "fusion_lat": 0.0}, {"lat": 38.90733316666667, "lon": -77.05711733333334, "is_disabled": 0, "fusion_lon": 0.0, "is_reserved": 0, "name": "0364b006cae11fc725facfaacf460c42", "type": "electric_scooter", "bike_id": "0364b006cae11fc725facfaacf460c42", "rental_uris": {"ios": "https://dc.lft.to/lastmile_qr_scan", "android": "https://dc.lft.to/lastmile_qr_scan"}, "fusion_lat": 0.0}, {"lat": 38.917986166666665, "lon": -77.02488616666666, "is_disabled": 0, "fusion_lon": 0.0, "is_reserved": 0, "name": "4b80d53ec576cdba8e4859a9652bbdb9", "type": "electric_scooter", "bike_id": "4b80d53ec576cdba8e4859a9652bbdb9", "rental_uris": {"ios": "https://dc.lft.to/lastmile_qr_scan", "android": "https://dc.lft.to/lastmile_qr_scan"}, "fusion_lat": 0.0}, {"lat": 38.9052895, "lon": -77.04857966666667, "is_disabled": 0, "fusion_lon": 0.0, "is_reserved": 0, "name": "05b893fe805278a6d2b199eb77add0fd", "type": "electric_scooter", "bike_id": "05b893fe805278a6d2b199eb77add0fd", "rental_uris": {"ios": "https://dc.lft.to/lastmile_qr_scan", "android": "https://dc.lft.to/lastmile_qr_scan"}, "fusion_lat": 0.0}, {"lat": 38.907563833333334, "lon": -77.00923816666666, "is_disabled": 0, "fusion_lon": 0.0, "is_reserved": 0, "name": "9ef5a71709fbf0eb2ce00cff6f8bfd49", "type": "electric_scooter", "bike_id": "9ef5a71709fbf0eb2ce00cff6f8bfd49", "rental_uris": {"ios": "https://dc.lft.to/lastmile_qr_scan", "android": "https://dc.lft.to/lastmile_qr_scan"}, "fusion_lat": 0.0}, {"lat": 38.923425333333334, "lon": -77.05169383333333, "is_disabled": 0, "fusion_lon": 0.0, "is_reserved": 0, "name": "5e24d8596ee98135e368bf0fba1a859f", "type": "electric_scooter", "bike_id": "5e24d8596ee98135e368bf0fba1a859f", "rental_uris": {"ios": "https://dc.lft.to/lastmile_qr_scan", "android": "https://dc.lft.to/lastmile_qr_scan"}, "fusion_lat": 0.0}, {"lat": 38.87549816666667, "lon": -77.0059425, "is_disabled": 0, "fusion_lon": 0.0, "is_reserved": 0, "name": "494b553b21eaeec175b8523482dbe9f1", "type": "electric_scooter", "bike_id": "494b553b21eaeec175b8523482dbe9f1", "rental_uris": {"ios": "https://dc.lft.to/lastmile_qr_scan", "android": "https://dc.lft.to/lastmile_qr_scan"}, "fusion_lat": 0.0}, {"lat": 38.88727166666666, "lon": -76.98358266666666, "is_disabled": 0, "fusion_lon": 0.0, "is_reserved": 0, "name": "227dd3cc0d7bd1353319404bef1d0d43", "type": "electric_scooter", "bike_id": "227dd3cc0d7bd1353319404bef1d0d43", "rental_uris": {"ios": "https://dc.lft.to/lastmile_qr_scan", "android": "https://dc.lft.to/lastmile_qr_scan"}, "fusion_lat": 0.0}, {"lat": 38.9012665, "lon": -76.99735516666667, "is_disabled": 0, "fusion_lon": 0.0, "is_reserved": 0, "name": "8f9ff2fcbec3b43bd6c808342c016cab", "type": "electric_scooter", "bike_id": "8f9ff2fcbec3b43bd6c808342c016cab", "rental_uris": {"ios": "https://dc.lft.to/lastmile_qr_scan", "android": "https://dc.lft.to/lastmile_qr_scan"}, "fusion_lat": 0.0}, {"lat": 38.884125, "lon": -76.94208066666667, "is_disabled": 0, "fusion_lon": 0.0, "is_reserved": 0, "name": "c6893ab30bbd696f6cf1e257b7710213", "type": "electric_scooter", "bike_id": "c6893ab30bbd696f6cf1e257b7710213", "rental_uris": {"ios": "https://dc.lft.to/lastmile_qr_scan", "android": "https://dc.lft.to/lastmile_qr_scan"}, "fusion_lat": 0.0}, {"lat": 38.9223625, "lon": -77.07309433333333, "is_disabled": 0, "fusion_lon": 0.0, "is_reserved": 0, "name": "215eeb33a1034e41b472f59d826c9666", "type": "electric_scooter", "bike_id": "215eeb33a1034e41b472f59d826c9666", "rental_uris": {"ios": "https://dc.lft.to/lastmile_qr_scan", "android": "https://dc.lft.to/lastmile_qr_scan"}, "fusion_lat": 0.0}, {"lat": 38.90265316666667, "lon": -77.02787133333334, "is_disabled": 0, "fusion_lon": 0.0, "is_reserved": 0, "name": "c9bf07826f3c808a47286ecd1dd69fdd", "type": "electric_scooter", "bike_id": "c9bf07826f3c808a47286ecd1dd69fdd", "rental_uris": {"ios": "https://dc.lft.to/lastmile_qr_scan", "android": "https://dc.lft.to/lastmile_qr_scan"}, "fusion_lat": 0.0}, {"lat": 38.9063515, "lon": -77.03852733333333, "is_disabled": 0, "fusion_lon": 0.0, "is_reserved": 0, "name": "736eaddaf5cc36dbcb71f2d5b91244e2", "type": "electric_scooter", "bike_id": "736eaddaf5cc36dbcb71f2d5b91244e2", "rental_uris": {"ios": "https://dc.lft.to/lastmile_qr_scan", "android": "https://dc.lft.to/lastmile_qr_scan"}, "fusion_lat": 0.0}, {"lat": 38.896916166666664, "lon": -77.0433245, "is_disabled": 0, "fusion_lon": 0.0, "is_reserved": 0, "name": "f04fe5628c9d0d1ef355c39c48800b7d", "type": "electric_scooter", "bike_id": "f04fe5628c9d0d1ef355c39c48800b7d", "rental_uris": {"ios": "https://dc.lft.to/lastmile_qr_scan", "android": "https://dc.lft.to/lastmile_qr_scan"}, "fusion_lat": 0.0}, {"lat": 38.92603166666667, "lon": -77.02155766666667, "is_disabled": 0, "fusion_lon": 0.0, "is_reserved": 0, "name": "03678a9fe4cd3c381a4fb781936068a1", "type": "electric_scooter", "bike_id": "03678a9fe4cd3c381a4fb781936068a1", "rental_uris": {"ios": "https://dc.lft.to/lastmile_qr_scan", "android": "https://dc.lft.to/lastmile_qr_scan"}, "fusion_lat": 0.0}, {"lat": 38.887654, "lon": -76.986879, "is_disabled": 0, "fusion_lon": 0.0, "is_reserved": 0, "name": "6a185cca5d2ee4f5fe7e4ca5227f0473", "type": "electric_scooter", "bike_id": "6a185cca5d2ee4f5fe7e4ca5227f0473", "rental_uris": {"ios": "https://dc.lft.to/lastmile_qr_scan", "android": "https://dc.lft.to/lastmile_qr_scan"}, "fusion_lat": 0.0}, {"lat": 38.92346033333333, "lon": -77.01912166666666, "is_disabled": 0, "fusion_lon": 0.0, "is_reserved": 0, "name": "311f96f66816d4d43d6bb8c5deb481b1", "type": "electric_scooter", "bike_id": "311f96f66816d4d43d6bb8c5deb481b1", "rental_uris": {"ios": "https://dc.lft.to/lastmile_qr_scan", "android": "https://dc.lft.to/lastmile_qr_scan"}, "fusion_lat": 0.0}, {"lat": 38.8966665, "lon": -76.93210216666667, "is_disabled": 0, "fusion_lon": 0.0, "is_reserved": 0, "name": "20c0a63c735f9cc694715cd5e24fa352", "type": "electric_scooter", "bike_id": "20c0a63c735f9cc694715cd5e24fa352", "rental_uris": {"ios": "https://dc.lft.to/lastmile_qr_scan", "android": "https://dc.lft.to/lastmile_qr_scan"}, "fusion_lat": 0.0}, {"lat": 38.9014155, "lon": -77.0256415, "is_disabled": 0, "fusion_lon": 0.0, "is_reserved": 0, "name": "acfce3a43349cb77bd19c26ec1f98cfe", "type": "electric_scooter", "bike_id": "acfce3a43349cb77bd19c26ec1f98cfe", "rental_uris": {"ios": "https://dc.lft.to/lastmile_qr_scan", "android": "https://dc.lft.to/lastmile_qr_scan"}, "fusion_lat": 0.0}, {"lat": 38.90035833333334, "lon": -77.03998283333334, "is_disabled": 0, "fusion_lon": 0.0, "is_reserved": 0, "name": "b500897557816d55d8c89fd055baf49a", "type": "electric_scooter", "bike_id": "b500897557816d55d8c89fd055baf49a", "rental_uris": {"ios": "https://dc.lft.to/lastmile_qr_scan", "android": "https://dc.lft.to/lastmile_qr_scan"}, "fusion_lat": 0.0}, {"lat": 38.90162383333333, "lon": -77.02686233333333, "is_disabled": 0, "fusion_lon": 0.0, "is_reserved": 0, "name": "dc5663491aa28f106b95543fe6523951", "type": "electric_scooter", "bike_id": "dc5663491aa28f106b95543fe6523951", "rental_uris": {"ios": "https://dc.lft.to/lastmile_qr_scan", "android": "https://dc.lft.to/lastmile_qr_scan"}, "fusion_lat": 0.0}, {"lat": 38.91192366666667, "lon": -77.04542216666667, "is_disabled": 0, "fusion_lon": 0.0, "is_reserved": 0, "name": "05628936889e9436dfbe4e3176dca0e7", "type": "electric_scooter", "bike_id": "05628936889e9436dfbe4e3176dca0e7", "rental_uris": {"ios": "https://dc.lft.to/lastmile_qr_scan", "android": "https://dc.lft.to/lastmile_qr_scan"}, "fusion_lat": 0.0}, {"lat": 38.900716, "lon": -77.04490866666667, "is_disabled": 0, "fusion_lon": 0.0, "is_reserved": 0, "name": "bc15eca450c646819355380e7bcd8dac", "type": "electric_scooter", "bike_id": "bc15eca450c646819355380e7bcd8dac", "rental_uris": {"ios": "https://dc.lft.to/lastmile_qr_scan", "android": "https://dc.lft.to/lastmile_qr_scan"}, "fusion_lat": 0.0}, {"lat": 38.924629833333334, "lon": -77.02246583333333, "is_disabled": 0, "fusion_lon": 0.0, "is_reserved": 0, "name": "62d7ddd294ffe7dd2856a60f59ffd052", "type": "electric_scooter", "bike_id": "62d7ddd294ffe7dd2856a60f59ffd052", "rental_uris": {"ios": "https://dc.lft.to/lastmile_qr_scan", "android": "https://dc.lft.to/lastmile_qr_scan"}, "fusion_lat": 0.0}, {"lat": 38.9000815, "lon": -77.00677316666666, "is_disabled": 0, "fusion_lon": 0.0, "is_reserved": 0, "name": "610b1436debd777dde31c318c87823c4", "type": "electric_scooter", "bike_id": "610b1436debd777dde31c318c87823c4", "rental_uris": {"ios": "https://dc.lft.to/lastmile_qr_scan", "android": "https://dc.lft.to/lastmile_qr_scan"}, "fusion_lat": 0.0}, {"lat": 38.90325, "lon": -77.033344, "is_disabled": 0, "fusion_lon": 0.0, "is_reserved": 0, "name": "7a692a93c7e926c0e1a4a9a7e3d506d5", "type": "electric_scooter", "bike_id": "7a692a93c7e926c0e1a4a9a7e3d506d5", "rental_uris": {"ios": "https://dc.lft.to/lastmile_qr_scan", "android": "https://dc.lft.to/lastmile_qr_scan"}, "fusion_lat": 0.0}, {"lat": 38.8769305, "lon": -77.0178175, "is_disabled": 0, "fusion_lon": 0.0, "is_reserved": 0, "name": "bc2248654290e0f0e61b13ded2991cf7", "type": "electric_scooter", "bike_id": "bc2248654290e0f0e61b13ded2991cf7", "rental_uris": {"ios": "https://dc.lft.to/lastmile_qr_scan", "android": "https://dc.lft.to/lastmile_qr_scan"}, "fusion_lat": 0.0}, {"lat": 38.924498666666665, "lon": -77.02034483333334, "is_disabled": 0, "fusion_lon": 0.0, "is_reserved": 0, "name": "f09e27fca1f2ff09f8d7d008ba23469e", "type": "electric_scooter", "bike_id": "f09e27fca1f2ff09f8d7d008ba23469e", "rental_uris": {"ios": "https://dc.lft.to/lastmile_qr_scan", "android": "https://dc.lft.to/lastmile_qr_scan"}, "fusion_lat": 0.0}, {"lat": 38.92226766666667, "lon": -77.02012033333334, "is_disabled": 0, "fusion_lon": 0.0, "is_reserved": 0, "name": "787b4e172ab7fd087ccd61af490cb3a8", "type": "electric_scooter", "bike_id": "787b4e172ab7fd087ccd61af490cb3a8", "rental_uris": {"ios": "https://dc.lft.to/lastmile_qr_scan", "android": "https://dc.lft.to/lastmile_qr_scan"}, "fusion_lat": 0.0}, {"lat": 38.910340833333336, "lon": -77.042668, "is_disabled": 0, "fusion_lon": 0.0, "is_reserved": 0, "name": "a1470f3ae6dcb3b658f3eabb1127196a", "type": "electric_scooter", "bike_id": "a1470f3ae6dcb3b658f3eabb1127196a", "rental_uris": {"ios": "https://dc.lft.to/lastmile_qr_scan", "android": "https://dc.lft.to/lastmile_qr_scan"}, "fusion_lat": 0.0}, {"lat": 38.897146166666666, "lon": -77.00800166666667, "is_disabled": 0, "fusion_lon": 0.0, "is_reserved": 0, "name": "ba9fd5954c44380962ff4f596f49071b", "type": "electric_scooter", "bike_id": "ba9fd5954c44380962ff4f596f49071b", "rental_uris": {"ios": "https://dc.lft.to/lastmile_qr_scan", "android": "https://dc.lft.to/lastmile_qr_scan"}, "fusion_lat": 0.0}, {"lat": 38.884193833333335, "lon": -77.00810683333333, "is_disabled": 0, "fusion_lon": 0.0, "is_reserved": 0, "name": "1c8c263e8538b4ecbd89337e1e56c3c5", "type": "electric_scooter", "bike_id": "1c8c263e8538b4ecbd89337e1e56c3c5", "rental_uris": {"ios": "https://dc.lft.to/lastmile_qr_scan", "android": "https://dc.lft.to/lastmile_qr_scan"}, "fusion_lat": 0.0}, {"lat": 38.90667883333333, "lon": -77.0269615, "is_disabled": 0, "fusion_lon": 0.0, "is_reserved": 0, "name": "f3b78c37b5edc2c2742babcca85bbb74", "type": "electric_scooter", "bike_id": "f3b78c37b5edc2c2742babcca85bbb74", "rental_uris": {"ios": "https://dc.lft.to/lastmile_qr_scan", "android": "https://dc.lft.to/lastmile_qr_scan"}, "fusion_lat": 0.0}, {"lat": 38.89647083333333, "lon": -77.01862433333334, "is_disabled": 0, "fusion_lon": 0.0, "is_reserved": 0, "name": "1acb83e84ea48ea56020412817088d3c", "type": "electric_scooter", "bike_id": "1acb83e84ea48ea56020412817088d3c", "rental_uris": {"ios": "https://dc.lft.to/lastmile_qr_scan", "android": "https://dc.lft.to/lastmile_qr_scan"}, "fusion_lat": 0.0}, {"lat": 38.950574333333336, "lon": -77.08031933333334, "is_disabled": 0, "fusion_lon": 0.0, "is_reserved": 0, "name": "77342d01b6f9edc7935d3a3e78f2bf38", "type": "electric_scooter", "bike_id": "77342d01b6f9edc7935d3a3e78f2bf38", "rental_uris": {"ios": "https://dc.lft.to/lastmile_qr_scan", "android": "https://dc.lft.to/lastmile_qr_scan"}, "fusion_lat": 0.0}, {"lat": 38.899019, "lon": -76.99960016666667, "is_disabled": 0, "fusion_lon": 0.0, "is_reserved": 0, "name": "aed7c066eaf90e7e5ea31a02ec635b53", "type": "electric_scooter", "bike_id": "aed7c066eaf90e7e5ea31a02ec635b53", "rental_uris": {"ios": "https://dc.lft.to/lastmile_qr_scan", "android": "https://dc.lft.to/lastmile_qr_scan"}, "fusion_lat": 0.0}, {"lat": 38.91523266666667, "lon": -77.0486225, "is_disabled": 0, "fusion_lon": 0.0, "is_reserved": 0, "name": "54e8e4a9ab052e14c961d12c421735da", "type": "electric_scooter", "bike_id": "54e8e4a9ab052e14c961d12c421735da", "rental_uris": {"ios": "https://dc.lft.to/lastmile_qr_scan", "android": "https://dc.lft.to/lastmile_qr_scan"}, "fusion_lat": 0.0}, {"lat": 38.91410716666667, "lon": -77.00876933333333, "is_disabled": 0, "fusion_lon": 0.0, "is_reserved": 0, "name": "6c021aabf8c42ec9dd9c832bbf6e6a42", "type": "electric_scooter", "bike_id": "6c021aabf8c42ec9dd9c832bbf6e6a42", "rental_uris": {"ios": "https://dc.lft.to/lastmile_qr_scan", "android": "https://dc.lft.to/lastmile_qr_scan"}, "fusion_lat": 0.0}, {"lat": 38.87580066666666, "lon": -77.2341025, "is_disabled": 0, "fusion_lon": 0.0, "is_reserved": 0, "name": "3d17fd6d41af48028cf32347693fa010", "type": "electric_bike", "bike_id": "3d17fd6d41af48028cf32347693fa010", "rental_uris": {"ios": "https://dc.lft.to/lastmile_qr_scan", "android": "https://dc.lft.to/lastmile_qr_scan"}, "fusion_lat": 0.0}, {"lat": 38.9344295, "lon": -77.09058416666667, "is_disabled": 0, "fusion_lon": 0.0, "is_reserved": 0, "name": "5ea2349923a3e3670ebd568847dee563", "type": "electric_scooter", "bike_id": "5ea2349923a3e3670ebd568847dee563", "rental_uris": {"ios": "https://dc.lft.to/lastmile_qr_scan", "android": "https://dc.lft.to/lastmile_qr_scan"}, "fusion_lat": 0.0}, {"lat": 38.90138816666666, "lon": -77.03219766666666, "is_disabled": 0, "fusion_lon": 0.0, "is_reserved": 0, "name": "36b74aadc1db3310dfc8b2c6c48957f1", "type": "electric_scooter", "bike_id": "36b74aadc1db3310dfc8b2c6c48957f1", "rental_uris": {"ios": "https://dc.lft.to/lastmile_qr_scan", "android": "https://dc.lft.to/lastmile_qr_scan"}, "fusion_lat": 0.0}, {"lat": 38.904705666666665, "lon": -77.03465133333333, "is_disabled": 0, "fusion_lon": 0.0, "is_reserved": 0, "name": "68eace44646577350476b39767800dce", "type": "electric_scooter", "bike_id": "68eace44646577350476b39767800dce", "rental_uris": {"ios": "https://dc.lft.to/lastmile_qr_scan", "android": "https://dc.lft.to/lastmile_qr_scan"}, "fusion_lat": 0.0}, {"lat": 38.9118335, "lon": -77.03507933333333, "is_disabled": 0, "fusion_lon": 0.0, "is_reserved": 0, "name": "697c20ecd472cc9fb3cc75103331acd7", "type": "electric_scooter", "bike_id": "697c20ecd472cc9fb3cc75103331acd7", "rental_uris": {"ios": "https://dc.lft.to/lastmile_qr_scan", "android": "https://dc.lft.to/lastmile_qr_scan"}, "fusion_lat": 0.0}, {"lat": 38.8922105, "lon": -77.02776166666666, "is_disabled": 0, "fusion_lon": 0.0, "is_reserved": 0, "name": "ba7ec7a5f4932c509d0f61ffdd465308", "type": "electric_scooter", "bike_id": "ba7ec7a5f4932c509d0f61ffdd465308", "rental_uris": {"ios": "https://dc.lft.to/lastmile_qr_scan", "android": "https://dc.lft.to/lastmile_qr_scan"}, "fusion_lat": 0.0}, {"lat": 38.917241, "lon": -77.02578516666667, "is_disabled": 0, "fusion_lon": 0.0, "is_reserved": 0, "name": "ae854964e4601de21a936b654045eda7", "type": "electric_scooter", "bike_id": "ae854964e4601de21a936b654045eda7", "rental_uris": {"ios": "https://dc.lft.to/lastmile_qr_scan", "android": "https://dc.lft.to/lastmile_qr_scan"}, "fusion_lat": 0.0}, {"lat": 38.910588, "lon": -77.0342775, "is_disabled": 0, "fusion_lon": 0.0, "is_reserved": 0, "name": "787b3ed0321ebe071cc4c7edc512d394", "type": "electric_scooter", "bike_id": "787b3ed0321ebe071cc4c7edc512d394", "rental_uris": {"ios": "https://dc.lft.to/lastmile_qr_scan", "android": "https://dc.lft.to/lastmile_qr_scan"}, "fusion_lat": 0.0}, {"lat": 38.89931816666667, "lon": -77.0414935, "is_disabled": 0, "fusion_lon": 0.0, "is_reserved": 0, "name": "58a94e01bf33c8744c691d99cbfb2150", "type": "electric_scooter", "bike_id": "58a94e01bf33c8744c691d99cbfb2150", "rental_uris": {"ios": "https://dc.lft.to/lastmile_qr_scan", "android": "https://dc.lft.to/lastmile_qr_scan"}, "fusion_lat": 0.0}, {"lat": 38.9180135, "lon": -77.0248905, "is_disabled": 0, "fusion_lon": 0.0, "is_reserved": 0, "name": "a638ba27c2609d55c54d8318c386ff5e", "type": "electric_scooter", "bike_id": "a638ba27c2609d55c54d8318c386ff5e", "rental_uris": {"ios": "https://dc.lft.to/lastmile_qr_scan", "android": "https://dc.lft.to/lastmile_qr_scan"}, "fusion_lat": 0.0}, {"lat": 38.89684166666667, "lon": -76.93711633333334, "is_disabled": 0, "fusion_lon": 0.0, "is_reserved": 0, "name": "c1fd338ae126a3b34605fdb8eca352ad", "type": "electric_scooter", "bike_id": "c1fd338ae126a3b34605fdb8eca352ad", "rental_uris": {"ios": "https://dc.lft.to/lastmile_qr_scan", "android": "https://dc.lft.to/lastmile_qr_scan"}, "fusion_lat": 0.0}, {"lat": 38.919564333333334, "lon": -77.01780483333333, "is_disabled": 0, "fusion_lon": 0.0, "is_reserved": 0, "name": "66fe9038cc43d33d4b521f5eee44c384", "type": "electric_scooter", "bike_id": "66fe9038cc43d33d4b521f5eee44c384", "rental_uris": {"ios": "https://dc.lft.to/lastmile_qr_scan", "android": "https://dc.lft.to/lastmile_qr_scan"}, "fusion_lat": 0.0}, {"lat": 38.900043333333336, "lon": -77.04648966666667, "is_disabled": 0, "fusion_lon": 0.0, "is_reserved": 0, "name": "3dae7ac205f2a6d2aca4cec259a16660", "type": "electric_scooter", "bike_id": "3dae7ac205f2a6d2aca4cec259a16660", "rental_uris": {"ios": "https://dc.lft.to/lastmile_qr_scan", "android": "https://dc.lft.to/lastmile_qr_scan"}, "fusion_lat": 0.0}, {"lat": 38.8971425, "lon": -77.07879283333334, "is_disabled": 0, "fusion_lon": 0.0, "is_reserved": 0, "name": "e5331cc52fdc3402c4a9c0875875f85c", "type": "electric_scooter", "bike_id": "e5331cc52fdc3402c4a9c0875875f85c", "rental_uris": {"ios": "https://dc.lft.to/lastmile_qr_scan", "android": "https://dc.lft.to/lastmile_qr_scan"}, "fusion_lat": 0.0}, {"lat": 38.91095766666667, "lon": -77.0318755, "is_disabled": 0, "fusion_lon": 0.0, "is_reserved": 0, "name": "f4f0fdd0bd56ebbd356ae8f0b898d57f", "type": "electric_scooter", "bike_id": "f4f0fdd0bd56ebbd356ae8f0b898d57f", "rental_uris": {"ios": "https://dc.lft.to/lastmile_qr_scan", "android": "https://dc.lft.to/lastmile_qr_scan"}, "fusion_lat": 0.0}, {"lat": 38.9250915, "lon": -77.02285816666667, "is_disabled": 0, "fusion_lon": 0.0, "is_reserved": 0, "name": "775009d4513f31ed91d79d125c59cc2a", "type": "electric_scooter", "bike_id": "775009d4513f31ed91d79d125c59cc2a", "rental_uris": {"ios": "https://dc.lft.to/lastmile_qr_scan", "android": "https://dc.lft.to/lastmile_qr_scan"}, "fusion_lat": 0.0}, {"lat": 38.91113983333334, "lon": -77.04466616666667, "is_disabled": 0, "fusion_lon": 0.0, "is_reserved": 0, "name": "064b731610181d145ba353f45ae6c260", "type": "electric_scooter", "bike_id": "064b731610181d145ba353f45ae6c260", "rental_uris": {"ios": "https://dc.lft.to/lastmile_qr_scan", "android": "https://dc.lft.to/lastmile_qr_scan"}, "fusion_lat": 0.0}, {"lat": 38.924755833333336, "lon": -77.02661333333333, "is_disabled": 0, "fusion_lon": 0.0, "is_reserved": 0, "name": "2c49bb64f0047626637934f06278acae", "type": "electric_scooter", "bike_id": "2c49bb64f0047626637934f06278acae", "rental_uris": {"ios": "https://dc.lft.to/lastmile_qr_scan", "android": "https://dc.lft.to/lastmile_qr_scan"}, "fusion_lat": 0.0}, {"lat": 38.96139133333333, "lon": -77.02783616666666, "is_disabled": 0, "fusion_lon": 0.0, "is_reserved": 0, "name": "78174554834724855fa2a75ffe3f89e7", "type": "electric_scooter", "bike_id": "78174554834724855fa2a75ffe3f89e7", "rental_uris": {"ios": "https://dc.lft.to/lastmile_qr_scan", "android": "https://dc.lft.to/lastmile_qr_scan"}, "fusion_lat": 0.0}, {"lat": 38.934765166666665, "lon": -77.07268466666666, "is_disabled": 0, "fusion_lon": 0.0, "is_reserved": 0, "name": "a6b5e84f39d1a943216d721b369594e7", "type": "electric_scooter", "bike_id": "a6b5e84f39d1a943216d721b369594e7", "rental_uris": {"ios": "https://dc.lft.to/lastmile_qr_scan", "android": "https://dc.lft.to/lastmile_qr_scan"}, "fusion_lat": 0.0}, {"lat": 38.901077666666666, "lon": -77.03492566666667, "is_disabled": 0, "fusion_lon": 0.0, "is_reserved": 0, "name": "ff016f179a913f6e8b071c018ba6228b", "type": "electric_scooter", "bike_id": "ff016f179a913f6e8b071c018ba6228b", "rental_uris": {"ios": "https://dc.lft.to/lastmile_qr_scan", "android": "https://dc.lft.to/lastmile_qr_scan"}, "fusion_lat": 0.0}, {"lat": 38.903667, "lon": -77.02211516666667, "is_disabled": 0, "fusion_lon": 0.0, "is_reserved": 0, "name": "cc5829388f0705f71c4a108823d459e8", "type": "electric_scooter", "bike_id": "cc5829388f0705f71c4a108823d459e8", "rental_uris": {"ios": "https://dc.lft.to/lastmile_qr_scan", "android": "https://dc.lft.to/lastmile_qr_scan"}, "fusion_lat": 0.0}, {"lat": 38.89220533333334, "lon": -77.03218033333333, "is_disabled": 0, "fusion_lon": 0.0, "is_reserved": 0, "name": "549b25b4eb1e6ff2dd36de10a8105eb2", "type": "electric_scooter", "bike_id": "549b25b4eb1e6ff2dd36de10a8105eb2", "rental_uris": {"ios": "https://dc.lft.to/lastmile_qr_scan", "android": "https://dc.lft.to/lastmile_qr_scan"}, "fusion_lat": 0.0}, {"lat": 38.92968833333333, "lon": -77.027915, "is_disabled": 0, "fusion_lon": 0.0, "is_reserved": 0, "name": "7c55b3d909f041c7b12c0115df018dad", "type": "electric_scooter", "bike_id": "7c55b3d909f041c7b12c0115df018dad", "rental_uris": {"ios": "https://dc.lft.to/lastmile_qr_scan", "android": "https://dc.lft.to/lastmile_qr_scan"}, "fusion_lat": 0.0}, {"lat": 38.9251275, "lon": -77.02363683333333, "is_disabled": 0, "fusion_lon": 0.0, "is_reserved": 0, "name": "c0c8f35a2359b2f72ef258c81d8fce83", "type": "electric_scooter", "bike_id": "c0c8f35a2359b2f72ef258c81d8fce83", "rental_uris": {"ios": "https://dc.lft.to/lastmile_qr_scan", "android": "https://dc.lft.to/lastmile_qr_scan"}, "fusion_lat": 0.0}, {"lat": 38.892384166666666, "lon": -77.03189233333333, "is_disabled": 0, "fusion_lon": 0.0, "is_reserved": 0, "name": "203baecf50f22d922ef8c48a01ce724d", "type": "electric_scooter", "bike_id": "203baecf50f22d922ef8c48a01ce724d", "rental_uris": {"ios": "https://dc.lft.to/lastmile_qr_scan", "android": "https://dc.lft.to/lastmile_qr_scan"}, "fusion_lat": 0.0}, {"lat": 38.91685783333333, "lon": -77.028797, "is_disabled": 0, "fusion_lon": 0.0, "is_reserved": 0, "name": "e86466ac972420de21db1eae9043f1e7", "type": "electric_scooter", "bike_id": "e86466ac972420de21db1eae9043f1e7", "rental_uris": {"ios": "https://dc.lft.to/lastmile_qr_scan", "android": "https://dc.lft.to/lastmile_qr_scan"}, "fusion_lat": 0.0}, {"lat": 38.92479933333333, "lon": -77.02595966666667, "is_disabled": 0, "fusion_lon": 0.0, "is_reserved": 0, "name": "021e22ec881303d622e1eb8d63b2627b", "type": "electric_scooter", "bike_id": "021e22ec881303d622e1eb8d63b2627b", "rental_uris": {"ios": "https://dc.lft.to/lastmile_qr_scan", "android": "https://dc.lft.to/lastmile_qr_scan"}, "fusion_lat": 0.0}, {"lat": 38.89964233333333, "lon": -77.0247685, "is_disabled": 0, "fusion_lon": 0.0, "is_reserved": 0, "name": "64428025111b673dd24411219a656d51", "type": "electric_scooter", "bike_id": "64428025111b673dd24411219a656d51", "rental_uris": {"ios": "https://dc.lft.to/lastmile_qr_scan", "android": "https://dc.lft.to/lastmile_qr_scan"}, "fusion_lat": 0.0}, {"lat": 38.89922633333333, "lon": -77.04495766666666, "is_disabled": 0, "fusion_lon": 0.0, "is_reserved": 0, "name": "ab439f76eefe216a06a11a83a98f0098", "type": "electric_scooter", "bike_id": "ab439f76eefe216a06a11a83a98f0098", "rental_uris": {"ios": "https://dc.lft.to/lastmile_qr_scan", "android": "https://dc.lft.to/lastmile_qr_scan"}, "fusion_lat": 0.0}, {"lat": 38.930952, "lon": -77.012281, "is_disabled": 0, "fusion_lon": 0.0, "is_reserved": 0, "name": "acec5b4379d081231e1494b5e903b061", "type": "electric_scooter", "bike_id": "acec5b4379d081231e1494b5e903b061", "rental_uris": {"ios": "https://dc.lft.to/lastmile_qr_scan", "android": "https://dc.lft.to/lastmile_qr_scan"}, "fusion_lat": 0.0}, {"lat": 38.91021116666667, "lon": -77.02934016666667, "is_disabled": 0, "fusion_lon": 0.0, "is_reserved": 0, "name": "b3c51e0cb69080199ee9677cc28d8190", "type": "electric_scooter", "bike_id": "b3c51e0cb69080199ee9677cc28d8190", "rental_uris": {"ios": "https://dc.lft.to/lastmile_qr_scan", "android": "https://dc.lft.to/lastmile_qr_scan"}, "fusion_lat": 0.0}, {"lat": 38.940878833333336, "lon": -77.027219, "is_disabled": 0, "fusion_lon": 0.0, "is_reserved": 0, "name": "d3f4b377ab15f7cb2e91cb67397695f2", "type": "electric_scooter", "bike_id": "d3f4b377ab15f7cb2e91cb67397695f2", "rental_uris": {"ios": "https://dc.lft.to/lastmile_qr_scan", "android": "https://dc.lft.to/lastmile_qr_scan"}, "fusion_lat": 0.0}, {"lat": 38.901067166666664, "lon": -77.03174666666666, "is_disabled": 0, "fusion_lon": 0.0, "is_reserved": 0, "name": "55dc66b32106a6e0968142cb703662f5", "type": "electric_scooter", "bike_id": "55dc66b32106a6e0968142cb703662f5", "rental_uris": {"ios": "https://dc.lft.to/lastmile_qr_scan", "android": "https://dc.lft.to/lastmile_qr_scan"}, "fusion_lat": 0.0}, {"lat": 38.916318, "lon": -77.050682, "is_disabled": 0, "fusion_lon": 0.0, "is_reserved": 0, "name": "eded03738959232513e722d62efc0e5d", "type": "electric_scooter", "bike_id": "eded03738959232513e722d62efc0e5d", "rental_uris": {"ios": "https://dc.lft.to/lastmile_qr_scan", "android": "https://dc.lft.to/lastmile_qr_scan"}, "fusion_lat": 0.0}, {"lat": 38.88742766666667, "lon": -77.0277685, "is_disabled": 0, "fusion_lon": 0.0, "is_reserved": 0, "name": "b9f22e4d307bdabdb1db9a2cf43409c3", "type": "electric_scooter", "bike_id": "b9f22e4d307bdabdb1db9a2cf43409c3", "rental_uris": {"ios": "https://dc.lft.to/lastmile_qr_scan", "android": "https://dc.lft.to/lastmile_qr_scan"}, "fusion_lat": 0.0}, {"lat": 38.928807666666664, "lon": -77.03227633333333, "is_disabled": 0, "fusion_lon": 0.0, "is_reserved": 0, "name": "bd04e204a75a168db1be728699291d09", "type": "electric_scooter", "bike_id": "bd04e204a75a168db1be728699291d09", "rental_uris": {"ios": "https://dc.lft.to/lastmile_qr_scan", "android": "https://dc.lft.to/lastmile_qr_scan"}, "fusion_lat": 0.0}, {"lat": 38.905411, "lon": -77.05045366666667, "is_disabled": 0, "fusion_lon": 0.0, "is_reserved": 0, "name": "2f962dff0d39fc2fb5f373101ad17452", "type": "electric_scooter", "bike_id": "2f962dff0d39fc2fb5f373101ad17452", "rental_uris": {"ios": "https://dc.lft.to/lastmile_qr_scan", "android": "https://dc.lft.to/lastmile_qr_scan"}, "fusion_lat": 0.0}, {"lat": 38.90714833333333, "lon": -77.00575416666666, "is_disabled": 0, "fusion_lon": 0.0, "is_reserved": 0, "name": "f17ff742184d4e46c9e09e77083359ad", "type": "electric_scooter", "bike_id": "f17ff742184d4e46c9e09e77083359ad", "rental_uris": {"ios": "https://dc.lft.to/lastmile_qr_scan", "android": "https://dc.lft.to/lastmile_qr_scan"}, "fusion_lat": 0.0}, {"lat": 38.88424416666667, "lon": -76.9576175, "is_disabled": 0, "fusion_lon": 0.0, "is_reserved": 0, "name": "375662f788d7430cc5a02760b6491d12", "type": "electric_scooter", "bike_id": "375662f788d7430cc5a02760b6491d12", "rental_uris": {"ios": "https://dc.lft.to/lastmile_qr_scan", "android": "https://dc.lft.to/lastmile_qr_scan"}, "fusion_lat": 0.0}, {"lat": 38.857686, "lon": -76.98764733333333, "is_disabled": 0, "fusion_lon": 0.0, "is_reserved": 0, "name": "79a942fb167ee448fd0603a9ce6397bc", "type": "electric_bike", "bike_id": "79a942fb167ee448fd0603a9ce6397bc", "rental_uris": {"ios": "https://dc.lft.to/lastmile_qr_scan", "android": "https://dc.lft.to/lastmile_qr_scan"}, "fusion_lat": 0.0}, {"lat": 38.91911966666667, "lon": -77.01205116666667, "is_disabled": 0, "fusion_lon": 0.0, "is_reserved": 0, "name": "93fc53ea89a63416d69cffd3a720d25f", "type": "electric_scooter", "bike_id": "93fc53ea89a63416d69cffd3a720d25f", "rental_uris": {"ios": "https://dc.lft.to/lastmile_qr_scan", "android": "https://dc.lft.to/lastmile_qr_scan"}, "fusion_lat": 0.0}, {"lat": 38.9249605, "lon": -77.0244625, "is_disabled": 0, "fusion_lon": 0.0, "is_reserved": 0, "name": "b6c04cb3bb0b6e76ea5f2fa3c79102d0", "type": "electric_scooter", "bike_id": "b6c04cb3bb0b6e76ea5f2fa3c79102d0", "rental_uris": {"ios": "https://dc.lft.to/lastmile_qr_scan", "android": "https://dc.lft.to/lastmile_qr_scan"}, "fusion_lat": 0.0}, {"lat": 38.9149315, "lon": -77.01853683333333, "is_disabled": 0, "fusion_lon": 0.0, "is_reserved": 0, "name": "b3265c7ee8794ab303dfd9f4aee4f347", "type": "electric_scooter", "bike_id": "b3265c7ee8794ab303dfd9f4aee4f347", "rental_uris": {"ios": "https://dc.lft.to/lastmile_qr_scan", "android": "https://dc.lft.to/lastmile_qr_scan"}, "fusion_lat": 0.0}, {"lat": 38.924423, "lon": -77.02019866666667, "is_disabled": 0, "fusion_lon": 0.0, "is_reserved": 0, "name": "9d6695854bf8c20b5fce29f1f6eddc06", "type": "electric_scooter", "bike_id": "9d6695854bf8c20b5fce29f1f6eddc06", "rental_uris": {"ios": "https://dc.lft.to/lastmile_qr_scan", "android": "https://dc.lft.to/lastmile_qr_scan"}, "fusion_lat": 0.0}, {"lat": 38.920703333333336, "lon": -77.0254995, "is_disabled": 0, "fusion_lon": 0.0, "is_reserved": 0, "name": "8544bca6aad0132766a06f7eb88bdcd2", "type": "electric_scooter", "bike_id": "8544bca6aad0132766a06f7eb88bdcd2", "rental_uris": {"ios": "https://dc.lft.to/lastmile_qr_scan", "android": "https://dc.lft.to/lastmile_qr_scan"}, "fusion_lat": 0.0}, {"lat": 38.906548666666666, "lon": -77.03903066666666, "is_disabled": 0, "fusion_lon": 0.0, "is_reserved": 0, "name": "e776eba5d580c3b15c16c3cf952565af", "type": "electric_scooter", "bike_id": "e776eba5d580c3b15c16c3cf952565af", "rental_uris": {"ios": "https://dc.lft.to/lastmile_qr_scan", "android": "https://dc.lft.to/lastmile_qr_scan"}, "fusion_lat": 0.0}, {"lat": 38.9147465, "lon": -77.02454933333334, "is_disabled": 0, "fusion_lon": 0.0, "is_reserved": 0, "name": "b8f7d119c791dde823400630c11621f8", "type": "electric_scooter", "bike_id": "b8f7d119c791dde823400630c11621f8", "rental_uris": {"ios": "https://dc.lft.to/lastmile_qr_scan", "android": "https://dc.lft.to/lastmile_qr_scan"}, "fusion_lat": 0.0}, {"lat": 38.8992865, "lon": -77.0486595, "is_disabled": 0, "fusion_lon": 0.0, "is_reserved": 0, "name": "584eead920fe1ac08b7c33f769c8647d", "type": "electric_scooter", "bike_id": "584eead920fe1ac08b7c33f769c8647d", "rental_uris": {"ios": "https://dc.lft.to/lastmile_qr_scan", "android": "https://dc.lft.to/lastmile_qr_scan"}, "fusion_lat": 0.0}, {"lat": 38.905441333333336, "lon": -76.9946265, "is_disabled": 0, "fusion_lon": 0.0, "is_reserved": 0, "name": "1c6076e9374c3c5324f06a020bf73272", "type": "electric_scooter", "bike_id": "1c6076e9374c3c5324f06a020bf73272", "rental_uris": {"ios": "https://dc.lft.to/lastmile_qr_scan", "android": "https://dc.lft.to/lastmile_qr_scan"}, "fusion_lat": 0.0}, {"lat": 38.876157, "lon": -77.0008005, "is_disabled": 0, "fusion_lon": 0.0, "is_reserved": 0, "name": "a998134e72a27f7f03f6250e3f224a55", "type": "electric_scooter", "bike_id": "a998134e72a27f7f03f6250e3f224a55", "rental_uris": {"ios": "https://dc.lft.to/lastmile_qr_scan", "android": "https://dc.lft.to/lastmile_qr_scan"}, "fusion_lat": 0.0}, {"lat": 38.882779666666664, "lon": -76.979102, "is_disabled": 0, "fusion_lon": 0.0, "is_reserved": 0, "name": "ded1f6bec5e46d3007b2340959b70101", "type": "electric_scooter", "bike_id": "ded1f6bec5e46d3007b2340959b70101", "rental_uris": {"ios": "https://dc.lft.to/lastmile_qr_scan", "android": "https://dc.lft.to/lastmile_qr_scan"}, "fusion_lat": 0.0}, {"lat": 38.9202905, "lon": -77.03854883333334, "is_disabled": 0, "fusion_lon": 0.0, "is_reserved": 0, "name": "c32921198d72b534de6eea93912d23c0", "type": "electric_scooter", "bike_id": "c32921198d72b534de6eea93912d23c0", "rental_uris": {"ios": "https://dc.lft.to/lastmile_qr_scan", "android": "https://dc.lft.to/lastmile_qr_scan"}, "fusion_lat": 0.0}, {"lat": 38.89218366666667, "lon": -77.02656366666666, "is_disabled": 0, "fusion_lon": 0.0, "is_reserved": 0, "name": "d3022e88040e44e067d91984b1b7f8e0", "type": "electric_scooter", "bike_id": "d3022e88040e44e067d91984b1b7f8e0", "rental_uris": {"ios": "https://dc.lft.to/lastmile_qr_scan", "android": "https://dc.lft.to/lastmile_qr_scan"}, "fusion_lat": 0.0}, {"lat": 38.9209525, "lon": -77.075564, "is_disabled": 0, "fusion_lon": 0.0, "is_reserved": 0, "name": "d71a530490c46f68b5c8ea3697335e1f", "type": "electric_scooter", "bike_id": "d71a530490c46f68b5c8ea3697335e1f", "rental_uris": {"ios": "https://dc.lft.to/lastmile_qr_scan", "android": "https://dc.lft.to/lastmile_qr_scan"}, "fusion_lat": 0.0}, {"lat": 38.9022315, "lon": -76.94192216666667, "is_disabled": 0, "fusion_lon": 0.0, "is_reserved": 0, "name": "1a3dccf3dad14b8fee9ff25965407ccc", "type": "electric_scooter", "bike_id": "1a3dccf3dad14b8fee9ff25965407ccc", "rental_uris": {"ios": "https://dc.lft.to/lastmile_qr_scan", "android": "https://dc.lft.to/lastmile_qr_scan"}, "fusion_lat": 0.0}, {"lat": 38.926559, "lon": -77.0431375, "is_disabled": 0, "fusion_lon": 0.0, "is_reserved": 0, "name": "b5b1425dbd9d68ae4f881246b0f71b66", "type": "electric_scooter", "bike_id": "b5b1425dbd9d68ae4f881246b0f71b66", "rental_uris": {"ios": "https://dc.lft.to/lastmile_qr_scan", "android": "https://dc.lft.to/lastmile_qr_scan"}, "fusion_lat": 0.0}, {"lat": 38.8933365, "lon": -77.031717, "is_disabled": 0, "fusion_lon": 0.0, "is_reserved": 0, "name": "e50971185319ef70a174c18ef39fc40a", "type": "electric_scooter", "bike_id": "e50971185319ef70a174c18ef39fc40a", "rental_uris": {"ios": "https://dc.lft.to/lastmile_qr_scan", "android": "https://dc.lft.to/lastmile_qr_scan"}, "fusion_lat": 0.0}, {"lat": 38.916625, "lon": -77.03003666666666, "is_disabled": 0, "fusion_lon": 0.0, "is_reserved": 0, "name": "44c30ddd0e014ca2e3233b013d753532", "type": "electric_scooter", "bike_id": "44c30ddd0e014ca2e3233b013d753532", "rental_uris": {"ios": "https://dc.lft.to/lastmile_qr_scan", "android": "https://dc.lft.to/lastmile_qr_scan"}, "fusion_lat": 0.0}, {"lat": 38.922793, "lon": -77.036709, "is_disabled": 0, "fusion_lon": 0.0, "is_reserved": 0, "name": "0c8b469926828985eddf5d2d123a3065", "type": "electric_scooter", "bike_id": "0c8b469926828985eddf5d2d123a3065", "rental_uris": {"ios": "https://dc.lft.to/lastmile_qr_scan", "android": "https://dc.lft.to/lastmile_qr_scan"}, "fusion_lat": 0.0}, {"lat": 38.918812333333335, "lon": -77.02179033333333, "is_disabled": 0, "fusion_lon": 0.0, "is_reserved": 0, "name": "caa65c79710acc8f7c52d8a8c01d2815", "type": "electric_scooter", "bike_id": "caa65c79710acc8f7c52d8a8c01d2815", "rental_uris": {"ios": "https://dc.lft.to/lastmile_qr_scan", "android": "https://dc.lft.to/lastmile_qr_scan"}, "fusion_lat": 0.0}, {"lat": 38.87657433333333, "lon": -77.0030805, "is_disabled": 0, "fusion_lon": 0.0, "is_reserved": 0, "name": "e58ed875ea14c354a1cf847267ecede6", "type": "electric_scooter", "bike_id": "e58ed875ea14c354a1cf847267ecede6", "rental_uris": {"ios": "https://dc.lft.to/lastmile_qr_scan", "android": "https://dc.lft.to/lastmile_qr_scan"}, "fusion_lat": 0.0}, {"lat": 38.957420666666664, "lon": -77.00228333333334, "is_disabled": 0, "fusion_lon": 0.0, "is_reserved": 0, "name": "e6e6bac47756793d203758346df26776", "type": "electric_scooter", "bike_id": "e6e6bac47756793d203758346df26776", "rental_uris": {"ios": "https://dc.lft.to/lastmile_qr_scan", "android": "https://dc.lft.to/lastmile_qr_scan"}, "fusion_lat": 0.0}, {"lat": 38.9241415, "lon": -77.0506345, "is_disabled": 0, "fusion_lon": 0.0, "is_reserved": 0, "name": "fbabff01f64c27cc6042c3ae24d1a9b1", "type": "electric_scooter", "bike_id": "fbabff01f64c27cc6042c3ae24d1a9b1", "rental_uris": {"ios": "https://dc.lft.to/lastmile_qr_scan", "android": "https://dc.lft.to/lastmile_qr_scan"}, "fusion_lat": 0.0}, {"lat": 38.897292666666665, "lon": -77.05525633333333, "is_disabled": 0, "fusion_lon": 0.0, "is_reserved": 0, "name": "8c82ebd8eeec260855a9bd7562651d65", "type": "electric_scooter", "bike_id": "8c82ebd8eeec260855a9bd7562651d65", "rental_uris": {"ios": "https://dc.lft.to/lastmile_qr_scan", "android": "https://dc.lft.to/lastmile_qr_scan"}, "fusion_lat": 0.0}, {"lat": 38.859823666666664, "lon": -76.99651516666667, "is_disabled": 0, "fusion_lon": 0.0, "is_reserved": 0, "name": "28358f83aaa8fb25c154ffa009fd2fb0", "type": "electric_scooter", "bike_id": "28358f83aaa8fb25c154ffa009fd2fb0", "rental_uris": {"ios": "https://dc.lft.to/lastmile_qr_scan", "android": "https://dc.lft.to/lastmile_qr_scan"}, "fusion_lat": 0.0}, {"lat": 38.917202833333334, "lon": -77.04611233333334, "is_disabled": 0, "fusion_lon": 0.0, "is_reserved": 0, "name": "26f521922f2cc9ff5b03b07f233d0e62", "type": "electric_scooter", "bike_id": "26f521922f2cc9ff5b03b07f233d0e62", "rental_uris": {"ios": "https://dc.lft.to/lastmile_qr_scan", "android": "https://dc.lft.to/lastmile_qr_scan"}, "fusion_lat": 0.0}, {"lat": 38.915965, "lon": -76.99362466666666, "is_disabled": 0, "fusion_lon": 0.0, "is_reserved": 0, "name": "73467cadacf43198442b0245c56895c3", "type": "electric_scooter", "bike_id": "73467cadacf43198442b0245c56895c3", "rental_uris": {"ios": "https://dc.lft.to/lastmile_qr_scan", "android": "https://dc.lft.to/lastmile_qr_scan"}, "fusion_lat": 0.0}, {"lat": 38.847532333333334, "lon": -76.99505066666667, "is_disabled": 0, "fusion_lon": 0.0, "is_reserved": 0, "name": "afa2d4ede595c42d65be27a513c14606", "type": "electric_scooter", "bike_id": "afa2d4ede595c42d65be27a513c14606", "rental_uris": {"ios": "https://dc.lft.to/lastmile_qr_scan", "android": "https://dc.lft.to/lastmile_qr_scan"}, "fusion_lat": 0.0}, {"lat": 38.948152666666665, "lon": -77.100083, "is_disabled": 0, "fusion_lon": 0.0, "is_reserved": 0, "name": "a95fab28c4943f784d90ca3a5765c90a", "type": "electric_bike", "bike_id": "a95fab28c4943f784d90ca3a5765c90a", "rental_uris": {"ios": "https://dc.lft.to/lastmile_qr_scan", "android": "https://dc.lft.to/lastmile_qr_scan"}, "fusion_lat": 0.0}, {"lat": 38.935789166666666, "lon": -77.03361483333333, "is_disabled": 0, "fusion_lon": 0.0, "is_reserved": 0, "name": "e3b150d80380db13105da97dc93ef2ed", "type": "electric_scooter", "bike_id": "e3b150d80380db13105da97dc93ef2ed", "rental_uris": {"ios": "https://dc.lft.to/lastmile_qr_scan", "android": "https://dc.lft.to/lastmile_qr_scan"}, "fusion_lat": 0.0}, {"lat": 38.902785, "lon": -77.034643, "is_disabled": 0, "fusion_lon": 0.0, "is_reserved": 0, "name": "f8be903b2314291a32d1b1cdb0698f50", "type": "electric_scooter", "bike_id": "f8be903b2314291a32d1b1cdb0698f50", "rental_uris": {"ios": "https://dc.lft.to/lastmile_qr_scan", "android": "https://dc.lft.to/lastmile_qr_scan"}, "fusion_lat": 0.0}, {"lat": 38.90264966666667, "lon": -77.020101, "is_disabled": 0, "fusion_lon": 0.0, "is_reserved": 0, "name": "55e1447918edd14d22b83307709de30f", "type": "electric_scooter", "bike_id": "55e1447918edd14d22b83307709de30f", "rental_uris": {"ios": "https://dc.lft.to/lastmile_qr_scan", "android": "https://dc.lft.to/lastmile_qr_scan"}, "fusion_lat": 0.0}, {"lat": 38.89243833333333, "lon": -77.02787516666666, "is_disabled": 0, "fusion_lon": 0.0, "is_reserved": 0, "name": "3333594898b29aed529f910a9723a9a7", "type": "electric_scooter", "bike_id": "3333594898b29aed529f910a9723a9a7", "rental_uris": {"ios": "https://dc.lft.to/lastmile_qr_scan", "android": "https://dc.lft.to/lastmile_qr_scan"}, "fusion_lat": 0.0}, {"lat": 38.90958966666667, "lon": -77.03949983333334, "is_disabled": 0, "fusion_lon": 0.0, "is_reserved": 0, "name": "f9a4f227174f1f5fc876a16a4c65eed0", "type": "electric_scooter", "bike_id": "f9a4f227174f1f5fc876a16a4c65eed0", "rental_uris": {"ios": "https://dc.lft.to/lastmile_qr_scan", "android": "https://dc.lft.to/lastmile_qr_scan"}, "fusion_lat": 0.0}, {"lat": 38.897209333333336, "lon": -77.02777266666666, "is_disabled": 0, "fusion_lon": 0.0, "is_reserved": 0, "name": "0836d3094e1d14a97f8c9c3eb8e11176", "type": "electric_scooter", "bike_id": "0836d3094e1d14a97f8c9c3eb8e11176", "rental_uris": {"ios": "https://dc.lft.to/lastmile_qr_scan", "android": "https://dc.lft.to/lastmile_qr_scan"}, "fusion_lat": 0.0}, {"lat": 38.948471166666664, "lon": -77.0236165, "is_disabled": 0, "fusion_lon": 0.0, "is_reserved": 0, "name": "9d5161530bad0448b489efa6a5e3e09a", "type": "electric_scooter", "bike_id": "9d5161530bad0448b489efa6a5e3e09a", "rental_uris": {"ios": "https://dc.lft.to/lastmile_qr_scan", "android": "https://dc.lft.to/lastmile_qr_scan"}, "fusion_lat": 0.0}, {"lat": 38.91023033333333, "lon": -77.02400516666667, "is_disabled": 0, "fusion_lon": 0.0, "is_reserved": 0, "name": "01ce08cc363402b48df5e573238c0286", "type": "electric_scooter", "bike_id": "01ce08cc363402b48df5e573238c0286", "rental_uris": {"ios": "https://dc.lft.to/lastmile_qr_scan", "android": "https://dc.lft.to/lastmile_qr_scan"}, "fusion_lat": 0.0}, {"lat": 38.835731, "lon": -77.00128433333333, "is_disabled": 0, "fusion_lon": 0.0, "is_reserved": 0, "name": "d715e9de1e0ac0495ecf78c37989c687", "type": "electric_bike", "bike_id": "d715e9de1e0ac0495ecf78c37989c687", "rental_uris": {"ios": "https://dc.lft.to/lastmile_qr_scan", "android": "https://dc.lft.to/lastmile_qr_scan"}, "fusion_lat": 0.0}, {"lat": 38.944041666666664, "lon": -77.0390905, "is_disabled": 0, "fusion_lon": 0.0, "is_reserved": 0, "name": "58eee6fb7b07ac344d25d59add8fe2d0", "type": "electric_scooter", "bike_id": "58eee6fb7b07ac344d25d59add8fe2d0", "rental_uris": {"ios": "https://dc.lft.to/lastmile_qr_scan", "android": "https://dc.lft.to/lastmile_qr_scan"}, "fusion_lat": 0.0}, {"lat": 38.88519316666667, "lon": -77.01129316666666, "is_disabled": 0, "fusion_lon": 0.0, "is_reserved": 0, "name": "2ae2bbd308f817a94973a4cb2403c403", "type": "electric_scooter", "bike_id": "2ae2bbd308f817a94973a4cb2403c403", "rental_uris": {"ios": "https://dc.lft.to/lastmile_qr_scan", "android": "https://dc.lft.to/lastmile_qr_scan"}, "fusion_lat": 0.0}, {"lat": 38.914169, "lon": -77.010748, "is_disabled": 0, "fusion_lon": 0.0, "is_reserved": 0, "name": "1a6d8d2ebc5a50af4d2ce93f3cdb98ea", "type": "electric_scooter", "bike_id": "1a6d8d2ebc5a50af4d2ce93f3cdb98ea", "rental_uris": {"ios": "https://dc.lft.to/lastmile_qr_scan", "android": "https://dc.lft.to/lastmile_qr_scan"}, "fusion_lat": 0.0}, {"lat": 38.90268716666667, "lon": -77.04475866666667, "is_disabled": 0, "fusion_lon": 0.0, "is_reserved": 0, "name": "226031e5182206ac289095623ab267c8", "type": "electric_scooter", "bike_id": "226031e5182206ac289095623ab267c8", "rental_uris": {"ios": "https://dc.lft.to/lastmile_qr_scan", "android": "https://dc.lft.to/lastmile_qr_scan"}, "fusion_lat": 0.0}, {"lat": 38.90947716666667, "lon": -77.02698866666667, "is_disabled": 0, "fusion_lon": 0.0, "is_reserved": 0, "name": "f34f8c3922414f8e4d6f1f386a48514a", "type": "electric_scooter", "bike_id": "f34f8c3922414f8e4d6f1f386a48514a", "rental_uris": {"ios": "https://dc.lft.to/lastmile_qr_scan", "android": "https://dc.lft.to/lastmile_qr_scan"}, "fusion_lat": 0.0}, {"lat": 38.90379316666667, "lon": -77.03562966666667, "is_disabled": 0, "fusion_lon": 0.0, "is_reserved": 0, "name": "a5b29e8853f363e30c3dae16aa97f1e4", "type": "electric_scooter", "bike_id": "a5b29e8853f363e30c3dae16aa97f1e4", "rental_uris": {"ios": "https://dc.lft.to/lastmile_qr_scan", "android": "https://dc.lft.to/lastmile_qr_scan"}, "fusion_lat": 0.0}, {"lat": 38.8951855, "lon": -77.02828983333333, "is_disabled": 0, "fusion_lon": 0.0, "is_reserved": 0, "name": "2eb313896564583e9c8e36460c79f4d6", "type": "electric_scooter", "bike_id": "2eb313896564583e9c8e36460c79f4d6", "rental_uris": {"ios": "https://dc.lft.to/lastmile_qr_scan", "android": "https://dc.lft.to/lastmile_qr_scan"}, "fusion_lat": 0.0}, {"lat": 38.87397133333333, "lon": -77.01451383333334, "is_disabled": 0, "fusion_lon": 0.0, "is_reserved": 0, "name": "92e53b05794e977d095872317fd71488", "type": "electric_scooter", "bike_id": "92e53b05794e977d095872317fd71488", "rental_uris": {"ios": "https://dc.lft.to/lastmile_qr_scan", "android": "https://dc.lft.to/lastmile_qr_scan"}, "fusion_lat": 0.0}, {"lat": 38.907902666666665, "lon": -77.06360533333333, "is_disabled": 0, "fusion_lon": 0.0, "is_reserved": 0, "name": "9f72d7c01401e05f125d4186b4b9e2bb", "type": "electric_scooter", "bike_id": "9f72d7c01401e05f125d4186b4b9e2bb", "rental_uris": {"ios": "https://dc.lft.to/lastmile_qr_scan", "android": "https://dc.lft.to/lastmile_qr_scan"}, "fusion_lat": 0.0}, {"lat": 38.87473333333333, "lon": -77.004665, "is_disabled": 0, "fusion_lon": 0.0, "is_reserved": 0, "name": "07876946a63152d1c3952c59d555e437", "type": "electric_scooter", "bike_id": "07876946a63152d1c3952c59d555e437", "rental_uris": {"ios": "https://dc.lft.to/lastmile_qr_scan", "android": "https://dc.lft.to/lastmile_qr_scan"}, "fusion_lat": 0.0}, {"lat": 38.926510666666665, "lon": -77.024191, "is_disabled": 0, "fusion_lon": 0.0, "is_reserved": 0, "name": "57627d199591e71416513cc8b867d624", "type": "electric_scooter", "bike_id": "57627d199591e71416513cc8b867d624", "rental_uris": {"ios": "https://dc.lft.to/lastmile_qr_scan", "android": "https://dc.lft.to/lastmile_qr_scan"}, "fusion_lat": 0.0}, {"lat": 38.87637016666667, "lon": -77.01478433333334, "is_disabled": 0, "fusion_lon": 0.0, "is_reserved": 0, "name": "a491c8d01aa01b35b3defdb7e30cce45", "type": "electric_scooter", "bike_id": "a491c8d01aa01b35b3defdb7e30cce45", "rental_uris": {"ios": "https://dc.lft.to/lastmile_qr_scan", "android": "https://dc.lft.to/lastmile_qr_scan"}, "fusion_lat": 0.0}, {"lat": 38.88987066666667, "lon": -76.98365383333334, "is_disabled": 0, "fusion_lon": 0.0, "is_reserved": 0, "name": "276c67fb0813f4de6cb06fe6567e638e", "type": "electric_scooter", "bike_id": "276c67fb0813f4de6cb06fe6567e638e", "rental_uris": {"ios": "https://dc.lft.to/lastmile_qr_scan", "android": "https://dc.lft.to/lastmile_qr_scan"}, "fusion_lat": 0.0}, {"lat": 38.9027935, "lon": -77.03452883333334, "is_disabled": 0, "fusion_lon": 0.0, "is_reserved": 0, "name": "b464dcfc09c55b3ca975aa34a8ca151d", "type": "electric_scooter", "bike_id": "b464dcfc09c55b3ca975aa34a8ca151d", "rental_uris": {"ios": "https://dc.lft.to/lastmile_qr_scan", "android": "https://dc.lft.to/lastmile_qr_scan"}, "fusion_lat": 0.0}, {"lat": 38.91197416666667, "lon": -77.07309383333333, "is_disabled": 0, "fusion_lon": 0.0, "is_reserved": 0, "name": "20912f196f5abfb24bfad63760b4c732", "type": "electric_scooter", "bike_id": "20912f196f5abfb24bfad63760b4c732", "rental_uris": {"ios": "https://dc.lft.to/lastmile_qr_scan", "android": "https://dc.lft.to/lastmile_qr_scan"}, "fusion_lat": 0.0}, {"lat": 38.84273266666667, "lon": -76.98841283333333, "is_disabled": 0, "fusion_lon": 0.0, "is_reserved": 0, "name": "bfaeb98dc7e21696957e15c4fb268508", "type": "electric_bike", "bike_id": "bfaeb98dc7e21696957e15c4fb268508", "rental_uris": {"ios": "https://dc.lft.to/lastmile_qr_scan", "android": "https://dc.lft.to/lastmile_qr_scan"}, "fusion_lat": 0.0}, {"lat": 38.93213516666667, "lon": -77.0326505, "is_disabled": 0, "fusion_lon": 0.0, "is_reserved": 0, "name": "82179f4f1d5153fec10183189e602302", "type": "electric_scooter", "bike_id": "82179f4f1d5153fec10183189e602302", "rental_uris": {"ios": "https://dc.lft.to/lastmile_qr_scan", "android": "https://dc.lft.to/lastmile_qr_scan"}, "fusion_lat": 0.0}, {"lat": 38.89829433333333, "lon": -76.94639083333334, "is_disabled": 0, "fusion_lon": 0.0, "is_reserved": 0, "name": "99299890a77f96c0d4bc3bda7716774a", "type": "electric_scooter", "bike_id": "99299890a77f96c0d4bc3bda7716774a", "rental_uris": {"ios": "https://dc.lft.to/lastmile_qr_scan", "android": "https://dc.lft.to/lastmile_qr_scan"}, "fusion_lat": 0.0}, {"lat": 38.900356333333335, "lon": -77.01190016666666, "is_disabled": 0, "fusion_lon": 0.0, "is_reserved": 0, "name": "38a92528fbfec763d7c2fcd3b9743b98", "type": "electric_scooter", "bike_id": "38a92528fbfec763d7c2fcd3b9743b98", "rental_uris": {"ios": "https://dc.lft.to/lastmile_qr_scan", "android": "https://dc.lft.to/lastmile_qr_scan"}, "fusion_lat": 0.0}, {"lat": 38.92422666666667, "lon": -77.05179033333333, "is_disabled": 0, "fusion_lon": 0.0, "is_reserved": 0, "name": "3b2ccaa75e286b7637e1d90e4f3ce79a", "type": "electric_scooter", "bike_id": "3b2ccaa75e286b7637e1d90e4f3ce79a", "rental_uris": {"ios": "https://dc.lft.to/lastmile_qr_scan", "android": "https://dc.lft.to/lastmile_qr_scan"}, "fusion_lat": 0.0}, {"lat": 38.918587333333335, "lon": -76.960888, "is_disabled": 0, "fusion_lon": 0.0, "is_reserved": 0, "name": "e6ad7bdc5477357ce6cca34500230d06", "type": "electric_bike", "bike_id": "e6ad7bdc5477357ce6cca34500230d06", "rental_uris": {"ios": "https://dc.lft.to/lastmile_qr_scan", "android": "https://dc.lft.to/lastmile_qr_scan"}, "fusion_lat": 0.0}, {"lat": 38.96154683333334, "lon": -77.02789866666667, "is_disabled": 0, "fusion_lon": 0.0, "is_reserved": 0, "name": "55a238d911a06cbf4a71d70bbda4e66b", "type": "electric_scooter", "bike_id": "55a238d911a06cbf4a71d70bbda4e66b", "rental_uris": {"ios": "https://dc.lft.to/lastmile_qr_scan", "android": "https://dc.lft.to/lastmile_qr_scan"}, "fusion_lat": 0.0}, {"lat": 38.915789833333335, "lon": -77.031881, "is_disabled": 0, "fusion_lon": 0.0, "is_reserved": 0, "name": "23ae82539c874d6d72e0cc18ffaf0622", "type": "electric_scooter", "bike_id": "23ae82539c874d6d72e0cc18ffaf0622", "rental_uris": {"ios": "https://dc.lft.to/lastmile_qr_scan", "android": "https://dc.lft.to/lastmile_qr_scan"}, "fusion_lat": 0.0}, {"lat": 38.907155, "lon": -77.01661233333333, "is_disabled": 0, "fusion_lon": 0.0, "is_reserved": 0, "name": "1b50f45a6484b7c22aa57b9a7d74b106", "type": "electric_scooter", "bike_id": "1b50f45a6484b7c22aa57b9a7d74b106", "rental_uris": {"ios": "https://dc.lft.to/lastmile_qr_scan", "android": "https://dc.lft.to/lastmile_qr_scan"}, "fusion_lat": 0.0}, {"lat": 38.9171695, "lon": -77.02947983333334, "is_disabled": 0, "fusion_lon": 0.0, "is_reserved": 0, "name": "5176095471b25a58f6157a084f6e1a41", "type": "electric_scooter", "bike_id": "5176095471b25a58f6157a084f6e1a41", "rental_uris": {"ios": "https://dc.lft.to/lastmile_qr_scan", "android": "https://dc.lft.to/lastmile_qr_scan"}, "fusion_lat": 0.0}, {"lat": 38.90818683333333, "lon": -77.06375733333333, "is_disabled": 0, "fusion_lon": 0.0, "is_reserved": 0, "name": "20a218107b5626bb77fb2b607b1863cf", "type": "electric_scooter", "bike_id": "20a218107b5626bb77fb2b607b1863cf", "rental_uris": {"ios": "https://dc.lft.to/lastmile_qr_scan", "android": "https://dc.lft.to/lastmile_qr_scan"}, "fusion_lat": 0.0}, {"lat": 38.887432833333335, "lon": -77.0256825, "is_disabled": 0, "fusion_lon": 0.0, "is_reserved": 0, "name": "34bd81cd7295eea72b11c126a63d53fe", "type": "electric_scooter", "bike_id": "34bd81cd7295eea72b11c126a63d53fe", "rental_uris": {"ios": "https://dc.lft.to/lastmile_qr_scan", "android": "https://dc.lft.to/lastmile_qr_scan"}, "fusion_lat": 0.0}, {"lat": 38.8907115, "lon": -76.98834583333333, "is_disabled": 0, "fusion_lon": 0.0, "is_reserved": 0, "name": "050274a7c150b7e1214c8b8f068c89ca", "type": "electric_scooter", "bike_id": "050274a7c150b7e1214c8b8f068c89ca", "rental_uris": {"ios": "https://dc.lft.to/lastmile_qr_scan", "android": "https://dc.lft.to/lastmile_qr_scan"}, "fusion_lat": 0.0}, {"lat": 38.900252333333334, "lon": -77.03714966666666, "is_disabled": 0, "fusion_lon": 0.0, "is_reserved": 0, "name": "97b488ba4d38b80e745320e135bc080c", "type": "electric_scooter", "bike_id": "97b488ba4d38b80e745320e135bc080c", "rental_uris": {"ios": "https://dc.lft.to/lastmile_qr_scan", "android": "https://dc.lft.to/lastmile_qr_scan"}, "fusion_lat": 0.0}, {"lat": 38.92143033333333, "lon": -77.04352166666666, "is_disabled": 0, "fusion_lon": 0.0, "is_reserved": 0, "name": "7a244b1b581670e827967d4f7e261fa3", "type": "electric_scooter", "bike_id": "7a244b1b581670e827967d4f7e261fa3", "rental_uris": {"ios": "https://dc.lft.to/lastmile_qr_scan", "android": "https://dc.lft.to/lastmile_qr_scan"}, "fusion_lat": 0.0}, {"lat": 38.912817833333335, "lon": -77.04508966666667, "is_disabled": 0, "fusion_lon": 0.0, "is_reserved": 0, "name": "b81c146aec21e53e08c744545991e7ad", "type": "electric_scooter", "bike_id": "b81c146aec21e53e08c744545991e7ad", "rental_uris": {"ios": "https://dc.lft.to/lastmile_qr_scan", "android": "https://dc.lft.to/lastmile_qr_scan"}, "fusion_lat": 0.0}, {"lat": 38.94975866666667, "lon": -77.024492, "is_disabled": 0, "fusion_lon": 0.0, "is_reserved": 0, "name": "a65d49dd6546578cd09638652616515c", "type": "electric_scooter", "bike_id": "a65d49dd6546578cd09638652616515c", "rental_uris": {"ios": "https://dc.lft.to/lastmile_qr_scan", "android": "https://dc.lft.to/lastmile_qr_scan"}, "fusion_lat": 0.0}, {"lat": 38.89300766666667, "lon": -77.0318185, "is_disabled": 0, "fusion_lon": 0.0, "is_reserved": 0, "name": "b35e8bdd54d46688b004e9ae64772cef", "type": "electric_scooter", "bike_id": "b35e8bdd54d46688b004e9ae64772cef", "rental_uris": {"ios": "https://dc.lft.to/lastmile_qr_scan", "android": "https://dc.lft.to/lastmile_qr_scan"}, "fusion_lat": 0.0}, {"lat": 38.83626566666667, "lon": -77.06949733333333, "is_disabled": 0, "fusion_lon": 0.0, "is_reserved": 0, "name": "a620cae9de5fbed2f327bcd6bc7a5064", "type": "electric_bike", "bike_id": "a620cae9de5fbed2f327bcd6bc7a5064", "rental_uris": {"ios": "https://dc.lft.to/lastmile_qr_scan", "android": "https://dc.lft.to/lastmile_qr_scan"}, "fusion_lat": 0.0}, {"lat": 38.899267, "lon": -77.012746, "is_disabled": 0, "fusion_lon": 0.0, "is_reserved": 0, "name": "675561649e34a64a517e95787a03ccbd", "type": "electric_scooter", "bike_id": "675561649e34a64a517e95787a03ccbd", "rental_uris": {"ios": "https://dc.lft.to/lastmile_qr_scan", "android": "https://dc.lft.to/lastmile_qr_scan"}, "fusion_lat": 0.0}, {"lat": 38.876423, "lon": -77.00585516666666, "is_disabled": 0, "fusion_lon": 0.0, "is_reserved": 0, "name": "d772844cd07443c507536460ac8c5241", "type": "electric_scooter", "bike_id": "d772844cd07443c507536460ac8c5241", "rental_uris": {"ios": "https://dc.lft.to/lastmile_qr_scan", "android": "https://dc.lft.to/lastmile_qr_scan"}, "fusion_lat": 0.0}, {"lat": 38.86192666666667, "lon": -77.07625216666666, "is_disabled": 0, "fusion_lon": 0.0, "is_reserved": 0, "name": "0cb651d5ff35c6762bef49ff57b136c1", "type": "electric_bike", "bike_id": "0cb651d5ff35c6762bef49ff57b136c1", "rental_uris": {"ios": "https://dc.lft.to/lastmile_qr_scan", "android": "https://dc.lft.to/lastmile_qr_scan"}, "fusion_lat": 0.0}, {"lat": 38.9037905, "lon": -77.04028733333334, "is_disabled": 0, "fusion_lon": 0.0, "is_reserved": 0, "name": "9960354e80085f65597e423d932e02d7", "type": "electric_scooter", "bike_id": "9960354e80085f65597e423d932e02d7", "rental_uris": {"ios": "https://dc.lft.to/lastmile_qr_scan", "android": "https://dc.lft.to/lastmile_qr_scan"}, "fusion_lat": 0.0}, {"lat": 38.92519133333333, "lon": -76.99636233333334, "is_disabled": 0, "fusion_lon": 0.0, "is_reserved": 0, "name": "54bfa2d6098b2585ac63f2d7e47ac8ce", "type": "electric_scooter", "bike_id": "54bfa2d6098b2585ac63f2d7e47ac8ce", "rental_uris": {"ios": "https://dc.lft.to/lastmile_qr_scan", "android": "https://dc.lft.to/lastmile_qr_scan"}, "fusion_lat": 0.0}, {"lat": 38.87614166666667, "lon": -76.96548166666666, "is_disabled": 0, "fusion_lon": 0.0, "is_reserved": 0, "name": "b2fe2d74c16e5b083b548d732ee53ae1", "type": "electric_scooter", "bike_id": "b2fe2d74c16e5b083b548d732ee53ae1", "rental_uris": {"ios": "https://dc.lft.to/lastmile_qr_scan", "android": "https://dc.lft.to/lastmile_qr_scan"}, "fusion_lat": 0.0}, {"lat": 38.928931166666665, "lon": -77.01617583333334, "is_disabled": 0, "fusion_lon": 0.0, "is_reserved": 0, "name": "e3a84d82780bf581d994e784ad7d85a1", "type": "electric_scooter", "bike_id": "e3a84d82780bf581d994e784ad7d85a1", "rental_uris": {"ios": "https://dc.lft.to/lastmile_qr_scan", "android": "https://dc.lft.to/lastmile_qr_scan"}, "fusion_lat": 0.0}, {"lat": 38.895494, "lon": -77.0091775, "is_disabled": 0, "fusion_lon": 0.0, "is_reserved": 0, "name": "5f8161875bc67a54db4b0fab85b93638", "type": "electric_scooter", "bike_id": "5f8161875bc67a54db4b0fab85b93638", "rental_uris": {"ios": "https://dc.lft.to/lastmile_qr_scan", "android": "https://dc.lft.to/lastmile_qr_scan"}, "fusion_lat": 0.0}, {"lat": 38.899136166666665, "lon": -77.01377, "is_disabled": 0, "fusion_lon": 0.0, "is_reserved": 0, "name": "bfa718a2cc11219a5ad3e3d911e20456", "type": "electric_scooter", "bike_id": "bfa718a2cc11219a5ad3e3d911e20456", "rental_uris": {"ios": "https://dc.lft.to/lastmile_qr_scan", "android": "https://dc.lft.to/lastmile_qr_scan"}, "fusion_lat": 0.0}, {"lat": 38.898306, "lon": -77.03037233333333, "is_disabled": 0, "fusion_lon": 0.0, "is_reserved": 0, "name": "2272d8c7afa0fca26c9e6aff32875a15", "type": "electric_scooter", "bike_id": "2272d8c7afa0fca26c9e6aff32875a15", "rental_uris": {"ios": "https://dc.lft.to/lastmile_qr_scan", "android": "https://dc.lft.to/lastmile_qr_scan"}, "fusion_lat": 0.0}, {"lat": 38.91909016666666, "lon": -77.03119716666667, "is_disabled": 0, "fusion_lon": 0.0, "is_reserved": 0, "name": "4e7d0b80f0116b7a0eb160e8fdcd88db", "type": "electric_scooter", "bike_id": "4e7d0b80f0116b7a0eb160e8fdcd88db", "rental_uris": {"ios": "https://dc.lft.to/lastmile_qr_scan", "android": "https://dc.lft.to/lastmile_qr_scan"}, "fusion_lat": 0.0}, {"lat": 38.8665675, "lon": -76.98896583333334, "is_disabled": 0, "fusion_lon": 0.0, "is_reserved": 0, "name": "e65ab6049b2eb9c6ccf94fa082e823d9", "type": "electric_scooter", "bike_id": "e65ab6049b2eb9c6ccf94fa082e823d9", "rental_uris": {"ios": "https://dc.lft.to/lastmile_qr_scan", "android": "https://dc.lft.to/lastmile_qr_scan"}, "fusion_lat": 0.0}, {"lat": 38.87332466666667, "lon": -77.00049566666667, "is_disabled": 0, "fusion_lon": 0.0, "is_reserved": 0, "name": "ecb010bac1f84cb84629f656cec7c237", "type": "electric_scooter", "bike_id": "ecb010bac1f84cb84629f656cec7c237", "rental_uris": {"ios": "https://dc.lft.to/lastmile_qr_scan", "android": "https://dc.lft.to/lastmile_qr_scan"}, "fusion_lat": 0.0}, {"lat": 38.89921783333333, "lon": -77.04033316666667, "is_disabled": 0, "fusion_lon": 0.0, "is_reserved": 0, "name": "1f84dc6179188af06369f384b3c729d3", "type": "electric_scooter", "bike_id": "1f84dc6179188af06369f384b3c729d3", "rental_uris": {"ios": "https://dc.lft.to/lastmile_qr_scan", "android": "https://dc.lft.to/lastmile_qr_scan"}, "fusion_lat": 0.0}, {"lat": 38.90508033333333, "lon": -77.04478683333333, "is_disabled": 0, "fusion_lon": 0.0, "is_reserved": 0, "name": "08c85aeb51285412b32323f9e2d487ed", "type": "electric_scooter", "bike_id": "08c85aeb51285412b32323f9e2d487ed", "rental_uris": {"ios": "https://dc.lft.to/lastmile_qr_scan", "android": "https://dc.lft.to/lastmile_qr_scan"}, "fusion_lat": 0.0}, {"lat": 38.887451666666664, "lon": -77.0140455, "is_disabled": 0, "fusion_lon": 0.0, "is_reserved": 0, "name": "8fec14aef85b2444294196e2e03e1a91", "type": "electric_scooter", "bike_id": "8fec14aef85b2444294196e2e03e1a91", "rental_uris": {"ios": "https://dc.lft.to/lastmile_qr_scan", "android": "https://dc.lft.to/lastmile_qr_scan"}, "fusion_lat": 0.0}, {"lat": 38.8787055, "lon": -76.99681666666666, "is_disabled": 0, "fusion_lon": 0.0, "is_reserved": 0, "name": "2c8ad6a9ff44eef69be773841f385f6d", "type": "electric_scooter", "bike_id": "2c8ad6a9ff44eef69be773841f385f6d", "rental_uris": {"ios": "https://dc.lft.to/lastmile_qr_scan", "android": "https://dc.lft.to/lastmile_qr_scan"}, "fusion_lat": 0.0}, {"lat": 38.897862, "lon": -77.039546, "is_disabled": 0, "fusion_lon": 0.0, "is_reserved": 0, "name": "7eb8baf0673658aca0311991399342c3", "type": "electric_scooter", "bike_id": "7eb8baf0673658aca0311991399342c3", "rental_uris": {"ios": "https://dc.lft.to/lastmile_qr_scan", "android": "https://dc.lft.to/lastmile_qr_scan"}, "fusion_lat": 0.0}, {"lat": 38.934498, "lon": -77.03869766666666, "is_disabled": 0, "fusion_lon": 0.0, "is_reserved": 0, "name": "3fe1b65cbdfc9b3fdac479a69f3f4527", "type": "electric_scooter", "bike_id": "3fe1b65cbdfc9b3fdac479a69f3f4527", "rental_uris": {"ios": "https://dc.lft.to/lastmile_qr_scan", "android": "https://dc.lft.to/lastmile_qr_scan"}, "fusion_lat": 0.0}, {"lat": 38.921702333333336, "lon": -77.038304, "is_disabled": 0, "fusion_lon": 0.0, "is_reserved": 0, "name": "a2afdb9ad6a43bc0af7adabd95925eb9", "type": "electric_scooter", "bike_id": "a2afdb9ad6a43bc0af7adabd95925eb9", "rental_uris": {"ios": "https://dc.lft.to/lastmile_qr_scan", "android": "https://dc.lft.to/lastmile_qr_scan"}, "fusion_lat": 0.0}, {"lat": 38.9241395, "lon": -77.05064433333334, "is_disabled": 0, "fusion_lon": 0.0, "is_reserved": 0, "name": "7c21a0db385099f4512401b7d2ba42fe", "type": "electric_scooter", "bike_id": "7c21a0db385099f4512401b7d2ba42fe", "rental_uris": {"ios": "https://dc.lft.to/lastmile_qr_scan", "android": "https://dc.lft.to/lastmile_qr_scan"}, "fusion_lat": 0.0}, {"lat": 38.939861666666665, "lon": -77.0254695, "is_disabled": 0, "fusion_lon": 0.0, "is_reserved": 0, "name": "5479fc8ce906f716fff6795864a0b0a3", "type": "electric_scooter", "bike_id": "5479fc8ce906f716fff6795864a0b0a3", "rental_uris": {"ios": "https://dc.lft.to/lastmile_qr_scan", "android": "https://dc.lft.to/lastmile_qr_scan"}, "fusion_lat": 0.0}, {"lat": 38.92028083333334, "lon": -77.03065266666667, "is_disabled": 0, "fusion_lon": 0.0, "is_reserved": 0, "name": "d4cf6641f4c92df92f9794f97f47002f", "type": "electric_scooter", "bike_id": "d4cf6641f4c92df92f9794f97f47002f", "rental_uris": {"ios": "https://dc.lft.to/lastmile_qr_scan", "android": "https://dc.lft.to/lastmile_qr_scan"}, "fusion_lat": 0.0}, {"lat": 38.8926685, "lon": -77.04675983333334, "is_disabled": 0, "fusion_lon": 0.0, "is_reserved": 0, "name": "3ca1109f691340e73c49692a7992b9bd", "type": "electric_scooter", "bike_id": "3ca1109f691340e73c49692a7992b9bd", "rental_uris": {"ios": "https://dc.lft.to/lastmile_qr_scan", "android": "https://dc.lft.to/lastmile_qr_scan"}, "fusion_lat": 0.0},