{"data": {"bikes": [{"name": "c23a80a1ba64753245c692161ed2a047", "fusion_lat": 0.0, "type": "electric_scooter", "lat": 38.9182135, "is_reserved": 0, "is_disabled": 0, "fusion_lon": 0.0, "bike_id": "c23a80a1ba64753245c692161ed2a047", "lon": -77.0325445, "rental_uris": {"ios": "https://dc.lft.to/lastmile_qr_scan", "android": "https://dc.lft.to/lastmile_qr_scan"}}, {"name": "5aea0b413a903698b9a7e3936842c551", "fusion_lat": 0.0, "type": "electric_scooter", "lat": 38.915808, "is_reserved": 0, "is_disabled": 0, "fusion_lon": 0.0, "bike_id": "5aea0b413a903698b9a7e3936842c551", "lon": -77.03197166666666, "rental_uris": {"ios": "https://dc.lft.to/lastmile_qr_scan", "android": "https://dc.lft.to/lastmile_qr_scan"}}, {"name": "1a845982464f7241cf996370c6f29f7a", "fusion_lat": 0.0, "type": "electric_scooter", "lat": 38.918031166666665, "is_reserved": 0, "is_disabled": 0, "fusion_lon": 0.0, "bike_id": "1a845982464f7241cf996370c6f29f7a", "lon": -77.04014066666667, "rental_uris": {"ios": "https://dc.lft.to/lastmile_qr_scan", "android": "https://dc.lft.to/lastmile_qr_scan"}}, {"name": "9727efab15ee8fe5a7245aa9587d7528", "fusion_lat": 0.0, "type": "electric_scooter", "lat": 38.91262866666667, "is_reserved": 0, "is_disabled": 0, "fusion_lon": 0.0, "bike_id": "9727efab15ee8fe5a7245aa9587d7528", "lon": -77.04151783333333, "rental_uris": {"ios": "https://dc.lft.to/lastmile_qr_scan", "android": "https://dc.lft.to/lastmile_qr_scan"}}, {"name": "0a49172ad15a1d738422e24fcf1761d3", "fusion_lat": 0.0, "type": "electric_bike", "lat": 38.85243833333333, "is_reserved": 0, "is_disabled": 0, "fusion_lon": 0.0, "bike_id": "0a49172ad15a1d738422e24fcf1761d3", "lon": -77.1142765, "rental_uris": {"ios": "https://dc.lft.to/lastmile_qr_scan", "android": "https://dc.lft.to/lastmile_qr_scan"}}, {"name": "946c71a5dfc9ca649b298c3fe8ca19be", "fusion_lat": 0.0, "type": "electric_scooter", "lat": 38.958693833333335, "is_reserved": 0, "is_disabled": 0, "fusion_lon": 0.0, "bike_id": "946c71a5dfc9ca649b298c3fe8ca19be", "lon": -77.02050016666666, "rental_uris": {"ios": "https://dc.lft.to/lastmile_qr_scan", "android": "https://dc.lft.to/lastmile_qr_scan"}}, {"name": "569aa17d2828763bf397a30ca6fc46a9", "fusion_lat": 0.0, "type": "electric_scooter", "lat": 38.90955533333333, "is_reserved": 0, "is_disabled": 0, "fusion_lon": 0.0, "bike_id": "569aa17d2828763bf397a30ca6fc46a9", "lon": -77.04136083333333, "rental_uris": {"ios": "https://dc.lft.to/lastmile_qr_scan", "android": "https://dc.lft.to/lastmile_qr_scan"}}, {"name": "92ac0a78302e601b582ba95a13db6dc1", "fusion_lat": 0.0, "type": "electric_scooter", "lat": 38.91837566666667, "is_reserved": 0, "is_disabled": 0, "fusion_lon": 0.0, "bike_id": "92ac0a78302e601b582ba95a13db6dc1", "lon": -77.0270725, "rental_uris": {"ios": "https://dc.lft.to/lastmile_qr_scan", "android": "https://dc.lft.to/lastmile_qr_scan"}}, {"name": "f10e5a4f0f790c2c1eeca28d57ee8204", "fusion_lat": 0.0, "type": "electric_scooter", "lat": 38.90724733333333, "is_reserved": 0, "is_disabled": 0, "fusion_lon": 0.0, "bike_id": "f10e5a4f0f790c2c1eeca28d57ee8204", "lon": -77.0449625, "rental_uris": {"ios": "https://dc.lft.to/lastmile_qr_scan", "android": "https://dc.lft.to/lastmile_qr_scan"}}, {"name": "17ab6946c996bcdbc4697fb8122c2a42", "fusion_lat": 0.0, "type": "electric_scooter", "lat": 38.93465616666667, "is_reserved": 0, "is_disabled": 0, "fusion_lon": 0.0, "bike_id": "17ab6946c996bcdbc4697fb8122c2a42", "lon": -77.02850816666667, "rental_uris": {"ios": "https://dc.lft.to/lastmile_qr_scan", "android": "https://dc.lft.to/lastmile_qr_scan"}}, {"name": "4751ea3fd07d63d574e41c1bb7261b28", "fusion_lat": 0.0, "type": "electric_scooter", "lat": 38.902814166666666, "is_reserved": 0, "is_disabled": 0, "fusion_lon": 0.0, "bike_id": "4751ea3fd07d63d574e41c1bb7261b28", "lon": -77.03846533333333, "rental_uris": {"ios": "https://dc.lft.to/lastmile_qr_scan", "android": "https://dc.lft.to/lastmile_qr_scan"}}, {"name": "eb5cef0502442cc70e8c120c9f8d182e", "fusion_lat": 0.0, "type": "electric_scooter", "lat": 38.919707833333334, "is_reserved": 0, "is_disabled": 0, "fusion_lon": 0.0, "bike_id": "eb5cef0502442cc70e8c120c9f8d182e", "lon": -77.024931, "rental_uris": {"ios": "https://dc.lft.to/lastmile_qr_scan", "android": "https://dc.lft.to/lastmile_qr_scan"}}, {"name": "4a77d6ffc915cefe91e60b73d06e7850", "fusion_lat": 0.0, "type": "electric_scooter", "lat": 38.936971, "is_reserved": 0, "is_disabled": 0, "fusion_lon": 0.0, "bike_id": "4a77d6ffc915cefe91e60b73d06e7850", "lon": -77.05601483333334, "rental_uris": {"ios": "https://dc.lft.to/lastmile_qr_scan", "android": "https://dc.lft.to/lastmile_qr_scan"}}, {"name": "bd709fe965893968d90647f1c33cf978", "fusion_lat": 0.0, "type": "electric_scooter", "lat": 38.909584, "is_reserved": 0, "is_disabled": 0, "fusion_lon": 0.0, "bike_id": "bd709fe965893968d90647f1c33cf978", "lon": -77.02383433333334, "rental_uris": {"ios": "https://dc.lft.to/lastmile_qr_scan", "android": "https://dc.lft.to/lastmile_qr_scan"}}, {"name": "705be0fcb57ff7a17d7465a2ec0ecafe", "fusion_lat": 0.0, "type": "electric_scooter", "lat": 38.920646166666664, "is_reserved": 0, "is_disabled": 0, "fusion_lon": 0.0, "bike_id": "705be0fcb57ff7a17d7465a2ec0ecafe", "lon": -77.02708516666667, "rental_uris": {"ios": "https://dc.lft.to/lastmile_qr_scan", "android": "https://dc.lft.to/lastmile_qr_scan"}}, {"name": "68cc5886ad527bd27b8de09f416e064a", "fusion_lat": 0.0, "type": "electric_scooter", "lat": 38.933315, "is_reserved": 0, "is_disabled": 0, "fusion_lon": 0.0, "bike_id": "68cc5886ad527bd27b8de09f416e064a", "lon": -77.02749866666667, "rental_uris": {"ios": "https://dc.lft.to/lastmile_qr_scan", "android": "https://dc.lft.to/lastmile_qr_scan"}}, {"name": "c2f4231d43c24feb24335c636e8ca859", "fusion_lat": 0.0, "type": "electric_scooter", "lat": 38.883766333333334, "is_reserved": 0, "is_disabled": 0, "fusion_lon": 0.0, "bike_id": "c2f4231d43c24feb24335c636e8ca859", "lon": -77.019465, "rental_uris": {"ios": "https://dc.lft.to/lastmile_qr_scan", "android": "https://dc.lft.to/lastmile_qr_scan"}}, {"name": "634e59860ca0042ef0fd47569c6d47e2", "fusion_lat": 0.0, "type": "electric_scooter", "lat": 38.9389485, "is_reserved": 0, "is_disabled": 0, "fusion_lon": 0.0, "bike_id": "634e59860ca0042ef0fd47569c6d47e2", "lon": -77.03268966666667, "rental_uris": {"ios": "https://dc.lft.to/lastmile_qr_scan", "android": "https://dc.lft.to/lastmile_qr_scan"}}, {"name": "d7caaa9f1883bb2312ba4b041109165c", "fusion_lat": 0.0, "type": "electric_scooter", "lat": 38.918194666666665, "is_reserved": 0, "is_disabled": 0, "fusion_lon": 0.0, "bike_id": "d7caaa9f1883bb2312ba4b041109165c", "lon": -77.04000583333334, "rental_uris": {"ios": "https://dc.lft.to/lastmile_qr_scan", "android": "https://dc.lft.to/lastmile_qr_scan"}}, {"name": "3887ed483140c9fff037ade6e0ed780e", "fusion_lat": 0.0, "type": "electric_scooter", "lat": 38.8961125, "is_reserved": 0, "is_disabled": 0, "fusion_lon": 0.0, "bike_id": "3887ed483140c9fff037ade6e0ed780e", "lon": -77.0176555, "rental_uris": {"ios": "https://dc.lft.to/lastmile_qr_scan", "android": "https://dc.lft.to/lastmile_qr_scan"}}, {"name": "09083907c02a59610c99a7a67cb3a3bb", "fusion_lat": 0.0, "type": "electric_scooter", "lat": 38.90886, "is_reserved": 0, "is_disabled": 0, "fusion_lon": 0.0, "bike_id": "09083907c02a59610c99a7a67cb3a3bb", "lon": -77.0057695, "rental_uris": {"ios": "https://dc.lft.to/lastmile_qr_scan", "android": "https://dc.lft.to/lastmile_qr_scan"}}, {"name": "bd59416cfc007c3862f5029c08cd32c8", "fusion_lat": 0.0, "type": "electric_scooter", "lat": 38.903960833333336, "is_reserved": 0, "is_disabled": 0, "fusion_lon": 0.0, "bike_id": "bd59416cfc007c3862f5029c08cd32c8", "lon": -77.06402616666666, "rental_uris": {"ios": "https://dc.lft.to/lastmile_qr_scan", "android": "https://dc.lft.to/lastmile_qr_scan"}}, {"name": "0fbfabdbb2bd2cec098ad25ff10d1f21", "fusion_lat": 0.0, "type": "electric_scooter", "lat": 38.9175095, "is_reserved": 0, "is_disabled": 0, "fusion_lon": 0.0, "bike_id": "0fbfabdbb2bd2cec098ad25ff10d1f21", "lon": -77.018851, "rental_uris": {"ios": "https://dc.lft.to/lastmile_qr_scan", "android": "https://dc.lft.to/lastmile_qr_scan"}}, {"name": "03309b34f80a4669680adb981aee4135", "fusion_lat": 0.0, "type": "electric_scooter", "lat": 38.86156016666666, "is_reserved": 0, "is_disabled": 0, "fusion_lon": 0.0, "bike_id": "03309b34f80a4669680adb981aee4135", "lon": -76.98902316666667, "rental_uris": {"ios": "https://dc.lft.to/lastmile_qr_scan", "android": "https://dc.lft.to/lastmile_qr_scan"}}, {"name": "100dee55a78466841376f830cb194976", "fusion_lat": 0.0, "type": "electric_scooter", "lat": 38.92311466666666, "is_reserved": 0, "is_disabled": 0, "fusion_lon": 0.0, "bike_id": "100dee55a78466841376f830cb194976", "lon": -77.03889783333334, "rental_uris": {"ios": "https://dc.lft.to/lastmile_qr_scan", "android": "https://dc.lft.to/lastmile_qr_scan"}}, {"name": "a87174579586d13198ed5ce9eb5da8f3", "fusion_lat": 0.0, "type": "electric_scooter", "lat": 38.89876866666667, "is_reserved": 0, "is_disabled": 0, "fusion_lon": 0.0, "bike_id": "a87174579586d13198ed5ce9eb5da8f3", "lon": -76.9316155, "rental_uris": {"ios": "https://dc.lft.to/lastmile_qr_scan", "android": "https://dc.lft.to/lastmile_qr_scan"}}, {"name": "29a11950e278ab4174d13118b3fe28b6", "fusion_lat": 0.0, "type": "electric_scooter", "lat": 38.883239333333336, "is_reserved": 0, "is_disabled": 0, "fusion_lon": 0.0, "bike_id": "29a11950e278ab4174d13118b3fe28b6", "lon": -77.02365166666667, "rental_uris": {"ios": "https://dc.lft.to/lastmile_qr_scan", "android": "https://dc.lft.to/lastmile_qr_scan"}}, {"name": "d66120d8d7e288a4ec4cb2c9ab298762", "fusion_lat": 0.0, "type": "electric_scooter", "lat": 38.874754, "is_reserved": 0, "is_disabled": 0, "fusion_lon": 0.0, "bike_id": "d66120d8d7e288a4ec4cb2c9ab298762", "lon": -77.01068316666667, "rental_uris": {"ios": "https://dc.lft.to/lastmile_qr_scan", "android": "https://dc.lft.to/lastmile_qr_scan"}}, {"name": "288e845c02f55d228cf6bc67205b37f3", "fusion_lat": 0.0, "type": "electric_bike", "lat": 38.86868583333333, "is_reserved": 0, "is_disabled": 0, "fusion_lon": 0.0, "bike_id": "288e845c02f55d228cf6bc67205b37f3", "lon": -76.91663633333333, "rental_uris": {"ios": "https://dc.lft.to/lastmile_qr_scan", "android": "https://dc.lft.to/lastmile_qr_scan"}}, {"name": "bf1076fb114d62735f7ae0f768817669", "fusion_lat": 0.0, "type": "electric_scooter", "lat": 38.903935, "is_reserved": 0, "is_disabled": 0, "fusion_lon": 0.0, "bike_id": "bf1076fb114d62735f7ae0f768817669", "lon": -76.9894405, "rental_uris": {"ios": "https://dc.lft.to/lastmile_qr_scan", "android": "https://dc.lft.to/lastmile_qr_scan"}}, {"name": "f4ddbd797859776f965abe8c45db2b9e", "fusion_lat": 0.0, "type": "electric_scooter", "lat": 38.91417583333333, "is_reserved": 0, "is_disabled": 0, "fusion_lon": 0.0, "bike_id": "f4ddbd797859776f965abe8c45db2b9e", "lon": -77.00969416666666, "rental_uris": {"ios": "https://dc.lft.to/lastmile_qr_scan", "android": "https://dc.lft.to/lastmile_qr_scan"}}, {"name": "eefd87de17fff8741e0b1ed1303082c4", "fusion_lat": 0.0, "type": "electric_scooter", "lat": 38.896595166666664, "is_reserved": 0, "is_disabled": 0, "fusion_lon": 0.0, "bike_id": "eefd87de17fff8741e0b1ed1303082c4", "lon": -76.947329, "rental_uris": {"ios": "https://dc.lft.to/lastmile_qr_scan", "android": "https://dc.lft.to/lastmile_qr_scan"}}, {"name": "f957f6d12d0d9c3905bb9e91c5d4983c", "fusion_lat": 0.0, "type": "electric_bike", "lat": 38.89647133333333, "is_reserved": 0, "is_disabled": 0, "fusion_lon": 0.0, "bike_id": "f957f6d12d0d9c3905bb9e91c5d4983c", "lon": -77.1045135, "rental_uris": {"ios": "https://dc.lft.to/lastmile_qr_scan", "android": "https://dc.lft.to/lastmile_qr_scan"}}, {"name": "8adba13adae1eb0a396c0cd2ba4f2c4a", "fusion_lat": 0.0, "type": "electric_scooter", "lat": 38.917096666666666, "is_reserved": 0, "is_disabled": 0, "fusion_lon": 0.0, "bike_id": "8adba13adae1eb0a396c0cd2ba4f2c4a", "lon": -77.0288605, "rental_uris": {"ios": "https://dc.lft.to/lastmile_qr_scan", "android": "https://dc.lft.to/lastmile_qr_scan"}}, {"name": "148f96f57903c1b344808e573defa3fb", "fusion_lat": 0.0, "type": "electric_scooter", "lat": 38.911107666666666, "is_reserved": 0, "is_disabled": 0, "fusion_lon": 0.0, "bike_id": "148f96f57903c1b344808e573defa3fb", "lon": -77.04504566666667, "rental_uris": {"ios": "https://dc.lft.to/lastmile_qr_scan", "android": "https://dc.lft.to/lastmile_qr_scan"}}, {"name": "5c17079bb8416bed901b82bb405b1ca5", "fusion_lat": 0.0, "type": "electric_scooter", "lat": 38.915626333333336, "is_reserved": 0, "is_disabled": 0, "fusion_lon": 0.0, "bike_id": "5c17079bb8416bed901b82bb405b1ca5", "lon": -77.01413616666666, "rental_uris": {"ios": "https://dc.lft.to/lastmile_qr_scan", "android": "https://dc.lft.to/lastmile_qr_scan"}}, {"name": "c16643831a29a9c3e33b45cd8b24c0ff", "fusion_lat": 0.0, "type": "electric_bike", "lat": 38.94602716666667, "is_reserved": 0, "is_disabled": 0, "fusion_lon": 0.0, "bike_id": "c16643831a29a9c3e33b45cd8b24c0ff", "lon": -77.02977516666667, "rental_uris": {"ios": "https://dc.lft.to/lastmile_qr_scan", "android": "https://dc.lft.to/lastmile_qr_scan"}}, {"name": "c30ab87f59a3b9c64a9b2f3b3356a6eb", "fusion_lat": 0.0, "type": "electric_bike", "lat": 38.8760305, "is_reserved": 0, "is_disabled": 0, "fusion_lon": 0.0, "bike_id": "c30ab87f59a3b9c64a9b2f3b3356a6eb", "lon": -77.0007585, "rental_uris": {"ios": "https://dc.lft.to/lastmile_qr_scan", "android": "https://dc.lft.to/lastmile_qr_scan"}}, {"name": "158f8d08cf41e10487dfb43f9d51916b", "fusion_lat": 0.0, "type": "electric_scooter", "lat": 38.916523166666664, "is_reserved": 0, "is_disabled": 0, "fusion_lon": 0.0, "bike_id": "158f8d08cf41e10487dfb43f9d51916b", "lon": -77.02301466666667, "rental_uris": {"ios": "https://dc.lft.to/lastmile_qr_scan", "android": "https://dc.lft.to/lastmile_qr_scan"}}, {"name": "945fc67f9a157eeae175852083a2852f", "fusion_lat": 0.0, "type": "electric_bike", "lat": 38.853972666666664, "is_reserved": 0, "is_disabled": 0, "fusion_lon": 0.0, "bike_id": "945fc67f9a157eeae175852083a2852f", "lon": -77.11810666666666, "rental_uris": {"ios": "https://dc.lft.to/lastmile_qr_scan", "android": "https://dc.lft.to/lastmile_qr_scan"}}, {"name": "880fbf2f09b31edb4efefd146f4d7194", "fusion_lat": 0.0, "type": "electric_scooter", "lat": 38.910379166666665, "is_reserved": 0, "is_disabled": 0, "fusion_lon": 0.0, "bike_id": "880fbf2f09b31edb4efefd146f4d7194", "lon": -77.02386716666666, "rental_uris": {"ios": "https://dc.lft.to/lastmile_qr_scan", "android": "https://dc.lft.to/lastmile_qr_scan"}}, {"name": "3f040f6588ebdfa7c72e64b43383ea20", "fusion_lat": 0.0, "type": "electric_scooter", "lat": 38.898430833333336, "is_reserved": 0, "is_disabled": 0, "fusion_lon": 0.0, "bike_id": "3f040f6588ebdfa7c72e64b43383ea20", "lon": -77.02931916666667, "rental_uris": {"ios": "https://dc.lft.to/lastmile_qr_scan", "android": "https://dc.lft.to/lastmile_qr_scan"}}, {"name": "12ce84c91824959f472dc0a57b46625a", "fusion_lat": 0.0, "type": "electric_scooter", "lat": 38.90958783333333, "is_reserved": 0, "is_disabled": 0, "fusion_lon": 0.0, "bike_id": "12ce84c91824959f472dc0a57b46625a", "lon": -77.01132166666666, "rental_uris": {"ios": "https://dc.lft.to/lastmile_qr_scan", "android": "https://dc.lft.to/lastmile_qr_scan"}}, {"name": "5a518905258122400547c96132aefa5c", "fusion_lat": 0.0, "type": "electric_scooter", "lat": 38.937024666666666, "is_reserved": 0, "is_disabled": 0, "fusion_lon": 0.0, "bike_id": "5a518905258122400547c96132aefa5c", "lon": -77.02401266666666, "rental_uris": {"ios": "https://dc.lft.to/lastmile_qr_scan", "android": "https://dc.lft.to/lastmile_qr_scan"}}, {"name": "e93afee40afd55ed77f3fdb67e65e6d9", "fusion_lat": 0.0, "type": "electric_scooter", "lat": 38.876543, "is_reserved": 0, "is_disabled": 0, "fusion_lon": 0.0, "bike_id": "e93afee40afd55ed77f3fdb67e65e6d9", "lon": -77.00442616666666, "rental_uris": {"ios": "https://dc.lft.to/lastmile_qr_scan", "android": "https://dc.lft.to/lastmile_qr_scan"}}, {"name": "285013e17a6231ad8eac7b478c072b0f", "fusion_lat": 0.0, "type": "electric_scooter", "lat": 38.898511666666664, "is_reserved": 0, "is_disabled": 0, "fusion_lon": 0.0, "bike_id": "285013e17a6231ad8eac7b478c072b0f", "lon": -77.00737333333333, "rental_uris": {"ios": "https://dc.lft.to/lastmile_qr_scan", "android": "https://dc.lft.to/lastmile_qr_scan"}}, {"name": "876e8d4410409a57267856d6619dfccb", "fusion_lat": 0.0, "type": "electric_scooter", "lat": 38.899760666666666, "is_reserved": 0, "is_disabled": 0, "fusion_lon": 0.0, "bike_id": "876e8d4410409a57267856d6619dfccb", "lon": -77.02712083333333, "rental_uris": {"ios": "https://dc.lft.to/lastmile_qr_scan", "android": "https://dc.lft.to/lastmile_qr_scan"}}, {"name": "279720f26b36be86be799e4059bdfe0f", "fusion_lat": 0.0, "type": "electric_scooter", "lat": 38.91741366666667, "is_reserved": 0, "is_disabled": 0, "fusion_lon": 0.0, "bike_id": "279720f26b36be86be799e4059bdfe0f", "lon": -77.03205816666667, "rental_uris": {"ios": "https://dc.lft.to/lastmile_qr_scan", "android": "https://dc.lft.to/lastmile_qr_scan"}}, {"name": "98a398b510fe531ccdfbc6eb684b50c4", "fusion_lat": 0.0, "type": "electric_bike", "lat": 38.994560666666665, "is_reserved": 0, "is_disabled": 0, "fusion_lon": 0.0, "bike_id": "98a398b510fe531ccdfbc6eb684b50c4", "lon": -76.90816316666667, "rental_uris": {"ios": "https://dc.lft.to/lastmile_qr_scan", "android": "https://dc.lft.to/lastmile_qr_scan"}}, {"name": "3b32ba90c42f4edbbb08aa7b2771978d", "fusion_lat": 0.0, "type": "electric_scooter", "lat": 38.92238316666667, "is_reserved": 0, "is_disabled": 0, "fusion_lon": 0.0, "bike_id": "3b32ba90c42f4edbbb08aa7b2771978d", "lon": -77.030901, "rental_uris": {"ios": "https://dc.lft.to/lastmile_qr_scan", "android": "https://dc.lft.to/lastmile_qr_scan"}}, {"name": "e3c20544872de662a6c2c410ed533907", "fusion_lat": 0.0, "type": "electric_scooter", "lat": 38.9117745, "is_reserved": 0, "is_disabled": 0, "fusion_lon": 0.0, "bike_id": "e3c20544872de662a6c2c410ed533907", "lon": -77.03180983333333, "rental_uris": {"ios": "https://dc.lft.to/lastmile_qr_scan", "android": "https://dc.lft.to/lastmile_qr_scan"}}, {"name": "efd4979225176b31815da2272a02b3f1", "fusion_lat": 0.0, "type": "electric_scooter", "lat": 38.9027565, "is_reserved": 0, "is_disabled": 0, "fusion_lon": 0.0, "bike_id": "efd4979225176b31815da2272a02b3f1", "lon": -77.03842683333333, "rental_uris": {"ios": "https://dc.lft.to/lastmile_qr_scan", "android": "https://dc.lft.to/lastmile_qr_scan"}}, {"name": "a7a2e16237ee3075c6a2696d41ea3a66", "fusion_lat": 0.0, "type": "electric_scooter", "lat": 38.90531283333333, "is_reserved": 0, "is_disabled": 0, "fusion_lon": 0.0, "bike_id": "a7a2e16237ee3075c6a2696d41ea3a66", "lon": -77.05000216666667, "rental_uris": {"ios": "https://dc.lft.to/lastmile_qr_scan", "android": "https://dc.lft.to/lastmile_qr_scan"}}, {"name": "9e0f1143d0e47008feb88c89a06781d1", "fusion_lat": 0.0, "type": "electric_bike", "lat": 38.90529983333333, "is_reserved": 0, "is_disabled": 0, "fusion_lon": 0.0, "bike_id": "9e0f1143d0e47008feb88c89a06781d1", "lon": -76.9980775, "rental_uris": {"ios": "https://dc.lft.to/lastmile_qr_scan", "android": "https://dc.lft.to/lastmile_qr_scan"}}, {"name": "b4fd222d19e1326cd136a0c2d3ce0378", "fusion_lat": 0.0, "type": "electric_scooter", "lat": 38.89225283333333, "is_reserved": 0, "is_disabled": 0, "fusion_lon": 0.0, "bike_id": "b4fd222d19e1326cd136a0c2d3ce0378", "lon": -77.015262, "rental_uris": {"ios": "https://dc.lft.to/lastmile_qr_scan", "android": "https://dc.lft.to/lastmile_qr_scan"}}, {"name": "2ff25713a34b719132e06e392b571a1e", "fusion_lat": 0.0, "type": "electric_scooter", "lat": 38.87662983333333, "is_reserved": 0, "is_disabled": 0, "fusion_lon": 0.0, "bike_id": "2ff25713a34b719132e06e392b571a1e", "lon": -77.00418466666666, "rental_uris": {"ios": "https://dc.lft.to/lastmile_qr_scan", "android": "https://dc.lft.to/lastmile_qr_scan"}}, {"name": "f25c3e3e0dac866c59f57e49156aa9e4", "fusion_lat": 0.0, "type": "electric_scooter", "lat": 38.91338966666667, "is_reserved": 0, "is_disabled": 0, "fusion_lon": 0.0, "bike_id": "f25c3e3e0dac866c59f57e49156aa9e4", "lon": -77.04865583333333, "rental_uris": {"ios": "https://dc.lft.to/lastmile_qr_scan", "android": "https://dc.lft.to/lastmile_qr_scan"}}, {"name": "ca53433a5207c8d5c030c61c62e1334e", "fusion_lat": 0.0, "type": "electric_scooter", "lat": 38.91678366666667, "is_reserved": 0, "is_disabled": 0, "fusion_lon": 0.0, "bike_id": "ca53433a5207c8d5c030c61c62e1334e", "lon": -77.02390383333334, "rental_uris": {"ios": "https://dc.lft.to/lastmile_qr_scan", "android": "https://dc.lft.to/lastmile_qr_scan"}}, {"name": "9b60fe6217fc2217da8bd8737e414baf", "fusion_lat": 0.0, "type": "electric_scooter", "lat": 38.910295166666664, "is_reserved": 0, "is_disabled": 0, "fusion_lon": 0.0, "bike_id": "9b60fe6217fc2217da8bd8737e414baf", "lon": -77.00756983333333, "rental_uris": {"ios": "https://dc.lft.to/lastmile_qr_scan", "android": "https://dc.lft.to/lastmile_qr_scan"}}, {"name": "a0061564bb51c8c75a69385dfd0e8a16", "fusion_lat": 0.0, "type": "electric_scooter", "lat": 38.926298, "is_reserved": 0, "is_disabled": 0, "fusion_lon": 0.0, "bike_id": "a0061564bb51c8c75a69385dfd0e8a16", "lon": -77.03790633333334, "rental_uris": {"ios": "https://dc.lft.to/lastmile_qr_scan", "android": "https://dc.lft.to/lastmile_qr_scan"}}, {"name": "74b41e51ca4691138a51361fc9c1d806", "fusion_lat": 0.0, "type": "electric_scooter", "lat": 38.911926666666666, "is_reserved": 0, "is_disabled": 0, "fusion_lon": 0.0, "bike_id": "74b41e51ca4691138a51361fc9c1d806", "lon": -77.0454205, "rental_uris": {"ios": "https://dc.lft.to/lastmile_qr_scan", "android": "https://dc.lft.to/lastmile_qr_scan"}}, {"name": "29aae019bfa8965f880aae866664a512", "fusion_lat": 0.0, "type": "electric_bike", "lat": 38.863752166666664, "is_reserved": 0, "is_disabled": 0, "fusion_lon": 0.0, "bike_id": "29aae019bfa8965f880aae866664a512", "lon": -77.12901883333333, "rental_uris": {"ios": "https://dc.lft.to/lastmile_qr_scan", "android": "https://dc.lft.to/lastmile_qr_scan"}}, {"name": "d728781786142db81b7db9ec2b2fc606", "fusion_lat": 0.0, "type": "electric_scooter", "lat": 38.927004333333336, "is_reserved": 0, "is_disabled": 0, "fusion_lon": 0.0, "bike_id": "d728781786142db81b7db9ec2b2fc606", "lon": -77.0241955, "rental_uris": {"ios": "https://dc.lft.to/lastmile_qr_scan", "android": "https://dc.lft.to/lastmile_qr_scan"}}, {"name": "2647e4fbe6923459b2ff59bf38168932", "fusion_lat": 0.0, "type": "electric_scooter", "lat": 38.897481, "is_reserved": 0, "is_disabled": 0, "fusion_lon": 0.0, "bike_id": "2647e4fbe6923459b2ff59bf38168932", "lon": -77.02689883333333, "rental_uris": {"ios": "https://dc.lft.to/lastmile_qr_scan", "android": "https://dc.lft.to/lastmile_qr_scan"}}, {"name": "7668cec6b42fd7d3a819489341901365", "fusion_lat": 0.0, "type": "electric_scooter", "lat": 38.90554816666667, "is_reserved": 0, "is_disabled": 0, "fusion_lon": 0.0, "bike_id": "7668cec6b42fd7d3a819489341901365", "lon": -77.042376, "rental_uris": {"ios": "https://dc.lft.to/lastmile_qr_scan", "android": "https://dc.lft.to/lastmile_qr_scan"}}, {"name": "8481a30692d36b8c5d6630cc0a53b5b8", "fusion_lat": 0.0, "type": "electric_bike", "lat": 38.97086816666667, "is_reserved": 0, "is_disabled": 0, "fusion_lon": 0.0, "bike_id": "8481a30692d36b8c5d6630cc0a53b5b8", "lon": -77.06967083333333, "rental_uris": {"ios": "https://dc.lft.to/lastmile_qr_scan", "android": "https://dc.lft.to/lastmile_qr_scan"}}, {"name": "8c8684fcc6001cc223928016130bd833", "fusion_lat": 0.0, "type": "electric_scooter", "lat": 38.9021835, "is_reserved": 0, "is_disabled": 0, "fusion_lon": 0.0, "bike_id": "8c8684fcc6001cc223928016130bd833", "lon": -77.04592233333334, "rental_uris": {"ios": "https://dc.lft.to/lastmile_qr_scan", "android": "https://dc.lft.to/lastmile_qr_scan"}}, {"name": "86d95545b860d00fecd96fa57574bdc9", "fusion_lat": 0.0, "type": "electric_bike", "lat": 38.916141333333336, "is_reserved": 0, "is_disabled": 0, "fusion_lon": 0.0, "bike_id": "86d95545b860d00fecd96fa57574bdc9", "lon": -77.021814, "rental_uris": {"ios": "https://dc.lft.to/lastmile_qr_scan", "android": "https://dc.lft.to/lastmile_qr_scan"}}, {"name": "d7590ce91f1c5b12c3df01ec4e2d4591", "fusion_lat": 0.0, "type": "electric_scooter", "lat": 38.9158225, "is_reserved": 0, "is_disabled": 0, "fusion_lon": 0.0, "bike_id": "d7590ce91f1c5b12c3df01ec4e2d4591", "lon": -77.03186116666667, "rental_uris": {"ios": "https://dc.lft.to/lastmile_qr_scan", "android": "https://dc.lft.to/lastmile_qr_scan"}}, {"name": "627d15ff5a086120d924164fe35124bf", "fusion_lat": 0.0, "type": "electric_scooter", "lat": 38.8996315, "is_reserved": 0, "is_disabled": 0, "fusion_lon": 0.0, "bike_id": "627d15ff5a086120d924164fe35124bf", "lon": -77.03936733333333, "rental_uris": {"ios": "https://dc.lft.to/lastmile_qr_scan", "android": "https://dc.lft.to/lastmile_qr_scan"}}, {"name": "145347de975a08e985d0a3005a116dac", "fusion_lat": 0.0, "type": "electric_scooter", "lat": 38.92476533333333, "is_reserved": 0, "is_disabled": 0, "fusion_lon": 0.0, "bike_id": "145347de975a08e985d0a3005a116dac", "lon": -77.03000066666667, "rental_uris": {"ios": "https://dc.lft.to/lastmile_qr_scan", "android": "https://dc.lft.to/lastmile_qr_scan"}}, {"name": "60561b9b050653fd24a06b616c639d8d", "fusion_lat": 0.0, "type": "electric_scooter", "lat": 38.925476333333336, "is_reserved": 0, "is_disabled": 0, "fusion_lon": 0.0, "bike_id": "60561b9b050653fd24a06b616c639d8d", "lon": -77.00064866666666, "rental_uris": {"ios": "https://dc.lft.to/lastmile_qr_scan", "android": "https://dc.lft.to/lastmile_qr_scan"}}, {"name": "dc39e419a821ce99ff0d91993ee2882f", "fusion_lat": 0.0, "type": "electric_scooter", "lat": 38.925937833333336, "is_reserved": 0, "is_disabled": 0, "fusion_lon": 0.0, "bike_id": "dc39e419a821ce99ff0d91993ee2882f", "lon": -77.00852716666667, "rental_uris": {"ios": "https://dc.lft.to/lastmile_qr_scan", "android": "https://dc.lft.to/lastmile_qr_scan"}}, {"name": "2681fd5f4b6e2c1f67d28ed4282cc82d", "fusion_lat": 0.0, "type": "electric_scooter", "lat": 38.930310666666664, "is_reserved": 0, "is_disabled": 0, "fusion_lon": 0.0, "bike_id": "2681fd5f4b6e2c1f67d28ed4282cc82d", "lon": -77.08365466666666, "rental_uris": {"ios": "https://dc.lft.to/lastmile_qr_scan", "android": "https://dc.lft.to/lastmile_qr_scan"}}, {"name": "c415638c5b671794fc355004df99a695", "fusion_lat": 0.0, "type": "electric_scooter", "lat": 38.93892683333333, "is_reserved": 0, "is_disabled": 0, "fusion_lon": 0.0, "bike_id": "c415638c5b671794fc355004df99a695", "lon": -77.01759533333333, "rental_uris": {"ios": "https://dc.lft.to/lastmile_qr_scan", "android": "https://dc.lft.to/lastmile_qr_scan"}}, {"name": "f8be8bb8b82435c2c8fb49d78db29388", "fusion_lat": 0.0, "type": "electric_scooter", "lat": 38.915502833333335, "is_reserved": 0, "is_disabled": 0, "fusion_lon": 0.0, "bike_id": "f8be8bb8b82435c2c8fb49d78db29388", "lon": -77.03240866666667, "rental_uris": {"ios": "https://dc.lft.to/lastmile_qr_scan", "android": "https://dc.lft.to/lastmile_qr_scan"}}, {"name": "c566f52701c05173af5711f67b0330a3", "fusion_lat": 0.0, "type": "electric_scooter", "lat": 38.914165833333335, "is_reserved": 0, "is_disabled": 0, "fusion_lon": 0.0, "bike_id": "c566f52701c05173af5711f67b0330a3", "lon": -77.04499, "rental_uris": {"ios": "https://dc.lft.to/lastmile_qr_scan", "android": "https://dc.lft.to/lastmile_qr_scan"}}, {"name": "d15386912f471f26e2d8489c12612014", "fusion_lat": 0.0, "type": "electric_scooter", "lat": 38.898584166666666, "is_reserved": 0, "is_disabled": 0, "fusion_lon": 0.0, "bike_id": "d15386912f471f26e2d8489c12612014", "lon": -77.03356233333334, "rental_uris": {"ios": "https://dc.lft.to/lastmile_qr_scan", "android": "https://dc.lft.to/lastmile_qr_scan"}}, {"name": "6b78444c07a9451dcc735dfc2f2a11c4", "fusion_lat": 0.0, "type": "electric_scooter", "lat": 38.91283116666666, "is_reserved": 0, "is_disabled": 0, "fusion_lon": 0.0, "bike_id": "6b78444c07a9451dcc735dfc2f2a11c4", "lon": -76.93794816666667, "rental_uris": {"ios": "https://dc.lft.to/lastmile_qr_scan", "android": "https://dc.lft.to/lastmile_qr_scan"}}, {"name": "ff795e49d15ff4e9cfda2a8bbf5db5b0", "fusion_lat": 0.0, "type": "electric_scooter", "lat": 38.898312, "is_reserved": 0, "is_disabled": 0, "fusion_lon": 0.0, "bike_id": "ff795e49d15ff4e9cfda2a8bbf5db5b0", "lon": -76.94643066666667, "rental_uris": {"ios": "https://dc.lft.to/lastmile_qr_scan", "android": "https://dc.lft.to/lastmile_qr_scan"}}, {"name": "64d7337e0bd04802e19679f40291c53a", "fusion_lat": 0.0, "type": "electric_bike", "lat": 38.93711366666667, "is_reserved": 0, "is_disabled": 0, "fusion_lon": 0.0, "bike_id": "64d7337e0bd04802e19679f40291c53a", "lon": -77.026919, "rental_uris": {"ios": "https://dc.lft.to/lastmile_qr_scan", "android": "https://dc.lft.to/lastmile_qr_scan"}}, {"name": "1e442644d0ccf6d2420fcbfeca3c5b6d", "fusion_lat": 0.0, "type": "electric_scooter", "lat": 38.93333966666667, "is_reserved": 0, "is_disabled": 0, "fusion_lon": 0.0, "bike_id": "1e442644d0ccf6d2420fcbfeca3c5b6d", "lon": -77.02042483333334, "rental_uris": {"ios": "https://dc.lft.to/lastmile_qr_scan", "android": "https://dc.lft.to/lastmile_qr_scan"}}, {"name": "3294f0df50d2521d08b16125f21b0775", "fusion_lat": 0.0, "type": "electric_scooter", "lat": 38.900425, "is_reserved": 0, "is_disabled": 0, "fusion_lon": 0.0, "bike_id": "3294f0df50d2521d08b16125f21b0775", "lon": -76.98837466666667, "rental_uris": {"ios": "https://dc.lft.to/lastmile_qr_scan", "android": "https://dc.lft.to/lastmile_qr_scan"}}, {"name": "7c0a61cba144a446de7eb6f19a774b8e", "fusion_lat": 0.0, "type": "electric_scooter", "lat": 38.87575866666667, "is_reserved": 0, "is_disabled": 0, "fusion_lon": 0.0, "bike_id": "7c0a61cba144a446de7eb6f19a774b8e", "lon": -77.01052483333333, "rental_uris": {"ios": "https://dc.lft.to/lastmile_qr_scan", "android": "https://dc.lft.to/lastmile_qr_scan"}}, {"name": "acb66c1f7d6424c649cb89707955d573", "fusion_lat": 0.0, "type": "electric_scooter", "lat": 38.903877, "is_reserved": 0, "is_disabled": 0, "fusion_lon": 0.0, "bike_id": "acb66c1f7d6424c649cb89707955d573", "lon": -77.01634183333333, "rental_uris": {"ios": "https://dc.lft.to/lastmile_qr_scan", "android": "https://dc.lft.to/lastmile_qr_scan"}}, {"name": "58de4ba2183a703bd570b8c796e8aa71", "fusion_lat": 0.0, "type": "electric_scooter", "lat": 38.91262366666667, "is_reserved": 0, "is_disabled": 0, "fusion_lon": 0.0, "bike_id": "58de4ba2183a703bd570b8c796e8aa71", "lon": -77.0415035, "rental_uris": {"ios": "https://dc.lft.to/lastmile_qr_scan", "android": "https://dc.lft.to/lastmile_qr_scan"}}, {"name": "418cb404c3eebad4f4830cdf0f6e9bf8", "fusion_lat": 0.0, "type": "electric_scooter", "lat": 38.910137666666664, "is_reserved": 0, "is_disabled": 0, "fusion_lon": 0.0, "bike_id": "418cb404c3eebad4f4830cdf0f6e9bf8", "lon": -76.9938905, "rental_uris": {"ios": "https://dc.lft.to/lastmile_qr_scan", "android": "https://dc.lft.to/lastmile_qr_scan"}}, {"name": "f01aa70a98c71def92f976bb1ae1adf1", "fusion_lat": 0.0, "type": "electric_scooter", "lat": 38.921802166666666, "is_reserved": 0, "is_disabled": 0, "fusion_lon": 0.0, "bike_id": "f01aa70a98c71def92f976bb1ae1adf1", "lon": -77.0265955, "rental_uris": {"ios": "https://dc.lft.to/lastmile_qr_scan", "android": "https://dc.lft.to/lastmile_qr_scan"}}, {"name": "a17a5c10c44ea0ab69694dc392995bf7", "fusion_lat": 0.0, "type": "electric_scooter", "lat": 38.907023333333335, "is_reserved": 0, "is_disabled": 0, "fusion_lon": 0.0, "bike_id": "a17a5c10c44ea0ab69694dc392995bf7", "lon": -77.02393016666667, "rental_uris": {"ios": "https://dc.lft.to/lastmile_qr_scan", "android": "https://dc.lft.to/lastmile_qr_scan"}}, {"name": "af465efbbfa0db58289f1015b64a6528", "fusion_lat": 0.0, "type": "electric_scooter", "lat": 38.9206175, "is_reserved": 0, "is_disabled": 0, "fusion_lon": 0.0, "bike_id": "af465efbbfa0db58289f1015b64a6528", "lon": -77.04253216666666, "rental_uris": {"ios": "https://dc.lft.to/lastmile_qr_scan", "android": "https://dc.lft.to/lastmile_qr_scan"}}, {"name": "af8bb0385a1b59e87e4fcf21414d6448", "fusion_lat": 0.0, "type": "electric_bike", "lat": 38.938715333333334, "is_reserved": 0, "is_disabled": 0, "fusion_lon": 0.0, "bike_id": "af8bb0385a1b59e87e4fcf21414d6448", "lon": -77.0292355, "rental_uris": {"ios": "https://dc.lft.to/lastmile_qr_scan", "android": "https://dc.lft.to/lastmile_qr_scan"}}, {"name": "738c82b2117c66297566b72bc4654e38", "fusion_lat": 0.0, "type": "electric_scooter", "lat": 38.91724683333333, "is_reserved": 0, "is_disabled": 0, "fusion_lon": 0.0, "bike_id": "738c82b2117c66297566b72bc4654e38", "lon": -77.03839666666667, "rental_uris": {"ios": "https://dc.lft.to/lastmile_qr_scan", "android": "https://dc.lft.to/lastmile_qr_scan"}}, {"name": "46bccfd1c6c89c2410d97d5ce4090343", "fusion_lat": 0.0, "type": "electric_scooter", "lat": 38.886177333333336, "is_reserved": 0, "is_disabled": 0, "fusion_lon": 0.0, "bike_id": "46bccfd1c6c89c2410d97d5ce4090343", "lon": -77.02007166666667, "rental_uris": {"ios": "https://dc.lft.to/lastmile_qr_scan", "android": "https://dc.lft.to/lastmile_qr_scan"}}, {"name": "3a88dcaab3d2665775ddfe208e1ae29d", "fusion_lat": 0.0, "type": "electric_bike", "lat": 39.00004666666667, "is_reserved": 0, "is_disabled": 0, "fusion_lon": 0.0, "bike_id": "3a88dcaab3d2665775ddfe208e1ae29d", "lon": -77.10974933333334, "rental_uris": {"ios": "https://dc.lft.to/lastmile_qr_scan", "android": "https://dc.lft.to/lastmile_qr_scan"}}, {"name": "7040edad1743dd726ca1dde4b7e0ab22", "fusion_lat": 0.0, "type": "electric_scooter", "lat": 38.90522816666667, "is_reserved": 0, "is_disabled": 0, "fusion_lon": 0.0, "bike_id": "7040edad1743dd726ca1dde4b7e0ab22", "lon": -77.0662535, "rental_uris": {"ios": "https://dc.lft.to/lastmile_qr_scan", "android": "https://dc.lft.to/lastmile_qr_scan"}}, {"name": "38cced42e7e90c7b24c926937db2cb22", "fusion_lat": 0.0, "type": "electric_scooter", "lat": 38.866548, "is_reserved": 0, "is_disabled": 0, "fusion_lon": 0.0, "bike_id": "38cced42e7e90c7b24c926937db2cb22", "lon": -76.98889233333334, "rental_uris": {"ios": "https://dc.lft.to/lastmile_qr_scan", "android": "https://dc.lft.to/lastmile_qr_scan"}}, {"name": "53733ad93136123850b36c6ec4230c8d", "fusion_lat": 0.0, "type": "electric_bike", "lat": 38.942689666666666, "is_reserved": 0, "is_disabled": 0, "fusion_lon": 0.0, "bike_id": "53733ad93136123850b36c6ec4230c8d", "lon": -76.98072866666666, "rental_uris": {"ios": "https://dc.lft.to/lastmile_qr_scan", "android": "https://dc.lft.to/lastmile_qr_scan"}}, {"name": "25457bcc0d3044500735affbd948e22d", "fusion_lat": 0.0, "type": "electric_scooter", "lat": 38.91554216666667, "is_reserved": 0, "is_disabled": 0, "fusion_lon": 0.0, "bike_id": "25457bcc0d3044500735affbd948e22d", "lon": -77.031729, "rental_uris": {"ios": "https://dc.lft.to/lastmile_qr_scan", "android": "https://dc.lft.to/lastmile_qr_scan"}}, {"name": "506e5418dbc688c9ee67f36c758d2731", "fusion_lat": 0.0, "type": "electric_scooter", "lat": 38.902555, "is_reserved": 0, "is_disabled": 0, "fusion_lon": 0.0, "bike_id": "506e5418dbc688c9ee67f36c758d2731", "lon": -77.01547933333333, "rental_uris": {"ios": "https://dc.lft.to/lastmile_qr_scan", "android": "https://dc.lft.to/lastmile_qr_scan"}}, {"name": "520f34abf0a558e7fcaf1107c5f17a9f", "fusion_lat": 0.0, "type": "electric_scooter", "lat": 38.9002355, "is_reserved": 0, "is_disabled": 0, "fusion_lon": 0.0, "bike_id": "520f34abf0a558e7fcaf1107c5f17a9f", "lon": -77.01111083333333, "rental_uris": {"ios": "https://dc.lft.to/lastmile_qr_scan", "android": "https://dc.lft.to/lastmile_qr_scan"}}, {"name": "dd4f27a057ccdc7f3d532110d3cc32b6", "fusion_lat": 0.0, "type": "electric_bike", "lat": 38.988200666666664, "is_reserved": 0, "is_disabled": 0, "fusion_lon": 0.0, "bike_id": "dd4f27a057ccdc7f3d532110d3cc32b6", "lon": -77.0266165, "rental_uris": {"ios": "https://dc.lft.to/lastmile_qr_scan", "android": "https://dc.lft.to/lastmile_qr_scan"}}, {"name": "cf7873252a644df71b112a2eee66d43a", "fusion_lat": 0.0, "type": "electric_scooter", "lat": 38.9169585, "is_reserved": 0, "is_disabled": 0, "fusion_lon": 0.0, "bike_id": "cf7873252a644df71b112a2eee66d43a", "lon": -77.02305733333333, "rental_uris": {"ios": "https://dc.lft.to/lastmile_qr_scan", "android": "https://dc.lft.to/lastmile_qr_scan"}}, {"name": "1121f751c85afe6352c2d7cd97682b11", "fusion_lat": 0.0, "type": "electric_scooter", "lat": 38.900777166666664, "is_reserved": 0, "is_disabled": 0, "fusion_lon": 0.0, "bike_id": "1121f751c85afe6352c2d7cd97682b11", "lon": -77.02574816666667, "rental_uris": {"ios": "https://dc.lft.to/lastmile_qr_scan", "android": "https://dc.lft.to/lastmile_qr_scan"}}, {"name": "402f1fcca73ce3e1a9ba4761cf058e6e", "fusion_lat": 0.0, "type": "electric_scooter", "lat": 38.906581833333334, "is_reserved": 0, "is_disabled": 0, "fusion_lon": 0.0, "bike_id": "402f1fcca73ce3e1a9ba4761cf058e6e", "lon": -77.0386785, "rental_uris": {"ios": "https://dc.lft.to/lastmile_qr_scan", "android": "https://dc.lft.to/lastmile_qr_scan"}}, {"name": "08878d1b3a3907589a8f54bd4f62077d", "fusion_lat": 0.0, "type": "electric_bike", "lat": 38.874785, "is_reserved": 0, "is_disabled": 0, "fusion_lon": 0.0, "bike_id": "08878d1b3a3907589a8f54bd4f62077d", "lon": -76.96524466666666, "rental_uris": {"ios": "https://dc.lft.to/lastmile_qr_scan", "android": "https://dc.lft.to/lastmile_qr_scan"}}, {"name": "3eddb1f12879b36968b2e32ece64b86e", "fusion_lat": 0.0, "type": "electric_bike", "lat": 38.94070816666667, "is_reserved": 0, "is_disabled": 0, "fusion_lon": 0.0, "bike_id": "3eddb1f12879b36968b2e32ece64b86e", "lon": -77.03820783333333, "rental_uris": {"ios": "https://dc.lft.to/lastmile_qr_scan", "android": "https://dc.lft.to/lastmile_qr_scan"}}, {"name": "fe2e6656e9a00d1084c15f4fec898942", "fusion_lat": 0.0, "type": "electric_scooter", "lat": 38.93479416666667, "is_reserved": 0, "is_disabled": 0, "fusion_lon": 0.0, "bike_id": "fe2e6656e9a00d1084c15f4fec898942", "lon": -77.072702, "rental_uris": {"ios": "https://dc.lft.to/lastmile_qr_scan", "android": "https://dc.lft.to/lastmile_qr_scan"}}, {"name": "21d930ac9abbfa5a04d5d6a32a538c0e", "fusion_lat": 0.0, "type": "electric_scooter", "lat": 38.89995233333333, "is_reserved": 0, "is_disabled": 0, "fusion_lon": 0.0, "bike_id": "21d930ac9abbfa5a04d5d6a32a538c0e", "lon": -77.02943766666667, "rental_uris": {"ios": "https://dc.lft.to/lastmile_qr_scan", "android": "https://dc.lft.to/lastmile_qr_scan"}}, {"name": "93c20ff4ad457412ff1d5a3a0d3f16e3", "fusion_lat": 0.0, "type": "electric_scooter", "lat": 38.904260666666666, "is_reserved": 0, "is_disabled": 0, "fusion_lon": 0.0, "bike_id": "93c20ff4ad457412ff1d5a3a0d3f16e3", "lon": -77.0532745, "rental_uris": {"ios": "https://dc.lft.to/lastmile_qr_scan", "android": "https://dc.lft.to/lastmile_qr_scan"}}, {"name": "eacbefce35ad1117a5f557da5b713f61", "fusion_lat": 0.0, "type": "electric_scooter", "lat": 38.91186966666667, "is_reserved": 0, "is_disabled": 0, "fusion_lon": 0.0, "bike_id": "eacbefce35ad1117a5f557da5b713f61", "lon": -77.0383965, "rental_uris": {"ios": "https://dc.lft.to/lastmile_qr_scan", "android": "https://dc.lft.to/lastmile_qr_scan"}}, {"name": "ab8d6ec03d227660825478ae4b8a5e22", "fusion_lat": 0.0, "type": "electric_scooter", "lat": 38.919467166666664, "is_reserved": 0, "is_disabled": 0, "fusion_lon": 0.0, "bike_id": "ab8d6ec03d227660825478ae4b8a5e22", "lon": -77.04545933333333, "rental_uris": {"ios": "https://dc.lft.to/lastmile_qr_scan", "android": "https://dc.lft.to/lastmile_qr_scan"}}, {"name": "2598e9ae74b41d5270cad79c207dfd72", "fusion_lat": 0.0, "type": "electric_scooter", "lat": 38.860711333333334, "is_reserved": 0, "is_disabled": 0, "fusion_lon": 0.0, "bike_id": "2598e9ae74b41d5270cad79c207dfd72", "lon": -76.96750683333333, "rental_uris": {"ios": "https://dc.lft.to/lastmile_qr_scan", "android": "https://dc.lft.to/lastmile_qr_scan"}}, {"name": "d1d4ef14e202694bf413feab1b889ca2", "fusion_lat": 0.0, "type": "electric_scooter", "lat": 38.90667, "is_reserved": 0, "is_disabled": 0, "fusion_lon": 0.0, "bike_id": "d1d4ef14e202694bf413feab1b889ca2", "lon": -77.0271215, "rental_uris": {"ios": "https://dc.lft.to/lastmile_qr_scan", "android": "https://dc.lft.to/lastmile_qr_scan"}}, {"name": "f6ae03b71842eea4d5e6b644823ce0b5", "fusion_lat": 0.0, "type": "electric_scooter", "lat": 38.901092166666665, "is_reserved": 0, "is_disabled": 0, "fusion_lon": 0.0, "bike_id": "f6ae03b71842eea4d5e6b644823ce0b5", "lon": -77.049847, "rental_uris": {"ios": "https://dc.lft.to/lastmile_qr_scan", "android": "https://dc.lft.to/lastmile_qr_scan"}}, {"name": "94bd480535c537ec756e30ebbf78e477", "fusion_lat": 0.0, "type": "electric_scooter", "lat": 38.93356583333333, "is_reserved": 0, "is_disabled": 0, "fusion_lon": 0.0, "bike_id": "94bd480535c537ec756e30ebbf78e477", "lon": -77.03454616666667, "rental_uris": {"ios": "https://dc.lft.to/lastmile_qr_scan", "android": "https://dc.lft.to/lastmile_qr_scan"}}, {"name": "e5d3de918758ea6a4b49cbf2d74883fa", "fusion_lat": 0.0, "type": "electric_scooter", "lat": 38.913988333333336, "is_reserved": 0, "is_disabled": 0, "fusion_lon": 0.0, "bike_id": "e5d3de918758ea6a4b49cbf2d74883fa", "lon": -77.01228366666666, "rental_uris": {"ios": "https://dc.lft.to/lastmile_qr_scan", "android": "https://dc.lft.to/lastmile_qr_scan"}}, {"name": "81c4e0941b0302eff0f1038b8efeb469", "fusion_lat": 0.0, "type": "electric_scooter", "lat": 38.9169435, "is_reserved": 0, "is_disabled": 0, "fusion_lon": 0.0, "bike_id": "81c4e0941b0302eff0f1038b8efeb469", "lon": -77.0434245, "rental_uris": {"ios": "https://dc.lft.to/lastmile_qr_scan", "android": "https://dc.lft.to/lastmile_qr_scan"}}, {"name": "e8fda6a0b7cfe2ad9b066e254de72a3c", "fusion_lat": 0.0, "type": "electric_scooter", "lat": 38.885959666666665, "is_reserved": 0, "is_disabled": 0, "fusion_lon": 0.0, "bike_id": "e8fda6a0b7cfe2ad9b066e254de72a3c", "lon": -77.02204966666666, "rental_uris": {"ios": "https://dc.lft.to/lastmile_qr_scan", "android": "https://dc.lft.to/lastmile_qr_scan"}}, {"name": "0f4967662e0db3915f20ca63609789ce", "fusion_lat": 0.0, "type": "electric_scooter", "lat": 38.920723833333334, "is_reserved": 0, "is_disabled": 0, "fusion_lon": 0.0, "bike_id": "0f4967662e0db3915f20ca63609789ce", "lon": -77.044006, "rental_uris": {"ios": "https://dc.lft.to/lastmile_qr_scan", "android": "https://dc.lft.to/lastmile_qr_scan"}}, {"name": "b7c97c7e3f3cc8d80abe5476a3caae87", "fusion_lat": 0.0, "type": "electric_scooter", "lat": 38.897366166666664, "is_reserved": 0, "is_disabled": 0, "fusion_lon": 0.0, "bike_id": "b7c97c7e3f3cc8d80abe5476a3caae87", "lon": -76.93847733333334, "rental_uris": {"ios": "https://dc.lft.to/lastmile_qr_scan", "android": "https://dc.lft.to/lastmile_qr_scan"}}, {"name": "4995cff3258b86574e447fe1a8421dc7", "fusion_lat": 0.0, "type": "electric_scooter", "lat": 38.911519166666665, "is_reserved": 0, "is_disabled": 0, "fusion_lon": 0.0, "bike_id": "4995cff3258b86574e447fe1a8421dc7", "lon": -77.04436183333334, "rental_uris": {"ios": "https://dc.lft.to/lastmile_qr_scan", "android": "https://dc.lft.to/lastmile_qr_scan"}}, {"name": "1a8554516cebc4329b20abfbf7b94e64", "fusion_lat": 0.0, "type": "electric_scooter", "lat": 38.8584985, "is_reserved": 0, "is_disabled": 0, "fusion_lon": 0.0, "bike_id": "1a8554516cebc4329b20abfbf7b94e64", "lon": -76.95880416666667, "rental_uris": {"ios": "https://dc.lft.to/lastmile_qr_scan", "android": "https://dc.lft.to/lastmile_qr_scan"}}, {"name": "45ec97c540231a355be81496980377bd", "fusion_lat": 0.0, "type": "electric_scooter", "lat": 38.907730666666666, "is_reserved": 0, "is_disabled": 0, "fusion_lon": 0.0, "bike_id": "45ec97c540231a355be81496980377bd", "lon": -77.07167233333334, "rental_uris": {"ios": "https://dc.lft.to/lastmile_qr_scan", "android": "https://dc.lft.to/lastmile_qr_scan"}}, {"name": "a794f67b6bbb550bc7d8e03b1d6ccfa3", "fusion_lat": 0.0, "type": "electric_bike", "lat": 38.8964945, "is_reserved": 0, "is_disabled": 0, "fusion_lon": 0.0, "bike_id": "a794f67b6bbb550bc7d8e03b1d6ccfa3", "lon": -77.08638416666666, "rental_uris": {"ios": "https://dc.lft.to/lastmile_qr_scan", "android": "https://dc.lft.to/lastmile_qr_scan"}}, {"name": "4eaa63578a75d19cab9674e0b0297466", "fusion_lat": 0.0, "type": "electric_scooter", "lat": 38.92161333333333, "is_reserved": 0, "is_disabled": 0, "fusion_lon": 0.0, "bike_id": "4eaa63578a75d19cab9674e0b0297466", "lon": -77.04221266666667, "rental_uris": {"ios": "https://dc.lft.to/lastmile_qr_scan", "android": "https://dc.lft.to/lastmile_qr_scan"}}, {"name": "e974f5ff1b0e54f25bb99d91b006d4ea", "fusion_lat": 0.0, "type": "electric_scooter", "lat": 38.895376666666664, "is_reserved": 0, "is_disabled": 0, "fusion_lon": 0.0, "bike_id": "e974f5ff1b0e54f25bb99d91b006d4ea", "lon": -77.02543883333334, "rental_uris": {"ios": "https://dc.lft.to/lastmile_qr_scan", "android": "https://dc.lft.to/lastmile_qr_scan"}}, {"name": "4c9689e13c6e849bb6ec5d9539a3c90c", "fusion_lat": 0.0, "type": "electric_scooter", "lat": 38.91472566666667, "is_reserved": 0, "is_disabled": 0, "fusion_lon": 0.0, "bike_id": "4c9689e13c6e849bb6ec5d9539a3c90c", "lon": -77.04500483333334, "rental_uris": {"ios": "https://dc.lft.to/lastmile_qr_scan", "android": "https://dc.lft.to/lastmile_qr_scan"}}, {"name": "9c34a56ea8c420fe9d7f7ef4fcef86b0", "fusion_lat": 0.0, "type": "electric_bike", "lat": 38.942274166666664, "is_reserved": 0, "is_disabled": 0, "fusion_lon": 0.0, "bike_id": "9c34a56ea8c420fe9d7f7ef4fcef86b0", "lon": -77.01387683333333, "rental_uris": {"ios": "https://dc.lft.to/lastmile_qr_scan", "android": "https://dc.lft.to/lastmile_qr_scan"}}, {"name": "818903be9625b7fa36c97738f2d6fadd", "fusion_lat": 0.0, "type": "electric_scooter", "lat": 38.9111145, "is_reserved": 0, "is_disabled": 0, "fusion_lon": 0.0, "bike_id": "818903be9625b7fa36c97738f2d6fadd", "lon": -77.03141883333333, "rental_uris": {"ios": "https://dc.lft.to/lastmile_qr_scan", "android": "https://dc.lft.to/lastmile_qr_scan"}}, {"name": "205710904af0670c0d16f92482b49b0a", "fusion_lat": 0.0, "type": "electric_scooter", "lat": 38.8945315, "is_reserved": 0, "is_disabled": 0, "fusion_lon": 0.0, "bike_id": "205710904af0670c0d16f92482b49b0a", "lon": -77.01917616666667, "rental_uris": {"ios": "https://dc.lft.to/lastmile_qr_scan", "android": "https://dc.lft.to/lastmile_qr_scan"}}, {"name": "3e1e66bf6c225001e09c83a9f3636c9a", "fusion_lat": 0.0, "type": "electric_bike", "lat": 38.79985766666667, "is_reserved": 0, "is_disabled": 0, "fusion_lon": 0.0, "bike_id": "3e1e66bf6c225001e09c83a9f3636c9a", "lon": -77.12977183333334, "rental_uris": {"ios": "https://dc.lft.to/lastmile_qr_scan", "android": "https://dc.lft.to/lastmile_qr_scan"}}, {"name": "27287d5c7cba31ffc2aa25f093ac2037", "fusion_lat": 0.0, "type": "electric_bike", "lat": 38.83825216666666, "is_reserved": 0, "is_disabled": 0, "fusion_lon": 0.0, "bike_id": "27287d5c7cba31ffc2aa25f093ac2037", "lon": -76.99685566666666, "rental_uris": {"ios": "https://dc.lft.to/lastmile_qr_scan", "android": "https://dc.lft.to/lastmile_qr_scan"}}, {"name": "447c8a87d1624be7ebe69a6597cde682", "fusion_lat": 0.0, "type": "electric_scooter", "lat": 38.937825, "is_reserved": 0, "is_disabled": 0, "fusion_lon": 0.0, "bike_id": "447c8a87d1624be7ebe69a6597cde682", "lon": -77.05998683333334, "rental_uris": {"ios": "https://dc.lft.to/lastmile_qr_scan", "android": "https://dc.lft.to/lastmile_qr_scan"}}, {"name": "32480ff020cd34055d01c3a25204d130", "fusion_lat": 0.0, "type": "electric_scooter", "lat": 38.8857635, "is_reserved": 0, "is_disabled": 0, "fusion_lon": 0.0, "bike_id": "32480ff020cd34055d01c3a25204d130", "lon": -76.99619966666667, "rental_uris": {"ios": "https://dc.lft.to/lastmile_qr_scan", "android": "https://dc.lft.to/lastmile_qr_scan"}}, {"name": "8012bc3908762924a662d24de9dd32fc", "fusion_lat": 0.0, "type": "electric_scooter", "lat": 38.886884333333334, "is_reserved": 0, "is_disabled": 0, "fusion_lon": 0.0, "bike_id": "8012bc3908762924a662d24de9dd32fc", "lon": -76.95759016666666, "rental_uris": {"ios": "https://dc.lft.to/lastmile_qr_scan", "android": "https://dc.lft.to/lastmile_qr_scan"}}, {"name": "8c9cbb6ecac2cf69114df9fa0e97ae22", "fusion_lat": 0.0, "type": "electric_scooter", "lat": 38.885949833333335, "is_reserved": 0, "is_disabled": 0, "fusion_lon": 0.0, "bike_id": "8c9cbb6ecac2cf69114df9fa0e97ae22", "lon": -77.02202333333334, "rental_uris": {"ios": "https://dc.lft.to/lastmile_qr_scan", "android": "https://dc.lft.to/lastmile_qr_scan"}}, {"name": "2d88a37c7c54bdfeca126b77ee4a196a", "fusion_lat": 0.0, "type": "electric_scooter", "lat": 38.898528166666665, "is_reserved": 0, "is_disabled": 0, "fusion_lon": 0.0, "bike_id": "2d88a37c7c54bdfeca126b77ee4a196a", "lon": -77.01610983333333, "rental_uris": {"ios": "https://dc.lft.to/lastmile_qr_scan", "android": "https://dc.lft.to/lastmile_qr_scan"}}, {"name": "ebee84857d4b6327def744c09610e93e", "fusion_lat": 0.0, "type": "electric_scooter", "lat": 38.92005966666667, "is_reserved": 0, "is_disabled": 0, "fusion_lon": 0.0, "bike_id": "ebee84857d4b6327def744c09610e93e", "lon": -77.08187266666667, "rental_uris": {"ios": "https://dc.lft.to/lastmile_qr_scan", "android": "https://dc.lft.to/lastmile_qr_scan"}}, {"name": "7ebe7366f849dfa5b7762e0a95518a17", "fusion_lat": 0.0, "type": "electric_scooter", "lat": 38.92727083333333, "is_reserved": 0, "is_disabled": 0, "fusion_lon": 0.0, "bike_id": "7ebe7366f849dfa5b7762e0a95518a17", "lon": -77.071445, "rental_uris": {"ios": "https://dc.lft.to/lastmile_qr_scan", "android": "https://dc.lft.to/lastmile_qr_scan"}}, {"name": "96f29680866f0c84f4b4605599b3fcb2", "fusion_lat": 0.0, "type": "electric_scooter", "lat": 38.893701, "is_reserved": 0, "is_disabled": 0, "fusion_lon": 0.0, "bike_id": "96f29680866f0c84f4b4605599b3fcb2", "lon": -76.94998833333334, "rental_uris": {"ios": "https://dc.lft.to/lastmile_qr_scan", "android": "https://dc.lft.to/lastmile_qr_scan"}}, {"name": "d6c06ac5f85819ee419118d45a5d7126", "fusion_lat": 0.0, "type": "electric_bike", "lat": 38.883446166666666, "is_reserved": 0, "is_disabled": 0, "fusion_lon": 0.0, "bike_id": "d6c06ac5f85819ee419118d45a5d7126", "lon": -77.18292533333333, "rental_uris": {"ios": "https://dc.lft.to/lastmile_qr_scan", "android": "https://dc.lft.to/lastmile_qr_scan"}}, {"name": "6fbde9b8f39f06aca59a35139634038b", "fusion_lat": 0.0, "type": "electric_scooter", "lat": 38.91045366666667, "is_reserved": 0, "is_disabled": 0, "fusion_lon": 0.0, "bike_id": "6fbde9b8f39f06aca59a35139634038b", "lon": -77.04370133333333, "rental_uris": {"ios": "https://dc.lft.to/lastmile_qr_scan", "android": "https://dc.lft.to/lastmile_qr_scan"}}, {"name": "4cc858bf0eaa37a513dd5f8ce9075093", "fusion_lat": 0.0, "type": "electric_scooter", "lat": 38.900282833333335, "is_reserved": 0, "is_disabled": 0, "fusion_lon": 0.0, "bike_id": "4cc858bf0eaa37a513dd5f8ce9075093", "lon": -76.99858816666666, "rental_uris": {"ios": "https://dc.lft.to/lastmile_qr_scan", "android": "https://dc.lft.to/lastmile_qr_scan"}}, {"name": "604903333c98616e6633f7a34e9c07c4", "fusion_lat": 0.0, "type": "electric_scooter", "lat": 38.93264583333333, "is_reserved": 0, "is_disabled": 0, "fusion_lon": 0.0, "bike_id": "604903333c98616e6633f7a34e9c07c4", "lon": -77.0326055, "rental_uris": {"ios": "https://dc.lft.to/lastmile_qr_scan", "android": "https://dc.lft.to/lastmile_qr_scan"}}, {"name": "db9b0499e13889b5047b1e0148a74a76", "fusion_lat": 0.0, "type": "electric_scooter", "lat": 38.862601, "is_reserved": 0, "is_disabled": 0, "fusion_lon": 0.0, "bike_id": "db9b0499e13889b5047b1e0148a74a76", "lon": -76.9871475, "rental_uris": {"ios": "https://dc.lft.to/lastmile_qr_scan", "android": "https://dc.lft.to/lastmile_qr_scan"}}, {"name": "0aefde9b6dd4e76edf64423a7ecdebf1", "fusion_lat": 0.0, "type": "electric_scooter", "lat": 38.90561983333333, "is_reserved": 0, "is_disabled": 0, "fusion_lon": 0.0, "bike_id": "0aefde9b6dd4e76edf64423a7ecdebf1", "lon": -76.996848, "rental_uris": {"ios": "https://dc.lft.to/lastmile_qr_scan", "android": "https://dc.lft.to/lastmile_qr_scan"}}, {"name": "d44f206724afd06755f79bfd798b3749", "fusion_lat": 0.0, "type": "electric_scooter", "lat": 38.9292995, "is_reserved": 0, "is_disabled": 0, "fusion_lon": 0.0, "bike_id": "d44f206724afd06755f79bfd798b3749", "lon": -77.02341383333334, "rental_uris": {"ios": "https://dc.lft.to/lastmile_qr_scan", "android": "https://dc.lft.to/lastmile_qr_scan"}}, {"name": "ed27c62431132fc51b904cada3de439a", "fusion_lat": 0.0, "type": "electric_scooter", "lat": 38.88145733333333, "is_reserved": 0, "is_disabled": 0, "fusion_lon": 0.0, "bike_id": "ed27c62431132fc51b904cada3de439a", "lon": -77.01304916666666, "rental_uris": {"ios": "https://dc.lft.to/lastmile_qr_scan", "android": "https://dc.lft.to/lastmile_qr_scan"}}, {"name": "9d827f1b79d2424e5c40f91f7bd8f371", "fusion_lat": 0.0, "type": "electric_scooter", "lat": 38.9168395, "is_reserved": 0, "is_disabled": 0, "fusion_lon": 0.0, "bike_id": "9d827f1b79d2424e5c40f91f7bd8f371", "lon": -77.03630883333334, "rental_uris": {"ios": "https://dc.lft.to/lastmile_qr_scan", "android": "https://dc.lft.to/lastmile_qr_scan"}}, {"name": "0f6328f4461646db9a72ce8798dfc5da", "fusion_lat": 0.0, "type": "electric_scooter", "lat": 38.90247516666667, "is_reserved": 0, "is_disabled": 0, "fusion_lon": 0.0, "bike_id": "0f6328f4461646db9a72ce8798dfc5da", "lon": -77.03465133333333, "rental_uris": {"ios": "https://dc.lft.to/lastmile_qr_scan", "android": "https://dc.lft.to/lastmile_qr_scan"}}, {"name": "2ff27546b0dfbff6c84c18bbea4178a2", "fusion_lat": 0.0, "type": "electric_scooter", "lat": 38.905495, "is_reserved": 0, "is_disabled": 0, "fusion_lon": 0.0, "bike_id": "2ff27546b0dfbff6c84c18bbea4178a2", "lon": -77.043812, "rental_uris": {"ios": "https://dc.lft.to/lastmile_qr_scan", "android": "https://dc.lft.to/lastmile_qr_scan"}}, {"name": "3c52867767fd3ec0d9e711f934c9f9e2", "fusion_lat": 0.0, "type": "electric_scooter", "lat": 38.90866916666667, "is_reserved": 0, "is_disabled": 0, "fusion_lon": 0.0, "bike_id": "3c52867767fd3ec0d9e711f934c9f9e2", "lon": -77.03473516666666, "rental_uris": {"ios": "https://dc.lft.to/lastmile_qr_scan", "android": "https://dc.lft.to/lastmile_qr_scan"}}, {"name": "d5168f8e40494088a0da68d4826732e6", "fusion_lat": 0.0, "type": "electric_scooter", "lat": 38.882224666666666, "is_reserved": 0, "is_disabled": 0, "fusion_lon": 0.0, "bike_id": "d5168f8e40494088a0da68d4826732e6", "lon": -76.94180633333333, "rental_uris": {"ios": "https://dc.lft.to/lastmile_qr_scan", "android": "https://dc.lft.to/lastmile_qr_scan"}}, {"name": "f537b338fcd5da83a2f25ef9bdd0f4c5", "fusion_lat": 0.0, "type": "electric_scooter", "lat": 38.914172666666666, "is_reserved": 0, "is_disabled": 0, "fusion_lon": 0.0, "bike_id": "f537b338fcd5da83a2f25ef9bdd0f4c5", "lon": -77.02801033333333, "rental_uris": {"ios": "https://dc.lft.to/lastmile_qr_scan", "android": "https://dc.lft.to/lastmile_qr_scan"}}, {"name": "8af8c7ea9d5a65ad77c091d3d03e0f00", "fusion_lat": 0.0, "type": "electric_scooter", "lat": 38.92494716666667, "is_reserved": 0, "is_disabled": 0, "fusion_lon": 0.0, "bike_id": "8af8c7ea9d5a65ad77c091d3d03e0f00", "lon": -77.02710516666667, "rental_uris": {"ios": "https://dc.lft.to/lastmile_qr_scan", "android": "https://dc.lft.to/lastmile_qr_scan"}}, {"name": "67f7f1cafad65028cb0e568702c4fd4a", "fusion_lat": 0.0, "type": "electric_scooter", "lat": 38.924700666666666, "is_reserved": 0, "is_disabled": 0, "fusion_lon": 0.0, "bike_id": "67f7f1cafad65028cb0e568702c4fd4a", "lon": -77.03046883333333, "rental_uris": {"ios": "https://dc.lft.to/lastmile_qr_scan", "android": "https://dc.lft.to/lastmile_qr_scan"}}, {"name": "a9c9c20e83c80849488a52ab3e9b04b4", "fusion_lat": 0.0, "type": "electric_scooter", "lat": 38.90973833333334, "is_reserved": 0, "is_disabled": 0, "fusion_lon": 0.0, "bike_id": "a9c9c20e83c80849488a52ab3e9b04b4", "lon": -77.04666716666667, "rental_uris": {"ios": "https://dc.lft.to/lastmile_qr_scan", "android": "https://dc.lft.to/lastmile_qr_scan"}}, {"name": "e6b0d994cb3ef2f9d93236b6f86b5220", "fusion_lat": 0.0, "type": "electric_scooter", "lat": 38.9207635, "is_reserved": 0, "is_disabled": 0, "fusion_lon": 0.0, "bike_id": "e6b0d994cb3ef2f9d93236b6f86b5220", "lon": -77.02389783333334, "rental_uris": {"ios": "https://dc.lft.to/lastmile_qr_scan", "android": "https://dc.lft.to/lastmile_qr_scan"}}, {"name": "27f4a1401d110075fa68f0845b529942", "fusion_lat": 0.0, "type": "electric_scooter", "lat": 38.879304166666664, "is_reserved": 0, "is_disabled": 0, "fusion_lon": 0.0, "bike_id": "27f4a1401d110075fa68f0845b529942", "lon": -77.008192, "rental_uris": {"ios": "https://dc.lft.to/lastmile_qr_scan", "android": "https://dc.lft.to/lastmile_qr_scan"}}, {"name": "ed6434adbcdfe1f4e18e6161b2abad49", "fusion_lat": 0.0, "type": "electric_scooter", "lat": 38.858077333333334, "is_reserved": 0, "is_disabled": 0, "fusion_lon": 0.0, "bike_id": "ed6434adbcdfe1f4e18e6161b2abad49", "lon": -76.98651216666667, "rental_uris": {"ios": "https://dc.lft.to/lastmile_qr_scan", "android": "https://dc.lft.to/lastmile_qr_scan"}}, {"name": "87f9a04de22ef845709e1b6135274990", "fusion_lat": 0.0, "type": "electric_scooter", "lat": 38.90063166666667, "is_reserved": 0, "is_disabled": 0, "fusion_lon": 0.0, "bike_id": "87f9a04de22ef845709e1b6135274990", "lon": -77.01361483333334, "rental_uris": {"ios": "https://dc.lft.to/lastmile_qr_scan", "android": "https://dc.lft.to/lastmile_qr_scan"}}, {"name": "f6bc20abefed79788137d1ad2607e1f4", "fusion_lat": 0.0, "type": "electric_bike", "lat": 39.0519865, "is_reserved": 0, "is_disabled": 0, "fusion_lon": 0.0, "bike_id": "f6bc20abefed79788137d1ad2607e1f4", "lon": -77.10914, "rental_uris": {"ios": "https://dc.lft.to/lastmile_qr_scan", "android": "https://dc.lft.to/lastmile_qr_scan"}}, {"name": "067791fbdccb85679705f994c35fdc7e", "fusion_lat": 0.0, "type": "electric_scooter", "lat": 38.92369816666667, "is_reserved": 0, "is_disabled": 0, "fusion_lon": 0.0, "bike_id": "067791fbdccb85679705f994c35fdc7e", "lon": -77.0191475, "rental_uris": {"ios": "https://dc.lft.to/lastmile_qr_scan", "android": "https://dc.lft.to/lastmile_qr_scan"}}, {"name": "2c4c43c991b4b5bc85607608854122fe", "fusion_lat": 0.0, "type": "electric_bike", "lat": 38.84157416666667, "is_reserved": 0, "is_disabled": 0, "fusion_lon": 0.0, "bike_id": "2c4c43c991b4b5bc85607608854122fe", "lon": -77.088919, "rental_uris": {"ios": "https://dc.lft.to/lastmile_qr_scan", "android": "https://dc.lft.to/lastmile_qr_scan"}}, {"name": "3bfda65836e0ddc3e6c3bb97d73ec26b", "fusion_lat": 0.0, "type": "electric_scooter", "lat": 38.901363333333336, "is_reserved": 0, "is_disabled": 0, "fusion_lon": 0.0, "bike_id": "3bfda65836e0ddc3e6c3bb97d73ec26b", "lon": -76.9912265, "rental_uris": {"ios": "https://dc.lft.to/lastmile_qr_scan", "android": "https://dc.lft.to/lastmile_qr_scan"}}, {"name": "71761708b352ae6a314eb0d74a479530", "fusion_lat": 0.0, "type": "electric_scooter", "lat": 38.89655883333333, "is_reserved": 0, "is_disabled": 0, "fusion_lon": 0.0, "bike_id": "71761708b352ae6a314eb0d74a479530", "lon": -76.94861416666667, "rental_uris": {"ios": "https://dc.lft.to/lastmile_qr_scan", "android": "https://dc.lft.to/lastmile_qr_scan"}}, {"name": "61c92b4d9a9980623bd094f9e6991eb9", "fusion_lat": 0.0, "type": "electric_bike", "lat": 38.907093333333336, "is_reserved": 0, "is_disabled": 0, "fusion_lon": 0.0, "bike_id": "61c92b4d9a9980623bd094f9e6991eb9", "lon": -77.0513135, "rental_uris": {"ios": "https://dc.lft.to/lastmile_qr_scan", "android": "https://dc.lft.to/lastmile_qr_scan"}}, {"name": "7cbbf16a2507cf90464c60c7299794ec", "fusion_lat": 0.0, "type": "electric_scooter", "lat": 38.879178, "is_reserved": 0, "is_disabled": 0, "fusion_lon": 0.0, "bike_id": "7cbbf16a2507cf90464c60c7299794ec", "lon": -76.99256483333333, "rental_uris": {"ios": "https://dc.lft.to/lastmile_qr_scan", "android": "https://dc.lft.to/lastmile_qr_scan"}}, {"name": "e4daba3364621df74402c4497f8b9532", "fusion_lat": 0.0, "type": "electric_scooter", "lat": 38.9187185, "is_reserved": 0, "is_disabled": 0, "fusion_lon": 0.0, "bike_id": "e4daba3364621df74402c4497f8b9532", "lon": -77.02315, "rental_uris": {"ios": "https://dc.lft.to/lastmile_qr_scan", "android": "https://dc.lft.to/lastmile_qr_scan"}}, {"name": "ad12d6c66887d6d60d60c093aa87d450", "fusion_lat": 0.0, "type": "electric_scooter", "lat": 38.903157, "is_reserved": 0, "is_disabled": 0, "fusion_lon": 0.0, "bike_id": "ad12d6c66887d6d60d60c093aa87d450", "lon": -76.9916175, "rental_uris": {"ios": "https://dc.lft.to/lastmile_qr_scan", "android": "https://dc.lft.to/lastmile_qr_scan"}}, {"name": "f96801f4ae1b72aed130b773558f75d8", "fusion_lat": 0.0, "type": "electric_scooter", "lat": 38.87416266666666, "is_reserved": 0, "is_disabled": 0, "fusion_lon": 0.0, "bike_id": "f96801f4ae1b72aed130b773558f75d8", "lon": -76.9609115, "rental_uris": {"ios": "https://dc.lft.to/lastmile_qr_scan", "android": "https://dc.lft.to/lastmile_qr_scan"}}, {"name": "c441b53b7b9b91e2c56cdaae72afb385", "fusion_lat": 0.0, "type": "electric_scooter", "lat": 38.94288, "is_reserved": 0, "is_disabled": 0, "fusion_lon": 0.0, "bike_id": "c441b53b7b9b91e2c56cdaae72afb385", "lon": -77.02176783333333, "rental_uris": {"ios": "https://dc.lft.to/lastmile_qr_scan", "android": "https://dc.lft.to/lastmile_qr_scan"}}, {"name": "966619e2de3e1bcdba09723d5799eb6d", "fusion_lat": 0.0, "type": "electric_scooter", "lat": 38.909823833333334, "is_reserved": 0, "is_disabled": 0, "fusion_lon": 0.0, "bike_id": "966619e2de3e1bcdba09723d5799eb6d", "lon": -77.06710633333333, "rental_uris": {"ios": "https://dc.lft.to/lastmile_qr_scan", "android": "https://dc.lft.to/lastmile_qr_scan"}}, {"name": "3ba034702e41286a8464a4782f85fb43", "fusion_lat": 0.0, "type": "electric_scooter", "lat": 38.918918, "is_reserved": 0, "is_disabled": 0, "fusion_lon": 0.0, "bike_id": "3ba034702e41286a8464a4782f85fb43", "lon": -77.04178283333333, "rental_uris": {"ios": "https://dc.lft.to/lastmile_qr_scan", "android": "https://dc.lft.to/lastmile_qr_scan"}}, {"name": "ff53e939267ee12bda107883b5ed4ebe", "fusion_lat": 0.0, "type": "electric_scooter", "lat": 38.89231866666667, "is_reserved": 0, "is_disabled": 0, "fusion_lon": 0.0, "bike_id": "ff53e939267ee12bda107883b5ed4ebe", "lon": -77.0500135, "rental_uris": {"ios": "https://dc.lft.to/lastmile_qr_scan", "android": "https://dc.lft.to/lastmile_qr_scan"}}, {"name": "a552c132b903ea24cdaeb5fea68c835d", "fusion_lat": 0.0, "type": "electric_scooter", "lat": 38.9078105, "is_reserved": 0, "is_disabled": 0, "fusion_lon": 0.0, "bike_id": "a552c132b903ea24cdaeb5fea68c835d", "lon": -77.0724995, "rental_uris": {"ios": "https://dc.lft.to/lastmile_qr_scan", "android": "https://dc.lft.to/lastmile_qr_scan"}}, {"name": "4e62291d027724cd1b2e3a06528df52e", "fusion_lat": 0.0, "type": "electric_scooter", "lat": 38.92865316666666, "is_reserved": 0, "is_disabled": 0, "fusion_lon": 0.0, "bike_id": "4e62291d027724cd1b2e3a06528df52e", "lon": -77.03439933333334, "rental_uris": {"ios": "https://dc.lft.to/lastmile_qr_scan", "android": "https://dc.lft.to/lastmile_qr_scan"}}, {"name": "8424338fed11388d990b92fc48e079ea", "fusion_lat": 0.0, "type": "electric_scooter", "lat": 38.895525, "is_reserved": 0, "is_disabled": 0, "fusion_lon": 0.0, "bike_id": "8424338fed11388d990b92fc48e079ea", "lon": -76.94875466666667, "rental_uris": {"ios": "https://dc.lft.to/lastmile_qr_scan", "android": "https://dc.lft.to/lastmile_qr_scan"}}, {"name": "0ff4cd8a10faddbeb3a383ea9c44cd43", "fusion_lat": 0.0, "type": "electric_scooter", "lat": 38.90390383333333, "is_reserved": 0, "is_disabled": 0, "fusion_lon": 0.0, "bike_id": "0ff4cd8a10faddbeb3a383ea9c44cd43", "lon": -77.00697716666667, "rental_uris": {"ios": "https://dc.lft.to/lastmile_qr_scan", "android": "https://dc.lft.to/lastmile_qr_scan"}}, {"name": "2e3b7420fa9405e96d4c84c7cb626a73", "fusion_lat": 0.0, "type": "electric_scooter", "lat": 38.9096755, "is_reserved": 0, "is_disabled": 0, "fusion_lon": 0.0, "bike_id": "2e3b7420fa9405e96d4c84c7cb626a73", "lon": -77.01118666666666, "rental_uris": {"ios": "https://dc.lft.to/lastmile_qr_scan", "android": "https://dc.lft.to/lastmile_qr_scan"}}, {"name": "f9d4a6516bb902867c222672e23b3fbf", "fusion_lat": 0.0, "type": "electric_scooter", "lat": 38.91237433333333, "is_reserved": 0, "is_disabled": 0, "fusion_lon": 0.0, "bike_id": "f9d4a6516bb902867c222672e23b3fbf", "lon": -77.04878166666667, "rental_uris": {"ios": "https://dc.lft.to/lastmile_qr_scan", "android": "https://dc.lft.to/lastmile_qr_scan"}}, {"name": "ce7686df7c5b98d8a4b10e051b663195", "fusion_lat": 0.0, "type": "electric_scooter", "lat": 38.922583, "is_reserved": 0, "is_disabled": 0, "fusion_lon": 0.0, "bike_id": "ce7686df7c5b98d8a4b10e051b663195", "lon": -77.04287216666667, "rental_uris": {"ios": "https://dc.lft.to/lastmile_qr_scan", "android": "https://dc.lft.to/lastmile_qr_scan"}}, {"name": "16ba10a7c2e9aeba9e96fcbf5fc386d7", "fusion_lat": 0.0, "type": "electric_bike", "lat": 38.959249, "is_reserved": 0, "is_disabled": 0, "fusion_lon": 0.0, "bike_id": "16ba10a7c2e9aeba9e96fcbf5fc386d7", "lon": -76.92541716666666, "rental_uris": {"ios": "https://dc.lft.to/lastmile_qr_scan", "android": "https://dc.lft.to/lastmile_qr_scan"}}, {"name": "107d07179bd6cba01618b985a437024c", "fusion_lat": 0.0, "type": "electric_scooter", "lat": 38.9030905, "is_reserved": 0, "is_disabled": 0, "fusion_lon": 0.0, "bike_id": "107d07179bd6cba01618b985a437024c", "lon": -77.0502685, "rental_uris": {"ios": "https://dc.lft.to/lastmile_qr_scan", "android": "https://dc.lft.to/lastmile_qr_scan"}}, {"name": "15c143d2cd780c9824efcbf3c332cce9", "fusion_lat": 0.0, "type": "electric_scooter", "lat": 38.903616166666666, "is_reserved": 0, "is_disabled": 0, "fusion_lon": 0.0, "bike_id": "15c143d2cd780c9824efcbf3c332cce9", "lon": -77.01764183333333, "rental_uris": {"ios": "https://dc.lft.to/lastmile_qr_scan", "android": "https://dc.lft.to/lastmile_qr_scan"}}, {"name": "2727b84343f0873a71407640965f2923", "fusion_lat": 0.0, "type": "electric_scooter", "lat": 38.90997133333333, "is_reserved": 0, "is_disabled": 0, "fusion_lon": 0.0, "bike_id": "2727b84343f0873a71407640965f2923", "lon": -77.03465933333334, "rental_uris": {"ios": "https://dc.lft.to/lastmile_qr_scan", "android": "https://dc.lft.to/lastmile_qr_scan"}}, {"name": "697f15f7d3f2d563141aa4a9bafb073f", "fusion_lat": 0.0, "type": "electric_bike", "lat": 38.939573333333335, "is_reserved": 0, "is_disabled": 0, "fusion_lon": 0.0, "bike_id": "697f15f7d3f2d563141aa4a9bafb073f", "lon": -77.36095416666667, "rental_uris": {"ios": "https://dc.lft.to/lastmile_qr_scan", "android": "https://dc.lft.to/lastmile_qr_scan"}}, {"name": "9638cc7e4c1eb6adb78982f1201bf07f", "fusion_lat": 0.0, "type": "electric_scooter", "lat": 38.908216833333334, "is_reserved": 0, "is_disabled": 0, "fusion_lon": 0.0, "bike_id": "9638cc7e4c1eb6adb78982f1201bf07f", "lon": -77.039408, "rental_uris": {"ios": "https://dc.lft.to/lastmile_qr_scan", "android": "https://dc.lft.to/lastmile_qr_scan"}}, {"name": "5fd280fc70d6fea721f9ac6f6a17f2e0", "fusion_lat": 0.0, "type": "electric_bike", "lat": 38.8459735, "is_reserved": 0, "is_disabled": 0, "fusion_lon": 0.0, "bike_id": "5fd280fc70d6fea721f9ac6f6a17f2e0", "lon": -76.968762, "rental_uris": {"ios": "https://dc.lft.to/lastmile_qr_scan", "android": "https://dc.lft.to/lastmile_qr_scan"}}, {"name": "acdce50bdb23030df8a6edde6be8a57f", "fusion_lat": 0.0, "type": "electric_bike", "lat": 38.92688616666667, "is_reserved": 0, "is_disabled": 0, "fusion_lon": 0.0, "bike_id": "acdce50bdb23030df8a6edde6be8a57f", "lon": -77.007852, "rental_uris": {"ios": "https://dc.lft.to/lastmile_qr_scan", "android": "https://dc.lft.to/lastmile_qr_scan"}}, {"name": "c79346fb0b99586d7d5fac2e76e4c41c", "fusion_lat": 0.0, "type": "electric_bike", "lat": 38.87748466666667, "is_reserved": 0, "is_disabled": 0, "fusion_lon": 0.0, "bike_id": "c79346fb0b99586d7d5fac2e76e4c41c", "lon": -76.97987933333333, "rental_uris": {"ios": "https://dc.lft.to/lastmile_qr_scan", "android": "https://dc.lft.to/lastmile_qr_scan"}}, {"name": "5f990c665ce1d29630c79f38b7f17294", "fusion_lat": 0.0, "type": "electric_scooter", "lat": 38.869581833333335, "is_reserved": 0, "is_disabled": 0, "fusion_lon": 0.0, "bike_id": "5f990c665ce1d29630c79f38b7f17294", "lon": -77.01375883333333, "rental_uris": {"ios": "https://dc.lft.to/lastmile_qr_scan", "android": "https://dc.lft.to/lastmile_qr_scan"}}, {"name": "7d367bac1c84814e52184f16f03a40ce", "fusion_lat": 0.0, "type": "electric_scooter", "lat": 38.92648666666667, "is_reserved": 0, "is_disabled": 0, "fusion_lon": 0.0, "bike_id": "7d367bac1c84814e52184f16f03a40ce", "lon": -77.0373065, "rental_uris": {"ios": "https://dc.lft.to/lastmile_qr_scan", "android": "https://dc.lft.to/lastmile_qr_scan"}}, {"name": "f934941bda320fd15609d3d1f84673c9", "fusion_lat": 0.0, "type": "electric_scooter", "lat": 38.90966133333333, "is_reserved": 0, "is_disabled": 0, "fusion_lon": 0.0, "bike_id": "f934941bda320fd15609d3d1f84673c9", "lon": -77.034168, "rental_uris": {"ios": "https://dc.lft.to/lastmile_qr_scan", "android": "https://dc.lft.to/lastmile_qr_scan"}}, {"name": "a156a39b944aa682b02904d585959b47", "fusion_lat": 0.0, "type": "electric_scooter", "lat": 38.89999233333333, "is_reserved": 0, "is_disabled": 0, "fusion_lon": 0.0, "bike_id": "a156a39b944aa682b02904d585959b47", "lon": -77.05339566666666, "rental_uris": {"ios": "https://dc.lft.to/lastmile_qr_scan", "android": "https://dc.lft.to/lastmile_qr_scan"}}, {"name": "6c10fc377463e043026ab4d6b2a1bf54", "fusion_lat": 0.0, "type": "electric_scooter", "lat": 38.927355666666664, "is_reserved": 0, "is_disabled": 0, "fusion_lon": 0.0, "bike_id": "6c10fc377463e043026ab4d6b2a1bf54", "lon": -77.0249395, "rental_uris": {"ios": "https://dc.lft.to/lastmile_qr_scan", "android": "https://dc.lft.to/lastmile_qr_scan"}}, {"name": "c81158a2534ccb478d2c85433e798705", "fusion_lat": 0.0, "type": "electric_scooter", "lat": 38.936157, "is_reserved": 0, "is_disabled": 0, "fusion_lon": 0.0, "bike_id": "c81158a2534ccb478d2c85433e798705", "lon": -77.0320955, "rental_uris": {"ios": "https://dc.lft.to/lastmile_qr_scan", "android": "https://dc.lft.to/lastmile_qr_scan"}}, {"name": "fb0b422bd6b877e1882d65e160234f3a", "fusion_lat": 0.0, "type": "electric_scooter", "lat": 38.9370575, "is_reserved": 0, "is_disabled": 0, "fusion_lon": 0.0, "bike_id": "fb0b422bd6b877e1882d65e160234f3a", "lon": -77.06101266666667, "rental_uris": {"ios": "https://dc.lft.to/lastmile_qr_scan", "android": "https://dc.lft.to/lastmile_qr_scan"}}, {"name": "c95ae47fbf4095da9ce938c1ddfdc221", "fusion_lat": 0.0, "type": "electric_scooter", "lat": 38.91012633333333, "is_reserved": 0, "is_disabled": 0, "fusion_lon": 0.0, "bike_id": "c95ae47fbf4095da9ce938c1ddfdc221", "lon": -76.99672666666666, "rental_uris": {"ios": "https://dc.lft.to/lastmile_qr_scan", "android": "https://dc.lft.to/lastmile_qr_scan"}}, {"name": "0396812fa48030d8f23c92de24ce7127", "fusion_lat": 0.0, "type": "electric_scooter", "lat": 38.944053833333335, "is_reserved": 0, "is_disabled": 0, "fusion_lon": 0.0, "bike_id": "0396812fa48030d8f23c92de24ce7127", "lon": -77.0632925, "rental_uris": {"ios": "https://dc.lft.to/lastmile_qr_scan", "android": "https://dc.lft.to/lastmile_qr_scan"}}, {"name": "ca6a0da5d1ff346b195fb2b25facc27c", "fusion_lat": 0.0, "type": "electric_scooter", "lat": 38.93127483333333, "is_reserved": 0, "is_disabled": 0, "fusion_lon": 0.0, "bike_id": "ca6a0da5d1ff346b195fb2b25facc27c", "lon": -77.03601883333333, "rental_uris": {"ios": "https://dc.lft.to/lastmile_qr_scan", "android": "https://dc.lft.to/lastmile_qr_scan"}}, {"name": "0b3371e0b0892f75ba648e9c06c9e2d5", "fusion_lat": 0.0, "type": "electric_scooter", "lat": 38.89644716666667, "is_reserved": 0, "is_disabled": 0, "fusion_lon": 0.0, "bike_id": "0b3371e0b0892f75ba648e9c06c9e2d5", "lon": -77.046483, "rental_uris": {"ios": "https://dc.lft.to/lastmile_qr_scan", "android": "https://dc.lft.to/lastmile_qr_scan"}}, {"name": "6032107942ba44b5ddc890bc2e99fd05", "fusion_lat": 0.0, "type": "electric_scooter", "lat": 38.898542, "is_reserved": 0, "is_disabled": 0, "fusion_lon": 0.0, "bike_id": "6032107942ba44b5ddc890bc2e99fd05", "lon": -77.01611966666667, "rental_uris": {"ios": "https://dc.lft.to/lastmile_qr_scan", "android": "https://dc.lft.to/lastmile_qr_scan"}}, {"name": "c6112df19629410ffd72358c8df26386", "fusion_lat": 0.0, "type": "electric_scooter", "lat": 38.900265166666664, "is_reserved": 0, "is_disabled": 0, "fusion_lon": 0.0, "bike_id": "c6112df19629410ffd72358c8df26386", "lon": -76.99857933333334, "rental_uris": {"ios": "https://dc.lft.to/lastmile_qr_scan", "android": "https://dc.lft.to/lastmile_qr_scan"}}, {"name": "dbbea2cc415be320e373e9a1d79a16cb", "fusion_lat": 0.0, "type": "electric_scooter", "lat": 38.87158766666667, "is_reserved": 0, "is_disabled": 0, "fusion_lon": 0.0, "bike_id": "dbbea2cc415be320e373e9a1d79a16cb", "lon": -77.00609166666666, "rental_uris": {"ios": "https://dc.lft.to/lastmile_qr_scan", "android": "https://dc.lft.to/lastmile_qr_scan"}}, {"name": "00b89162d263589bd8b6d9a02c239eaf", "fusion_lat": 0.0, "type": "electric_scooter", "lat": 38.883797, "is_reserved": 0, "is_disabled": 0, "fusion_lon": 0.0, "bike_id": "00b89162d263589bd8b6d9a02c239eaf", "lon": -76.99522416666667, "rental_uris": {"ios": "https://dc.lft.to/lastmile_qr_scan", "android": "https://dc.lft.to/lastmile_qr_scan"}}, {"name": "f3b0984a717978f82b843d349511c693", "fusion_lat": 0.0, "type": "electric_scooter", "lat": 38.928329, "is_reserved": 0, "is_disabled": 0, "fusion_lon": 0.0, "bike_id": "f3b0984a717978f82b843d349511c693", "lon": -77.0542715, "rental_uris": {"ios": "https://dc.lft.to/lastmile_qr_scan", "android": "https://dc.lft.to/lastmile_qr_scan"}}, {"name": "281005b67d4db9206eab260e16b9b10a", "fusion_lat": 0.0, "type": "electric_scooter", "lat": 38.91806366666667, "is_reserved": 0, "is_disabled": 0, "fusion_lon": 0.0, "bike_id": "281005b67d4db9206eab260e16b9b10a", "lon": -77.02497, "rental_uris": {"ios": "https://dc.lft.to/lastmile_qr_scan", "android": "https://dc.lft.to/lastmile_qr_scan"}}, {"name": "94f77f7aee23b5e310f3fb38deffc4b3", "fusion_lat": 0.0, "type": "electric_bike", "lat": 39.0241325, "is_reserved": 0, "is_disabled": 0, "fusion_lon": 0.0, "bike_id": "94f77f7aee23b5e310f3fb38deffc4b3", "lon": -77.1250345, "rental_uris": {"ios": "https://dc.lft.to/lastmile_qr_scan", "android": "https://dc.lft.to/lastmile_qr_scan"}}, {"name": "27e85843ee80606e0162a5491f3b9bb8", "fusion_lat": 0.0, "type": "electric_scooter", "lat": 38.9233785, "is_reserved": 0, "is_disabled": 0, "fusion_lon": 0.0, "bike_id": "27e85843ee80606e0162a5491f3b9bb8", "lon": -77.05015683333333, "rental_uris": {"ios": "https://dc.lft.to/lastmile_qr_scan", "android": "https://dc.lft.to/lastmile_qr_scan"}}, {"name": "c9cd78b7f6853c04e6b3534580b9addd", "fusion_lat": 0.0, "type": "electric_scooter", "lat": 38.912465833333336, "is_reserved": 0, "is_disabled": 0, "fusion_lon": 0.0, "bike_id": "c9cd78b7f6853c04e6b3534580b9addd", "lon": -77.02714916666666, "rental_uris": {"ios": "https://dc.lft.to/lastmile_qr_scan", "android": "https://dc.lft.to/lastmile_qr_scan"}}, {"name": "8ea0644d25ac04a67d16dc0a665e50c6", "fusion_lat": 0.0, "type": "electric_scooter", "lat": 38.88128316666667, "is_reserved": 0, "is_disabled": 0, "fusion_lon": 0.0, "bike_id": "8ea0644d25ac04a67d16dc0a665e50c6", "lon": -77.01639766666666, "rental_uris": {"ios": "https://dc.lft.to/lastmile_qr_scan", "android": "https://dc.lft.to/lastmile_qr_scan"}}, {"name": "83dc4a113bd17348b93546720c0e2e3b", "fusion_lat": 0.0, "type": "electric_scooter", "lat": 38.895998666666664, "is_reserved": 0, "is_disabled": 0, "fusion_lon": 0.0, "bike_id": "83dc4a113bd17348b93546720c0e2e3b", "lon": -77.04130216666667, "rental_uris": {"ios": "https://dc.lft.to/lastmile_qr_scan", "android": "https://dc.lft.to/lastmile_qr_scan"}}, {"name": "30aa46f371fcce3f9820b8ac1933bb1f", "fusion_lat": 0.0, "type": "electric_scooter", "lat": 38.91843266666667, "is_reserved": 0, "is_disabled": 0, "fusion_lon": 0.0, "bike_id": "30aa46f371fcce3f9820b8ac1933bb1f", "lon": -77.026044, "rental_uris": {"ios": "https://dc.lft.to/lastmile_qr_scan", "android": "https://dc.lft.to/lastmile_qr_scan"}}, {"name": "1adbd2826761f14e055820fa8d47c79e", "fusion_lat": 0.0, "type": "electric_bike", "lat": 38.94893416666667, "is_reserved": 0, "is_disabled": 0, "fusion_lon": 0.0, "bike_id": "1adbd2826761f14e055820fa8d47c79e", "lon": -76.96376966666666, "rental_uris": {"ios": "https://dc.lft.to/lastmile_qr_scan", "android": "https://dc.lft.to/lastmile_qr_scan"}}, {"name": "a870aee0cb9281c7079314178dd4c1cc", "fusion_lat": 0.0, "type": "electric_bike", "lat": 38.86385883333333, "is_reserved": 0, "is_disabled": 0, "fusion_lon": 0.0, "bike_id": "a870aee0cb9281c7079314178dd4c1cc", "lon": -76.98990583333334, "rental_uris": {"ios": "https://dc.lft.to/lastmile_qr_scan", "android": "https://dc.lft.to/lastmile_qr_scan"}}, {"name": "18165fe62e6b7ccf5f6dd5d058070d0b", "fusion_lat": 0.0, "type": "electric_scooter", "lat": 38.90365466666667, "is_reserved": 0, "is_disabled": 0, "fusion_lon": 0.0, "bike_id": "18165fe62e6b7ccf5f6dd5d058070d0b", "lon": -77.01102933333334, "rental_uris": {"ios": "https://dc.lft.to/lastmile_qr_scan", "android": "https://dc.lft.to/lastmile_qr_scan"}}, {"name": "58eaae659beb717cd6ba46b89d4fa59f", "fusion_lat": 0.0, "type": "electric_scooter", "lat": 38.884722333333336, "is_reserved": 0, "is_disabled": 0, "fusion_lon": 0.0, "bike_id": "58eaae659beb717cd6ba46b89d4fa59f", "lon": -77.01508883333334, "rental_uris": {"ios": "https://dc.lft.to/lastmile_qr_scan", "android": "https://dc.lft.to/lastmile_qr_scan"}}, {"name": "86ff330e4f3fcb95ae54a7abe5749fde", "fusion_lat": 0.0, "type": "electric_scooter", "lat": 38.874237666666666, "is_reserved": 0, "is_disabled": 0, "fusion_lon": 0.0, "bike_id": "86ff330e4f3fcb95ae54a7abe5749fde", "lon": -76.97177416666666, "rental_uris": {"ios": "https://dc.lft.to/lastmile_qr_scan", "android": "https://dc.lft.to/lastmile_qr_scan"}}, {"name": "50b7299cfa65bed75ba2b443270a6225", "fusion_lat": 0.0, "type": "electric_scooter", "lat": 38.89878, "is_reserved": 0, "is_disabled": 0, "fusion_lon": 0.0, "bike_id": "50b7299cfa65bed75ba2b443270a6225", "lon": -76.93160266666666, "rental_uris": {"ios": "https://dc.lft.to/lastmile_qr_scan", "android": "https://dc.lft.to/lastmile_qr_scan"}}, {"name": "d82124f2b08e83361420d7e758b9377c", "fusion_lat": 0.0, "type": "electric_scooter", "lat": 38.94176233333334, "is_reserved": 0, "is_disabled": 0, "fusion_lon": 0.0, "bike_id": "d82124f2b08e83361420d7e758b9377c", "lon": -77.04136233333334, "rental_uris": {"ios": "https://dc.lft.to/lastmile_qr_scan", "android": "https://dc.lft.to/lastmile_qr_scan"}}, {"name": "4d92c22a0488cef9ae78bd927f115ba6", "fusion_lat": 0.0, "type": "electric_scooter", "lat": 38.91188266666666, "is_reserved": 0, "is_disabled": 0, "fusion_lon": 0.0, "bike_id": "4d92c22a0488cef9ae78bd927f115ba6", "lon": -77.03971566666667, "rental_uris": {"ios": "https://dc.lft.to/lastmile_qr_scan", "android": "https://dc.lft.to/lastmile_qr_scan"}}, {"name": "b007a0714a784bed3391055e8830649c", "fusion_lat": 0.0, "type": "electric_scooter", "lat": 38.9236405, "is_reserved": 0, "is_disabled": 0, "fusion_lon": 0.0, "bike_id": "b007a0714a784bed3391055e8830649c", "lon": -77.0504605, "rental_uris": {"ios": "https://dc.lft.to/lastmile_qr_scan", "android": "https://dc.lft.to/lastmile_qr_scan"}}, {"name": "4126b9a737422cab75357a782656d0b5", "fusion_lat": 0.0, "type": "electric_scooter", "lat": 38.91488533333333, "is_reserved": 0, "is_disabled": 0, "fusion_lon": 0.0, "bike_id": "4126b9a737422cab75357a782656d0b5", "lon": -77.032577, "rental_uris": {"ios": "https://dc.lft.to/lastmile_qr_scan", "android": "https://dc.lft.to/lastmile_qr_scan"}}, {"name": "1896b8faa1f3e751938c54c4dc1e9ace", "fusion_lat": 0.0, "type": "electric_scooter", "lat": 38.89225583333333, "is_reserved": 0, "is_disabled": 0, "fusion_lon": 0.0, "bike_id": "1896b8faa1f3e751938c54c4dc1e9ace", "lon": -77.04645883333333, "rental_uris": {"ios": "https://dc.lft.to/lastmile_qr_scan", "android": "https://dc.lft.to/lastmile_qr_scan"}}, {"name": "316ae91675974a489ad12b90a4cf5b3b", "fusion_lat": 0.0, "type": "electric_scooter", "lat": 38.90328216666666, "is_reserved": 0, "is_disabled": 0, "fusion_lon": 0.0, "bike_id": "316ae91675974a489ad12b90a4cf5b3b", "lon": -77.03843333333333, "rental_uris": {"ios": "https://dc.lft.to/lastmile_qr_scan", "android": "https://dc.lft.to/lastmile_qr_scan"}}, {"name": "df5a757f3135fd4d688e2dc20e8e0017", "fusion_lat": 0.0, "type": "electric_scooter", "lat": 38.93090216666667, "is_reserved": 0, "is_disabled": 0, "fusion_lon": 0.0, "bike_id": "df5a757f3135fd4d688e2dc20e8e0017", "lon": -77.02417416666667, "rental_uris": {"ios": "https://dc.lft.to/lastmile_qr_scan", "android": "https://dc.lft.to/lastmile_qr_scan"}}, {"name": "b9c3f5c580939b3df084d22f238f0b8f", "fusion_lat": 0.0, "type": "electric_scooter", "lat": 38.9343065, "is_reserved": 0, "is_disabled": 0, "fusion_lon": 0.0, "bike_id": "b9c3f5c580939b3df084d22f238f0b8f", "lon": -77.040032, "rental_uris": {"ios": "https://dc.lft.to/lastmile_qr_scan", "android": "https://dc.lft.to/lastmile_qr_scan"}}, {"name": "6c08929a2a16f84028758f04d25a7788", "fusion_lat": 0.0, "type": "electric_scooter", "lat": 38.889306166666664, "is_reserved": 0, "is_disabled": 0, "fusion_lon": 0.0, "bike_id": "6c08929a2a16f84028758f04d25a7788", "lon": -76.9478245, "rental_uris": {"ios": "https://dc.lft.to/lastmile_qr_scan", "android": "https://dc.lft.to/lastmile_qr_scan"}}, {"name": "7796e94a6b9130e576b679447084553e", "fusion_lat": 0.0, "type": "electric_scooter", "lat": 38.901398, "is_reserved": 0, "is_disabled": 0, "fusion_lon": 0.0, "bike_id": "7796e94a6b9130e576b679447084553e", "lon": -76.99966233333333, "rental_uris": {"ios": "https://dc.lft.to/lastmile_qr_scan", "android": "https://dc.lft.to/lastmile_qr_scan"}}, {"name": "621093393d4339a1d69f82807374279d", "fusion_lat": 0.0, "type": "electric_bike", "lat": 38.902821, "is_reserved": 0, "is_disabled": 0, "fusion_lon": 0.0, "bike_id": "621093393d4339a1d69f82807374279d", "lon": -76.98087233333334, "rental_uris": {"ios": "https://dc.lft.to/lastmile_qr_scan", "android": "https://dc.lft.to/lastmile_qr_scan"}}, {"name": "af2b16de7e0f6642bfe380d0c8b3cb8c", "fusion_lat": 0.0, "type": "electric_scooter", "lat": 38.91111083333333, "is_reserved": 0, "is_disabled": 0, "fusion_lon": 0.0, "bike_id": "af2b16de7e0f6642bfe380d0c8b3cb8c", "lon": -77.03827983333333, "rental_uris": {"ios": "https://dc.lft.to/lastmile_qr_scan", "android": "https://dc.lft.to/lastmile_qr_scan"}}, {"name": "898fe749ed616dec9b72297bce137b8c", "fusion_lat": 0.0, "type": "electric_bike", "lat": 38.973237, "is_reserved": 0, "is_disabled": 0, "fusion_lon": 0.0, "bike_id": "898fe749ed616dec9b72297bce137b8c", "lon": -77.021514, "rental_uris": {"ios": "https://dc.lft.to/lastmile_qr_scan", "android": "https://dc.lft.to/lastmile_qr_scan"}}, {"name": "417d18a3a9cb09a7efbc92d57d225a6b", "fusion_lat": 0.0, "type": "electric_scooter", "lat": 38.91258533333333, "is_reserved": 0, "is_disabled": 0, "fusion_lon": 0.0, "bike_id": "417d18a3a9cb09a7efbc92d57d225a6b", "lon": -77.04475616666667, "rental_uris": {"ios": "https://dc.lft.to/lastmile_qr_scan", "android": "https://dc.lft.to/lastmile_qr_scan"}}, {"name": "c1f93eb137e1577185159e190a830555", "fusion_lat": 0.0, "type": "electric_scooter", "lat": 38.9180225, "is_reserved": 0, "is_disabled": 0, "fusion_lon": 0.0, "bike_id": "c1f93eb137e1577185159e190a830555", "lon": -77.02815983333333, "rental_uris": {"ios": "https://dc.lft.to/lastmile_qr_scan", "android": "https://dc.lft.to/lastmile_qr_scan"}}, {"name": "3b8c5bf3ab53df6763b9b4abefb4c210", "fusion_lat": 0.0, "type": "electric_bike", "lat": 38.83854683333333, "is_reserved": 0, "is_disabled": 0, "fusion_lon": 0.0, "bike_id": "3b8c5bf3ab53df6763b9b4abefb4c210", "lon": -77.08871166666667, "rental_uris": {"ios": "https://dc.lft.to/lastmile_qr_scan", "android": "https://dc.lft.to/lastmile_qr_scan"}}, {"name": "5e4d858a5812fe8056660ea08d09c832", "fusion_lat": 0.0, "type": "electric_scooter", "lat": 38.87374633333334, "is_reserved": 0, "is_disabled": 0, "fusion_lon": 0.0, "bike_id": "5e4d858a5812fe8056660ea08d09c832", "lon": -77.00034883333333, "rental_uris": {"ios": "https://dc.lft.to/lastmile_qr_scan", "android": "https://dc.lft.to/lastmile_qr_scan"}}, {"name": "f478fdfd9dbf71fe65395f05f274ca9f", "fusion_lat": 0.0, "type": "electric_scooter", "lat": 38.90535716666667, "is_reserved": 0, "is_disabled": 0, "fusion_lon": 0.0, "bike_id": "f478fdfd9dbf71fe65395f05f274ca9f", "lon": -77.0297015, "rental_uris": {"ios": "https://dc.lft.to/lastmile_qr_scan", "android": "https://dc.lft.to/lastmile_qr_scan"}}, {"name": "27897ba37f8208906d5d1c4f39129261", "fusion_lat": 0.0, "type": "electric_scooter", "lat": 38.918653666666664, "is_reserved": 0, "is_disabled": 0, "fusion_lon": 0.0, "bike_id": "27897ba37f8208906d5d1c4f39129261", "lon": -77.04212683333333, "rental_uris": {"ios": "https://dc.lft.to/lastmile_qr_scan", "android": "https://dc.lft.to/lastmile_qr_scan"}}, {"name": "61745528b31486b5cdf72a158b1bf2f3", "fusion_lat": 0.0, "type": "electric_scooter", "lat": 38.91909533333333, "is_reserved": 0, "is_disabled": 0, "fusion_lon": 0.0, "bike_id": "61745528b31486b5cdf72a158b1bf2f3", "lon": -77.02134866666667, "rental_uris": {"ios": "https://dc.lft.to/lastmile_qr_scan", "android": "https://dc.lft.to/lastmile_qr_scan"}}, {"name": "0ed42e06e8d7629f227ff9b76d7ff3b5", "fusion_lat": 0.0, "type": "electric_scooter", "lat": 38.92482966666667, "is_reserved": 0, "is_disabled": 0, "fusion_lon": 0.0, "bike_id": "0ed42e06e8d7629f227ff9b76d7ff3b5", "lon": -77.05216716666666, "rental_uris": {"ios": "https://dc.lft.to/lastmile_qr_scan", "android": "https://dc.lft.to/lastmile_qr_scan"}}, {"name": "17344a77820ad9048a9cf32b117c3332", "fusion_lat": 0.0, "type": "electric_bike", "lat": 38.90627833333333, "is_reserved": 0, "is_disabled": 0, "fusion_lon": 0.0, "bike_id": "17344a77820ad9048a9cf32b117c3332", "lon": -77.023752, "rental_uris": {"ios": "https://dc.lft.to/lastmile_qr_scan", "android": "https://dc.lft.to/lastmile_qr_scan"}}, {"name": "293d05bf364e0ee4d16ef404ba4d83ec", "fusion_lat": 0.0, "type": "electric_bike", "lat": 38.9352605, "is_reserved": 0, "is_disabled": 0, "fusion_lon": 0.0, "bike_id": "293d05bf364e0ee4d16ef404ba4d83ec", "lon": -77.05696883333333, "rental_uris": {"ios": "https://dc.lft.to/lastmile_qr_scan", "android": "https://dc.lft.to/lastmile_qr_scan"}}, {"name": "87610b9c7d0b29ba137a71aede27a3db", "fusion_lat": 0.0, "type": "electric_scooter", "lat": 38.885214500000004, "is_reserved": 0, "is_disabled": 0, "fusion_lon": 0.0, "bike_id": "87610b9c7d0b29ba137a71aede27a3db", "lon": -77.03346816666667, "rental_uris": {"ios": "https://dc.lft.to/lastmile_qr_scan", "android": "https://dc.lft.to/lastmile_qr_scan"}}, {"name": "c3ae11dc20bf288dc91b005dcbac6d1f", "fusion_lat": 0.0, "type": "electric_scooter", "lat": 38.900278166666666, "is_reserved": 0, "is_disabled": 0, "fusion_lon": 0.0, "bike_id": "c3ae11dc20bf288dc91b005dcbac6d1f", "lon": -76.998604, "rental_uris": {"ios": "https://dc.lft.to/lastmile_qr_scan", "android": "https://dc.lft.to/lastmile_qr_scan"}}, {"name": "0cc69e409012268576ba38f891b673a1", "fusion_lat": 0.0, "type": "electric_scooter", "lat": 38.91052416666667, "is_reserved": 0, "is_disabled": 0, "fusion_lon": 0.0, "bike_id": "0cc69e409012268576ba38f891b673a1", "lon": -77.045865, "rental_uris": {"ios": "https://dc.lft.to/lastmile_qr_scan", "android": "https://dc.lft.to/lastmile_qr_scan"}}, {"name": "eedd6a2970c095a19bf1f6e3ee2ca0df", "fusion_lat": 0.0, "type": "electric_scooter", "lat": 38.90331833333333, "is_reserved": 0, "is_disabled": 0, "fusion_lon": 0.0, "bike_id": "eedd6a2970c095a19bf1f6e3ee2ca0df", "lon": -77.02062633333334, "rental_uris": {"ios": "https://dc.lft.to/lastmile_qr_scan", "android": "https://dc.lft.to/lastmile_qr_scan"}}, {"name": "a1e3c8f79f796883dd3e878ba1bf0419", "fusion_lat": 0.0, "type": "electric_scooter", "lat": 38.91403433333333, "is_reserved": 0, "is_disabled": 0, "fusion_lon": 0.0, "bike_id": "a1e3c8f79f796883dd3e878ba1bf0419", "lon": -77.022294, "rental_uris": {"ios": "https://dc.lft.to/lastmile_qr_scan", "android": "https://dc.lft.to/lastmile_qr_scan"}}, {"name": "c371f59787b04ab2f5d6dd2d03c7f258", "fusion_lat": 0.0, "type": "electric_scooter", "lat": 38.92287983333333, "is_reserved": 0, "is_disabled": 0, "fusion_lon": 0.0, "bike_id": "c371f59787b04ab2f5d6dd2d03c7f258", "lon": -77.0296855, "rental_uris": {"ios": "https://dc.lft.to/lastmile_qr_scan", "android": "https://dc.lft.to/lastmile_qr_scan"}}, {"name": "782f36935f66f1034e38497d4826dce4", "fusion_lat": 0.0, "type": "electric_scooter", "lat": 38.90605716666666, "is_reserved": 0, "is_disabled": 0, "fusion_lon": 0.0, "bike_id": "782f36935f66f1034e38497d4826dce4", "lon": -77.00599516666666, "rental_uris": {"ios": "https://dc.lft.to/lastmile_qr_scan", "android": "https://dc.lft.to/lastmile_qr_scan"}}, {"name": "30b028957f23dfb40da531ec28423cb4", "fusion_lat": 0.0, "type": "electric_scooter", "lat": 38.8749585, "is_reserved": 0, "is_disabled": 0, "fusion_lon": 0.0, "bike_id": "30b028957f23dfb40da531ec28423cb4", "lon": -76.99794166666666, "rental_uris": {"ios": "https://dc.lft.to/lastmile_qr_scan", "android": "https://dc.lft.to/lastmile_qr_scan"}}, {"name": "f5e5d4ec4cc1ba190e712a954a92aba9", "fusion_lat": 0.0, "type": "electric_scooter", "lat": 38.90258133333333, "is_reserved": 0, "is_disabled": 0, "fusion_lon": 0.0, "bike_id": "f5e5d4ec4cc1ba190e712a954a92aba9", "lon": -77.00330816666667, "rental_uris": {"ios": "https://dc.lft.to/lastmile_qr_scan", "android": "https://dc.lft.to/lastmile_qr_scan"}}, {"name": "8b4403849b85ee2431c22b8964c712ce", "fusion_lat": 0.0, "type": "electric_scooter", "lat": 38.876266666666666, "is_reserved": 0, "is_disabled": 0, "fusion_lon": 0.0, "bike_id": "8b4403849b85ee2431c22b8964c712ce", "lon": -76.96526366666667, "rental_uris": {"ios": "https://dc.lft.to/lastmile_qr_scan", "android": "https://dc.lft.to/lastmile_qr_scan"}}, {"name": "888a0910be379eeadc8e2558432c43b4", "fusion_lat": 0.0, "type": "electric_scooter", "lat": 38.921249, "is_reserved": 0, "is_disabled": 0, "fusion_lon": 0.0, "bike_id": "888a0910be379eeadc8e2558432c43b4", "lon": -77.04575066666666, "rental_uris": {"ios": "https://dc.lft.to/lastmile_qr_scan", "android": "https://dc.lft.to/lastmile_qr_scan"}}, {"name": "a71b362f5c9884f1e8bb2c7a7f4dc20c", "fusion_lat": 0.0, "type": "electric_scooter", "lat": 38.906462833333336, "is_reserved": 0, "is_disabled": 0, "fusion_lon": 0.0, "bike_id": "a71b362f5c9884f1e8bb2c7a7f4dc20c", "lon": -76.983685, "rental_uris": {"ios": "https://dc.lft.to/lastmile_qr_scan", "android": "https://dc.lft.to/lastmile_qr_scan"}}, {"name": "1d313dd1e2c572389892089ab27fd475", "fusion_lat": 0.0, "type": "electric_scooter", "lat": 38.8860975, "is_reserved": 0, "is_disabled": 0, "fusion_lon": 0.0, "bike_id": "1d313dd1e2c572389892089ab27fd475", "lon": -76.97816516666667, "rental_uris": {"ios": "https://dc.lft.to/lastmile_qr_scan", "android": "https://dc.lft.to/lastmile_qr_scan"}}, {"name": "d3f581656c84fcb511bb86e123e522a5", "fusion_lat": 0.0, "type": "electric_scooter", "lat": 38.887391, "is_reserved": 0, "is_disabled": 0, "fusion_lon": 0.0, "bike_id": "d3f581656c84fcb511bb86e123e522a5", "lon": -77.01533883333333, "rental_uris": {"ios": "https://dc.lft.to/lastmile_qr_scan", "android": "https://dc.lft.to/lastmile_qr_scan"}}, {"name": "8e485631e4c9b9bcfab66f4c082312c0", "fusion_lat": 0.0, "type": "electric_scooter", "lat": 38.903931, "is_reserved": 0, "is_disabled": 0, "fusion_lon": 0.0, "bike_id": "8e485631e4c9b9bcfab66f4c082312c0", "lon": -77.0174505, "rental_uris": {"ios": "https://dc.lft.to/lastmile_qr_scan", "android": "https://dc.lft.to/lastmile_qr_scan"}}, {"name": "30c6afa9de22b44e9baa8314c55bc84a", "fusion_lat": 0.0, "type": "electric_scooter", "lat": 38.925639833333335, "is_reserved": 0, "is_disabled": 0, "fusion_lon": 0.0, "bike_id": "30c6afa9de22b44e9baa8314c55bc84a", "lon": -77.0296565, "rental_uris": {"ios": "https://dc.lft.to/lastmile_qr_scan", "android": "https://dc.lft.to/lastmile_qr_scan"}}, {"name": "9e49e8fdc9a7e3da1b8f69cd91a63a35", "fusion_lat": 0.0, "type": "electric_scooter", "lat": 38.900318166666665, "is_reserved": 0, "is_disabled": 0, "fusion_lon": 0.0, "bike_id": "9e49e8fdc9a7e3da1b8f69cd91a63a35", "lon": -76.99986916666667, "rental_uris": {"ios": "https://dc.lft.to/lastmile_qr_scan", "android": "https://dc.lft.to/lastmile_qr_scan"}}, {"name": "3e7cbbc9dc8b2af6e374cfb20d5cb54c", "fusion_lat": 0.0, "type": "electric_scooter", "lat": 38.96801633333333, "is_reserved": 0, "is_disabled": 0, "fusion_lon": 0.0, "bike_id": "3e7cbbc9dc8b2af6e374cfb20d5cb54c", "lon": -77.021093, "rental_uris": {"ios": "https://dc.lft.to/lastmile_qr_scan", "android": "https://dc.lft.to/lastmile_qr_scan"}}, {"name": "36b9a3ca8b7ca9eb358cc512a5ec6160", "fusion_lat": 0.0, "type": "electric_scooter", "lat": 38.9125505, "is_reserved": 0, "is_disabled": 0, "fusion_lon": 0.0, "bike_id": "36b9a3ca8b7ca9eb358cc512a5ec6160", "lon": -77.0077505, "rental_uris": {"ios": "https://dc.lft.to/lastmile_qr_scan", "android": "https://dc.lft.to/lastmile_qr_scan"}}, {"name": "d431011631b89a83b7c2b76342422332", "fusion_lat": 0.0, "type": "electric_scooter", "lat": 38.93364533333333, "is_reserved": 0, "is_disabled": 0, "fusion_lon": 0.0, "bike_id": "d431011631b89a83b7c2b76342422332", "lon": -77.05726666666666, "rental_uris": {"ios": "https://dc.lft.to/lastmile_qr_scan", "android": "https://dc.lft.to/lastmile_qr_scan"}}, {"name": "0e87e2f9dde6e4b5122890d5186c837c", "fusion_lat": 0.0, "type": "electric_bike", "lat": 38.89683766666667, "is_reserved": 0, "is_disabled": 0, "fusion_lon": 0.0, "bike_id": "0e87e2f9dde6e4b5122890d5186c837c", "lon": -76.94064683333333, "rental_uris": {"ios": "https://dc.lft.to/lastmile_qr_scan", "android": "https://dc.lft.to/lastmile_qr_scan"}}, {"name": "d5e00c44032974b6eeb6c0a538e1e45b", "fusion_lat": 0.0, "type": "electric_bike", "lat": 38.8863635, "is_reserved": 0, "is_disabled": 0, "fusion_lon": 0.0, "bike_id": "d5e00c44032974b6eeb6c0a538e1e45b", "lon": -76.95465366666667, "rental_uris": {"ios": "https://dc.lft.to/lastmile_qr_scan", "android": "https://dc.lft.to/lastmile_qr_scan"}}, {"name": "7fd60e419fb5d55efd5e86f8fcc53b5d", "fusion_lat": 0.0, "type": "electric_scooter", "lat": 38.93544766666667, "is_reserved": 0, "is_disabled": 0, "fusion_lon": 0.0, "bike_id": "7fd60e419fb5d55efd5e86f8fcc53b5d", "lon": -77.05981016666667, "rental_uris": {"ios": "https://dc.lft.to/lastmile_qr_scan", "android": "https://dc.lft.to/lastmile_qr_scan"}}, {"name": "a2c1977c7e62dc9110f80390c9103fac", "fusion_lat": 0.0, "type": "electric_bike", "lat": 38.8983365, "is_reserved": 0, "is_disabled": 0, "fusion_lon": 0.0, "bike_id": "a2c1977c7e62dc9110f80390c9103fac", "lon": -77.118013, "rental_uris": {"ios": "https://dc.lft.to/lastmile_qr_scan", "android": "https://dc.lft.to/lastmile_qr_scan"}}, {"name": "f8c4acbd405d7492309b359d91c9669d", "fusion_lat": 0.0, "type": "electric_bike", "lat": 38.93002416666667, "is_reserved": 0, "is_disabled": 0, "fusion_lon": 0.0, "bike_id": "f8c4acbd405d7492309b359d91c9669d", "lon": -77.02442683333334, "rental_uris": {"ios": "https://dc.lft.to/lastmile_qr_scan", "android": "https://dc.lft.to/lastmile_qr_scan"}}, {"name": "124e1abe1fc8f27d5db0688b8f5b85b8", "fusion_lat": 0.0, "type": "electric_scooter", "lat": 38.93193016666667, "is_reserved": 0, "is_disabled": 0, "fusion_lon": 0.0, "bike_id": "124e1abe1fc8f27d5db0688b8f5b85b8", "lon": -77.027632, "rental_uris": {"ios": "https://dc.lft.to/lastmile_qr_scan", "android": "https://dc.lft.to/lastmile_qr_scan"}}, {"name": "42f405a9f5e5854d7b4197b8413bca33", "fusion_lat": 0.0, "type": "electric_scooter", "lat": 38.93641983333333, "is_reserved": 0, "is_disabled": 0, "fusion_lon": 0.0, "bike_id": "42f405a9f5e5854d7b4197b8413bca33", "lon": -77.03456633333333, "rental_uris": {"ios": "https://dc.lft.to/lastmile_qr_scan", "android": "https://dc.lft.to/lastmile_qr_scan"}}, {"name": "798631a44d3c0c090e7f5e6a60a1c684", "fusion_lat": 0.0, "type": "electric_scooter", "lat": 38.91581033333333, "is_reserved": 0, "is_disabled": 0, "fusion_lon": 0.0, "bike_id": "798631a44d3c0c090e7f5e6a60a1c684", "lon": -77.0425785, "rental_uris": {"ios": "https://dc.lft.to/lastmile_qr_scan", "android": "https://dc.lft.to/lastmile_qr_scan"}}, {"name": "ec15e9af32a58470127747d3ced3cf19", "fusion_lat": 0.0, "type": "electric_scooter", "lat": 38.92381816666666, "is_reserved": 0, "is_disabled": 0, "fusion_lon": 0.0, "bike_id": "ec15e9af32a58470127747d3ced3cf19", "lon": -77.03902533333333, "rental_uris": {"ios": "https://dc.lft.to/lastmile_qr_scan", "android": "https://dc.lft.to/lastmile_qr_scan"}}, {"name": "5de0452352c5d3c1e7a99374a4497c25", "fusion_lat": 0.0, "type": "electric_scooter", "lat": 38.885813666666664, "is_reserved": 0, "is_disabled": 0, "fusion_lon": 0.0, "bike_id": "5de0452352c5d3c1e7a99374a4497c25", "lon": -76.99501, "rental_uris": {"ios": "https://dc.lft.to/lastmile_qr_scan", "android": "https://dc.lft.to/lastmile_qr_scan"}}, {"name": "a5338017408b4bdd32c35d790aa57f49", "fusion_lat": 0.0, "type": "electric_scooter", "lat": 38.91678483333333, "is_reserved": 0, "is_disabled": 0, "fusion_lon": 0.0, "bike_id": "a5338017408b4bdd32c35d790aa57f49", "lon": -77.03191816666667, "rental_uris": {"ios": "https://dc.lft.to/lastmile_qr_scan", "android": "https://dc.lft.to/lastmile_qr_scan"}}, {"name": "1efd333ef271b4c32a63c45032d76a29", "fusion_lat": 0.0, "type": "electric_scooter", "lat": 38.91580283333333, "is_reserved": 0, "is_disabled": 0, "fusion_lon": 0.0, "bike_id": "1efd333ef271b4c32a63c45032d76a29", "lon": -77.01604083333334, "rental_uris": {"ios": "https://dc.lft.to/lastmile_qr_scan", "android": "https://dc.lft.to/lastmile_qr_scan"}}, {"name": "69721036550078efb85a0baf5a27b8b5", "fusion_lat": 0.0, "type": "electric_scooter", "lat": 38.924884666666664, "is_reserved": 0, "is_disabled": 0, "fusion_lon": 0.0, "bike_id": "69721036550078efb85a0baf5a27b8b5", "lon": -77.02709683333333, "rental_uris": {"ios": "https://dc.lft.to/lastmile_qr_scan", "android": "https://dc.lft.to/lastmile_qr_scan"}}, {"name": "8841f54ad6d9dd543c77815d06e618c4", "fusion_lat": 0.0, "type": "electric_scooter", "lat": 38.91679533333333, "is_reserved": 0, "is_disabled": 0, "fusion_lon": 0.0, "bike_id": "8841f54ad6d9dd543c77815d06e618c4", "lon": -77.02966416666666, "rental_uris": {"ios": "https://dc.lft.to/lastmile_qr_scan", "android": "https://dc.lft.to/lastmile_qr_scan"}}, {"name": "3aa75e25d768d8fb233710ec48b5bf83", "fusion_lat": 0.0, "type": "electric_scooter", "lat": 38.905582333333335, "is_reserved": 0, "is_disabled": 0, "fusion_lon": 0.0, "bike_id": "3aa75e25d768d8fb233710ec48b5bf83", "lon": -77.03715233333334, "rental_uris": {"ios": "https://dc.lft.to/lastmile_qr_scan", "android": "https://dc.lft.to/lastmile_qr_scan"}}, {"name": "21ddf0e844a9d553b1cd4268a4aca173", "fusion_lat": 0.0, "type": "electric_scooter", "lat": 38.868326, "is_reserved": 0, "is_disabled": 0, "fusion_lon": 0.0, "bike_id": "21ddf0e844a9d553b1cd4268a4aca173", "lon": -76.98614816666667, "rental_uris": {"ios": "https://dc.lft.to/lastmile_qr_scan", "android": "https://dc.lft.to/lastmile_qr_scan"}}, {"name": "ea8e82c74996a6bd6f3143142fae86aa", "fusion_lat": 0.0, "type": "electric_scooter", "lat": 38.924830166666666, "is_reserved": 0, "is_disabled": 0, "fusion_lon": 0.0, "bike_id": "ea8e82c74996a6bd6f3143142fae86aa", "lon": -77.02996716666667, "rental_uris": {"ios": "https://dc.lft.to/lastmile_qr_scan", "android": "https://dc.lft.to/lastmile_qr_scan"}}, {"name": "0d35895d6f6f46fb4d2141378995ea08", "fusion_lat": 0.0, "type": "electric_scooter", "lat": 38.938706833333335, "is_reserved": 0, "is_disabled": 0, "fusion_lon": 0.0, "bike_id": "0d35895d6f6f46fb4d2141378995ea08", "lon": -77.02221183333333, "rental_uris": {"ios": "https://dc.lft.to/lastmile_qr_scan", "android": "https://dc.lft.to/lastmile_qr_scan"}}, {"name": "1298b2430a463423d733606fdc845f16", "fusion_lat": 0.0, "type": "electric_scooter", "lat": 38.928498, "is_reserved": 0, "is_disabled": 0, "fusion_lon": 0.0, "bike_id": "1298b2430a463423d733606fdc845f16", "lon": -77.01404933333333, "rental_uris": {"ios": "https://dc.lft.to/lastmile_qr_scan", "android": "https://dc.lft.to/lastmile_qr_scan"}},