{"data": {"bikes": [{"rental_uris": {"android": "https://dc.lft.to/lastmile_qr_scan", "ios": "https://dc.lft.to/lastmile_qr_scan"}, "is_reserved": 0, "is_disabled": 0, "name": "91f196431fb39520902d2ce03d40ab15", "bike_id": "91f196431fb39520902d2ce03d40ab15", "fusion_lat": 0.0, "lon": -77.02168516666667, "type": "electric_scooter", "fusion_lon": 0.0, "lat": 38.925086666666665}, {"rental_uris": {"android": "https://dc.lft.to/lastmile_qr_scan", "ios": "https://dc.lft.to/lastmile_qr_scan"}, "is_reserved": 0, "is_disabled": 0, "name": "6b6b3b7c135051b841fbf54ea0ee280a", "bike_id": "6b6b3b7c135051b841fbf54ea0ee280a", "fusion_lat": 0.0, "lon": -77.013609, "type": "electric_scooter", "fusion_lon": 0.0, "lat": 38.9194015}, {"rental_uris": {"android": "https://dc.lft.to/lastmile_qr_scan", "ios": "https://dc.lft.to/lastmile_qr_scan"}, "is_reserved": 0, "is_disabled": 0, "name": "609936c4b5423180f8711859f1a5f5cb", "bike_id": "609936c4b5423180f8711859f1a5f5cb", "fusion_lat": 0.0, "lon": -77.04094066666667, "type": "electric_scooter", "fusion_lon": 0.0, "lat": 38.903753333333334}, {"rental_uris": {"android": "https://dc.lft.to/lastmile_qr_scan", "ios": "https://dc.lft.to/lastmile_qr_scan"}, "is_reserved": 0, "is_disabled": 0, "name": "dcbbdba2d26a6c64f7843806df35c2fc", "bike_id": "dcbbdba2d26a6c64f7843806df35c2fc", "fusion_lat": 0.0, "lon": -77.02447183333334, "type": "electric_scooter", "fusion_lon": 0.0, "lat": 38.9497795}, {"rental_uris": {"android": "https://dc.lft.to/lastmile_qr_scan", "ios": "https://dc.lft.to/lastmile_qr_scan"}, "is_reserved": 0, "is_disabled": 0, "name": "0fd9790ce7578abe92a8db3eeb7fa9f0", "bike_id": "0fd9790ce7578abe92a8db3eeb7fa9f0", "fusion_lat": 0.0, "lon": -77.04573616666667, "type": "electric_scooter", "fusion_lon": 0.0, "lat": 38.903870166666664}, {"rental_uris": {"android": "https://dc.lft.to/lastmile_qr_scan", "ios": "https://dc.lft.to/lastmile_qr_scan"}, "is_reserved": 0, "is_disabled": 0, "name": "0809fcb3e81f81f29899fd5dda0dfa8d", "bike_id": "0809fcb3e81f81f29899fd5dda0dfa8d", "fusion_lat": 0.0, "lon": -77.027151, "type": "electric_scooter", "fusion_lon": 0.0, "lat": 38.91374066666667}, {"rental_uris": {"android": "https://dc.lft.to/lastmile_qr_scan", "ios": "https://dc.lft.to/lastmile_qr_scan"}, "is_reserved": 0, "is_disabled": 0, "name": "19e62f02e7363247a71e54641d8dc319", "bike_id": "19e62f02e7363247a71e54641d8dc319", "fusion_lat": 0.0, "lon": -77.02255083333333, "type": "electric_scooter", "fusion_lon": 0.0, "lat": 38.90196666666667}, {"rental_uris": {"android": "https://dc.lft.to/lastmile_qr_scan", "ios": "https://dc.lft.to/lastmile_qr_scan"}, "is_reserved": 0, "is_disabled": 0, "name": "fc707024eabe6483771483364160dc49", "bike_id": "fc707024eabe6483771483364160dc49", "fusion_lat": 0.0, "lon": -77.032729, "type": "electric_scooter", "fusion_lon": 0.0, "lat": 38.91999666666667}, {"rental_uris": {"android": "https://dc.lft.to/lastmile_qr_scan", "ios": "https://dc.lft.to/lastmile_qr_scan"}, "is_reserved": 0, "is_disabled": 0, "name": "5ddbdbc6ee64939ede1e7d53e08bfa8e", "bike_id": "5ddbdbc6ee64939ede1e7d53e08bfa8e", "fusion_lat": 0.0, "lon": -77.04673766666667, "type": "electric_scooter", "fusion_lon": 0.0, "lat": 38.89737433333333}, {"rental_uris": {"android": "https://dc.lft.to/lastmile_qr_scan", "ios": "https://dc.lft.to/lastmile_qr_scan"}, "is_reserved": 0, "is_disabled": 0, "name": "7d835ff6636143194b62b432606713f4", "bike_id": "7d835ff6636143194b62b432606713f4", "fusion_lat": 0.0, "lon": -77.032637, "type": "electric_scooter", "fusion_lon": 0.0, "lat": 38.92047316666667}, {"rental_uris": {"android": "https://dc.lft.to/lastmile_qr_scan", "ios": "https://dc.lft.to/lastmile_qr_scan"}, "is_reserved": 0, "is_disabled": 0, "name": "1c53b58d891ab88a482ed111962fc1eb", "bike_id": "1c53b58d891ab88a482ed111962fc1eb", "fusion_lat": 0.0, "lon": -77.02225633333333, "type": "electric_scooter", "fusion_lon": 0.0, "lat": 38.92478}, {"rental_uris": {"android": "https://dc.lft.to/lastmile_qr_scan", "ios": "https://dc.lft.to/lastmile_qr_scan"}, "is_reserved": 0, "is_disabled": 0, "name": "1da51b9d0b9192003e79c7e0095bf045", "bike_id": "1da51b9d0b9192003e79c7e0095bf045", "fusion_lat": 0.0, "lon": -77.00356883333333, "type": "electric_scooter", "fusion_lon": 0.0, "lat": 38.876893333333335}, {"rental_uris": {"android": "https://dc.lft.to/lastmile_qr_scan", "ios": "https://dc.lft.to/lastmile_qr_scan"}, "is_reserved": 0, "is_disabled": 0, "name": "9f022a09b9cf6a0530b55aeaaad78509", "bike_id": "9f022a09b9cf6a0530b55aeaaad78509", "fusion_lat": 0.0, "lon": -77.0181865, "type": "electric_scooter", "fusion_lon": 0.0, "lat": 38.90970033333333}, {"rental_uris": {"android": "https://dc.lft.to/lastmile_qr_scan", "ios": "https://dc.lft.to/lastmile_qr_scan"}, "is_reserved": 0, "is_disabled": 0, "name": "2646250c622bb4a4c6a94ded5e364640", "bike_id": "2646250c622bb4a4c6a94ded5e364640", "fusion_lat": 0.0, "lon": -77.03958516666667, "type": "electric_scooter", "fusion_lon": 0.0, "lat": 38.892461833333336}, {"rental_uris": {"android": "https://dc.lft.to/lastmile_qr_scan", "ios": "https://dc.lft.to/lastmile_qr_scan"}, "is_reserved": 0, "is_disabled": 0, "name": "d46fae3615c3c8f328b93ce371760f46", "bike_id": "d46fae3615c3c8f328b93ce371760f46", "fusion_lat": 0.0, "lon": -77.04474733333333, "type": "electric_scooter", "fusion_lon": 0.0, "lat": 38.902808666666665}, {"rental_uris": {"android": "https://dc.lft.to/lastmile_qr_scan", "ios": "https://dc.lft.to/lastmile_qr_scan"}, "is_reserved": 0, "is_disabled": 0, "name": "09a18d9b72f0b7b6d9333df90eec151d", "bike_id": "09a18d9b72f0b7b6d9333df90eec151d", "fusion_lat": 0.0, "lon": -77.02695666666666, "type": "electric_scooter", "fusion_lon": 0.0, "lat": 38.89701433333333}, {"rental_uris": {"android": "https://dc.lft.to/lastmile_qr_scan", "ios": "https://dc.lft.to/lastmile_qr_scan"}, "is_reserved": 0, "is_disabled": 0, "name": "59c2ec3e8b50d604a0c7e9bf2c6b1dac", "bike_id": "59c2ec3e8b50d604a0c7e9bf2c6b1dac", "fusion_lat": 0.0, "lon": -76.99774816666667, "type": "electric_scooter", "fusion_lon": 0.0, "lat": 38.901294}, {"rental_uris": {"android": "https://dc.lft.to/lastmile_qr_scan", "ios": "https://dc.lft.to/lastmile_qr_scan"}, "is_reserved": 0, "is_disabled": 0, "name": "17b89042c6a404f5eba9a7e01d32601a", "bike_id": "17b89042c6a404f5eba9a7e01d32601a", "fusion_lat": 0.0, "lon": -77.0367465, "type": "electric_scooter", "fusion_lon": 0.0, "lat": 38.902845}, {"rental_uris": {"android": "https://dc.lft.to/lastmile_qr_scan", "ios": "https://dc.lft.to/lastmile_qr_scan"}, "is_reserved": 0, "is_disabled": 0, "name": "bebc6be9e4a306d509a79fc504d89e4f", "bike_id": "bebc6be9e4a306d509a79fc504d89e4f", "fusion_lat": 0.0, "lon": -77.03294116666666, "type": "electric_bike", "fusion_lon": 0.0, "lat": 38.9182235}, {"rental_uris": {"android": "https://dc.lft.to/lastmile_qr_scan", "ios": "https://dc.lft.to/lastmile_qr_scan"}, "is_reserved": 0, "is_disabled": 0, "name": "8a3690559831be83a1d16aa1dcf2b93b", "bike_id": "8a3690559831be83a1d16aa1dcf2b93b", "fusion_lat": 0.0, "lon": -77.0009275, "type": "electric_scooter", "fusion_lon": 0.0, "lat": 38.9255255}, {"rental_uris": {"android": "https://dc.lft.to/lastmile_qr_scan", "ios": "https://dc.lft.to/lastmile_qr_scan"}, "is_reserved": 0, "is_disabled": 0, "name": "cbdf966b6f48151157e355bf11239ae4", "bike_id": "cbdf966b6f48151157e355bf11239ae4", "fusion_lat": 0.0, "lon": -77.017517, "type": "electric_scooter", "fusion_lon": 0.0, "lat": 38.920494166666664}, {"rental_uris": {"android": "https://dc.lft.to/lastmile_qr_scan", "ios": "https://dc.lft.to/lastmile_qr_scan"}, "is_reserved": 0, "is_disabled": 0, "name": "fd2f8554f11076f79226cc014f9315d1", "bike_id": "fd2f8554f11076f79226cc014f9315d1", "fusion_lat": 0.0, "lon": -77.040815, "type": "electric_bike", "fusion_lon": 0.0, "lat": 38.83061683333333}, {"rental_uris": {"android": "https://dc.lft.to/lastmile_qr_scan", "ios": "https://dc.lft.to/lastmile_qr_scan"}, "is_reserved": 0, "is_disabled": 0, "name": "705ebd109c9d15080b3ff1c2e03183f0", "bike_id": "705ebd109c9d15080b3ff1c2e03183f0", "fusion_lat": 0.0, "lon": -77.031669, "type": "electric_scooter", "fusion_lon": 0.0, "lat": 38.90131816666667}, {"rental_uris": {"android": "https://dc.lft.to/lastmile_qr_scan", "ios": "https://dc.lft.to/lastmile_qr_scan"}, "is_reserved": 0, "is_disabled": 0, "name": "b45e5d41761ef6d40ecafde873cb6bd0", "bike_id": "b45e5d41761ef6d40ecafde873cb6bd0", "fusion_lat": 0.0, "lon": -76.99117533333333, "type": "electric_scooter", "fusion_lon": 0.0, "lat": 38.9003165}, {"rental_uris": {"android": "https://dc.lft.to/lastmile_qr_scan", "ios": "https://dc.lft.to/lastmile_qr_scan"}, "is_reserved": 0, "is_disabled": 0, "name": "0eb6396bae224c2624e82c38ebaefeb7", "bike_id": "0eb6396bae224c2624e82c38ebaefeb7", "fusion_lat": 0.0, "lon": -77.0217445, "type": "electric_scooter", "fusion_lon": 0.0, "lat": 38.90196683333333}, {"rental_uris": {"android": "https://dc.lft.to/lastmile_qr_scan", "ios": "https://dc.lft.to/lastmile_qr_scan"}, "is_reserved": 0, "is_disabled": 0, "name": "e5ef137806401133d5ae291e8f9256bf", "bike_id": "e5ef137806401133d5ae291e8f9256bf", "fusion_lat": 0.0, "lon": -77.05043066666667, "type": "electric_scooter", "fusion_lon": 0.0, "lat": 38.92363366666667}, {"rental_uris": {"android": "https://dc.lft.to/lastmile_qr_scan", "ios": "https://dc.lft.to/lastmile_qr_scan"}, "is_reserved": 0, "is_disabled": 0, "name": "60ba20d0be51f3b203b3f83cd0481d8f", "bike_id": "60ba20d0be51f3b203b3f83cd0481d8f", "fusion_lat": 0.0, "lon": -77.01915683333333, "type": "electric_scooter", "fusion_lon": 0.0, "lat": 38.923781166666664}, {"rental_uris": {"android": "https://dc.lft.to/lastmile_qr_scan", "ios": "https://dc.lft.to/lastmile_qr_scan"}, "is_reserved": 0, "is_disabled": 0, "name": "8011213955cc839c6ad999c10cfb1e24", "bike_id": "8011213955cc839c6ad999c10cfb1e24", "fusion_lat": 0.0, "lon": -77.04333116666666, "type": "electric_scooter", "fusion_lon": 0.0, "lat": 38.898399833333336}, {"rental_uris": {"android": "https://dc.lft.to/lastmile_qr_scan", "ios": "https://dc.lft.to/lastmile_qr_scan"}, "is_reserved": 0, "is_disabled": 0, "name": "ed199eaef21b859ebc548741d98e6b97", "bike_id": "ed199eaef21b859ebc548741d98e6b97", "fusion_lat": 0.0, "lon": -77.017636, "type": "electric_scooter", "fusion_lon": 0.0, "lat": 38.90024183333333}, {"rental_uris": {"android": "https://dc.lft.to/lastmile_qr_scan", "ios": "https://dc.lft.to/lastmile_qr_scan"}, "is_reserved": 0, "is_disabled": 0, "name": "a027ba126571b91f6ea6385279fd7696", "bike_id": "a027ba126571b91f6ea6385279fd7696", "fusion_lat": 0.0, "lon": -77.02984266666667, "type": "electric_scooter", "fusion_lon": 0.0, "lat": 38.896249166666664}, {"rental_uris": {"android": "https://dc.lft.to/lastmile_qr_scan", "ios": "https://dc.lft.to/lastmile_qr_scan"}, "is_reserved": 0, "is_disabled": 0, "name": "559fd702a4be00f33d897959d862329e", "bike_id": "559fd702a4be00f33d897959d862329e", "fusion_lat": 0.0, "lon": -77.02666933333333, "type": "electric_scooter", "fusion_lon": 0.0, "lat": 38.899493166666666}, {"rental_uris": {"android": "https://dc.lft.to/lastmile_qr_scan", "ios": "https://dc.lft.to/lastmile_qr_scan"}, "is_reserved": 0, "is_disabled": 0, "name": "0e69ce8ce4719e79c9f0bc6005920da7", "bike_id": "0e69ce8ce4719e79c9f0bc6005920da7", "fusion_lat": 0.0, "lon": -77.0240455, "type": "electric_scooter", "fusion_lon": 0.0, "lat": 38.90173333333333}, {"rental_uris": {"android": "https://dc.lft.to/lastmile_qr_scan", "ios": "https://dc.lft.to/lastmile_qr_scan"}, "is_reserved": 0, "is_disabled": 0, "name": "f43dc33661b1864f85bec8324450fb44", "bike_id": "f43dc33661b1864f85bec8324450fb44", "fusion_lat": 0.0, "lon": -77.01185566666666, "type": "electric_scooter", "fusion_lon": 0.0, "lat": 38.900139}, {"rental_uris": {"android": "https://dc.lft.to/lastmile_qr_scan", "ios": "https://dc.lft.to/lastmile_qr_scan"}, "is_reserved": 0, "is_disabled": 0, "name": "762ee0fb0e74ae96e2f252fd999d1d7d", "bike_id": "762ee0fb0e74ae96e2f252fd999d1d7d", "fusion_lat": 0.0, "lon": -77.0346225, "type": "electric_scooter", "fusion_lon": 0.0, "lat": 38.90280466666667}, {"rental_uris": {"android": "https://dc.lft.to/lastmile_qr_scan", "ios": "https://dc.lft.to/lastmile_qr_scan"}, "is_reserved": 0, "is_disabled": 0, "name": "45c4781e1a6caece4eb2b976979c2a14", "bike_id": "45c4781e1a6caece4eb2b976979c2a14", "fusion_lat": 0.0, "lon": -77.0331965, "type": "electric_scooter", "fusion_lon": 0.0, "lat": 38.898740333333336}, {"rental_uris": {"android": "https://dc.lft.to/lastmile_qr_scan", "ios": "https://dc.lft.to/lastmile_qr_scan"}, "is_reserved": 0, "is_disabled": 0, "name": "2813e1df11fa2f4d190a367a6aaa1d83", "bike_id": "2813e1df11fa2f4d190a367a6aaa1d83", "fusion_lat": 0.0, "lon": -77.02550433333333, "type": "electric_scooter", "fusion_lon": 0.0, "lat": 38.891947}, {"rental_uris": {"android": "https://dc.lft.to/lastmile_qr_scan", "ios": "https://dc.lft.to/lastmile_qr_scan"}, "is_reserved": 0, "is_disabled": 0, "name": "76c0819ab06e583a400081bf8405916c", "bike_id": "76c0819ab06e583a400081bf8405916c", "fusion_lat": 0.0, "lon": -77.03615833333333, "type": "electric_scooter", "fusion_lon": 0.0, "lat": 38.928510833333334}, {"rental_uris": {"android": "https://dc.lft.to/lastmile_qr_scan", "ios": "https://dc.lft.to/lastmile_qr_scan"}, "is_reserved": 0, "is_disabled": 0, "name": "0526bfef726e5c1ebc0e589870d487f4", "bike_id": "0526bfef726e5c1ebc0e589870d487f4", "fusion_lat": 0.0, "lon": -77.03833, "type": "electric_scooter", "fusion_lon": 0.0, "lat": 38.90403716666667}, {"rental_uris": {"android": "https://dc.lft.to/lastmile_qr_scan", "ios": "https://dc.lft.to/lastmile_qr_scan"}, "is_reserved": 0, "is_disabled": 0, "name": "eb8fce7510405cd3dfc82b27e9bce592", "bike_id": "eb8fce7510405cd3dfc82b27e9bce592", "fusion_lat": 0.0, "lon": -77.074925, "type": "electric_scooter", "fusion_lon": 0.0, "lat": 38.923115333333335}, {"rental_uris": {"android": "https://dc.lft.to/lastmile_qr_scan", "ios": "https://dc.lft.to/lastmile_qr_scan"}, "is_reserved": 0, "is_disabled": 0, "name": "cf1226e74c47d362dc589ff0bfe01cd9", "bike_id": "cf1226e74c47d362dc589ff0bfe01cd9", "fusion_lat": 0.0, "lon": -77.01222933333334, "type": "electric_scooter", "fusion_lon": 0.0, "lat": 38.915461}, {"rental_uris": {"android": "https://dc.lft.to/lastmile_qr_scan", "ios": "https://dc.lft.to/lastmile_qr_scan"}, "is_reserved": 0, "is_disabled": 0, "name": "2336fb8862612206d30d2c048b6c9ed0", "bike_id": "2336fb8862612206d30d2c048b6c9ed0", "fusion_lat": 0.0, "lon": -77.01980483333334, "type": "electric_scooter", "fusion_lon": 0.0, "lat": 38.90558816666667}, {"rental_uris": {"android": "https://dc.lft.to/lastmile_qr_scan", "ios": "https://dc.lft.to/lastmile_qr_scan"}, "is_reserved": 0, "is_disabled": 0, "name": "9ec817a616cbbcff2f415f2fce404de8", "bike_id": "9ec817a616cbbcff2f415f2fce404de8", "fusion_lat": 0.0, "lon": -77.0395095, "type": "electric_scooter", "fusion_lon": 0.0, "lat": 38.9083635}, {"rental_uris": {"android": "https://dc.lft.to/lastmile_qr_scan", "ios": "https://dc.lft.to/lastmile_qr_scan"}, "is_reserved": 0, "is_disabled": 0, "name": "78a873ebda4ed3ee4cd5da351372dca5", "bike_id": "78a873ebda4ed3ee4cd5da351372dca5", "fusion_lat": 0.0, "lon": -77.0329755, "type": "electric_scooter", "fusion_lon": 0.0, "lat": 38.89911766666667}, {"rental_uris": {"android": "https://dc.lft.to/lastmile_qr_scan", "ios": "https://dc.lft.to/lastmile_qr_scan"}, "is_reserved": 0, "is_disabled": 0, "name": "3ffc6304dd6bce1a6f2f81b1fb496a9d", "bike_id": "3ffc6304dd6bce1a6f2f81b1fb496a9d", "fusion_lat": 0.0, "lon": -77.02883683333333, "type": "electric_scooter", "fusion_lon": 0.0, "lat": 38.91646383333333}, {"rental_uris": {"android": "https://dc.lft.to/lastmile_qr_scan", "ios": "https://dc.lft.to/lastmile_qr_scan"}, "is_reserved": 0, "is_disabled": 0, "name": "955ff81165d4769a6ef71be26ca393a1", "bike_id": "955ff81165d4769a6ef71be26ca393a1", "fusion_lat": 0.0, "lon": -77.0172065, "type": "electric_scooter", "fusion_lon": 0.0, "lat": 38.97493516666667}, {"rental_uris": {"android": "https://dc.lft.to/lastmile_qr_scan", "ios": "https://dc.lft.to/lastmile_qr_scan"}, "is_reserved": 0, "is_disabled": 0, "name": "394b34f9d53ab7df7be0815f5d6b4c2b", "bike_id": "394b34f9d53ab7df7be0815f5d6b4c2b", "fusion_lat": 0.0, "lon": -76.96542566666666, "type": "electric_scooter", "fusion_lon": 0.0, "lat": 38.91853866666666}, {"rental_uris": {"android": "https://dc.lft.to/lastmile_qr_scan", "ios": "https://dc.lft.to/lastmile_qr_scan"}, "is_reserved": 0, "is_disabled": 0, "name": "3bef05a7ce19e1f6cad78a08353246f8", "bike_id": "3bef05a7ce19e1f6cad78a08353246f8", "fusion_lat": 0.0, "lon": -77.03663233333333, "type": "electric_scooter", "fusion_lon": 0.0, "lat": 38.9221265}, {"rental_uris": {"android": "https://dc.lft.to/lastmile_qr_scan", "ios": "https://dc.lft.to/lastmile_qr_scan"}, "is_reserved": 0, "is_disabled": 0, "name": "50f0780bacc88f3f3251a6f7ec8ccb1e", "bike_id": "50f0780bacc88f3f3251a6f7ec8ccb1e", "fusion_lat": 0.0, "lon": -77.01950666666667, "type": "electric_scooter", "fusion_lon": 0.0, "lat": 38.898302}, {"rental_uris": {"android": "https://dc.lft.to/lastmile_qr_scan", "ios": "https://dc.lft.to/lastmile_qr_scan"}, "is_reserved": 0, "is_disabled": 0, "name": "02eb4b0ac98c3c6c36353610fe826c2b", "bike_id": "02eb4b0ac98c3c6c36353610fe826c2b", "fusion_lat": 0.0, "lon": -77.01732166666666, "type": "electric_scooter", "fusion_lon": 0.0, "lat": 38.885929}, {"rental_uris": {"android": "https://dc.lft.to/lastmile_qr_scan", "ios": "https://dc.lft.to/lastmile_qr_scan"}, "is_reserved": 0, "is_disabled": 0, "name": "72d451361038acc4cf0247a7f64d643a", "bike_id": "72d451361038acc4cf0247a7f64d643a", "fusion_lat": 0.0, "lon": -77.05135816666666, "type": "electric_scooter", "fusion_lon": 0.0, "lat": 38.9236565}, {"rental_uris": {"android": "https://dc.lft.to/lastmile_qr_scan", "ios": "https://dc.lft.to/lastmile_qr_scan"}, "is_reserved": 0, "is_disabled": 0, "name": "cb9581f74360ca5011da0cb8316ef51a", "bike_id": "cb9581f74360ca5011da0cb8316ef51a", "fusion_lat": 0.0, "lon": -77.05354083333333, "type": "electric_scooter", "fusion_lon": 0.0, "lat": 38.90381683333333}, {"rental_uris": {"android": "https://dc.lft.to/lastmile_qr_scan", "ios": "https://dc.lft.to/lastmile_qr_scan"}, "is_reserved": 0, "is_disabled": 0, "name": "9646616f7f097f4fceb1fffc6a481bb8", "bike_id": "9646616f7f097f4fceb1fffc6a481bb8", "fusion_lat": 0.0, "lon": -77.03292933333333, "type": "electric_scooter", "fusion_lon": 0.0, "lat": 38.95616833333333}, {"rental_uris": {"android": "https://dc.lft.to/lastmile_qr_scan", "ios": "https://dc.lft.to/lastmile_qr_scan"}, "is_reserved": 0, "is_disabled": 0, "name": "ae122a97efc735352062bc354e2bdde5", "bike_id": "ae122a97efc735352062bc354e2bdde5", "fusion_lat": 0.0, "lon": -77.013367, "type": "electric_scooter", "fusion_lon": 0.0, "lat": 38.926382333333336}, {"rental_uris": {"android": "https://dc.lft.to/lastmile_qr_scan", "ios": "https://dc.lft.to/lastmile_qr_scan"}, "is_reserved": 0, "is_disabled": 0, "name": "7cc114ce52ec722c7cf14234ea0e53ca", "bike_id": "7cc114ce52ec722c7cf14234ea0e53ca", "fusion_lat": 0.0, "lon": -77.02109433333334, "type": "electric_scooter", "fusion_lon": 0.0, "lat": 38.91790966666667}, {"rental_uris": {"android": "https://dc.lft.to/lastmile_qr_scan", "ios": "https://dc.lft.to/lastmile_qr_scan"}, "is_reserved": 0, "is_disabled": 0, "name": "a06f26200540f942b21b52129787121a", "bike_id": "a06f26200540f942b21b52129787121a", "fusion_lat": 0.0, "lon": -77.01951783333334, "type": "electric_scooter", "fusion_lon": 0.0, "lat": 38.923297833333336}, {"rental_uris": {"android": "https://dc.lft.to/lastmile_qr_scan", "ios": "https://dc.lft.to/lastmile_qr_scan"}, "is_reserved": 0, "is_disabled": 0, "name": "fd59d55201ab42f8a0f8d41f9331d87f", "bike_id": "fd59d55201ab42f8a0f8d41f9331d87f", "fusion_lat": 0.0, "lon": -77.022628, "type": "electric_scooter", "fusion_lon": 0.0, "lat": 38.92417583333334}, {"rental_uris": {"android": "https://dc.lft.to/lastmile_qr_scan", "ios": "https://dc.lft.to/lastmile_qr_scan"}, "is_reserved": 0, "is_disabled": 0, "name": "1eedf4e36459329d465453f595fb30f1", "bike_id": "1eedf4e36459329d465453f595fb30f1", "fusion_lat": 0.0, "lon": -77.0346045, "type": "electric_scooter", "fusion_lon": 0.0, "lat": 38.9039045}, {"rental_uris": {"android": "https://dc.lft.to/lastmile_qr_scan", "ios": "https://dc.lft.to/lastmile_qr_scan"}, "is_reserved": 0, "is_disabled": 0, "name": "a14049a2129840f325af4d1b368053bb", "bike_id": "a14049a2129840f325af4d1b368053bb", "fusion_lat": 0.0, "lon": -77.03460316666667, "type": "electric_scooter", "fusion_lon": 0.0, "lat": 38.9157765}, {"rental_uris": {"android": "https://dc.lft.to/lastmile_qr_scan", "ios": "https://dc.lft.to/lastmile_qr_scan"}, "is_reserved": 0, "is_disabled": 0, "name": "a50dd0f0cbd6a7e862d83f8c976a616a", "bike_id": "a50dd0f0cbd6a7e862d83f8c976a616a", "fusion_lat": 0.0, "lon": -77.00055816666666, "type": "electric_scooter", "fusion_lon": 0.0, "lat": 38.87879383333333}, {"rental_uris": {"android": "https://dc.lft.to/lastmile_qr_scan", "ios": "https://dc.lft.to/lastmile_qr_scan"}, "is_reserved": 0, "is_disabled": 0, "name": "7a991dfd629b2973e40304a7a647dd17", "bike_id": "7a991dfd629b2973e40304a7a647dd17", "fusion_lat": 0.0, "lon": -77.041336, "type": "electric_scooter", "fusion_lon": 0.0, "lat": 38.90277433333333}, {"rental_uris": {"android": "https://dc.lft.to/lastmile_qr_scan", "ios": "https://dc.lft.to/lastmile_qr_scan"}, "is_reserved": 0, "is_disabled": 0, "name": "a8d7548a4aea8e3d7b6f582271b2b0ff", "bike_id": "a8d7548a4aea8e3d7b6f582271b2b0ff", "fusion_lat": 0.0, "lon": -77.01984466666667, "type": "electric_scooter", "fusion_lon": 0.0, "lat": 38.88581283333333}, {"rental_uris": {"android": "https://dc.lft.to/lastmile_qr_scan", "ios": "https://dc.lft.to/lastmile_qr_scan"}, "is_reserved": 0, "is_disabled": 0, "name": "45442343a34d99d810ac69d4f6270f3f", "bike_id": "45442343a34d99d810ac69d4f6270f3f", "fusion_lat": 0.0, "lon": -77.03210883333334, "type": "electric_scooter", "fusion_lon": 0.0, "lat": 38.89230633333333}, {"rental_uris": {"android": "https://dc.lft.to/lastmile_qr_scan", "ios": "https://dc.lft.to/lastmile_qr_scan"}, "is_reserved": 0, "is_disabled": 0, "name": "c5bdbb625e55e96c204cbc05daa2b6b0", "bike_id": "c5bdbb625e55e96c204cbc05daa2b6b0", "fusion_lat": 0.0, "lon": -77.01187333333333, "type": "electric_scooter", "fusion_lon": 0.0, "lat": 38.900309}, {"rental_uris": {"android": "https://dc.lft.to/lastmile_qr_scan", "ios": "https://dc.lft.to/lastmile_qr_scan"}, "is_reserved": 0, "is_disabled": 0, "name": "1615099f58f57b7bb2c984d2f7d75d59", "bike_id": "1615099f58f57b7bb2c984d2f7d75d59", "fusion_lat": 0.0, "lon": -76.944645, "type": "electric_scooter", "fusion_lon": 0.0, "lat": 38.890252833333335}, {"rental_uris": {"android": "https://dc.lft.to/lastmile_qr_scan", "ios": "https://dc.lft.to/lastmile_qr_scan"}, "is_reserved": 0, "is_disabled": 0, "name": "8669a2acb3a0c5b802ccb78f25179bf4", "bike_id": "8669a2acb3a0c5b802ccb78f25179bf4", "fusion_lat": 0.0, "lon": -77.0279705, "type": "electric_scooter", "fusion_lon": 0.0, "lat": 38.93078966666667}, {"rental_uris": {"android": "https://dc.lft.to/lastmile_qr_scan", "ios": "https://dc.lft.to/lastmile_qr_scan"}, "is_reserved": 0, "is_disabled": 0, "name": "86b278890b854881023e850e4a08c458", "bike_id": "86b278890b854881023e850e4a08c458", "fusion_lat": 0.0, "lon": -77.00156483333333, "type": "electric_scooter", "fusion_lon": 0.0, "lat": 38.8213025}, {"rental_uris": {"android": "https://dc.lft.to/lastmile_qr_scan", "ios": "https://dc.lft.to/lastmile_qr_scan"}, "is_reserved": 0, "is_disabled": 0, "name": "d7499d55f9caf0567c5b67fb7c3d5226", "bike_id": "d7499d55f9caf0567c5b67fb7c3d5226", "fusion_lat": 0.0, "lon": -77.05006916666666, "type": "electric_scooter", "fusion_lon": 0.0, "lat": 38.89231933333333}, {"rental_uris": {"android": "https://dc.lft.to/lastmile_qr_scan", "ios": "https://dc.lft.to/lastmile_qr_scan"}, "is_reserved": 0, "is_disabled": 0, "name": "890174637bf4e9144838c2fd266d9f93", "bike_id": "890174637bf4e9144838c2fd266d9f93", "fusion_lat": 0.0, "lon": -77.00297483333334, "type": "electric_scooter", "fusion_lon": 0.0, "lat": 38.89191666666667}, {"rental_uris": {"android": "https://dc.lft.to/lastmile_qr_scan", "ios": "https://dc.lft.to/lastmile_qr_scan"}, "is_reserved": 0, "is_disabled": 0, "name": "c07b035c9b26c2ac94d82b6bf13ff893", "bike_id": "c07b035c9b26c2ac94d82b6bf13ff893", "fusion_lat": 0.0, "lon": -77.00333533333334, "type": "electric_scooter", "fusion_lon": 0.0, "lat": 38.893649833333335}, {"rental_uris": {"android": "https://dc.lft.to/lastmile_qr_scan", "ios": "https://dc.lft.to/lastmile_qr_scan"}, "is_reserved": 0, "is_disabled": 0, "name": "bf31219126855fab47ffd54bf3229c47", "bike_id": "bf31219126855fab47ffd54bf3229c47", "fusion_lat": 0.0, "lon": -77.03057816666667, "type": "electric_scooter", "fusion_lon": 0.0, "lat": 38.898323166666664}, {"rental_uris": {"android": "https://dc.lft.to/lastmile_qr_scan", "ios": "https://dc.lft.to/lastmile_qr_scan"}, "is_reserved": 0, "is_disabled": 0, "name": "7d7c9157f329cd5234dd71bc9347e0ef", "bike_id": "7d7c9157f329cd5234dd71bc9347e0ef", "fusion_lat": 0.0, "lon": -77.00293366666666, "type": "electric_scooter", "fusion_lon": 0.0, "lat": 38.90379766666667}, {"rental_uris": {"android": "https://dc.lft.to/lastmile_qr_scan", "ios": "https://dc.lft.to/lastmile_qr_scan"}, "is_reserved": 0, "is_disabled": 0, "name": "fcab045086ebc61cf2a2dc35b78738bc", "bike_id": "fcab045086ebc61cf2a2dc35b78738bc", "fusion_lat": 0.0, "lon": -77.06429583333333, "type": "electric_scooter", "fusion_lon": 0.0, "lat": 38.93562}, {"rental_uris": {"android": "https://dc.lft.to/lastmile_qr_scan", "ios": "https://dc.lft.to/lastmile_qr_scan"}, "is_reserved": 0, "is_disabled": 0, "name": "fc2a5856606bc8dbced8f54b3a919182", "bike_id": "fc2a5856606bc8dbced8f54b3a919182", "fusion_lat": 0.0, "lon": -76.95158216666667, "type": "electric_bike", "fusion_lon": 0.0, "lat": 39.084373}, {"rental_uris": {"android": "https://dc.lft.to/lastmile_qr_scan", "ios": "https://dc.lft.to/lastmile_qr_scan"}, "is_reserved": 0, "is_disabled": 0, "name": "3bae71b36a0638cb6ea90927a23b49b9", "bike_id": "3bae71b36a0638cb6ea90927a23b49b9", "fusion_lat": 0.0, "lon": -77.027103, "type": "electric_scooter", "fusion_lon": 0.0, "lat": 38.896527666666664}, {"rental_uris": {"android": "https://dc.lft.to/lastmile_qr_scan", "ios": "https://dc.lft.to/lastmile_qr_scan"}, "is_reserved": 0, "is_disabled": 0, "name": "29dc688c83484274616d2dc97b120eb1", "bike_id": "29dc688c83484274616d2dc97b120eb1", "fusion_lat": 0.0, "lon": -77.0367305, "type": "electric_scooter", "fusion_lon": 0.0, "lat": 38.90290233333333}, {"rental_uris": {"android": "https://dc.lft.to/lastmile_qr_scan", "ios": "https://dc.lft.to/lastmile_qr_scan"}, "is_reserved": 0, "is_disabled": 0, "name": "eef5fc8e83246129216c5d7debc87b27", "bike_id": "eef5fc8e83246129216c5d7debc87b27", "fusion_lat": 0.0, "lon": -76.93603033333333, "type": "electric_scooter", "fusion_lon": 0.0, "lat": 38.90949716666667}, {"rental_uris": {"android": "https://dc.lft.to/lastmile_qr_scan", "ios": "https://dc.lft.to/lastmile_qr_scan"}, "is_reserved": 0, "is_disabled": 0, "name": "4e4cec78cd96b7bea9a6471d17656220", "bike_id": "4e4cec78cd96b7bea9a6471d17656220", "fusion_lat": 0.0, "lon": -77.02374566666667, "type": "electric_scooter", "fusion_lon": 0.0, "lat": 38.892207166666665}, {"rental_uris": {"android": "https://dc.lft.to/lastmile_qr_scan", "ios": "https://dc.lft.to/lastmile_qr_scan"}, "is_reserved": 0, "is_disabled": 0, "name": "0f702230f021dafc4dd89629b8273c96", "bike_id": "0f702230f021dafc4dd89629b8273c96", "fusion_lat": 0.0, "lon": -77.0326945, "type": "electric_scooter", "fusion_lon": 0.0, "lat": 38.898463166666666}, {"rental_uris": {"android": "https://dc.lft.to/lastmile_qr_scan", "ios": "https://dc.lft.to/lastmile_qr_scan"}, "is_reserved": 0, "is_disabled": 0, "name": "1f3d30ba27557d5c99b59dd39b0a65e7", "bike_id": "1f3d30ba27557d5c99b59dd39b0a65e7", "fusion_lat": 0.0, "lon": -77.00596566666667, "type": "electric_scooter", "fusion_lon": 0.0, "lat": 38.90567016666667}, {"rental_uris": {"android": "https://dc.lft.to/lastmile_qr_scan", "ios": "https://dc.lft.to/lastmile_qr_scan"}, "is_reserved": 0, "is_disabled": 0, "name": "e6c49fc32b77c5c7384676bdb066ae0e", "bike_id": "e6c49fc32b77c5c7384676bdb066ae0e", "fusion_lat": 0.0, "lon": -77.02737733333333, "type": "electric_scooter", "fusion_lon": 0.0, "lat": 38.952001}, {"rental_uris": {"android": "https://dc.lft.to/lastmile_qr_scan", "ios": "https://dc.lft.to/lastmile_qr_scan"}, "is_reserved": 0, "is_disabled": 0, "name": "d3e92b7d2f53dd99e351c3956df18617", "bike_id": "d3e92b7d2f53dd99e351c3956df18617", "fusion_lat": 0.0, "lon": -77.0463215, "type": "electric_scooter", "fusion_lon": 0.0, "lat": 38.90966}, {"rental_uris": {"android": "https://dc.lft.to/lastmile_qr_scan", "ios": "https://dc.lft.to/lastmile_qr_scan"}, "is_reserved": 0, "is_disabled": 0, "name": "815a8869723ef8023cf507c273daaf5e", "bike_id": "815a8869723ef8023cf507c273daaf5e", "fusion_lat": 0.0, "lon": -77.02033916666667, "type": "electric_scooter", "fusion_lon": 0.0, "lat": 38.922113333333336}, {"rental_uris": {"android": "https://dc.lft.to/lastmile_qr_scan", "ios": "https://dc.lft.to/lastmile_qr_scan"}, "is_reserved": 0, "is_disabled": 0, "name": "0486e4eac2ca49edb359923ca7395a09", "bike_id": "0486e4eac2ca49edb359923ca7395a09", "fusion_lat": 0.0, "lon": -77.042468, "type": "electric_scooter", "fusion_lon": 0.0, "lat": 38.922104}, {"rental_uris": {"android": "https://dc.lft.to/lastmile_qr_scan", "ios": "https://dc.lft.to/lastmile_qr_scan"}, "is_reserved": 0, "is_disabled": 0, "name": "a296f2b1a7782809c772928ad0a5a257", "bike_id": "a296f2b1a7782809c772928ad0a5a257", "fusion_lat": 0.0, "lon": -77.0446395, "type": "electric_scooter", "fusion_lon": 0.0, "lat": 38.90971016666667}, {"rental_uris": {"android": "https://dc.lft.to/lastmile_qr_scan", "ios": "https://dc.lft.to/lastmile_qr_scan"}, "is_reserved": 0, "is_disabled": 0, "name": "f537376f3f07689563d04a8165792c29", "bike_id": "f537376f3f07689563d04a8165792c29", "fusion_lat": 0.0, "lon": -77.02131433333334, "type": "electric_scooter", "fusion_lon": 0.0, "lat": 38.92412566666667}, {"rental_uris": {"android": "https://dc.lft.to/lastmile_qr_scan", "ios": "https://dc.lft.to/lastmile_qr_scan"}, "is_reserved": 0, "is_disabled": 0, "name": "955fef309639d6dec58e1b14da84ea7a", "bike_id": "955fef309639d6dec58e1b14da84ea7a", "fusion_lat": 0.0, "lon": -77.024763, "type": "electric_scooter", "fusion_lon": 0.0, "lat": 38.918158}, {"rental_uris": {"android": "https://dc.lft.to/lastmile_qr_scan", "ios": "https://dc.lft.to/lastmile_qr_scan"}, "is_reserved": 0, "is_disabled": 0, "name": "e1342cea8a3c026e21a026e0e76a6cec", "bike_id": "e1342cea8a3c026e21a026e0e76a6cec", "fusion_lat": 0.0, "lon": -77.043523, "type": "electric_scooter", "fusion_lon": 0.0, "lat": 38.910910333333334}, {"rental_uris": {"android": "https://dc.lft.to/lastmile_qr_scan", "ios": "https://dc.lft.to/lastmile_qr_scan"}, "is_reserved": 0, "is_disabled": 0, "name": "e82f286290534c417aca5411fd118fc5", "bike_id": "e82f286290534c417aca5411fd118fc5", "fusion_lat": 0.0, "lon": -77.01889733333333, "type": "electric_scooter", "fusion_lon": 0.0, "lat": 38.89749416666667}, {"rental_uris": {"android": "https://dc.lft.to/lastmile_qr_scan", "ios": "https://dc.lft.to/lastmile_qr_scan"}, "is_reserved": 0, "is_disabled": 0, "name": "f41614f96e1e2281b71a90c4842e14b8", "bike_id": "f41614f96e1e2281b71a90c4842e14b8", "fusion_lat": 0.0, "lon": -77.03980783333333, "type": "electric_scooter", "fusion_lon": 0.0, "lat": 38.90116916666667}, {"rental_uris": {"android": "https://dc.lft.to/lastmile_qr_scan", "ios": "https://dc.lft.to/lastmile_qr_scan"}, "is_reserved": 0, "is_disabled": 0, "name": "042619f5660dab91382515be12f30bd8", "bike_id": "042619f5660dab91382515be12f30bd8", "fusion_lat": 0.0, "lon": -77.043903, "type": "electric_scooter", "fusion_lon": 0.0, "lat": 38.9014455}, {"rental_uris": {"android": "https://dc.lft.to/lastmile_qr_scan", "ios": "https://dc.lft.to/lastmile_qr_scan"}, "is_reserved": 0, "is_disabled": 0, "name": "221041a059ade8e2676dbb4c2888364a", "bike_id": "221041a059ade8e2676dbb4c2888364a", "fusion_lat": 0.0, "lon": -77.07209383333333, "type": "electric_scooter", "fusion_lon": 0.0, "lat": 38.9076145}, {"rental_uris": {"android": "https://dc.lft.to/lastmile_qr_scan", "ios": "https://dc.lft.to/lastmile_qr_scan"}, "is_reserved": 0, "is_disabled": 0, "name": "1f6540f8f23e283029a67954b1e985fe", "bike_id": "1f6540f8f23e283029a67954b1e985fe", "fusion_lat": 0.0, "lon": -77.020463, "type": "electric_scooter", "fusion_lon": 0.0, "lat": 38.92175916666667}, {"rental_uris": {"android": "https://dc.lft.to/lastmile_qr_scan", "ios": "https://dc.lft.to/lastmile_qr_scan"}, "is_reserved": 0, "is_disabled": 0, "name": "f76feba6b0bf8fb4540d2615df734559", "bike_id": "f76feba6b0bf8fb4540d2615df734559", "fusion_lat": 0.0, "lon": -77.0215415, "type": "electric_scooter", "fusion_lon": 0.0, "lat": 38.887425666666665}, {"rental_uris": {"android": "https://dc.lft.to/lastmile_qr_scan", "ios": "https://dc.lft.to/lastmile_qr_scan"}, "is_reserved": 0, "is_disabled": 0, "name": "1a0dcb50eccdf3536daf67225611d51b", "bike_id": "1a0dcb50eccdf3536daf67225611d51b", "fusion_lat": 0.0, "lon": -77.04351616666666, "type": "electric_scooter", "fusion_lon": 0.0, "lat": 38.90403966666667}, {"rental_uris": {"android": "https://dc.lft.to/lastmile_qr_scan", "ios": "https://dc.lft.to/lastmile_qr_scan"}, "is_reserved": 0, "is_disabled": 0, "name": "990967b3ba4b29959c94ea7310c8d50e", "bike_id": "990967b3ba4b29959c94ea7310c8d50e", "fusion_lat": 0.0, "lon": -77.02697666666667, "type": "electric_scooter", "fusion_lon": 0.0, "lat": 38.949782}, {"rental_uris": {"android": "https://dc.lft.to/lastmile_qr_scan", "ios": "https://dc.lft.to/lastmile_qr_scan"}, "is_reserved": 0, "is_disabled": 0, "name": "41d766c411ade5cac3a6e309a13dbbde", "bike_id": "41d766c411ade5cac3a6e309a13dbbde", "fusion_lat": 0.0, "lon": -77.0319325, "type": "electric_scooter", "fusion_lon": 0.0, "lat": 38.898324333333335}, {"rental_uris": {"android": "https://dc.lft.to/lastmile_qr_scan", "ios": "https://dc.lft.to/lastmile_qr_scan"}, "is_reserved": 0, "is_disabled": 0, "name": "e4039103a585394ca72adf4125d8e8eb", "bike_id": "e4039103a585394ca72adf4125d8e8eb", "fusion_lat": 0.0, "lon": -77.03305483333334, "type": "electric_scooter", "fusion_lon": 0.0, "lat": 38.92889316666667}, {"rental_uris": {"android": "https://dc.lft.to/lastmile_qr_scan", "ios": "https://dc.lft.to/lastmile_qr_scan"}, "is_reserved": 0, "is_disabled": 0, "name": "1bd4ce380385823be9adc1e3c7b307ad", "bike_id": "1bd4ce380385823be9adc1e3c7b307ad", "fusion_lat": 0.0, "lon": -77.04520633333334, "type": "electric_scooter", "fusion_lon": 0.0, "lat": 38.900132666666664}, {"rental_uris": {"android": "https://dc.lft.to/lastmile_qr_scan", "ios": "https://dc.lft.to/lastmile_qr_scan"}, "is_reserved": 0, "is_disabled": 0, "name": "8dcdc8238a76d7d7382ad2df6550d6b9", "bike_id": "8dcdc8238a76d7d7382ad2df6550d6b9", "fusion_lat": 0.0, "lon": -77.04182166666666, "type": "electric_scooter", "fusion_lon": 0.0, "lat": 38.90527483333334}, {"rental_uris": {"android": "https://dc.lft.to/lastmile_qr_scan", "ios": "https://dc.lft.to/lastmile_qr_scan"}, "is_reserved": 0, "is_disabled": 0, "name": "8ee1b224f97a05815b80959fa89c19db", "bike_id": "8ee1b224f97a05815b80959fa89c19db", "fusion_lat": 0.0, "lon": -77.04747066666667, "type": "electric_scooter", "fusion_lon": 0.0, "lat": 38.90031466666667}, {"rental_uris": {"android": "https://dc.lft.to/lastmile_qr_scan", "ios": "https://dc.lft.to/lastmile_qr_scan"}, "is_reserved": 0, "is_disabled": 0, "name": "dae509f63da2ac3f8329db4114923984", "bike_id": "dae509f63da2ac3f8329db4114923984", "fusion_lat": 0.0, "lon": -77.02109566666667, "type": "electric_scooter", "fusion_lon": 0.0, "lat": 38.90603}, {"rental_uris": {"android": "https://dc.lft.to/lastmile_qr_scan", "ios": "https://dc.lft.to/lastmile_qr_scan"}, "is_reserved": 0, "is_disabled": 0, "name": "c57e8d7b14324947b5f365bf5003f139", "bike_id": "c57e8d7b14324947b5f365bf5003f139", "fusion_lat": 0.0, "lon": -77.02777833333333, "type": "electric_scooter", "fusion_lon": 0.0, "lat": 38.96222866666667}, {"rental_uris": {"android": "https://dc.lft.to/lastmile_qr_scan", "ios": "https://dc.lft.to/lastmile_qr_scan"}, "is_reserved": 0, "is_disabled": 0, "name": "684e5c9951312f3c7acfced892f37b11", "bike_id": "684e5c9951312f3c7acfced892f37b11", "fusion_lat": 0.0, "lon": -77.02771066666666, "type": "electric_scooter", "fusion_lon": 0.0, "lat": 38.9341485}, {"rental_uris": {"android": "https://dc.lft.to/lastmile_qr_scan", "ios": "https://dc.lft.to/lastmile_qr_scan"}, "is_reserved": 0, "is_disabled": 0, "name": "333180849c18db2069c3dfd099b09706", "bike_id": "333180849c18db2069c3dfd099b09706", "fusion_lat": 0.0, "lon": -76.99542833333334, "type": "electric_bike", "fusion_lon": 0.0, "lat": 38.956322}, {"rental_uris": {"android": "https://dc.lft.to/lastmile_qr_scan", "ios": "https://dc.lft.to/lastmile_qr_scan"}, "is_reserved": 0, "is_disabled": 0, "name": "d453cf080c82727345527ccfa3bb4a5e", "bike_id": "d453cf080c82727345527ccfa3bb4a5e", "fusion_lat": 0.0, "lon": -77.021342, "type": "electric_scooter", "fusion_lon": 0.0, "lat": 38.922743}, {"rental_uris": {"android": "https://dc.lft.to/lastmile_qr_scan", "ios": "https://dc.lft.to/lastmile_qr_scan"}, "is_reserved": 0, "is_disabled": 0, "name": "53d9473c3b769602b5af22e0901bf49b", "bike_id": "53d9473c3b769602b5af22e0901bf49b", "fusion_lat": 0.0, "lon": -77.0060505, "type": "electric_scooter", "fusion_lon": 0.0, "lat": 38.871847}, {"rental_uris": {"android": "https://dc.lft.to/lastmile_qr_scan", "ios": "https://dc.lft.to/lastmile_qr_scan"}, "is_reserved": 0, "is_disabled": 0, "name": "84344787e41d6f1a6dadddf1efb5c61a", "bike_id": "84344787e41d6f1a6dadddf1efb5c61a", "fusion_lat": 0.0, "lon": -77.03041933333333, "type": "electric_scooter", "fusion_lon": 0.0, "lat": 38.9508115}, {"rental_uris": {"android": "https://dc.lft.to/lastmile_qr_scan", "ios": "https://dc.lft.to/lastmile_qr_scan"}, "is_reserved": 0, "is_disabled": 0, "name": "4885657bca156109c98e8b30a5d2e579", "bike_id": "4885657bca156109c98e8b30a5d2e579", "fusion_lat": 0.0, "lon": -77.0067865, "type": "electric_scooter", "fusion_lon": 0.0, "lat": 38.9000725}, {"rental_uris": {"android": "https://dc.lft.to/lastmile_qr_scan", "ios": "https://dc.lft.to/lastmile_qr_scan"}, "is_reserved": 0, "is_disabled": 0, "name": "5bca5ea2b177bcc52f309b41238af293", "bike_id": "5bca5ea2b177bcc52f309b41238af293", "fusion_lat": 0.0, "lon": -76.967126, "type": "electric_scooter", "fusion_lon": 0.0, "lat": 38.85972183333333}, {"rental_uris": {"android": "https://dc.lft.to/lastmile_qr_scan", "ios": "https://dc.lft.to/lastmile_qr_scan"}, "is_reserved": 0, "is_disabled": 0, "name": "e8d5e482a7242672522235cd6000d415", "bike_id": "e8d5e482a7242672522235cd6000d415", "fusion_lat": 0.0, "lon": -77.0414915, "type": "electric_scooter", "fusion_lon": 0.0, "lat": 38.909074}, {"rental_uris": {"android": "https://dc.lft.to/lastmile_qr_scan", "ios": "https://dc.lft.to/lastmile_qr_scan"}, "is_reserved": 0, "is_disabled": 0, "name": "1f22324024df9365356283a0e7cc1e39", "bike_id": "1f22324024df9365356283a0e7cc1e39", "fusion_lat": 0.0, "lon": -77.04231316666667, "type": "electric_scooter", "fusion_lon": 0.0, "lat": 38.93413133333333}, {"rental_uris": {"android": "https://dc.lft.to/lastmile_qr_scan", "ios": "https://dc.lft.to/lastmile_qr_scan"}, "is_reserved": 0, "is_disabled": 0, "name": "ff8fd1147d068d7ae68799528053d568", "bike_id": "ff8fd1147d068d7ae68799528053d568", "fusion_lat": 0.0, "lon": -77.0402495, "type": "electric_scooter", "fusion_lon": 0.0, "lat": 38.898438666666664}, {"rental_uris": {"android": "https://dc.lft.to/lastmile_qr_scan", "ios": "https://dc.lft.to/lastmile_qr_scan"}, "is_reserved": 0, "is_disabled": 0, "name": "31bee9f9f5d29683236fb82b09eddd8c", "bike_id": "31bee9f9f5d29683236fb82b09eddd8c", "fusion_lat": 0.0, "lon": -77.02172683333333, "type": "electric_scooter", "fusion_lon": 0.0, "lat": 38.887140333333335}, {"rental_uris": {"android": "https://dc.lft.to/lastmile_qr_scan", "ios": "https://dc.lft.to/lastmile_qr_scan"}, "is_reserved": 0, "is_disabled": 0, "name": "1504e06641e82c2c583e41fda76bd5ca", "bike_id": "1504e06641e82c2c583e41fda76bd5ca", "fusion_lat": 0.0, "lon": -77.0035675, "type": "electric_scooter", "fusion_lon": 0.0, "lat": 38.87683466666667}, {"rental_uris": {"android": "https://dc.lft.to/lastmile_qr_scan", "ios": "https://dc.lft.to/lastmile_qr_scan"}, "is_reserved": 0, "is_disabled": 0, "name": "44bc4347b4268de0c20f453dae66825d", "bike_id": "44bc4347b4268de0c20f453dae66825d", "fusion_lat": 0.0, "lon": -77.02574066666666, "type": "electric_scooter", "fusion_lon": 0.0, "lat": 38.91255233333333}, {"rental_uris": {"android": "https://dc.lft.to/lastmile_qr_scan", "ios": "https://dc.lft.to/lastmile_qr_scan"}, "is_reserved": 0, "is_disabled": 0, "name": "5b8aef39e6813c3ee84df7e4474ea3f3", "bike_id": "5b8aef39e6813c3ee84df7e4474ea3f3", "fusion_lat": 0.0, "lon": -77.0186475, "type": "electric_scooter", "fusion_lon": 0.0, "lat": 38.973698}, {"rental_uris": {"android": "https://dc.lft.to/lastmile_qr_scan", "ios": "https://dc.lft.to/lastmile_qr_scan"}, "is_reserved": 0, "is_disabled": 0, "name": "9211fb1401f92df3c2aa6b5d02d38bb3", "bike_id": "9211fb1401f92df3c2aa6b5d02d38bb3", "fusion_lat": 0.0, "lon": -77.03211533333334, "type": "electric_scooter", "fusion_lon": 0.0, "lat": 38.90894083333333}, {"rental_uris": {"android": "https://dc.lft.to/lastmile_qr_scan", "ios": "https://dc.lft.to/lastmile_qr_scan"}, "is_reserved": 0, "is_disabled": 0, "name": "28f9fc4fc1a5eb5fe526a53e546905c2", "bike_id": "28f9fc4fc1a5eb5fe526a53e546905c2", "fusion_lat": 0.0, "lon": -76.96541066666667, "type": "electric_scooter", "fusion_lon": 0.0, "lat": 38.91858883333333}, {"rental_uris": {"android": "https://dc.lft.to/lastmile_qr_scan", "ios": "https://dc.lft.to/lastmile_qr_scan"}, "is_reserved": 0, "is_disabled": 0, "name": "46de4b59c47e61faa406a428a151afa2", "bike_id": "46de4b59c47e61faa406a428a151afa2", "fusion_lat": 0.0, "lon": -77.03231966666667, "type": "electric_scooter", "fusion_lon": 0.0, "lat": 38.93009416666666}, {"rental_uris": {"android": "https://dc.lft.to/lastmile_qr_scan", "ios": "https://dc.lft.to/lastmile_qr_scan"}, "is_reserved": 0, "is_disabled": 0, "name": "a7d7dd08f2c79ad9e5c599905c117b9b", "bike_id": "a7d7dd08f2c79ad9e5c599905c117b9b", "fusion_lat": 0.0, "lon": -77.0396405, "type": "electric_scooter", "fusion_lon": 0.0, "lat": 38.90142766666666}, {"rental_uris": {"android": "https://dc.lft.to/lastmile_qr_scan", "ios": "https://dc.lft.to/lastmile_qr_scan"}, "is_reserved": 0, "is_disabled": 0, "name": "9094cca45aa4f0024cced232e4f79685", "bike_id": "9094cca45aa4f0024cced232e4f79685", "fusion_lat": 0.0, "lon": -77.03222733333334, "type": "electric_scooter", "fusion_lon": 0.0, "lat": 38.909775833333335}, {"rental_uris": {"android": "https://dc.lft.to/lastmile_qr_scan", "ios": "https://dc.lft.to/lastmile_qr_scan"}, "is_reserved": 0, "is_disabled": 0, "name": "6ba6d773bcbae2f3f5437b1a8595d742", "bike_id": "6ba6d773bcbae2f3f5437b1a8595d742", "fusion_lat": 0.0, "lon": -76.91722233333333, "type": "electric_bike", "fusion_lon": 0.0, "lat": 38.88028533333333}, {"rental_uris": {"android": "https://dc.lft.to/lastmile_qr_scan", "ios": "https://dc.lft.to/lastmile_qr_scan"}, "is_reserved": 0, "is_disabled": 0, "name": "c3b86940ea4b85ff7844d0e117342894", "bike_id": "c3b86940ea4b85ff7844d0e117342894", "fusion_lat": 0.0, "lon": -77.0233695, "type": "electric_scooter", "fusion_lon": 0.0, "lat": 38.92232083333333}, {"rental_uris": {"android": "https://dc.lft.to/lastmile_qr_scan", "ios": "https://dc.lft.to/lastmile_qr_scan"}, "is_reserved": 0, "is_disabled": 0, "name": "8d6978303084d80603566baff0027db4", "bike_id": "8d6978303084d80603566baff0027db4", "fusion_lat": 0.0, "lon": -77.0507375, "type": "electric_scooter", "fusion_lon": 0.0, "lat": 38.900903}, {"rental_uris": {"android": "https://dc.lft.to/lastmile_qr_scan", "ios": "https://dc.lft.to/lastmile_qr_scan"}, "is_reserved": 0, "is_disabled": 0, "name": "96f1c954048cbc749a766dced96f10a9", "bike_id": "96f1c954048cbc749a766dced96f10a9", "fusion_lat": 0.0, "lon": -77.03340283333333, "type": "electric_bike", "fusion_lon": 0.0, "lat": 38.899058333333336}, {"rental_uris": {"android": "https://dc.lft.to/lastmile_qr_scan", "ios": "https://dc.lft.to/lastmile_qr_scan"}, "is_reserved": 0, "is_disabled": 0, "name": "df88bb2ea7f54bde32611148db021de8", "bike_id": "df88bb2ea7f54bde32611148db021de8", "fusion_lat": 0.0, "lon": -77.0329615, "type": "electric_scooter", "fusion_lon": 0.0, "lat": 38.956171}, {"rental_uris": {"android": "https://dc.lft.to/lastmile_qr_scan", "ios": "https://dc.lft.to/lastmile_qr_scan"}, "is_reserved": 0, "is_disabled": 0, "name": "e023a300a9b7f70addf02f4cddd6de76", "bike_id": "e023a300a9b7f70addf02f4cddd6de76", "fusion_lat": 0.0, "lon": -77.03209216666667, "type": "electric_scooter", "fusion_lon": 0.0, "lat": 38.89228166666667}, {"rental_uris": {"android": "https://dc.lft.to/lastmile_qr_scan", "ios": "https://dc.lft.to/lastmile_qr_scan"}, "is_reserved": 0, "is_disabled": 0, "name": "c9d892d0cdb4f182d7800acb144fee9a", "bike_id": "c9d892d0cdb4f182d7800acb144fee9a", "fusion_lat": 0.0, "lon": -77.04988066666667, "type": "electric_scooter", "fusion_lon": 0.0, "lat": 38.8983945}, {"rental_uris": {"android": "https://dc.lft.to/lastmile_qr_scan", "ios": "https://dc.lft.to/lastmile_qr_scan"}, "is_reserved": 0, "is_disabled": 0, "name": "4edf8c48c915a5b17fefd53699874238", "bike_id": "4edf8c48c915a5b17fefd53699874238", "fusion_lat": 0.0, "lon": -77.04686316666667, "type": "electric_scooter", "fusion_lon": 0.0, "lat": 38.89611766666667}, {"rental_uris": {"android": "https://dc.lft.to/lastmile_qr_scan", "ios": "https://dc.lft.to/lastmile_qr_scan"}, "is_reserved": 0, "is_disabled": 0, "name": "a3c13aa70a4dc2ba0825cfd2b69c8617", "bike_id": "a3c13aa70a4dc2ba0825cfd2b69c8617", "fusion_lat": 0.0, "lon": -77.0296385, "type": "electric_scooter", "fusion_lon": 0.0, "lat": 38.925875833333336}, {"rental_uris": {"android": "https://dc.lft.to/lastmile_qr_scan", "ios": "https://dc.lft.to/lastmile_qr_scan"}, "is_reserved": 0, "is_disabled": 0, "name": "1d1c692e8fbccab20cbdff006996f662", "bike_id": "1d1c692e8fbccab20cbdff006996f662", "fusion_lat": 0.0, "lon": -77.00592633333333, "type": "electric_scooter", "fusion_lon": 0.0, "lat": 38.876572}, {"rental_uris": {"android": "https://dc.lft.to/lastmile_qr_scan", "ios": "https://dc.lft.to/lastmile_qr_scan"}, "is_reserved": 0, "is_disabled": 0, "name": "3804c0938f3fae3d996c965370b4c503", "bike_id": "3804c0938f3fae3d996c965370b4c503", "fusion_lat": 0.0, "lon": -77.02252933333334, "type": "electric_bike", "fusion_lon": 0.0, "lat": 38.9667845}, {"rental_uris": {"android": "https://dc.lft.to/lastmile_qr_scan", "ios": "https://dc.lft.to/lastmile_qr_scan"}, "is_reserved": 0, "is_disabled": 0, "name": "1180437e1b340b2ae812d2ffbbb697c5", "bike_id": "1180437e1b340b2ae812d2ffbbb697c5", "fusion_lat": 0.0, "lon": -76.986848, "type": "electric_bike", "fusion_lon": 0.0, "lat": 38.9447325}, {"rental_uris": {"android": "https://dc.lft.to/lastmile_qr_scan", "ios": "https://dc.lft.to/lastmile_qr_scan"}, "is_reserved": 0, "is_disabled": 0, "name": "f38a3e70f2c48636041411e6f8d653dc", "bike_id": "f38a3e70f2c48636041411e6f8d653dc", "fusion_lat": 0.0, "lon": -77.04286716666667, "type": "electric_bike", "fusion_lon": 0.0, "lat": 38.900414166666664}, {"rental_uris": {"android": "https://dc.lft.to/lastmile_qr_scan", "ios": "https://dc.lft.to/lastmile_qr_scan"}, "is_reserved": 0, "is_disabled": 0, "name": "faa3353b33f5470496b66b787a2b9223", "bike_id": "faa3353b33f5470496b66b787a2b9223", "fusion_lat": 0.0, "lon": -77.038686, "type": "electric_scooter", "fusion_lon": 0.0, "lat": 38.90322716666667}, {"rental_uris": {"android": "https://dc.lft.to/lastmile_qr_scan", "ios": "https://dc.lft.to/lastmile_qr_scan"}, "is_reserved": 0, "is_disabled": 0, "name": "9a56d8b678f8423b779f479617156a3f", "bike_id": "9a56d8b678f8423b779f479617156a3f", "fusion_lat": 0.0, "lon": -76.96261116666666, "type": "electric_bike", "fusion_lon": 0.0, "lat": 38.967851333333336}, {"rental_uris": {"android": "https://dc.lft.to/lastmile_qr_scan", "ios": "https://dc.lft.to/lastmile_qr_scan"}, "is_reserved": 0, "is_disabled": 0, "name": "9a2e2431432ec9524047d46fb79ddbde", "bike_id": "9a2e2431432ec9524047d46fb79ddbde", "fusion_lat": 0.0, "lon": -76.960892, "type": "electric_bike", "fusion_lon": 0.0, "lat": 38.918576333333334}, {"rental_uris": {"android": "https://dc.lft.to/lastmile_qr_scan", "ios": "https://dc.lft.to/lastmile_qr_scan"}, "is_reserved": 0, "is_disabled": 0, "name": "5abf435b7075c41a0efc0fd8dce1138e", "bike_id": "5abf435b7075c41a0efc0fd8dce1138e", "fusion_lat": 0.0, "lon": -76.9881545, "type": "electric_bike", "fusion_lon": 0.0, "lat": 38.842688}, {"rental_uris": {"android": "https://dc.lft.to/lastmile_qr_scan", "ios": "https://dc.lft.to/lastmile_qr_scan"}, "is_reserved": 0, "is_disabled": 0, "name": "a699cace47b172b9f5aa41d8fe44fe75", "bike_id": "a699cace47b172b9f5aa41d8fe44fe75", "fusion_lat": 0.0, "lon": -77.02643083333334, "type": "electric_scooter", "fusion_lon": 0.0, "lat": 38.951837833333336}, {"rental_uris": {"android": "https://dc.lft.to/lastmile_qr_scan", "ios": "https://dc.lft.to/lastmile_qr_scan"}, "is_reserved": 0, "is_disabled": 0, "name": "b56f88dcb04206d3e0b0c30423f2fdb1", "bike_id": "b56f88dcb04206d3e0b0c30423f2fdb1", "fusion_lat": 0.0, "lon": -77.086203, "type": "electric_bike", "fusion_lon": 0.0, "lat": 38.931295}, {"rental_uris": {"android": "https://dc.lft.to/lastmile_qr_scan", "ios": "https://dc.lft.to/lastmile_qr_scan"}, "is_reserved": 0, "is_disabled": 0, "name": "d94c6c7d69b9376b89410e758b2158b5", "bike_id": "d94c6c7d69b9376b89410e758b2158b5", "fusion_lat": 0.0, "lon": -77.10213816666666, "type": "electric_bike", "fusion_lon": 0.0, "lat": 38.91995633333333}, {"rental_uris": {"android": "https://dc.lft.to/lastmile_qr_scan", "ios": "https://dc.lft.to/lastmile_qr_scan"}, "is_reserved": 0, "is_disabled": 0, "name": "7f0628bd8762d4f653ca6c0fbe74d0aa", "bike_id": "7f0628bd8762d4f653ca6c0fbe74d0aa", "fusion_lat": 0.0, "lon": -77.030865, "type": "electric_scooter", "fusion_lon": 0.0, "lat": 38.916374}, {"rental_uris": {"android": "https://dc.lft.to/lastmile_qr_scan", "ios": "https://dc.lft.to/lastmile_qr_scan"}, "is_reserved": 0, "is_disabled": 0, "name": "76ba9217aff4dcb7017c13f7d3a2792a", "bike_id": "76ba9217aff4dcb7017c13f7d3a2792a", "fusion_lat": 0.0, "lon": -77.0070995, "type": "electric_scooter", "fusion_lon": 0.0, "lat": 38.900374166666666}, {"rental_uris": {"android": "https://dc.lft.to/lastmile_qr_scan", "ios": "https://dc.lft.to/lastmile_qr_scan"}, "is_reserved": 0, "is_disabled": 0, "name": "6e94a163dab6dff02f611d8585576d1d", "bike_id": "6e94a163dab6dff02f611d8585576d1d", "fusion_lat": 0.0, "lon": -77.03068066666667, "type": "electric_scooter", "fusion_lon": 0.0, "lat": 38.922426333333334}, {"rental_uris": {"android": "https://dc.lft.to/lastmile_qr_scan", "ios": "https://dc.lft.to/lastmile_qr_scan"}, "is_reserved": 0, "is_disabled": 0, "name": "96e961d2a8aa263f2d0031e5d0da0db6", "bike_id": "96e961d2a8aa263f2d0031e5d0da0db6", "fusion_lat": 0.0, "lon": -77.06259566666667, "type": "electric_bike", "fusion_lon": 0.0, "lat": 38.80634283333333}, {"rental_uris": {"android": "https://dc.lft.to/lastmile_qr_scan", "ios": "https://dc.lft.to/lastmile_qr_scan"}, "is_reserved": 0, "is_disabled": 0, "name": "748314463be2804291d51c3297e5ec41", "bike_id": "748314463be2804291d51c3297e5ec41", "fusion_lat": 0.0, "lon": -77.024061, "type": "electric_scooter", "fusion_lon": 0.0, "lat": 38.91100183333333}, {"rental_uris": {"android": "https://dc.lft.to/lastmile_qr_scan", "ios": "https://dc.lft.to/lastmile_qr_scan"}, "is_reserved": 0, "is_disabled": 0, "name": "6d295474a8e5efc07ef98f9971e48674", "bike_id": "6d295474a8e5efc07ef98f9971e48674", "fusion_lat": 0.0, "lon": -76.9774945, "type": "electric_bike", "fusion_lon": 0.0, "lat": 38.86490333333333}, {"rental_uris": {"android": "https://dc.lft.to/lastmile_qr_scan", "ios": "https://dc.lft.to/lastmile_qr_scan"}, "is_reserved": 0, "is_disabled": 0, "name": "d98f6ba292e54cf82714b06e5e2b52e2", "bike_id": "d98f6ba292e54cf82714b06e5e2b52e2", "fusion_lat": 0.0, "lon": -77.02708816666667, "type": "electric_scooter", "fusion_lon": 0.0, "lat": 38.900753}, {"rental_uris": {"android": "https://dc.lft.to/lastmile_qr_scan", "ios": "https://dc.lft.to/lastmile_qr_scan"}, "is_reserved": 0, "is_disabled": 0, "name": "a939ad305ea94d6c59e0da32f31a3bf3", "bike_id": "a939ad305ea94d6c59e0da32f31a3bf3", "fusion_lat": 0.0, "lon": -77.02200666666667, "type": "electric_scooter", "fusion_lon": 0.0, "lat": 38.900067166666666}, {"rental_uris": {"android": "https://dc.lft.to/lastmile_qr_scan", "ios": "https://dc.lft.to/lastmile_qr_scan"}, "is_reserved": 0, "is_disabled": 0, "name": "922fb7070c4707a58358140d8ca57aa7", "bike_id": "922fb7070c4707a58358140d8ca57aa7", "fusion_lat": 0.0, "lon": -77.02826966666667, "type": "electric_scooter", "fusion_lon": 0.0, "lat": 38.902652333333336}, {"rental_uris": {"android": "https://dc.lft.to/lastmile_qr_scan", "ios": "https://dc.lft.to/lastmile_qr_scan"}, "is_reserved": 0, "is_disabled": 0, "name": "89b097b5af14c8faa0dbaf00cf1b0211", "bike_id": "89b097b5af14c8faa0dbaf00cf1b0211", "fusion_lat": 0.0, "lon": -77.02302383333334, "type": "electric_scooter", "fusion_lon": 0.0, "lat": 38.901870333333335}, {"rental_uris": {"android": "https://dc.lft.to/lastmile_qr_scan", "ios": "https://dc.lft.to/lastmile_qr_scan"}, "is_reserved": 0, "is_disabled": 0, "name": "899dd7d673620dc6e3b4c09baba4902d", "bike_id": "899dd7d673620dc6e3b4c09baba4902d", "fusion_lat": 0.0, "lon": -77.01951433333333, "type": "electric_scooter", "fusion_lon": 0.0, "lat": 38.92328033333333}, {"rental_uris": {"android": "https://dc.lft.to/lastmile_qr_scan", "ios": "https://dc.lft.to/lastmile_qr_scan"}, "is_reserved": 0, "is_disabled": 0, "name": "d0c60a50731d0e1ccf4720466ec7b135", "bike_id": "d0c60a50731d0e1ccf4720466ec7b135", "fusion_lat": 0.0, "lon": -77.07569966666667, "type": "electric_scooter", "fusion_lon": 0.0, "lat": 38.907491666666665}, {"rental_uris": {"android": "https://dc.lft.to/lastmile_qr_scan", "ios": "https://dc.lft.to/lastmile_qr_scan"}, "is_reserved": 0, "is_disabled": 0, "name": "8bdc96a81a009c69cfa70da0ecf51c86", "bike_id": "8bdc96a81a009c69cfa70da0ecf51c86", "fusion_lat": 0.0, "lon": -77.007988, "type": "electric_scooter", "fusion_lon": 0.0, "lat": 38.926647}, {"rental_uris": {"android": "https://dc.lft.to/lastmile_qr_scan", "ios": "https://dc.lft.to/lastmile_qr_scan"}, "is_reserved": 0, "is_disabled": 0, "name": "33798aef50350aa5b13c8ae42e85b154", "bike_id": "33798aef50350aa5b13c8ae42e85b154", "fusion_lat": 0.0, "lon": -77.020639, "type": "electric_scooter", "fusion_lon": 0.0, "lat": 38.923646166666664}, {"rental_uris": {"android": "https://dc.lft.to/lastmile_qr_scan", "ios": "https://dc.lft.to/lastmile_qr_scan"}, "is_reserved": 0, "is_disabled": 0, "name": "4e74bd7f867d62c3d5c0e9f1377a9e33", "bike_id": "4e74bd7f867d62c3d5c0e9f1377a9e33", "fusion_lat": 0.0, "lon": -77.03220683333333, "type": "electric_scooter", "fusion_lon": 0.0, "lat": 38.8967035}, {"rental_uris": {"android": "https://dc.lft.to/lastmile_qr_scan", "ios": "https://dc.lft.to/lastmile_qr_scan"}, "is_reserved": 0, "is_disabled": 0, "name": "53e7afd2e297d2b3b763811b415d0470", "bike_id": "53e7afd2e297d2b3b763811b415d0470", "fusion_lat": 0.0, "lon": -77.07244983333334, "type": "electric_scooter", "fusion_lon": 0.0, "lat": 38.934530333333335}, {"rental_uris": {"android": "https://dc.lft.to/lastmile_qr_scan", "ios": "https://dc.lft.to/lastmile_qr_scan"}, "is_reserved": 0, "is_disabled": 0, "name": "2e04e9e1c8533eacb7e76de8221442cf", "bike_id": "2e04e9e1c8533eacb7e76de8221442cf", "fusion_lat": 0.0, "lon": -77.02180533333333, "type": "electric_scooter", "fusion_lon": 0.0, "lat": 38.892275166666664}, {"rental_uris": {"android": "https://dc.lft.to/lastmile_qr_scan", "ios": "https://dc.lft.to/lastmile_qr_scan"}, "is_reserved": 0, "is_disabled": 0, "name": "8ba06e3eee3f4f1c2cec777b573209e3", "bike_id": "8ba06e3eee3f4f1c2cec777b573209e3", "fusion_lat": 0.0, "lon": -77.0145415, "type": "electric_scooter", "fusion_lon": 0.0, "lat": 38.95814816666667}, {"rental_uris": {"android": "https://dc.lft.to/lastmile_qr_scan", "ios": "https://dc.lft.to/lastmile_qr_scan"}, "is_reserved": 0, "is_disabled": 0, "name": "2585861bc71e3ed9c2ca8b097aaaae19", "bike_id": "2585861bc71e3ed9c2ca8b097aaaae19", "fusion_lat": 0.0, "lon": -77.03361183333334, "type": "electric_scooter", "fusion_lon": 0.0, "lat": 38.93586833333333}, {"rental_uris": {"android": "https://dc.lft.to/lastmile_qr_scan", "ios": "https://dc.lft.to/lastmile_qr_scan"}, "is_reserved": 0, "is_disabled": 0, "name": "4bc91a45060cac66fb8ddc3e44c3f5d1", "bike_id": "4bc91a45060cac66fb8ddc3e44c3f5d1", "fusion_lat": 0.0, "lon": -77.02980383333333, "type": "electric_scooter", "fusion_lon": 0.0, "lat": 38.89575966666666}, {"rental_uris": {"android": "https://dc.lft.to/lastmile_qr_scan", "ios": "https://dc.lft.to/lastmile_qr_scan"}, "is_reserved": 0, "is_disabled": 0, "name": "f24b0a9c1b9a16a8d325281d84918183", "bike_id": "f24b0a9c1b9a16a8d325281d84918183", "fusion_lat": 0.0, "lon": -77.0626305, "type": "electric_bike", "fusion_lon": 0.0, "lat": 38.9440565}, {"rental_uris": {"android": "https://dc.lft.to/lastmile_qr_scan", "ios": "https://dc.lft.to/lastmile_qr_scan"}, "is_reserved": 0, "is_disabled": 0, "name": "699b1018e363e0c4e5226ec5ba7861e3", "bike_id": "699b1018e363e0c4e5226ec5ba7861e3", "fusion_lat": 0.0, "lon": -77.07909233333334, "type": "electric_bike", "fusion_lon": 0.0, "lat": 38.8382635}, {"rental_uris": {"android": "https://dc.lft.to/lastmile_qr_scan", "ios": "https://dc.lft.to/lastmile_qr_scan"}, "is_reserved": 0, "is_disabled": 0, "name": "fe176c998610f53e57fe2c70b645584f", "bike_id": "fe176c998610f53e57fe2c70b645584f", "fusion_lat": 0.0, "lon": -77.041974, "type": "electric_scooter", "fusion_lon": 0.0, "lat": 38.920504666666666}, {"rental_uris": {"android": "https://dc.lft.to/lastmile_qr_scan", "ios": "https://dc.lft.to/lastmile_qr_scan"}, "is_reserved": 0, "is_disabled": 0, "name": "cae7142891af24cf66d66106b395d123", "bike_id": "cae7142891af24cf66d66106b395d123", "fusion_lat": 0.0, "lon": -77.0415535, "type": "electric_scooter", "fusion_lon": 0.0, "lat": 38.91642433333333}, {"rental_uris": {"android": "https://dc.lft.to/lastmile_qr_scan", "ios": "https://dc.lft.to/lastmile_qr_scan"}, "is_reserved": 0, "is_disabled": 0, "name": "8680271dda7591ff2c38ea02c08bd43a", "bike_id": "8680271dda7591ff2c38ea02c08bd43a", "fusion_lat": 0.0, "lon": -77.03646333333333, "type": "electric_scooter", "fusion_lon": 0.0, "lat": 38.92338766666667}, {"rental_uris": {"android": "https://dc.lft.to/lastmile_qr_scan", "ios": "https://dc.lft.to/lastmile_qr_scan"}, "is_reserved": 0, "is_disabled": 0, "name": "f815a455c0ad0c26ec1c5a206325938a", "bike_id": "f815a455c0ad0c26ec1c5a206325938a", "fusion_lat": 0.0, "lon": -77.02096883333333, "type": "electric_scooter", "fusion_lon": 0.0, "lat": 38.921609333333336}, {"rental_uris": {"android": "https://dc.lft.to/lastmile_qr_scan", "ios": "https://dc.lft.to/lastmile_qr_scan"}, "is_reserved": 0, "is_disabled": 0, "name": "e7121c429ad7ab465299614288924b41", "bike_id": "e7121c429ad7ab465299614288924b41", "fusion_lat": 0.0, "lon": -77.23178633333333, "type": "electric_bike", "fusion_lon": 0.0, "lat": 38.92893183333333}, {"rental_uris": {"android": "https://dc.lft.to/lastmile_qr_scan", "ios": "https://dc.lft.to/lastmile_qr_scan"}, "is_reserved": 0, "is_disabled": 0, "name": "c21654bac13addbacf41b829907c441c", "bike_id": "c21654bac13addbacf41b829907c441c", "fusion_lat": 0.0, "lon": -77.00649866666667, "type": "electric_scooter", "fusion_lon": 0.0, "lat": 38.909775}, {"rental_uris": {"android": "https://dc.lft.to/lastmile_qr_scan", "ios": "https://dc.lft.to/lastmile_qr_scan"}, "is_reserved": 0, "is_disabled": 0, "name": "7c0e9d8240c93c10beb2a6aabff894e6", "bike_id": "7c0e9d8240c93c10beb2a6aabff894e6", "fusion_lat": 0.0, "lon": -77.032115, "type": "electric_scooter", "fusion_lon": 0.0, "lat": 38.925808833333335}, {"rental_uris": {"android": "https://dc.lft.to/lastmile_qr_scan", "ios": "https://dc.lft.to/lastmile_qr_scan"}, "is_reserved": 0, "is_disabled": 0, "name": "e9a8be023fcea791f5f8fc82323aa589", "bike_id": "e9a8be023fcea791f5f8fc82323aa589", "fusion_lat": 0.0, "lon": -77.0007535, "type": "electric_scooter", "fusion_lon": 0.0, "lat": 38.87666766666667}, {"rental_uris": {"android": "https://dc.lft.to/lastmile_qr_scan", "ios": "https://dc.lft.to/lastmile_qr_scan"}, "is_reserved": 0, "is_disabled": 0, "name": "aceab59a920529aa6fcdbea8ccb09842", "bike_id": "aceab59a920529aa6fcdbea8ccb09842", "fusion_lat": 0.0, "lon": -77.0386025, "type": "electric_scooter", "fusion_lon": 0.0, "lat": 38.921617}, {"rental_uris": {"android": "https://dc.lft.to/lastmile_qr_scan", "ios": "https://dc.lft.to/lastmile_qr_scan"}, "is_reserved": 0, "is_disabled": 0, "name": "b37f0bb84fa2651db08bfd6f919eebb6", "bike_id": "b37f0bb84fa2651db08bfd6f919eebb6", "fusion_lat": 0.0, "lon": -77.04510966666666, "type": "electric_scooter", "fusion_lon": 0.0, "lat": 38.90785866666667}, {"rental_uris": {"android": "https://dc.lft.to/lastmile_qr_scan", "ios": "https://dc.lft.to/lastmile_qr_scan"}, "is_reserved": 0, "is_disabled": 0, "name": "ba693177df09354c9f3875c41cfef8fc", "bike_id": "ba693177df09354c9f3875c41cfef8fc", "fusion_lat": 0.0, "lon": -76.93363133333334, "type": "electric_scooter", "fusion_lon": 0.0, "lat": 38.89829866666667}, {"rental_uris": {"android": "https://dc.lft.to/lastmile_qr_scan", "ios": "https://dc.lft.to/lastmile_qr_scan"}, "is_reserved": 0, "is_disabled": 0, "name": "bf22a77562d08514e26c09542543103c", "bike_id": "bf22a77562d08514e26c09542543103c", "fusion_lat": 0.0, "lon": -77.01953216666666, "type": "electric_scooter", "fusion_lon": 0.0, "lat": 38.923326833333334}, {"rental_uris": {"android": "https://dc.lft.to/lastmile_qr_scan", "ios": "https://dc.lft.to/lastmile_qr_scan"}, "is_reserved": 0, "is_disabled": 0, "name": "9dbc12451085d03019edc08eaf04cd0f", "bike_id": "9dbc12451085d03019edc08eaf04cd0f", "fusion_lat": 0.0, "lon": -77.02486966666666, "type": "electric_scooter", "fusion_lon": 0.0, "lat": 38.901731833333336}, {"rental_uris": {"android": "https://dc.lft.to/lastmile_qr_scan", "ios": "https://dc.lft.to/lastmile_qr_scan"}, "is_reserved": 0, "is_disabled": 0, "name": "ad3f4b78118d3faf80157ccb3e3324fb", "bike_id": "ad3f4b78118d3faf80157ccb3e3324fb", "fusion_lat": 0.0, "lon": -77.021557, "type": "electric_scooter", "fusion_lon": 0.0, "lat": 38.926049166666665}, {"rental_uris": {"android": "https://dc.lft.to/lastmile_qr_scan", "ios": "https://dc.lft.to/lastmile_qr_scan"}, "is_reserved": 0, "is_disabled": 0, "name": "dd7b3535b97776d8a022d90150bb75db", "bike_id": "dd7b3535b97776d8a022d90150bb75db", "fusion_lat": 0.0, "lon": -77.01586983333333, "type": "electric_scooter", "fusion_lon": 0.0, "lat": 38.92052366666667}, {"rental_uris": {"android": "https://dc.lft.to/lastmile_qr_scan", "ios": "https://dc.lft.to/lastmile_qr_scan"}, "is_reserved": 0, "is_disabled": 0, "name": "0039bed0ec166118c32e477bcfa7a3a7", "bike_id": "0039bed0ec166118c32e477bcfa7a3a7", "fusion_lat": 0.0, "lon": -77.059076, "type": "electric_scooter", "fusion_lon": 0.0, "lat": 38.92899716666667}, {"rental_uris": {"android": "https://dc.lft.to/lastmile_qr_scan", "ios": "https://dc.lft.to/lastmile_qr_scan"}, "is_reserved": 0, "is_disabled": 0, "name": "641c2b207c1801d2a536faf7c1af9a54", "bike_id": "641c2b207c1801d2a536faf7c1af9a54", "fusion_lat": 0.0, "lon": -77.04683283333334, "type": "electric_scooter", "fusion_lon": 0.0, "lat": 38.899612}, {"rental_uris": {"android": "https://dc.lft.to/lastmile_qr_scan", "ios": "https://dc.lft.to/lastmile_qr_scan"}, "is_reserved": 0, "is_disabled": 0, "name": "0e6425398337519042beb58fc0ed8eda", "bike_id": "0e6425398337519042beb58fc0ed8eda", "fusion_lat": 0.0, "lon": -77.019668, "type": "electric_scooter", "fusion_lon": 0.0, "lat": 38.9342205}, {"rental_uris": {"android": "https://dc.lft.to/lastmile_qr_scan", "ios": "https://dc.lft.to/lastmile_qr_scan"}, "is_reserved": 0, "is_disabled": 0, "name": "effa2829c85987060adea40a6e456f74", "bike_id": "effa2829c85987060adea40a6e456f74", "fusion_lat": 0.0, "lon": -76.99915883333334, "type": "electric_bike", "fusion_lon": 0.0, "lat": 38.86446983333333}, {"rental_uris": {"android": "https://dc.lft.to/lastmile_qr_scan", "ios": "https://dc.lft.to/lastmile_qr_scan"}, "is_reserved": 0, "is_disabled": 0, "name": "d456b6316c6d054888bafb29f7c23434", "bike_id": "d456b6316c6d054888bafb29f7c23434", "fusion_lat": 0.0, "lon": -77.01953266666666, "type": "electric_scooter", "fusion_lon": 0.0, "lat": 38.924202666666666}, {"rental_uris": {"android": "https://dc.lft.to/lastmile_qr_scan", "ios": "https://dc.lft.to/lastmile_qr_scan"}, "is_reserved": 0, "is_disabled": 0, "name": "091e32048c0615a29c452b645eb45202", "bike_id": "091e32048c0615a29c452b645eb45202", "fusion_lat": 0.0, "lon": -77.02616266666666, "type": "electric_scooter", "fusion_lon": 0.0, "lat": 38.951834166666664}, {"rental_uris": {"android": "https://dc.lft.to/lastmile_qr_scan", "ios": "https://dc.lft.to/lastmile_qr_scan"}, "is_reserved": 0, "is_disabled": 0, "name": "b1225131a13d20fbfe3961cdb6336321", "bike_id": "b1225131a13d20fbfe3961cdb6336321", "fusion_lat": 0.0, "lon": -77.032769, "type": "electric_scooter", "fusion_lon": 0.0, "lat": 38.9324725}, {"rental_uris": {"android": "https://dc.lft.to/lastmile_qr_scan", "ios": "https://dc.lft.to/lastmile_qr_scan"}, "is_reserved": 0, "is_disabled": 0, "name": "27db380a7b905cfb88abec92d93b433c", "bike_id": "27db380a7b905cfb88abec92d93b433c", "fusion_lat": 0.0, "lon": -76.93020233333333, "type": "electric_scooter", "fusion_lon": 0.0, "lat": 38.901285}, {"rental_uris": {"android": "https://dc.lft.to/lastmile_qr_scan", "ios": "https://dc.lft.to/lastmile_qr_scan"}, "is_reserved": 0, "is_disabled": 0, "name": "6193dd32645a16b800f1307aadae45cf", "bike_id": "6193dd32645a16b800f1307aadae45cf", "fusion_lat": 0.0, "lon": -77.03307633333333, "type": "electric_scooter", "fusion_lon": 0.0, "lat": 38.927443}, {"rental_uris": {"android": "https://dc.lft.to/lastmile_qr_scan", "ios": "https://dc.lft.to/lastmile_qr_scan"}, "is_reserved": 0, "is_disabled": 0, "name": "ea366d29565a0119f86c889eb864de21", "bike_id": "ea366d29565a0119f86c889eb864de21", "fusion_lat": 0.0, "lon": -77.04498983333333, "type": "electric_scooter", "fusion_lon": 0.0, "lat": 38.90018533333333}, {"rental_uris": {"android": "https://dc.lft.to/lastmile_qr_scan", "ios": "https://dc.lft.to/lastmile_qr_scan"}, "is_reserved": 0, "is_disabled": 0, "name": "3ec11bef2529d5058f20b19161f7abd7", "bike_id": "3ec11bef2529d5058f20b19161f7abd7", "fusion_lat": 0.0, "lon": -76.9957335, "type": "electric_scooter", "fusion_lon": 0.0, "lat": 38.90021566666667}, {"rental_uris": {"android": "https://dc.lft.to/lastmile_qr_scan", "ios": "https://dc.lft.to/lastmile_qr_scan"}, "is_reserved": 0, "is_disabled": 0, "name": "b70e97a358557bb9465517da63863750", "bike_id": "b70e97a358557bb9465517da63863750", "fusion_lat": 0.0, "lon": -77.06229733333333, "type": "electric_scooter", "fusion_lon": 0.0, "lat": 38.91158566666667}, {"rental_uris": {"android": "https://dc.lft.to/lastmile_qr_scan", "ios": "https://dc.lft.to/lastmile_qr_scan"}, "is_reserved": 0, "is_disabled": 0, "name": "430a42edd78b2df16ecd7068a5b75c31", "bike_id": "430a42edd78b2df16ecd7068a5b75c31", "fusion_lat": 0.0, "lon": -77.00417083333333, "type": "electric_bike", "fusion_lon": 0.0, "lat": 38.98525583333333}, {"rental_uris": {"android": "https://dc.lft.to/lastmile_qr_scan", "ios": "https://dc.lft.to/lastmile_qr_scan"}, "is_reserved": 0, "is_disabled": 0, "name": "5900e5d759b72460156c8a4aa9fe73b6", "bike_id": "5900e5d759b72460156c8a4aa9fe73b6", "fusion_lat": 0.0, "lon": -77.03636783333333, "type": "electric_scooter", "fusion_lon": 0.0, "lat": 38.9161845}, {"rental_uris": {"android": "https://dc.lft.to/lastmile_qr_scan", "ios": "https://dc.lft.to/lastmile_qr_scan"}, "is_reserved": 0, "is_disabled": 0, "name": "653baf835a3e7eaa1891a0afa3c23fab", "bike_id": "653baf835a3e7eaa1891a0afa3c23fab", "fusion_lat": 0.0, "lon": -77.011726, "type": "electric_scooter", "fusion_lon": 0.0, "lat": 38.8934835}, {"rental_uris": {"android": "https://dc.lft.to/lastmile_qr_scan", "ios": "https://dc.lft.to/lastmile_qr_scan"}, "is_reserved": 0, "is_disabled": 0, "name": "5b04cf9beb171f87ef78d7d0db1923ae", "bike_id": "5b04cf9beb171f87ef78d7d0db1923ae", "fusion_lat": 0.0, "lon": -77.018506, "type": "electric_scooter", "fusion_lon": 0.0, "lat": 38.90953966666667}, {"rental_uris": {"android": "https://dc.lft.to/lastmile_qr_scan", "ios": "https://dc.lft.to/lastmile_qr_scan"}, "is_reserved": 0, "is_disabled": 0, "name": "44e4c028ff67aa9a44b3004560229338", "bike_id": "44e4c028ff67aa9a44b3004560229338", "fusion_lat": 0.0, "lon": -77.02935916666667, "type": "electric_scooter", "fusion_lon": 0.0, "lat": 38.920571333333335}, {"rental_uris": {"android": "https://dc.lft.to/lastmile_qr_scan", "ios": "https://dc.lft.to/lastmile_qr_scan"}, "is_reserved": 0, "is_disabled": 0, "name": "f76a35b3f707ac2d4d66b195b67dcdee", "bike_id": "f76a35b3f707ac2d4d66b195b67dcdee", "fusion_lat": 0.0, "lon": -77.02356916666666, "type": "electric_scooter", "fusion_lon": 0.0, "lat": 38.879211166666664}, {"rental_uris": {"android": "https://dc.lft.to/lastmile_qr_scan", "ios": "https://dc.lft.to/lastmile_qr_scan"}, "is_reserved": 0, "is_disabled": 0, "name": "558c03b7774ef19da46eb24bf69647dd", "bike_id": "558c03b7774ef19da46eb24bf69647dd", "fusion_lat": 0.0, "lon": -76.985731, "type": "electric_scooter", "fusion_lon": 0.0, "lat": 38.9001735}, {"rental_uris": {"android": "https://dc.lft.to/lastmile_qr_scan", "ios": "https://dc.lft.to/lastmile_qr_scan"}, "is_reserved": 0, "is_disabled": 0, "name": "970a95143f4681696af2fddf579f0f20", "bike_id": "970a95143f4681696af2fddf579f0f20", "fusion_lat": 0.0, "lon": -77.0289285, "type": "electric_scooter", "fusion_lon": 0.0, "lat": 38.901339166666666}, {"rental_uris": {"android": "https://dc.lft.to/lastmile_qr_scan", "ios": "https://dc.lft.to/lastmile_qr_scan"}, "is_reserved": 0, "is_disabled": 0, "name": "340eaf6688bf3d567e5c34f1f670408e", "bike_id": "340eaf6688bf3d567e5c34f1f670408e", "fusion_lat": 0.0, "lon": -76.925917, "type": "electric_scooter", "fusion_lon": 0.0, "lat": 38.8973035}, {"rental_uris": {"android": "https://dc.lft.to/lastmile_qr_scan", "ios": "https://dc.lft.to/lastmile_qr_scan"}, "is_reserved": 0, "is_disabled": 0, "name": "4f86b3b1b3ef5bc621aa7e79718f69e0", "bike_id": "4f86b3b1b3ef5bc621aa7e79718f69e0", "fusion_lat": 0.0, "lon": -77.028885, "type": "electric_scooter", "fusion_lon": 0.0, "lat": 38.92675833333333}, {"rental_uris": {"android": "https://dc.lft.to/lastmile_qr_scan", "ios": "https://dc.lft.to/lastmile_qr_scan"}, "is_reserved": 0, "is_disabled": 0, "name": "fd36513a56addf46073bdac0e3692acc", "bike_id": "fd36513a56addf46073bdac0e3692acc", "fusion_lat": 0.0, "lon": -77.04009583333334, "type": "electric_scooter", "fusion_lon": 0.0, "lat": 38.92432816666667}, {"rental_uris": {"android": "https://dc.lft.to/lastmile_qr_scan", "ios": "https://dc.lft.to/lastmile_qr_scan"}, "is_reserved": 0, "is_disabled": 0, "name": "b6db7ccb2ee6ea2a59fd172534f62e56", "bike_id": "b6db7ccb2ee6ea2a59fd172534f62e56", "fusion_lat": 0.0, "lon": -77.024321, "type": "electric_scooter", "fusion_lon": 0.0, "lat": 38.90769816666667}, {"rental_uris": {"android": "https://dc.lft.to/lastmile_qr_scan", "ios": "https://dc.lft.to/lastmile_qr_scan"}, "is_reserved": 0, "is_disabled": 0, "name": "a64a003e8abf192ebb43f267d8d13450", "bike_id": "a64a003e8abf192ebb43f267d8d13450", "fusion_lat": 0.0, "lon": -76.98640933333333, "type": "electric_scooter", "fusion_lon": 0.0, "lat": 38.855068833333334}, {"rental_uris": {"android": "https://dc.lft.to/lastmile_qr_scan", "ios": "https://dc.lft.to/lastmile_qr_scan"}, "is_reserved": 0, "is_disabled": 0, "name": "b798be9409e636b4534f5ac7ab10b6e3", "bike_id": "b798be9409e636b4534f5ac7ab10b6e3", "fusion_lat": 0.0, "lon": -77.00919416666666, "type": "electric_scooter", "fusion_lon": 0.0, "lat": 38.913728166666665}, {"rental_uris": {"android": "https://dc.lft.to/lastmile_qr_scan", "ios": "https://dc.lft.to/lastmile_qr_scan"}, "is_reserved": 0, "is_disabled": 0, "name": "35946926a948f1eee8bf1082da8c6395", "bike_id": "35946926a948f1eee8bf1082da8c6395", "fusion_lat": 0.0, "lon": -77.01567883333334, "type": "electric_scooter", "fusion_lon": 0.0, "lat": 38.9268485}, {"rental_uris": {"android": "https://dc.lft.to/lastmile_qr_scan", "ios": "https://dc.lft.to/lastmile_qr_scan"}, "is_reserved": 0, "is_disabled": 0, "name": "98f252de7d12359b5fe8337dfe33b5ab", "bike_id": "98f252de7d12359b5fe8337dfe33b5ab", "fusion_lat": 0.0, "lon": -76.99693383333333, "type": "electric_scooter", "fusion_lon": 0.0, "lat": 38.8843825}, {"rental_uris": {"android": "https://dc.lft.to/lastmile_qr_scan", "ios": "https://dc.lft.to/lastmile_qr_scan"}, "is_reserved": 0, "is_disabled": 0, "name": "30027d0281e71264124e993493d50e80", "bike_id": "30027d0281e71264124e993493d50e80", "fusion_lat": 0.0, "lon": -77.00200733333334, "type": "electric_scooter", "fusion_lon": 0.0, "lat": 38.8921255}, {"rental_uris": {"android": "https://dc.lft.to/lastmile_qr_scan", "ios": "https://dc.lft.to/lastmile_qr_scan"}, "is_reserved": 0, "is_disabled": 0, "name": "1c3ecd66b7ac66c6d7c343aef3478485", "bike_id": "1c3ecd66b7ac66c6d7c343aef3478485", "fusion_lat": 0.0, "lon": -77.02336383333333, "type": "electric_scooter", "fusion_lon": 0.0, "lat": 38.930497}, {"rental_uris": {"android": "https://dc.lft.to/lastmile_qr_scan", "ios": "https://dc.lft.to/lastmile_qr_scan"}, "is_reserved": 0, "is_disabled": 0, "name": "379014597d1ec9e8a75067449764c526", "bike_id": "379014597d1ec9e8a75067449764c526", "fusion_lat": 0.0, "lon": -77.00337733333333, "type": "electric_scooter", "fusion_lon": 0.0, "lat": 38.89365683333333}, {"rental_uris": {"android": "https://dc.lft.to/lastmile_qr_scan", "ios": "https://dc.lft.to/lastmile_qr_scan"}, "is_reserved": 0, "is_disabled": 0, "name": "5712d7de3da7a0c6c5770ce7a59f09e4", "bike_id": "5712d7de3da7a0c6c5770ce7a59f09e4", "fusion_lat": 0.0, "lon": -77.0421205, "type": "electric_scooter", "fusion_lon": 0.0, "lat": 38.909172166666664}, {"rental_uris": {"android": "https://dc.lft.to/lastmile_qr_scan", "ios": "https://dc.lft.to/lastmile_qr_scan"}, "is_reserved": 0, "is_disabled": 0, "name": "44ab8b112efcb4f3e515476f96bb8502", "bike_id": "44ab8b112efcb4f3e515476f96bb8502", "fusion_lat": 0.0, "lon": -76.99839766666666, "type": "electric_scooter", "fusion_lon": 0.0, "lat": 38.90076466666667}, {"rental_uris": {"android": "https://dc.lft.to/lastmile_qr_scan", "ios": "https://dc.lft.to/lastmile_qr_scan"}, "is_reserved": 0, "is_disabled": 0, "name": "a85de690441e7425938477e921d95cee", "bike_id": "a85de690441e7425938477e921d95cee", "fusion_lat": 0.0, "lon": -77.023732, "type": "electric_scooter", "fusion_lon": 0.0, "lat": 38.9021605}, {"rental_uris": {"android": "https://dc.lft.to/lastmile_qr_scan", "ios": "https://dc.lft.to/lastmile_qr_scan"}, "is_reserved": 0, "is_disabled": 0, "name": "91e8f09c4232a0817746b0393b984840", "bike_id": "91e8f09c4232a0817746b0393b984840", "fusion_lat": 0.0, "lon": -77.06364816666667, "type": "electric_scooter", "fusion_lon": 0.0, "lat": 38.92018233333334}, {"rental_uris": {"android": "https://dc.lft.to/lastmile_qr_scan", "ios": "https://dc.lft.to/lastmile_qr_scan"}, "is_reserved": 0, "is_disabled": 0, "name": "297336458ac7bbfd4ec691cfb9b43d93", "bike_id": "297336458ac7bbfd4ec691cfb9b43d93", "fusion_lat": 0.0, "lon": -77.02347483333334, "type": "electric_scooter", "fusion_lon": 0.0, "lat": 38.941987}, {"rental_uris": {"android": "https://dc.lft.to/lastmile_qr_scan", "ios": "https://dc.lft.to/lastmile_qr_scan"}, "is_reserved": 0, "is_disabled": 0, "name": "4edac83e2e959b0571486268298cf71f", "bike_id": "4edac83e2e959b0571486268298cf71f", "fusion_lat": 0.0, "lon": -77.04627, "type": "electric_scooter", "fusion_lon": 0.0, "lat": 38.915702833333334}, {"rental_uris": {"android": "https://dc.lft.to/lastmile_qr_scan", "ios": "https://dc.lft.to/lastmile_qr_scan"}, "is_reserved": 0, "is_disabled": 0, "name": "e4db7caa8627c8daedc7aef591fa56e0", "bike_id": "e4db7caa8627c8daedc7aef591fa56e0", "fusion_lat": 0.0, "lon": -77.02417166666666, "type": "electric_scooter", "fusion_lon": 0.0, "lat": 38.89222933333333}, {"rental_uris": {"android": "https://dc.lft.to/lastmile_qr_scan", "ios": "https://dc.lft.to/lastmile_qr_scan"}, "is_reserved": 0, "is_disabled": 0, "name": "c30bed666e0ad77a7afca73cd1f3ec1c", "bike_id": "c30bed666e0ad77a7afca73cd1f3ec1c", "fusion_lat": 0.0, "lon": -76.99278816666667, "type": "electric_bike", "fusion_lon": 0.0, "lat": 38.97258933333333}, {"rental_uris": {"android": "https://dc.lft.to/lastmile_qr_scan", "ios": "https://dc.lft.to/lastmile_qr_scan"}, "is_reserved": 0, "is_disabled": 0, "name": "91a5e4a1b9dbee2558a783ada7eb1321", "bike_id": "91a5e4a1b9dbee2558a783ada7eb1321", "fusion_lat": 0.0, "lon": -77.02881683333334, "type": "electric_scooter", "fusion_lon": 0.0, "lat": 38.9135115}, {"rental_uris": {"android": "https://dc.lft.to/lastmile_qr_scan", "ios": "https://dc.lft.to/lastmile_qr_scan"}, "is_reserved": 0, "is_disabled": 0, "name": "b6b82e1a032ccaa750a55292a7211832", "bike_id": "b6b82e1a032ccaa750a55292a7211832", "fusion_lat": 0.0, "lon": -77.03282483333334, "type": "electric_scooter", "fusion_lon": 0.0, "lat": 38.93250366666667}, {"rental_uris": {"android": "https://dc.lft.to/lastmile_qr_scan", "ios": "https://dc.lft.to/lastmile_qr_scan"}, "is_reserved": 0, "is_disabled": 0, "name": "be023ed16938c27d5f867455908fe5d6", "bike_id": "be023ed16938c27d5f867455908fe5d6", "fusion_lat": 0.0, "lon": -76.99700766666666, "type": "electric_bike", "fusion_lon": 0.0, "lat": 38.83863366666667}, {"rental_uris": {"android": "https://dc.lft.to/lastmile_qr_scan", "ios": "https://dc.lft.to/lastmile_qr_scan"}, "is_reserved": 0, "is_disabled": 0, "name": "6c02c8722f9b32a244397ece881d82d4", "bike_id": "6c02c8722f9b32a244397ece881d82d4", "fusion_lat": 0.0, "lon": -77.02591383333333, "type": "electric_scooter", "fusion_lon": 0.0, "lat": 38.90340666666667}, {"rental_uris": {"android": "https://dc.lft.to/lastmile_qr_scan", "ios": "https://dc.lft.to/lastmile_qr_scan"}, "is_reserved": 0, "is_disabled": 0, "name": "e1afb76c30594becc364735fb5d080bc", "bike_id": "e1afb76c30594becc364735fb5d080bc", "fusion_lat": 0.0, "lon": -77.0276235, "type": "electric_scooter", "fusion_lon": 0.0, "lat": 38.9257785}, {"rental_uris": {"android": "https://dc.lft.to/lastmile_qr_scan", "ios": "https://dc.lft.to/lastmile_qr_scan"}, "is_reserved": 0, "is_disabled": 0, "name": "ed11848e009a92d9e0b10b6490fb7c91", "bike_id": "ed11848e009a92d9e0b10b6490fb7c91", "fusion_lat": 0.0, "lon": -77.04163183333333, "type": "electric_scooter", "fusion_lon": 0.0, "lat": 38.9171635}, {"rental_uris": {"android": "https://dc.lft.to/lastmile_qr_scan", "ios": "https://dc.lft.to/lastmile_qr_scan"}, "is_reserved": 0, "is_disabled": 0, "name": "1965c8d5e749639c776f5011f0e3d3cd", "bike_id": "1965c8d5e749639c776f5011f0e3d3cd", "fusion_lat": 0.0, "lon": -77.01411616666667, "type": "electric_scooter", "fusion_lon": 0.0, "lat": 38.928586}, {"rental_uris": {"android": "https://dc.lft.to/lastmile_qr_scan", "ios": "https://dc.lft.to/lastmile_qr_scan"}, "is_reserved": 0, "is_disabled": 0, "name": "95c3d44c2bf49b83c3eb92ed6cae7c2a", "bike_id": "95c3d44c2bf49b83c3eb92ed6cae7c2a", "fusion_lat": 0.0, "lon": -77.01676183333333, "type": "electric_scooter", "fusion_lon": 0.0, "lat": 38.92040633333333}, {"rental_uris": {"android": "https://dc.lft.to/lastmile_qr_scan", "ios": "https://dc.lft.to/lastmile_qr_scan"}, "is_reserved": 0, "is_disabled": 0, "name": "c1c103fdad55a042baf6c6a5c402948b", "bike_id": "c1c103fdad55a042baf6c6a5c402948b", "fusion_lat": 0.0, "lon": -77.0364705, "type": "electric_scooter", "fusion_lon": 0.0, "lat": 38.90290816666667}, {"rental_uris": {"android": "https://dc.lft.to/lastmile_qr_scan", "ios": "https://dc.lft.to/lastmile_qr_scan"}, "is_reserved": 0, "is_disabled": 0, "name": "d8cd50c73a99be60d0a0da69fb46c36b", "bike_id": "d8cd50c73a99be60d0a0da69fb46c36b", "fusion_lat": 0.0, "lon": -77.01333216666667, "type": "electric_scooter", "fusion_lon": 0.0, "lat": 38.9141495}, {"rental_uris": {"android": "https://dc.lft.to/lastmile_qr_scan", "ios": "https://dc.lft.to/lastmile_qr_scan"}, "is_reserved": 0, "is_disabled": 0, "name": "b50579d05096545247e95247cb6ccb8f", "bike_id": "b50579d05096545247e95247cb6ccb8f", "fusion_lat": 0.0, "lon": -77.02030783333333, "type": "electric_bike", "fusion_lon": 0.0, "lat": 38.965555333333334}, {"rental_uris": {"android": "https://dc.lft.to/lastmile_qr_scan", "ios": "https://dc.lft.to/lastmile_qr_scan"}, "is_reserved": 0, "is_disabled": 0, "name": "745b778595f31899a689c908ed400802", "bike_id": "745b778595f31899a689c908ed400802", "fusion_lat": 0.0, "lon": -77.00626766666667, "type": "electric_scooter", "fusion_lon": 0.0, "lat": 38.871964166666665}, {"rental_uris": {"android": "https://dc.lft.to/lastmile_qr_scan", "ios": "https://dc.lft.to/lastmile_qr_scan"}, "is_reserved": 0, "is_disabled": 0, "name": "f5a154f13ec22c111cc9c8089765804c", "bike_id": "f5a154f13ec22c111cc9c8089765804c", "fusion_lat": 0.0, "lon": -77.01335283333333, "type": "electric_scooter", "fusion_lon": 0.0, "lat": 38.898456}, {"rental_uris": {"android": "https://dc.lft.to/lastmile_qr_scan", "ios": "https://dc.lft.to/lastmile_qr_scan"}, "is_reserved": 0, "is_disabled": 0, "name": "f0ff7d35795d9a0afe10c4df26106342", "bike_id": "f0ff7d35795d9a0afe10c4df26106342", "fusion_lat": 0.0, "lon": -76.94874183333333, "type": "electric_scooter", "fusion_lon": 0.0, "lat": 38.8950005}, {"rental_uris": {"android": "https://dc.lft.to/lastmile_qr_scan", "ios": "https://dc.lft.to/lastmile_qr_scan"}, "is_reserved": 0, "is_disabled": 0, "name": "c49871c5fbdc2006edb9b4a32d5a8523", "bike_id": "c49871c5fbdc2006edb9b4a32d5a8523", "fusion_lat": 0.0, "lon": -76.996757, "type": "electric_bike", "fusion_lon": 0.0, "lat": 38.838204}, {"rental_uris": {"android": "https://dc.lft.to/lastmile_qr_scan", "ios": "https://dc.lft.to/lastmile_qr_scan"}, "is_reserved": 0, "is_disabled": 0, "name": "e40dcffc8ffa4da07ef1bf31843e1ec4", "bike_id": "e40dcffc8ffa4da07ef1bf31843e1ec4", "fusion_lat": 0.0, "lon": -77.02798766666666, "type": "electric_scooter", "fusion_lon": 0.0, "lat": 38.93924}, {"rental_uris": {"android": "https://dc.lft.to/lastmile_qr_scan", "ios": "https://dc.lft.to/lastmile_qr_scan"}, "is_reserved": 0, "is_disabled": 0, "name": "c5a4635aec675ea2c0f9ea06c667f070", "bike_id": "c5a4635aec675ea2c0f9ea06c667f070", "fusion_lat": 0.0, "lon": -77.048691, "type": "electric_scooter", "fusion_lon": 0.0, "lat": 38.90001483333333}, {"rental_uris": {"android": "https://dc.lft.to/lastmile_qr_scan", "ios": "https://dc.lft.to/lastmile_qr_scan"}, "is_reserved": 0, "is_disabled": 0, "name": "34926d4ed62aa602a5ef1eee6d595489", "bike_id": "34926d4ed62aa602a5ef1eee6d595489", "fusion_lat": 0.0, "lon": -77.0062515, "type": "electric_scooter", "fusion_lon": 0.0, "lat": 38.87171}, {"rental_uris": {"android": "https://dc.lft.to/lastmile_qr_scan", "ios": "https://dc.lft.to/lastmile_qr_scan"}, "is_reserved": 0, "is_disabled": 0, "name": "62269818378f56d8a9f26f06988b97b2", "bike_id": "62269818378f56d8a9f26f06988b97b2", "fusion_lat": 0.0, "lon": -77.0432625, "type": "electric_scooter", "fusion_lon": 0.0, "lat": 38.8992415}, {"rental_uris": {"android": "https://dc.lft.to/lastmile_qr_scan", "ios": "https://dc.lft.to/lastmile_qr_scan"}, "is_reserved": 0, "is_disabled": 0, "name": "58f095a730404256e3d18ee3da95850d", "bike_id": "58f095a730404256e3d18ee3da95850d", "fusion_lat": 0.0, "lon": -77.04640616666667, "type": "electric_scooter", "fusion_lon": 0.0, "lat": 38.902372666666665}, {"rental_uris": {"android": "https://dc.lft.to/lastmile_qr_scan", "ios": "https://dc.lft.to/lastmile_qr_scan"}, "is_reserved": 0, "is_disabled": 0, "name": "c72ffd8f3edf7dc57e4184dd039a61af", "bike_id": "c72ffd8f3edf7dc57e4184dd039a61af", "fusion_lat": 0.0, "lon": -77.02108633333333, "type": "electric_scooter", "fusion_lon": 0.0, "lat": 38.90558566666667}, {"rental_uris": {"android": "https://dc.lft.to/lastmile_qr_scan", "ios": "https://dc.lft.to/lastmile_qr_scan"}, "is_reserved": 0, "is_disabled": 0, "name": "cebe8e2a96d006cc8e9b47e6df2d58d3", "bike_id": "cebe8e2a96d006cc8e9b47e6df2d58d3", "fusion_lat": 0.0, "lon": -77.04015266666667, "type": "electric_scooter", "fusion_lon": 0.0, "lat": 38.89906933333333}, {"rental_uris": {"android": "https://dc.lft.to/lastmile_qr_scan", "ios": "https://dc.lft.to/lastmile_qr_scan"}, "is_reserved": 0, "is_disabled": 0, "name": "abfba6df66944f6f19b019c59f3fb25d", "bike_id": "abfba6df66944f6f19b019c59f3fb25d", "fusion_lat": 0.0, "lon": -76.99728816666666, "type": "electric_scooter", "fusion_lon": 0.0, "lat": 38.91022733333333}, {"rental_uris": {"android": "https://dc.lft.to/lastmile_qr_scan", "ios": "https://dc.lft.to/lastmile_qr_scan"}, "is_reserved": 0, "is_disabled": 0, "name": "6ddfd354ec0d2f6fdbee3e0b969f9ba7", "bike_id": "6ddfd354ec0d2f6fdbee3e0b969f9ba7", "fusion_lat": 0.0, "lon": -77.04447733333333, "type": "electric_scooter", "fusion_lon": 0.0, "lat": 38.91015766666666}, {"rental_uris": {"android": "https://dc.lft.to/lastmile_qr_scan", "ios": "https://dc.lft.to/lastmile_qr_scan"}, "is_reserved": 0, "is_disabled": 0, "name": "d0e14be6c11e3c4776b56294023c090f", "bike_id": "d0e14be6c11e3c4776b56294023c090f", "fusion_lat": 0.0, "lon": -76.98577966666667, "type": "electric_scooter", "fusion_lon": 0.0, "lat": 38.900346}, {"rental_uris": {"android": "https://dc.lft.to/lastmile_qr_scan", "ios": "https://dc.lft.to/lastmile_qr_scan"}, "is_reserved": 0, "is_disabled": 0, "name": "885af2eb257213f9a72725b160237600", "bike_id": "885af2eb257213f9a72725b160237600", "fusion_lat": 0.0, "lon": -77.05597116666667, "type": "electric_scooter", "fusion_lon": 0.0, "lat": 38.89423716666667}, {"rental_uris": {"android": "https://dc.lft.to/lastmile_qr_scan", "ios": "https://dc.lft.to/lastmile_qr_scan"}, "is_reserved": 0, "is_disabled": 0, "name": "4b51203aa04f8d2667c8b864fd21cf37", "bike_id": "4b51203aa04f8d2667c8b864fd21cf37", "fusion_lat": 0.0, "lon": -77.0133845, "type": "electric_scooter", "fusion_lon": 0.0, "lat": 38.881217166666666}, {"rental_uris": {"android": "https://dc.lft.to/lastmile_qr_scan", "ios": "https://dc.lft.to/lastmile_qr_scan"}, "is_reserved": 0, "is_disabled": 0, "name": "3909419b12908eac3b299020a5d9e02c", "bike_id": "3909419b12908eac3b299020a5d9e02c", "fusion_lat": 0.0, "lon": -77.07100866666667, "type": "electric_scooter", "fusion_lon": 0.0, "lat": 38.90867466666667}, {"rental_uris": {"android": "https://dc.lft.to/lastmile_qr_scan", "ios": "https://dc.lft.to/lastmile_qr_scan"}, "is_reserved": 0, "is_disabled": 0, "name": "5e79eac203c65d1f13e67ee1253811bc", "bike_id": "5e79eac203c65d1f13e67ee1253811bc", "fusion_lat": 0.0, "lon": -77.03007166666667, "type": "electric_scooter", "fusion_lon": 0.0, "lat": 38.895310333333335}, {"rental_uris": {"android": "https://dc.lft.to/lastmile_qr_scan", "ios": "https://dc.lft.to/lastmile_qr_scan"}, "is_reserved": 0, "is_disabled": 0, "name": "369951e6280fa524f3304e4b00ba85d9", "bike_id": "369951e6280fa524f3304e4b00ba85d9", "fusion_lat": 0.0, "lon": -77.08322966666667, "type": "electric_bike", "fusion_lon": 0.0, "lat": 38.933475}, {"rental_uris": {"android": "https://dc.lft.to/lastmile_qr_scan", "ios": "https://dc.lft.to/lastmile_qr_scan"}, "is_reserved": 0, "is_disabled": 0, "name": "7568b7e64f1fe668120d4cb544b2b938", "bike_id": "7568b7e64f1fe668120d4cb544b2b938", "fusion_lat": 0.0, "lon": -77.0316875, "type": "electric_scooter", "fusion_lon": 0.0, "lat": 38.89459133333333}, {"rental_uris": {"android": "https://dc.lft.to/lastmile_qr_scan", "ios": "https://dc.lft.to/lastmile_qr_scan"}, "is_reserved": 0, "is_disabled": 0, "name": "826373099aa200b18f84a711641e1d57", "bike_id": "826373099aa200b18f84a711641e1d57", "fusion_lat": 0.0, "lon": -77.03474716666666, "type": "electric_scooter", "fusion_lon": 0.0, "lat": 38.90501966666667}, {"rental_uris": {"android": "https://dc.lft.to/lastmile_qr_scan", "ios": "https://dc.lft.to/lastmile_qr_scan"}, "is_reserved": 0, "is_disabled": 0, "name": "5bc6b35e1cc187a6a5031ae1d48b2f4e", "bike_id": "5bc6b35e1cc187a6a5031ae1d48b2f4e", "fusion_lat": 0.0, "lon": -76.99521583333333, "type": "electric_scooter", "fusion_lon": 0.0, "lat": 38.90261066666667}, {"rental_uris": {"android": "https://dc.lft.to/lastmile_qr_scan", "ios": "https://dc.lft.to/lastmile_qr_scan"}, "is_reserved": 0, "is_disabled": 0, "name": "c41e9fdc1f8507a9595100fcc70378e3", "bike_id": "c41e9fdc1f8507a9595100fcc70378e3", "fusion_lat": 0.0, "lon": -77.02147083333334, "type": "electric_scooter", "fusion_lon": 0.0, "lat": 38.89430333333333}, {"rental_uris": {"android": "https://dc.lft.to/lastmile_qr_scan", "ios": "https://dc.lft.to/lastmile_qr_scan"}, "is_reserved": 0, "is_disabled": 0, "name": "dab62871015d162c2cc0fef36f8f90e0", "bike_id": "dab62871015d162c2cc0fef36f8f90e0", "fusion_lat": 0.0, "lon": -77.02489883333334, "type": "electric_scooter", "fusion_lon": 0.0, "lat": 38.920669333333336}, {"rental_uris": {"android": "https://dc.lft.to/lastmile_qr_scan", "ios": "https://dc.lft.to/lastmile_qr_scan"}, "is_reserved": 0, "is_disabled": 0, "name": "a8576f0e11b87ca68fb3c78af445040f", "bike_id": "a8576f0e11b87ca68fb3c78af445040f", "fusion_lat": 0.0, "lon": -77.0400375, "type": "electric_scooter", "fusion_lon": 0.0, "lat": 38.93423083333333}, {"rental_uris": {"android": "https://dc.lft.to/lastmile_qr_scan", "ios": "https://dc.lft.to/lastmile_qr_scan"}, "is_reserved": 0, "is_disabled": 0, "name": "c3e787d9864fff99816fe5a205fcde00", "bike_id": "c3e787d9864fff99816fe5a205fcde00", "fusion_lat": 0.0, "lon": -76.9363425, "type": "electric_scooter", "fusion_lon": 0.0, "lat": 38.883498}, {"rental_uris": {"android": "https://dc.lft.to/lastmile_qr_scan", "ios": "https://dc.lft.to/lastmile_qr_scan"}, "is_reserved": 0, "is_disabled": 0, "name": "23033308af05efad408aa689614f7542", "bike_id": "23033308af05efad408aa689614f7542", "fusion_lat": 0.0, "lon": -77.04175366666666, "type": "electric_scooter", "fusion_lon": 0.0, "lat": 38.905266166666664}, {"rental_uris": {"android": "https://dc.lft.to/lastmile_qr_scan", "ios": "https://dc.lft.to/lastmile_qr_scan"}, "is_reserved": 0, "is_disabled": 0, "name": "6b772af982e8ea968af0da7375c6729b", "bike_id": "6b772af982e8ea968af0da7375c6729b", "fusion_lat": 0.0, "lon": -77.0208605, "type": "electric_scooter", "fusion_lon": 0.0, "lat": 38.92241816666667}, {"rental_uris": {"android": "https://dc.lft.to/lastmile_qr_scan", "ios": "https://dc.lft.to/lastmile_qr_scan"}, "is_reserved": 0, "is_disabled": 0, "name": "9f8c9a481676f0670e58e35a80a5247a", "bike_id": "9f8c9a481676f0670e58e35a80a5247a", "fusion_lat": 0.0, "lon": -77.01451833333333, "type": "electric_scooter", "fusion_lon": 0.0, "lat": 38.874298}, {"rental_uris": {"android": "https://dc.lft.to/lastmile_qr_scan", "ios": "https://dc.lft.to/lastmile_qr_scan"}, "is_reserved": 0, "is_disabled": 0, "name": "76b400f883e5466d60ea949c21f6b4e9", "bike_id": "76b400f883e5466d60ea949c21f6b4e9", "fusion_lat": 0.0, "lon": -76.997554, "type": "electric_scooter", "fusion_lon": 0.0, "lat": 38.922729833333335}, {"rental_uris": {"android": "https://dc.lft.to/lastmile_qr_scan", "ios": "https://dc.lft.to/lastmile_qr_scan"}, "is_reserved": 0, "is_disabled": 0, "name": "c9ff7548f59f83bcc34363899b166b4f", "bike_id": "c9ff7548f59f83bcc34363899b166b4f", "fusion_lat": 0.0, "lon": -77.03855783333333, "type": "electric_scooter", "fusion_lon": 0.0, "lat": 38.902681333333334}, {"rental_uris": {"android": "https://dc.lft.to/lastmile_qr_scan", "ios": "https://dc.lft.to/lastmile_qr_scan"}, "is_reserved": 0, "is_disabled": 0, "name": "01bee9f665e48b2eed728a03fb24ebc4", "bike_id": "01bee9f665e48b2eed728a03fb24ebc4", "fusion_lat": 0.0, "lon": -77.04324133333333, "type": "electric_scooter", "fusion_lon": 0.0, "lat": 38.8922}, {"rental_uris": {"android": "https://dc.lft.to/lastmile_qr_scan", "ios": "https://dc.lft.to/lastmile_qr_scan"}, "is_reserved": 0, "is_disabled": 0, "name": "1e8c03a99a78ed01ca50d34662389e82", "bike_id": "1e8c03a99a78ed01ca50d34662389e82", "fusion_lat": 0.0, "lon": -77.04225533333333, "type": "electric_scooter", "fusion_lon": 0.0, "lat": 38.89992133333333}, {"rental_uris": {"android": "https://dc.lft.to/lastmile_qr_scan", "ios": "https://dc.lft.to/lastmile_qr_scan"}, "is_reserved": 0, "is_disabled": 0, "name": "77f60729c225a9d4c968f84f5ec9b449", "bike_id": "77f60729c225a9d4c968f84f5ec9b449", "fusion_lat": 0.0, "lon": -77.03468383333333, "type": "electric_scooter", "fusion_lon": 0.0, "lat": 38.9028465}, {"rental_uris": {"android": "https://dc.lft.to/lastmile_qr_scan", "ios": "https://dc.lft.to/lastmile_qr_scan"}, "is_reserved": 0, "is_disabled": 0, "name": "2b2648bec45b7c243841c6e3df9d3f80", "bike_id": "2b2648bec45b7c243841c6e3df9d3f80", "fusion_lat": 0.0, "lon": -77.02816583333333, "type": "electric_scooter", "fusion_lon": 0.0, "lat": 38.89907016666667}, {"rental_uris": {"android": "https://dc.lft.to/lastmile_qr_scan", "ios": "https://dc.lft.to/lastmile_qr_scan"}, "is_reserved": 0, "is_disabled": 0, "name": "e1b0346f0c0cf45e2efbd227df4eb02e", "bike_id": "e1b0346f0c0cf45e2efbd227df4eb02e", "fusion_lat": 0.0, "lon": -77.041457, "type": "electric_scooter", "fusion_lon": 0.0, "lat": 38.92297133333334}, {"rental_uris": {"android": "https://dc.lft.to/lastmile_qr_scan", "ios": "https://dc.lft.to/lastmile_qr_scan"}, "is_reserved": 0, "is_disabled": 0, "name": "3dec48a8eb3457a336ea4886426f0296", "bike_id": "3dec48a8eb3457a336ea4886426f0296", "fusion_lat": 0.0, "lon": -77.03338533333333, "type": "electric_scooter", "fusion_lon": 0.0, "lat": 38.89853166666666}, {"rental_uris": {"android": "https://dc.lft.to/lastmile_qr_scan", "ios": "https://dc.lft.to/lastmile_qr_scan"}, "is_reserved": 0, "is_disabled": 0, "name": "7ffb865fb45782da967d70cd7c4df750", "bike_id": "7ffb865fb45782da967d70cd7c4df750", "fusion_lat": 0.0, "lon": -77.040575, "type": "electric_scooter", "fusion_lon": 0.0, "lat": 38.908748833333334}, {"rental_uris": {"android": "https://dc.lft.to/lastmile_qr_scan", "ios": "https://dc.lft.to/lastmile_qr_scan"}, "is_reserved": 0, "is_disabled": 0, "name": "aeadf1a0378815b54d1f07e3c43da2c4", "bike_id": "aeadf1a0378815b54d1f07e3c43da2c4", "fusion_lat": 0.0, "lon": -77.00589883333333, "type": "electric_scooter", "fusion_lon": 0.0, "lat": 38.876543166666664}, {"rental_uris": {"android": "https://dc.lft.to/lastmile_qr_scan", "ios": "https://dc.lft.to/lastmile_qr_scan"}, "is_reserved": 0, "is_disabled": 0, "name": "a9aaf0c153339d97c65799f420804a3c", "bike_id": "a9aaf0c153339d97c65799f420804a3c", "fusion_lat": 0.0, "lon": -77.00569316666666, "type": "electric_scooter", "fusion_lon": 0.0, "lat": 38.884995833333335}, {"rental_uris": {"android": "https://dc.lft.to/lastmile_qr_scan", "ios": "https://dc.lft.to/lastmile_qr_scan"}, "is_reserved": 0, "is_disabled": 0, "name": "6c3d8dea36d59fac825186007b3f2ba9", "bike_id": "6c3d8dea36d59fac825186007b3f2ba9", "fusion_lat": 0.0, "lon": -76.99374416666667, "type": "electric_bike", "fusion_lon": 0.0, "lat": 38.99097183333333}, {"rental_uris": {"android": "https://dc.lft.to/lastmile_qr_scan", "ios": "https://dc.lft.to/lastmile_qr_scan"}, "is_reserved": 0, "is_disabled": 0, "name": "f454fd3b198b53e98b3382e6f4690a25", "bike_id": "f454fd3b198b53e98b3382e6f4690a25", "fusion_lat": 0.0, "lon": -77.06700316666667, "type": "electric_bike", "fusion_lon": 0.0, "lat": 38.83168766666667}, {"rental_uris": {"android": "https://dc.lft.to/lastmile_qr_scan", "ios": "https://dc.lft.to/lastmile_qr_scan"}, "is_reserved": 0, "is_disabled": 0, "name": "cdf6ea0df287efe98abe17948b4f4ecc", "bike_id": "cdf6ea0df287efe98abe17948b4f4ecc", "fusion_lat": 0.0, "lon": -77.04512683333333, "type": "electric_bike", "fusion_lon": 0.0, "lat": 38.899513166666665}, {"rental_uris": {"android": "https://dc.lft.to/lastmile_qr_scan", "ios": "https://dc.lft.to/lastmile_qr_scan"}, "is_reserved": 0, "is_disabled": 0, "name": "93a42f46aa41d7589e2caa8737ade681", "bike_id": "93a42f46aa41d7589e2caa8737ade681", "fusion_lat": 0.0, "lon": -76.98627866666666, "type": "electric_scooter", "fusion_lon": 0.0, "lat": 38.9068265}, {"rental_uris": {"android": "https://dc.lft.to/lastmile_qr_scan", "ios": "https://dc.lft.to/lastmile_qr_scan"}, "is_reserved": 0, "is_disabled": 0, "name": "fa7e8d677bd98058fa9d27dec331d9a3", "bike_id": "fa7e8d677bd98058fa9d27dec331d9a3", "fusion_lat": 0.0, "lon": -77.02703083333333, "type": "electric_scooter", "fusion_lon": 0.0, "lat": 38.906752166666664}, {"rental_uris": {"android": "https://dc.lft.to/lastmile_qr_scan", "ios": "https://dc.lft.to/lastmile_qr_scan"}, "is_reserved": 0, "is_disabled": 0, "name": "455275d41ab1968a5866351eda9c9ff9", "bike_id": "455275d41ab1968a5866351eda9c9ff9", "fusion_lat": 0.0, "lon": -77.02124733333333, "type": "electric_scooter", "fusion_lon": 0.0, "lat": 38.9237355}, {"rental_uris": {"android": "https://dc.lft.to/lastmile_qr_scan", "ios": "https://dc.lft.to/lastmile_qr_scan"}, "is_reserved": 0, "is_disabled": 0, "name": "a4c7be7c57c0080df372deb8621780a2", "bike_id": "a4c7be7c57c0080df372deb8621780a2", "fusion_lat": 0.0, "lon": -77.022068, "type": "electric_bike", "fusion_lon": 0.0, "lat": 38.964908666666666}, {"rental_uris": {"android": "https://dc.lft.to/lastmile_qr_scan", "ios": "https://dc.lft.to/lastmile_qr_scan"}, "is_reserved": 0, "is_disabled": 0, "name": "b4e3ef2aaaf400bbd50abcd788b63807", "bike_id": "b4e3ef2aaaf400bbd50abcd788b63807", "fusion_lat": 0.0, "lon": -77.01786633333333, "type": "electric_bike", "fusion_lon": 0.0, "lat": 38.90139283333333}, {"rental_uris": {"android": "https://dc.lft.to/lastmile_qr_scan", "ios": "https://dc.lft.to/lastmile_qr_scan"}, "is_reserved": 0, "is_disabled": 0, "name": "ba68289d531ad7eda5ef876cd25c74c6", "bike_id": "ba68289d531ad7eda5ef876cd25c74c6", "fusion_lat": 0.0, "lon": -77.0249095, "type": "electric_scooter", "fusion_lon": 0.0, "lat": 38.917509}, {"rental_uris": {"android": "https://dc.lft.to/lastmile_qr_scan", "ios": "https://dc.lft.to/lastmile_qr_scan"}, "is_reserved": 0, "is_disabled": 0, "name": "fe33abd68860f120444a86ccb6ddff99", "bike_id": "fe33abd68860f120444a86ccb6ddff99", "fusion_lat": 0.0, "lon": -77.01675733333333, "type": "electric_scooter", "fusion_lon": 0.0, "lat": 38.9203785}, {"rental_uris": {"android": "https://dc.lft.to/lastmile_qr_scan", "ios": "https://dc.lft.to/lastmile_qr_scan"}, "is_reserved": 0, "is_disabled": 0, "name": "e939363c05bccd905ef6bf2eeeb4e909", "bike_id": "e939363c05bccd905ef6bf2eeeb4e909", "fusion_lat": 0.0, "lon": -77.00301933333333, "type": "electric_scooter", "fusion_lon": 0.0, "lat": 38.87665533333333}, {"rental_uris": {"android": "https://dc.lft.to/lastmile_qr_scan", "ios": "https://dc.lft.to/lastmile_qr_scan"}, "is_reserved": 0, "is_disabled": 0, "name": "7662f42ba3f997419246e168e5f5bf68", "bike_id": "7662f42ba3f997419246e168e5f5bf68", "fusion_lat": 0.0, "lon": -77.05393283333333, "type": "electric_scooter", "fusion_lon": 0.0, "lat": 38.90151383333333}, {"rental_uris": {"android": "https://dc.lft.to/lastmile_qr_scan", "ios": "https://dc.lft.to/lastmile_qr_scan"}, "is_reserved": 0, "is_disabled": 0, "name": "cdcfd6f2af989c9bea62e6eec3ca38a5", "bike_id": "cdcfd6f2af989c9bea62e6eec3ca38a5", "fusion_lat": 0.0, "lon": -77.0215155, "type": "electric_scooter", "fusion_lon": 0.0, "lat": 38.924456166666666}, {"rental_uris": {"android": "https://dc.lft.to/lastmile_qr_scan", "ios": "https://dc.lft.to/lastmile_qr_scan"}, "is_reserved": 0, "is_disabled": 0, "name": "77121cc46d983b92f7c52bcf015deecd", "bike_id": "77121cc46d983b92f7c52bcf015deecd", "fusion_lat": 0.0, "lon": -77.00527716666667, "type": "electric_scooter", "fusion_lon": 0.0, "lat": 38.874715}, {"rental_uris": {"android": "https://dc.lft.to/lastmile_qr_scan", "ios": "https://dc.lft.to/lastmile_qr_scan"},