{"data": {"bikes": [{"rental_uris": {"ios": "https://dc.lft.to/lastmile_qr_scan", "android": "https://dc.lft.to/lastmile_qr_scan"}, "lon": -76.99944033333334, "type": "electric_scooter", "fusion_lat": 0.0, "lat": 38.8429495, "name": "021740f2960d590d620367662c8e2dfc", "fusion_lon": 0.0, "bike_id": "021740f2960d590d620367662c8e2dfc", "is_disabled": 0, "is_reserved": 0}, {"rental_uris": {"ios": "https://dc.lft.to/lastmile_qr_scan", "android": "https://dc.lft.to/lastmile_qr_scan"}, "lon": -76.99183516666666, "type": "electric_scooter", "fusion_lat": 0.0, "lat": 38.904556, "name": "1378e1220e8421790ae7f86fda0a6a7d", "fusion_lon": 0.0, "bike_id": "1378e1220e8421790ae7f86fda0a6a7d", "is_disabled": 0, "is_reserved": 0}, {"rental_uris": {"ios": "https://dc.lft.to/lastmile_qr_scan", "android": "https://dc.lft.to/lastmile_qr_scan"}, "lon": -76.90817533333333, "type": "electric_bike", "fusion_lat": 0.0, "lat": 39.002528166666664, "name": "9a3e4a3dbd44e8577903966f390df15f", "fusion_lon": 0.0, "bike_id": "9a3e4a3dbd44e8577903966f390df15f", "is_disabled": 0, "is_reserved": 0}, {"rental_uris": {"ios": "https://dc.lft.to/lastmile_qr_scan", "android": "https://dc.lft.to/lastmile_qr_scan"}, "lon": -77.11215866666667, "type": "electric_bike", "fusion_lat": 0.0, "lat": 38.8287635, "name": "742dffcac5341d405968609968f90999", "fusion_lon": 0.0, "bike_id": "742dffcac5341d405968609968f90999", "is_disabled": 0, "is_reserved": 0}, {"rental_uris": {"ios": "https://dc.lft.to/lastmile_qr_scan", "android": "https://dc.lft.to/lastmile_qr_scan"}, "lon": -77.02402583333334, "type": "electric_scooter", "fusion_lat": 0.0, "lat": 38.91570383333333, "name": "b76e9d57b9f8c3519638870d013fb534", "fusion_lon": 0.0, "bike_id": "b76e9d57b9f8c3519638870d013fb534", "is_disabled": 0, "is_reserved": 0}, {"rental_uris": {"ios": "https://dc.lft.to/lastmile_qr_scan", "android": "https://dc.lft.to/lastmile_qr_scan"}, "lon": -77.02483066666667, "type": "electric_scooter", "fusion_lat": 0.0, "lat": 38.937581333333334, "name": "9f90a665ad262cafb505ab3e8e523a21", "fusion_lon": 0.0, "bike_id": "9f90a665ad262cafb505ab3e8e523a21", "is_disabled": 0, "is_reserved": 0}, {"rental_uris": {"ios": "https://dc.lft.to/lastmile_qr_scan", "android": "https://dc.lft.to/lastmile_qr_scan"}, "lon": -77.02576916666666, "type": "electric_scooter", "fusion_lat": 0.0, "lat": 38.880844833333335, "name": "0748689d7b3c2d31056b7ab7d6a75831", "fusion_lon": 0.0, "bike_id": "0748689d7b3c2d31056b7ab7d6a75831", "is_disabled": 0, "is_reserved": 0}, {"rental_uris": {"ios": "https://dc.lft.to/lastmile_qr_scan", "android": "https://dc.lft.to/lastmile_qr_scan"}, "lon": -77.003055, "type": "electric_scooter", "fusion_lat": 0.0, "lat": 38.8876585, "name": "c71683bc12cc4e6838672d364df287c9", "fusion_lon": 0.0, "bike_id": "c71683bc12cc4e6838672d364df287c9", "is_disabled": 0, "is_reserved": 0}, {"rental_uris": {"ios": "https://dc.lft.to/lastmile_qr_scan", "android": "https://dc.lft.to/lastmile_qr_scan"}, "lon": -77.00736066666667, "type": "electric_scooter", "fusion_lat": 0.0, "lat": 38.955226, "name": "bc3970dce5c441b7a7134e88afb7b1a4", "fusion_lon": 0.0, "bike_id": "bc3970dce5c441b7a7134e88afb7b1a4", "is_disabled": 0, "is_reserved": 0}, {"rental_uris": {"ios": "https://dc.lft.to/lastmile_qr_scan", "android": "https://dc.lft.to/lastmile_qr_scan"}, "lon": -77.042305, "type": "electric_scooter", "fusion_lat": 0.0, "lat": 38.92154216666667, "name": "c9686337ece2d7fdb0db50fb986f1b47", "fusion_lon": 0.0, "bike_id": "c9686337ece2d7fdb0db50fb986f1b47", "is_disabled": 0, "is_reserved": 0}, {"rental_uris": {"ios": "https://dc.lft.to/lastmile_qr_scan", "android": "https://dc.lft.to/lastmile_qr_scan"}, "lon": -77.03992216666667, "type": "electric_scooter", "fusion_lat": 0.0, "lat": 38.9003085, "name": "5b253b81446517374ff712a209d54f96", "fusion_lon": 0.0, "bike_id": "5b253b81446517374ff712a209d54f96", "is_disabled": 0, "is_reserved": 0}, {"rental_uris": {"ios": "https://dc.lft.to/lastmile_qr_scan", "android": "https://dc.lft.to/lastmile_qr_scan"}, "lon": -76.99000316666667, "type": "electric_scooter", "fusion_lat": 0.0, "lat": 38.86506083333333, "name": "152660f4212ab1ebbcfc36bf98e253b5", "fusion_lon": 0.0, "bike_id": "152660f4212ab1ebbcfc36bf98e253b5", "is_disabled": 0, "is_reserved": 0}, {"rental_uris": {"ios": "https://dc.lft.to/lastmile_qr_scan", "android": "https://dc.lft.to/lastmile_qr_scan"}, "lon": -77.03242166666666, "type": "electric_scooter", "fusion_lat": 0.0, "lat": 38.9125255, "name": "a2bcba989f6d2a80f07ed0392fc17b39", "fusion_lon": 0.0, "bike_id": "a2bcba989f6d2a80f07ed0392fc17b39", "is_disabled": 0, "is_reserved": 0}, {"rental_uris": {"ios": "https://dc.lft.to/lastmile_qr_scan", "android": "https://dc.lft.to/lastmile_qr_scan"}, "lon": -77.0006675, "type": "electric_scooter", "fusion_lat": 0.0, "lat": 38.925545, "name": "3fe4efb77556b2f6af31ee68a4ccafe8", "fusion_lon": 0.0, "bike_id": "3fe4efb77556b2f6af31ee68a4ccafe8", "is_disabled": 0, "is_reserved": 0}, {"rental_uris": {"ios": "https://dc.lft.to/lastmile_qr_scan", "android": "https://dc.lft.to/lastmile_qr_scan"}, "lon": -77.00490983333333, "type": "electric_scooter", "fusion_lat": 0.0, "lat": 38.89683433333333, "name": "d1573d0e061d2c1899f422424681ef77", "fusion_lon": 0.0, "bike_id": "d1573d0e061d2c1899f422424681ef77", "is_disabled": 0, "is_reserved": 0}, {"rental_uris": {"ios": "https://dc.lft.to/lastmile_qr_scan", "android": "https://dc.lft.to/lastmile_qr_scan"}, "lon": -76.998138, "type": "electric_bike", "fusion_lat": 0.0, "lat": 38.844361166666665, "name": "d84bbce84b93f25999a7445081c9530f", "fusion_lon": 0.0, "bike_id": "d84bbce84b93f25999a7445081c9530f", "is_disabled": 0, "is_reserved": 0}, {"rental_uris": {"ios": "https://dc.lft.to/lastmile_qr_scan", "android": "https://dc.lft.to/lastmile_qr_scan"}, "lon": -77.04822783333333, "type": "electric_scooter", "fusion_lat": 0.0, "lat": 38.92037083333334, "name": "ba70e53d6c8187b544d4cd39e4ea4bb8", "fusion_lon": 0.0, "bike_id": "ba70e53d6c8187b544d4cd39e4ea4bb8", "is_disabled": 0, "is_reserved": 0}, {"rental_uris": {"ios": "https://dc.lft.to/lastmile_qr_scan", "android": "https://dc.lft.to/lastmile_qr_scan"}, "lon": -77.022889, "type": "electric_scooter", "fusion_lat": 0.0, "lat": 38.915709, "name": "d208c5654e359101097749a7cbd81dcf", "fusion_lon": 0.0, "bike_id": "d208c5654e359101097749a7cbd81dcf", "is_disabled": 0, "is_reserved": 0}, {"rental_uris": {"ios": "https://dc.lft.to/lastmile_qr_scan", "android": "https://dc.lft.to/lastmile_qr_scan"}, "lon": -77.03214083333333, "type": "electric_scooter", "fusion_lat": 0.0, "lat": 38.91601133333333, "name": "d724df87b8b61117fa2a26615ef5d110", "fusion_lon": 0.0, "bike_id": "d724df87b8b61117fa2a26615ef5d110", "is_disabled": 0, "is_reserved": 0}, {"rental_uris": {"ios": "https://dc.lft.to/lastmile_qr_scan", "android": "https://dc.lft.to/lastmile_qr_scan"}, "lon": -77.0354505, "type": "electric_scooter", "fusion_lat": 0.0, "lat": 38.9126515, "name": "a6b5393077143bd21ee711b67945dc10", "fusion_lon": 0.0, "bike_id": "a6b5393077143bd21ee711b67945dc10", "is_disabled": 0, "is_reserved": 0}, {"rental_uris": {"ios": "https://dc.lft.to/lastmile_qr_scan", "android": "https://dc.lft.to/lastmile_qr_scan"}, "lon": -77.043088, "type": "electric_bike", "fusion_lat": 0.0, "lat": 38.9278235, "name": "ea24f25640e3a68c592ca778f57c1839", "fusion_lon": 0.0, "bike_id": "ea24f25640e3a68c592ca778f57c1839", "is_disabled": 0, "is_reserved": 0}, {"rental_uris": {"ios": "https://dc.lft.to/lastmile_qr_scan", "android": "https://dc.lft.to/lastmile_qr_scan"}, "lon": -77.0214595, "type": "electric_scooter", "fusion_lat": 0.0, "lat": 38.909709, "name": "ab36a4a42968aa320e93bc51fb515cbc", "fusion_lon": 0.0, "bike_id": "ab36a4a42968aa320e93bc51fb515cbc", "is_disabled": 0, "is_reserved": 0}, {"rental_uris": {"ios": "https://dc.lft.to/lastmile_qr_scan", "android": "https://dc.lft.to/lastmile_qr_scan"}, "lon": -76.968029, "type": "electric_bike", "fusion_lat": 0.0, "lat": 38.955328333333334, "name": "cfab42635db9704d926f277ae456369b", "fusion_lon": 0.0, "bike_id": "cfab42635db9704d926f277ae456369b", "is_disabled": 0, "is_reserved": 0}, {"rental_uris": {"ios": "https://dc.lft.to/lastmile_qr_scan", "android": "https://dc.lft.to/lastmile_qr_scan"}, "lon": -77.0915765, "type": "electric_bike", "fusion_lat": 0.0, "lat": 38.967623833333334, "name": "d43ea0ec23c88cf4db0a7a7eddc315bb", "fusion_lon": 0.0, "bike_id": "d43ea0ec23c88cf4db0a7a7eddc315bb", "is_disabled": 0, "is_reserved": 0}, {"rental_uris": {"ios": "https://dc.lft.to/lastmile_qr_scan", "android": "https://dc.lft.to/lastmile_qr_scan"}, "lon": -77.029203, "type": "electric_scooter", "fusion_lat": 0.0, "lat": 38.903667, "name": "e7f38eeea3d73d00793bcbdd9ba1f071", "fusion_lon": 0.0, "bike_id": "e7f38eeea3d73d00793bcbdd9ba1f071", "is_disabled": 0, "is_reserved": 0}, {"rental_uris": {"ios": "https://dc.lft.to/lastmile_qr_scan", "android": "https://dc.lft.to/lastmile_qr_scan"}, "lon": -77.04540966666667, "type": "electric_scooter", "fusion_lat": 0.0, "lat": 38.91314216666667, "name": "8cb68768222c075874a08164d0b8a8ee", "fusion_lon": 0.0, "bike_id": "8cb68768222c075874a08164d0b8a8ee", "is_disabled": 0, "is_reserved": 0}, {"rental_uris": {"ios": "https://dc.lft.to/lastmile_qr_scan", "android": "https://dc.lft.to/lastmile_qr_scan"}, "lon": -77.0415755, "type": "electric_scooter", "fusion_lat": 0.0, "lat": 38.918624, "name": "6f5588b57e4bd162fd28a466388dfb1e", "fusion_lon": 0.0, "bike_id": "6f5588b57e4bd162fd28a466388dfb1e", "is_disabled": 0, "is_reserved": 0}, {"rental_uris": {"ios": "https://dc.lft.to/lastmile_qr_scan", "android": "https://dc.lft.to/lastmile_qr_scan"}, "lon": -77.041676, "type": "electric_scooter", "fusion_lat": 0.0, "lat": 38.919822, "name": "5180dc805e54e3be2083f6448255662a", "fusion_lon": 0.0, "bike_id": "5180dc805e54e3be2083f6448255662a", "is_disabled": 0, "is_reserved": 0}, {"rental_uris": {"ios": "https://dc.lft.to/lastmile_qr_scan", "android": "https://dc.lft.to/lastmile_qr_scan"}, "lon": -77.1309105, "type": "electric_bike", "fusion_lat": 0.0, "lat": 38.8616255, "name": "0c6d5a77fcc477a4743dfae923790b6c", "fusion_lon": 0.0, "bike_id": "0c6d5a77fcc477a4743dfae923790b6c", "is_disabled": 0, "is_reserved": 0}, {"rental_uris": {"ios": "https://dc.lft.to/lastmile_qr_scan", "android": "https://dc.lft.to/lastmile_qr_scan"}, "lon": -77.03840016666666, "type": "electric_scooter", "fusion_lat": 0.0, "lat": 38.91024083333333, "name": "44f4b3a58d686c926ec8c1980a69f9ef", "fusion_lon": 0.0, "bike_id": "44f4b3a58d686c926ec8c1980a69f9ef", "is_disabled": 0, "is_reserved": 0}, {"rental_uris": {"ios": "https://dc.lft.to/lastmile_qr_scan", "android": "https://dc.lft.to/lastmile_qr_scan"}, "lon": -77.02317166666667, "type": "electric_scooter", "fusion_lat": 0.0, "lat": 38.88329516666667, "name": "85580bb5b8bde245e614fc616a6c68cb", "fusion_lon": 0.0, "bike_id": "85580bb5b8bde245e614fc616a6c68cb", "is_disabled": 0, "is_reserved": 0}, {"rental_uris": {"ios": "https://dc.lft.to/lastmile_qr_scan", "android": "https://dc.lft.to/lastmile_qr_scan"}, "lon": -76.9839255, "type": "electric_bike", "fusion_lat": 0.0, "lat": 38.922023833333334, "name": "fc3e4221b0ca802ac31837d18aa75893", "fusion_lon": 0.0, "bike_id": "fc3e4221b0ca802ac31837d18aa75893", "is_disabled": 0, "is_reserved": 0}, {"rental_uris": {"ios": "https://dc.lft.to/lastmile_qr_scan", "android": "https://dc.lft.to/lastmile_qr_scan"}, "lon": -77.01583116666667, "type": "electric_scooter", "fusion_lat": 0.0, "lat": 38.91564866666667, "name": "5ea4e30159d031d9b721b8ffb4b28b1d", "fusion_lon": 0.0, "bike_id": "5ea4e30159d031d9b721b8ffb4b28b1d", "is_disabled": 0, "is_reserved": 0}, {"rental_uris": {"ios": "https://dc.lft.to/lastmile_qr_scan", "android": "https://dc.lft.to/lastmile_qr_scan"}, "lon": -77.12624983333333, "type": "electric_bike", "fusion_lat": 0.0, "lat": 39.05814133333333, "name": "8cd1cc910e5077d92a24139e83ba1d8d", "fusion_lon": 0.0, "bike_id": "8cd1cc910e5077d92a24139e83ba1d8d", "is_disabled": 0, "is_reserved": 0}, {"rental_uris": {"ios": "https://dc.lft.to/lastmile_qr_scan", "android": "https://dc.lft.to/lastmile_qr_scan"}, "lon": -77.061841, "type": "electric_scooter", "fusion_lat": 0.0, "lat": 38.9025195, "name": "52060a1227ba32d66b2a724076ea5496", "fusion_lon": 0.0, "bike_id": "52060a1227ba32d66b2a724076ea5496", "is_disabled": 0, "is_reserved": 0}, {"rental_uris": {"ios": "https://dc.lft.to/lastmile_qr_scan", "android": "https://dc.lft.to/lastmile_qr_scan"}, "lon": -77.02441916666666, "type": "electric_scooter", "fusion_lat": 0.0, "lat": 38.901321333333335, "name": "6b7a60ede1bd18d62779db94aae490e7", "fusion_lon": 0.0, "bike_id": "6b7a60ede1bd18d62779db94aae490e7", "is_disabled": 0, "is_reserved": 0}, {"rental_uris": {"ios": "https://dc.lft.to/lastmile_qr_scan", "android": "https://dc.lft.to/lastmile_qr_scan"}, "lon": -76.9782855, "type": "electric_bike", "fusion_lat": 0.0, "lat": 38.84610983333334, "name": "59b88652d0e99e4707778a1541a4bcae", "fusion_lon": 0.0, "bike_id": "59b88652d0e99e4707778a1541a4bcae", "is_disabled": 0, "is_reserved": 0}, {"rental_uris": {"ios": "https://dc.lft.to/lastmile_qr_scan", "android": "https://dc.lft.to/lastmile_qr_scan"}, "lon": -77.03943216666667, "type": "electric_scooter", "fusion_lat": 0.0, "lat": 38.900549166666664, "name": "5b1f5dd893fbaf4e9b72b50d6310e7e0", "fusion_lon": 0.0, "bike_id": "5b1f5dd893fbaf4e9b72b50d6310e7e0", "is_disabled": 0, "is_reserved": 0}, {"rental_uris": {"ios": "https://dc.lft.to/lastmile_qr_scan", "android": "https://dc.lft.to/lastmile_qr_scan"}, "lon": -76.93715783333333, "type": "electric_scooter", "fusion_lat": 0.0, "lat": 38.8958845, "name": "16695e34dfa69765dbb14226f555b306", "fusion_lon": 0.0, "bike_id": "16695e34dfa69765dbb14226f555b306", "is_disabled": 0, "is_reserved": 0}, {"rental_uris": {"ios": "https://dc.lft.to/lastmile_qr_scan", "android": "https://dc.lft.to/lastmile_qr_scan"}, "lon": -77.03968466666667, "type": "electric_scooter", "fusion_lat": 0.0, "lat": 38.903762666666665, "name": "9ebe7518a8e5ce58b2b8e084c82ba9de", "fusion_lon": 0.0, "bike_id": "9ebe7518a8e5ce58b2b8e084c82ba9de", "is_disabled": 0, "is_reserved": 0}, {"rental_uris": {"ios": "https://dc.lft.to/lastmile_qr_scan", "android": "https://dc.lft.to/lastmile_qr_scan"}, "lon": -77.04178866666666, "type": "electric_scooter", "fusion_lat": 0.0, "lat": 38.91768066666667, "name": "7ecb28f8da5871ade7276ef27b54df8e", "fusion_lon": 0.0, "bike_id": "7ecb28f8da5871ade7276ef27b54df8e", "is_disabled": 0, "is_reserved": 0}, {"rental_uris": {"ios": "https://dc.lft.to/lastmile_qr_scan", "android": "https://dc.lft.to/lastmile_qr_scan"}, "lon": -77.00241866666667, "type": "electric_scooter", "fusion_lat": 0.0, "lat": 38.91188733333333, "name": "bd4220b9768ba5232dad492f84c2e71d", "fusion_lon": 0.0, "bike_id": "bd4220b9768ba5232dad492f84c2e71d", "is_disabled": 0, "is_reserved": 0}, {"rental_uris": {"ios": "https://dc.lft.to/lastmile_qr_scan", "android": "https://dc.lft.to/lastmile_qr_scan"}, "lon": -77.041737, "type": "electric_scooter", "fusion_lat": 0.0, "lat": 38.905402, "name": "309654246f8ab2ae5e39251492150bbd", "fusion_lon": 0.0, "bike_id": "309654246f8ab2ae5e39251492150bbd", "is_disabled": 0, "is_reserved": 0}, {"rental_uris": {"ios": "https://dc.lft.to/lastmile_qr_scan", "android": "https://dc.lft.to/lastmile_qr_scan"}, "lon": -76.97489783333333, "type": "electric_bike", "fusion_lat": 0.0, "lat": 38.920064833333335, "name": "cf55ddff166072a88d383dec76a4e40b", "fusion_lon": 0.0, "bike_id": "cf55ddff166072a88d383dec76a4e40b", "is_disabled": 0, "is_reserved": 0}, {"rental_uris": {"ios": "https://dc.lft.to/lastmile_qr_scan", "android": "https://dc.lft.to/lastmile_qr_scan"}, "lon": -77.04107916666666, "type": "electric_scooter", "fusion_lat": 0.0, "lat": 38.924477833333334, "name": "432b5053f242e830dc62e952d1a80ef8", "fusion_lon": 0.0, "bike_id": "432b5053f242e830dc62e952d1a80ef8", "is_disabled": 0, "is_reserved": 0}, {"rental_uris": {"ios": "https://dc.lft.to/lastmile_qr_scan", "android": "https://dc.lft.to/lastmile_qr_scan"}, "lon": -77.034663, "type": "electric_scooter", "fusion_lat": 0.0, "lat": 38.91268783333334, "name": "e1438eb9fc1189121f4d5e295025f6dd", "fusion_lon": 0.0, "bike_id": "e1438eb9fc1189121f4d5e295025f6dd", "is_disabled": 0, "is_reserved": 0}, {"rental_uris": {"ios": "https://dc.lft.to/lastmile_qr_scan", "android": "https://dc.lft.to/lastmile_qr_scan"}, "lon": -77.03344766666666, "type": "electric_scooter", "fusion_lat": 0.0, "lat": 38.911881, "name": "891db5010866ac8b0c74240f79706823", "fusion_lon": 0.0, "bike_id": "891db5010866ac8b0c74240f79706823", "is_disabled": 0, "is_reserved": 0}, {"rental_uris": {"ios": "https://dc.lft.to/lastmile_qr_scan", "android": "https://dc.lft.to/lastmile_qr_scan"}, "lon": -77.05334116666667, "type": "electric_bike", "fusion_lat": 0.0, "lat": 38.9053285, "name": "502e76502eb17220c68f08accfe0ead3", "fusion_lon": 0.0, "bike_id": "502e76502eb17220c68f08accfe0ead3", "is_disabled": 0, "is_reserved": 0}, {"rental_uris": {"ios": "https://dc.lft.to/lastmile_qr_scan", "android": "https://dc.lft.to/lastmile_qr_scan"}, "lon": -77.021866, "type": "electric_scooter", "fusion_lat": 0.0, "lat": 38.91488066666667, "name": "b7ac6ca24cad1ac3a3a7e4220b2726c3", "fusion_lon": 0.0, "bike_id": "b7ac6ca24cad1ac3a3a7e4220b2726c3", "is_disabled": 0, "is_reserved": 0}, {"rental_uris": {"ios": "https://dc.lft.to/lastmile_qr_scan", "android": "https://dc.lft.to/lastmile_qr_scan"}, "lon": -76.97403166666666, "type": "electric_scooter", "fusion_lat": 0.0, "lat": 38.9015805, "name": "1934a5ae2f8e14cfae024df315a05c79", "fusion_lon": 0.0, "bike_id": "1934a5ae2f8e14cfae024df315a05c79", "is_disabled": 0, "is_reserved": 0}, {"rental_uris": {"ios": "https://dc.lft.to/lastmile_qr_scan", "android": "https://dc.lft.to/lastmile_qr_scan"}, "lon": -77.0448985, "type": "electric_scooter", "fusion_lat": 0.0, "lat": 38.9001055, "name": "d5020e3a2252f9618c4b0fcc13b37f66", "fusion_lon": 0.0, "bike_id": "d5020e3a2252f9618c4b0fcc13b37f66", "is_disabled": 0, "is_reserved": 0}, {"rental_uris": {"ios": "https://dc.lft.to/lastmile_qr_scan", "android": "https://dc.lft.to/lastmile_qr_scan"}, "lon": -76.9967095, "type": "electric_scooter", "fusion_lat": 0.0, "lat": 38.9101675, "name": "fb5d28101d1184d6bbc0867ff3ba8252", "fusion_lon": 0.0, "bike_id": "fb5d28101d1184d6bbc0867ff3ba8252", "is_disabled": 0, "is_reserved": 0}, {"rental_uris": {"ios": "https://dc.lft.to/lastmile_qr_scan", "android": "https://dc.lft.to/lastmile_qr_scan"}, "lon": -77.02809, "type": "electric_scooter", "fusion_lat": 0.0, "lat": 38.881827333333334, "name": "e58fd2d535cd94e6bb8be29b9a6e6a92", "fusion_lon": 0.0, "bike_id": "e58fd2d535cd94e6bb8be29b9a6e6a92", "is_disabled": 0, "is_reserved": 0}, {"rental_uris": {"ios": "https://dc.lft.to/lastmile_qr_scan", "android": "https://dc.lft.to/lastmile_qr_scan"}, "lon": -77.0249205, "type": "electric_scooter", "fusion_lat": 0.0, "lat": 38.9180855, "name": "e079623f3ce8232c0606f04be03afc83", "fusion_lon": 0.0, "bike_id": "e079623f3ce8232c0606f04be03afc83", "is_disabled": 0, "is_reserved": 0}, {"rental_uris": {"ios": "https://dc.lft.to/lastmile_qr_scan", "android": "https://dc.lft.to/lastmile_qr_scan"}, "lon": -76.99558766666667, "type": "electric_scooter", "fusion_lat": 0.0, "lat": 38.928748, "name": "7173f9d481836b877dd74ba49a25c83e", "fusion_lon": 0.0, "bike_id": "7173f9d481836b877dd74ba49a25c83e", "is_disabled": 0, "is_reserved": 0}, {"rental_uris": {"ios": "https://dc.lft.to/lastmile_qr_scan", "android": "https://dc.lft.to/lastmile_qr_scan"}, "lon": -76.938664, "type": "electric_scooter", "fusion_lat": 0.0, "lat": 38.9008645, "name": "c1dbdb35737dae560b07f7beee65016c", "fusion_lon": 0.0, "bike_id": "c1dbdb35737dae560b07f7beee65016c", "is_disabled": 0, "is_reserved": 0}, {"rental_uris": {"ios": "https://dc.lft.to/lastmile_qr_scan", "android": "https://dc.lft.to/lastmile_qr_scan"}, "lon": -77.02440183333333, "type": "electric_scooter", "fusion_lat": 0.0, "lat": 38.89525416666667, "name": "bbd924d10a03c5e74ad6d844d59f99eb", "fusion_lon": 0.0, "bike_id": "bbd924d10a03c5e74ad6d844d59f99eb", "is_disabled": 0, "is_reserved": 0}, {"rental_uris": {"ios": "https://dc.lft.to/lastmile_qr_scan", "android": "https://dc.lft.to/lastmile_qr_scan"}, "lon": -76.98654783333333, "type": "electric_scooter", "fusion_lat": 0.0, "lat": 38.85808433333333, "name": "0b13730212a4648ccdfe002aa24c2b1f", "fusion_lon": 0.0, "bike_id": "0b13730212a4648ccdfe002aa24c2b1f", "is_disabled": 0, "is_reserved": 0}, {"rental_uris": {"ios": "https://dc.lft.to/lastmile_qr_scan", "android": "https://dc.lft.to/lastmile_qr_scan"}, "lon": -77.03549633333333, "type": "electric_scooter", "fusion_lat": 0.0, "lat": 38.924161, "name": "a4c6ec75544f4e9cb4fc01030877dc8d", "fusion_lon": 0.0, "bike_id": "a4c6ec75544f4e9cb4fc01030877dc8d", "is_disabled": 0, "is_reserved": 0}, {"rental_uris": {"ios": "https://dc.lft.to/lastmile_qr_scan", "android": "https://dc.lft.to/lastmile_qr_scan"}, "lon": -77.0122235, "type": "electric_scooter", "fusion_lat": 0.0, "lat": 38.900398, "name": "645c60a26f5b31339b874cb04b7ca237", "fusion_lon": 0.0, "bike_id": "645c60a26f5b31339b874cb04b7ca237", "is_disabled": 0, "is_reserved": 0}, {"rental_uris": {"ios": "https://dc.lft.to/lastmile_qr_scan", "android": "https://dc.lft.to/lastmile_qr_scan"}, "lon": -77.00361583333333, "type": "electric_scooter", "fusion_lat": 0.0, "lat": 38.897642, "name": "d95415f441aa50145aa8017507a98994", "fusion_lon": 0.0, "bike_id": "d95415f441aa50145aa8017507a98994", "is_disabled": 0, "is_reserved": 0}, {"rental_uris": {"ios": "https://dc.lft.to/lastmile_qr_scan", "android": "https://dc.lft.to/lastmile_qr_scan"}, "lon": -76.9865245, "type": "electric_scooter", "fusion_lat": 0.0, "lat": 38.858078, "name": "d2ce7833d7f77e5e1188f2c16f18666f", "fusion_lon": 0.0, "bike_id": "d2ce7833d7f77e5e1188f2c16f18666f", "is_disabled": 0, "is_reserved": 0}, {"rental_uris": {"ios": "https://dc.lft.to/lastmile_qr_scan", "android": "https://dc.lft.to/lastmile_qr_scan"}, "lon": -76.98568466666667, "type": "electric_scooter", "fusion_lat": 0.0, "lat": 38.898886, "name": "021f9bc75e7fc0d636ead407cc99709a", "fusion_lon": 0.0, "bike_id": "021f9bc75e7fc0d636ead407cc99709a", "is_disabled": 0, "is_reserved": 0}, {"rental_uris": {"ios": "https://dc.lft.to/lastmile_qr_scan", "android": "https://dc.lft.to/lastmile_qr_scan"}, "lon": -77.032122, "type": "electric_scooter", "fusion_lat": 0.0, "lat": 38.962396166666664, "name": "cc98fabf1ebcb6b18fb8170f64b81f1a", "fusion_lon": 0.0, "bike_id": "cc98fabf1ebcb6b18fb8170f64b81f1a", "is_disabled": 0, "is_reserved": 0}, {"rental_uris": {"ios": "https://dc.lft.to/lastmile_qr_scan", "android": "https://dc.lft.to/lastmile_qr_scan"}, "lon": -77.10024583333333, "type": "electric_bike", "fusion_lat": 0.0, "lat": 38.99064666666666, "name": "0623506d4ffa0ac791a1affcb9c462eb", "fusion_lon": 0.0, "bike_id": "0623506d4ffa0ac791a1affcb9c462eb", "is_disabled": 0, "is_reserved": 0}, {"rental_uris": {"ios": "https://dc.lft.to/lastmile_qr_scan", "android": "https://dc.lft.to/lastmile_qr_scan"}, "lon": -76.99942183333333, "type": "electric_scooter", "fusion_lat": 0.0, "lat": 38.84298666666667, "name": "a1c97c612fb4d5b694072aefe2c53981", "fusion_lon": 0.0, "bike_id": "a1c97c612fb4d5b694072aefe2c53981", "is_disabled": 0, "is_reserved": 0}, {"rental_uris": {"ios": "https://dc.lft.to/lastmile_qr_scan", "android": "https://dc.lft.to/lastmile_qr_scan"}, "lon": -76.9865285, "type": "electric_scooter", "fusion_lat": 0.0, "lat": 38.858071333333335, "name": "5509f1c75a933b616a9af52fc33dc2d6", "fusion_lon": 0.0, "bike_id": "5509f1c75a933b616a9af52fc33dc2d6", "is_disabled": 0, "is_reserved": 0}, {"rental_uris": {"ios": "https://dc.lft.to/lastmile_qr_scan", "android": "https://dc.lft.to/lastmile_qr_scan"}, "lon": -77.0223115, "type": "electric_scooter", "fusion_lat": 0.0, "lat": 38.91425133333333, "name": "025a7b042adb188f20327cd66cd06803", "fusion_lon": 0.0, "bike_id": "025a7b042adb188f20327cd66cd06803", "is_disabled": 0, "is_reserved": 0}, {"rental_uris": {"ios": "https://dc.lft.to/lastmile_qr_scan", "android": "https://dc.lft.to/lastmile_qr_scan"}, "lon": -77.02320183333333, "type": "electric_scooter", "fusion_lat": 0.0, "lat": 38.91682733333333, "name": "6865ad9ea341fb59a5e700ece2e9a0a8", "fusion_lon": 0.0, "bike_id": "6865ad9ea341fb59a5e700ece2e9a0a8", "is_disabled": 0, "is_reserved": 0}, {"rental_uris": {"ios": "https://dc.lft.to/lastmile_qr_scan", "android": "https://dc.lft.to/lastmile_qr_scan"}, "lon": -77.0346965, "type": "electric_scooter", "fusion_lat": 0.0, "lat": 38.9299075, "name": "302544d78a4bae1a6455333d16b95495", "fusion_lon": 0.0, "bike_id": "302544d78a4bae1a6455333d16b95495", "is_disabled": 0, "is_reserved": 0}, {"rental_uris": {"ios": "https://dc.lft.to/lastmile_qr_scan", "android": "https://dc.lft.to/lastmile_qr_scan"}, "lon": -77.04503816666667, "type": "electric_scooter", "fusion_lat": 0.0, "lat": 38.892189333333334, "name": "32e7092d7598430238d022369dd26000", "fusion_lon": 0.0, "bike_id": "32e7092d7598430238d022369dd26000", "is_disabled": 0, "is_reserved": 0}, {"rental_uris": {"ios": "https://dc.lft.to/lastmile_qr_scan", "android": "https://dc.lft.to/lastmile_qr_scan"}, "lon": -76.9904395, "type": "electric_scooter", "fusion_lat": 0.0, "lat": 38.90137766666667, "name": "87c629d5e3aea35046b7f26aae41f06e", "fusion_lon": 0.0, "bike_id": "87c629d5e3aea35046b7f26aae41f06e", "is_disabled": 0, "is_reserved": 0}, {"rental_uris": {"ios": "https://dc.lft.to/lastmile_qr_scan", "android": "https://dc.lft.to/lastmile_qr_scan"}, "lon": -76.9792345, "type": "electric_scooter", "fusion_lat": 0.0, "lat": 38.904997, "name": "af1beef2e4026f110125da8e01a60f65", "fusion_lon": 0.0, "bike_id": "af1beef2e4026f110125da8e01a60f65", "is_disabled": 0, "is_reserved": 0}, {"rental_uris": {"ios": "https://dc.lft.to/lastmile_qr_scan", "android": "https://dc.lft.to/lastmile_qr_scan"}, "lon": -77.0489985, "type": "electric_bike", "fusion_lat": 0.0, "lat": 38.874947666666664, "name": "741d0cc44348a291444af56bf4ee7576", "fusion_lon": 0.0, "bike_id": "741d0cc44348a291444af56bf4ee7576", "is_disabled": 0, "is_reserved": 0}, {"rental_uris": {"ios": "https://dc.lft.to/lastmile_qr_scan", "android": "https://dc.lft.to/lastmile_qr_scan"}, "lon": -77.06258616666666, "type": "electric_scooter", "fusion_lat": 0.0, "lat": 38.90846466666667, "name": "5e3cb472c3da54def76f4b0bbeb4588b", "fusion_lon": 0.0, "bike_id": "5e3cb472c3da54def76f4b0bbeb4588b", "is_disabled": 0, "is_reserved": 0}, {"rental_uris": {"ios": "https://dc.lft.to/lastmile_qr_scan", "android": "https://dc.lft.to/lastmile_qr_scan"}, "lon": -76.94650883333334, "type": "electric_scooter", "fusion_lat": 0.0, "lat": 38.898277, "name": "aa272b0a2983e1d9ee32e54576086e71", "fusion_lon": 0.0, "bike_id": "aa272b0a2983e1d9ee32e54576086e71", "is_disabled": 0, "is_reserved": 0}, {"rental_uris": {"ios": "https://dc.lft.to/lastmile_qr_scan", "android": "https://dc.lft.to/lastmile_qr_scan"}, "lon": -77.00665183333334, "type": "electric_scooter", "fusion_lat": 0.0, "lat": 38.8746605, "name": "8c26d0076205fba74b3ec990e57efa23", "fusion_lon": 0.0, "bike_id": "8c26d0076205fba74b3ec990e57efa23", "is_disabled": 0, "is_reserved": 0}, {"rental_uris": {"ios": "https://dc.lft.to/lastmile_qr_scan", "android": "https://dc.lft.to/lastmile_qr_scan"}, "lon": -77.06346616666667, "type": "electric_scooter", "fusion_lat": 0.0, "lat": 38.90278266666667, "name": "38587f494b73e457d8b8b51164130402", "fusion_lon": 0.0, "bike_id": "38587f494b73e457d8b8b51164130402", "is_disabled": 0, "is_reserved": 0}, {"rental_uris": {"ios": "https://dc.lft.to/lastmile_qr_scan", "android": "https://dc.lft.to/lastmile_qr_scan"}, "lon": -77.02975483333333, "type": "electric_scooter", "fusion_lat": 0.0, "lat": 38.962295, "name": "b5f643b1a8805419fa7db66fe2271432", "fusion_lon": 0.0, "bike_id": "b5f643b1a8805419fa7db66fe2271432", "is_disabled": 0, "is_reserved": 0}, {"rental_uris": {"ios": "https://dc.lft.to/lastmile_qr_scan", "android": "https://dc.lft.to/lastmile_qr_scan"}, "lon": -76.99549483333334, "type": "electric_scooter", "fusion_lat": 0.0, "lat": 38.9002685, "name": "d6c699fbef5e82c45de2f2555776c4be", "fusion_lon": 0.0, "bike_id": "d6c699fbef5e82c45de2f2555776c4be", "is_disabled": 0, "is_reserved": 0}, {"rental_uris": {"ios": "https://dc.lft.to/lastmile_qr_scan", "android": "https://dc.lft.to/lastmile_qr_scan"}, "lon": -77.02886083333334, "type": "electric_scooter", "fusion_lat": 0.0, "lat": 38.92381616666667, "name": "2eeaf79a1d312c469f0f7775cf5cd261", "fusion_lon": 0.0, "bike_id": "2eeaf79a1d312c469f0f7775cf5cd261", "is_disabled": 0, "is_reserved": 0}, {"rental_uris": {"ios": "https://dc.lft.to/lastmile_qr_scan", "android": "https://dc.lft.to/lastmile_qr_scan"}, "lon": -77.08539233333333, "type": "electric_bike", "fusion_lat": 0.0, "lat": 38.85623866666667, "name": "c104c8d60e5965bf2309e94aefc4fae4", "fusion_lon": 0.0, "bike_id": "c104c8d60e5965bf2309e94aefc4fae4", "is_disabled": 0, "is_reserved": 0}, {"rental_uris": {"ios": "https://dc.lft.to/lastmile_qr_scan", "android": "https://dc.lft.to/lastmile_qr_scan"}, "lon": -77.03228416666667, "type": "electric_scooter", "fusion_lat": 0.0, "lat": 38.914102666666665, "name": "d7bbd99d72ff6e1e541a5cd6e4e3bf30", "fusion_lon": 0.0, "bike_id": "d7bbd99d72ff6e1e541a5cd6e4e3bf30", "is_disabled": 0, "is_reserved": 0}, {"rental_uris": {"ios": "https://dc.lft.to/lastmile_qr_scan", "android": "https://dc.lft.to/lastmile_qr_scan"}, "lon": -76.94628333333333, "type": "electric_scooter", "fusion_lat": 0.0, "lat": 38.898453333333336, "name": "92d071aa83473bd19162291065c40dfe", "fusion_lon": 0.0, "bike_id": "92d071aa83473bd19162291065c40dfe", "is_disabled": 0, "is_reserved": 0}, {"rental_uris": {"ios": "https://dc.lft.to/lastmile_qr_scan", "android": "https://dc.lft.to/lastmile_qr_scan"}, "lon": -76.98352383333334, "type": "electric_scooter", "fusion_lat": 0.0, "lat": 38.915341166666664, "name": "9cd6a084c52906ea7e9b3c4ad66bf03b", "fusion_lon": 0.0, "bike_id": "9cd6a084c52906ea7e9b3c4ad66bf03b", "is_disabled": 0, "is_reserved": 0}, {"rental_uris": {"ios": "https://dc.lft.to/lastmile_qr_scan", "android": "https://dc.lft.to/lastmile_qr_scan"}, "lon": -76.999173, "type": "electric_scooter", "fusion_lat": 0.0, "lat": 38.90026533333333, "name": "dfeeb0af670907dc6045450edb7d179c", "fusion_lon": 0.0, "bike_id": "dfeeb0af670907dc6045450edb7d179c", "is_disabled": 0, "is_reserved": 0}, {"rental_uris": {"ios": "https://dc.lft.to/lastmile_qr_scan", "android": "https://dc.lft.to/lastmile_qr_scan"}, "lon": -77.00926933333334, "type": "electric_scooter", "fusion_lat": 0.0, "lat": 38.87361933333333, "name": "016496a5f454a25e072badaee794cc85", "fusion_lon": 0.0, "bike_id": "016496a5f454a25e072badaee794cc85", "is_disabled": 0, "is_reserved": 0}, {"rental_uris": {"ios": "https://dc.lft.to/lastmile_qr_scan", "android": "https://dc.lft.to/lastmile_qr_scan"}, "lon": -77.0256315, "type": "electric_scooter", "fusion_lat": 0.0, "lat": 38.90116533333333, "name": "bebe9915af870fa1dfdb31addb8091e0", "fusion_lon": 0.0, "bike_id": "bebe9915af870fa1dfdb31addb8091e0", "is_disabled": 0, "is_reserved": 0}, {"rental_uris": {"ios": "https://dc.lft.to/lastmile_qr_scan", "android": "https://dc.lft.to/lastmile_qr_scan"}, "lon": -77.0221145, "type": "electric_scooter", "fusion_lat": 0.0, "lat": 38.8840425, "name": "0c05675a97f000fee2a9fe750cd407f4", "fusion_lon": 0.0, "bike_id": "0c05675a97f000fee2a9fe750cd407f4", "is_disabled": 0, "is_reserved": 0}, {"rental_uris": {"ios": "https://dc.lft.to/lastmile_qr_scan", "android": "https://dc.lft.to/lastmile_qr_scan"}, "lon": -77.03210633333333, "type": "electric_scooter", "fusion_lat": 0.0, "lat": 38.91702883333333, "name": "b836136b52340d29262c120c55f90080", "fusion_lon": 0.0, "bike_id": "b836136b52340d29262c120c55f90080", "is_disabled": 0, "is_reserved": 0}, {"rental_uris": {"ios": "https://dc.lft.to/lastmile_qr_scan", "android": "https://dc.lft.to/lastmile_qr_scan"}, "lon": -77.14117983333334, "type": "electric_bike", "fusion_lat": 0.0, "lat": 38.816052, "name": "d5aa7152e283d291e32af77ba2f3b6c7", "fusion_lon": 0.0, "bike_id": "d5aa7152e283d291e32af77ba2f3b6c7", "is_disabled": 0, "is_reserved": 0}, {"rental_uris": {"ios": "https://dc.lft.to/lastmile_qr_scan", "android": "https://dc.lft.to/lastmile_qr_scan"}, "lon": -77.01156383333333, "type": "electric_scooter", "fusion_lat": 0.0, "lat": 38.915665, "name": "102dbe154301bc41b5688d31caac42da", "fusion_lon": 0.0, "bike_id": "102dbe154301bc41b5688d31caac42da", "is_disabled": 0, "is_reserved": 0}, {"rental_uris": {"ios": "https://dc.lft.to/lastmile_qr_scan", "android": "https://dc.lft.to/lastmile_qr_scan"}, "lon": -77.013589, "type": "electric_scooter", "fusion_lat": 0.0, "lat": 38.863745, "name": "6f4c9ec66841641aec13c17b52693e60", "fusion_lon": 0.0, "bike_id": "6f4c9ec66841641aec13c17b52693e60", "is_disabled": 0, "is_reserved": 0}, {"rental_uris": {"ios": "https://dc.lft.to/lastmile_qr_scan", "android": "https://dc.lft.to/lastmile_qr_scan"}, "lon": -77.00844816666667, "type": "electric_bike", "fusion_lat": 0.0, "lat": 38.94915233333333, "name": "d2323920464b633e3e004e2c7cfa9de7", "fusion_lon": 0.0, "bike_id": "d2323920464b633e3e004e2c7cfa9de7", "is_disabled": 0, "is_reserved": 0}, {"rental_uris": {"ios": "https://dc.lft.to/lastmile_qr_scan", "android": "https://dc.lft.to/lastmile_qr_scan"}, "lon": -77.045382, "type": "electric_scooter", "fusion_lat": 0.0, "lat": 38.911207166666664, "name": "7483909354a7139a4bec12cc3085eb85", "fusion_lon": 0.0, "bike_id": "7483909354a7139a4bec12cc3085eb85", "is_disabled": 0, "is_reserved": 0}, {"rental_uris": {"ios": "https://dc.lft.to/lastmile_qr_scan", "android": "https://dc.lft.to/lastmile_qr_scan"}, "lon": -77.01879466666666, "type": "electric_scooter", "fusion_lat": 0.0, "lat": 38.9009265, "name": "c5cd2ce31396f7bf8efbb572160c1d40", "fusion_lon": 0.0, "bike_id": "c5cd2ce31396f7bf8efbb572160c1d40", "is_disabled": 0, "is_reserved": 0}, {"rental_uris": {"ios": "https://dc.lft.to/lastmile_qr_scan", "android": "https://dc.lft.to/lastmile_qr_scan"}, "lon": -77.03391616666667, "type": "electric_scooter", "fusion_lat": 0.0, "lat": 38.91921033333333, "name": "19bdd31347f95eff9a4215e9f647a48e", "fusion_lon": 0.0, "bike_id": "19bdd31347f95eff9a4215e9f647a48e", "is_disabled": 0, "is_reserved": 0}, {"rental_uris": {"ios": "https://dc.lft.to/lastmile_qr_scan", "android": "https://dc.lft.to/lastmile_qr_scan"}, "lon": -77.04507016666666, "type": "electric_scooter", "fusion_lat": 0.0, "lat": 38.909595333333336, "name": "61e371b7bc474354f678183be3e1f381", "fusion_lon": 0.0, "bike_id": "61e371b7bc474354f678183be3e1f381", "is_disabled": 0, "is_reserved": 0}, {"rental_uris": {"ios": "https://dc.lft.to/lastmile_qr_scan", "android": "https://dc.lft.to/lastmile_qr_scan"}, "lon": -76.99518933333333, "type": "electric_scooter", "fusion_lat": 0.0, "lat": 38.862612166666665, "name": "0ff27a74ef9675f1d7f52d21c6ef0b89", "fusion_lon": 0.0, "bike_id": "0ff27a74ef9675f1d7f52d21c6ef0b89", "is_disabled": 0, "is_reserved": 0}, {"rental_uris": {"ios": "https://dc.lft.to/lastmile_qr_scan", "android": "https://dc.lft.to/lastmile_qr_scan"}, "lon": -77.02201666666667, "type": "electric_scooter", "fusion_lat": 0.0, "lat": 38.8926575, "name": "4c507a42032a988573534aef8fc9754c", "fusion_lon": 0.0, "bike_id": "4c507a42032a988573534aef8fc9754c", "is_disabled": 0, "is_reserved": 0}, {"rental_uris": {"ios": "https://dc.lft.to/lastmile_qr_scan", "android": "https://dc.lft.to/lastmile_qr_scan"}, "lon": -77.0058315, "type": "electric_scooter", "fusion_lat": 0.0, "lat": 38.874201, "name": "710b4fc1151e01f8c2c976c72ac15c13", "fusion_lon": 0.0, "bike_id": "710b4fc1151e01f8c2c976c72ac15c13", "is_disabled": 0, "is_reserved": 0}, {"rental_uris": {"ios": "https://dc.lft.to/lastmile_qr_scan", "android": "https://dc.lft.to/lastmile_qr_scan"}, "lon": -77.036589, "type": "electric_scooter", "fusion_lat": 0.0, "lat": 38.9549635, "name": "7ae1799b017c77adacf079b25eeadcfa", "fusion_lon": 0.0, "bike_id": "7ae1799b017c77adacf079b25eeadcfa", "is_disabled": 0, "is_reserved": 0}, {"rental_uris": {"ios": "https://dc.lft.to/lastmile_qr_scan", "android": "https://dc.lft.to/lastmile_qr_scan"}, "lon": -77.02280233333333, "type": "electric_scooter", "fusion_lat": 0.0, "lat": 38.91809516666667, "name": "8a0a8ef89a3f106e90eb4198f71a2f73", "fusion_lon": 0.0, "bike_id": "8a0a8ef89a3f106e90eb4198f71a2f73", "is_disabled": 0, "is_reserved": 0}, {"rental_uris": {"ios": "https://dc.lft.to/lastmile_qr_scan", "android": "https://dc.lft.to/lastmile_qr_scan"}, "lon": -77.03279833333333, "type": "electric_scooter", "fusion_lat": 0.0, "lat": 38.919115, "name": "eb690e48a40bab53db44796e4d3459f9", "fusion_lon": 0.0, "bike_id": "eb690e48a40bab53db44796e4d3459f9", "is_disabled": 0, "is_reserved": 0}, {"rental_uris": {"ios": "https://dc.lft.to/lastmile_qr_scan", "android": "https://dc.lft.to/lastmile_qr_scan"}, "lon": -77.10507383333334, "type": "electric_bike", "fusion_lat": 0.0, "lat": 38.92849983333333, "name": "25d6b8aef292a46b56c476ee68c89f8f", "fusion_lon": 0.0, "bike_id": "25d6b8aef292a46b56c476ee68c89f8f", "is_disabled": 0, "is_reserved": 0}, {"rental_uris": {"ios": "https://dc.lft.to/lastmile_qr_scan", "android": "https://dc.lft.to/lastmile_qr_scan"}, "lon": -77.00788483333334, "type": "electric_scooter", "fusion_lat": 0.0, "lat": 38.900473166666664, "name": "7d680300c72c51f61a98b6add6846229", "fusion_lon": 0.0, "bike_id": "7d680300c72c51f61a98b6add6846229", "is_disabled": 0, "is_reserved": 0}, {"rental_uris": {"ios": "https://dc.lft.to/lastmile_qr_scan", "android": "https://dc.lft.to/lastmile_qr_scan"}, "lon": -77.053602, "type": "electric_scooter", "fusion_lat": 0.0, "lat": 38.9271695, "name": "4767b9090aba6a0904666aa60712fcfe", "fusion_lon": 0.0, "bike_id": "4767b9090aba6a0904666aa60712fcfe", "is_disabled": 0, "is_reserved": 0}, {"rental_uris": {"ios": "https://dc.lft.to/lastmile_qr_scan", "android": "https://dc.lft.to/lastmile_qr_scan"}, "lon": -77.0893555, "type": "electric_bike", "fusion_lat": 0.0, "lat": 38.841022, "name": "5de785f423303dfbec0ddf135ac53e5b", "fusion_lon": 0.0, "bike_id": "5de785f423303dfbec0ddf135ac53e5b", "is_disabled": 0, "is_reserved": 0}, {"rental_uris": {"ios": "https://dc.lft.to/lastmile_qr_scan", "android": "https://dc.lft.to/lastmile_qr_scan"}, "lon": -77.031804, "type": "electric_scooter", "fusion_lat": 0.0, "lat": 38.893295, "name": "354792e84cdea5997f9af8c36fe22ff4", "fusion_lon": 0.0, "bike_id": "354792e84cdea5997f9af8c36fe22ff4", "is_disabled": 0, "is_reserved": 0}, {"rental_uris": {"ios": "https://dc.lft.to/lastmile_qr_scan", "android": "https://dc.lft.to/lastmile_qr_scan"}, "lon": -77.02957116666667, "type": "electric_scooter", "fusion_lat": 0.0, "lat": 38.91586, "name": "3f50a5ba071fd68cfdc4852d1d55a964", "fusion_lon": 0.0, "bike_id": "3f50a5ba071fd68cfdc4852d1d55a964", "is_disabled": 0, "is_reserved": 0}, {"rental_uris": {"ios": "https://dc.lft.to/lastmile_qr_scan", "android": "https://dc.lft.to/lastmile_qr_scan"}, "lon": -77.00277733333333, "type": "electric_scooter", "fusion_lat": 0.0, "lat": 38.89739266666667, "name": "1226156900834cf4abf31457f72d356c", "fusion_lon": 0.0, "bike_id": "1226156900834cf4abf31457f72d356c", "is_disabled": 0, "is_reserved": 0}, {"rental_uris": {"ios": "https://dc.lft.to/lastmile_qr_scan", "android": "https://dc.lft.to/lastmile_qr_scan"}, "lon": -77.04731216666667, "type": "electric_scooter", "fusion_lat": 0.0, "lat": 38.902267333333334, "name": "9a2f5d3c89579849116d46c7d58b56f2", "fusion_lon": 0.0, "bike_id": "9a2f5d3c89579849116d46c7d58b56f2", "is_disabled": 0, "is_reserved": 0}, {"rental_uris": {"ios": "https://dc.lft.to/lastmile_qr_scan", "android": "https://dc.lft.to/lastmile_qr_scan"}, "lon": -77.03202916666666, "type": "electric_scooter", "fusion_lat": 0.0, "lat": 38.91323333333333, "name": "0fe28fae836aacc3a2f1a74c3644d347", "fusion_lon": 0.0, "bike_id": "0fe28fae836aacc3a2f1a74c3644d347", "is_disabled": 0, "is_reserved": 0}, {"rental_uris": {"ios": "https://dc.lft.to/lastmile_qr_scan", "android": "https://dc.lft.to/lastmile_qr_scan"}, "lon": -77.048685, "type": "electric_scooter", "fusion_lat": 0.0, "lat": 38.903784, "name": "a272a174d6292235530b02bcbb57e7d5", "fusion_lon": 0.0, "bike_id": "a272a174d6292235530b02bcbb57e7d5", "is_disabled": 0, "is_reserved": 0}, {"rental_uris": {"ios": "https://dc.lft.to/lastmile_qr_scan", "android": "https://dc.lft.to/lastmile_qr_scan"}, "lon": -77.05179033333333, "type": "electric_scooter", "fusion_lat": 0.0, "lat": 38.9242605, "name": "47e9ea66cf9f4a88b6f278d797567989", "fusion_lon": 0.0, "bike_id": "47e9ea66cf9f4a88b6f278d797567989", "is_disabled": 0, "is_reserved": 0}, {"rental_uris": {"ios": "https://dc.lft.to/lastmile_qr_scan", "android": "https://dc.lft.to/lastmile_qr_scan"}, "lon": -77.15263766666666, "type": "electric_bike", "fusion_lat": 0.0, "lat": 39.10565283333333, "name": "9bcd33d12f27f319d6826ebcf708a328", "fusion_lon": 0.0, "bike_id": "9bcd33d12f27f319d6826ebcf708a328", "is_disabled": 0, "is_reserved": 0}, {"rental_uris": {"ios": "https://dc.lft.to/lastmile_qr_scan", "android": "https://dc.lft.to/lastmile_qr_scan"}, "lon": -77.03827583333333, "type": "electric_scooter", "fusion_lat": 0.0, "lat": 38.921734, "name": "fe4d6a919b498771be129386d0d7f536", "fusion_lon": 0.0, "bike_id": "fe4d6a919b498771be129386d0d7f536", "is_disabled": 0, "is_reserved": 0}, {"rental_uris": {"ios": "https://dc.lft.to/lastmile_qr_scan", "android": "https://dc.lft.to/lastmile_qr_scan"}, "lon": -77.02496, "type": "electric_scooter", "fusion_lat": 0.0, "lat": 38.880327, "name": "add5f8515dd232dd59c4d9ed04310a73", "fusion_lon": 0.0, "bike_id": "add5f8515dd232dd59c4d9ed04310a73", "is_disabled": 0, "is_reserved": 0}, {"rental_uris": {"ios": "https://dc.lft.to/lastmile_qr_scan", "android": "https://dc.lft.to/lastmile_qr_scan"}, "lon": -76.98326316666666, "type": "electric_scooter", "fusion_lat": 0.0, "lat": 38.861721333333335, "name": "dcc8b1fab5f19e0efa03c0d7107efd2d", "fusion_lon": 0.0, "bike_id": "dcc8b1fab5f19e0efa03c0d7107efd2d", "is_disabled": 0, "is_reserved": 0}, {"rental_uris": {"ios": "https://dc.lft.to/lastmile_qr_scan", "android": "https://dc.lft.to/lastmile_qr_scan"}, "lon": -76.996238, "type": "electric_scooter", "fusion_lat": 0.0, "lat": 38.8843945, "name": "85ae42b8efb421e7047476bdc4140600", "fusion_lon": 0.0, "bike_id": "85ae42b8efb421e7047476bdc4140600", "is_disabled": 0, "is_reserved": 0}, {"rental_uris": {"ios": "https://dc.lft.to/lastmile_qr_scan", "android": "https://dc.lft.to/lastmile_qr_scan"}, "lon": -76.957518, "type": "electric_scooter", "fusion_lat": 0.0, "lat": 38.88437783333333, "name": "f56282f34092845807725da284cb46ff", "fusion_lon": 0.0, "bike_id": "f56282f34092845807725da284cb46ff", "is_disabled": 0, "is_reserved": 0}, {"rental_uris": {"ios": "https://dc.lft.to/lastmile_qr_scan", "android": "https://dc.lft.to/lastmile_qr_scan"}, "lon": -76.9379155, "type": "electric_scooter", "fusion_lat": 0.0, "lat": 38.890903, "name": "a297f3713ad091688d8e661e3ecd4ddb", "fusion_lon": 0.0, "bike_id": "a297f3713ad091688d8e661e3ecd4ddb", "is_disabled": 0, "is_reserved": 0}, {"rental_uris": {"ios": "https://dc.lft.to/lastmile_qr_scan", "android": "https://dc.lft.to/lastmile_qr_scan"}, "lon": -77.03888316666666, "type": "electric_scooter", "fusion_lat": 0.0, "lat": 38.9221985, "name": "87136b352541ed417f2d209b4e98f274", "fusion_lon": 0.0, "bike_id": "87136b352541ed417f2d209b4e98f274", "is_disabled": 0, "is_reserved": 0}, {"rental_uris": {"ios": "https://dc.lft.to/lastmile_qr_scan", "android": "https://dc.lft.to/lastmile_qr_scan"}, "lon": -77.021745, "type": "electric_scooter", "fusion_lat": 0.0, "lat": 38.89711883333333, "name": "e3f29db3a47d9ac98d313b86982df7c0", "fusion_lon": 0.0, "bike_id": "e3f29db3a47d9ac98d313b86982df7c0", "is_disabled": 0, "is_reserved": 0}, {"rental_uris": {"ios": "https://dc.lft.to/lastmile_qr_scan", "android": "https://dc.lft.to/lastmile_qr_scan"}, "lon": -76.96502116666667, "type": "electric_scooter", "fusion_lat": 0.0, "lat": 38.876491333333334, "name": "e3e42923201a664b97188f4baa2db5a0", "fusion_lon": 0.0, "bike_id": "e3e42923201a664b97188f4baa2db5a0", "is_disabled": 0, "is_reserved": 0}, {"rental_uris": {"ios": "https://dc.lft.to/lastmile_qr_scan", "android": "https://dc.lft.to/lastmile_qr_scan"}, "lon": -77.03794716666667, "type": "electric_scooter", "fusion_lat": 0.0, "lat": 38.915443333333336, "name": "788bb67107205502a58e751d12e9cbd4", "fusion_lon": 0.0, "bike_id": "788bb67107205502a58e751d12e9cbd4", "is_disabled": 0, "is_reserved": 0}, {"rental_uris": {"ios": "https://dc.lft.to/lastmile_qr_scan", "android": "https://dc.lft.to/lastmile_qr_scan"}, "lon": -77.02607933333333, "type": "electric_scooter", "fusion_lat": 0.0, "lat": 38.91671516666667, "name": "13e228beef50ea2bd67119ca306852dd", "fusion_lon": 0.0, "bike_id": "13e228beef50ea2bd67119ca306852dd", "is_disabled": 0, "is_reserved": 0}, {"rental_uris": {"ios": "https://dc.lft.to/lastmile_qr_scan", "android": "https://dc.lft.to/lastmile_qr_scan"}, "lon": -77.07208883333334, "type": "electric_scooter", "fusion_lat": 0.0, "lat": 38.934629, "name": "d497c77abf09403ffc40dfa7736314ff", "fusion_lon": 0.0, "bike_id": "d497c77abf09403ffc40dfa7736314ff", "is_disabled": 0, "is_reserved": 0}, {"rental_uris": {"ios": "https://dc.lft.to/lastmile_qr_scan", "android": "https://dc.lft.to/lastmile_qr_scan"}, "lon": -77.0591655, "type": "electric_scooter", "fusion_lat": 0.0, "lat": 38.90453866666667, "name": "8bf4604d590ed02621f095aadf6ae66b", "fusion_lon": 0.0, "bike_id": "8bf4604d590ed02621f095aadf6ae66b", "is_disabled": 0, "is_reserved": 0}, {"rental_uris": {"ios": "https://dc.lft.to/lastmile_qr_scan", "android": "https://dc.lft.to/lastmile_qr_scan"}, "lon": -76.98018266666666, "type": "electric_scooter", "fusion_lat": 0.0, "lat": 38.88766666666667, "name": "ff752353047d37080c005e2df1fcd3a8", "fusion_lon": 0.0, "bike_id": "ff752353047d37080c005e2df1fcd3a8", "is_disabled": 0, "is_reserved": 0}, {"rental_uris": {"ios": "https://dc.lft.to/lastmile_qr_scan", "android": "https://dc.lft.to/lastmile_qr_scan"}, "lon": -77.01748166666667, "type": "electric_scooter", "fusion_lat": 0.0, "lat": 38.886044166666665, "name": "da6187e5d63a599430347def99bde3ce", "fusion_lon": 0.0, "bike_id": "da6187e5d63a599430347def99bde3ce", "is_disabled": 0, "is_reserved": 0}, {"rental_uris": {"ios": "https://dc.lft.to/lastmile_qr_scan", "android": "https://dc.lft.to/lastmile_qr_scan"}, "lon": -77.02524133333333, "type": "electric_scooter", "fusion_lat": 0.0, "lat": 38.94300366666667, "name": "db87ec0cd00ce6d541b2219e7422bb61", "fusion_lon": 0.0, "bike_id": "db87ec0cd00ce6d541b2219e7422bb61", "is_disabled": 0, "is_reserved": 0}, {"rental_uris": {"ios": "https://dc.lft.to/lastmile_qr_scan", "android": "https://dc.lft.to/lastmile_qr_scan"}, "lon": -77.015617, "type": "electric_bike", "fusion_lat": 0.0, "lat": 38.93947683333333, "name": "b668f61b4068fa8a6fd16b72cbc495fe", "fusion_lon": 0.0, "bike_id": "b668f61b4068fa8a6fd16b72cbc495fe", "is_disabled": 0, "is_reserved": 0}, {"rental_uris": {"ios": "https://dc.lft.to/lastmile_qr_scan", "android": "https://dc.lft.to/lastmile_qr_scan"}, "lon": -77.00336266666666, "type": "electric_scooter", "fusion_lat": 0.0, "lat": 38.907235166666666, "name": "005b3a4a8b906004d18c8c400372f572", "fusion_lon": 0.0, "bike_id": "005b3a4a8b906004d18c8c400372f572", "is_disabled": 0, "is_reserved": 0}, {"rental_uris": {"ios": "https://dc.lft.to/lastmile_qr_scan", "android": "https://dc.lft.to/lastmile_qr_scan"}, "lon": -77.02633533333334, "type": "electric_scooter", "fusion_lat": 0.0, "lat": 38.93042916666667, "name": "2bfc7664cff95d316fa2e1f2c4251bb7", "fusion_lon": 0.0, "bike_id": "2bfc7664cff95d316fa2e1f2c4251bb7", "is_disabled": 0, "is_reserved": 0}, {"rental_uris": {"ios": "https://dc.lft.to/lastmile_qr_scan", "android": "https://dc.lft.to/lastmile_qr_scan"}, "lon": -77.04038516666667, "type": "electric_scooter", "fusion_lat": 0.0, "lat": 38.9247535, "name": "10f2cda21ecda5a7a6454f21bbf28065", "fusion_lon": 0.0, "bike_id": "10f2cda21ecda5a7a6454f21bbf28065", "is_disabled": 0, "is_reserved": 0}, {"rental_uris": {"ios": "https://dc.lft.to/lastmile_qr_scan", "android": "https://dc.lft.to/lastmile_qr_scan"}, "lon": -77.04620033333333, "type": "electric_scooter", "fusion_lat": 0.0, "lat": 38.9163295, "name": "a4fb55fd4d694fe0162723a7b8a36167", "fusion_lon": 0.0, "bike_id": "a4fb55fd4d694fe0162723a7b8a36167", "is_disabled": 0, "is_reserved": 0}, {"rental_uris": {"ios": "https://dc.lft.to/lastmile_qr_scan", "android": "https://dc.lft.to/lastmile_qr_scan"}, "lon": -76.95446283333334, "type": "electric_bike", "fusion_lat": 0.0, "lat": 38.92091666666666, "name": "04105c4045139e93d543842631d82a19", "fusion_lon": 0.0, "bike_id": "04105c4045139e93d543842631d82a19", "is_disabled": 0, "is_reserved": 0}, {"rental_uris": {"ios": "https://dc.lft.to/lastmile_qr_scan", "android": "https://dc.lft.to/lastmile_qr_scan"}, "lon": -77.0428265, "type": "electric_scooter", "fusion_lat": 0.0, "lat": 38.907983333333334, "name": "4dcf6ece85a773a57a7229c38445792e", "fusion_lon": 0.0, "bike_id": "4dcf6ece85a773a57a7229c38445792e", "is_disabled": 0, "is_reserved": 0}, {"rental_uris": {"ios": "https://dc.lft.to/lastmile_qr_scan", "android": "https://dc.lft.to/lastmile_qr_scan"}, "lon": -77.016933, "type": "electric_scooter", "fusion_lat": 0.0, "lat": 38.901346333333336, "name": "4c113bd9bb2afd752a533a864ec39251", "fusion_lon": 0.0, "bike_id": "4c113bd9bb2afd752a533a864ec39251", "is_disabled": 0, "is_reserved": 0}, {"rental_uris": {"ios": "https://dc.lft.to/lastmile_qr_scan", "android": "https://dc.lft.to/lastmile_qr_scan"}, "lon": -77.063244, "type": "electric_scooter", "fusion_lat": 0.0, "lat": 38.90510733333333, "name": "5e372519e256a43e0f9f390bb2a51994", "fusion_lon": 0.0, "bike_id": "5e372519e256a43e0f9f390bb2a51994", "is_disabled": 0, "is_reserved": 0}, {"rental_uris": {"ios": "https://dc.lft.to/lastmile_qr_scan", "android": "https://dc.lft.to/lastmile_qr_scan"}, "lon": -77.00050916666666, "type": "electric_scooter", "fusion_lat": 0.0, "lat": 38.90871216666667, "name": "3a0b6ef7a6e0f1a6a7ac6920d0c2ef27", "fusion_lon": 0.0, "bike_id": "3a0b6ef7a6e0f1a6a7ac6920d0c2ef27", "is_disabled": 0, "is_reserved": 0}, {"rental_uris": {"ios": "https://dc.lft.to/lastmile_qr_scan", "android": "https://dc.lft.to/lastmile_qr_scan"}, "lon": -77.0088065, "type": "electric_scooter", "fusion_lat": 0.0, "lat": 38.90525366666667, "name": "6712b16f97f0201211906b119746b2e6", "fusion_lon": 0.0, "bike_id": "6712b16f97f0201211906b119746b2e6", "is_disabled": 0, "is_reserved": 0}, {"rental_uris": {"ios": "https://dc.lft.to/lastmile_qr_scan", "android": "https://dc.lft.to/lastmile_qr_scan"}, "lon": -76.9518485, "type": "electric_scooter", "fusion_lat": 0.0, "lat": 38.8913635, "name": "8b8e7ede4f998b5b58e1f55dbc630524", "fusion_lon": 0.0, "bike_id": "8b8e7ede4f998b5b58e1f55dbc630524", "is_disabled": 0, "is_reserved": 0}, {"rental_uris": {"ios": "https://dc.lft.to/lastmile_qr_scan", "android": "https://dc.lft.to/lastmile_qr_scan"}, "lon": -77.0431065, "type": "electric_scooter", "fusion_lat": 0.0, "lat": 38.92374683333333, "name": "a367996ab61f814a308f96ee17450caa", "fusion_lon": 0.0, "bike_id": "a367996ab61f814a308f96ee17450caa", "is_disabled": 0, "is_reserved": 0}, {"rental_uris": {"ios": "https://dc.lft.to/lastmile_qr_scan", "android": "https://dc.lft.to/lastmile_qr_scan"}, "lon": -77.02500133333334, "type": "electric_scooter", "fusion_lat": 0.0, "lat": 38.901581166666666, "name": "cba9a234b2978c6567e491cad66f01c6", "fusion_lon": 0.0, "bike_id": "cba9a234b2978c6567e491cad66f01c6", "is_disabled": 0, "is_reserved": 0}, {"rental_uris": {"ios": "https://dc.lft.to/lastmile_qr_scan", "android": "https://dc.lft.to/lastmile_qr_scan"}, "lon": -77.01640966666666, "type": "electric_scooter", "fusion_lat": 0.0, "lat": 38.9293685, "name": "a052ebb4105ceac099d34ee15c9b3f07", "fusion_lon": 0.0, "bike_id": "a052ebb4105ceac099d34ee15c9b3f07", "is_disabled": 0, "is_reserved": 0}, {"rental_uris": {"ios": "https://dc.lft.to/lastmile_qr_scan", "android": "https://dc.lft.to/lastmile_qr_scan"}, "lon": -77.06038083333334, "type": "electric_scooter", "fusion_lat": 0.0, "lat": 38.90525683333333, "name": "fb3bc409350b8a464d1751725f9b0107", "fusion_lon": 0.0, "bike_id": "fb3bc409350b8a464d1751725f9b0107", "is_disabled": 0, "is_reserved": 0}, {"rental_uris": {"ios": "https://dc.lft.to/lastmile_qr_scan", "android": "https://dc.lft.to/lastmile_qr_scan"}, "lon": -77.03514216666666, "type": "electric_scooter", "fusion_lat": 0.0, "lat": 38.906829333333334, "name": "0a2931e126badb59eb9d0abee9c7b399", "fusion_lon": 0.0, "bike_id": "0a2931e126badb59eb9d0abee9c7b399", "is_disabled": 0, "is_reserved": 0}, {"rental_uris": {"ios": "https://dc.lft.to/lastmile_qr_scan", "android": "https://dc.lft.to/lastmile_qr_scan"}, "lon": -77.02792333333333, "type": "electric_scooter", "fusion_lat": 0.0, "lat": 38.89714566666667, "name": "75f0e2476ebff07c964a0990c0ee1a8a", "fusion_lon": 0.0, "bike_id": "75f0e2476ebff07c964a0990c0ee1a8a", "is_disabled": 0, "is_reserved": 0}, {"rental_uris": {"ios": "https://dc.lft.to/lastmile_qr_scan", "android": "https://dc.lft.to/lastmile_qr_scan"}, "lon": -77.022294, "type": "electric_scooter", "fusion_lat": 0.0, "lat": 38.9165215, "name": "aecbc3653869f7162800d55d05fef2ed", "fusion_lon": 0.0, "bike_id": "aecbc3653869f7162800d55d05fef2ed", "is_disabled": 0, "is_reserved": 0}, {"rental_uris": {"ios": "https://dc.lft.to/lastmile_qr_scan", "android": "https://dc.lft.to/lastmile_qr_scan"}, "lon": -77.02277516666666, "type": "electric_scooter", "fusion_lat": 0.0, "lat": 38.916893, "name": "10983eb8d7818403547b5cf3e871e61d", "fusion_lon": 0.0, "bike_id": "10983eb8d7818403547b5cf3e871e61d", "is_disabled": 0, "is_reserved": 0}, {"rental_uris": {"ios": "https://dc.lft.to/lastmile_qr_scan", "android": "https://dc.lft.to/lastmile_qr_scan"}, "lon": -76.9417795, "type": "electric_scooter", "fusion_lat": 0.0, "lat": 38.882227, "name": "d461993a21896ddea6ea69ee32f8d48e", "fusion_lon": 0.0, "bike_id": "d461993a21896ddea6ea69ee32f8d48e", "is_disabled": 0, "is_reserved": 0}, {"rental_uris": {"ios": "https://dc.lft.to/lastmile_qr_scan", "android": "https://dc.lft.to/lastmile_qr_scan"}, "lon": -77.0547455, "type": "electric_scooter", "fusion_lat": 0.0, "lat": 38.92096383333333, "name": "a077f37632a4cbe5a82bcabd3b40808f", "fusion_lon": 0.0, "bike_id": "a077f37632a4cbe5a82bcabd3b40808f", "is_disabled": 0, "is_reserved": 0}, {"rental_uris": {"ios": "https://dc.lft.to/lastmile_qr_scan", "android": "https://dc.lft.to/lastmile_qr_scan"}, "lon": -76.947365, "type": "electric_scooter", "fusion_lat": 0.0, "lat": 38.897078666666665, "name": "4f83d80c7bc4c7b28cce2554f7d1c271", "fusion_lon": 0.0, "bike_id": "4f83d80c7bc4c7b28cce2554f7d1c271", "is_disabled": 0, "is_reserved": 0}, {"rental_uris": {"ios": "https://dc.lft.to/lastmile_qr_scan", "android": "https://dc.lft.to/lastmile_qr_scan"}, "lon": -77.06112883333333, "type": "electric_scooter", "fusion_lat": 0.0, "lat": 38.912820333333336, "name": "8317bd8dbe5de7f79de1ea55efce5bda", "fusion_lon": 0.0, "bike_id": "8317bd8dbe5de7f79de1ea55efce5bda", "is_disabled": 0, "is_reserved": 0}, {"rental_uris": {"ios": "https://dc.lft.to/lastmile_qr_scan", "android": "https://dc.lft.to/lastmile_qr_scan"}, "lon": -76.98711566666667, "type": "electric_scooter", "fusion_lat": 0.0, "lat": 38.86259666666667, "name": "c4855234c84a2fab0971f64563fd2c9f", "fusion_lon": 0.0, "bike_id": "c4855234c84a2fab0971f64563fd2c9f", "is_disabled": 0, "is_reserved": 0}, {"rental_uris": {"ios": "https://dc.lft.to/lastmile_qr_scan", "android": "https://dc.lft.to/lastmile_qr_scan"}, "lon": -77.04656983333334, "type": "electric_scooter", "fusion_lat": 0.0, "lat": 38.919147, "name": "8befe6ad7956a80a946836eaca571583", "fusion_lon": 0.0, "bike_id": "8befe6ad7956a80a946836eaca571583", "is_disabled": 0, "is_reserved": 0}, {"rental_uris": {"ios": "https://dc.lft.to/lastmile_qr_scan", "android": "https://dc.lft.to/lastmile_qr_scan"}, "lon": -77.13593916666666, "type": "electric_bike", "fusion_lat": 0.0, "lat": 39.053470833333336, "name": "5f32de91ee26f80d6e669f3019b98f89", "fusion_lon": 0.0, "bike_id": "5f32de91ee26f80d6e669f3019b98f89", "is_disabled": 0, "is_reserved": 0}, {"rental_uris": {"ios": "https://dc.lft.to/lastmile_qr_scan", "android": "https://dc.lft.to/lastmile_qr_scan"}, "lon": -77.03337933333333, "type": "electric_scooter", "fusion_lat": 0.0, "lat": 38.919194166666664, "name": "ee287938507a9656f3c11cb046a96acb", "fusion_lon": 0.0, "bike_id": "ee287938507a9656f3c11cb046a96acb", "is_disabled": 0, "is_reserved": 0}, {"rental_uris": {"ios": "https://dc.lft.to/lastmile_qr_scan", "android": "https://dc.lft.to/lastmile_qr_scan"}, "lon": -77.01255933333333, "type": "electric_scooter", "fusion_lat": 0.0, "lat": 38.8996665, "name": "c4150c0ecc6cae5875820e65b2224044", "fusion_lon": 0.0, "bike_id": "c4150c0ecc6cae5875820e65b2224044", "is_disabled": 0, "is_reserved": 0}, {"rental_uris": {"ios": "https://dc.lft.to/lastmile_qr_scan", "android": "https://dc.lft.to/lastmile_qr_scan"}, "lon": -76.9900315, "type": "electric_scooter", "fusion_lat": 0.0, "lat": 38.865076333333334, "name": "1b029f0f224b8695c3670e343c5dff45", "fusion_lon": 0.0, "bike_id": "1b029f0f224b8695c3670e343c5dff45", "is_disabled": 0, "is_reserved": 0}, {"rental_uris": {"ios": "https://dc.lft.to/lastmile_qr_scan", "android": "https://dc.lft.to/lastmile_qr_scan"}, "lon": -77.00595066666666, "type": "electric_scooter", "fusion_lat": 0.0, "lat": 38.90585083333333, "name": "779d3e7a0fe294fd00cfeacd72539b9b", "fusion_lon": 0.0, "bike_id": "779d3e7a0fe294fd00cfeacd72539b9b", "is_disabled": 0, "is_reserved": 0}, {"rental_uris": {"ios": "https://dc.lft.to/lastmile_qr_scan", "android": "https://dc.lft.to/lastmile_qr_scan"}, "lon": -77.04072866666667, "type": "electric_scooter", "fusion_lat": 0.0, "lat": 38.91726233333333, "name": "8ac410929c7a266f1d579286812b4d11", "fusion_lon": 0.0, "bike_id": "8ac410929c7a266f1d579286812b4d11", "is_disabled": 0, "is_reserved": 0}, {"rental_uris": {"ios": "https://dc.lft.to/lastmile_qr_scan", "android": "https://dc.lft.to/lastmile_qr_scan"}, "lon": -76.98628833333333, "type": "electric_scooter", "fusion_lat": 0.0, "lat": 38.868223, "name": "b841164dd274b24dc2988b8da0e82e94", "fusion_lon": 0.0, "bike_id": "b841164dd274b24dc2988b8da0e82e94", "is_disabled": 0, "is_reserved": 0}, {"rental_uris": {"ios": "https://dc.lft.to/lastmile_qr_scan", "android": "https://dc.lft.to/lastmile_qr_scan"}, "lon": -77.06605483333334, "type": "electric_scooter", "fusion_lat": 0.0, "lat": 38.90538683333333, "name": "d8d43c05c0d2610dd02e7706e7878150", "fusion_lon": 0.0, "bike_id": "d8d43c05c0d2610dd02e7706e7878150", "is_disabled": 0, "is_reserved": 0}, {"rental_uris": {"ios": "https://dc.lft.to/lastmile_qr_scan", "android": "https://dc.lft.to/lastmile_qr_scan"}, "lon": -77.0292515, "type": "electric_scooter", "fusion_lat": 0.0, "lat": 38.882193, "name": "2b6c772a472a0943d46c6c8464b60f74", "fusion_lon": 0.0, "bike_id": "2b6c772a472a0943d46c6c8464b60f74", "is_disabled": 0, "is_reserved": 0}, {"rental_uris": {"ios": "https://dc.lft.to/lastmile_qr_scan", "android": "https://dc.lft.to/lastmile_qr_scan"}, "lon": -77.01799166666666, "type": "electric_bike", "fusion_lat": 0.0, "lat": 38.90292066666667, "name": "efe8c007fec4625aa51ebd9ca18b0f86", "fusion_lon": 0.0, "bike_id": "efe8c007fec4625aa51ebd9ca18b0f86", "is_disabled": 0, "is_reserved": 0}, {"rental_uris": {"ios": "https://dc.lft.to/lastmile_qr_scan", "android": "https://dc.lft.to/lastmile_qr_scan"}, "lon": -76.99750533333334, "type": "electric_scooter", "fusion_lat": 0.0, "lat": 38.90943566666667, "name": "a0bcf967236385a798486a7b4bde6516", "fusion_lon": 0.0, "bike_id": "a0bcf967236385a798486a7b4bde6516", "is_disabled": 0, "is_reserved": 0}, {"rental_uris": {"ios": "https://dc.lft.to/lastmile_qr_scan", "android": "https://dc.lft.to/lastmile_qr_scan"}, "lon": -77.018684, "type": "electric_scooter", "fusion_lat": 0.0, "lat": 38.948908833333334, "name": "74d05edc67caf9bbab01d899508e9ba7", "fusion_lon": 0.0, "bike_id": "74d05edc67caf9bbab01d899508e9ba7", "is_disabled": 0, "is_reserved": 0}, {"rental_uris": {"ios": "https://dc.lft.to/lastmile_qr_scan", "android": "https://dc.lft.to/lastmile_qr_scan"}, "lon": -77.04775966666666, "type": "electric_scooter", "fusion_lat": 0.0, "lat": 38.8977485, "name": "6891978dcb8b41d5d17037fa7e1fc1db", "fusion_lon": 0.0, "bike_id": "6891978dcb8b41d5d17037fa7e1fc1db", "is_disabled": 0, "is_reserved": 0}, {"rental_uris": {"ios": "https://dc.lft.to/lastmile_qr_scan", "android": "https://dc.lft.to/lastmile_qr_scan"}, "lon": -77.04616, "type": "electric_scooter", "fusion_lat": 0.0, "lat": 38.90264116666667, "name": "5763b69283b4e51b00bb954fb5642050", "fusion_lon": 0.0, "bike_id": "5763b69283b4e51b00bb954fb5642050", "is_disabled": 0, "is_reserved": 0}, {"rental_uris": {"ios": "https://dc.lft.to/lastmile_qr_scan", "android": "https://dc.lft.to/lastmile_qr_scan"}, "lon": -77.021952, "type": "electric_scooter", "fusion_lat": 0.0, "lat": 38.914874166666664, "name": "967484da80df73100c4de5a36daefbf6", "fusion_lon": 0.0, "bike_id": "967484da80df73100c4de5a36daefbf6", "is_disabled": 0, "is_reserved": 0}, {"rental_uris": {"ios": "https://dc.lft.to/lastmile_qr_scan", "android": "https://dc.lft.to/lastmile_qr_scan"}, "lon": -77.00102266666667, "type": "electric_scooter", "fusion_lat": 0.0, "lat": 38.894293, "name": "a12cdd962b3b1d9fcdeb4c9a93bf291b", "fusion_lon": 0.0, "bike_id": "a12cdd962b3b1d9fcdeb4c9a93bf291b", "is_disabled": 0, "is_reserved": 0}, {"rental_uris": {"ios": "https://dc.lft.to/lastmile_qr_scan", "android": "https://dc.lft.to/lastmile_qr_scan"}, "lon": -77.07356816666666, "type": "electric_scooter", "fusion_lat": 0.0, "lat": 38.9373415, "name": "712d79e0c4e8f87dbb6691c1f46dc8b0", "fusion_lon": 0.0, "bike_id": "712d79e0c4e8f87dbb6691c1f46dc8b0", "is_disabled": 0, "is_reserved": 0}, {"rental_uris": {"ios": "https://dc.lft.to/lastmile_qr_scan", "android": "https://dc.lft.to/lastmile_qr_scan"}, "lon": -76.96525866666667, "type": "electric_scooter", "fusion_lat": 0.0, "lat": 38.87628933333333, "name": "10c8f71d7a93480b7bbfa5aab065d6d3", "fusion_lon": 0.0, "bike_id": "10c8f71d7a93480b7bbfa5aab065d6d3", "is_disabled": 0, "is_reserved": 0}, {"rental_uris": {"ios": "https://dc.lft.to/lastmile_qr_scan", "android": "https://dc.lft.to/lastmile_qr_scan"}, "lon": -76.9761725, "type": "electric_bike", "fusion_lat": 0.0, "lat": 38.8929335, "name": "0ffc7b6b433e146b2ca661bbb262ae30", "fusion_lon": 0.0, "bike_id": "0ffc7b6b433e146b2ca661bbb262ae30", "is_disabled": 0, "is_reserved": 0}, {"rental_uris": {"ios": "https://dc.lft.to/lastmile_qr_scan", "android": "https://dc.lft.to/lastmile_qr_scan"}, "lon": -77.09877066666667, "type": "electric_bike", "fusion_lat": 0.0, "lat": 38.94790916666667, "name": "630124ad6ff5a910b251986f54b564ce", "fusion_lon": 0.0, "bike_id": "630124ad6ff5a910b251986f54b564ce", "is_disabled": 0, "is_reserved": 0}, {"rental_uris": {"ios": "https://dc.lft.to/lastmile_qr_scan", "android": "https://dc.lft.to/lastmile_qr_scan"}, "lon": -77.0223565, "type": "electric_scooter", "fusion_lat": 0.0, "lat": 38.90225616666667, "name": "832c71aa110ad40521ea66ac5a16947c", "fusion_lon": 0.0, "bike_id": "832c71aa110ad40521ea66ac5a16947c", "is_disabled": 0, "is_reserved": 0}, {"rental_uris": {"ios": "https://dc.lft.to/lastmile_qr_scan", "android": "https://dc.lft.to/lastmile_qr_scan"}, "lon": -77.00334533333333, "type": "electric_scooter", "fusion_lat": 0.0, "lat": 38.8749615, "name": "8e1d0685061071815e8794a76fe162f3", "fusion_lon": 0.0, "bike_id": "8e1d0685061071815e8794a76fe162f3", "is_disabled": 0, "is_reserved": 0}, {"rental_uris": {"ios": "https://dc.lft.to/lastmile_qr_scan", "android": "https://dc.lft.to/lastmile_qr_scan"}, "lon": -77.0628225, "type": "electric_scooter", "fusion_lat": 0.0, "lat": 38.90550833333333, "name": "938e9481bfde2a65a0eb88cb8dddec0f", "fusion_lon": 0.0, "bike_id": "938e9481bfde2a65a0eb88cb8dddec0f", "is_disabled": 0, "is_reserved": 0}, {"rental_uris": {"ios": "https://dc.lft.to/lastmile_qr_scan", "android": "https://dc.lft.to/lastmile_qr_scan"}, "lon": -76.92371083333333, "type": "electric_bike", "fusion_lat": 0.0, "lat": 38.883752, "name": "3c3a2511616ae465ab171ce38f8aa68f", "fusion_lon": 0.0, "bike_id": "3c3a2511616ae465ab171ce38f8aa68f", "is_disabled": 0, "is_reserved": 0}, {"rental_uris": {"ios": "https://dc.lft.to/lastmile_qr_scan", "android": "https://dc.lft.to/lastmile_qr_scan"}, "lon": -77.07084916666666, "type": "electric_bike", "fusion_lat": 0.0, "lat": 38.95558333333334, "name": "3be560b1b3a1073117a1f444b85d98ee", "fusion_lon": 0.0, "bike_id": "3be560b1b3a1073117a1f444b85d98ee", "is_disabled": 0, "is_reserved": 0}, {"rental_uris": {"ios": "https://dc.lft.to/lastmile_qr_scan", "android": "https://dc.lft.to/lastmile_qr_scan"}, "lon": -77.030826, "type": "electric_scooter", "fusion_lat": 0.0, "lat": 38.922495833333336, "name": "16d160cc36b57cd1a9c9a31e3634936a", "fusion_lon": 0.0, "bike_id": "16d160cc36b57cd1a9c9a31e3634936a", "is_disabled": 0, "is_reserved": 0}, {"rental_uris": {"ios": "https://dc.lft.to/lastmile_qr_scan", "android": "https://dc.lft.to/lastmile_qr_scan"}, "lon": -77.03468916666667, "type": "electric_scooter", "fusion_lat": 0.0, "lat": 38.902767833333336, "name": "954a09e3218d7d6fe75868803771079e", "fusion_lon": 0.0, "bike_id": "954a09e3218d7d6fe75868803771079e", "is_disabled": 0, "is_reserved": 0}, {"rental_uris": {"ios": "https://dc.lft.to/lastmile_qr_scan", "android": "https://dc.lft.to/lastmile_qr_scan"}, "lon": -77.02378866666666, "type": "electric_scooter", "fusion_lat": 0.0, "lat": 38.9205245, "name": "0593fc9d3aedffceca5326c667f755c5", "fusion_lon": 0.0, "bike_id": "0593fc9d3aedffceca5326c667f755c5", "is_disabled": 0, "is_reserved": 0}, {"rental_uris": {"ios": "https://dc.lft.to/lastmile_qr_scan", "android": "https://dc.lft.to/lastmile_qr_scan"}, "lon": -77.032073, "type": "electric_scooter", "fusion_lat": 0.0, "lat": 38.90489916666667, "name": "eb656e712f1bcc5ed22c5710f9380762", "fusion_lon": 0.0, "bike_id": "eb656e712f1bcc5ed22c5710f9380762", "is_disabled": 0, "is_reserved": 0}, {"rental_uris": {"ios": "https://dc.lft.to/lastmile_qr_scan", "android": "https://dc.lft.to/lastmile_qr_scan"}, "lon": -76.99047666666667, "type": "electric_bike", "fusion_lat": 0.0, "lat": 38.924798, "name": "8e06c0e035510e4579c30e954c893c55", "fusion_lon": 0.0, "bike_id": "8e06c0e035510e4579c30e954c893c55", "is_disabled": 0, "is_reserved": 0}, {"rental_uris": {"ios": "https://dc.lft.to/lastmile_qr_scan", "android": "https://dc.lft.to/lastmile_qr_scan"}, "lon": -77.022573, "type": "electric_scooter", "fusion_lat": 0.0, "lat": 38.898455, "name": "7713209a12f81eacfe1a310775b46cf7", "fusion_lon": 0.0, "bike_id": "7713209a12f81eacfe1a310775b46cf7", "is_disabled": 0, "is_reserved": 0}, {"rental_uris": {"ios": "https://dc.lft.to/lastmile_qr_scan", "android": "https://dc.lft.to/lastmile_qr_scan"}, "lon": -77.02204316666666, "type": "electric_scooter", "fusion_lat": 0.0, "lat": 38.9215375, "name": "bc44916d5208ee46bd816911107efb28", "fusion_lon": 0.0, "bike_id": "bc44916d5208ee46bd816911107efb28", "is_disabled": 0, "is_reserved": 0}, {"rental_uris": {"ios": "https://dc.lft.to/lastmile_qr_scan", "android": "https://dc.lft.to/lastmile_qr_scan"}, "lon": -76.931735, "type": "electric_scooter", "fusion_lat": 0.0, "lat": 38.8988845, "name": "5522163572e383d4635a162663757519", "fusion_lon": 0.0, "bike_id": "5522163572e383d4635a162663757519", "is_disabled": 0, "is_reserved": 0}, {"rental_uris": {"ios": "https://dc.lft.to/lastmile_qr_scan", "android": "https://dc.lft.to/lastmile_qr_scan"}, "lon": -77.03310083333334, "type": "electric_scooter", "fusion_lat": 0.0, "lat": 38.901435, "name": "1cfea2d442b7e61aaaa6b37c212e7a5b", "fusion_lon": 0.0, "bike_id": "1cfea2d442b7e61aaaa6b37c212e7a5b", "is_disabled": 0, "is_reserved": 0}, {"rental_uris": {"ios": "https://dc.lft.to/lastmile_qr_scan", "android": "https://dc.lft.to/lastmile_qr_scan"}, "lon": -77.01547266666667, "type": "electric_scooter", "fusion_lat": 0.0, "lat": 38.902465666666664, "name": "79dbe4b6d9101a8f5c95c2d9024ab4ce", "fusion_lon": 0.0, "bike_id": "79dbe4b6d9101a8f5c95c2d9024ab4ce", "is_disabled": 0, "is_reserved": 0}, {"rental_uris": {"ios": "https://dc.lft.to/lastmile_qr_scan", "android": "https://dc.lft.to/lastmile_qr_scan"}, "lon": -77.01997466666667, "type": "electric_scooter", "fusion_lat": 0.0, "lat": 38.914211, "name": "24af4128d48a69cce982603f17b732de", "fusion_lon": 0.0, "bike_id": "24af4128d48a69cce982603f17b732de", "is_disabled": 0, "is_reserved": 0}, {"rental_uris": {"ios": "https://dc.lft.to/lastmile_qr_scan", "android": "https://dc.lft.to/lastmile_qr_scan"}, "lon": -77.04447816666666, "type": "electric_scooter", "fusion_lat": 0.0, "lat": 38.918719833333334, "name": "dc50b913e70a1e59e5efba664359875e", "fusion_lon": 0.0, "bike_id": "dc50b913e70a1e59e5efba664359875e", "is_disabled": 0, "is_reserved": 0}, {"rental_uris": {"ios": "https://dc.lft.to/lastmile_qr_scan", "android": "https://dc.lft.to/lastmile_qr_scan"}, "lon": -77.04479316666666, "type": "electric_scooter", "fusion_lat": 0.0, "lat": 38.9126815, "name": "50679de06b79789600beb8ab7993d53e", "fusion_lon": 0.0, "bike_id": "50679de06b79789600beb8ab7993d53e", "is_disabled": 0, "is_reserved": 0}, {"rental_uris": {"ios": "https://dc.lft.to/lastmile_qr_scan", "android": "https://dc.lft.to/lastmile_qr_scan"}, "lon": -77.043658, "type": "electric_scooter", "fusion_lat": 0.0, "lat": 38.920914833333335, "name": "8bbda7f9efe4c4e8ca09e90c3460c3f5", "fusion_lon": 0.0, "bike_id": "8bbda7f9efe4c4e8ca09e90c3460c3f5", "is_disabled": 0, "is_reserved": 0}, {"rental_uris": {"ios": "https://dc.lft.to/lastmile_qr_scan", "android": "https://dc.lft.to/lastmile_qr_scan"}, "lon": -77.10967766666667, "type": "electric_bike", "fusion_lat": 0.0, "lat": 38.8130375, "name": "64a6690c481fadcc0026fe95a728133f", "fusion_lon": 0.0, "bike_id": "64a6690c481fadcc0026fe95a728133f", "is_disabled": 0, "is_reserved": 0}, {"rental_uris": {"ios": "https://dc.lft.to/lastmile_qr_scan", "android": "https://dc.lft.to/lastmile_qr_scan"}, "lon": -77.058111, "type": "electric_scooter", "fusion_lat": 0.0, "lat": 38.90297983333333, "name": "dac0efe4f8bf667c5bb016fecdc88982", "fusion_lon": 0.0, "bike_id": "dac0efe4f8bf667c5bb016fecdc88982", "is_disabled": 0, "is_reserved": 0}, {"rental_uris": {"ios": "https://dc.lft.to/lastmile_qr_scan", "android": "https://dc.lft.to/lastmile_qr_scan"}, "lon": -76.97327066666666, "type": "electric_scooter", "fusion_lat": 0.0, "lat": 38.90482083333333, "name": "0b34240c38f8fe95c3128e558601689e", "fusion_lon": 0.0, "bike_id": "0b34240c38f8fe95c3128e558601689e", "is_disabled": 0, "is_reserved": 0}, {"rental_uris": {"ios": "https://dc.lft.to/lastmile_qr_scan", "android": "https://dc.lft.to/lastmile_qr_scan"}, "lon": -76.99143966666666, "type": "electric_scooter", "fusion_lat": 0.0, "lat": 38.893473, "name": "1e3b15fe8034dcd8f6a4d7042ef80812", "fusion_lon": 0.0, "bike_id": "1e3b15fe8034dcd8f6a4d7042ef80812", "is_disabled": 0, "is_reserved": 0}, {"rental_uris": {"ios": "https://dc.lft.to/lastmile_qr_scan", "android": "https://dc.lft.to/lastmile_qr_scan"}, "lon": -77.02230933333334, "type": "electric_scooter", "fusion_lat": 0.0, "lat": 38.9142585, "name": "ab5d8c1f81d27a287f78bdf37b33c8bb", "fusion_lon": 0.0, "bike_id": "ab5d8c1f81d27a287f78bdf37b33c8bb", "is_disabled": 0, "is_reserved": 0}, {"rental_uris": {"ios": "https://dc.lft.to/lastmile_qr_scan", "android": "https://dc.lft.to/lastmile_qr_scan"}, "lon": -77.04158883333334, "type": "electric_scooter", "fusion_lat": 0.0, "lat": 38.91513066666667, "name": "25041c9a9d141252e4731fa966b98d8b", "fusion_lon": 0.0, "bike_id": "25041c9a9d141252e4731fa966b98d8b", "is_disabled": 0, "is_reserved": 0}, {"rental_uris": {"ios": "https://dc.lft.to/lastmile_qr_scan", "android": "https://dc.lft.to/lastmile_qr_scan"}, "lon": -77.04001466666666, "type": "electric_scooter", "fusion_lat": 0.0, "lat": 38.9181545, "name": "77d401423c0b992f6a5fe68c06d0e296", "fusion_lon": 0.0, "bike_id": "77d401423c0b992f6a5fe68c06d0e296", "is_disabled": 0, "is_reserved": 0}, {"rental_uris": {"ios": "https://dc.lft.to/lastmile_qr_scan", "android": "https://dc.lft.to/lastmile_qr_scan"}, "lon": -76.93174666666667, "type": "electric_scooter", "fusion_lat": 0.0, "lat": 38.898851666666665, "name": "10813ad446a80013210bc5b7fa9df4c3", "fusion_lon": 0.0, "bike_id": "10813ad446a80013210bc5b7fa9df4c3", "is_disabled": 0, "is_reserved": 0}, {"rental_uris": {"ios": "https://dc.lft.to/lastmile_qr_scan", "android": "https://dc.lft.to/lastmile_qr_scan"}, "lon": -76.9271055, "type": "electric_scooter", "fusion_lat": 0.0, "lat": 38.887702, "name": "f47ca6d82abd1e88d41919847f2481a5", "fusion_lon": 0.0, "bike_id": "f47ca6d82abd1e88d41919847f2481a5", "is_disabled": 0, "is_reserved": 0}, {"rental_uris": {"ios": "https://dc.lft.to/lastmile_qr_scan", "android": "https://dc.lft.to/lastmile_qr_scan"}, "lon": -77.045536, "type": "electric_scooter", "fusion_lat": 0.0, "lat": 38.912626333333336, "name": "75245d9eea1a02a887573034b758e85e", "fusion_lon": 0.0, "bike_id": "75245d9eea1a02a887573034b758e85e", "is_disabled": 0, "is_reserved": 0}, {"rental_uris": {"ios": "https://dc.lft.to/lastmile_qr_scan", "android": "https://dc.lft.to/lastmile_qr_scan"}, "lon": -77.033237, "type": "electric_scooter", "fusion_lat": 0.0, "lat": 38.896285166666665, "name": "f0c3f6f18e20ec3fade2241d1d53d726", "fusion_lon": 0.0, "bike_id": "f0c3f6f18e20ec3fade2241d1d53d726", "is_disabled": 0, "is_reserved": 0}, {"rental_uris": {"ios": "https://dc.lft.to/lastmile_qr_scan", "android": "https://dc.lft.to/lastmile_qr_scan"}, "lon": -77.00888366666666, "type": "electric_scooter", "fusion_lat": 0.0, "lat": 38.912355833333336, "name": "771968369d97ab01cfa638ddb78db03b", "fusion_lon": 0.0, "bike_id": "771968369d97ab01cfa638ddb78db03b", "is_disabled": 0, "is_reserved": 0}, {"rental_uris": {"ios": "https://dc.lft.to/lastmile_qr_scan", "android": "https://dc.lft.to/lastmile_qr_scan"}, "lon": -77.03195383333333, "type": "electric_scooter", "fusion_lat": 0.0, "lat": 38.92484983333333, "name": "f7a7d22efadb71283edc4c9ca6e3477f", "fusion_lon": 0.0, "bike_id": "f7a7d22efadb71283edc4c9ca6e3477f", "is_disabled": 0, "is_reserved": 0}, {"rental_uris": {"ios": "https://dc.lft.to/lastmile_qr_scan", "android": "https://dc.lft.to/lastmile_qr_scan"}, "lon": -77.02464616666667, "type": "electric_scooter", "fusion_lat": 0.0, "lat": 38.8971445, "name": "5922c8bee911b6b0602bcd3f0e969235", "fusion_lon": 0.0, "bike_id": "5922c8bee911b6b0602bcd3f0e969235", "is_disabled": 0, "is_reserved": 0}, {"rental_uris": {"ios": "https://dc.lft.to/lastmile_qr_scan", "android": "https://dc.lft.to/lastmile_qr_scan"}, "lon": -77.0617945, "type": "electric_scooter", "fusion_lat": 0.0, "lat": 38.902527166666665, "name": "ed18742f8d626898197d77a2bb85f973", "fusion_lon": 0.0, "bike_id": "ed18742f8d626898197d77a2bb85f973", "is_disabled": 0, "is_reserved": 0}, {"rental_uris": {"ios": "https://dc.lft.to/lastmile_qr_scan", "android": "https://dc.lft.to/lastmile_qr_scan"}, "lon": -77.06035316666667, "type": "electric_scooter", "fusion_lat": 0.0, "lat": 38.90530183333333, "name": "9e143282148f615687968f464e05616e", "fusion_lon": 0.0, "bike_id": "9e143282148f615687968f464e05616e", "is_disabled": 0, "is_reserved": 0}, {"rental_uris": {"ios": "https://dc.lft.to/lastmile_qr_scan", "android": "https://dc.lft.to/lastmile_qr_scan"}, "lon": -77.01578166666667, "type": "electric_scooter", "fusion_lat": 0.0, "lat": 38.88746316666667, "name": "3e106526c393cf2ff38ea130b18e385a", "fusion_lon": 0.0, "bike_id": "3e106526c393cf2ff38ea130b18e385a", "is_disabled": 0, "is_reserved": 0}, {"rental_uris": {"ios": "https://dc.lft.to/lastmile_qr_scan", "android": "https://dc.lft.to/lastmile_qr_scan"}, "lon": -77.00268333333334, "type": "electric_scooter", "fusion_lat": 0.0, "lat": 38.88511466666667, "name": "4c2208aa446cfeb4afd0fa2aae955959", "fusion_lon": 0.0, "bike_id": "4c2208aa446cfeb4afd0fa2aae955959", "is_disabled": 0, "is_reserved": 0}, {"rental_uris": {"ios": "https://dc.lft.to/lastmile_qr_scan", "android": "https://dc.lft.to/lastmile_qr_scan"}, "lon": -77.05122033333333, "type": "electric_scooter", "fusion_lat": 0.0, "lat": 38.923609166666665, "name": "85d8ac2ca8d71e1607d58c29dc50d276", "fusion_lon": 0.0, "bike_id": "85d8ac2ca8d71e1607d58c29dc50d276", "is_disabled": 0, "is_reserved": 0}, {"rental_uris": {"ios": "https://dc.lft.to/lastmile_qr_scan", "android": "https://dc.lft.to/lastmile_qr_scan"}, "lon": -77.01906366666667, "type": "electric_scooter", "fusion_lat": 0.0, "lat": 38.90400983333333, "name": "06219b64817306100214df5b855b820e", "fusion_lon": 0.0, "bike_id": "06219b64817306100214df5b855b820e", "is_disabled": 0, "is_reserved": 0}, {"rental_uris": {"ios": "https://dc.lft.to/lastmile_qr_scan", "android": "https://dc.lft.to/lastmile_qr_scan"}, "lon": -76.98440216666667, "type": "electric_scooter", "fusion_lat": 0.0, "lat": 38.914735666666665, "name": "fd7b0680493735557fb9e08148c95dac", "fusion_lon": 0.0, "bike_id": "fd7b0680493735557fb9e08148c95dac", "is_disabled": 0, "is_reserved": 0}, {"rental_uris": {"ios": "https://dc.lft.to/lastmile_qr_scan", "android": "https://dc.lft.to/lastmile_qr_scan"}, "lon": -77.07427966666667, "type": "electric_scooter", "fusion_lat": 0.0, "lat": 38.9126625, "name": "779c7dd3b31d6f9300a5405887a808cf", "fusion_lon": 0.0, "bike_id": "779c7dd3b31d6f9300a5405887a808cf", "is_disabled": 0, "is_reserved": 0}, {"rental_uris": {"ios": "https://dc.lft.to/lastmile_qr_scan", "android": "https://dc.lft.to/lastmile_qr_scan"}, "lon": -76.9915555, "type": "electric_scooter", "fusion_lat": 0.0, "lat": 38.893444333333335, "name": "14144103a1296681911e3bfd409ad9a4", "fusion_lon": 0.0, "bike_id": "14144103a1296681911e3bfd409ad9a4", "is_disabled": 0, "is_reserved": 0}, {"rental_uris": {"ios": "https://dc.lft.to/lastmile_qr_scan", "android": "https://dc.lft.to/lastmile_qr_scan"}, "lon": -77.056777, "type": "electric_scooter", "fusion_lat": 0.0, "lat": 38.9051675, "name": "b5cb633c778099c298b961cf1f373fd3", "fusion_lon": 0.0, "bike_id": "b5cb633c778099c298b961cf1f373fd3", "is_disabled": 0, "is_reserved": 0}, {"rental_uris": {"ios": "https://dc.lft.to/lastmile_qr_scan", "android": "https://dc.lft.to/lastmile_qr_scan"}, "lon": -77.0269565, "type": "electric_scooter", "fusion_lat": 0.0, "lat": 38.918661, "name": "ea94d5e50a21581449dfe31d42889bd1", "fusion_lon": 0.0, "bike_id": "ea94d5e50a21581449dfe31d42889bd1", "is_disabled": 0, "is_reserved": 0}, {"rental_uris": {"ios": "https://dc.lft.to/lastmile_qr_scan", "android": "https://dc.lft.to/lastmile_qr_scan"}, "lon": -77.01204083333333, "type": "electric_scooter", "fusion_lat": 0.0, "lat": 38.91521683333333, "name": "4f0a321df711aa968655c279e73dfec1", "fusion_lon": 0.0, "bike_id": "4f0a321df711aa968655c279e73dfec1", "is_disabled": 0, "is_reserved": 0}, {"rental_uris": {"ios": "https://dc.lft.to/lastmile_qr_scan", "android": "https://dc.lft.to/lastmile_qr_scan"}, "lon": -77.031798, "type": "electric_scooter", "fusion_lat": 0.0, "lat": 38.9135135, "name": "c846294741e93129ec182d41c2fd1000", "fusion_lon": 0.0, "bike_id": "c846294741e93129ec182d41c2fd1000", "is_disabled": 0, "is_reserved": 0}, {"rental_uris": {"ios": "https://dc.lft.to/lastmile_qr_scan", "android": "https://dc.lft.to/lastmile_qr_scan"}, "lon": -76.895367, "type": "electric_bike", "fusion_lat": 0.0, "lat": 38.94553666666667, "name": "407b71b13ed8c7d798a0c01c0724ef8f", "fusion_lon": 0.0, "bike_id": "407b71b13ed8c7d798a0c01c0724ef8f", "is_disabled": 0, "is_reserved": 0}, {"rental_uris": {"ios": "https://dc.lft.to/lastmile_qr_scan", "android": "https://dc.lft.to/lastmile_qr_scan"}, "lon": -77.06297483333333, "type": "electric_scooter", "fusion_lat": 0.0, "lat": 38.9039705, "name": "0b6fb101fcb23253f47e4b777f7c634c", "fusion_lon": 0.0, "bike_id": "0b6fb101fcb23253f47e4b777f7c634c", "is_disabled": 0, "is_reserved": 0}, {"rental_uris": {"ios": "https://dc.lft.to/lastmile_qr_scan", "android": "https://dc.lft.to/lastmile_qr_scan"}, "lon": -77.02340316666667, "type": "electric_scooter", "fusion_lat": 0.0, "lat": 38.96208883333333, "name": "646dda21c85d9900e975ba6098de4a2f", "fusion_lon": 0.0, "bike_id": "646dda21c85d9900e975ba6098de4a2f", "is_disabled": 0, "is_reserved": 0}, {"rental_uris": {"ios": "https://dc.lft.to/lastmile_qr_scan", "android": "https://dc.lft.to/lastmile_qr_scan"}, "lon": -77.04151883333333, "type": "electric_scooter", "fusion_lat": 0.0, "lat": 38.9192175, "name": "de94776a372d402e3ce61fb8342c2a24", "fusion_lon": 0.0, "bike_id": "de94776a372d402e3ce61fb8342c2a24", "is_disabled": 0, "is_reserved": 0}, {"rental_uris": {"ios": "https://dc.lft.to/lastmile_qr_scan", "android": "https://dc.lft.to/lastmile_qr_scan"}, "lon": -77.04163166666666, "type": "electric_scooter", "fusion_lat": 0.0, "lat": 38.915364, "name": "f89fe9691488223bfda5836123866ded", "fusion_lon": 0.0, "bike_id": "f89fe9691488223bfda5836123866ded", "is_disabled": 0, "is_reserved": 0}, {"rental_uris": {"ios": "https://dc.lft.to/lastmile_qr_scan", "android": "https://dc.lft.to/lastmile_qr_scan"}, "lon": -77.1250045, "type": "electric_bike", "fusion_lat": 0.0, "lat": 39.024189166666666, "name": "5ad58de5cdae92c44fbd3d96d11b121f", "fusion_lon": 0.0, "bike_id": "5ad58de5cdae92c44fbd3d96d11b121f", "is_disabled": 0, "is_reserved": 0}, {"rental_uris": {"ios": "https://dc.lft.to/lastmile_qr_scan", "android": "https://dc.lft.to/lastmile_qr_scan"}, "lon": -77.03467466666666, "type": "electric_scooter", "fusion_lat": 0.0, "lat": 38.917083833333336, "name": "629e0c6b9e10f2a031e85d4b80ee7f7d", "fusion_lon": 0.0, "bike_id": "629e0c6b9e10f2a031e85d4b80ee7f7d", "is_disabled": 0, "is_reserved": 0}, {"rental_uris": {"ios": "https://dc.lft.to/lastmile_qr_scan", "android": "https://dc.lft.to/lastmile_qr_scan"}, "lon": -77.03630233333334, "type": "electric_scooter", "fusion_lat": 0.0, "lat": 38.93280983333333, "name": "6e7947c3c4bfca012887dc8cecbf78d7", "fusion_lon": 0.0, "bike_id": "6e7947c3c4bfca012887dc8cecbf78d7", "is_disabled": 0, "is_reserved": 0}, {"rental_uris": {"ios": "https://dc.lft.to/lastmile_qr_scan", "android": "https://dc.lft.to/lastmile_qr_scan"}, "lon": -77.02967933333333, "type": "electric_scooter", "fusion_lat": 0.0, "lat": 38.92337083333334, "name": "d96c2b935951d7136b46fea76bf7cf8b", "fusion_lon": 0.0, "bike_id": "d96c2b935951d7136b46fea76bf7cf8b", "is_disabled": 0, "is_reserved": 0}, {"rental_uris": {"ios": "https://dc.lft.to/lastmile_qr_scan", "android": "https://dc.lft.to/lastmile_qr_scan"}, "lon": -77.0467035, "type": "electric_scooter", "fusion_lat": 0.0, "lat": 38.92060333333333, "name": "fc3f43f5dd3eb4ece2d6d847c7f2fc88", "fusion_lon": 0.0, "bike_id": "fc3f43f5dd3eb4ece2d6d847c7f2fc88", "is_disabled": 0, "is_reserved": 0}, {"rental_uris": {"ios": "https://dc.lft.to/lastmile_qr_scan", "android": "https://dc.lft.to/lastmile_qr_scan"}, "lon": -77.00588683333334, "type": "electric_scooter", "fusion_lat": 0.0, "lat": 38.915644666666665, "name": "a2e1227a1e6be8792601293cf3b8d69d", "fusion_lon": 0.0, "bike_id": "a2e1227a1e6be8792601293cf3b8d69d", "is_disabled": 0, "is_reserved": 0}, {"rental_uris": {"ios": "https://dc.lft.to/lastmile_qr_scan", "android": "https://dc.lft.to/lastmile_qr_scan"}, "lon": -77.04999316666667, "type": "electric_scooter", "fusion_lat": 0.0, "lat": 38.892324, "name": "a6d692ef1aa9634f5469e63edae2a1bb", "fusion_lon": 0.0, "bike_id": "a6d692ef1aa9634f5469e63edae2a1bb", "is_disabled": 0, "is_reserved": 0}, {"rental_uris": {"ios": "https://dc.lft.to/lastmile_qr_scan", "android": "https://dc.lft.to/lastmile_qr_scan"}, "lon": -77.00115083333333, "type": "electric_scooter", "fusion_lat": 0.0, "lat": 38.894367833333334, "name": "17ceefde2c0c2709b9baaf1eabaa403e", "fusion_lon": 0.0, "bike_id": "17ceefde2c0c2709b9baaf1eabaa403e", "is_disabled": 0, "is_reserved": 0}, {"rental_uris": {"ios": "https://dc.lft.to/lastmile_qr_scan", "android": "https://dc.lft.to/lastmile_qr_scan"}, "lon": -77.03216416666666, "type": "electric_scooter", "fusion_lat": 0.0, "lat": 38.91429616666667, "name": "81dfde954d26ec5a74665e6ae9ccbcf9", "fusion_lon": 0.0, "bike_id": "81dfde954d26ec5a74665e6ae9ccbcf9", "is_disabled": 0, "is_reserved": 0}, {"rental_uris": {"ios": "https://dc.lft.to/lastmile_qr_scan", "android": "https://dc.lft.to/lastmile_qr_scan"}, "lon": -76.96503633333333, "type": "electric_scooter", "fusion_lat": 0.0, "lat": 38.8764785, "name": "3572646b16b8cd8bad313813d81aaa6d", "fusion_lon": 0.0, "bike_id": "3572646b16b8cd8bad313813d81aaa6d", "is_disabled": 0, "is_reserved": 0}, {"rental_uris": {"ios": "https://dc.lft.to/lastmile_qr_scan", "android": "https://dc.lft.to/lastmile_qr_scan"}, "lon": -77.02963633333333, "type": "electric_scooter", "fusion_lat": 0.0, "lat": 38.90504683333333, "name": "26507d805b0083b1997b11d140f893d1", "fusion_lon": 0.0, "bike_id": "26507d805b0083b1997b11d140f893d1", "is_disabled": 0, "is_reserved": 0}, {"rental_uris": {"ios": "https://dc.lft.to/lastmile_qr_scan", "android": "https://dc.lft.to/lastmile_qr_scan"}, "lon": -77.02794616666667, "type": "electric_scooter", "fusion_lat": 0.0, "lat": 38.924732666666664, "name": "f3acfe98f88273ee5dfacad6c04e7b70", "fusion_lon": 0.0, "bike_id": "f3acfe98f88273ee5dfacad6c04e7b70", "is_disabled": 0, "is_reserved": 0}, {"rental_uris": {"ios": "https://dc.lft.to/lastmile_qr_scan", "android": "https://dc.lft.to/lastmile_qr_scan"}, "lon": -77.023777, "type": "electric_scooter", "fusion_lat": 0.0, "lat": 38.93203183333333, "name": "cf430514478bfbbe5e631192fb2e24a3", "fusion_lon": 0.0, "bike_id": "cf430514478bfbbe5e631192fb2e24a3", "is_disabled": 0, "is_reserved": 0}, {"rental_uris": {"ios": "https://dc.lft.to/lastmile_qr_scan", "android": "https://dc.lft.to/lastmile_qr_scan"}, "lon": -77.0042655, "type": "electric_scooter", "fusion_lat": 0.0, "lat": 38.9039515, "name": "c83bfaf062eec61145a67fedf788fcd9", "fusion_lon": 0.0, "bike_id": "c83bfaf062eec61145a67fedf788fcd9", "is_disabled": 0, "is_reserved": 0}, {"rental_uris": {"ios": "https://dc.lft.to/lastmile_qr_scan", "android": "https://dc.lft.to/lastmile_qr_scan"}, "lon": -77.03016666666667, "type": "electric_scooter", "fusion_lat": 0.0, "lat": 38.897524, "name": "c93ae53b3e865254a36db4f3ccbb4c54", "fusion_lon": 0.0, "bike_id": "c93ae53b3e865254a36db4f3ccbb4c54", "is_disabled": 0, "is_reserved": 0}, {"rental_uris": {"ios": "https://dc.lft.to/lastmile_qr_scan", "android": "https://dc.lft.to/lastmile_qr_scan"}, "lon": -76.93827683333333, "type": "electric_scooter", "fusion_lat": 0.0, "lat": 38.89762183333333, "name": "5b89651189667217072bcaca4cb2a95d", "fusion_lon": 0.0, "bike_id": "5b89651189667217072bcaca4cb2a95d", "is_disabled": 0, "is_reserved": 0}, {"rental_uris": {"ios": "https://dc.lft.to/lastmile_qr_scan", "android": "https://dc.lft.to/lastmile_qr_scan"}, "lon": -77.04422816666667, "type": "electric_scooter", "fusion_lat": 0.0, "lat": 38.921252, "name": "989e19e52c3512a3bff94a74aa8881f1", "fusion_lon": 0.0, "bike_id": "989e19e52c3512a3bff94a74aa8881f1", "is_disabled": 0, "is_reserved": 0}, {"rental_uris": {"ios": "https://dc.lft.to/lastmile_qr_scan", "android": "https://dc.lft.to/lastmile_qr_scan"}, "lon": -77.04151783333333, "type": "electric_scooter", "fusion_lat": 0.0, "lat": 38.914145, "name": "2d8cf491ada005c453962bfd61065397", "fusion_lon": 0.0, "bike_id": "2d8cf491ada005c453962bfd61065397", "is_disabled": 0, "is_reserved": 0}, {"rental_uris": {"ios": "https://dc.lft.to/lastmile_qr_scan", "android": "https://dc.lft.to/lastmile_qr_scan"}, "lon": -77.06296766666667, "type": "electric_scooter", "fusion_lat": 0.0, "lat": 38.91336166666667, "name": "5eeb159fddfa4c2401040b083cc866f6", "fusion_lon": 0.0, "bike_id": "5eeb159fddfa4c2401040b083cc866f6", "is_disabled": 0, "is_reserved": 0}, {"rental_uris": {"ios": "https://dc.lft.to/lastmile_qr_scan", "android": "https://dc.lft.to/lastmile_qr_scan"}, "lon": -76.97956033333334, "type": "electric_scooter", "fusion_lat": 0.0, "lat": 38.90379216666667, "name": "6efd3a08ac55e47b0c9eccd6d52e8cd4", "fusion_lon": 0.0, "bike_id": "6efd3a08ac55e47b0c9eccd6d52e8cd4", "is_disabled": 0, "is_reserved": 0}, {"rental_uris": {"ios": "https://dc.lft.to/lastmile_qr_scan", "android": "https://dc.lft.to/lastmile_qr_scan"}, "lon": -77.00290866666667, "type": "electric_scooter", "fusion_lat": 0.0, "lat": 38.894869666666665, "name": "278cbcdb7cbe645077a504e539481c76", "fusion_lon": 0.0, "bike_id": "278cbcdb7cbe645077a504e539481c76", "is_disabled": 0, "is_reserved": 0}, {"rental_uris": {"ios": "https://dc.lft.to/lastmile_qr_scan", "android": "https://dc.lft.to/lastmile_qr_scan"}, "lon": -77.0295225, "type": "electric_scooter", "fusion_lat": 0.0, "lat": 38.91605533333333, "name": "79abe8e795e4a8b82c06f4b27ddcffb5", "fusion_lon": 0.0, "bike_id": "79abe8e795e4a8b82c06f4b27ddcffb5", "is_disabled": 0, "is_reserved": 0}, {"rental_uris": {"ios": "https://dc.lft.to/lastmile_qr_scan", "android": "https://dc.lft.to/lastmile_qr_scan"}, "lon": -77.03120266666667, "type": "electric_scooter", "fusion_lat": 0.0, "lat": 38.913357500000004, "name": "7dc9d70e5617608ca936fb116c26b467", "fusion_lon": 0.0, "bike_id": "7dc9d70e5617608ca936fb116c26b467", "is_disabled": 0, "is_reserved": 0}, {"rental_uris": {"ios": "https://dc.lft.to/lastmile_qr_scan", "android": "https://dc.lft.to/lastmile_qr_scan"}, "lon": -77.03571283333333, "type": "electric_scooter", "fusion_lat": 0.0, "lat": 38.95616883333334, "name": "cb5caebcbacbcd777b33b665896aab42", "fusion_lon": 0.0, "bike_id": "cb5caebcbacbcd777b33b665896aab42", "is_disabled": 0, "is_reserved": 0}, {"rental_uris": {"ios": "https://dc.lft.to/lastmile_qr_scan", "android": "https://dc.lft.to/lastmile_qr_scan"}, "lon": -77.021719, "type": "electric_scooter", "fusion_lat": 0.0, "lat": 38.89709666666667, "name": "98b17f3bfc6b7f08a40a223b6a5d3d52", "fusion_lon": 0.0, "bike_id": "98b17f3bfc6b7f08a40a223b6a5d3d52", "is_disabled": 0, "is_reserved": 0}, {"rental_uris": {"ios": "https://dc.lft.to/lastmile_qr_scan", "android": "https://dc.lft.to/lastmile_qr_scan"}, "lon": -77.02124916666666, "type": "electric_scooter", "fusion_lat": 0.0, "lat": 38.93108516666667, "name": "c766571f020b4993d2658fe16037110c", "fusion_lon": 0.0, "bike_id": "c766571f020b4993d2658fe16037110c", "is_disabled": 0, "is_reserved": 0}, {"rental_uris": {"ios": "https://dc.lft.to/lastmile_qr_scan", "android": "https://dc.lft.to/lastmile_qr_scan"}, "lon": -77.05881316666667, "type": "electric_scooter", "fusion_lat": 0.0, "lat": 38.9363605, "name": "d7af2857297158d800901f464e0d8a7f", "fusion_lon": 0.0, "bike_id": "d7af2857297158d800901f464e0d8a7f", "is_disabled": 0, "is_reserved": 0}, {"rental_uris": {"ios": "https://dc.lft.to/lastmile_qr_scan", "android": "https://dc.lft.to/lastmile_qr_scan"}, "lon": -76.986847, "type": "electric_scooter", "fusion_lat": 0.0, "lat": 38.88209766666667, "name": "c0c484889cf9b4c492f09785cd92255e", "fusion_lon": 0.0, "bike_id": "c0c484889cf9b4c492f09785cd92255e", "is_disabled": 0, "is_reserved": 0}, {"rental_uris": {"ios": "https://dc.lft.to/lastmile_qr_scan", "android": "https://dc.lft.to/lastmile_qr_scan"}, "lon": -77.04734733333333, "type": "electric_scooter", "fusion_lat": 0.0, "lat": 38.91283516666667, "name": "0d3d6178602acc499dbad0bf032d78d9", "fusion_lon": 0.0, "bike_id": "0d3d6178602acc499dbad0bf032d78d9", "is_disabled": 0, "is_reserved": 0}, {"rental_uris": {"ios": "https://dc.lft.to/lastmile_qr_scan", "android": "https://dc.lft.to/lastmile_qr_scan"}, "lon": -76.94633133333333, "type": "electric_scooter", "fusion_lat": 0.0, "lat": 38.898331, "name": "52dff611fe849015a5785fc1885e0907", "fusion_lon": 0.0, "bike_id": "52dff611fe849015a5785fc1885e0907", "is_disabled": 0, "is_reserved": 0}, {"rental_uris": {"ios": "https://dc.lft.to/lastmile_qr_scan", "android": "https://dc.lft.to/lastmile_qr_scan"}, "lon": -77.037761, "type": "electric_scooter", "fusion_lat": 0.0, "lat": 38.92633433333334, "name": "e32f9c289cadf5fcbdb02e8454211d8a", "fusion_lon": 0.0, "bike_id": "e32f9c289cadf5fcbdb02e8454211d8a", "is_disabled": 0, "is_reserved": 0}, {"rental_uris": {"ios": "https://dc.lft.to/lastmile_qr_scan", "android": "https://dc.lft.to/lastmile_qr_scan"}, "lon": -76.97744866666666, "type": "electric_scooter", "fusion_lat": 0.0, "lat": 38.90010566666667, "name": "d5ed117ac3e4cb68d8b4cf7febbefb23", "fusion_lon": 0.0, "bike_id": "d5ed117ac3e4cb68d8b4cf7febbefb23", "is_disabled": 0, "is_reserved": 0}, {"rental_uris": {"ios": "https://dc.lft.to/lastmile_qr_scan", "android": "https://dc.lft.to/lastmile_qr_scan"}, "lon": -76.87815716666667, "type": "electric_bike", "fusion_lat": 0.0, "lat": 38.992384666666666, "name": "2c4e4a8a256b0a600198fa29c23022a6", "fusion_lon": 0.0, "bike_id": "2c4e4a8a256b0a600198fa29c23022a6", "is_disabled": 0, "is_reserved": 0}, {"rental_uris": {"ios": "https://dc.lft.to/lastmile_qr_scan", "android": "https://dc.lft.to/lastmile_qr_scan"}, "lon": -77.02055333333334, "type": "electric_scooter", "fusion_lat": 0.0, "lat": 38.9014955, "name": "f9c80e87e6431b99ee1dde485cdc91c0", "fusion_lon": 0.0, "bike_id": "f9c80e87e6431b99ee1dde485cdc91c0", "is_disabled": 0, "is_reserved": 0}, {"rental_uris": {"ios": "https://dc.lft.to/lastmile_qr_scan", "android": "https://dc.lft.to/lastmile_qr_scan"}, "lon": -77.10707783333334, "type": "electric_bike", "fusion_lat": 0.0, "lat": 38.85552533333333, "name": "47b3f73fa31c2409054ad7db52967e8a", "fusion_lon": 0.0, "bike_id": "47b3f73fa31c2409054ad7db52967e8a", "is_disabled": 0, "is_reserved": 0}, {"rental_uris": {"ios": "https://dc.lft.to/lastmile_qr_scan", "android": "https://dc.lft.to/lastmile_qr_scan"}, "lon": -76.97612466666666, "type": "electric_scooter", "fusion_lat": 0.0, "lat": 38.903893333333336, "name": "a9516f0cb8e36c33343d89d37db2f47d", "fusion_lon": 0.0, "bike_id": "a9516f0cb8e36c33343d89d37db2f47d", "is_disabled": 0, "is_reserved": 0}, {"rental_uris": {"ios": "https://dc.lft.to/lastmile_qr_scan", "android": "https://dc.lft.to/lastmile_qr_scan"}, "lon": -76.95759433333333, "type": "electric_bike", "fusion_lat": 0.0, "lat": 38.88420516666667, "name": "8475dc130eaf354cf59423f09af40e03", "fusion_lon": 0.0, "bike_id": "8475dc130eaf354cf59423f09af40e03", "is_disabled": 0, "is_reserved": 0}, {"rental_uris": {"ios": "https://dc.lft.to/lastmile_qr_scan", "android": "https://dc.lft.to/lastmile_qr_scan"}, "lon": -77.039463, "type": "electric_scooter", "fusion_lat": 0.0, "lat": 38.926140833333335, "name": "02f660e4bc36416622323aca86bba81d", "fusion_lon": 0.0, "bike_id": "02f660e4bc36416622323aca86bba81d", "is_disabled": 0, "is_reserved": 0}, {"rental_uris": {"ios": "https://dc.lft.to/lastmile_qr_scan", "android": "https://dc.lft.to/lastmile_qr_scan"}, "lon": -77.02353316666667, "type": "electric_scooter", "fusion_lat": 0.0, "lat": 38.931967666666665, "name": "aa504435eb713e830b27c97887d7e905", "fusion_lon": 0.0, "bike_id": "aa504435eb713e830b27c97887d7e905", "is_disabled": 0, "is_reserved": 0}, {"rental_uris": {"ios": "https://dc.lft.to/lastmile_qr_scan", "android": "https://dc.lft.to/lastmile_qr_scan"}, "lon": -77.03646316666666, "type": "electric_scooter", "fusion_lat": 0.0, "lat": 38.903225666666664, "name": "c27490f508d878aa94217f1db8aa1a86", "fusion_lon": 0.0, "bike_id": "c27490f508d878aa94217f1db8aa1a86", "is_disabled": 0, "is_reserved": 0}, {"rental_uris": {"ios": "https://dc.lft.to/lastmile_qr_scan", "android": "https://dc.lft.to/lastmile_qr_scan"}, "lon": -77.02983783333333, "type": "electric_scooter", "fusion_lat": 0.0, "lat": 38.956311, "name": "f4475873f5f3242ed95f8c9fc3731ed4", "fusion_lon": 0.0, "bike_id": "f4475873f5f3242ed95f8c9fc3731ed4", "is_disabled": 0, "is_reserved": 0}, {"rental_uris": {"ios": "https://dc.lft.to/lastmile_qr_scan", "android": "https://dc.lft.to/lastmile_qr_scan"}, "lon": -77.02634266666666, "type": "electric_scooter", "fusion_lat": 0.0, "lat": 38.975539833333336, "name": "14765b39edecc778021831c55173fd65", "fusion_lon": 0.0, "bike_id": "14765b39edecc778021831c55173fd65", "is_disabled": 0, "is_reserved": 0}, {"rental_uris": {"ios": "https://dc.lft.to/lastmile_qr_scan", "android": "https://dc.lft.to/lastmile_qr_scan"}, "lon": -77.070911, "type": "electric_scooter", "fusion_lat": 0.0, "lat": 38.93365683333333, "name": "0d6f28e4d549588650b5130f8f2153f2", "fusion_lon": 0.0, "bike_id": "0d6f28e4d549588650b5130f8f2153f2", "is_disabled": 0, "is_reserved": 0}, {"rental_uris": {"ios": "https://dc.lft.to/lastmile_qr_scan", "android": "https://dc.lft.to/lastmile_qr_scan"}, "lon": -76.982062, "type": "electric_scooter", "fusion_lat": 0.0, "lat": 38.890885833333336, "name": "357dd7c0ceb78cc77b7caf7f3f0870a7", "fusion_lon": 0.0, "bike_id": "357dd7c0ceb78cc77b7caf7f3f0870a7", "is_disabled": 0, "is_reserved": 0}, {"rental_uris": {"ios": "https://dc.lft.to/lastmile_qr_scan", "android": "https://dc.lft.to/lastmile_qr_scan"}, "lon": -77.03933966666666, "type": "electric_scooter", "fusion_lat": 0.0, "lat": 38.912692666666665, "name": "cc428fe6e40a347c216ee1a4be189089", "fusion_lon": 0.0, "bike_id": "cc428fe6e40a347c216ee1a4be189089", "is_disabled": 0, "is_reserved": 0}, {"rental_uris": {"ios": "https://dc.lft.to/lastmile_qr_scan", "android": "https://dc.lft.to/lastmile_qr_scan"}, "lon": -77.03024866666667, "type": "electric_scooter", "fusion_lat": 0.0, "lat": 38.92247416666667, "name": "02336514ccfd4343e9b0f64a13cfa12a", "fusion_lon": 0.0, "bike_id": "02336514ccfd4343e9b0f64a13cfa12a", "is_disabled": 0, "is_reserved": 0}, {"rental_uris": {"ios": "https://dc.lft.to/lastmile_qr_scan", "android": "https://dc.lft.to/lastmile_qr_scan"}, "lon": -77.02715933333333, "type": "electric_scooter", "fusion_lat": 0.0, "lat": 38.91220066666666, "name": "0dfb113891efb8993feab7c242e942f9", "fusion_lon": 0.0, "bike_id": "0dfb113891efb8993feab7c242e942f9", "is_disabled": 0, "is_reserved": 0}, {"rental_uris": {"ios": "https://dc.lft.to/lastmile_qr_scan", "android": "https://dc.lft.to/lastmile_qr_scan"}, "lon": -77.05498416666667, "type": "electric_scooter", "fusion_lat": 0.0, "lat": 38.92970066666667, "name": "f0b466d059d3f9f278634274aa4b159a", "fusion_lon": 0.0, "bike_id": "f0b466d059d3f9f278634274aa4b159a", "is_disabled": 0, "is_reserved": 0}, {"rental_uris": {"ios": "https://dc.lft.to/lastmile_qr_scan", "android": "https://dc.lft.to/lastmile_qr_scan"}, "lon": -77.08941183333333, "type": "electric_bike", "fusion_lat": 0.0, "lat": 38.841081833333334, "name": "56518c8450f41fe70241126cb89a7ebf", "fusion_lon": 0.0, "bike_id": "56518c8450f41fe70241126cb89a7ebf", "is_disabled": 0, "is_reserved": 0}, {"rental_uris": {"ios": "https://dc.lft.to/lastmile_qr_scan", "android": "https://dc.lft.to/lastmile_qr_scan"}, "lon": -77.0396215, "type": "electric_bike", "fusion_lat": 0.0, "lat": 38.80526916666667, "name": "7d617469b49e43f3c81dd25852cb280f", "fusion_lon": 0.0, "bike_id": "7d617469b49e43f3c81dd25852cb280f", "is_disabled": 0, "is_reserved": 0}, {"rental_uris": {"ios": "https://dc.lft.to/lastmile_qr_scan", "android": "https://dc.lft.to/lastmile_qr_scan"}, "lon": -77.02611883333333, "type": "electric_scooter", "fusion_lat": 0.0, "lat": 38.95187683333333, "name": "a0cb927f86a40d3db4800f0f2ebaede0", "fusion_lon": 0.0, "bike_id": "a0cb927f86a40d3db4800f0f2ebaede0", "is_disabled": 0, "is_reserved": 0}, {"rental_uris": {"ios": "https://dc.lft.to/lastmile_qr_scan", "android": "https://dc.lft.to/lastmile_qr_scan"}, "lon": -77.04185266666667, "type": "electric_scooter", "fusion_lat": 0.0, "lat": 38.922072666666665, "name": "73a3a78cc52481dfc7669242ffb450c9", "fusion_lon": 0.0, "bike_id": "73a3a78cc52481dfc7669242ffb450c9", "is_disabled": 0, "is_reserved": 0}, {"rental_uris": {"ios": "https://dc.lft.to/lastmile_qr_scan", "android": "https://dc.lft.to/lastmile_qr_scan"}, "lon": -77.02978133333333, "type": "electric_scooter", "fusion_lat": 0.0, "lat": 38.958369166666664, "name": "51312b2d56f87d49f6b5eea0a02f3c68", "fusion_lon": 0.0, "bike_id": "51312b2d56f87d49f6b5eea0a02f3c68", "is_disabled": 0, "is_reserved": 0}, {"rental_uris": {"ios": "https://dc.lft.to/lastmile_qr_scan", "android": "https://dc.lft.to/lastmile_qr_scan"},