{"data": {"bikes": [{"type": "electric_scooter", "rental_uris": {"ios": "https://dc.lft.to/lastmile_qr_scan", "android": "https://dc.lft.to/lastmile_qr_scan"}, "lon": -77.0396065, "fusion_lon": 0.0, "is_disabled": 0, "lat": 38.8990785, "bike_id": "4b65b3242fdfe82c7bd22803a92e6bce", "name": "4b65b3242fdfe82c7bd22803a92e6bce", "is_reserved": 0, "fusion_lat": 0.0}, {"type": "electric_scooter", "rental_uris": {"ios": "https://dc.lft.to/lastmile_qr_scan", "android": "https://dc.lft.to/lastmile_qr_scan"}, "lon": -77.02983683333333, "fusion_lon": 0.0, "is_disabled": 0, "lat": 38.9169525, "bike_id": "48657bfe55630f7f5d68184631056d5d", "name": "48657bfe55630f7f5d68184631056d5d", "is_reserved": 0, "fusion_lat": 0.0}, {"type": "electric_scooter", "rental_uris": {"ios": "https://dc.lft.to/lastmile_qr_scan", "android": "https://dc.lft.to/lastmile_qr_scan"}, "lon": -77.0262995, "fusion_lon": 0.0, "is_disabled": 0, "lat": 38.92535383333333, "bike_id": "79d85f158f8a910beaf8b9c1c9b2fc64", "name": "79d85f158f8a910beaf8b9c1c9b2fc64", "is_reserved": 0, "fusion_lat": 0.0}, {"type": "electric_scooter", "rental_uris": {"ios": "https://dc.lft.to/lastmile_qr_scan", "android": "https://dc.lft.to/lastmile_qr_scan"}, "lon": -77.07886766666667, "fusion_lon": 0.0, "is_disabled": 0, "lat": 38.92064933333333, "bike_id": "4f8ebd24d4267556dbc2e4e247cb8c71", "name": "4f8ebd24d4267556dbc2e4e247cb8c71", "is_reserved": 0, "fusion_lat": 0.0}, {"type": "electric_scooter", "rental_uris": {"ios": "https://dc.lft.to/lastmile_qr_scan", "android": "https://dc.lft.to/lastmile_qr_scan"}, "lon": -77.00591966666667, "fusion_lon": 0.0, "is_disabled": 0, "lat": 38.905694, "bike_id": "db7bf3ec7a00e10fa2008d5290017937", "name": "db7bf3ec7a00e10fa2008d5290017937", "is_reserved": 0, "fusion_lat": 0.0}, {"type": "electric_scooter", "rental_uris": {"ios": "https://dc.lft.to/lastmile_qr_scan", "android": "https://dc.lft.to/lastmile_qr_scan"}, "lon": -77.02172533333334, "fusion_lon": 0.0, "is_disabled": 0, "lat": 38.94287933333333, "bike_id": "b3a3796067b00663950ec6c6f7fef65e", "name": "b3a3796067b00663950ec6c6f7fef65e", "is_reserved": 0, "fusion_lat": 0.0}, {"type": "electric_scooter", "rental_uris": {"ios": "https://dc.lft.to/lastmile_qr_scan", "android": "https://dc.lft.to/lastmile_qr_scan"}, "lon": -77.05856433333334, "fusion_lon": 0.0, "is_disabled": 0, "lat": 38.93606783333333, "bike_id": "e58daf259ef00acbf060f0d0bac13ac6", "name": "e58daf259ef00acbf060f0d0bac13ac6", "is_reserved": 0, "fusion_lat": 0.0}, {"type": "electric_bike", "rental_uris": {"ios": "https://dc.lft.to/lastmile_qr_scan", "android": "https://dc.lft.to/lastmile_qr_scan"}, "lon": -76.9249015, "fusion_lon": 0.0, "is_disabled": 0, "lat": 38.95893783333333, "bike_id": "6c716a64d095742539701c1c5612dace", "name": "6c716a64d095742539701c1c5612dace", "is_reserved": 0, "fusion_lat": 0.0}, {"type": "electric_scooter", "rental_uris": {"ios": "https://dc.lft.to/lastmile_qr_scan", "android": "https://dc.lft.to/lastmile_qr_scan"}, "lon": -76.97625983333333, "fusion_lon": 0.0, "is_disabled": 0, "lat": 38.89875, "bike_id": "5c953db1d89f141f75904816aa2121e4", "name": "5c953db1d89f141f75904816aa2121e4", "is_reserved": 0, "fusion_lat": 0.0}, {"type": "electric_scooter", "rental_uris": {"ios": "https://dc.lft.to/lastmile_qr_scan", "android": "https://dc.lft.to/lastmile_qr_scan"}, "lon": -76.965251, "fusion_lon": 0.0, "is_disabled": 0, "lat": 38.876248, "bike_id": "05a0c573362f823ec48a771117d43a2c", "name": "05a0c573362f823ec48a771117d43a2c", "is_reserved": 0, "fusion_lat": 0.0}, {"type": "electric_scooter", "rental_uris": {"ios": "https://dc.lft.to/lastmile_qr_scan", "android": "https://dc.lft.to/lastmile_qr_scan"}, "lon": -76.94153916666667, "fusion_lon": 0.0, "is_disabled": 0, "lat": 38.883617, "bike_id": "d8d5fd5b386dd6fe15c239542583eb1b", "name": "d8d5fd5b386dd6fe15c239542583eb1b", "is_reserved": 0, "fusion_lat": 0.0}, {"type": "electric_scooter", "rental_uris": {"ios": "https://dc.lft.to/lastmile_qr_scan", "android": "https://dc.lft.to/lastmile_qr_scan"}, "lon": -77.03446666666666, "fusion_lon": 0.0, "is_disabled": 0, "lat": 38.907351, "bike_id": "be814d9402dc1d05f9e72426f91bb904", "name": "be814d9402dc1d05f9e72426f91bb904", "is_reserved": 0, "fusion_lat": 0.0}, {"type": "electric_scooter", "rental_uris": {"ios": "https://dc.lft.to/lastmile_qr_scan", "android": "https://dc.lft.to/lastmile_qr_scan"}, "lon": -77.04658916666666, "fusion_lon": 0.0, "is_disabled": 0, "lat": 38.892439, "bike_id": "fb10cc48c42744f9868fc8155db74548", "name": "fb10cc48c42744f9868fc8155db74548", "is_reserved": 0, "fusion_lat": 0.0}, {"type": "electric_scooter", "rental_uris": {"ios": "https://dc.lft.to/lastmile_qr_scan", "android": "https://dc.lft.to/lastmile_qr_scan"}, "lon": -77.02589066666667, "fusion_lon": 0.0, "is_disabled": 0, "lat": 38.94200266666667, "bike_id": "4159017fb0d76108d3b350a9793fac73", "name": "4159017fb0d76108d3b350a9793fac73", "is_reserved": 0, "fusion_lat": 0.0}, {"type": "electric_scooter", "rental_uris": {"ios": "https://dc.lft.to/lastmile_qr_scan", "android": "https://dc.lft.to/lastmile_qr_scan"}, "lon": -77.00601533333334, "fusion_lon": 0.0, "is_disabled": 0, "lat": 38.90584033333333, "bike_id": "771bf0b56e367b8c54da95e0b628b45c", "name": "771bf0b56e367b8c54da95e0b628b45c", "is_reserved": 0, "fusion_lat": 0.0}, {"type": "electric_scooter", "rental_uris": {"ios": "https://dc.lft.to/lastmile_qr_scan", "android": "https://dc.lft.to/lastmile_qr_scan"}, "lon": -77.0415845, "fusion_lon": 0.0, "is_disabled": 0, "lat": 38.91520233333333, "bike_id": "a5be063e294abcc0ba1c13b7320d73a0", "name": "a5be063e294abcc0ba1c13b7320d73a0", "is_reserved": 0, "fusion_lat": 0.0}, {"type": "electric_scooter", "rental_uris": {"ios": "https://dc.lft.to/lastmile_qr_scan", "android": "https://dc.lft.to/lastmile_qr_scan"}, "lon": -77.02327516666666, "fusion_lon": 0.0, "is_disabled": 0, "lat": 38.93597466666667, "bike_id": "1da72329ad01c05eebf6b7412df89104", "name": "1da72329ad01c05eebf6b7412df89104", "is_reserved": 0, "fusion_lat": 0.0}, {"type": "electric_scooter", "rental_uris": {"ios": "https://dc.lft.to/lastmile_qr_scan", "android": "https://dc.lft.to/lastmile_qr_scan"}, "lon": -77.036442, "fusion_lon": 0.0, "is_disabled": 0, "lat": 38.909984666666666, "bike_id": "4dea3451d3da398f3ab9c5044fcd50b3", "name": "4dea3451d3da398f3ab9c5044fcd50b3", "is_reserved": 0, "fusion_lat": 0.0}, {"type": "electric_scooter", "rental_uris": {"ios": "https://dc.lft.to/lastmile_qr_scan", "android": "https://dc.lft.to/lastmile_qr_scan"}, "lon": -76.98535616666666, "fusion_lon": 0.0, "is_disabled": 0, "lat": 38.866748666666666, "bike_id": "041d380c088409e4e0aa88c2055a2c7d", "name": "041d380c088409e4e0aa88c2055a2c7d", "is_reserved": 0, "fusion_lat": 0.0}, {"type": "electric_scooter", "rental_uris": {"ios": "https://dc.lft.to/lastmile_qr_scan", "android": "https://dc.lft.to/lastmile_qr_scan"}, "lon": -77.02029183333333, "fusion_lon": 0.0, "is_disabled": 0, "lat": 38.898676, "bike_id": "719b2acd23de5f13ff129f4b8c4fc7f9", "name": "719b2acd23de5f13ff129f4b8c4fc7f9", "is_reserved": 0, "fusion_lat": 0.0}, {"type": "electric_scooter", "rental_uris": {"ios": "https://dc.lft.to/lastmile_qr_scan", "android": "https://dc.lft.to/lastmile_qr_scan"}, "lon": -77.00400466666666, "fusion_lon": 0.0, "is_disabled": 0, "lat": 38.9056905, "bike_id": "40cae2028f6336964ee5fd0c5f92ea94", "name": "40cae2028f6336964ee5fd0c5f92ea94", "is_reserved": 0, "fusion_lat": 0.0}, {"type": "electric_scooter", "rental_uris": {"ios": "https://dc.lft.to/lastmile_qr_scan", "android": "https://dc.lft.to/lastmile_qr_scan"}, "lon": -77.03866266666667, "fusion_lon": 0.0, "is_disabled": 0, "lat": 38.91257733333333, "bike_id": "47045722cb5e752efe3c5400c9abaae2", "name": "47045722cb5e752efe3c5400c9abaae2", "is_reserved": 0, "fusion_lat": 0.0}, {"type": "electric_bike", "rental_uris": {"ios": "https://dc.lft.to/lastmile_qr_scan", "android": "https://dc.lft.to/lastmile_qr_scan"}, "lon": -76.98107816666666, "fusion_lon": 0.0, "is_disabled": 0, "lat": 38.877304333333335, "bike_id": "00c84f20fe296bed21dc0140391cb027", "name": "00c84f20fe296bed21dc0140391cb027", "is_reserved": 0, "fusion_lat": 0.0}, {"type": "electric_scooter", "rental_uris": {"ios": "https://dc.lft.to/lastmile_qr_scan", "android": "https://dc.lft.to/lastmile_qr_scan"}, "lon": -77.02286916666667, "fusion_lon": 0.0, "is_disabled": 0, "lat": 38.916885666666666, "bike_id": "96073f376dc1867e08b653057d2a186a", "name": "96073f376dc1867e08b653057d2a186a", "is_reserved": 0, "fusion_lat": 0.0}, {"type": "electric_scooter", "rental_uris": {"ios": "https://dc.lft.to/lastmile_qr_scan", "android": "https://dc.lft.to/lastmile_qr_scan"}, "lon": -77.04524066666667, "fusion_lon": 0.0, "is_disabled": 0, "lat": 38.93318083333333, "bike_id": "ab7cbbc00640105ba86b413bffff0eb9", "name": "ab7cbbc00640105ba86b413bffff0eb9", "is_reserved": 0, "fusion_lat": 0.0}, {"type": "electric_scooter", "rental_uris": {"ios": "https://dc.lft.to/lastmile_qr_scan", "android": "https://dc.lft.to/lastmile_qr_scan"}, "lon": -77.02202416666667, "fusion_lon": 0.0, "is_disabled": 0, "lat": 38.9108655, "bike_id": "80b79ae5234611f4fcc1fc368d3c0a93", "name": "80b79ae5234611f4fcc1fc368d3c0a93", "is_reserved": 0, "fusion_lat": 0.0}, {"type": "electric_scooter", "rental_uris": {"ios": "https://dc.lft.to/lastmile_qr_scan", "android": "https://dc.lft.to/lastmile_qr_scan"}, "lon": -77.04019683333334, "fusion_lon": 0.0, "is_disabled": 0, "lat": 38.92213866666667, "bike_id": "8e2e9bbfef9e909c53edeb8c0ccec3f6", "name": "8e2e9bbfef9e909c53edeb8c0ccec3f6", "is_reserved": 0, "fusion_lat": 0.0}, {"type": "electric_scooter", "rental_uris": {"ios": "https://dc.lft.to/lastmile_qr_scan", "android": "https://dc.lft.to/lastmile_qr_scan"}, "lon": -77.0316205, "fusion_lon": 0.0, "is_disabled": 0, "lat": 38.89223716666667, "bike_id": "16b9f146204f2be422aa68df9f1ae451", "name": "16b9f146204f2be422aa68df9f1ae451", "is_reserved": 0, "fusion_lat": 0.0}, {"type": "electric_scooter", "rental_uris": {"ios": "https://dc.lft.to/lastmile_qr_scan", "android": "https://dc.lft.to/lastmile_qr_scan"}, "lon": -77.031632, "fusion_lon": 0.0, "is_disabled": 0, "lat": 38.91556533333333, "bike_id": "160ab6ca1d2cedfb334468aa494f0b1f", "name": "160ab6ca1d2cedfb334468aa494f0b1f", "is_reserved": 0, "fusion_lat": 0.0}, {"type": "electric_scooter", "rental_uris": {"ios": "https://dc.lft.to/lastmile_qr_scan", "android": "https://dc.lft.to/lastmile_qr_scan"}, "lon": -77.036752, "fusion_lon": 0.0, "is_disabled": 0, "lat": 38.918071, "bike_id": "f02b4f7308ffe9672e88a104eda388b8", "name": "f02b4f7308ffe9672e88a104eda388b8", "is_reserved": 0, "fusion_lat": 0.0}, {"type": "electric_scooter", "rental_uris": {"ios": "https://dc.lft.to/lastmile_qr_scan", "android": "https://dc.lft.to/lastmile_qr_scan"}, "lon": -77.026932, "fusion_lon": 0.0, "is_disabled": 0, "lat": 38.91126233333333, "bike_id": "bba603343583ff3006b00f5f57acbf7e", "name": "bba603343583ff3006b00f5f57acbf7e", "is_reserved": 0, "fusion_lat": 0.0}, {"type": "electric_scooter", "rental_uris": {"ios": "https://dc.lft.to/lastmile_qr_scan", "android": "https://dc.lft.to/lastmile_qr_scan"}, "lon": -77.02758816666666, "fusion_lon": 0.0, "is_disabled": 0, "lat": 38.907273833333335, "bike_id": "3b3a622e1699280effdac925e6ae37fc", "name": "3b3a622e1699280effdac925e6ae37fc", "is_reserved": 0, "fusion_lat": 0.0}, {"type": "electric_scooter", "rental_uris": {"ios": "https://dc.lft.to/lastmile_qr_scan", "android": "https://dc.lft.to/lastmile_qr_scan"}, "lon": -77.00215883333334, "fusion_lon": 0.0, "is_disabled": 0, "lat": 38.9002775, "bike_id": "27c47499245c6492564d3ca35c9e012d", "name": "27c47499245c6492564d3ca35c9e012d", "is_reserved": 0, "fusion_lat": 0.0}, {"type": "electric_bike", "rental_uris": {"ios": "https://dc.lft.to/lastmile_qr_scan", "android": "https://dc.lft.to/lastmile_qr_scan"}, "lon": -77.04927933333333, "fusion_lon": 0.0, "is_disabled": 0, "lat": 38.813481, "bike_id": "e244ebe9f7601144370e229a571df43d", "name": "e244ebe9f7601144370e229a571df43d", "is_reserved": 0, "fusion_lat": 0.0}, {"type": "electric_scooter", "rental_uris": {"ios": "https://dc.lft.to/lastmile_qr_scan", "android": "https://dc.lft.to/lastmile_qr_scan"}, "lon": -77.06307566666666, "fusion_lon": 0.0, "is_disabled": 0, "lat": 38.9033525, "bike_id": "4d9405482cd3e03ef847d0b6d84a6423", "name": "4d9405482cd3e03ef847d0b6d84a6423", "is_reserved": 0, "fusion_lat": 0.0}, {"type": "electric_scooter", "rental_uris": {"ios": "https://dc.lft.to/lastmile_qr_scan", "android": "https://dc.lft.to/lastmile_qr_scan"}, "lon": -77.03656733333334, "fusion_lon": 0.0, "is_disabled": 0, "lat": 38.9229585, "bike_id": "29974c9d4212b181b6be9173377c25ad", "name": "29974c9d4212b181b6be9173377c25ad", "is_reserved": 0, "fusion_lat": 0.0}, {"type": "electric_scooter", "rental_uris": {"ios": "https://dc.lft.to/lastmile_qr_scan", "android": "https://dc.lft.to/lastmile_qr_scan"}, "lon": -77.05233466666667, "fusion_lon": 0.0, "is_disabled": 0, "lat": 38.924667666666664, "bike_id": "1f7e94ad5d67ec933f01ca74528cb271", "name": "1f7e94ad5d67ec933f01ca74528cb271", "is_reserved": 0, "fusion_lat": 0.0}, {"type": "electric_scooter", "rental_uris": {"ios": "https://dc.lft.to/lastmile_qr_scan", "android": "https://dc.lft.to/lastmile_qr_scan"}, "lon": -77.00462166666667, "fusion_lon": 0.0, "is_disabled": 0, "lat": 38.911496, "bike_id": "f7a4c05d9594d963c8bb92cb9ff2197f", "name": "f7a4c05d9594d963c8bb92cb9ff2197f", "is_reserved": 0, "fusion_lat": 0.0}, {"type": "electric_scooter", "rental_uris": {"ios": "https://dc.lft.to/lastmile_qr_scan", "android": "https://dc.lft.to/lastmile_qr_scan"}, "lon": -77.05547833333334, "fusion_lon": 0.0, "is_disabled": 0, "lat": 38.93421, "bike_id": "b7cda69a4d9bfffbf012b38281d84232", "name": "b7cda69a4d9bfffbf012b38281d84232", "is_reserved": 0, "fusion_lat": 0.0}, {"type": "electric_scooter", "rental_uris": {"ios": "https://dc.lft.to/lastmile_qr_scan", "android": "https://dc.lft.to/lastmile_qr_scan"}, "lon": -77.031809, "fusion_lon": 0.0, "is_disabled": 0, "lat": 38.91684566666667, "bike_id": "f65d7b2a6dd0212371e56577c625bd6c", "name": "f65d7b2a6dd0212371e56577c625bd6c", "is_reserved": 0, "fusion_lat": 0.0}, {"type": "electric_scooter", "rental_uris": {"ios": "https://dc.lft.to/lastmile_qr_scan", "android": "https://dc.lft.to/lastmile_qr_scan"}, "lon": -77.03489716666667, "fusion_lon": 0.0, "is_disabled": 0, "lat": 38.919313833333334, "bike_id": "0427dccf9c8dc32ed747c5ea1b778d0e", "name": "0427dccf9c8dc32ed747c5ea1b778d0e", "is_reserved": 0, "fusion_lat": 0.0}, {"type": "electric_bike", "rental_uris": {"ios": "https://dc.lft.to/lastmile_qr_scan", "android": "https://dc.lft.to/lastmile_qr_scan"}, "lon": -76.98769166666666, "fusion_lon": 0.0, "is_disabled": 0, "lat": 38.8577, "bike_id": "f000210566667211ce13d99992b62dc7", "name": "f000210566667211ce13d99992b62dc7", "is_reserved": 0, "fusion_lat": 0.0}, {"type": "electric_scooter", "rental_uris": {"ios": "https://dc.lft.to/lastmile_qr_scan", "android": "https://dc.lft.to/lastmile_qr_scan"}, "lon": -77.057385, "fusion_lon": 0.0, "is_disabled": 0, "lat": 38.933701166666665, "bike_id": "c545f595da465637569b64d6f37f28fc", "name": "c545f595da465637569b64d6f37f28fc", "is_reserved": 0, "fusion_lat": 0.0}, {"type": "electric_scooter", "rental_uris": {"ios": "https://dc.lft.to/lastmile_qr_scan", "android": "https://dc.lft.to/lastmile_qr_scan"}, "lon": -77.0382875, "fusion_lon": 0.0, "is_disabled": 0, "lat": 38.92173183333333, "bike_id": "21c01429c9091070db67b22c48d02223", "name": "21c01429c9091070db67b22c48d02223", "is_reserved": 0, "fusion_lat": 0.0}, {"type": "electric_scooter", "rental_uris": {"ios": "https://dc.lft.to/lastmile_qr_scan", "android": "https://dc.lft.to/lastmile_qr_scan"}, "lon": -77.01667416666666, "fusion_lon": 0.0, "is_disabled": 0, "lat": 38.88110666666667, "bike_id": "92b0ffe04e31997e13a18514b5d633ff", "name": "92b0ffe04e31997e13a18514b5d633ff", "is_reserved": 0, "fusion_lat": 0.0}, {"type": "electric_scooter", "rental_uris": {"ios": "https://dc.lft.to/lastmile_qr_scan", "android": "https://dc.lft.to/lastmile_qr_scan"}, "lon": -77.03012083333333, "fusion_lon": 0.0, "is_disabled": 0, "lat": 38.93971783333333, "bike_id": "ccf66fc2301fc074b5a9a37532d85a40", "name": "ccf66fc2301fc074b5a9a37532d85a40", "is_reserved": 0, "fusion_lat": 0.0}, {"type": "electric_scooter", "rental_uris": {"ios": "https://dc.lft.to/lastmile_qr_scan", "android": "https://dc.lft.to/lastmile_qr_scan"}, "lon": -77.02789233333333, "fusion_lon": 0.0, "is_disabled": 0, "lat": 38.927791666666664, "bike_id": "c92a5b2e3878ac31169f5bc4a95d3424", "name": "c92a5b2e3878ac31169f5bc4a95d3424", "is_reserved": 0, "fusion_lat": 0.0}, {"type": "electric_scooter", "rental_uris": {"ios": "https://dc.lft.to/lastmile_qr_scan", "android": "https://dc.lft.to/lastmile_qr_scan"}, "lon": -77.01772083333333, "fusion_lon": 0.0, "is_disabled": 0, "lat": 38.8771345, "bike_id": "9d5ca644729143a9ec5c6732fb73bc3d", "name": "9d5ca644729143a9ec5c6732fb73bc3d", "is_reserved": 0, "fusion_lat": 0.0}, {"type": "electric_bike", "rental_uris": {"ios": "https://dc.lft.to/lastmile_qr_scan", "android": "https://dc.lft.to/lastmile_qr_scan"}, "lon": -77.08091516666667, "fusion_lon": 0.0, "is_disabled": 0, "lat": 38.90863733333333, "bike_id": "0df11955ef62177497cd1fcd4facd631", "name": "0df11955ef62177497cd1fcd4facd631", "is_reserved": 0, "fusion_lat": 0.0}, {"type": "electric_scooter", "rental_uris": {"ios": "https://dc.lft.to/lastmile_qr_scan", "android": "https://dc.lft.to/lastmile_qr_scan"}, "lon": -77.02290383333333, "fusion_lon": 0.0, "is_disabled": 0, "lat": 38.916872166666664, "bike_id": "a28c4de433633946e1d1c0c58905a1ab", "name": "a28c4de433633946e1d1c0c58905a1ab", "is_reserved": 0, "fusion_lat": 0.0}, {"type": "electric_scooter", "rental_uris": {"ios": "https://dc.lft.to/lastmile_qr_scan", "android": "https://dc.lft.to/lastmile_qr_scan"}, "lon": -77.04009366666666, "fusion_lon": 0.0, "is_disabled": 0, "lat": 38.93050266666667, "bike_id": "be691df54b6cc51298ef153d01cf62f7", "name": "be691df54b6cc51298ef153d01cf62f7", "is_reserved": 0, "fusion_lat": 0.0}, {"type": "electric_bike", "rental_uris": {"ios": "https://dc.lft.to/lastmile_qr_scan", "android": "https://dc.lft.to/lastmile_qr_scan"}, "lon": -77.0587125, "fusion_lon": 0.0, "is_disabled": 0, "lat": 38.958898833333336, "bike_id": "3f59f7b3f187e7776bd5d2a2b09113ff", "name": "3f59f7b3f187e7776bd5d2a2b09113ff", "is_reserved": 0, "fusion_lat": 0.0}, {"type": "electric_scooter", "rental_uris": {"ios": "https://dc.lft.to/lastmile_qr_scan", "android": "https://dc.lft.to/lastmile_qr_scan"}, "lon": -77.00069833333333, "fusion_lon": 0.0, "is_disabled": 0, "lat": 38.92552333333333, "bike_id": "62b2d60b159525ed8cfc40555c84f7a1", "name": "62b2d60b159525ed8cfc40555c84f7a1", "is_reserved": 0, "fusion_lat": 0.0}, {"type": "electric_scooter", "rental_uris": {"ios": "https://dc.lft.to/lastmile_qr_scan", "android": "https://dc.lft.to/lastmile_qr_scan"}, "lon": -77.024345, "fusion_lon": 0.0, "is_disabled": 0, "lat": 38.9185315, "bike_id": "5555407fc641ff51ea64fd7a74953bdb", "name": "5555407fc641ff51ea64fd7a74953bdb", "is_reserved": 0, "fusion_lat": 0.0}, {"type": "electric_scooter", "rental_uris": {"ios": "https://dc.lft.to/lastmile_qr_scan", "android": "https://dc.lft.to/lastmile_qr_scan"}, "lon": -77.02157433333333, "fusion_lon": 0.0, "is_disabled": 0, "lat": 38.924974166666665, "bike_id": "a0940f23734780b3cf48751ee62134c9", "name": "a0940f23734780b3cf48751ee62134c9", "is_reserved": 0, "fusion_lat": 0.0}, {"type": "electric_scooter", "rental_uris": {"ios": "https://dc.lft.to/lastmile_qr_scan", "android": "https://dc.lft.to/lastmile_qr_scan"}, "lon": -77.0396655, "fusion_lon": 0.0, "is_disabled": 0, "lat": 38.89900633333333, "bike_id": "38c530276e92fce21717c834163b3344", "name": "38c530276e92fce21717c834163b3344", "is_reserved": 0, "fusion_lat": 0.0}, {"type": "electric_scooter", "rental_uris": {"ios": "https://dc.lft.to/lastmile_qr_scan", "android": "https://dc.lft.to/lastmile_qr_scan"}, "lon": -77.02205266666667, "fusion_lon": 0.0, "is_disabled": 0, "lat": 38.89501816666667, "bike_id": "c0305f55a129881b164c3bafee6d9660", "name": "c0305f55a129881b164c3bafee6d9660", "is_reserved": 0, "fusion_lat": 0.0}, {"type": "electric_bike", "rental_uris": {"ios": "https://dc.lft.to/lastmile_qr_scan", "android": "https://dc.lft.to/lastmile_qr_scan"}, "lon": -76.95197266666666, "fusion_lon": 0.0, "is_disabled": 0, "lat": 38.9367745, "bike_id": "9e0c07556dc021797dadd2320c1c9925", "name": "9e0c07556dc021797dadd2320c1c9925", "is_reserved": 0, "fusion_lat": 0.0}, {"type": "electric_bike", "rental_uris": {"ios": "https://dc.lft.to/lastmile_qr_scan", "android": "https://dc.lft.to/lastmile_qr_scan"}, "lon": -76.97268316666667, "fusion_lon": 0.0, "is_disabled": 0, "lat": 38.9196445, "bike_id": "0e02953808ace65a9ff172f89811336c", "name": "0e02953808ace65a9ff172f89811336c", "is_reserved": 0, "fusion_lat": 0.0}, {"type": "electric_scooter", "rental_uris": {"ios": "https://dc.lft.to/lastmile_qr_scan", "android": "https://dc.lft.to/lastmile_qr_scan"}, "lon": -77.0362125, "fusion_lon": 0.0, "is_disabled": 0, "lat": 38.9030105, "bike_id": "695b1c56ca85f32ca6d109b78a95b807", "name": "695b1c56ca85f32ca6d109b78a95b807", "is_reserved": 0, "fusion_lat": 0.0}, {"type": "electric_scooter", "rental_uris": {"ios": "https://dc.lft.to/lastmile_qr_scan", "android": "https://dc.lft.to/lastmile_qr_scan"}, "lon": -77.0413535, "fusion_lon": 0.0, "is_disabled": 0, "lat": 38.8994145, "bike_id": "89f00dbba5997e3d8fef78a46104e8d3", "name": "89f00dbba5997e3d8fef78a46104e8d3", "is_reserved": 0, "fusion_lat": 0.0}, {"type": "electric_scooter", "rental_uris": {"ios": "https://dc.lft.to/lastmile_qr_scan", "android": "https://dc.lft.to/lastmile_qr_scan"}, "lon": -77.02620733333333, "fusion_lon": 0.0, "is_disabled": 0, "lat": 38.94821983333333, "bike_id": "1d48ea0a757127f572db1627e1ee4a72", "name": "1d48ea0a757127f572db1627e1ee4a72", "is_reserved": 0, "fusion_lat": 0.0}, {"type": "electric_scooter", "rental_uris": {"ios": "https://dc.lft.to/lastmile_qr_scan", "android": "https://dc.lft.to/lastmile_qr_scan"}, "lon": -76.99496966666666, "fusion_lon": 0.0, "is_disabled": 0, "lat": 38.86244533333333, "bike_id": "5d3427f03c80c025b55ea6baa0e93a8a", "name": "5d3427f03c80c025b55ea6baa0e93a8a", "is_reserved": 0, "fusion_lat": 0.0}, {"type": "electric_bike", "rental_uris": {"ios": "https://dc.lft.to/lastmile_qr_scan", "android": "https://dc.lft.to/lastmile_qr_scan"}, "lon": -77.03140566666667, "fusion_lon": 0.0, "is_disabled": 0, "lat": 38.994257166666664, "bike_id": "6125261f4b854c5128ba62374f6e2c01", "name": "6125261f4b854c5128ba62374f6e2c01", "is_reserved": 0, "fusion_lat": 0.0}, {"type": "electric_bike", "rental_uris": {"ios": "https://dc.lft.to/lastmile_qr_scan", "android": "https://dc.lft.to/lastmile_qr_scan"}, "lon": -77.21641966666667, "fusion_lon": 0.0, "is_disabled": 0, "lat": 38.9301315, "bike_id": "f413971b6e2a338008aa8840915995a4", "name": "f413971b6e2a338008aa8840915995a4", "is_reserved": 0, "fusion_lat": 0.0}, {"type": "electric_bike", "rental_uris": {"ios": "https://dc.lft.to/lastmile_qr_scan", "android": "https://dc.lft.to/lastmile_qr_scan"}, "lon": -76.960614, "fusion_lon": 0.0, "is_disabled": 0, "lat": 38.884092333333335, "bike_id": "f82353e154b092bb30ca11037a4e5af4", "name": "f82353e154b092bb30ca11037a4e5af4", "is_reserved": 0, "fusion_lat": 0.0}, {"type": "electric_scooter", "rental_uris": {"ios": "https://dc.lft.to/lastmile_qr_scan", "android": "https://dc.lft.to/lastmile_qr_scan"}, "lon": -77.01939966666667, "fusion_lon": 0.0, "is_disabled": 0, "lat": 38.948539, "bike_id": "b21c1038c46dafa013765ab2963c9ddb", "name": "b21c1038c46dafa013765ab2963c9ddb", "is_reserved": 0, "fusion_lat": 0.0}, {"type": "electric_scooter", "rental_uris": {"ios": "https://dc.lft.to/lastmile_qr_scan", "android": "https://dc.lft.to/lastmile_qr_scan"}, "lon": -76.99909183333334, "fusion_lon": 0.0, "is_disabled": 0, "lat": 38.89887816666667, "bike_id": "a867513049e2d427a9e5dcea92a8327e", "name": "a867513049e2d427a9e5dcea92a8327e", "is_reserved": 0, "fusion_lat": 0.0}, {"type": "electric_bike", "rental_uris": {"ios": "https://dc.lft.to/lastmile_qr_scan", "android": "https://dc.lft.to/lastmile_qr_scan"}, "lon": -77.0632925, "fusion_lon": 0.0, "is_disabled": 0, "lat": 38.92107716666666, "bike_id": "6e015c1adf06c398672d2380512816c8", "name": "6e015c1adf06c398672d2380512816c8", "is_reserved": 0, "fusion_lat": 0.0}, {"type": "electric_bike", "rental_uris": {"ios": "https://dc.lft.to/lastmile_qr_scan", "android": "https://dc.lft.to/lastmile_qr_scan"}, "lon": -77.02468316666666, "fusion_lon": 0.0, "is_disabled": 0, "lat": 38.95296033333333, "bike_id": "af6ebee8b96f8b0a5d138b888eb96678", "name": "af6ebee8b96f8b0a5d138b888eb96678", "is_reserved": 0, "fusion_lat": 0.0}, {"type": "electric_scooter", "rental_uris": {"ios": "https://dc.lft.to/lastmile_qr_scan", "android": "https://dc.lft.to/lastmile_qr_scan"}, "lon": -77.03218083333333, "fusion_lon": 0.0, "is_disabled": 0, "lat": 38.918548666666666, "bike_id": "54a9b170e440e010dfe3f79941ac7ec8", "name": "54a9b170e440e010dfe3f79941ac7ec8", "is_reserved": 0, "fusion_lat": 0.0}, {"type": "electric_scooter", "rental_uris": {"ios": "https://dc.lft.to/lastmile_qr_scan", "android": "https://dc.lft.to/lastmile_qr_scan"}, "lon": -77.04924083333333, "fusion_lon": 0.0, "is_disabled": 0, "lat": 38.900941, "bike_id": "3114c85e276c4198630d8b76fd1061ec", "name": "3114c85e276c4198630d8b76fd1061ec", "is_reserved": 0, "fusion_lat": 0.0}, {"type": "electric_scooter", "rental_uris": {"ios": "https://dc.lft.to/lastmile_qr_scan", "android": "https://dc.lft.to/lastmile_qr_scan"}, "lon": -77.0408205, "fusion_lon": 0.0, "is_disabled": 0, "lat": 38.91705133333333, "bike_id": "09ca22342c775fa74285074b348ebaf2", "name": "09ca22342c775fa74285074b348ebaf2", "is_reserved": 0, "fusion_lat": 0.0}, {"type": "electric_scooter", "rental_uris": {"ios": "https://dc.lft.to/lastmile_qr_scan", "android": "https://dc.lft.to/lastmile_qr_scan"}, "lon": -76.9888745, "fusion_lon": 0.0, "is_disabled": 0, "lat": 38.866550333333336, "bike_id": "ac319af3426bff31aa86f86e4e812b01", "name": "ac319af3426bff31aa86f86e4e812b01", "is_reserved": 0, "fusion_lat": 0.0}, {"type": "electric_scooter", "rental_uris": {"ios": "https://dc.lft.to/lastmile_qr_scan", "android": "https://dc.lft.to/lastmile_qr_scan"}, "lon": -77.02057733333334, "fusion_lon": 0.0, "is_disabled": 0, "lat": 38.908477500000004, "bike_id": "160bb740948bc4774476b43e5a845aea", "name": "160bb740948bc4774476b43e5a845aea", "is_reserved": 0, "fusion_lat": 0.0}, {"type": "electric_scooter", "rental_uris": {"ios": "https://dc.lft.to/lastmile_qr_scan", "android": "https://dc.lft.to/lastmile_qr_scan"}, "lon": -77.02490483333334, "fusion_lon": 0.0, "is_disabled": 0, "lat": 38.91961633333333, "bike_id": "970afefba9059ada8fda7c72ae095f8b", "name": "970afefba9059ada8fda7c72ae095f8b", "is_reserved": 0, "fusion_lat": 0.0}, {"type": "electric_scooter", "rental_uris": {"ios": "https://dc.lft.to/lastmile_qr_scan", "android": "https://dc.lft.to/lastmile_qr_scan"}, "lon": -76.99630616666667, "fusion_lon": 0.0, "is_disabled": 0, "lat": 38.90000466666667, "bike_id": "4769d38ae4e3bceaf71844aa22190b8a", "name": "4769d38ae4e3bceaf71844aa22190b8a", "is_reserved": 0, "fusion_lat": 0.0}, {"type": "electric_bike", "rental_uris": {"ios": "https://dc.lft.to/lastmile_qr_scan", "android": "https://dc.lft.to/lastmile_qr_scan"}, "lon": -77.07116466666666, "fusion_lon": 0.0, "is_disabled": 0, "lat": 38.80065483333333, "bike_id": "5bd08c96cbf350066e16383113df44ff", "name": "5bd08c96cbf350066e16383113df44ff", "is_reserved": 0, "fusion_lat": 0.0}, {"type": "electric_bike", "rental_uris": {"ios": "https://dc.lft.to/lastmile_qr_scan", "android": "https://dc.lft.to/lastmile_qr_scan"}, "lon": -76.98425383333333, "fusion_lon": 0.0, "is_disabled": 0, "lat": 38.855198333333334, "bike_id": "3638c8189270e2bb51cef3bf8e19a27d", "name": "3638c8189270e2bb51cef3bf8e19a27d", "is_reserved": 0, "fusion_lat": 0.0}, {"type": "electric_bike", "rental_uris": {"ios": "https://dc.lft.to/lastmile_qr_scan", "android": "https://dc.lft.to/lastmile_qr_scan"}, "lon": -76.97518966666667, "fusion_lon": 0.0, "is_disabled": 0, "lat": 38.9670195, "bike_id": "cf3bbc147dca7726eb0bd297a368d82e", "name": "cf3bbc147dca7726eb0bd297a368d82e", "is_reserved": 0, "fusion_lat": 0.0}, {"type": "electric_scooter", "rental_uris": {"ios": "https://dc.lft.to/lastmile_qr_scan", "android": "https://dc.lft.to/lastmile_qr_scan"}, "lon": -76.969795, "fusion_lon": 0.0, "is_disabled": 0, "lat": 38.919504, "bike_id": "ae928cbc62bac55b06c25c6e18695989", "name": "ae928cbc62bac55b06c25c6e18695989", "is_reserved": 0, "fusion_lat": 0.0}, {"type": "electric_bike", "rental_uris": {"ios": "https://dc.lft.to/lastmile_qr_scan", "android": "https://dc.lft.to/lastmile_qr_scan"}, "lon": -77.079108, "fusion_lon": 0.0, "is_disabled": 0, "lat": 38.8022575, "bike_id": "cf2efdcff6d12549ab1957c24ecb4366", "name": "cf2efdcff6d12549ab1957c24ecb4366", "is_reserved": 0, "fusion_lat": 0.0}, {"type": "electric_scooter", "rental_uris": {"ios": "https://dc.lft.to/lastmile_qr_scan", "android": "https://dc.lft.to/lastmile_qr_scan"}, "lon": -77.02320983333334, "fusion_lon": 0.0, "is_disabled": 0, "lat": 38.9305825, "bike_id": "26f5959ada8f43d47fda850db8ac0461", "name": "26f5959ada8f43d47fda850db8ac0461", "is_reserved": 0, "fusion_lat": 0.0}, {"type": "electric_scooter", "rental_uris": {"ios": "https://dc.lft.to/lastmile_qr_scan", "android": "https://dc.lft.to/lastmile_qr_scan"}, "lon": -77.04350766666667, "fusion_lon": 0.0, "is_disabled": 0, "lat": 38.9023785, "bike_id": "260a3e75ac3f9e2c48a9ee91e91ca595", "name": "260a3e75ac3f9e2c48a9ee91e91ca595", "is_reserved": 0, "fusion_lat": 0.0}, {"type": "electric_scooter", "rental_uris": {"ios": "https://dc.lft.to/lastmile_qr_scan", "android": "https://dc.lft.to/lastmile_qr_scan"}, "lon": -77.04349116666667, "fusion_lon": 0.0, "is_disabled": 0, "lat": 38.922345, "bike_id": "9f565eb49c721e5756f337e83f1329cc", "name": "9f565eb49c721e5756f337e83f1329cc", "is_reserved": 0, "fusion_lat": 0.0}, {"type": "electric_scooter", "rental_uris": {"ios": "https://dc.lft.to/lastmile_qr_scan", "android": "https://dc.lft.to/lastmile_qr_scan"}, "lon": -76.99039283333333, "fusion_lon": 0.0, "is_disabled": 0, "lat": 38.863665833333336, "bike_id": "da89a60b7725ef7cc3310dadf0494f8f", "name": "da89a60b7725ef7cc3310dadf0494f8f", "is_reserved": 0, "fusion_lat": 0.0}, {"type": "electric_scooter", "rental_uris": {"ios": "https://dc.lft.to/lastmile_qr_scan", "android": "https://dc.lft.to/lastmile_qr_scan"}, "lon": -77.04031516666667, "fusion_lon": 0.0, "is_disabled": 0, "lat": 38.924411, "bike_id": "db42e69499e6a2bfe24e60ce1b5cc11e", "name": "db42e69499e6a2bfe24e60ce1b5cc11e", "is_reserved": 0, "fusion_lat": 0.0}, {"type": "electric_scooter", "rental_uris": {"ios": "https://dc.lft.to/lastmile_qr_scan", "android": "https://dc.lft.to/lastmile_qr_scan"}, "lon": -77.0415575, "fusion_lon": 0.0, "is_disabled": 0, "lat": 38.9055105, "bike_id": "f3adde1a9e6321c16c63daaf8853206f", "name": "f3adde1a9e6321c16c63daaf8853206f", "is_reserved": 0, "fusion_lat": 0.0}, {"type": "electric_scooter", "rental_uris": {"ios": "https://dc.lft.to/lastmile_qr_scan", "android": "https://dc.lft.to/lastmile_qr_scan"}, "lon": -77.00921433333333, "fusion_lon": 0.0, "is_disabled": 0, "lat": 38.918512166666666, "bike_id": "82289dd5982d64140e54d22c141f1cdd", "name": "82289dd5982d64140e54d22c141f1cdd", "is_reserved": 0, "fusion_lat": 0.0}, {"type": "electric_scooter", "rental_uris": {"ios": "https://dc.lft.to/lastmile_qr_scan", "android": "https://dc.lft.to/lastmile_qr_scan"}, "lon": -77.01463366666667, "fusion_lon": 0.0, "is_disabled": 0, "lat": 38.877291166666666, "bike_id": "80a9748b531e80a6172847d1521e49bd", "name": "80a9748b531e80a6172847d1521e49bd", "is_reserved": 0, "fusion_lat": 0.0}, {"type": "electric_scooter", "rental_uris": {"ios": "https://dc.lft.to/lastmile_qr_scan", "android": "https://dc.lft.to/lastmile_qr_scan"}, "lon": -77.03440516666667, "fusion_lon": 0.0, "is_disabled": 0, "lat": 38.90269166666667, "bike_id": "4853f607a19443578ca3f7d438029592", "name": "4853f607a19443578ca3f7d438029592", "is_reserved": 0, "fusion_lat": 0.0}, {"type": "electric_scooter", "rental_uris": {"ios": "https://dc.lft.to/lastmile_qr_scan", "android": "https://dc.lft.to/lastmile_qr_scan"}, "lon": -77.04350466666666, "fusion_lon": 0.0, "is_disabled": 0, "lat": 38.913008, "bike_id": "5ced03a29ad1a490e53730e8199fe9a3", "name": "5ced03a29ad1a490e53730e8199fe9a3", "is_reserved": 0, "fusion_lat": 0.0}, {"type": "electric_scooter", "rental_uris": {"ios": "https://dc.lft.to/lastmile_qr_scan", "android": "https://dc.lft.to/lastmile_qr_scan"}, "lon": -77.032256, "fusion_lon": 0.0, "is_disabled": 0, "lat": 38.923580666666666, "bike_id": "ff9a1bcc1db4ebeb81671be05d5515f9", "name": "ff9a1bcc1db4ebeb81671be05d5515f9", "is_reserved": 0, "fusion_lat": 0.0}, {"type": "electric_scooter", "rental_uris": {"ios": "https://dc.lft.to/lastmile_qr_scan", "android": "https://dc.lft.to/lastmile_qr_scan"}, "lon": -77.02496366666666, "fusion_lon": 0.0, "is_disabled": 0, "lat": 38.91808833333333, "bike_id": "71aca6eabbe55c0fa0571cb37108bf2d", "name": "71aca6eabbe55c0fa0571cb37108bf2d", "is_reserved": 0, "fusion_lat": 0.0}, {"type": "electric_scooter", "rental_uris": {"ios": "https://dc.lft.to/lastmile_qr_scan", "android": "https://dc.lft.to/lastmile_qr_scan"}, "lon": -77.028438, "fusion_lon": 0.0, "is_disabled": 0, "lat": 38.916975666666666, "bike_id": "a6fe627b6e3497b8ba9eb1b8d262f57a", "name": "a6fe627b6e3497b8ba9eb1b8d262f57a", "is_reserved": 0, "fusion_lat": 0.0}, {"type": "electric_scooter", "rental_uris": {"ios": "https://dc.lft.to/lastmile_qr_scan", "android": "https://dc.lft.to/lastmile_qr_scan"}, "lon": -77.0242855, "fusion_lon": 0.0, "is_disabled": 0, "lat": 38.956236833333335, "bike_id": "a837cba85eb6eefce82b779748caf42d", "name": "a837cba85eb6eefce82b779748caf42d", "is_reserved": 0, "fusion_lat": 0.0}, {"type": "electric_scooter", "rental_uris": {"ios": "https://dc.lft.to/lastmile_qr_scan", "android": "https://dc.lft.to/lastmile_qr_scan"}, "lon": -77.07308, "fusion_lon": 0.0, "is_disabled": 0, "lat": 38.928796166666665, "bike_id": "792a26f9155d9924962802045102b780", "name": "792a26f9155d9924962802045102b780", "is_reserved": 0, "fusion_lat": 0.0}, {"type": "electric_scooter", "rental_uris": {"ios": "https://dc.lft.to/lastmile_qr_scan", "android": "https://dc.lft.to/lastmile_qr_scan"}, "lon": -77.037566, "fusion_lon": 0.0, "is_disabled": 0, "lat": 38.91270883333333, "bike_id": "e800f4bbaa2ef3d3257ce5f87e13d944", "name": "e800f4bbaa2ef3d3257ce5f87e13d944", "is_reserved": 0, "fusion_lat": 0.0}, {"type": "electric_scooter", "rental_uris": {"ios": "https://dc.lft.to/lastmile_qr_scan", "android": "https://dc.lft.to/lastmile_qr_scan"}, "lon": -77.02344533333333, "fusion_lon": 0.0, "is_disabled": 0, "lat": 38.91776766666667, "bike_id": "3a011b7d1cd8526ce64cfc81851bde95", "name": "3a011b7d1cd8526ce64cfc81851bde95", "is_reserved": 0, "fusion_lat": 0.0}, {"type": "electric_scooter", "rental_uris": {"ios": "https://dc.lft.to/lastmile_qr_scan", "android": "https://dc.lft.to/lastmile_qr_scan"}, "lon": -76.98886433333334, "fusion_lon": 0.0, "is_disabled": 0, "lat": 38.866606833333336, "bike_id": "74833e51d92c634193b4169c5cb33ff2", "name": "74833e51d92c634193b4169c5cb33ff2", "is_reserved": 0, "fusion_lat": 0.0}, {"type": "electric_scooter", "rental_uris": {"ios": "https://dc.lft.to/lastmile_qr_scan", "android": "https://dc.lft.to/lastmile_qr_scan"}, "lon": -77.0318545, "fusion_lon": 0.0, "is_disabled": 0, "lat": 38.917461333333335, "bike_id": "18c027f5d3babd024b7b54babdaec2ce", "name": "18c027f5d3babd024b7b54babdaec2ce", "is_reserved": 0, "fusion_lat": 0.0}, {"type": "electric_scooter", "rental_uris": {"ios": "https://dc.lft.to/lastmile_qr_scan", "android": "https://dc.lft.to/lastmile_qr_scan"}, "lon": -77.03654766666666, "fusion_lon": 0.0, "is_disabled": 0, "lat": 38.936355166666665, "bike_id": "b95aebcd320569acc372ccdc4b99bc24", "name": "b95aebcd320569acc372ccdc4b99bc24", "is_reserved": 0, "fusion_lat": 0.0}, {"type": "electric_scooter", "rental_uris": {"ios": "https://dc.lft.to/lastmile_qr_scan", "android": "https://dc.lft.to/lastmile_qr_scan"}, "lon": -76.93369833333334, "fusion_lon": 0.0, "is_disabled": 0, "lat": 38.89901866666666, "bike_id": "070c51ddfcb140ac52671ecef50e9292", "name": "070c51ddfcb140ac52671ecef50e9292", "is_reserved": 0, "fusion_lat": 0.0}, {"type": "electric_scooter", "rental_uris": {"ios": "https://dc.lft.to/lastmile_qr_scan", "android": "https://dc.lft.to/lastmile_qr_scan"}, "lon": -76.9273605, "fusion_lon": 0.0, "is_disabled": 0, "lat": 38.8997105, "bike_id": "8573a6a8b5859159a84daadea530c64e", "name": "8573a6a8b5859159a84daadea530c64e", "is_reserved": 0, "fusion_lat": 0.0}, {"type": "electric_scooter", "rental_uris": {"ios": "https://dc.lft.to/lastmile_qr_scan", "android": "https://dc.lft.to/lastmile_qr_scan"}, "lon": -77.01133866666666, "fusion_lon": 0.0, "is_disabled": 0, "lat": 38.917067833333334, "bike_id": "1147683c191cb5a2444d383cd2e4d12e", "name": "1147683c191cb5a2444d383cd2e4d12e", "is_reserved": 0, "fusion_lat": 0.0}, {"type": "electric_scooter", "rental_uris": {"ios": "https://dc.lft.to/lastmile_qr_scan", "android": "https://dc.lft.to/lastmile_qr_scan"}, "lon": -77.03234533333334, "fusion_lon": 0.0, "is_disabled": 0, "lat": 38.902887, "bike_id": "c77b66b52ffea00ad01434c141cca334", "name": "c77b66b52ffea00ad01434c141cca334", "is_reserved": 0, "fusion_lat": 0.0}, {"type": "electric_scooter", "rental_uris": {"ios": "https://dc.lft.to/lastmile_qr_scan", "android": "https://dc.lft.to/lastmile_qr_scan"}, "lon": -77.0402745, "fusion_lon": 0.0, "is_disabled": 0, "lat": 38.92443316666667, "bike_id": "3d2bd03f1a535945d47c5a88f1186a18", "name": "3d2bd03f1a535945d47c5a88f1186a18", "is_reserved": 0, "fusion_lat": 0.0}, {"type": "electric_scooter", "rental_uris": {"ios": "https://dc.lft.to/lastmile_qr_scan", "android": "https://dc.lft.to/lastmile_qr_scan"}, "lon": -77.01324566666666, "fusion_lon": 0.0, "is_disabled": 0, "lat": 38.906053, "bike_id": "60102c310d8858282fa746b9c3387752", "name": "60102c310d8858282fa746b9c3387752", "is_reserved": 0, "fusion_lat": 0.0}, {"type": "electric_scooter", "rental_uris": {"ios": "https://dc.lft.to/lastmile_qr_scan", "android": "https://dc.lft.to/lastmile_qr_scan"}, "lon": -76.98839116666667, "fusion_lon": 0.0, "is_disabled": 0, "lat": 38.89249683333333, "bike_id": "54d20f4f7ab9f4df1cb7cdae23fdebc9", "name": "54d20f4f7ab9f4df1cb7cdae23fdebc9", "is_reserved": 0, "fusion_lat": 0.0}, {"type": "electric_scooter", "rental_uris": {"ios": "https://dc.lft.to/lastmile_qr_scan", "android": "https://dc.lft.to/lastmile_qr_scan"}, "lon": -77.031624, "fusion_lon": 0.0, "is_disabled": 0, "lat": 38.89972316666667, "bike_id": "41948905a8602e559c080c574763dbd8", "name": "41948905a8602e559c080c574763dbd8", "is_reserved": 0, "fusion_lat": 0.0}, {"type": "electric_scooter", "rental_uris": {"ios": "https://dc.lft.to/lastmile_qr_scan", "android": "https://dc.lft.to/lastmile_qr_scan"}, "lon": -77.04476333333334, "fusion_lon": 0.0, "is_disabled": 0, "lat": 38.911626, "bike_id": "531c94ca63a1f5d9302b02327f8f4403", "name": "531c94ca63a1f5d9302b02327f8f4403", "is_reserved": 0, "fusion_lat": 0.0}, {"type": "electric_scooter", "rental_uris": {"ios": "https://dc.lft.to/lastmile_qr_scan", "android": "https://dc.lft.to/lastmile_qr_scan"}, "lon": -77.03288066666667, "fusion_lon": 0.0, "is_disabled": 0, "lat": 38.92550516666667, "bike_id": "048bfc13efc1fadf512ee1cf9a8c3d31", "name": "048bfc13efc1fadf512ee1cf9a8c3d31", "is_reserved": 0, "fusion_lat": 0.0}, {"type": "electric_scooter", "rental_uris": {"ios": "https://dc.lft.to/lastmile_qr_scan", "android": "https://dc.lft.to/lastmile_qr_scan"}, "lon": -77.01177133333333, "fusion_lon": 0.0, "is_disabled": 0, "lat": 38.903126666666665, "bike_id": "36028b3878a4520651301359f0fdc1d0", "name": "36028b3878a4520651301359f0fdc1d0", "is_reserved": 0, "fusion_lat": 0.0}, {"type": "electric_scooter", "rental_uris": {"ios": "https://dc.lft.to/lastmile_qr_scan", "android": "https://dc.lft.to/lastmile_qr_scan"}, "lon": -77.04018416666666, "fusion_lon": 0.0, "is_disabled": 0, "lat": 38.92362983333334, "bike_id": "16a276cdaa03480b3dac83c07e6d8c8c", "name": "16a276cdaa03480b3dac83c07e6d8c8c", "is_reserved": 0, "fusion_lat": 0.0}, {"type": "electric_scooter", "rental_uris": {"ios": "https://dc.lft.to/lastmile_qr_scan", "android": "https://dc.lft.to/lastmile_qr_scan"}, "lon": -76.99775966666667, "fusion_lon": 0.0, "is_disabled": 0, "lat": 38.844227833333335, "bike_id": "5a064c5a922636a3af64904a19ff62ac", "name": "5a064c5a922636a3af64904a19ff62ac", "is_reserved": 0, "fusion_lat": 0.0}, {"type": "electric_scooter", "rental_uris": {"ios": "https://dc.lft.to/lastmile_qr_scan", "android": "https://dc.lft.to/lastmile_qr_scan"}, "lon": -77.04044066666667, "fusion_lon": 0.0, "is_disabled": 0, "lat": 38.91416266666667, "bike_id": "5770a00fb9f951fae4cda519fc985fe9", "name": "5770a00fb9f951fae4cda519fc985fe9", "is_reserved": 0, "fusion_lat": 0.0}, {"type": "electric_scooter", "rental_uris": {"ios": "https://dc.lft.to/lastmile_qr_scan", "android": "https://dc.lft.to/lastmile_qr_scan"}, "lon": -76.95755716666666, "fusion_lon": 0.0, "is_disabled": 0, "lat": 38.884293666666665, "bike_id": "de3b9426a81cc5102c3e5ae03da7d03e", "name": "de3b9426a81cc5102c3e5ae03da7d03e", "is_reserved": 0, "fusion_lat": 0.0}, {"type": "electric_bike", "rental_uris": {"ios": "https://dc.lft.to/lastmile_qr_scan", "android": "https://dc.lft.to/lastmile_qr_scan"}, "lon": -77.10601266666667, "fusion_lon": 0.0, "is_disabled": 0, "lat": 38.928914166666665, "bike_id": "bf53af2c5b771c92b3f7b087d08bc2f7", "name": "bf53af2c5b771c92b3f7b087d08bc2f7", "is_reserved": 0, "fusion_lat": 0.0}, {"type": "electric_scooter", "rental_uris": {"ios": "https://dc.lft.to/lastmile_qr_scan", "android": "https://dc.lft.to/lastmile_qr_scan"}, "lon": -77.02703533333333, "fusion_lon": 0.0, "is_disabled": 0, "lat": 38.906684, "bike_id": "52d1969618fedbf338646a8c9cf8927f", "name": "52d1969618fedbf338646a8c9cf8927f", "is_reserved": 0, "fusion_lat": 0.0}, {"type": "electric_scooter", "rental_uris": {"ios": "https://dc.lft.to/lastmile_qr_scan", "android": "https://dc.lft.to/lastmile_qr_scan"}, "lon": -77.0212505, "fusion_lon": 0.0, "is_disabled": 0, "lat": 38.88746233333333, "bike_id": "48416a80d940af87583bedd8273fb855", "name": "48416a80d940af87583bedd8273fb855", "is_reserved": 0, "fusion_lat": 0.0}, {"type": "electric_scooter", "rental_uris": {"ios": "https://dc.lft.to/lastmile_qr_scan", "android": "https://dc.lft.to/lastmile_qr_scan"}, "lon": -77.0157525, "fusion_lon": 0.0, "is_disabled": 0, "lat": 38.91683966666667, "bike_id": "f7fa20899ce81ba5bac7252026a939c4", "name": "f7fa20899ce81ba5bac7252026a939c4", "is_reserved": 0, "fusion_lat": 0.0}, {"type": "electric_scooter", "rental_uris": {"ios": "https://dc.lft.to/lastmile_qr_scan", "android": "https://dc.lft.to/lastmile_qr_scan"}, "lon": -77.03876016666666, "fusion_lon": 0.0, "is_disabled": 0, "lat": 38.933355166666665, "bike_id": "2759160e7442b82b92e253a373894423", "name": "2759160e7442b82b92e253a373894423", "is_reserved": 0, "fusion_lat": 0.0}, {"type": "electric_scooter", "rental_uris": {"ios": "https://dc.lft.to/lastmile_qr_scan", "android": "https://dc.lft.to/lastmile_qr_scan"}, "lon": -77.0327265, "fusion_lon": 0.0, "is_disabled": 0, "lat": 38.9193355, "bike_id": "9fa2ec462ed38edc7657581fcac0ae1f", "name": "9fa2ec462ed38edc7657581fcac0ae1f", "is_reserved": 0, "fusion_lat": 0.0}, {"type": "electric_bike", "rental_uris": {"ios": "https://dc.lft.to/lastmile_qr_scan", "android": "https://dc.lft.to/lastmile_qr_scan"}, "lon": -77.07901416666667, "fusion_lon": 0.0, "is_disabled": 0, "lat": 38.839367833333334, "bike_id": "f093c914f29537651c8b471056ac7fcb", "name": "f093c914f29537651c8b471056ac7fcb", "is_reserved": 0, "fusion_lat": 0.0}, {"type": "electric_scooter", "rental_uris": {"ios": "https://dc.lft.to/lastmile_qr_scan", "android": "https://dc.lft.to/lastmile_qr_scan"}, "lon": -77.02183133333334, "fusion_lon": 0.0, "is_disabled": 0, "lat": 38.8930565, "bike_id": "95d5e7a79631cb703f1d9a32749f4f1d", "name": "95d5e7a79631cb703f1d9a32749f4f1d", "is_reserved": 0, "fusion_lat": 0.0}, {"type": "electric_scooter", "rental_uris": {"ios": "https://dc.lft.to/lastmile_qr_scan", "android": "https://dc.lft.to/lastmile_qr_scan"}, "lon": -77.03214133333333, "fusion_lon": 0.0, "is_disabled": 0, "lat": 38.917176, "bike_id": "0b8c384b839a3e9ca983a23ec00afe8f", "name": "0b8c384b839a3e9ca983a23ec00afe8f", "is_reserved": 0, "fusion_lat": 0.0}, {"type": "electric_scooter", "rental_uris": {"ios": "https://dc.lft.to/lastmile_qr_scan", "android": "https://dc.lft.to/lastmile_qr_scan"}, "lon": -76.978029, "fusion_lon": 0.0, "is_disabled": 0, "lat": 38.8945505, "bike_id": "46f869c4f5dc677dfbc4cfc487c609e8", "name": "46f869c4f5dc677dfbc4cfc487c609e8", "is_reserved": 0, "fusion_lat": 0.0}, {"type": "electric_bike", "rental_uris": {"ios": "https://dc.lft.to/lastmile_qr_scan", "android": "https://dc.lft.to/lastmile_qr_scan"}, "lon": -76.98203783333334, "fusion_lon": 0.0, "is_disabled": 0, "lat": 38.9850275, "bike_id": "e50b9cd934f92db18bfe8525ec0cfa51", "name": "e50b9cd934f92db18bfe8525ec0cfa51", "is_reserved": 0, "fusion_lat": 0.0}, {"type": "electric_scooter", "rental_uris": {"ios": "https://dc.lft.to/lastmile_qr_scan", "android": "https://dc.lft.to/lastmile_qr_scan"}, "lon": -77.02493, "fusion_lon": 0.0, "is_disabled": 0, "lat": 38.919755, "bike_id": "2617635f3a87677d6c3d64d2df544954", "name": "2617635f3a87677d6c3d64d2df544954", "is_reserved": 0, "fusion_lat": 0.0}, {"type": "electric_bike", "rental_uris": {"ios": "https://dc.lft.to/lastmile_qr_scan", "android": "https://dc.lft.to/lastmile_qr_scan"}, "lon": -77.06861033333334, "fusion_lon": 0.0, "is_disabled": 0, "lat": 38.8057585, "bike_id": "50c463ae54a3a24bd6e5148a41a28760", "name": "50c463ae54a3a24bd6e5148a41a28760", "is_reserved": 0, "fusion_lat": 0.0}, {"type": "electric_scooter", "rental_uris": {"ios": "https://dc.lft.to/lastmile_qr_scan", "android": "https://dc.lft.to/lastmile_qr_scan"}, "lon": -77.027521, "fusion_lon": 0.0, "is_disabled": 0, "lat": 38.9278235, "bike_id": "679645fa8255be8b5881af8caec692a9", "name": "679645fa8255be8b5881af8caec692a9", "is_reserved": 0, "fusion_lat": 0.0}, {"type": "electric_scooter", "rental_uris": {"ios": "https://dc.lft.to/lastmile_qr_scan", "android": "https://dc.lft.to/lastmile_qr_scan"}, "lon": -77.02105716666667, "fusion_lon": 0.0, "is_disabled": 0, "lat": 38.94577133333333, "bike_id": "d59ec0e004a930333a4da7fa6e1f1c54", "name": "d59ec0e004a930333a4da7fa6e1f1c54", "is_reserved": 0, "fusion_lat": 0.0}, {"type": "electric_scooter", "rental_uris": {"ios": "https://dc.lft.to/lastmile_qr_scan", "android": "https://dc.lft.to/lastmile_qr_scan"}, "lon": -77.02292916666667, "fusion_lon": 0.0, "is_disabled": 0, "lat": 38.916728166666665, "bike_id": "47d0d5f91364c846baa6bebde1b46b0b", "name": "47d0d5f91364c846baa6bebde1b46b0b", "is_reserved": 0, "fusion_lat": 0.0}, {"type": "electric_bike", "rental_uris": {"ios": "https://dc.lft.to/lastmile_qr_scan", "android": "https://dc.lft.to/lastmile_qr_scan"}, "lon": -77.01033816666667, "fusion_lon": 0.0, "is_disabled": 0, "lat": 38.95877483333334, "bike_id": "3e19591327b44642ba7f22bd6c8110bf", "name": "3e19591327b44642ba7f22bd6c8110bf", "is_reserved": 0, "fusion_lat": 0.0}, {"type": "electric_bike", "rental_uris": {"ios": "https://dc.lft.to/lastmile_qr_scan", "android": "https://dc.lft.to/lastmile_qr_scan"}, "lon": -77.01769966666667, "fusion_lon": 0.0, "is_disabled": 0, "lat": 38.9827295, "bike_id": "37becd070f790de565d7c0817a94fa42", "name": "37becd070f790de565d7c0817a94fa42", "is_reserved": 0, "fusion_lat": 0.0}, {"type": "electric_scooter", "rental_uris": {"ios": "https://dc.lft.to/lastmile_qr_scan", "android": "https://dc.lft.to/lastmile_qr_scan"}, "lon": -77.03201916666667, "fusion_lon": 0.0, "is_disabled": 0, "lat": 38.9096535, "bike_id": "2adad369f96d2f2af366d7a6aba9cc0c", "name": "2adad369f96d2f2af366d7a6aba9cc0c", "is_reserved": 0, "fusion_lat": 0.0}, {"type": "electric_scooter", "rental_uris": {"ios": "https://dc.lft.to/lastmile_qr_scan", "android": "https://dc.lft.to/lastmile_qr_scan"}, "lon": -77.031218, "fusion_lon": 0.0, "is_disabled": 0, "lat": 38.959337833333336, "bike_id": "e242dd98d613c804159229960fcd5493", "name": "e242dd98d613c804159229960fcd5493", "is_reserved": 0, "fusion_lat": 0.0}, {"type": "electric_scooter", "rental_uris": {"ios": "https://dc.lft.to/lastmile_qr_scan", "android": "https://dc.lft.to/lastmile_qr_scan"}, "lon": -77.049974, "fusion_lon": 0.0, "is_disabled": 0, "lat": 38.89230533333333, "bike_id": "6d09de077ddb641eb6a18ba2fb11f836", "name": "6d09de077ddb641eb6a18ba2fb11f836", "is_reserved": 0, "fusion_lat": 0.0}, {"type": "electric_scooter", "rental_uris": {"ios": "https://dc.lft.to/lastmile_qr_scan", "android": "https://dc.lft.to/lastmile_qr_scan"}, "lon": -77.02438483333333, "fusion_lon": 0.0, "is_disabled": 0, "lat": 38.9387145, "bike_id": "a514f248b09368a1ba9af16d9423f5f5", "name": "a514f248b09368a1ba9af16d9423f5f5", "is_reserved": 0, "fusion_lat": 0.0}, {"type": "electric_scooter", "rental_uris": {"ios": "https://dc.lft.to/lastmile_qr_scan", "android": "https://dc.lft.to/lastmile_qr_scan"}, "lon": -77.029754, "fusion_lon": 0.0, "is_disabled": 0, "lat": 38.924642, "bike_id": "feabca0c4b685e66a76289c80ac9fdae", "name": "feabca0c4b685e66a76289c80ac9fdae", "is_reserved": 0, "fusion_lat": 0.0}, {"type": "electric_bike", "rental_uris": {"ios": "https://dc.lft.to/lastmile_qr_scan", "android": "https://dc.lft.to/lastmile_qr_scan"}, "lon": -77.12961583333333, "fusion_lon": 0.0, "is_disabled": 0, "lat": 38.85220016666667, "bike_id": "b9412ef370065a24ffada11530d43a2a", "name": "b9412ef370065a24ffada11530d43a2a", "is_reserved": 0, "fusion_lat": 0.0}, {"type": "electric_bike", "rental_uris": {"ios": "https://dc.lft.to/lastmile_qr_scan", "android": "https://dc.lft.to/lastmile_qr_scan"}, "lon": -76.93229766666667, "fusion_lon": 0.0, "is_disabled": 0, "lat": 38.8659315, "bike_id": "0b609e893473c7f99973473d105eefee", "name": "0b609e893473c7f99973473d105eefee", "is_reserved": 0, "fusion_lat": 0.0}, {"type": "electric_bike", "rental_uris": {"ios": "https://dc.lft.to/lastmile_qr_scan", "android": "https://dc.lft.to/lastmile_qr_scan"}, "lon": -77.09471766666667, "fusion_lon": 0.0, "is_disabled": 0, "lat": 38.80746466666667, "bike_id": "92f44dd6ca836577fed82dd6b75e0ab8", "name": "92f44dd6ca836577fed82dd6b75e0ab8", "is_reserved": 0, "fusion_lat": 0.0}, {"type": "electric_scooter", "rental_uris": {"ios": "https://dc.lft.to/lastmile_qr_scan", "android": "https://dc.lft.to/lastmile_qr_scan"}, "lon": -77.0367415, "fusion_lon": 0.0, "is_disabled": 0, "lat": 38.91712316666667, "bike_id": "5cd678b1fbd5390fa6bb9ea6c78fb720", "name": "5cd678b1fbd5390fa6bb9ea6c78fb720", "is_reserved": 0, "fusion_lat": 0.0}, {"type": "electric_scooter", "rental_uris": {"ios": "https://dc.lft.to/lastmile_qr_scan", "android": "https://dc.lft.to/lastmile_qr_scan"}, "lon": -77.03177866666667, "fusion_lon": 0.0, "is_disabled": 0, "lat": 38.91921516666667, "bike_id": "2fc26dcf8435d1a1caaefb308ab4412d", "name": "2fc26dcf8435d1a1caaefb308ab4412d", "is_reserved": 0, "fusion_lat": 0.0}, {"type": "electric_scooter", "rental_uris": {"ios": "https://dc.lft.to/lastmile_qr_scan", "android": "https://dc.lft.to/lastmile_qr_scan"}, "lon": -77.031865, "fusion_lon": 0.0, "is_disabled": 0, "lat": 38.9098125, "bike_id": "7ae71a5a4641ae5156b8593bd34bff27", "name": "7ae71a5a4641ae5156b8593bd34bff27", "is_reserved": 0, "fusion_lat": 0.0}, {"type": "electric_scooter", "rental_uris": {"ios": "https://dc.lft.to/lastmile_qr_scan", "android": "https://dc.lft.to/lastmile_qr_scan"}, "lon": -77.0240805, "fusion_lon": 0.0, "is_disabled": 0, "lat": 38.898392, "bike_id": "a44648fbc01be5cfecd9d6d13f8db530", "name": "a44648fbc01be5cfecd9d6d13f8db530", "is_reserved": 0, "fusion_lat": 0.0}, {"type": "electric_scooter", "rental_uris": {"ios": "https://dc.lft.to/lastmile_qr_scan", "android": "https://dc.lft.to/lastmile_qr_scan"}, "lon": -77.017583, "fusion_lon": 0.0, "is_disabled": 0, "lat": 38.876789333333335, "bike_id": "267cbd2d23132cb4fbb6a8ef58da1064", "name": "267cbd2d23132cb4fbb6a8ef58da1064", "is_reserved": 0, "fusion_lat": 0.0}, {"type": "electric_scooter", "rental_uris": {"ios": "https://dc.lft.to/lastmile_qr_scan", "android": "https://dc.lft.to/lastmile_qr_scan"}, "lon": -77.02625983333333, "fusion_lon": 0.0, "is_disabled": 0, "lat": 38.892158, "bike_id": "78e90a2b426acdf10efce7e1fa549765", "name": "78e90a2b426acdf10efce7e1fa549765", "is_reserved": 0, "fusion_lat": 0.0}, {"type": "electric_scooter", "rental_uris": {"ios": "https://dc.lft.to/lastmile_qr_scan", "android": "https://dc.lft.to/lastmile_qr_scan"}, "lon": -77.0395525, "fusion_lon": 0.0, "is_disabled": 0, "lat": 38.91707016666667, "bike_id": "49ca64b53fba8a8a9769faf9928433ad", "name": "49ca64b53fba8a8a9769faf9928433ad", "is_reserved": 0, "fusion_lat": 0.0}, {"type": "electric_scooter", "rental_uris": {"ios": "https://dc.lft.to/lastmile_qr_scan", "android": "https://dc.lft.to/lastmile_qr_scan"}, "lon": -76.99033933333334, "fusion_lon": 0.0, "is_disabled": 0, "lat": 38.865262, "bike_id": "3a9f6636efb27aba3d04074a010b34e0", "name": "3a9f6636efb27aba3d04074a010b34e0", "is_reserved": 0, "fusion_lat": 0.0}, {"type": "electric_scooter", "rental_uris": {"ios": "https://dc.lft.to/lastmile_qr_scan", "android": "https://dc.lft.to/lastmile_qr_scan"}, "lon": -77.04017216666666, "fusion_lon": 0.0, "is_disabled": 0, "lat": 38.9244465, "bike_id": "1ce942e6d623d335772883a9de10fdb3", "name": "1ce942e6d623d335772883a9de10fdb3", "is_reserved": 0, "fusion_lat": 0.0}, {"type": "electric_scooter", "rental_uris": {"ios": "https://dc.lft.to/lastmile_qr_scan", "android": "https://dc.lft.to/lastmile_qr_scan"}, "lon": -77.014784, "fusion_lon": 0.0, "is_disabled": 0, "lat": 38.876406333333335, "bike_id": "ae98b5f427271128911bc8f5dc5bb9a5", "name": "ae98b5f427271128911bc8f5dc5bb9a5", "is_reserved": 0, "fusion_lat": 0.0}, {"type": "electric_bike", "rental_uris": {"ios": "https://dc.lft.to/lastmile_qr_scan", "android": "https://dc.lft.to/lastmile_qr_scan"}, "lon": -76.98100133333334, "fusion_lon": 0.0, "is_disabled": 0, "lat": 38.953534, "bike_id": "9134f87dc1528a3b09657c9ad79d35b4", "name": "9134f87dc1528a3b09657c9ad79d35b4", "is_reserved": 0, "fusion_lat": 0.0}, {"type": "electric_scooter", "rental_uris": {"ios": "https://dc.lft.to/lastmile_qr_scan", "android": "https://dc.lft.to/lastmile_qr_scan"}, "lon": -77.04318833333333, "fusion_lon": 0.0, "is_disabled": 0, "lat": 38.90434066666667, "bike_id": "0dc4a0a422f91a524ebd7b55a7f36283", "name": "0dc4a0a422f91a524ebd7b55a7f36283", "is_reserved": 0, "fusion_lat": 0.0}, {"type": "electric_scooter", "rental_uris": {"ios": "https://dc.lft.to/lastmile_qr_scan", "android": "https://dc.lft.to/lastmile_qr_scan"}, "lon": -77.04617466666667, "fusion_lon": 0.0, "is_disabled": 0, "lat": 38.9155285, "bike_id": "d123ea53baa3c1eef6b5f4544462d1b5", "name": "d123ea53baa3c1eef6b5f4544462d1b5", "is_reserved": 0, "fusion_lat": 0.0}, {"type": "electric_scooter", "rental_uris": {"ios": "https://dc.lft.to/lastmile_qr_scan", "android": "https://dc.lft.to/lastmile_qr_scan"}, "lon": -77.043869, "fusion_lon": 0.0, "is_disabled": 0, "lat": 38.9333435, "bike_id": "adcbd5aca8f2dfffb77ef3cf71a65c52", "name": "adcbd5aca8f2dfffb77ef3cf71a65c52", "is_reserved": 0, "fusion_lat": 0.0}, {"type": "electric_scooter", "rental_uris": {"ios": "https://dc.lft.to/lastmile_qr_scan", "android": "https://dc.lft.to/lastmile_qr_scan"}, "lon": -77.04010116666667, "fusion_lon": 0.0, "is_disabled": 0, "lat": 38.9099855, "bike_id": "2712d10bab25d269bba321bb5265b566", "name": "2712d10bab25d269bba321bb5265b566", "is_reserved": 0, "fusion_lat": 0.0}, {"type": "electric_bike", "rental_uris": {"ios": "https://dc.lft.to/lastmile_qr_scan", "android": "https://dc.lft.to/lastmile_qr_scan"}, "lon": -77.03942683333334, "fusion_lon": 0.0, "is_disabled": 0, "lat": 38.865041833333336, "bike_id": "673a447e97be94ba04dbc68b33dd34c2", "name": "673a447e97be94ba04dbc68b33dd34c2", "is_reserved": 0, "fusion_lat": 0.0}, {"type": "electric_scooter", "rental_uris": {"ios": "https://dc.lft.to/lastmile_qr_scan", "android": "https://dc.lft.to/lastmile_qr_scan"}, "lon": -77.01806766666667, "fusion_lon": 0.0, "is_disabled": 0, "lat": 38.9134065, "bike_id": "44ac95632b106d5dbaafbca667ad5a1d", "name": "44ac95632b106d5dbaafbca667ad5a1d", "is_reserved": 0, "fusion_lat": 0.0}, {"type": "electric_bike", "rental_uris": {"ios": "https://dc.lft.to/lastmile_qr_scan", "android": "https://dc.lft.to/lastmile_qr_scan"}, "lon": -77.07517266666666, "fusion_lon": 0.0, "is_disabled": 0, "lat": 38.84807, "bike_id": "aca3a3cd9aa5114780e08a1e56892c2b", "name": "aca3a3cd9aa5114780e08a1e56892c2b", "is_reserved": 0, "fusion_lat": 0.0}, {"type": "electric_bike", "rental_uris": {"ios": "https://dc.lft.to/lastmile_qr_scan", "android": "https://dc.lft.to/lastmile_qr_scan"}, "lon": -77.11898683333334, "fusion_lon": 0.0, "is_disabled": 0, "lat": 39.075052666666664, "bike_id": "a670e3e5204eb567b80b70e697598802", "name": "a670e3e5204eb567b80b70e697598802", "is_reserved": 0, "fusion_lat": 0.0}, {"type": "electric_scooter", "rental_uris": {"ios": "https://dc.lft.to/lastmile_qr_scan", "android": "https://dc.lft.to/lastmile_qr_scan"}, "lon": -77.03383066666666, "fusion_lon": 0.0, "is_disabled": 0, "lat": 38.924555166666664, "bike_id": "044abe3847728d310dd7ad565eef5cce", "name": "044abe3847728d310dd7ad565eef5cce", "is_reserved": 0, "fusion_lat": 0.0}, {"type": "electric_scooter", "rental_uris": {"ios": "https://dc.lft.to/lastmile_qr_scan", "android": "https://dc.lft.to/lastmile_qr_scan"}, "lon": -77.01776616666666, "fusion_lon": 0.0, "is_disabled": 0, "lat": 38.8871675, "bike_id": "5e9ec59e34bede28addacb8b58b4f927", "name": "5e9ec59e34bede28addacb8b58b4f927", "is_reserved": 0, "fusion_lat": 0.0}, {"type": "electric_scooter", "rental_uris": {"ios": "https://dc.lft.to/lastmile_qr_scan", "android": "https://dc.lft.to/lastmile_qr_scan"}, "lon": -77.02221333333334, "fusion_lon": 0.0, "is_disabled": 0, "lat": 38.935493, "bike_id": "cdbfb8f44f1933418ed466dee76aa7f3", "name": "cdbfb8f44f1933418ed466dee76aa7f3", "is_reserved": 0, "fusion_lat": 0.0}, {"type": "electric_scooter", "rental_uris": {"ios": "https://dc.lft.to/lastmile_qr_scan", "android": "https://dc.lft.to/lastmile_qr_scan"}, "lon": -76.95125016666667, "fusion_lon": 0.0, "is_disabled": 0, "lat": 38.89031033333333, "bike_id": "57033929ceaff54c98d9dc1135a3a1ae", "name": "57033929ceaff54c98d9dc1135a3a1ae", "is_reserved": 0, "fusion_lat": 0.0}, {"type": "electric_scooter", "rental_uris": {"ios": "https://dc.lft.to/lastmile_qr_scan", "android": "https://dc.lft.to/lastmile_qr_scan"}, "lon": -77.03633583333334, "fusion_lon": 0.0, "is_disabled": 0, "lat": 38.93057983333333, "bike_id": "4cb88fd031a60d358a91f3dcbeea8da2", "name": "4cb88fd031a60d358a91f3dcbeea8da2", "is_reserved": 0, "fusion_lat": 0.0}, {"type": "electric_bike", "rental_uris": {"ios": "https://dc.lft.to/lastmile_qr_scan", "android": "https://dc.lft.to/lastmile_qr_scan"}, "lon": -77.05080683333334, "fusion_lon": 0.0, "is_disabled": 0, "lat": 38.81328966666667, "bike_id": "644b0079e1cbadf6a638017452ad1801", "name": "644b0079e1cbadf6a638017452ad1801", "is_reserved": 0, "fusion_lat": 0.0}, {"type": "electric_scooter", "rental_uris": {"ios": "https://dc.lft.to/lastmile_qr_scan", "android": "https://dc.lft.to/lastmile_qr_scan"}, "lon": -77.03737216666667, "fusion_lon": 0.0, "is_disabled": 0, "lat": 38.9307115, "bike_id": "cda072baf840b5a7599f2a9e9e5251d8", "name": "cda072baf840b5a7599f2a9e9e5251d8", "is_reserved": 0, "fusion_lat": 0.0}, {"type": "electric_scooter", "rental_uris": {"ios": "https://dc.lft.to/lastmile_qr_scan", "android": "https://dc.lft.to/lastmile_qr_scan"}, "lon": -77.005802, "fusion_lon": 0.0, "is_disabled": 0, "lat": 38.88185216666667, "bike_id": "7a6ab134df7d9e2b552cef7a1129c13f", "name": "7a6ab134df7d9e2b552cef7a1129c13f", "is_reserved": 0, "fusion_lat": 0.0}, {"type": "electric_scooter", "rental_uris": {"ios": "https://dc.lft.to/lastmile_qr_scan", "android": "https://dc.lft.to/lastmile_qr_scan"}, "lon": -77.02498266666667, "fusion_lon": 0.0, "is_disabled": 0, "lat": 38.9180845, "bike_id": "cae4531920b89d5e6142f7b9776c5b76", "name": "cae4531920b89d5e6142f7b9776c5b76", "is_reserved": 0, "fusion_lat": 0.0}, {"type": "electric_bike", "rental_uris": {"ios": "https://dc.lft.to/lastmile_qr_scan", "android": "https://dc.lft.to/lastmile_qr_scan"}, "lon": -76.9248705, "fusion_lon": 0.0, "is_disabled": 0, "lat": 38.958859, "bike_id": "03a438fa0f9539b741f0ec19b36ca169", "name": "03a438fa0f9539b741f0ec19b36ca169", "is_reserved": 0, "fusion_lat": 0.0}, {"type": "electric_scooter", "rental_uris": {"ios": "https://dc.lft.to/lastmile_qr_scan", "android": "https://dc.lft.to/lastmile_qr_scan"}, "lon": -77.027058, "fusion_lon": 0.0, "is_disabled": 0, "lat": 38.904779, "bike_id": "ca198185bc7b384363ee6a3662c0e1af", "name": "ca198185bc7b384363ee6a3662c0e1af", "is_reserved": 0, "fusion_lat": 0.0}, {"type": "electric_scooter", "rental_uris": {"ios": "https://dc.lft.to/lastmile_qr_scan", "android": "https://dc.lft.to/lastmile_qr_scan"}, "lon": -77.032039, "fusion_lon": 0.0, "is_disabled": 0, "lat": 38.90895283333333, "bike_id": "be78436bcebf29b61010dd509c711da8", "name": "be78436bcebf29b61010dd509c711da8", "is_reserved": 0, "fusion_lat": 0.0}, {"type": "electric_bike", "rental_uris": {"ios": "https://dc.lft.to/lastmile_qr_scan", "android": "https://dc.lft.to/lastmile_qr_scan"}, "lon": -76.98020866666667, "fusion_lon": 0.0, "is_disabled": 0, "lat": 38.9575475, "bike_id": "176c00dda4bab5a5ab4fe9ec1712ea9a", "name": "176c00dda4bab5a5ab4fe9ec1712ea9a", "is_reserved": 0, "fusion_lat": 0.0}, {"type": "electric_scooter", "rental_uris": {"ios": "https://dc.lft.to/lastmile_qr_scan", "android": "https://dc.lft.to/lastmile_qr_scan"}, "lon": -77.03263583333333, "fusion_lon": 0.0, "is_disabled": 0, "lat": 38.907302333333334, "bike_id": "da6a91f0abb96f14166656e6476df5e4", "name": "da6a91f0abb96f14166656e6476df5e4", "is_reserved": 0, "fusion_lat": 0.0}, {"type": "electric_scooter", "rental_uris": {"ios": "https://dc.lft.to/lastmile_qr_scan", "android": "https://dc.lft.to/lastmile_qr_scan"}, "lon": -77.01652666666666, "fusion_lon": 0.0, "is_disabled": 0, "lat": 38.910562, "bike_id": "cfae2c75a9cb5381a960604a6c97130a", "name": "cfae2c75a9cb5381a960604a6c97130a", "is_reserved": 0, "fusion_lat": 0.0}, {"type": "electric_scooter", "rental_uris": {"ios": "https://dc.lft.to/lastmile_qr_scan", "android": "https://dc.lft.to/lastmile_qr_scan"}, "lon": -76.9317875, "fusion_lon": 0.0, "is_disabled": 0, "lat": 38.898869, "bike_id": "1115ff397c8ef4024f5f943d1480ceee", "name": "1115ff397c8ef4024f5f943d1480ceee", "is_reserved": 0, "fusion_lat": 0.0}, {"type": "electric_scooter", "rental_uris": {"ios": "https://dc.lft.to/lastmile_qr_scan", "android": "https://dc.lft.to/lastmile_qr_scan"}, "lon": -76.98696233333334, "fusion_lon": 0.0, "is_disabled": 0, "lat": 38.90260266666667, "bike_id": "4fa1d50d105abc612224ec7c9722818b", "name": "4fa1d50d105abc612224ec7c9722818b", "is_reserved": 0, "fusion_lat": 0.0}, {"type": "electric_scooter", "rental_uris": {"ios": "https://dc.lft.to/lastmile_qr_scan", "android": "https://dc.lft.to/lastmile_qr_scan"}, "lon": -77.0340125, "fusion_lon": 0.0, "is_disabled": 0, "lat": 38.93123933333333, "bike_id": "0c38538d09b05fc125cdaf9e67090143", "name": "0c38538d09b05fc125cdaf9e67090143", "is_reserved": 0, "fusion_lat": 0.0}, {"type": "electric_scooter", "rental_uris": {"ios": "https://dc.lft.to/lastmile_qr_scan", "android": "https://dc.lft.to/lastmile_qr_scan"}, "lon": -77.01227966666667, "fusion_lon": 0.0, "is_disabled": 0, "lat": 38.9150355, "bike_id": "39bdc5faa3cede2d638f19cffd745b61", "name": "39bdc5faa3cede2d638f19cffd745b61", "is_reserved": 0, "fusion_lat": 0.0}, {"type": "electric_scooter", "rental_uris": {"ios": "https://dc.lft.to/lastmile_qr_scan", "android": "https://dc.lft.to/lastmile_qr_scan"}, "lon": -77.03473316666667, "fusion_lon": 0.0, "is_disabled": 0, "lat": 38.90963816666667, "bike_id": "e91ffb9e604091878141691abdec560f", "name": "e91ffb9e604091878141691abdec560f", "is_reserved": 0, "fusion_lat": 0.0}, {"type": "electric_scooter", "rental_uris": {"ios": "https://dc.lft.to/lastmile_qr_scan", "android": "https://dc.lft.to/lastmile_qr_scan"}, "lon": -77.04009933333333, "fusion_lon": 0.0, "is_disabled": 0, "lat": 38.907936166666666, "bike_id": "2b2dcf9c01dd58c8800e207cbdb61414", "name": "2b2dcf9c01dd58c8800e207cbdb61414", "is_reserved": 0, "fusion_lat": 0.0}, {"type": "electric_scooter", "rental_uris": {"ios": "https://dc.lft.to/lastmile_qr_scan", "android": "https://dc.lft.to/lastmile_qr_scan"}, "lon": -77.00111216666667, "fusion_lon": 0.0, "is_disabled": 0, "lat": 38.9170345, "bike_id": "6c9bc997eba40f9df48670a2d7ab2827", "name": "6c9bc997eba40f9df48670a2d7ab2827", "is_reserved": 0, "fusion_lat": 0.0}, {"type": "electric_scooter", "rental_uris": {"ios": "https://dc.lft.to/lastmile_qr_scan", "android": "https://dc.lft.to/lastmile_qr_scan"}, "lon": -77.02282433333333, "fusion_lon": 0.0, "is_disabled": 0, "lat": 38.916451, "bike_id": "771206a0388f0a364b3ba6e7ce66661f", "name": "771206a0388f0a364b3ba6e7ce66661f", "is_reserved": 0, "fusion_lat": 0.0}, {"type": "electric_scooter", "rental_uris": {"ios": "https://dc.lft.to/lastmile_qr_scan", "android": "https://dc.lft.to/lastmile_qr_scan"}, "lon": -77.03409566666667, "fusion_lon": 0.0, "is_disabled": 0, "lat": 38.91928983333333, "bike_id": "7094505992f9220e8b08cfe8a7ac34e9", "name": "7094505992f9220e8b08cfe8a7ac34e9", "is_reserved": 0, "fusion_lat": 0.0}, {"type": "electric_bike", "rental_uris": {"ios": "https://dc.lft.to/lastmile_qr_scan", "android": "https://dc.lft.to/lastmile_qr_scan"}, "lon": -77.13459466666667, "fusion_lon": 0.0, "is_disabled": 0, "lat": 38.853565333333336, "bike_id": "0e6fbe4a4f32e769e9f766991bbdee71", "name": "0e6fbe4a4f32e769e9f766991bbdee71", "is_reserved": 0, "fusion_lat": 0.0}, {"type": "electric_scooter", "rental_uris": {"ios": "https://dc.lft.to/lastmile_qr_scan", "android": "https://dc.lft.to/lastmile_qr_scan"}, "lon": -77.03178566666666, "fusion_lon": 0.0, "is_disabled": 0, "lat": 38.919139, "bike_id": "e1cc29a14890fd1ab10dbc3a74eb009e", "name": "e1cc29a14890fd1ab10dbc3a74eb009e", "is_reserved": 0, "fusion_lat": 0.0}, {"type": "electric_scooter", "rental_uris": {"ios": "https://dc.lft.to/lastmile_qr_scan", "android": "https://dc.lft.to/lastmile_qr_scan"}, "lon": -77.03356183333334, "fusion_lon": 0.0, "is_disabled": 0, "lat": 38.88757, "bike_id": "8dc22c96758802e58ac25033b05e1051", "name": "8dc22c96758802e58ac25033b05e1051", "is_reserved": 0, "fusion_lat": 0.0}, {"type": "electric_scooter", "rental_uris": {"ios": "https://dc.lft.to/lastmile_qr_scan", "android": "https://dc.lft.to/lastmile_qr_scan"}, "lon": -77.0394025, "fusion_lon": 0.0, "is_disabled": 0, "lat": 38.90281816666667, "bike_id": "77abebdd61e952ed12a5f6905aa34c14", "name": "77abebdd61e952ed12a5f6905aa34c14", "is_reserved": 0, "fusion_lat": 0.0}, {"type": "electric_scooter", "rental_uris": {"ios": "https://dc.lft.to/lastmile_qr_scan", "android": "https://dc.lft.to/lastmile_qr_scan"}, "lon": -76.9819965, "fusion_lon": 0.0, "is_disabled": 0, "lat": 38.901975666666665, "bike_id": "51dfb6319de7e3a73c0b3b8352217c44", "name": "51dfb6319de7e3a73c0b3b8352217c44", "is_reserved": 0, "fusion_lat": 0.0}, {"type": "electric_scooter", "rental_uris": {"ios": "https://dc.lft.to/lastmile_qr_scan", "android": "https://dc.lft.to/lastmile_qr_scan"}, "lon": -77.03459416666666, "fusion_lon": 0.0, "is_disabled": 0, "lat": 38.91821133333333, "bike_id": "18214d4c1119dbabe4415ddb1b97a702", "name": "18214d4c1119dbabe4415ddb1b97a702", "is_reserved": 0, "fusion_lat": 0.0}, {"type": "electric_scooter", "rental_uris": {"ios": "https://dc.lft.to/lastmile_qr_scan", "android": "https://dc.lft.to/lastmile_qr_scan"}, "lon": -77.07331783333333, "fusion_lon": 0.0, "is_disabled": 0, "lat": 38.933599666666666, "bike_id": "0f5cf60b0b662b993a245a8e7b8084ec", "name": "0f5cf60b0b662b993a245a8e7b8084ec", "is_reserved": 0, "fusion_lat": 0.0}, {"type": "electric_scooter", "rental_uris": {"ios": "https://dc.lft.to/lastmile_qr_scan", "android": "https://dc.lft.to/lastmile_qr_scan"}, "lon": -77.04325183333333, "fusion_lon": 0.0, "is_disabled": 0, "lat": 38.892263166666666, "bike_id": "bbc7e7a1000632dd2e893aba319e3e4b", "name": "bbc7e7a1000632dd2e893aba319e3e4b", "is_reserved": 0, "fusion_lat": 0.0}, {"type": "electric_scooter", "rental_uris": {"ios": "https://dc.lft.to/lastmile_qr_scan", "android": "https://dc.lft.to/lastmile_qr_scan"}, "lon": -77.03983133333334, "fusion_lon": 0.0, "is_disabled": 0, "lat": 38.89220383333333, "bike_id": "ce1c307d3f8c4ce602f3e01961659ed9", "name": "ce1c307d3f8c4ce602f3e01961659ed9", "is_reserved": 0, "fusion_lat": 0.0}, {"type": "electric_scooter", "rental_uris": {"ios": "https://dc.lft.to/lastmile_qr_scan", "android": "https://dc.lft.to/lastmile_qr_scan"}, "lon": -77.01721816666667, "fusion_lon": 0.0, "is_disabled": 0, "lat": 38.915883666666666, "bike_id": "99fab68e7558a4d1f83bf0baf2eb59fa", "name": "99fab68e7558a4d1f83bf0baf2eb59fa", "is_reserved": 0, "fusion_lat": 0.0}, {"type": "electric_scooter", "rental_uris": {"ios": "https://dc.lft.to/lastmile_qr_scan", "android": "https://dc.lft.to/lastmile_qr_scan"}, "lon": -77.0244885, "fusion_lon": 0.0, "is_disabled": 0, "lat": 38.918241, "bike_id": "c5c2e130e8bc044905f23d3da7e40fd4", "name": "c5c2e130e8bc044905f23d3da7e40fd4", "is_reserved": 0, "fusion_lat": 0.0}, {"type": "electric_scooter", "rental_uris": {"ios": "https://dc.lft.to/lastmile_qr_scan", "android": "https://dc.lft.to/lastmile_qr_scan"}, "lon": -77.00449683333333, "fusion_lon": 0.0, "is_disabled": 0, "lat": 38.87658716666667, "bike_id": "ecf0527a9027b7e9c0dfccbcaf7e3aff", "name": "ecf0527a9027b7e9c0dfccbcaf7e3aff", "is_reserved": 0, "fusion_lat": 0.0}, {"type": "electric_scooter", "rental_uris": {"ios": "https://dc.lft.to/lastmile_qr_scan", "android": "https://dc.lft.to/lastmile_qr_scan"}, "lon": -77.04338133333333, "fusion_lon": 0.0, "is_disabled": 0, "lat": 38.89227233333333, "bike_id": "c2366c6eca8585ce44f2d407eb648560", "name": "c2366c6eca8585ce44f2d407eb648560", "is_reserved": 0, "fusion_lat": 0.0}, {"type": "electric_scooter", "rental_uris": {"ios": "https://dc.lft.to/lastmile_qr_scan", "android": "https://dc.lft.to/lastmile_qr_scan"}, "lon": -77.03218966666667, "fusion_lon": 0.0, "is_disabled": 0, "lat": 38.90966233333333, "bike_id": "9dc9b37eb36769b98ac1b5b985bfb35a", "name": "9dc9b37eb36769b98ac1b5b985bfb35a", "is_reserved": 0, "fusion_lat": 0.0}, {"type": "electric_scooter", "rental_uris": {"ios": "https://dc.lft.to/lastmile_qr_scan", "android": "https://dc.lft.to/lastmile_qr_scan"}, "lon": -77.02700833333333, "fusion_lon": 0.0, "is_disabled": 0, "lat": 38.90460483333333, "bike_id": "e3fccfda4707723753350fecdba3e6e5", "name": "e3fccfda4707723753350fecdba3e6e5", "is_reserved": 0, "fusion_lat": 0.0}, {"type": "electric_scooter", "rental_uris": {"ios": "https://dc.lft.to/lastmile_qr_scan", "android": "https://dc.lft.to/lastmile_qr_scan"}, "lon": -77.031937, "fusion_lon": 0.0, "is_disabled": 0, "lat": 38.912192833333336, "bike_id": "cc693f8525ace49f944ee149bf4dd7f9", "name": "cc693f8525ace49f944ee149bf4dd7f9", "is_reserved": 0, "fusion_lat": 0.0}, {"type": "electric_bike", "rental_uris": {"ios": "https://dc.lft.to/lastmile_qr_scan", "android": "https://dc.lft.to/lastmile_qr_scan"}, "lon": -76.97201366666667, "fusion_lon": 0.0, "is_disabled": 0, "lat": 38.917757333333334, "bike_id": "d671d7c0d34a17cca1f1d57a5bc978cf", "name": "d671d7c0d34a17cca1f1d57a5bc978cf", "is_reserved": 0, "fusion_lat": 0.0}, {"type": "electric_scooter", "rental_uris": {"ios": "https://dc.lft.to/lastmile_qr_scan", "android": "https://dc.lft.to/lastmile_qr_scan"}, "lon": -77.041795, "fusion_lon": 0.0, "is_disabled": 0, "lat": 38.91805816666667, "bike_id": "481b1f01a1ef85133f85c9d873e4544a", "name": "481b1f01a1ef85133f85c9d873e4544a", "is_reserved": 0, "fusion_lat": 0.0}, {"type": "electric_bike", "rental_uris": {"ios": "https://dc.lft.to/lastmile_qr_scan", "android": "https://dc.lft.to/lastmile_qr_scan"}, "lon": -77.03513466666666, "fusion_lon": 0.0, "is_disabled": 0, "lat": 38.9620575, "bike_id": "f36349f06726e9ba97041d433fe48fbc", "name": "f36349f06726e9ba97041d433fe48fbc", "is_reserved": 0, "fusion_lat": 0.0}, {"type": "electric_scooter", "rental_uris": {"ios": "https://dc.lft.to/lastmile_qr_scan", "android": "https://dc.lft.to/lastmile_qr_scan"}, "lon": -77.0321315, "fusion_lon": 0.0, "is_disabled": 0, "lat": 38.9172075, "bike_id": "6f84e3ab33e807eb6315771e398e85eb", "name": "6f84e3ab33e807eb6315771e398e85eb", "is_reserved": 0, "fusion_lat": 0.0}, {"type": "electric_bike", "rental_uris": {"ios": "https://dc.lft.to/lastmile_qr_scan", "android": "https://dc.lft.to/lastmile_qr_scan"}, "lon": -77.04920866666667, "fusion_lon": 0.0, "is_disabled": 0, "lat": 38.81349, "bike_id": "92f584fab4aeee1f59009c1dbf88c7a6", "name": "92f584fab4aeee1f59009c1dbf88c7a6", "is_reserved": 0, "fusion_lat": 0.0}, {"type": "electric_scooter", "rental_uris": {"ios": "https://dc.lft.to/lastmile_qr_scan", "android": "https://dc.lft.to/lastmile_qr_scan"}, "lon": -77.0239405, "fusion_lon": 0.0, "is_disabled": 0, "lat": 38.917464333333335, "bike_id": "24eb7a142eb72af15330e2414ae8922e", "name": "24eb7a142eb72af15330e2414ae8922e", "is_reserved": 0, "fusion_lat": 0.0}, {"type": "electric_bike", "rental_uris": {"ios": "https://dc.lft.to/lastmile_qr_scan", "android": "https://dc.lft.to/lastmile_qr_scan"}, "lon": -76.98355166666667, "fusion_lon": 0.0, "is_disabled": 0, "lat": 38.89434966666666, "bike_id": "2a63951adaf5db2dbae3a34d3ca90be4", "name": "2a63951adaf5db2dbae3a34d3ca90be4", "is_reserved": 0, "fusion_lat": 0.0}, {"type": "electric_scooter", "rental_uris": {"ios": "https://dc.lft.to/lastmile_qr_scan", "android": "https://dc.lft.to/lastmile_qr_scan"}, "lon": -77.04052616666667, "fusion_lon": 0.0, "is_disabled": 0, "lat": 38.8990795, "bike_id": "697bfa25d6364d5044412b582aa7e615", "name": "697bfa25d6364d5044412b582aa7e615", "is_reserved": 0, "fusion_lat": 0.0}, {"type": "electric_scooter", "rental_uris": {"ios": "https://dc.lft.to/lastmile_qr_scan", "android": "https://dc.lft.to/lastmile_qr_scan"}, "lon": -77.039597, "fusion_lon": 0.0, "is_disabled": 0, "lat": 38.89909433333333, "bike_id": "0ce91d8a7835cd4d58246811a1027c53", "name": "0ce91d8a7835cd4d58246811a1027c53", "is_reserved": 0, "fusion_lat": 0.0}, {"type": "electric_scooter", "rental_uris": {"ios": "https://dc.lft.to/lastmile_qr_scan", "android": "https://dc.lft.to/lastmile_qr_scan"}, "lon": -77.03001216666667, "fusion_lon": 0.0, "is_disabled": 0, "lat": 38.9297155, "bike_id": "5fff2195b37125ace0f246ed526f5042", "name": "5fff2195b37125ace0f246ed526f5042", "is_reserved": 0, "fusion_lat": 0.0}, {"type": "electric_scooter", "rental_uris": {"ios": "https://dc.lft.to/lastmile_qr_scan", "android": "https://dc.lft.to/lastmile_qr_scan"}, "lon": -77.04170733333333, "fusion_lon": 0.0, "is_disabled": 0, "lat": 38.917615, "bike_id": "5959c406148a1519bb3696d0fb81fb04", "name": "5959c406148a1519bb3696d0fb81fb04", "is_reserved": 0, "fusion_lat": 0.0}, {"type": "electric_scooter", "rental_uris": {"ios": "https://dc.lft.to/lastmile_qr_scan", "android": "https://dc.lft.to/lastmile_qr_scan"}, "lon": -76.97730466666667, "fusion_lon": 0.0, "is_disabled": 0, "lat": 38.895188, "bike_id": "68dc6c280165b6f30e92e01992fd00b3", "name": "68dc6c280165b6f30e92e01992fd00b3", "is_reserved": 0, "fusion_lat": 0.0}, {"type": "electric_scooter", "rental_uris": {"ios": "https://dc.lft.to/lastmile_qr_scan", "android": "https://dc.lft.to/lastmile_qr_scan"}, "lon": -77.02278066666666, "fusion_lon": 0.0, "is_disabled": 0, "lat": 38.90226533333333, "bike_id": "5e053a97917b8e4076949cc186c08fa6", "name": "5e053a97917b8e4076949cc186c08fa6", "is_reserved": 0, "fusion_lat": 0.0}, {"type": "electric_scooter", "rental_uris": {"ios": "https://dc.lft.to/lastmile_qr_scan", "android": "https://dc.lft.to/lastmile_qr_scan"}, "lon": -77.002117, "fusion_lon": 0.0, "is_disabled": 0, "lat": 38.904295833333336, "bike_id": "5d816aa958c21fccf3bdd075bc26f392", "name": "5d816aa958c21fccf3bdd075bc26f392", "is_reserved": 0, "fusion_lat": 0.0}, {"type": "electric_scooter", "rental_uris": {"ios": "https://dc.lft.to/lastmile_qr_scan", "android": "https://dc.lft.to/lastmile_qr_scan"}, "lon": -77.04126266666667, "fusion_lon": 0.0, "is_disabled": 0, "lat": 38.934021333333334, "bike_id": "2ff5a1ee0d3b3d89db7cfb9e2ce8e0f7", "name": "2ff5a1ee0d3b3d89db7cfb9e2ce8e0f7", "is_reserved": 0, "fusion_lat": 0.0}, {"type": "electric_scooter", "rental_uris": {"ios": "https://dc.lft.to/lastmile_qr_scan", "android": "https://dc.lft.to/lastmile_qr_scan"}, "lon": -77.03964233333333, "fusion_lon": 0.0, "is_disabled": 0, "lat": 38.89903, "bike_id": "b0bc07d6ec729c5185917fd7f2747e2a", "name": "b0bc07d6ec729c5185917fd7f2747e2a", "is_reserved": 0, "fusion_lat": 0.0}, {"type": "electric_scooter", "rental_uris": {"ios": "https://dc.lft.to/lastmile_qr_scan", "android": "https://dc.lft.to/lastmile_qr_scan"}, "lon": -77.07711266666666, "fusion_lon": 0.0, "is_disabled": 0, "lat": 38.92969516666667, "bike_id": "1843426bf51d3959a290559faa55411c", "name": "1843426bf51d3959a290559faa55411c", "is_reserved": 0, "fusion_lat": 0.0}, {"type": "electric_bike", "rental_uris": {"ios": "https://dc.lft.to/lastmile_qr_scan", "android": "https://dc.lft.to/lastmile_qr_scan"}, "lon": -77.02821466666667, "fusion_lon": 0.0, "is_disabled": 0, "lat": 38.96504933333333, "bike_id": "0c5b9069a61fa64152ba736318573bcc", "name": "0c5b9069a61fa64152ba736318573bcc", "is_reserved": 0, "fusion_lat": 0.0}, {"type": "electric_bike", "rental_uris": {"ios": "https://dc.lft.to/lastmile_qr_scan", "android": "https://dc.lft.to/lastmile_qr_scan"}, "lon": -77.044871, "fusion_lon": 0.0, "is_disabled": 0, "lat": 38.842913833333334, "bike_id": "1de3611d7721e69c47b672b73a7fc11b", "name": "1de3611d7721e69c47b672b73a7fc11b", "is_reserved": 0, "fusion_lat": 0.0}, {"type": "electric_scooter", "rental_uris": {"ios": "https://dc.lft.to/lastmile_qr_scan", "android": "https://dc.lft.to/lastmile_qr_scan"}, "lon": -76.99849216666667, "fusion_lon": 0.0, "is_disabled": 0, "lat": 38.90003016666667, "bike_id": "2a089839ad475ef704bff04e8e2d4d26", "name": "2a089839ad475ef704bff04e8e2d4d26", "is_reserved": 0, "fusion_lat": 0.0}, {"type": "electric_scooter", "rental_uris": {"ios": "https://dc.lft.to/lastmile_qr_scan", "android": "https://dc.lft.to/lastmile_qr_scan"}, "lon": -77.0222005, "fusion_lon": 0.0, "is_disabled": 0, "lat": 38.89221033333333, "bike_id": "1d5a453c1163bf6e7a1c23fdfc26b9bc", "name": "1d5a453c1163bf6e7a1c23fdfc26b9bc", "is_reserved": 0, "fusion_lat": 0.0}, {"type": "electric_scooter", "rental_uris": {"ios": "https://dc.lft.to/lastmile_qr_scan", "android": "https://dc.lft.to/lastmile_qr_scan"}, "lon": -77.03194733333333, "fusion_lon": 0.0, "is_disabled": 0, "lat": 38.913335333333336, "bike_id": "e01677e958be9df1fb7360ebbf5086a5", "name": "e01677e958be9df1fb7360ebbf5086a5", "is_reserved": 0, "fusion_lat": 0.0}, {"type": "electric_scooter", "rental_uris": {"ios": "https://dc.lft.to/lastmile_qr_scan", "android": "https://dc.lft.to/lastmile_qr_scan"}, "lon": -77.02135083333333, "fusion_lon": 0.0, "is_disabled": 0, "lat": 38.92592583333333, "bike_id": "a39e39402d065c8ae912803235cdac16", "name": "a39e39402d065c8ae912803235cdac16", "is_reserved": 0, "fusion_lat": 0.0}, {"type": "electric_scooter", "rental_uris": {"ios": "https://dc.lft.to/lastmile_qr_scan", "android": "https://dc.lft.to/lastmile_qr_scan"}, "lon": -77.03294383333333, "fusion_lon": 0.0, "is_disabled": 0, "lat": 38.94717383333333, "bike_id": "9516cb0e35a55b40237abe28451104a8", "name": "9516cb0e35a55b40237abe28451104a8", "is_reserved": 0, "fusion_lat": 0.0}, {"type": "electric_scooter", "rental_uris": {"ios": "https://dc.lft.to/lastmile_qr_scan", "android": "https://dc.lft.to/lastmile_qr_scan"}, "lon": -77.0443975, "fusion_lon": 0.0, "is_disabled": 0, "lat": 38.91255116666667, "bike_id": "181bbd5284f82205a45a920249f01aca", "name": "181bbd5284f82205a45a920249f01aca", "is_reserved": 0, "fusion_lat": 0.0}, {"type": "electric_scooter", "rental_uris": {"ios": "https://dc.lft.to/lastmile_qr_scan", "android": "https://dc.lft.to/lastmile_qr_scan"}, "lon": -77.02463566666667, "fusion_lon": 0.0, "is_disabled": 0, "lat": 38.932996833333334, "bike_id": "6c9ec4ba68e1850c9394bd8446edcbdf", "name": "6c9ec4ba68e1850c9394bd8446edcbdf", "is_reserved": 0, "fusion_lat": 0.0}, {"type": "electric_bike", "rental_uris": {"ios": "https://dc.lft.to/lastmile_qr_scan", "android": "https://dc.lft.to/lastmile_qr_scan"}, "lon": -77.03219, "fusion_lon": 0.0, "is_disabled": 0, "lat": 38.91561333333333, "bike_id": "f47794c78db2e51d772950ca7cd18337", "name": "f47794c78db2e51d772950ca7cd18337", "is_reserved": 0, "fusion_lat": 0.0}, {"type": "electric_scooter", "rental_uris": {"ios": "https://dc.lft.to/lastmile_qr_scan", "android": "https://dc.lft.to/lastmile_qr_scan"}, "lon": -77.03856416666666, "fusion_lon": 0.0, "is_disabled": 0, "lat": 38.915505833333334, "bike_id": "b39d69fd9efc9d8b2777f46344dc8b2e", "name": "b39d69fd9efc9d8b2777f46344dc8b2e", "is_reserved": 0, "fusion_lat": 0.0}, {"type": "electric_scooter", "rental_uris": {"ios": "https://dc.lft.to/lastmile_qr_scan", "android": "https://dc.lft.to/lastmile_qr_scan"}, "lon": -77.040115, "fusion_lon": 0.0, "is_disabled": 0, "lat": 38.91001633333333, "bike_id": "9bc2bf76de216ac5c09338ef114ab67e", "name": "9bc2bf76de216ac5c09338ef114ab67e", "is_reserved": 0, "fusion_lat": 0.0}, {"type": "electric_scooter", "rental_uris": {"ios": "https://dc.lft.to/lastmile_qr_scan", "android": "https://dc.lft.to/lastmile_qr_scan"}, "lon": -76.98986133333334, "fusion_lon": 0.0, "is_disabled": 0, "lat": 38.864984166666666, "bike_id": "d50e6898e1652895b4325034270903f2", "name": "d50e6898e1652895b4325034270903f2", "is_reserved": 0, "fusion_lat": 0.0}, {"type": "electric_scooter", "rental_uris": {"ios": "https://dc.lft.to/lastmile_qr_scan", "android": "https://dc.lft.to/lastmile_qr_scan"}, "lon": -77.01192933333333, "fusion_lon": 0.0, "is_disabled": 0, "lat": 38.90312933333333, "bike_id": "82b7ecd628a6e43a64824a9ecb816572", "name": "82b7ecd628a6e43a64824a9ecb816572", "is_reserved": 0, "fusion_lat": 0.0}, {"type": "electric_scooter", "rental_uris": {"ios": "https://dc.lft.to/lastmile_qr_scan", "android": "https://dc.lft.to/lastmile_qr_scan"}, "lon": -77.031606, "fusion_lon": 0.0, "is_disabled": 0, "lat": 38.89220133333333, "bike_id": "a475a373794ac56ec477a66c5872ae3b", "name": "a475a373794ac56ec477a66c5872ae3b", "is_reserved": 0, "fusion_lat": 0.0}, {"type": "electric_scooter", "rental_uris": {"ios": "https://dc.lft.to/lastmile_qr_scan", "android": "https://dc.lft.to/lastmile_qr_scan"}, "lon": -77.03207516666667, "fusion_lon": 0.0, "is_disabled": 0, "lat": 38.91714833333333, "bike_id": "5201985e2bc0999560ffdf9308364bf5", "name": "5201985e2bc0999560ffdf9308364bf5", "is_reserved": 0, "fusion_lat": 0.0}, {"type": "electric_scooter", "rental_uris": {"ios": "https://dc.lft.to/lastmile_qr_scan", "android": "https://dc.lft.to/lastmile_qr_scan"}, "lon": -76.93990083333334, "fusion_lon": 0.0, "is_disabled": 0, "lat": 38.899778, "bike_id": "b50d9296eac1a8df462ff6849024fb52", "name": "b50d9296eac1a8df462ff6849024fb52", "is_reserved": 0, "fusion_lat": 0.0}, {"type": "electric_scooter", "rental_uris": {"ios": "https://dc.lft.to/lastmile_qr_scan", "android": "https://dc.lft.to/lastmile_qr_scan"}, "lon": -77.00443366666667, "fusion_lon": 0.0, "is_disabled": 0, "lat": 38.91174133333333, "bike_id": "447ed24a3c48b8574bc8c29846cd7eb1", "name": "447ed24a3c48b8574bc8c29846cd7eb1", "is_reserved": 0, "fusion_lat": 0.0}, {"type": "electric_bike", "rental_uris": {"ios": "https://dc.lft.to/lastmile_qr_scan", "android": "https://dc.lft.to/lastmile_qr_scan"}, "lon": -77.11228133333333, "fusion_lon": 0.0, "is_disabled": 0, "lat": 38.828782833333335, "bike_id": "66e6318d7da9d9558fc466bfe556a6c3", "name": "66e6318d7da9d9558fc466bfe556a6c3", "is_reserved": 0, "fusion_lat": 0.0}, {"type": "electric_scooter", "rental_uris": {"ios": "https://dc.lft.to/lastmile_qr_scan", "android": "https://dc.lft.to/lastmile_qr_scan"}, "lon": -77.06985966666667, "fusion_lon": 0.0, "is_disabled": 0, "lat": 38.952446, "bike_id": "1d1184b4b65223ee7e727de92b9611aa", "name": "1d1184b4b65223ee7e727de92b9611aa", "is_reserved": 0, "fusion_lat": 0.0}, {"type": "electric_scooter", "rental_uris": {"ios": "https://dc.lft.to/lastmile_qr_scan", "android": "https://dc.lft.to/lastmile_qr_scan"}, "lon": -77.03162033333334, "fusion_lon": 0.0, "is_disabled": 0, "lat": 38.89220483333333, "bike_id": "f893ee036129e2e7bb4116eafa3dab59", "name": "f893ee036129e2e7bb4116eafa3dab59", "is_reserved": 0, "fusion_lat": 0.0}, {"type": "electric_scooter", "rental_uris": {"ios": "https://dc.lft.to/lastmile_qr_scan", "android": "https://dc.lft.to/lastmile_qr_scan"}, "lon": -77.03867716666667, "fusion_lon": 0.0, "is_disabled": 0, "lat": 38.90977016666667, "bike_id": "5cc18dd07515982faf5365e4ed91b05d", "name": "5cc18dd07515982faf5365e4ed91b05d", "is_reserved": 0, "fusion_lat": 0.0}, {"type": "electric_scooter", "rental_uris": {"ios": "https://dc.lft.to/lastmile_qr_scan", "android": "https://dc.lft.to/lastmile_qr_scan"}, "lon": -77.0445025, "fusion_lon": 0.0, "is_disabled": 0, "lat": 38.93019783333333, "bike_id": "c39e925f71c2c416046d2980ed515e5b", "name": "c39e925f71c2c416046d2980ed515e5b", "is_reserved": 0, "fusion_lat": 0.0}, {"type": "electric_scooter", "rental_uris": {"ios": "https://dc.lft.to/lastmile_qr_scan", "android": "https://dc.lft.to/lastmile_qr_scan"}, "lon": -77.03508216666667, "fusion_lon": 0.0, "is_disabled": 0, "lat": 38.92151483333333, "bike_id": "57f062db6e2702cb9a53022f3dc34d42", "name": "57f062db6e2702cb9a53022f3dc34d42", "is_reserved": 0, "fusion_lat": 0.0}, {"type": "electric_scooter", "rental_uris": {"ios": "https://dc.lft.to/lastmile_qr_scan", "android": "https://dc.lft.to/lastmile_qr_scan"}, "lon": -77.03886, "fusion_lon": 0.0, "is_disabled": 0, "lat": 38.9024935, "bike_id": "874a958cbcf19fb7679169a65165bd6f", "name": "874a958cbcf19fb7679169a65165bd6f", "is_reserved": 0, "fusion_lat": 0.0}, {"type": "electric_scooter", "rental_uris": {"ios": "https://dc.lft.to/lastmile_qr_scan", "android": "https://dc.lft.to/lastmile_qr_scan"}, "lon": -77.02690666666666, "fusion_lon": 0.0, "is_disabled": 0, "lat": 38.906027, "bike_id": "914bde59e7614ef018f3db195c961710", "name": "914bde59e7614ef018f3db195c961710", "is_reserved": 0, "fusion_lat": 0.0}, {"type": "electric_scooter", "rental_uris": {"ios": "https://dc.lft.to/lastmile_qr_scan", "android": "https://dc.lft.to/lastmile_qr_scan"}, "lon": -77.0435685, "fusion_lon": 0.0, "is_disabled": 0, "lat": 38.913481, "bike_id": "6a86c345767d86d13c104425b8126885", "name": "6a86c345767d86d13c104425b8126885", "is_reserved": 0, "fusion_lat": 0.0}, {"type": "electric_scooter", "rental_uris": {"ios": "https://dc.lft.to/lastmile_qr_scan", "android": "https://dc.lft.to/lastmile_qr_scan"}, "lon": -77.0771005, "fusion_lon": 0.0, "is_disabled": 0, "lat": 38.943902, "bike_id": "8e76a945594f6fa8193a5ec4e4ebf7e5", "name": "8e76a945594f6fa8193a5ec4e4ebf7e5", "is_reserved": 0, "fusion_lat": 0.0}, {"type": "electric_bike", "rental_uris": {"ios": "https://dc.lft.to/lastmile_qr_scan", "android": "https://dc.lft.to/lastmile_qr_scan"}, "lon": -77.04925216666666, "fusion_lon": 0.0, "is_disabled": 0, "lat": 39.029367, "bike_id": "be0efe8145d0330760c75b56da533f99", "name": "be0efe8145d0330760c75b56da533f99", "is_reserved": 0, "fusion_lat": 0.0}, {"type": "electric_bike", "rental_uris": {"ios": "https://dc.lft.to/lastmile_qr_scan", "android": "https://dc.lft.to/lastmile_qr_scan"}, "lon": -77.02766633333333, "fusion_lon": 0.0, "is_disabled": 0, "lat": 38.92901466666667, "bike_id": "a79093855f54c324649e9b230ba0cff3", "name": "a79093855f54c324649e9b230ba0cff3", "is_reserved": 0, "fusion_lat": 0.0}, {"type": "electric_bike", "rental_uris": {"ios": "https://dc.lft.to/lastmile_qr_scan", "android": "https://dc.lft.to/lastmile_qr_scan"}, "lon": -77.0388975, "fusion_lon": 0.0, "is_disabled": 0, "lat": 38.923301333333335, "bike_id": "2eb0b4f295ae43f4f3a98a75acedd2f8", "name": "2eb0b4f295ae43f4f3a98a75acedd2f8", "is_reserved": 0, "fusion_lat": 0.0}, {"type": "electric_scooter", "rental_uris": {"ios": "https://dc.lft.to/lastmile_qr_scan", "android": "https://dc.lft.to/lastmile_qr_scan"}, "lon": -77.04432983333334, "fusion_lon": 0.0, "is_disabled": 0, "lat": 38.92129333333333, "bike_id": "932803e914b5c279fc90f43b33f991a6", "name": "932803e914b5c279fc90f43b33f991a6", "is_reserved": 0, "fusion_lat": 0.0}, {"type": "electric_scooter", "rental_uris": {"ios": "https://dc.lft.to/lastmile_qr_scan", "android": "https://dc.lft.to/lastmile_qr_scan"}, "lon": -77.038663, "fusion_lon": 0.0, "is_disabled": 0, "lat": 38.90974516666667, "bike_id": "602343cf0d8755dbec1288b18fe1af94", "name": "602343cf0d8755dbec1288b18fe1af94", "is_reserved": 0, "fusion_lat": 0.0}, {"type": "electric_scooter", "rental_uris": {"ios": "https://dc.lft.to/lastmile_qr_scan", "android": "https://dc.lft.to/lastmile_qr_scan"}, "lon": -77.02714833333333, "fusion_lon": 0.0, "is_disabled": 0, "lat": 38.906891, "bike_id": "cf35a3c021c26eeee20813f2d2207726", "name": "cf35a3c021c26eeee20813f2d2207726", "is_reserved": 0, "fusion_lat": 0.0}, {"type": "electric_bike", "rental_uris": {"ios": "https://dc.lft.to/lastmile_qr_scan", "android": "https://dc.lft.to/lastmile_qr_scan"}, "lon": -76.99774933333333, "fusion_lon": 0.0, "is_disabled": 0, "lat": 38.83739883333333, "bike_id": "535b187c1fcd608eaaf7b890ccbb22fb", "name": "535b187c1fcd608eaaf7b890ccbb22fb", "is_reserved": 0, "fusion_lat": 0.0}, {"type": "electric_scooter", "rental_uris": {"ios": "https://dc.lft.to/lastmile_qr_scan", "android": "https://dc.lft.to/lastmile_qr_scan"}, "lon": -76.98176616666667, "fusion_lon": 0.0, "is_disabled": 0, "lat": 38.85680966666666, "bike_id": "59da7476bead245a50db9fcbe8b8a495", "name": "59da7476bead245a50db9fcbe8b8a495", "is_reserved": 0, "fusion_lat": 0.0}, {"type": "electric_scooter", "rental_uris": {"ios": "https://dc.lft.to/lastmile_qr_scan", "android": "https://dc.lft.to/lastmile_qr_scan"}, "lon": -77.01970066666667, "fusion_lon": 0.0, "is_disabled": 0, "lat": 38.9300245, "bike_id": "60ba40375d5b23b0416212941813b207", "name": "60ba40375d5b23b0416212941813b207", "is_reserved": 0, "fusion_lat": 0.0}, {"type": "electric_bike", "rental_uris": {"ios": "https://dc.lft.to/lastmile_qr_scan", "android": "https://dc.lft.to/lastmile_qr_scan"}, "lon": -76.99132183333333, "fusion_lon": 0.0, "is_disabled": 0, "lat": 38.8464155, "bike_id": "b064378b572e88e3ba5e9a7f9abc5341", "name": "b064378b572e88e3ba5e9a7f9abc5341", "is_reserved": 0, "fusion_lat": 0.0}, {"type": "electric_scooter", "rental_uris": {"ios": "https://dc.lft.to/lastmile_qr_scan", "android": "https://dc.lft.to/lastmile_qr_scan"}, "lon": -77.04309783333333, "fusion_lon": 0.0, "is_disabled": 0, "lat": 38.901387666666665, "bike_id": "cd972d27f1b9116f49cb4d1f4a259368", "name": "cd972d27f1b9116f49cb4d1f4a259368", "is_reserved": 0, "fusion_lat": 0.0}, {"type": "electric_scooter", "rental_uris": {"ios": "https://dc.lft.to/lastmile_qr_scan", "android": "https://dc.lft.to/lastmile_qr_scan"}, "lon": -77.07265816666667, "fusion_lon": 0.0, "is_disabled": 0, "lat": 38.934869166666665, "bike_id": "dda69f4d33ac60c50325a451a0e0ac38", "name": "dda69f4d33ac60c50325a451a0e0ac38", "is_reserved": 0, "fusion_lat": 0.0}, {"type": "electric_bike", "rental_uris": {"ios": "https://dc.lft.to/lastmile_qr_scan", "android": "https://dc.lft.to/lastmile_qr_scan"}, "lon": -77.05645566666666, "fusion_lon": 0.0, "is_disabled": 0, "lat": 38.936908833333334, "bike_id": "181baa320425928cef9e8b069b126429", "name": "181baa320425928cef9e8b069b126429", "is_reserved": 0, "fusion_lat": 0.0}, {"type": "electric_scooter", "rental_uris": {"ios": "https://dc.lft.to/lastmile_qr_scan", "android": "https://dc.lft.to/lastmile_qr_scan"}, "lon": -77.02472916666666, "fusion_lon": 0.0, "is_disabled": 0, "lat": 38.931007, "bike_id": "fdca5568e0e0b63d6c0f3073d6b57dde", "name": "fdca5568e0e0b63d6c0f3073d6b57dde", "is_reserved": 0, "fusion_lat": 0.0}, {"type": "electric_scooter", "rental_uris": {"ios": "https://dc.lft.to/lastmile_qr_scan", "android": "https://dc.lft.to/lastmile_qr_scan"}, "lon": -77.0375665, "fusion_lon": 0.0, "is_disabled": 0, "lat": 38.929326833333334, "bike_id": "119d35383929a85248a845d2813f5bbe", "name": "119d35383929a85248a845d2813f5bbe", "is_reserved": 0, "fusion_lat": 0.0}, {"type": "electric_scooter", "rental_uris": {"ios": "https://dc.lft.to/lastmile_qr_scan", "android": "https://dc.lft.to/lastmile_qr_scan"}, "lon": -77.02224183333334, "fusion_lon": 0.0, "is_disabled": 0, "lat": 38.89222383333333, "bike_id": "ddb218ff5211ae59afef52af5dd9bab9", "name": "ddb218ff5211ae59afef52af5dd9bab9", "is_reserved": 0, "fusion_lat": 0.0}, {"type": "electric_scooter", "rental_uris": {"ios": "https://dc.lft.to/lastmile_qr_scan", "android": "https://dc.lft.to/lastmile_qr_scan"}, "lon": -77.04159466666667, "fusion_lon": 0.0, "is_disabled": 0, "lat": 38.918042, "bike_id": "df9115aae33734ebeda91a132f1afac7", "name": "df9115aae33734ebeda91a132f1afac7", "is_reserved": 0, "fusion_lat": 0.0}, {"type": "electric_scooter", "rental_uris": {"ios": "https://dc.lft.to/lastmile_qr_scan", "android": "https://dc.lft.to/lastmile_qr_scan"}, "lon": -77.02513883333333, "fusion_lon": 0.0, "is_disabled": 0, "lat": 38.94622483333333, "bike_id": "da057962a9cd0f50814fc0832243e1e3", "name": "da057962a9cd0f50814fc0832243e1e3", "is_reserved": 0, "fusion_lat": 0.0}, {"type": "electric_scooter", "rental_uris": {"ios": "https://dc.lft.to/lastmile_qr_scan", "android": "https://dc.lft.to/lastmile_qr_scan"}, "lon": -77.03347566666666, "fusion_lon": 0.0, "is_disabled": 0, "lat": 38.91708883333333, "bike_id": "3b464f86c4ef29d622dfa986d93be4a3", "name": "3b464f86c4ef29d622dfa986d93be4a3", "is_reserved": 0, "fusion_lat": 0.0}, {"type": "electric_scooter", "rental_uris": {"ios": "https://dc.lft.to/lastmile_qr_scan", "android": "https://dc.lft.to/lastmile_qr_scan"}, "lon": -77.03533383333334, "fusion_lon": 0.0, "is_disabled": 0, "lat": 38.923877, "bike_id": "cb57dc16f2bef431e503ef8ec28eda89", "name": "cb57dc16f2bef431e503ef8ec28eda89", "is_reserved": 0, "fusion_lat": 0.0}, {"type": "electric_bike", "rental_uris": {"ios": "https://dc.lft.to/lastmile_qr_scan", "android": "https://dc.lft.to/lastmile_qr_scan"}, "lon": -77.05633233333333, "fusion_lon": 0.0, "is_disabled": 0, "lat": 38.98650083333333, "bike_id": "824520592e449045fb8074bcd17c4622", "name": "824520592e449045fb8074bcd17c4622", "is_reserved": 0, "fusion_lat": 0.0}, {"type": "electric_scooter", "rental_uris": {"ios": "https://dc.lft.to/lastmile_qr_scan", "android": "https://dc.lft.to/lastmile_qr_scan"}, "lon": -77.04016066666667, "fusion_lon": 0.0, "is_disabled": 0, "lat": 38.91801383333333, "bike_id": "cc0df82827a2c0d7d8f2f6e12ea2226a", "name": "cc0df82827a2c0d7d8f2f6e12ea2226a", "is_reserved": 0, "fusion_lat": 0.0}, {"type": "electric_scooter", "rental_uris": {"ios": "https://dc.lft.to/lastmile_qr_scan", "android": "https://dc.lft.to/lastmile_qr_scan"}, "lon": -77.03759733333334, "fusion_lon": 0.0, "is_disabled": 0, "lat": 38.92588166666667, "bike_id": "05c25c0ac24d5a7a7b845c91d61b107f", "name": "05c25c0ac24d5a7a7b845c91d61b107f", "is_reserved": 0, "fusion_lat": 0.0}, {"type": "electric_scooter", "rental_uris": {"ios": "https://dc.lft.to/lastmile_qr_scan", "android": "https://dc.lft.to/lastmile_qr_scan"}, "lon": -77.053099, "fusion_lon": 0.0, "is_disabled": 0, "lat": 38.927828833333336, "bike_id": "7bf2eb6581af3c2d289958cff98dd56f", "name": "7bf2eb6581af3c2d289958cff98dd56f", "is_reserved": 0, "fusion_lat": 0.0}, {"type": "electric_scooter", "rental_uris": {"ios": "https://dc.lft.to/lastmile_qr_scan", "android": "https://dc.lft.to/lastmile_qr_scan"}, "lon": -76.96528116666667, "fusion_lon": 0.0, "is_disabled": 0, "lat": 38.87628633333333, "bike_id": "d51b9fd442bfbd37490fc696264a45f2", "name": "d51b9fd442bfbd37490fc696264a45f2", "is_reserved": 0, "fusion_lat": 0.0}, {"type": "electric_scooter", "rental_uris": {"ios": "https://dc.lft.to/lastmile_qr_scan", "android": "https://dc.lft.to/lastmile_qr_scan"}, "lon": -76.96529366666667, "fusion_lon": 0.0, "is_disabled": 0, "lat": 38.876308, "bike_id": "4039ed6109a1772ecef4cf6418a7c9f4", "name": "4039ed6109a1772ecef4cf6418a7c9f4", "is_reserved": 0, "fusion_lat": 0.0}, {"type": "electric_scooter", "rental_uris": {"ios": "https://dc.lft.to/lastmile_qr_scan", "android": "https://dc.lft.to/lastmile_qr_scan"}, "lon": -77.03194933333333, "fusion_lon": 0.0, "is_disabled": 0, "lat": 38.91619766666667, "bike_id": "843e0e7ebba5174bc7738b1cc65867f9", "name": "843e0e7ebba5174bc7738b1cc65867f9", "is_reserved": 0, "fusion_lat": 0.0}, {"type": "electric_scooter", "rental_uris": {"ios": "https://dc.lft.to/lastmile_qr_scan", "android": "https://dc.lft.to/lastmile_qr_scan"}, "lon": -77.02288133333333, "fusion_lon": 0.0, "is_disabled": 0, "lat": 38.91443983333333, "bike_id": "2f4dd789cc58c4fd11d9ddcc489fb51b", "name": "2f4dd789cc58c4fd11d9ddcc489fb51b", "is_reserved": 0, "fusion_lat": 0.0}, {"type": "electric_scooter", "rental_uris": {"ios": "https://dc.lft.to/lastmile_qr_scan", "android": "https://dc.lft.to/lastmile_qr_scan"}, "lon": -77.03660333333333, "fusion_lon": 0.0, "is_disabled": 0, "lat": 38.92249916666667, "bike_id": "a16b0fb6c7362996fb7335a3cd30adcd", "name": "a16b0fb6c7362996fb7335a3cd30adcd", "is_reserved": 0, "fusion_lat": 0.0}, {"type": "electric_scooter", "rental_uris": {"ios": "https://dc.lft.to/lastmile_qr_scan", "android": "https://dc.lft.to/lastmile_qr_scan"}, "lon": -77.03873616666667, "fusion_lon": 0.0, "is_disabled": 0, "lat": 38.90634683333333, "bike_id": "9929c715ed23a3c578a892ee44ca6ad2", "name": "9929c715ed23a3c578a892ee44ca6ad2", "is_reserved": 0, "fusion_lat": 0.0}, {"type": "electric_bike", "rental_uris": {"ios": "https://dc.lft.to/lastmile_qr_scan", "android": "https://dc.lft.to/lastmile_qr_scan"}, "lon": -77.11800566666666, "fusion_lon": 0.0, "is_disabled": 0, "lat": 38.873768, "bike_id": "59c95db4b161e48c6f41a735c555a8d2", "name": "59c95db4b161e48c6f41a735c555a8d2", "is_reserved": 0, "fusion_lat": 0.0}, {"type": "electric_scooter", "rental_uris": {"ios": "https://dc.lft.to/lastmile_qr_scan", "android": "https://dc.lft.to/lastmile_qr_scan"}, "lon": -77.04477866666667, "fusion_lon": 0.0, "is_disabled": 0, "lat": 38.91113633333333, "bike_id": "0db2d49653c54493e1fe2790239e45c3", "name": "0db2d49653c54493e1fe2790239e45c3", "is_reserved": 0, "fusion_lat": 0.0}, {"type": "electric_scooter", "rental_uris": {"ios": "https://dc.lft.to/lastmile_qr_scan", "android": "https://dc.lft.to/lastmile_qr_scan"}, "lon": -77.0451055, "fusion_lon": 0.0, "is_disabled": 0, "lat": 38.916048333333336, "bike_id": "d248f642f722b7c75ba80b15c70b659b", "name": "d248f642f722b7c75ba80b15c70b659b", "is_reserved": 0, "fusion_lat": 0.0}, {"type": "electric_bike", "rental_uris": {"ios": "https://dc.lft.to/lastmile_qr_scan", "android": "https://dc.lft.to/lastmile_qr_scan"}, "lon": -77.020887, "fusion_lon": 0.0, "is_disabled": 0, "lat": 38.93715183333333, "bike_id": "ae34a64dd3757e223666a14598c27f5e", "name": "ae34a64dd3757e223666a14598c27f5e", "is_reserved": 0, "fusion_lat": 0.0}, {"type": "electric_bike", "rental_uris": {"ios": "https://dc.lft.to/lastmile_qr_scan", "android": "https://dc.lft.to/lastmile_qr_scan"}, "lon": -77.026173, "fusion_lon": 0.0, "is_disabled": 0, "lat": 38.969297, "bike_id": "f161d6e58ac736d437d3e8c0d8a0d83b", "name": "f161d6e58ac736d437d3e8c0d8a0d83b", "is_reserved": 0, "fusion_lat": 0.0}, {"type": "electric_scooter", "rental_uris": {"ios": "https://dc.lft.to/lastmile_qr_scan", "android": "https://dc.lft.to/lastmile_qr_scan"},