{"data": {"bikes": [{"lon": -77.03769766666667, "name": "980fea0890257d775a3a720eaafe5084", "lat": 38.92487933333334, "fusion_lon": 0.0, "rental_uris": {"ios": "https://dc.lft.to/lastmile_qr_scan", "android": "https://dc.lft.to/lastmile_qr_scan"}, "bike_id": "980fea0890257d775a3a720eaafe5084", "type": "electric_scooter", "fusion_lat": 0.0, "is_disabled": 0, "is_reserved": 0}, {"lon": -77.02697666666667, "name": "1790f6dc7dc220008fcc6742ae01dd22", "lat": 38.91719666666667, "fusion_lon": 0.0, "rental_uris": {"ios": "https://dc.lft.to/lastmile_qr_scan", "android": "https://dc.lft.to/lastmile_qr_scan"}, "bike_id": "1790f6dc7dc220008fcc6742ae01dd22", "type": "electric_scooter", "fusion_lat": 0.0, "is_disabled": 0, "is_reserved": 0}, {"lon": -77.01767183333334, "name": "cacd1f8e84124cf056323c6deb683567", "lat": 38.921344500000004, "fusion_lon": 0.0, "rental_uris": {"ios": "https://dc.lft.to/lastmile_qr_scan", "android": "https://dc.lft.to/lastmile_qr_scan"}, "bike_id": "cacd1f8e84124cf056323c6deb683567", "type": "electric_scooter", "fusion_lat": 0.0, "is_disabled": 0, "is_reserved": 0}, {"lon": -76.98942616666666, "name": "bdc29e8573c461bfa42b032a1af83719", "lat": 38.90392283333333, "fusion_lon": 0.0, "rental_uris": {"ios": "https://dc.lft.to/lastmile_qr_scan", "android": "https://dc.lft.to/lastmile_qr_scan"}, "bike_id": "bdc29e8573c461bfa42b032a1af83719", "type": "electric_scooter", "fusion_lat": 0.0, "is_disabled": 0, "is_reserved": 0}, {"lon": -76.9304, "name": "416128f8dad36ac4a4f382d051b01aee", "lat": 38.883925833333336, "fusion_lon": 0.0, "rental_uris": {"ios": "https://dc.lft.to/lastmile_qr_scan", "android": "https://dc.lft.to/lastmile_qr_scan"}, "bike_id": "416128f8dad36ac4a4f382d051b01aee", "type": "electric_scooter", "fusion_lat": 0.0, "is_disabled": 0, "is_reserved": 0}, {"lon": -77.02215766666667, "name": "fe743c46f34f11bb921849c0e32fddb5", "lat": 38.924705333333335, "fusion_lon": 0.0, "rental_uris": {"ios": "https://dc.lft.to/lastmile_qr_scan", "android": "https://dc.lft.to/lastmile_qr_scan"}, "bike_id": "fe743c46f34f11bb921849c0e32fddb5", "type": "electric_scooter", "fusion_lat": 0.0, "is_disabled": 0, "is_reserved": 0}, {"lon": -76.93674316666667, "name": "fb6daf8223e5c2a4b0e944212b814699", "lat": 38.886576, "fusion_lon": 0.0, "rental_uris": {"ios": "https://dc.lft.to/lastmile_qr_scan", "android": "https://dc.lft.to/lastmile_qr_scan"}, "bike_id": "fb6daf8223e5c2a4b0e944212b814699", "type": "electric_scooter", "fusion_lat": 0.0, "is_disabled": 0, "is_reserved": 0}, {"lon": -77.03213416666667, "name": "5a197e152c28acec21f01d7333979315", "lat": 38.917711833333335, "fusion_lon": 0.0, "rental_uris": {"ios": "https://dc.lft.to/lastmile_qr_scan", "android": "https://dc.lft.to/lastmile_qr_scan"}, "bike_id": "5a197e152c28acec21f01d7333979315", "type": "electric_scooter", "fusion_lat": 0.0, "is_disabled": 0, "is_reserved": 0}, {"lon": -77.02382466666667, "name": "8b7a0d5ed276b6b4d2a9c2170d270e64", "lat": 38.9206555, "fusion_lon": 0.0, "rental_uris": {"ios": "https://dc.lft.to/lastmile_qr_scan", "android": "https://dc.lft.to/lastmile_qr_scan"}, "bike_id": "8b7a0d5ed276b6b4d2a9c2170d270e64", "type": "electric_scooter", "fusion_lat": 0.0, "is_disabled": 0, "is_reserved": 0}, {"lon": -76.97794766666667, "name": "e1a23ee62d19b9322121288d71c9d157", "lat": 38.90613916666667, "fusion_lon": 0.0, "rental_uris": {"ios": "https://dc.lft.to/lastmile_qr_scan", "android": "https://dc.lft.to/lastmile_qr_scan"}, "bike_id": "e1a23ee62d19b9322121288d71c9d157", "type": "electric_scooter", "fusion_lat": 0.0, "is_disabled": 0, "is_reserved": 0}, {"lon": -77.35969233333333, "name": "b5b758943e4a91d40248e3567db7eddf", "lat": 38.957002, "fusion_lon": 0.0, "rental_uris": {"ios": "https://dc.lft.to/lastmile_qr_scan", "android": "https://dc.lft.to/lastmile_qr_scan"}, "bike_id": "b5b758943e4a91d40248e3567db7eddf", "type": "electric_bike", "fusion_lat": 0.0, "is_disabled": 0, "is_reserved": 0}, {"lon": -77.01661116666666, "name": "e864bb2fcbc19151d0f3dc99a3d574b7", "lat": 38.900355833333336, "fusion_lon": 0.0, "rental_uris": {"ios": "https://dc.lft.to/lastmile_qr_scan", "android": "https://dc.lft.to/lastmile_qr_scan"}, "bike_id": "e864bb2fcbc19151d0f3dc99a3d574b7", "type": "electric_scooter", "fusion_lat": 0.0, "is_disabled": 0, "is_reserved": 0}, {"lon": -77.09719216666667, "name": "b707f786c4b1ca673bbf2ab76881c3d7", "lat": 38.88644166666667, "fusion_lon": 0.0, "rental_uris": {"ios": "https://dc.lft.to/lastmile_qr_scan", "android": "https://dc.lft.to/lastmile_qr_scan"}, "bike_id": "b707f786c4b1ca673bbf2ab76881c3d7", "type": "electric_bike", "fusion_lat": 0.0, "is_disabled": 0, "is_reserved": 0}, {"lon": -77.03931833333333, "name": "e06135c241c68fa793606bec0a068cf5", "lat": 38.924926, "fusion_lon": 0.0, "rental_uris": {"ios": "https://dc.lft.to/lastmile_qr_scan", "android": "https://dc.lft.to/lastmile_qr_scan"}, "bike_id": "e06135c241c68fa793606bec0a068cf5", "type": "electric_scooter", "fusion_lat": 0.0, "is_disabled": 0, "is_reserved": 0}, {"lon": -76.95130983333334, "name": "abdffedbda0aa781187d93db3271592a", "lat": 39.08433316666667, "fusion_lon": 0.0, "rental_uris": {"ios": "https://dc.lft.to/lastmile_qr_scan", "android": "https://dc.lft.to/lastmile_qr_scan"}, "bike_id": "abdffedbda0aa781187d93db3271592a", "type": "electric_bike", "fusion_lat": 0.0, "is_disabled": 0, "is_reserved": 0}, {"lon": -77.02506766666667, "name": "0fe06d7824b625dc22930eefb71e40c7", "lat": 38.92056483333333, "fusion_lon": 0.0, "rental_uris": {"ios": "https://dc.lft.to/lastmile_qr_scan", "android": "https://dc.lft.to/lastmile_qr_scan"}, "bike_id": "0fe06d7824b625dc22930eefb71e40c7", "type": "electric_scooter", "fusion_lat": 0.0, "is_disabled": 0, "is_reserved": 0}, {"lon": -77.02417383333334, "name": "8b34781d1dbe55cff1239bd72a0482f9", "lat": 38.911667333333334, "fusion_lon": 0.0, "rental_uris": {"ios": "https://dc.lft.to/lastmile_qr_scan", "android": "https://dc.lft.to/lastmile_qr_scan"}, "bike_id": "8b34781d1dbe55cff1239bd72a0482f9", "type": "electric_scooter", "fusion_lat": 0.0, "is_disabled": 0, "is_reserved": 0}, {"lon": -77.0038055, "name": "2fb80d66080e32e268e342f8c2aed995", "lat": 38.83609766666667, "fusion_lon": 0.0, "rental_uris": {"ios": "https://dc.lft.to/lastmile_qr_scan", "android": "https://dc.lft.to/lastmile_qr_scan"}, "bike_id": "2fb80d66080e32e268e342f8c2aed995", "type": "electric_bike", "fusion_lat": 0.0, "is_disabled": 0, "is_reserved": 0}, {"lon": -77.04652016666667, "name": "5c238ab25d393d23db71e87b231730af", "lat": 38.8924955, "fusion_lon": 0.0, "rental_uris": {"ios": "https://dc.lft.to/lastmile_qr_scan", "android": "https://dc.lft.to/lastmile_qr_scan"}, "bike_id": "5c238ab25d393d23db71e87b231730af", "type": "electric_scooter", "fusion_lat": 0.0, "is_disabled": 0, "is_reserved": 0}, {"lon": -77.026942, "name": "6e74c1b56b1f6a9b8b9c10ca6e5d0b5e", "lat": 38.91540766666667, "fusion_lon": 0.0, "rental_uris": {"ios": "https://dc.lft.to/lastmile_qr_scan", "android": "https://dc.lft.to/lastmile_qr_scan"}, "bike_id": "6e74c1b56b1f6a9b8b9c10ca6e5d0b5e", "type": "electric_scooter", "fusion_lat": 0.0, "is_disabled": 0, "is_reserved": 0}, {"lon": -77.036133, "name": "7bfceab393f737a3414a0ac89fa373d1", "lat": 38.934897, "fusion_lon": 0.0, "rental_uris": {"ios": "https://dc.lft.to/lastmile_qr_scan", "android": "https://dc.lft.to/lastmile_qr_scan"}, "bike_id": "7bfceab393f737a3414a0ac89fa373d1", "type": "electric_scooter", "fusion_lat": 0.0, "is_disabled": 0, "is_reserved": 0}, {"lon": -77.0412915, "name": "e6945f920046a717bcecaee61a125571", "lat": 38.916859333333335, "fusion_lon": 0.0, "rental_uris": {"ios": "https://dc.lft.to/lastmile_qr_scan", "android": "https://dc.lft.to/lastmile_qr_scan"}, "bike_id": "e6945f920046a717bcecaee61a125571", "type": "electric_scooter", "fusion_lat": 0.0, "is_disabled": 0, "is_reserved": 0}, {"lon": -76.98030616666667, "name": "2f5e6fc86358489148c2ede0badab993", "lat": 38.889647833333335, "fusion_lon": 0.0, "rental_uris": {"ios": "https://dc.lft.to/lastmile_qr_scan", "android": "https://dc.lft.to/lastmile_qr_scan"}, "bike_id": "2f5e6fc86358489148c2ede0badab993", "type": "electric_scooter", "fusion_lat": 0.0, "is_disabled": 0, "is_reserved": 0}, {"lon": -77.0510305, "name": "104a72cb674c1abbc67ab4f03f636071", "lat": 38.91556516666667, "fusion_lon": 0.0, "rental_uris": {"ios": "https://dc.lft.to/lastmile_qr_scan", "android": "https://dc.lft.to/lastmile_qr_scan"}, "bike_id": "104a72cb674c1abbc67ab4f03f636071", "type": "electric_scooter", "fusion_lat": 0.0, "is_disabled": 0, "is_reserved": 0}, {"lon": -77.13932266666667, "name": "a9d4889840d75818f84cf8ec4671d721", "lat": 38.846708, "fusion_lon": 0.0, "rental_uris": {"ios": "https://dc.lft.to/lastmile_qr_scan", "android": "https://dc.lft.to/lastmile_qr_scan"}, "bike_id": "a9d4889840d75818f84cf8ec4671d721", "type": "electric_bike", "fusion_lat": 0.0, "is_disabled": 0, "is_reserved": 0}, {"lon": -77.03850583333333, "name": "a36e19ac81b550981c70baa03f104bc2", "lat": 38.91254516666667, "fusion_lon": 0.0, "rental_uris": {"ios": "https://dc.lft.to/lastmile_qr_scan", "android": "https://dc.lft.to/lastmile_qr_scan"}, "bike_id": "a36e19ac81b550981c70baa03f104bc2", "type": "electric_scooter", "fusion_lat": 0.0, "is_disabled": 0, "is_reserved": 0}, {"lon": -77.04306783333334, "name": "a321bdf3357dd14249a764d7f08d5d20", "lat": 38.93139883333333, "fusion_lon": 0.0, "rental_uris": {"ios": "https://dc.lft.to/lastmile_qr_scan", "android": "https://dc.lft.to/lastmile_qr_scan"}, "bike_id": "a321bdf3357dd14249a764d7f08d5d20", "type": "electric_scooter", "fusion_lat": 0.0, "is_disabled": 0, "is_reserved": 0}, {"lon": -77.05463316666666, "name": "c57c04e453043459f2928167a21baaf0", "lat": 38.897842833333335, "fusion_lon": 0.0, "rental_uris": {"ios": "https://dc.lft.to/lastmile_qr_scan", "android": "https://dc.lft.to/lastmile_qr_scan"}, "bike_id": "c57c04e453043459f2928167a21baaf0", "type": "electric_scooter", "fusion_lat": 0.0, "is_disabled": 0, "is_reserved": 0}, {"lon": -77.03211833333333, "name": "95d29781c2dd364b34ed41e942c9102a", "lat": 38.91765483333333, "fusion_lon": 0.0, "rental_uris": {"ios": "https://dc.lft.to/lastmile_qr_scan", "android": "https://dc.lft.to/lastmile_qr_scan"}, "bike_id": "95d29781c2dd364b34ed41e942c9102a", "type": "electric_scooter", "fusion_lat": 0.0, "is_disabled": 0, "is_reserved": 0}, {"lon": -77.01770483333334, "name": "e88b71419ca84ff4acd8513fbfc72b32", "lat": 38.9148175, "fusion_lon": 0.0, "rental_uris": {"ios": "https://dc.lft.to/lastmile_qr_scan", "android": "https://dc.lft.to/lastmile_qr_scan"}, "bike_id": "e88b71419ca84ff4acd8513fbfc72b32", "type": "electric_scooter", "fusion_lat": 0.0, "is_disabled": 0, "is_reserved": 0}, {"lon": -77.02260016666666, "name": "93307db5e494db8b0ef7ddc1c9631223", "lat": 38.924799, "fusion_lon": 0.0, "rental_uris": {"ios": "https://dc.lft.to/lastmile_qr_scan", "android": "https://dc.lft.to/lastmile_qr_scan"}, "bike_id": "93307db5e494db8b0ef7ddc1c9631223", "type": "electric_scooter", "fusion_lat": 0.0, "is_disabled": 0, "is_reserved": 0}, {"lon": -77.02400916666667, "name": "ad095ebc4a0209ae79d74c21e96a1c90", "lat": 38.9290375, "fusion_lon": 0.0, "rental_uris": {"ios": "https://dc.lft.to/lastmile_qr_scan", "android": "https://dc.lft.to/lastmile_qr_scan"}, "bike_id": "ad095ebc4a0209ae79d74c21e96a1c90", "type": "electric_bike", "fusion_lat": 0.0, "is_disabled": 0, "is_reserved": 0}, {"lon": -77.06841216666666, "name": "9e80d180c28bf80be660381740a1a0dc", "lat": 38.91733116666666, "fusion_lon": 0.0, "rental_uris": {"ios": "https://dc.lft.to/lastmile_qr_scan", "android": "https://dc.lft.to/lastmile_qr_scan"}, "bike_id": "9e80d180c28bf80be660381740a1a0dc", "type": "electric_scooter", "fusion_lat": 0.0, "is_disabled": 0, "is_reserved": 0}, {"lon": -77.04134016666667, "name": "6fb9c508ee3e5fa9da872ac5fb527c60", "lat": 38.90189216666667, "fusion_lon": 0.0, "rental_uris": {"ios": "https://dc.lft.to/lastmile_qr_scan", "android": "https://dc.lft.to/lastmile_qr_scan"}, "bike_id": "6fb9c508ee3e5fa9da872ac5fb527c60", "type": "electric_scooter", "fusion_lat": 0.0, "is_disabled": 0, "is_reserved": 0}, {"lon": -77.01365233333334, "name": "a02f7c4013298deda2c544f2d7bf1493", "lat": 38.878970833333334, "fusion_lon": 0.0, "rental_uris": {"ios": "https://dc.lft.to/lastmile_qr_scan", "android": "https://dc.lft.to/lastmile_qr_scan"}, "bike_id": "a02f7c4013298deda2c544f2d7bf1493", "type": "electric_scooter", "fusion_lat": 0.0, "is_disabled": 0, "is_reserved": 0}, {"lon": -77.00324766666667, "name": "4b4464c3c88e66bd9261173764de2f3d", "lat": 38.880436333333336, "fusion_lon": 0.0, "rental_uris": {"ios": "https://dc.lft.to/lastmile_qr_scan", "android": "https://dc.lft.to/lastmile_qr_scan"}, "bike_id": "4b4464c3c88e66bd9261173764de2f3d", "type": "electric_scooter", "fusion_lat": 0.0, "is_disabled": 0, "is_reserved": 0}, {"lon": -77.02666266666667, "name": "986348b9af26b418dd64d8f512f03086", "lat": 38.92475, "fusion_lon": 0.0, "rental_uris": {"ios": "https://dc.lft.to/lastmile_qr_scan", "android": "https://dc.lft.to/lastmile_qr_scan"}, "bike_id": "986348b9af26b418dd64d8f512f03086", "type": "electric_scooter", "fusion_lat": 0.0, "is_disabled": 0, "is_reserved": 0}, {"lon": -76.99606866666667, "name": "e7a01cb3005c391526e20899ed48604d", "lat": 38.887179833333334, "fusion_lon": 0.0, "rental_uris": {"ios": "https://dc.lft.to/lastmile_qr_scan", "android": "https://dc.lft.to/lastmile_qr_scan"}, "bike_id": "e7a01cb3005c391526e20899ed48604d", "type": "electric_scooter", "fusion_lat": 0.0, "is_disabled": 0, "is_reserved": 0}, {"lon": -77.02474466666666, "name": "6c707301e9e2b67f0fee042061f9bd21", "lat": 38.9181435, "fusion_lon": 0.0, "rental_uris": {"ios": "https://dc.lft.to/lastmile_qr_scan", "android": "https://dc.lft.to/lastmile_qr_scan"}, "bike_id": "6c707301e9e2b67f0fee042061f9bd21", "type": "electric_scooter", "fusion_lat": 0.0, "is_disabled": 0, "is_reserved": 0}, {"lon": -76.99016533333334, "name": "bfeb2963b2e2a09643fd3cac914fb5cf", "lat": 38.882482333333336, "fusion_lon": 0.0, "rental_uris": {"ios": "https://dc.lft.to/lastmile_qr_scan", "android": "https://dc.lft.to/lastmile_qr_scan"}, "bike_id": "bfeb2963b2e2a09643fd3cac914fb5cf", "type": "electric_bike", "fusion_lat": 0.0, "is_disabled": 0, "is_reserved": 0}, {"lon": -77.0264005, "name": "214789e8e295019c5d8d7d9d627ec11d", "lat": 38.89479466666667, "fusion_lon": 0.0, "rental_uris": {"ios": "https://dc.lft.to/lastmile_qr_scan", "android": "https://dc.lft.to/lastmile_qr_scan"}, "bike_id": "214789e8e295019c5d8d7d9d627ec11d", "type": "electric_scooter", "fusion_lat": 0.0, "is_disabled": 0, "is_reserved": 0}, {"lon": -76.98592333333333, "name": "b731706fee4ea852055eb13ec523e6be", "lat": 38.854454, "fusion_lon": 0.0, "rental_uris": {"ios": "https://dc.lft.to/lastmile_qr_scan", "android": "https://dc.lft.to/lastmile_qr_scan"}, "bike_id": "b731706fee4ea852055eb13ec523e6be", "type": "electric_bike", "fusion_lat": 0.0, "is_disabled": 0, "is_reserved": 0}, {"lon": -76.986562, "name": "4e77adc4eab4536c0b6fb39509da7cd8", "lat": 38.9747185, "fusion_lon": 0.0, "rental_uris": {"ios": "https://dc.lft.to/lastmile_qr_scan", "android": "https://dc.lft.to/lastmile_qr_scan"}, "bike_id": "4e77adc4eab4536c0b6fb39509da7cd8", "type": "electric_bike", "fusion_lat": 0.0, "is_disabled": 0, "is_reserved": 0}, {"lon": -76.99795716666667, "name": "ad9fe5d9a5a0e1f4a560f3d475f0908e", "lat": 38.908478, "fusion_lon": 0.0, "rental_uris": {"ios": "https://dc.lft.to/lastmile_qr_scan", "android": "https://dc.lft.to/lastmile_qr_scan"}, "bike_id": "ad9fe5d9a5a0e1f4a560f3d475f0908e", "type": "electric_scooter", "fusion_lat": 0.0, "is_disabled": 0, "is_reserved": 0}, {"lon": -77.03132133333334, "name": "0d0fbb09d031f78df4f83f2b3a7b7344", "lat": 38.9267445, "fusion_lon": 0.0, "rental_uris": {"ios": "https://dc.lft.to/lastmile_qr_scan", "android": "https://dc.lft.to/lastmile_qr_scan"}, "bike_id": "0d0fbb09d031f78df4f83f2b3a7b7344", "type": "electric_scooter", "fusion_lat": 0.0, "is_disabled": 0, "is_reserved": 0}, {"lon": -76.97071083333333, "name": "806f21fc7c62c00dd347ffd301575df9", "lat": 38.846452, "fusion_lon": 0.0, "rental_uris": {"ios": "https://dc.lft.to/lastmile_qr_scan", "android": "https://dc.lft.to/lastmile_qr_scan"}, "bike_id": "806f21fc7c62c00dd347ffd301575df9", "type": "electric_bike", "fusion_lat": 0.0, "is_disabled": 0, "is_reserved": 0}, {"lon": -77.0988955, "name": "84d4190f74dafb8c8b5436ec7e09ccab", "lat": 38.98951116666667, "fusion_lon": 0.0, "rental_uris": {"ios": "https://dc.lft.to/lastmile_qr_scan", "android": "https://dc.lft.to/lastmile_qr_scan"}, "bike_id": "84d4190f74dafb8c8b5436ec7e09ccab", "type": "electric_bike", "fusion_lat": 0.0, "is_disabled": 0, "is_reserved": 0}, {"lon": -76.9738625, "name": "6675ca03457b0315ec65c26b6d00feaa", "lat": 38.90384316666667, "fusion_lon": 0.0, "rental_uris": {"ios": "https://dc.lft.to/lastmile_qr_scan", "android": "https://dc.lft.to/lastmile_qr_scan"}, "bike_id": "6675ca03457b0315ec65c26b6d00feaa", "type": "electric_scooter", "fusion_lat": 0.0, "is_disabled": 0, "is_reserved": 0}, {"lon": -77.0250825, "name": "22d70cc2070a1e1e65c9388f143520d6", "lat": 38.92057483333333, "fusion_lon": 0.0, "rental_uris": {"ios": "https://dc.lft.to/lastmile_qr_scan", "android": "https://dc.lft.to/lastmile_qr_scan"}, "bike_id": "22d70cc2070a1e1e65c9388f143520d6", "type": "electric_scooter", "fusion_lat": 0.0, "is_disabled": 0, "is_reserved": 0}, {"lon": -77.043858, "name": "d7b83ce69201ebac10eba9c4a2138cac", "lat": 38.8919945, "fusion_lon": 0.0, "rental_uris": {"ios": "https://dc.lft.to/lastmile_qr_scan", "android": "https://dc.lft.to/lastmile_qr_scan"}, "bike_id": "d7b83ce69201ebac10eba9c4a2138cac", "type": "electric_scooter", "fusion_lat": 0.0, "is_disabled": 0, "is_reserved": 0}, {"lon": -77.04849516666667, "name": "6856d4ed6b6f19b36789a9733388853e", "lat": 38.91632466666667, "fusion_lon": 0.0, "rental_uris": {"ios": "https://dc.lft.to/lastmile_qr_scan", "android": "https://dc.lft.to/lastmile_qr_scan"}, "bike_id": "6856d4ed6b6f19b36789a9733388853e", "type": "electric_scooter", "fusion_lat": 0.0, "is_disabled": 0, "is_reserved": 0}, {"lon": -77.06452816666666, "name": "af5490f60905030aa0e4742c55307b17", "lat": 38.90512616666667, "fusion_lon": 0.0, "rental_uris": {"ios": "https://dc.lft.to/lastmile_qr_scan", "android": "https://dc.lft.to/lastmile_qr_scan"}, "bike_id": "af5490f60905030aa0e4742c55307b17", "type": "electric_scooter", "fusion_lat": 0.0, "is_disabled": 0, "is_reserved": 0}, {"lon": -77.05384233333334, "name": "c860d685c9e056e625f6ac4f954c5e3e", "lat": 38.910612, "fusion_lon": 0.0, "rental_uris": {"ios": "https://dc.lft.to/lastmile_qr_scan", "android": "https://dc.lft.to/lastmile_qr_scan"}, "bike_id": "c860d685c9e056e625f6ac4f954c5e3e", "type": "electric_scooter", "fusion_lat": 0.0, "is_disabled": 0, "is_reserved": 0}, {"lon": -77.01509333333334, "name": "36e72d647d2885efd6c5f0a31ddafcee", "lat": 38.92666166666667, "fusion_lon": 0.0, "rental_uris": {"ios": "https://dc.lft.to/lastmile_qr_scan", "android": "https://dc.lft.to/lastmile_qr_scan"}, "bike_id": "36e72d647d2885efd6c5f0a31ddafcee", "type": "electric_scooter", "fusion_lat": 0.0, "is_disabled": 0, "is_reserved": 0}, {"lon": -77.03969166666667, "name": "9ee3d9d7efcc71c7dab2657f2e3493eb", "lat": 38.90271716666667, "fusion_lon": 0.0, "rental_uris": {"ios": "https://dc.lft.to/lastmile_qr_scan", "android": "https://dc.lft.to/lastmile_qr_scan"}, "bike_id": "9ee3d9d7efcc71c7dab2657f2e3493eb", "type": "electric_scooter", "fusion_lat": 0.0, "is_disabled": 0, "is_reserved": 0}, {"lon": -77.04776033333333, "name": "adb6cf37fdf5eeebf1b4d5234d8c6b38", "lat": 38.9009095, "fusion_lon": 0.0, "rental_uris": {"ios": "https://dc.lft.to/lastmile_qr_scan", "android": "https://dc.lft.to/lastmile_qr_scan"}, "bike_id": "adb6cf37fdf5eeebf1b4d5234d8c6b38", "type": "electric_scooter", "fusion_lat": 0.0, "is_disabled": 0, "is_reserved": 0}, {"lon": -77.01892866666667, "name": "94c02f1f5c56688059cf981435773ce6", "lat": 38.91507333333333, "fusion_lon": 0.0, "rental_uris": {"ios": "https://dc.lft.to/lastmile_qr_scan", "android": "https://dc.lft.to/lastmile_qr_scan"}, "bike_id": "94c02f1f5c56688059cf981435773ce6", "type": "electric_scooter", "fusion_lat": 0.0, "is_disabled": 0, "is_reserved": 0}, {"lon": -77.02792016666666, "name": "1abff06656a8bccbe0e68dcc2b349bb1", "lat": 38.930800833333336, "fusion_lon": 0.0, "rental_uris": {"ios": "https://dc.lft.to/lastmile_qr_scan", "android": "https://dc.lft.to/lastmile_qr_scan"}, "bike_id": "1abff06656a8bccbe0e68dcc2b349bb1", "type": "electric_scooter", "fusion_lat": 0.0, "is_disabled": 0, "is_reserved": 0}, {"lon": -76.98353616666667, "name": "0e353452e8301aadebbda06ae3714288", "lat": 38.8626785, "fusion_lon": 0.0, "rental_uris": {"ios": "https://dc.lft.to/lastmile_qr_scan", "android": "https://dc.lft.to/lastmile_qr_scan"}, "bike_id": "0e353452e8301aadebbda06ae3714288", "type": "electric_bike", "fusion_lat": 0.0, "is_disabled": 0, "is_reserved": 0}, {"lon": -77.02006416666667, "name": "42299b6b54e3c1d6d0ca73c6cd2265fd", "lat": 38.9241295, "fusion_lon": 0.0, "rental_uris": {"ios": "https://dc.lft.to/lastmile_qr_scan", "android": "https://dc.lft.to/lastmile_qr_scan"}, "bike_id": "42299b6b54e3c1d6d0ca73c6cd2265fd", "type": "electric_scooter", "fusion_lat": 0.0, "is_disabled": 0, "is_reserved": 0}, {"lon": -77.05596266666667, "name": "f1daba51ac124258dd811a6686c3a51b", "lat": 38.936956333333335, "fusion_lon": 0.0, "rental_uris": {"ios": "https://dc.lft.to/lastmile_qr_scan", "android": "https://dc.lft.to/lastmile_qr_scan"}, "bike_id": "f1daba51ac124258dd811a6686c3a51b", "type": "electric_scooter", "fusion_lat": 0.0, "is_disabled": 0, "is_reserved": 0}, {"lon": -77.1141125, "name": "1454b458699daf3a6deabed352a951e8", "lat": 38.852435166666666, "fusion_lon": 0.0, "rental_uris": {"ios": "https://dc.lft.to/lastmile_qr_scan", "android": "https://dc.lft.to/lastmile_qr_scan"}, "bike_id": "1454b458699daf3a6deabed352a951e8", "type": "electric_bike", "fusion_lat": 0.0, "is_disabled": 0, "is_reserved": 0}, {"lon": -77.01953183333333, "name": "7818157c6c505173eeb60652a076af94", "lat": 38.92368583333333, "fusion_lon": 0.0, "rental_uris": {"ios": "https://dc.lft.to/lastmile_qr_scan", "android": "https://dc.lft.to/lastmile_qr_scan"}, "bike_id": "7818157c6c505173eeb60652a076af94", "type": "electric_scooter", "fusion_lat": 0.0, "is_disabled": 0, "is_reserved": 0}, {"lon": -76.93495916666667, "name": "b4c59c70dc325c8aeb6104faef55325b", "lat": 38.882987166666666, "fusion_lon": 0.0, "rental_uris": {"ios": "https://dc.lft.to/lastmile_qr_scan", "android": "https://dc.lft.to/lastmile_qr_scan"}, "bike_id": "b4c59c70dc325c8aeb6104faef55325b", "type": "electric_scooter", "fusion_lat": 0.0, "is_disabled": 0, "is_reserved": 0}, {"lon": -77.03828316666667, "name": "eab95737458b0e2e0e547d32a73fdd34", "lat": 38.920426666666664, "fusion_lon": 0.0, "rental_uris": {"ios": "https://dc.lft.to/lastmile_qr_scan", "android": "https://dc.lft.to/lastmile_qr_scan"}, "bike_id": "eab95737458b0e2e0e547d32a73fdd34", "type": "electric_scooter", "fusion_lat": 0.0, "is_disabled": 0, "is_reserved": 0}, {"lon": -77.06976633333333, "name": "f8a5c150744670f65835574790bdcbf6", "lat": 38.953175333333334, "fusion_lon": 0.0, "rental_uris": {"ios": "https://dc.lft.to/lastmile_qr_scan", "android": "https://dc.lft.to/lastmile_qr_scan"}, "bike_id": "f8a5c150744670f65835574790bdcbf6", "type": "electric_scooter", "fusion_lat": 0.0, "is_disabled": 0, "is_reserved": 0}, {"lon": -77.06458066666667, "name": "d7c3d8944d6f893a588962f712614146", "lat": 38.9087565, "fusion_lon": 0.0, "rental_uris": {"ios": "https://dc.lft.to/lastmile_qr_scan", "android": "https://dc.lft.to/lastmile_qr_scan"}, "bike_id": "d7c3d8944d6f893a588962f712614146", "type": "electric_scooter", "fusion_lat": 0.0, "is_disabled": 0, "is_reserved": 0}, {"lon": -77.021553, "name": "cf1df8190dded836d40013c3b4fd7af7", "lat": 38.92601483333333, "fusion_lon": 0.0, "rental_uris": {"ios": "https://dc.lft.to/lastmile_qr_scan", "android": "https://dc.lft.to/lastmile_qr_scan"}, "bike_id": "cf1df8190dded836d40013c3b4fd7af7", "type": "electric_scooter", "fusion_lat": 0.0, "is_disabled": 0, "is_reserved": 0}, {"lon": -77.05685433333333, "name": "68e4c2a1c1185b878ea91c794d7cf452", "lat": 38.9232565, "fusion_lon": 0.0, "rental_uris": {"ios": "https://dc.lft.to/lastmile_qr_scan", "android": "https://dc.lft.to/lastmile_qr_scan"}, "bike_id": "68e4c2a1c1185b878ea91c794d7cf452", "type": "electric_scooter", "fusion_lat": 0.0, "is_disabled": 0, "is_reserved": 0}, {"lon": -77.022959, "name": "b3fa7374bba7061f885fee44d1017e4d", "lat": 38.912808, "fusion_lon": 0.0, "rental_uris": {"ios": "https://dc.lft.to/lastmile_qr_scan", "android": "https://dc.lft.to/lastmile_qr_scan"}, "bike_id": "b3fa7374bba7061f885fee44d1017e4d", "type": "electric_scooter", "fusion_lat": 0.0, "is_disabled": 0, "is_reserved": 0}, {"lon": -77.07248633333333, "name": "3fd6c681a42c166b5f24e5d2bbe873b2", "lat": 38.939306, "fusion_lon": 0.0, "rental_uris": {"ios": "https://dc.lft.to/lastmile_qr_scan", "android": "https://dc.lft.to/lastmile_qr_scan"}, "bike_id": "3fd6c681a42c166b5f24e5d2bbe873b2", "type": "electric_scooter", "fusion_lat": 0.0, "is_disabled": 0, "is_reserved": 0}, {"lon": -77.04183583333334, "name": "1e491c478fa4c1a1b388fb383b914564", "lat": 38.892854666666665, "fusion_lon": 0.0, "rental_uris": {"ios": "https://dc.lft.to/lastmile_qr_scan", "android": "https://dc.lft.to/lastmile_qr_scan"}, "bike_id": "1e491c478fa4c1a1b388fb383b914564", "type": "electric_scooter", "fusion_lat": 0.0, "is_disabled": 0, "is_reserved": 0}, {"lon": -77.02690616666666, "name": "32b5751720a64133af065a4d25f906cf", "lat": 38.91825733333334, "fusion_lon": 0.0, "rental_uris": {"ios": "https://dc.lft.to/lastmile_qr_scan", "android": "https://dc.lft.to/lastmile_qr_scan"}, "bike_id": "32b5751720a64133af065a4d25f906cf", "type": "electric_scooter", "fusion_lat": 0.0, "is_disabled": 0, "is_reserved": 0}, {"lon": -77.04518483333334, "name": "1dc620d423e7eb686c3526c8e29afaf6", "lat": 38.918215000000004, "fusion_lon": 0.0, "rental_uris": {"ios": "https://dc.lft.to/lastmile_qr_scan", "android": "https://dc.lft.to/lastmile_qr_scan"}, "bike_id": "1dc620d423e7eb686c3526c8e29afaf6", "type": "electric_scooter", "fusion_lat": 0.0, "is_disabled": 0, "is_reserved": 0}, {"lon": -77.07657066666667, "name": "823200c16ecf12f8530202921b6d8f54", "lat": 38.809741833333334, "fusion_lon": 0.0, "rental_uris": {"ios": "https://dc.lft.to/lastmile_qr_scan", "android": "https://dc.lft.to/lastmile_qr_scan"}, "bike_id": "823200c16ecf12f8530202921b6d8f54", "type": "electric_bike", "fusion_lat": 0.0, "is_disabled": 0, "is_reserved": 0}, {"lon": -77.04464133333333, "name": "c0650fa6c8299902e15863b637d69643", "lat": 38.896090666666666, "fusion_lon": 0.0, "rental_uris": {"ios": "https://dc.lft.to/lastmile_qr_scan", "android": "https://dc.lft.to/lastmile_qr_scan"}, "bike_id": "c0650fa6c8299902e15863b637d69643", "type": "electric_scooter", "fusion_lat": 0.0, "is_disabled": 0, "is_reserved": 0}, {"lon": -77.02833383333333, "name": "2035b7921166354fe0f437fa308958ae", "lat": 38.92477783333333, "fusion_lon": 0.0, "rental_uris": {"ios": "https://dc.lft.to/lastmile_qr_scan", "android": "https://dc.lft.to/lastmile_qr_scan"}, "bike_id": "2035b7921166354fe0f437fa308958ae", "type": "electric_scooter", "fusion_lat": 0.0, "is_disabled": 0, "is_reserved": 0}, {"lon": -77.04652583333333, "name": "8e1dd38cd6f2fe5ba37b0d9cc626d028", "lat": 38.8923215, "fusion_lon": 0.0, "rental_uris": {"ios": "https://dc.lft.to/lastmile_qr_scan", "android": "https://dc.lft.to/lastmile_qr_scan"}, "bike_id": "8e1dd38cd6f2fe5ba37b0d9cc626d028", "type": "electric_scooter", "fusion_lat": 0.0, "is_disabled": 0, "is_reserved": 0}, {"lon": -77.01739316666666, "name": "081b1ae22547a1ae423d3d6f173e6e58", "lat": 38.946064666666665, "fusion_lon": 0.0, "rental_uris": {"ios": "https://dc.lft.to/lastmile_qr_scan", "android": "https://dc.lft.to/lastmile_qr_scan"}, "bike_id": "081b1ae22547a1ae423d3d6f173e6e58", "type": "electric_bike", "fusion_lat": 0.0, "is_disabled": 0, "is_reserved": 0}, {"lon": -77.02332933333334, "name": "e1329b771947b9146d1b467f7f369ee7", "lat": 38.93074983333333, "fusion_lon": 0.0, "rental_uris": {"ios": "https://dc.lft.to/lastmile_qr_scan", "android": "https://dc.lft.to/lastmile_qr_scan"}, "bike_id": "e1329b771947b9146d1b467f7f369ee7", "type": "electric_scooter", "fusion_lat": 0.0, "is_disabled": 0, "is_reserved": 0}, {"lon": -77.03222233333334, "name": "dfb141fbfd7dcc8e1862b0d0eaaa84f3", "lat": 38.908662, "fusion_lon": 0.0, "rental_uris": {"ios": "https://dc.lft.to/lastmile_qr_scan", "android": "https://dc.lft.to/lastmile_qr_scan"}, "bike_id": "dfb141fbfd7dcc8e1862b0d0eaaa84f3", "type": "electric_scooter", "fusion_lat": 0.0, "is_disabled": 0, "is_reserved": 0}, {"lon": -77.0418555, "name": "bbe4e52b551b2597eaadd056e19c73fe", "lat": 38.920089833333336, "fusion_lon": 0.0, "rental_uris": {"ios": "https://dc.lft.to/lastmile_qr_scan", "android": "https://dc.lft.to/lastmile_qr_scan"}, "bike_id": "bbe4e52b551b2597eaadd056e19c73fe", "type": "electric_scooter", "fusion_lat": 0.0, "is_disabled": 0, "is_reserved": 0}, {"lon": -77.02184233333334, "name": "57f64aa714c02b49e1a6bdf53c983b1c", "lat": 38.91486066666667, "fusion_lon": 0.0, "rental_uris": {"ios": "https://dc.lft.to/lastmile_qr_scan", "android": "https://dc.lft.to/lastmile_qr_scan"}, "bike_id": "57f64aa714c02b49e1a6bdf53c983b1c", "type": "electric_scooter", "fusion_lat": 0.0, "is_disabled": 0, "is_reserved": 0}, {"lon": -77.02510183333334, "name": "9fca6cfd623b55cee25973fe1bf74c2f", "lat": 38.89225233333333, "fusion_lon": 0.0, "rental_uris": {"ios": "https://dc.lft.to/lastmile_qr_scan", "android": "https://dc.lft.to/lastmile_qr_scan"}, "bike_id": "9fca6cfd623b55cee25973fe1bf74c2f", "type": "electric_scooter", "fusion_lat": 0.0, "is_disabled": 0, "is_reserved": 0}, {"lon": -77.02243833333333, "name": "53ce31df9426c6c134f45106c780bd17", "lat": 38.92466483333333, "fusion_lon": 0.0, "rental_uris": {"ios": "https://dc.lft.to/lastmile_qr_scan", "android": "https://dc.lft.to/lastmile_qr_scan"}, "bike_id": "53ce31df9426c6c134f45106c780bd17", "type": "electric_scooter", "fusion_lat": 0.0, "is_disabled": 0, "is_reserved": 0}, {"lon": -77.06245066666666, "name": "429c2407e215ca7820b27b6b8553ca04", "lat": 38.91319433333334, "fusion_lon": 0.0, "rental_uris": {"ios": "https://dc.lft.to/lastmile_qr_scan", "android": "https://dc.lft.to/lastmile_qr_scan"}, "bike_id": "429c2407e215ca7820b27b6b8553ca04", "type": "electric_scooter", "fusion_lat": 0.0, "is_disabled": 0, "is_reserved": 0}, {"lon": -77.03132383333333, "name": "aa8573156f34b771195d37aa8cda426d", "lat": 38.911105166666665, "fusion_lon": 0.0, "rental_uris": {"ios": "https://dc.lft.to/lastmile_qr_scan", "android": "https://dc.lft.to/lastmile_qr_scan"}, "bike_id": "aa8573156f34b771195d37aa8cda426d", "type": "electric_scooter", "fusion_lat": 0.0, "is_disabled": 0, "is_reserved": 0}, {"lon": -77.02594033333334, "name": "5e7496cfe71ef4a5ebdcc1753d73f9f7", "lat": 38.919303666666664, "fusion_lon": 0.0, "rental_uris": {"ios": "https://dc.lft.to/lastmile_qr_scan", "android": "https://dc.lft.to/lastmile_qr_scan"}, "bike_id": "5e7496cfe71ef4a5ebdcc1753d73f9f7", "type": "electric_scooter", "fusion_lat": 0.0, "is_disabled": 0, "is_reserved": 0}, {"lon": -77.05544166666667, "name": "e8779979dc36a2c9195991bde33a3eb1", "lat": 38.93003933333333, "fusion_lon": 0.0, "rental_uris": {"ios": "https://dc.lft.to/lastmile_qr_scan", "android": "https://dc.lft.to/lastmile_qr_scan"}, "bike_id": "e8779979dc36a2c9195991bde33a3eb1", "type": "electric_scooter", "fusion_lat": 0.0, "is_disabled": 0, "is_reserved": 0}, {"lon": -77.07308883333333, "name": "502a26b67560dd361893d600c5d9a327", "lat": 38.9119365, "fusion_lon": 0.0, "rental_uris": {"ios": "https://dc.lft.to/lastmile_qr_scan", "android": "https://dc.lft.to/lastmile_qr_scan"}, "bike_id": "502a26b67560dd361893d600c5d9a327", "type": "electric_scooter", "fusion_lat": 0.0, "is_disabled": 0, "is_reserved": 0}, {"lon": -77.0174985, "name": "bba52375f5fe2ec940fb3dccfd8aa048", "lat": 38.9075865, "fusion_lon": 0.0, "rental_uris": {"ios": "https://dc.lft.to/lastmile_qr_scan", "android": "https://dc.lft.to/lastmile_qr_scan"}, "bike_id": "bba52375f5fe2ec940fb3dccfd8aa048", "type": "electric_bike", "fusion_lat": 0.0, "is_disabled": 0, "is_reserved": 0}, {"lon": -77.02335966666666, "name": "de062be9e197d3d519dad069d1f25479", "lat": 38.93073, "fusion_lon": 0.0, "rental_uris": {"ios": "https://dc.lft.to/lastmile_qr_scan", "android": "https://dc.lft.to/lastmile_qr_scan"}, "bike_id": "de062be9e197d3d519dad069d1f25479", "type": "electric_scooter", "fusion_lat": 0.0, "is_disabled": 0, "is_reserved": 0}, {"lon": -77.05205166666667, "name": "5ea21c02c5a52a1b1295b2434f6081af", "lat": 38.91407, "fusion_lon": 0.0, "rental_uris": {"ios": "https://dc.lft.to/lastmile_qr_scan", "android": "https://dc.lft.to/lastmile_qr_scan"}, "bike_id": "5ea21c02c5a52a1b1295b2434f6081af", "type": "electric_scooter", "fusion_lat": 0.0, "is_disabled": 0, "is_reserved": 0}, {"lon": -77.03686166666667, "name": "8adc58168f9038f096328fe261bd8c1b", "lat": 39.026459833333334, "fusion_lon": 0.0, "rental_uris": {"ios": "https://dc.lft.to/lastmile_qr_scan", "android": "https://dc.lft.to/lastmile_qr_scan"}, "bike_id": "8adc58168f9038f096328fe261bd8c1b", "type": "electric_bike", "fusion_lat": 0.0, "is_disabled": 0, "is_reserved": 0}, {"lon": -77.02197766666667, "name": "663643ab218004a511a19e5af9b5ac63", "lat": 38.91124966666667, "fusion_lon": 0.0, "rental_uris": {"ios": "https://dc.lft.to/lastmile_qr_scan", "android": "https://dc.lft.to/lastmile_qr_scan"}, "bike_id": "663643ab218004a511a19e5af9b5ac63", "type": "electric_scooter", "fusion_lat": 0.0, "is_disabled": 0, "is_reserved": 0}, {"lon": -77.06051383333333, "name": "cb27c03e2990ef0d94169be4f05571d4", "lat": 38.905184166666665, "fusion_lon": 0.0, "rental_uris": {"ios": "https://dc.lft.to/lastmile_qr_scan", "android": "https://dc.lft.to/lastmile_qr_scan"}, "bike_id": "cb27c03e2990ef0d94169be4f05571d4", "type": "electric_scooter", "fusion_lat": 0.0, "is_disabled": 0, "is_reserved": 0}, {"lon": -77.03616283333334, "name": "a8fae19e919c090c59385110c601cc3b", "lat": 38.900242, "fusion_lon": 0.0, "rental_uris": {"ios": "https://dc.lft.to/lastmile_qr_scan", "android": "https://dc.lft.to/lastmile_qr_scan"}, "bike_id": "a8fae19e919c090c59385110c601cc3b", "type": "electric_scooter", "fusion_lat": 0.0, "is_disabled": 0, "is_reserved": 0}, {"lon": -77.038584, "name": "206d35e6a741b5e043ff2f9f2e1f601a", "lat": 38.912537, "fusion_lon": 0.0, "rental_uris": {"ios": "https://dc.lft.to/lastmile_qr_scan", "android": "https://dc.lft.to/lastmile_qr_scan"}, "bike_id": "206d35e6a741b5e043ff2f9f2e1f601a", "type": "electric_scooter", "fusion_lat": 0.0, "is_disabled": 0, "is_reserved": 0}, {"lon": -77.02872833333333, "name": "ed52cdbb803a26ee866b96917cd1b88b", "lat": 38.899733499999996, "fusion_lon": 0.0, "rental_uris": {"ios": "https://dc.lft.to/lastmile_qr_scan", "android": "https://dc.lft.to/lastmile_qr_scan"}, "bike_id": "ed52cdbb803a26ee866b96917cd1b88b", "type": "electric_scooter", "fusion_lat": 0.0, "is_disabled": 0, "is_reserved": 0}, {"lon": -76.926295, "name": "fec7cc96d19f2f0e6bb528567421c941", "lat": 38.88621333333333, "fusion_lon": 0.0, "rental_uris": {"ios": "https://dc.lft.to/lastmile_qr_scan", "android": "https://dc.lft.to/lastmile_qr_scan"}, "bike_id": "fec7cc96d19f2f0e6bb528567421c941", "type": "electric_scooter", "fusion_lat": 0.0, "is_disabled": 0, "is_reserved": 0}, {"lon": -77.0030125, "name": "45731cc97d5dea9b0e38111c884b8a4e", "lat": 38.9091075, "fusion_lon": 0.0, "rental_uris": {"ios": "https://dc.lft.to/lastmile_qr_scan", "android": "https://dc.lft.to/lastmile_qr_scan"}, "bike_id": "45731cc97d5dea9b0e38111c884b8a4e", "type": "electric_scooter", "fusion_lat": 0.0, "is_disabled": 0, "is_reserved": 0}, {"lon": -77.009165, "name": "2eee71a5818ac44f3d650ab47af2729a", "lat": 38.91469383333333, "fusion_lon": 0.0, "rental_uris": {"ios": "https://dc.lft.to/lastmile_qr_scan", "android": "https://dc.lft.to/lastmile_qr_scan"}, "bike_id": "2eee71a5818ac44f3d650ab47af2729a", "type": "electric_scooter", "fusion_lat": 0.0, "is_disabled": 0, "is_reserved": 0}, {"lon": -77.04336266666667, "name": "ce7aa66b2bd2ef19f7a7da79eddf890a", "lat": 38.892245833333334, "fusion_lon": 0.0, "rental_uris": {"ios": "https://dc.lft.to/lastmile_qr_scan", "android": "https://dc.lft.to/lastmile_qr_scan"}, "bike_id": "ce7aa66b2bd2ef19f7a7da79eddf890a", "type": "electric_scooter", "fusion_lat": 0.0, "is_disabled": 0, "is_reserved": 0}, {"lon": -76.91133483333333, "name": "ca4fd199d1a57a0672cd6f11de723c2e", "lat": 38.9990375, "fusion_lon": 0.0, "rental_uris": {"ios": "https://dc.lft.to/lastmile_qr_scan", "android": "https://dc.lft.to/lastmile_qr_scan"}, "bike_id": "ca4fd199d1a57a0672cd6f11de723c2e", "type": "electric_bike", "fusion_lat": 0.0, "is_disabled": 0, "is_reserved": 0}, {"lon": -77.0342975, "name": "01b0b00834814e3f3b754a7db769010d", "lat": 38.93544583333333, "fusion_lon": 0.0, "rental_uris": {"ios": "https://dc.lft.to/lastmile_qr_scan", "android": "https://dc.lft.to/lastmile_qr_scan"}, "bike_id": "01b0b00834814e3f3b754a7db769010d", "type": "electric_scooter", "fusion_lat": 0.0, "is_disabled": 0, "is_reserved": 0}, {"lon": -77.02296, "name": "f442d594176f716753e54a54939ecba3", "lat": 38.92684233333333, "fusion_lon": 0.0, "rental_uris": {"ios": "https://dc.lft.to/lastmile_qr_scan", "android": "https://dc.lft.to/lastmile_qr_scan"}, "bike_id": "f442d594176f716753e54a54939ecba3", "type": "electric_scooter", "fusion_lat": 0.0, "is_disabled": 0, "is_reserved": 0}, {"lon": -77.04663333333333, "name": "3eb390454d3df9a3af7789060d48e6ac", "lat": 38.91370466666667, "fusion_lon": 0.0, "rental_uris": {"ios": "https://dc.lft.to/lastmile_qr_scan", "android": "https://dc.lft.to/lastmile_qr_scan"}, "bike_id": "3eb390454d3df9a3af7789060d48e6ac", "type": "electric_scooter", "fusion_lat": 0.0, "is_disabled": 0, "is_reserved": 0}, {"lon": -77.02316483333334, "name": "7d3548f029c41ddb494af79ecd4fb2a0", "lat": 38.92071383333333, "fusion_lon": 0.0, "rental_uris": {"ios": "https://dc.lft.to/lastmile_qr_scan", "android": "https://dc.lft.to/lastmile_qr_scan"}, "bike_id": "7d3548f029c41ddb494af79ecd4fb2a0", "type": "electric_scooter", "fusion_lat": 0.0, "is_disabled": 0, "is_reserved": 0}, {"lon": -77.023859, "name": "6c1a495affcc56b6356e65e5848f192c", "lat": 38.909632333333334, "fusion_lon": 0.0, "rental_uris": {"ios": "https://dc.lft.to/lastmile_qr_scan", "android": "https://dc.lft.to/lastmile_qr_scan"}, "bike_id": "6c1a495affcc56b6356e65e5848f192c", "type": "electric_scooter", "fusion_lat": 0.0, "is_disabled": 0, "is_reserved": 0}, {"lon": -76.97225316666666, "name": "2d3098a58ae7ca4b9e6e39ae982e1586", "lat": 38.9043625, "fusion_lon": 0.0, "rental_uris": {"ios": "https://dc.lft.to/lastmile_qr_scan", "android": "https://dc.lft.to/lastmile_qr_scan"}, "bike_id": "2d3098a58ae7ca4b9e6e39ae982e1586", "type": "electric_bike", "fusion_lat": 0.0, "is_disabled": 0, "is_reserved": 0}, {"lon": -77.04466, "name": "93101035907767bff6fabb556dc48a8c", "lat": 38.8959925, "fusion_lon": 0.0, "rental_uris": {"ios": "https://dc.lft.to/lastmile_qr_scan", "android": "https://dc.lft.to/lastmile_qr_scan"}, "bike_id": "93101035907767bff6fabb556dc48a8c", "type": "electric_scooter", "fusion_lat": 0.0, "is_disabled": 0, "is_reserved": 0}, {"lon": -77.02077166666666, "name": "865cc63b37e26796ef7b5bca67d15a45", "lat": 38.92697233333333, "fusion_lon": 0.0, "rental_uris": {"ios": "https://dc.lft.to/lastmile_qr_scan", "android": "https://dc.lft.to/lastmile_qr_scan"}, "bike_id": "865cc63b37e26796ef7b5bca67d15a45", "type": "electric_scooter", "fusion_lat": 0.0, "is_disabled": 0, "is_reserved": 0}, {"lon": -77.02150316666666, "name": "8890c472e36edc5d62b793fdbae67028", "lat": 38.9260365, "fusion_lon": 0.0, "rental_uris": {"ios": "https://dc.lft.to/lastmile_qr_scan", "android": "https://dc.lft.to/lastmile_qr_scan"}, "bike_id": "8890c472e36edc5d62b793fdbae67028", "type": "electric_scooter", "fusion_lat": 0.0, "is_disabled": 0, "is_reserved": 0}, {"lon": -77.02444383333334, "name": "4111fd8f015b554f75738ff868143fe4", "lat": 38.92053683333334, "fusion_lon": 0.0, "rental_uris": {"ios": "https://dc.lft.to/lastmile_qr_scan", "android": "https://dc.lft.to/lastmile_qr_scan"}, "bike_id": "4111fd8f015b554f75738ff868143fe4", "type": "electric_scooter", "fusion_lat": 0.0, "is_disabled": 0, "is_reserved": 0}, {"lon": -77.0316335, "name": "7a0fcbcb5778a4f6d5bc5d6d9b4ce377", "lat": 38.9010785, "fusion_lon": 0.0, "rental_uris": {"ios": "https://dc.lft.to/lastmile_qr_scan", "android": "https://dc.lft.to/lastmile_qr_scan"}, "bike_id": "7a0fcbcb5778a4f6d5bc5d6d9b4ce377", "type": "electric_scooter", "fusion_lat": 0.0, "is_disabled": 0, "is_reserved": 0}, {"lon": -77.03612666666666, "name": "8a9afbdda2f4039f4e76eeca6488248f", "lat": 38.91701966666667, "fusion_lon": 0.0, "rental_uris": {"ios": "https://dc.lft.to/lastmile_qr_scan", "android": "https://dc.lft.to/lastmile_qr_scan"}, "bike_id": "8a9afbdda2f4039f4e76eeca6488248f", "type": "electric_scooter", "fusion_lat": 0.0, "is_disabled": 0, "is_reserved": 0}, {"lon": -77.02523566666666, "name": "4c60dd0c47ef8f284987788602f0d72b", "lat": 38.897440833333334, "fusion_lon": 0.0, "rental_uris": {"ios": "https://dc.lft.to/lastmile_qr_scan", "android": "https://dc.lft.to/lastmile_qr_scan"}, "bike_id": "4c60dd0c47ef8f284987788602f0d72b", "type": "electric_scooter", "fusion_lat": 0.0, "is_disabled": 0, "is_reserved": 0}, {"lon": -77.03022966666667, "name": "7a96cbf1ebe608580741480298f8cc2d", "lat": 38.930999, "fusion_lon": 0.0, "rental_uris": {"ios": "https://dc.lft.to/lastmile_qr_scan", "android": "https://dc.lft.to/lastmile_qr_scan"}, "bike_id": "7a96cbf1ebe608580741480298f8cc2d", "type": "electric_scooter", "fusion_lat": 0.0, "is_disabled": 0, "is_reserved": 0}, {"lon": -77.0886375, "name": "42f6a6d76cf416e639ce9e1f830f5075", "lat": 38.951086, "fusion_lon": 0.0, "rental_uris": {"ios": "https://dc.lft.to/lastmile_qr_scan", "android": "https://dc.lft.to/lastmile_qr_scan"}, "bike_id": "42f6a6d76cf416e639ce9e1f830f5075", "type": "electric_bike", "fusion_lat": 0.0, "is_disabled": 0, "is_reserved": 0}, {"lon": -77.0349305, "name": "3c412e8bca6fec9d4da22d423b8495a9", "lat": 38.93455733333333, "fusion_lon": 0.0, "rental_uris": {"ios": "https://dc.lft.to/lastmile_qr_scan", "android": "https://dc.lft.to/lastmile_qr_scan"}, "bike_id": "3c412e8bca6fec9d4da22d423b8495a9", "type": "electric_scooter", "fusion_lat": 0.0, "is_disabled": 0, "is_reserved": 0}, {"lon": -77.0262895, "name": "42fafa3142dd9852a13f3fad8b4dee46", "lat": 38.89820916666667, "fusion_lon": 0.0, "rental_uris": {"ios": "https://dc.lft.to/lastmile_qr_scan", "android": "https://dc.lft.to/lastmile_qr_scan"}, "bike_id": "42fafa3142dd9852a13f3fad8b4dee46", "type": "electric_scooter", "fusion_lat": 0.0, "is_disabled": 0, "is_reserved": 0}, {"lon": -77.0511845, "name": "53319aa70bb6c777247f1770a61b20c6", "lat": 38.90217083333334, "fusion_lon": 0.0, "rental_uris": {"ios": "https://dc.lft.to/lastmile_qr_scan", "android": "https://dc.lft.to/lastmile_qr_scan"}, "bike_id": "53319aa70bb6c777247f1770a61b20c6", "type": "electric_scooter", "fusion_lat": 0.0, "is_disabled": 0, "is_reserved": 0}, {"lon": -77.04526233333333, "name": "3a3280deae046d23dca0bcf64b622c1b", "lat": 38.90959766666667, "fusion_lon": 0.0, "rental_uris": {"ios": "https://dc.lft.to/lastmile_qr_scan", "android": "https://dc.lft.to/lastmile_qr_scan"}, "bike_id": "3a3280deae046d23dca0bcf64b622c1b", "type": "electric_scooter", "fusion_lat": 0.0, "is_disabled": 0, "is_reserved": 0}, {"lon": -77.027092, "name": "f3a5a361599d63b06ae354224996a7a7", "lat": 38.90841316666667, "fusion_lon": 0.0, "rental_uris": {"ios": "https://dc.lft.to/lastmile_qr_scan", "android": "https://dc.lft.to/lastmile_qr_scan"}, "bike_id": "f3a5a361599d63b06ae354224996a7a7", "type": "electric_bike", "fusion_lat": 0.0, "is_disabled": 0, "is_reserved": 0}, {"lon": -77.03201433333334, "name": "38301299439dc000a68cd666bfd08f9a", "lat": 38.912218, "fusion_lon": 0.0, "rental_uris": {"ios": "https://dc.lft.to/lastmile_qr_scan", "android": "https://dc.lft.to/lastmile_qr_scan"}, "bike_id": "38301299439dc000a68cd666bfd08f9a", "type": "electric_scooter", "fusion_lat": 0.0, "is_disabled": 0, "is_reserved": 0}, {"lon": -77.0259265, "name": "c5ba2a883c1052a25800ebafb8d74662", "lat": 38.919587666666665, "fusion_lon": 0.0, "rental_uris": {"ios": "https://dc.lft.to/lastmile_qr_scan", "android": "https://dc.lft.to/lastmile_qr_scan"}, "bike_id": "c5ba2a883c1052a25800ebafb8d74662", "type": "electric_scooter", "fusion_lat": 0.0, "is_disabled": 0, "is_reserved": 0}, {"lon": -76.94891983333333, "name": "3e9c4670017e2c619bab2836cb88e31f", "lat": 38.89489916666667, "fusion_lon": 0.0, "rental_uris": {"ios": "https://dc.lft.to/lastmile_qr_scan", "android": "https://dc.lft.to/lastmile_qr_scan"}, "bike_id": "3e9c4670017e2c619bab2836cb88e31f", "type": "electric_scooter", "fusion_lat": 0.0, "is_disabled": 0, "is_reserved": 0}, {"lon": -77.05424816666667, "name": "d735c4f427ed7095f39d0dffc680379b", "lat": 38.928243, "fusion_lon": 0.0, "rental_uris": {"ios": "https://dc.lft.to/lastmile_qr_scan", "android": "https://dc.lft.to/lastmile_qr_scan"}, "bike_id": "d735c4f427ed7095f39d0dffc680379b", "type": "electric_scooter", "fusion_lat": 0.0, "is_disabled": 0, "is_reserved": 0}, {"lon": -77.05578266666667, "name": "bdc4d3ff9504424c3daf97ab3891fe06", "lat": 38.9278865, "fusion_lon": 0.0, "rental_uris": {"ios": "https://dc.lft.to/lastmile_qr_scan", "android": "https://dc.lft.to/lastmile_qr_scan"}, "bike_id": "bdc4d3ff9504424c3daf97ab3891fe06", "type": "electric_scooter", "fusion_lat": 0.0, "is_disabled": 0, "is_reserved": 0}, {"lon": -77.04015283333334, "name": "b631cb4b29d2db5b85d26108a4e30e1c", "lat": 38.921638, "fusion_lon": 0.0, "rental_uris": {"ios": "https://dc.lft.to/lastmile_qr_scan", "android": "https://dc.lft.to/lastmile_qr_scan"}, "bike_id": "b631cb4b29d2db5b85d26108a4e30e1c", "type": "electric_scooter", "fusion_lat": 0.0, "is_disabled": 0, "is_reserved": 0}, {"lon": -77.0568295, "name": "0a6b2c29f78d3fc05c6e32f2eede4d9c", "lat": 38.9232575, "fusion_lon": 0.0, "rental_uris": {"ios": "https://dc.lft.to/lastmile_qr_scan", "android": "https://dc.lft.to/lastmile_qr_scan"}, "bike_id": "0a6b2c29f78d3fc05c6e32f2eede4d9c", "type": "electric_scooter", "fusion_lat": 0.0, "is_disabled": 0, "is_reserved": 0}, {"lon": -77.02968233333333, "name": "561d7e05b56fabaf8ce1b90be78506ab", "lat": 38.90681433333334, "fusion_lon": 0.0, "rental_uris": {"ios": "https://dc.lft.to/lastmile_qr_scan", "android": "https://dc.lft.to/lastmile_qr_scan"}, "bike_id": "561d7e05b56fabaf8ce1b90be78506ab", "type": "electric_scooter", "fusion_lat": 0.0, "is_disabled": 0, "is_reserved": 0}, {"lon": -76.988463, "name": "510df7f35037d51b76a66776dd12ae3b", "lat": 38.98364466666666, "fusion_lon": 0.0, "rental_uris": {"ios": "https://dc.lft.to/lastmile_qr_scan", "android": "https://dc.lft.to/lastmile_qr_scan"}, "bike_id": "510df7f35037d51b76a66776dd12ae3b", "type": "electric_bike", "fusion_lat": 0.0, "is_disabled": 0, "is_reserved": 0}, {"lon": -77.02198666666666, "name": "e8d0df9caabc517d6b3f5d563e5bca9b", "lat": 38.9211625, "fusion_lon": 0.0, "rental_uris": {"ios": "https://dc.lft.to/lastmile_qr_scan", "android": "https://dc.lft.to/lastmile_qr_scan"}, "bike_id": "e8d0df9caabc517d6b3f5d563e5bca9b", "type": "electric_scooter", "fusion_lat": 0.0, "is_disabled": 0, "is_reserved": 0}, {"lon": -77.0665235, "name": "fef057fc476a1ca7cf24c339646ffdab", "lat": 38.949717, "fusion_lon": 0.0, "rental_uris": {"ios": "https://dc.lft.to/lastmile_qr_scan", "android": "https://dc.lft.to/lastmile_qr_scan"}, "bike_id": "fef057fc476a1ca7cf24c339646ffdab", "type": "electric_scooter", "fusion_lat": 0.0, "is_disabled": 0, "is_reserved": 0}, {"lon": -77.02912416666666, "name": "110d579eb51ec5eab8241b118504fbfb", "lat": 38.933126, "fusion_lon": 0.0, "rental_uris": {"ios": "https://dc.lft.to/lastmile_qr_scan", "android": "https://dc.lft.to/lastmile_qr_scan"}, "bike_id": "110d579eb51ec5eab8241b118504fbfb", "type": "electric_scooter", "fusion_lat": 0.0, "is_disabled": 0, "is_reserved": 0}, {"lon": -77.06327183333333, "name": "b322e151694ce3776a070919fd0b643b", "lat": 38.85560433333333, "fusion_lon": 0.0, "rental_uris": {"ios": "https://dc.lft.to/lastmile_qr_scan", "android": "https://dc.lft.to/lastmile_qr_scan"}, "bike_id": "b322e151694ce3776a070919fd0b643b", "type": "electric_bike", "fusion_lat": 0.0, "is_disabled": 0, "is_reserved": 0}, {"lon": -76.9936925, "name": "3f6be608b6ba9f2f040c282c6075bcf7", "lat": 38.8521435, "fusion_lon": 0.0, "rental_uris": {"ios": "https://dc.lft.to/lastmile_qr_scan", "android": "https://dc.lft.to/lastmile_qr_scan"}, "bike_id": "3f6be608b6ba9f2f040c282c6075bcf7", "type": "electric_scooter", "fusion_lat": 0.0, "is_disabled": 0, "is_reserved": 0}, {"lon": -77.04163533333333, "name": "0e657f29faa6cc7a99dbef2c1a02c03f", "lat": 38.894766, "fusion_lon": 0.0, "rental_uris": {"ios": "https://dc.lft.to/lastmile_qr_scan", "android": "https://dc.lft.to/lastmile_qr_scan"}, "bike_id": "0e657f29faa6cc7a99dbef2c1a02c03f", "type": "electric_scooter", "fusion_lat": 0.0, "is_disabled": 0, "is_reserved": 0}, {"lon": -77.0271385, "name": "f7aa3f3cc49bf5a592b9477c57030dbb", "lat": 38.91820716666667, "fusion_lon": 0.0, "rental_uris": {"ios": "https://dc.lft.to/lastmile_qr_scan", "android": "https://dc.lft.to/lastmile_qr_scan"}, "bike_id": "f7aa3f3cc49bf5a592b9477c57030dbb", "type": "electric_scooter", "fusion_lat": 0.0, "is_disabled": 0, "is_reserved": 0}, {"lon": -77.06098916666667, "name": "c9011dc68642e103bd86a592672ee913", "lat": 38.905287333333334, "fusion_lon": 0.0, "rental_uris": {"ios": "https://dc.lft.to/lastmile_qr_scan", "android": "https://dc.lft.to/lastmile_qr_scan"}, "bike_id": "c9011dc68642e103bd86a592672ee913", "type": "electric_scooter", "fusion_lat": 0.0, "is_disabled": 0, "is_reserved": 0}, {"lon": -76.94888383333333, "name": "5161c8e1cc0dde19598f5cfdd603b270", "lat": 38.8421865, "fusion_lon": 0.0, "rental_uris": {"ios": "https://dc.lft.to/lastmile_qr_scan", "android": "https://dc.lft.to/lastmile_qr_scan"}, "bike_id": "5161c8e1cc0dde19598f5cfdd603b270", "type": "electric_bike", "fusion_lat": 0.0, "is_disabled": 0, "is_reserved": 0}, {"lon": -77.02599383333333, "name": "4db806a192fb4435d6b159f2a03ef819", "lat": 38.91111316666667, "fusion_lon": 0.0, "rental_uris": {"ios": "https://dc.lft.to/lastmile_qr_scan", "android": "https://dc.lft.to/lastmile_qr_scan"}, "bike_id": "4db806a192fb4435d6b159f2a03ef819", "type": "electric_scooter", "fusion_lat": 0.0, "is_disabled": 0, "is_reserved": 0}, {"lon": -77.04861383333333, "name": "d92d296ff46c8800fbbcf71cc702067d", "lat": 38.916189833333334, "fusion_lon": 0.0, "rental_uris": {"ios": "https://dc.lft.to/lastmile_qr_scan", "android": "https://dc.lft.to/lastmile_qr_scan"}, "bike_id": "d92d296ff46c8800fbbcf71cc702067d", "type": "electric_scooter", "fusion_lat": 0.0, "is_disabled": 0, "is_reserved": 0}, {"lon": -77.0393705, "name": "ab0f3307d17472347a32422e41cb1721", "lat": 38.92478366666667, "fusion_lon": 0.0, "rental_uris": {"ios": "https://dc.lft.to/lastmile_qr_scan", "android": "https://dc.lft.to/lastmile_qr_scan"}, "bike_id": "ab0f3307d17472347a32422e41cb1721", "type": "electric_scooter", "fusion_lat": 0.0, "is_disabled": 0, "is_reserved": 0}, {"lon": -77.03184933333333, "name": "f904f70c250fce9ed24145ec7a962835", "lat": 38.909745, "fusion_lon": 0.0, "rental_uris": {"ios": "https://dc.lft.to/lastmile_qr_scan", "android": "https://dc.lft.to/lastmile_qr_scan"}, "bike_id": "f904f70c250fce9ed24145ec7a962835", "type": "electric_scooter", "fusion_lat": 0.0, "is_disabled": 0, "is_reserved": 0}, {"lon": -77.0188, "name": "ef6a01528faf26cce8e41ab80e5977a6", "lat": 38.913131666666665, "fusion_lon": 0.0, "rental_uris": {"ios": "https://dc.lft.to/lastmile_qr_scan", "android": "https://dc.lft.to/lastmile_qr_scan"}, "bike_id": "ef6a01528faf26cce8e41ab80e5977a6", "type": "electric_scooter", "fusion_lat": 0.0, "is_disabled": 0, "is_reserved": 0}, {"lon": -76.94893466666667, "name": "8d09f4c029dbba9cf468a647244de23e", "lat": 38.8948945, "fusion_lon": 0.0, "rental_uris": {"ios": "https://dc.lft.to/lastmile_qr_scan", "android": "https://dc.lft.to/lastmile_qr_scan"}, "bike_id": "8d09f4c029dbba9cf468a647244de23e", "type": "electric_scooter", "fusion_lat": 0.0, "is_disabled": 0, "is_reserved": 0}, {"lon": -77.007545, "name": "1dc0e49ea25a547df1f26497c9a23624", "lat": 38.926784833333336, "fusion_lon": 0.0, "rental_uris": {"ios": "https://dc.lft.to/lastmile_qr_scan", "android": "https://dc.lft.to/lastmile_qr_scan"}, "bike_id": "1dc0e49ea25a547df1f26497c9a23624", "type": "electric_scooter", "fusion_lat": 0.0, "is_disabled": 0, "is_reserved": 0}, {"lon": -77.03842616666667, "name": "2c0df23c0d61f79096518586e678ad6b", "lat": 38.9134925, "fusion_lon": 0.0, "rental_uris": {"ios": "https://dc.lft.to/lastmile_qr_scan", "android": "https://dc.lft.to/lastmile_qr_scan"}, "bike_id": "2c0df23c0d61f79096518586e678ad6b", "type": "electric_scooter", "fusion_lat": 0.0, "is_disabled": 0, "is_reserved": 0}, {"lon": -77.0032735, "name": "7982861f391e3ffcdfb3fa72d4c94e72", "lat": 38.915561, "fusion_lon": 0.0, "rental_uris": {"ios": "https://dc.lft.to/lastmile_qr_scan", "android": "https://dc.lft.to/lastmile_qr_scan"}, "bike_id": "7982861f391e3ffcdfb3fa72d4c94e72", "type": "electric_scooter", "fusion_lat": 0.0, "is_disabled": 0, "is_reserved": 0}, {"lon": -77.05371, "name": "827b9f44afd0d3e5865cf14a0a584bc9", "lat": 38.8475795, "fusion_lon": 0.0, "rental_uris": {"ios": "https://dc.lft.to/lastmile_qr_scan", "android": "https://dc.lft.to/lastmile_qr_scan"}, "bike_id": "827b9f44afd0d3e5865cf14a0a584bc9", "type": "electric_bike", "fusion_lat": 0.0, "is_disabled": 0, "is_reserved": 0}, {"lon": -77.06273033333333, "name": "4c0b304ee84552c3bfc8de4ef69673dc", "lat": 38.90614433333333, "fusion_lon": 0.0, "rental_uris": {"ios": "https://dc.lft.to/lastmile_qr_scan", "android": "https://dc.lft.to/lastmile_qr_scan"}, "bike_id": "4c0b304ee84552c3bfc8de4ef69673dc", "type": "electric_scooter", "fusion_lat": 0.0, "is_disabled": 0, "is_reserved": 0}, {"lon": -77.02223383333333, "name": "0fb0cc22d1cbb392240cae4920407a8f", "lat": 38.924302833333336, "fusion_lon": 0.0, "rental_uris": {"ios": "https://dc.lft.to/lastmile_qr_scan", "android": "https://dc.lft.to/lastmile_qr_scan"}, "bike_id": "0fb0cc22d1cbb392240cae4920407a8f", "type": "electric_scooter", "fusion_lat": 0.0, "is_disabled": 0, "is_reserved": 0}, {"lon": -77.03535816666667, "name": "633e6b95875192323febb7218b263098", "lat": 38.904581, "fusion_lon": 0.0, "rental_uris": {"ios": "https://dc.lft.to/lastmile_qr_scan", "android": "https://dc.lft.to/lastmile_qr_scan"}, "bike_id": "633e6b95875192323febb7218b263098", "type": "electric_scooter", "fusion_lat": 0.0, "is_disabled": 0, "is_reserved": 0}, {"lon": -76.99169933333333, "name": "c92c27dc9d74a17e5ee345274fc75f30", "lat": 38.890518666666665, "fusion_lon": 0.0, "rental_uris": {"ios": "https://dc.lft.to/lastmile_qr_scan", "android": "https://dc.lft.to/lastmile_qr_scan"}, "bike_id": "c92c27dc9d74a17e5ee345274fc75f30", "type": "electric_bike", "fusion_lat": 0.0, "is_disabled": 0, "is_reserved": 0}, {"lon": -76.93971883333333, "name": "e34a34800d4012a2f07971b6d0abd804", "lat": 38.89314066666667, "fusion_lon": 0.0, "rental_uris": {"ios": "https://dc.lft.to/lastmile_qr_scan", "android": "https://dc.lft.to/lastmile_qr_scan"}, "bike_id": "e34a34800d4012a2f07971b6d0abd804", "type": "electric_scooter", "fusion_lat": 0.0, "is_disabled": 0, "is_reserved": 0}, {"lon": -76.94153166666666, "name": "d76f07020d38b455d70f7f1778ffbf93", "lat": 38.9016785, "fusion_lon": 0.0, "rental_uris": {"ios": "https://dc.lft.to/lastmile_qr_scan", "android": "https://dc.lft.to/lastmile_qr_scan"}, "bike_id": "d76f07020d38b455d70f7f1778ffbf93", "type": "electric_scooter", "fusion_lat": 0.0, "is_disabled": 0, "is_reserved": 0}, {"lon": -77.04171266666667, "name": "af2bfc3d05c0317cc938ca20f2a21b17", "lat": 38.917015, "fusion_lon": 0.0, "rental_uris": {"ios": "https://dc.lft.to/lastmile_qr_scan", "android": "https://dc.lft.to/lastmile_qr_scan"}, "bike_id": "af2bfc3d05c0317cc938ca20f2a21b17", "type": "electric_scooter", "fusion_lat": 0.0, "is_disabled": 0, "is_reserved": 0}, {"lon": -77.0271835, "name": "e822ed3fd8d8d7d4b81a02bece67f5b5", "lat": 38.9055005, "fusion_lon": 0.0, "rental_uris": {"ios": "https://dc.lft.to/lastmile_qr_scan", "android": "https://dc.lft.to/lastmile_qr_scan"}, "bike_id": "e822ed3fd8d8d7d4b81a02bece67f5b5", "type": "electric_scooter", "fusion_lat": 0.0, "is_disabled": 0, "is_reserved": 0}, {"lon": -77.0568795, "name": "1e45fa7bd59adedd97814abe9110b4aa", "lat": 38.905317, "fusion_lon": 0.0, "rental_uris": {"ios": "https://dc.lft.to/lastmile_qr_scan", "android": "https://dc.lft.to/lastmile_qr_scan"}, "bike_id": "1e45fa7bd59adedd97814abe9110b4aa", "type": "electric_scooter", "fusion_lat": 0.0, "is_disabled": 0, "is_reserved": 0}, {"lon": -77.03938383333333, "name": "de7875563040774e90170a20b8295e59", "lat": 38.9247345, "fusion_lon": 0.0, "rental_uris": {"ios": "https://dc.lft.to/lastmile_qr_scan", "android": "https://dc.lft.to/lastmile_qr_scan"}, "bike_id": "de7875563040774e90170a20b8295e59", "type": "electric_scooter", "fusion_lat": 0.0, "is_disabled": 0, "is_reserved": 0}, {"lon": -77.0140925, "name": "40568a1f8e7db9ff38da838b524a3189", "lat": 38.92861883333333, "fusion_lon": 0.0, "rental_uris": {"ios": "https://dc.lft.to/lastmile_qr_scan", "android": "https://dc.lft.to/lastmile_qr_scan"}, "bike_id": "40568a1f8e7db9ff38da838b524a3189", "type": "electric_scooter", "fusion_lat": 0.0, "is_disabled": 0, "is_reserved": 0}, {"lon": -77.04159066666666, "name": "901722961e01db124a7a086e2c469b66", "lat": 38.90140316666667, "fusion_lon": 0.0, "rental_uris": {"ios": "https://dc.lft.to/lastmile_qr_scan", "android": "https://dc.lft.to/lastmile_qr_scan"}, "bike_id": "901722961e01db124a7a086e2c469b66", "type": "electric_scooter", "fusion_lat": 0.0, "is_disabled": 0, "is_reserved": 0}, {"lon": -77.0228395, "name": "54ca04ae9843c26c2b1f60964fdbb809", "lat": 38.91673733333333, "fusion_lon": 0.0, "rental_uris": {"ios": "https://dc.lft.to/lastmile_qr_scan", "android": "https://dc.lft.to/lastmile_qr_scan"}, "bike_id": "54ca04ae9843c26c2b1f60964fdbb809", "type": "electric_scooter", "fusion_lat": 0.0, "is_disabled": 0, "is_reserved": 0}, {"lon": -77.03199616666667, "name": "4c0212a0c2bfbb032a736de6e8a01fe5", "lat": 38.912225166666666, "fusion_lon": 0.0, "rental_uris": {"ios": "https://dc.lft.to/lastmile_qr_scan", "android": "https://dc.lft.to/lastmile_qr_scan"}, "bike_id": "4c0212a0c2bfbb032a736de6e8a01fe5", "type": "electric_scooter", "fusion_lat": 0.0, "is_disabled": 0, "is_reserved": 0}, {"lon": -77.03657266666667, "name": "182de39fd68c858246398a2b68a8b989", "lat": 38.923167166666666, "fusion_lon": 0.0, "rental_uris": {"ios": "https://dc.lft.to/lastmile_qr_scan", "android": "https://dc.lft.to/lastmile_qr_scan"}, "bike_id": "182de39fd68c858246398a2b68a8b989", "type": "electric_scooter", "fusion_lat": 0.0, "is_disabled": 0, "is_reserved": 0}, {"lon": -77.03195733333334, "name": "342c15c9f1ccc30dcc8818ded0bf57d2", "lat": 38.92061116666667, "fusion_lon": 0.0, "rental_uris": {"ios": "https://dc.lft.to/lastmile_qr_scan", "android": "https://dc.lft.to/lastmile_qr_scan"}, "bike_id": "342c15c9f1ccc30dcc8818ded0bf57d2", "type": "electric_scooter", "fusion_lat": 0.0, "is_disabled": 0, "is_reserved": 0}, {"lon": -77.0224165, "name": "c925d11f19bf2677d3bf5984678b9811", "lat": 38.9245415, "fusion_lon": 0.0, "rental_uris": {"ios": "https://dc.lft.to/lastmile_qr_scan", "android": "https://dc.lft.to/lastmile_qr_scan"}, "bike_id": "c925d11f19bf2677d3bf5984678b9811", "type": "electric_scooter", "fusion_lat": 0.0, "is_disabled": 0, "is_reserved": 0}, {"lon": -77.02288933333334, "name": "b1974a0d9c75adf3c80dcf6aa413fb6c", "lat": 38.91679416666667, "fusion_lon": 0.0, "rental_uris": {"ios": "https://dc.lft.to/lastmile_qr_scan", "android": "https://dc.lft.to/lastmile_qr_scan"}, "bike_id": "b1974a0d9c75adf3c80dcf6aa413fb6c", "type": "electric_scooter", "fusion_lat": 0.0, "is_disabled": 0, "is_reserved": 0}, {"lon": -77.012312, "name": "f30bdb8ef571b1c656c574b2ebc4c0b0", "lat": 38.915811166666664, "fusion_lon": 0.0, "rental_uris": {"ios": "https://dc.lft.to/lastmile_qr_scan", "android": "https://dc.lft.to/lastmile_qr_scan"}, "bike_id": "f30bdb8ef571b1c656c574b2ebc4c0b0", "type": "electric_scooter", "fusion_lat": 0.0, "is_disabled": 0, "is_reserved": 0}, {"lon": -77.026888, "name": "119c76ad70f13a62a33afacbab723e97", "lat": 38.902420166666666, "fusion_lon": 0.0, "rental_uris": {"ios": "https://dc.lft.to/lastmile_qr_scan", "android": "https://dc.lft.to/lastmile_qr_scan"}, "bike_id": "119c76ad70f13a62a33afacbab723e97", "type": "electric_scooter", "fusion_lat": 0.0, "is_disabled": 0, "is_reserved": 0}, {"lon": -77.00716333333334, "name": "d8e4c12b28d0aa13f525883fb20cb407", "lat": 38.876797, "fusion_lon": 0.0, "rental_uris": {"ios": "https://dc.lft.to/lastmile_qr_scan", "android": "https://dc.lft.to/lastmile_qr_scan"}, "bike_id": "d8e4c12b28d0aa13f525883fb20cb407", "type": "electric_scooter", "fusion_lat": 0.0, "is_disabled": 0, "is_reserved": 0}, {"lon": -77.04656383333334, "name": "7117130e0f2845c23a8c0362a4ef8430", "lat": 38.892501833333334, "fusion_lon": 0.0, "rental_uris": {"ios": "https://dc.lft.to/lastmile_qr_scan", "android": "https://dc.lft.to/lastmile_qr_scan"}, "bike_id": "7117130e0f2845c23a8c0362a4ef8430", "type": "electric_scooter", "fusion_lat": 0.0, "is_disabled": 0, "is_reserved": 0}, {"lon": -77.02707183333334, "name": "313c74137f88a0d1b169bf2c6f15648b", "lat": 38.89978516666667, "fusion_lon": 0.0, "rental_uris": {"ios": "https://dc.lft.to/lastmile_qr_scan", "android": "https://dc.lft.to/lastmile_qr_scan"}, "bike_id": "313c74137f88a0d1b169bf2c6f15648b", "type": "electric_scooter", "fusion_lat": 0.0, "is_disabled": 0, "is_reserved": 0}, {"lon": -77.11524, "name": "826360ea18217258417583a9e2f46383", "lat": 39.07469533333333, "fusion_lon": 0.0, "rental_uris": {"ios": "https://dc.lft.to/lastmile_qr_scan", "android": "https://dc.lft.to/lastmile_qr_scan"}, "bike_id": "826360ea18217258417583a9e2f46383", "type": "electric_bike", "fusion_lat": 0.0, "is_disabled": 0, "is_reserved": 0}, {"lon": -77.066371, "name": "9149595320bc1ea2140319c5c5cf2db9", "lat": 38.94972383333333, "fusion_lon": 0.0, "rental_uris": {"ios": "https://dc.lft.to/lastmile_qr_scan", "android": "https://dc.lft.to/lastmile_qr_scan"}, "bike_id": "9149595320bc1ea2140319c5c5cf2db9", "type": "electric_bike", "fusion_lat": 0.0, "is_disabled": 0, "is_reserved": 0}, {"lon": -77.01608616666667, "name": "2548c1d52fac3a7336bd587ab193fc3f", "lat": 38.89963616666667, "fusion_lon": 0.0, "rental_uris": {"ios": "https://dc.lft.to/lastmile_qr_scan", "android": "https://dc.lft.to/lastmile_qr_scan"}, "bike_id": "2548c1d52fac3a7336bd587ab193fc3f", "type": "electric_scooter", "fusion_lat": 0.0, "is_disabled": 0, "is_reserved": 0}, {"lon": -77.0235155, "name": "252fa1cfcf076cc4959c63cf4db868de", "lat": 38.947473, "fusion_lon": 0.0, "rental_uris": {"ios": "https://dc.lft.to/lastmile_qr_scan", "android": "https://dc.lft.to/lastmile_qr_scan"}, "bike_id": "252fa1cfcf076cc4959c63cf4db868de", "type": "electric_scooter", "fusion_lat": 0.0, "is_disabled": 0, "is_reserved": 0}, {"lon": -77.03195533333333, "name": "d4b5e9515bb93d63ec6ed8087349eecb", "lat": 38.9172605, "fusion_lon": 0.0, "rental_uris": {"ios": "https://dc.lft.to/lastmile_qr_scan", "android": "https://dc.lft.to/lastmile_qr_scan"}, "bike_id": "d4b5e9515bb93d63ec6ed8087349eecb", "type": "electric_scooter", "fusion_lat": 0.0, "is_disabled": 0, "is_reserved": 0}, {"lon": -76.97279283333333, "name": "ac92395024332859a94c96234f5b7bdd", "lat": 38.855907333333334, "fusion_lon": 0.0, "rental_uris": {"ios": "https://dc.lft.to/lastmile_qr_scan", "android": "https://dc.lft.to/lastmile_qr_scan"}, "bike_id": "ac92395024332859a94c96234f5b7bdd", "type": "electric_bike", "fusion_lat": 0.0, "is_disabled": 0, "is_reserved": 0}, {"lon": -77.032036, "name": "a66404e3c7e5ac0d9992bc53d3ec446c", "lat": 38.91227383333333, "fusion_lon": 0.0, "rental_uris": {"ios": "https://dc.lft.to/lastmile_qr_scan", "android": "https://dc.lft.to/lastmile_qr_scan"}, "bike_id": "a66404e3c7e5ac0d9992bc53d3ec446c", "type": "electric_scooter", "fusion_lat": 0.0, "is_disabled": 0, "is_reserved": 0}, {"lon": -76.97937483333334, "name": "cd91545687de794b1ff2eecf0ad4c299", "lat": 38.9065465, "fusion_lon": 0.0, "rental_uris": {"ios": "https://dc.lft.to/lastmile_qr_scan", "android": "https://dc.lft.to/lastmile_qr_scan"}, "bike_id": "cd91545687de794b1ff2eecf0ad4c299", "type": "electric_scooter", "fusion_lat": 0.0, "is_disabled": 0, "is_reserved": 0}, {"lon": -76.94513983333333, "name": "e3d7c10886d5e6bc9df255e405c8622f", "lat": 38.8628285, "fusion_lon": 0.0, "rental_uris": {"ios": "https://dc.lft.to/lastmile_qr_scan", "android": "https://dc.lft.to/lastmile_qr_scan"}, "bike_id": "e3d7c10886d5e6bc9df255e405c8622f", "type": "electric_bike", "fusion_lat": 0.0, "is_disabled": 0, "is_reserved": 0}, {"lon": -77.04076916666666, "name": "83b6f17e31d7cfd7346fe8e76424801d", "lat": 38.9202435, "fusion_lon": 0.0, "rental_uris": {"ios": "https://dc.lft.to/lastmile_qr_scan", "android": "https://dc.lft.to/lastmile_qr_scan"}, "bike_id": "83b6f17e31d7cfd7346fe8e76424801d", "type": "electric_scooter", "fusion_lat": 0.0, "is_disabled": 0, "is_reserved": 0}, {"lon": -77.05413916666667, "name": "d185af42be115d76adae46f732764f35", "lat": 38.84883766666667, "fusion_lon": 0.0, "rental_uris": {"ios": "https://dc.lft.to/lastmile_qr_scan", "android": "https://dc.lft.to/lastmile_qr_scan"}, "bike_id": "d185af42be115d76adae46f732764f35", "type": "electric_bike", "fusion_lat": 0.0, "is_disabled": 0, "is_reserved": 0}, {"lon": -77.07294716666667, "name": "de15a3b04f500521e618c47d8e491c94", "lat": 38.935435, "fusion_lon": 0.0, "rental_uris": {"ios": "https://dc.lft.to/lastmile_qr_scan", "android": "https://dc.lft.to/lastmile_qr_scan"}, "bike_id": "de15a3b04f500521e618c47d8e491c94", "type": "electric_scooter", "fusion_lat": 0.0, "is_disabled": 0, "is_reserved": 0}, {"lon": -77.0462095, "name": "7ab42440d25d79276f9567c2285f3be0", "lat": 38.92192333333333, "fusion_lon": 0.0, "rental_uris": {"ios": "https://dc.lft.to/lastmile_qr_scan", "android": "https://dc.lft.to/lastmile_qr_scan"}, "bike_id": "7ab42440d25d79276f9567c2285f3be0", "type": "electric_scooter", "fusion_lat": 0.0, "is_disabled": 0, "is_reserved": 0}, {"lon": -77.008236, "name": "2f705bb4aee49cbb798223a7c8d6aee9", "lat": 38.905711333333336, "fusion_lon": 0.0, "rental_uris": {"ios": "https://dc.lft.to/lastmile_qr_scan", "android": "https://dc.lft.to/lastmile_qr_scan"}, "bike_id": "2f705bb4aee49cbb798223a7c8d6aee9", "type": "electric_scooter", "fusion_lat": 0.0, "is_disabled": 0, "is_reserved": 0}, {"lon": -77.08077516666667, "name": "9c2bb8d0fdc222b1ffcd164077a2b657", "lat": 38.9086045, "fusion_lon": 0.0, "rental_uris": {"ios": "https://dc.lft.to/lastmile_qr_scan", "android": "https://dc.lft.to/lastmile_qr_scan"}, "bike_id": "9c2bb8d0fdc222b1ffcd164077a2b657", "type": "electric_bike", "fusion_lat": 0.0, "is_disabled": 0, "is_reserved": 0}, {"lon": -77.03270816666667, "name": "a616435f99fad379f127be6b19576c2f", "lat": 38.927536833333335, "fusion_lon": 0.0, "rental_uris": {"ios": "https://dc.lft.to/lastmile_qr_scan", "android": "https://dc.lft.to/lastmile_qr_scan"}, "bike_id": "a616435f99fad379f127be6b19576c2f", "type": "electric_scooter", "fusion_lat": 0.0, "is_disabled": 0, "is_reserved": 0}, {"lon": -77.07514266666666, "name": "3823500d69e0b0a5f82715c2db1bfbef", "lat": 38.90665033333333, "fusion_lon": 0.0, "rental_uris": {"ios": "https://dc.lft.to/lastmile_qr_scan", "android": "https://dc.lft.to/lastmile_qr_scan"}, "bike_id": "3823500d69e0b0a5f82715c2db1bfbef", "type": "electric_scooter", "fusion_lat": 0.0, "is_disabled": 0, "is_reserved": 0}, {"lon": -77.02257683333333, "name": "3a63328767168a9a2b36130c5b505f80", "lat": 38.93120366666667, "fusion_lon": 0.0, "rental_uris": {"ios": "https://dc.lft.to/lastmile_qr_scan", "android": "https://dc.lft.to/lastmile_qr_scan"}, "bike_id": "3a63328767168a9a2b36130c5b505f80", "type": "electric_scooter", "fusion_lat": 0.0, "is_disabled": 0, "is_reserved": 0}, {"lon": -77.02684616666667, "name": "79ac1c0ead2663a0db2292cf1cb75a58", "lat": 38.975427, "fusion_lon": 0.0, "rental_uris": {"ios": "https://dc.lft.to/lastmile_qr_scan", "android": "https://dc.lft.to/lastmile_qr_scan"}, "bike_id": "79ac1c0ead2663a0db2292cf1cb75a58", "type": "electric_scooter", "fusion_lat": 0.0, "is_disabled": 0, "is_reserved": 0}, {"lon": -77.02102016666667, "name": "60e0da92e58959544540becd38e5b2e8", "lat": 38.923451, "fusion_lon": 0.0, "rental_uris": {"ios": "https://dc.lft.to/lastmile_qr_scan", "android": "https://dc.lft.to/lastmile_qr_scan"}, "bike_id": "60e0da92e58959544540becd38e5b2e8", "type": "electric_scooter", "fusion_lat": 0.0, "is_disabled": 0, "is_reserved": 0}, {"lon": -77.00205483333333, "name": "447162ce23bfd9521f0a9b079df34143", "lat": 38.90023216666667, "fusion_lon": 0.0, "rental_uris": {"ios": "https://dc.lft.to/lastmile_qr_scan", "android": "https://dc.lft.to/lastmile_qr_scan"}, "bike_id": "447162ce23bfd9521f0a9b079df34143", "type": "electric_scooter", "fusion_lat": 0.0, "is_disabled": 0, "is_reserved": 0}, {"lon": -77.02354616666666, "name": "28b59da4dded41e004c6335435421d45", "lat": 38.935364166666666, "fusion_lon": 0.0, "rental_uris": {"ios": "https://dc.lft.to/lastmile_qr_scan", "android": "https://dc.lft.to/lastmile_qr_scan"}, "bike_id": "28b59da4dded41e004c6335435421d45", "type": "electric_scooter", "fusion_lat": 0.0, "is_disabled": 0, "is_reserved": 0}, {"lon": -77.001904, "name": "7de08883a1c90a93a18bf540b3cb7c72", "lat": 38.9414595, "fusion_lon": 0.0, "rental_uris": {"ios": "https://dc.lft.to/lastmile_qr_scan", "android": "https://dc.lft.to/lastmile_qr_scan"}, "bike_id": "7de08883a1c90a93a18bf540b3cb7c72", "type": "electric_bike", "fusion_lat": 0.0, "is_disabled": 0, "is_reserved": 0}, {"lon": -77.04546383333333, "name": "2136e7ee925dbeeca21f3a5005a1f334", "lat": 38.91776433333333, "fusion_lon": 0.0, "rental_uris": {"ios": "https://dc.lft.to/lastmile_qr_scan", "android": "https://dc.lft.to/lastmile_qr_scan"}, "bike_id": "2136e7ee925dbeeca21f3a5005a1f334", "type": "electric_scooter", "fusion_lat": 0.0, "is_disabled": 0, "is_reserved": 0}, {"lon": -77.03807883333333, "name": "89081845c75fb55c33a44f75661ec6c5", "lat": 38.906778, "fusion_lon": 0.0, "rental_uris": {"ios": "https://dc.lft.to/lastmile_qr_scan", "android": "https://dc.lft.to/lastmile_qr_scan"}, "bike_id": "89081845c75fb55c33a44f75661ec6c5", "type": "electric_scooter", "fusion_lat": 0.0, "is_disabled": 0, "is_reserved": 0}, {"lon": -76.9885625, "name": "b9a0d50382f463b312f353c5b41d888e", "lat": 38.840309500000004, "fusion_lon": 0.0, "rental_uris": {"ios": "https://dc.lft.to/lastmile_qr_scan", "android": "https://dc.lft.to/lastmile_qr_scan"}, "bike_id": "b9a0d50382f463b312f353c5b41d888e", "type": "electric_bike", "fusion_lat": 0.0, "is_disabled": 0, "is_reserved": 0}, {"lon": -77.040556, "name": "c04fb1da5d1a7473a3e722a3f08ace49", "lat": 38.896224833333335, "fusion_lon": 0.0, "rental_uris": {"ios": "https://dc.lft.to/lastmile_qr_scan", "android": "https://dc.lft.to/lastmile_qr_scan"}, "bike_id": "c04fb1da5d1a7473a3e722a3f08ace49", "type": "electric_scooter", "fusion_lat": 0.0, "is_disabled": 0, "is_reserved": 0}, {"lon": -77.029299, "name": "7720ed38e5bd8359119532b7432feacb", "lat": 38.9870205, "fusion_lon": 0.0, "rental_uris": {"ios": "https://dc.lft.to/lastmile_qr_scan", "android": "https://dc.lft.to/lastmile_qr_scan"}, "bike_id": "7720ed38e5bd8359119532b7432feacb", "type": "electric_bike", "fusion_lat": 0.0, "is_disabled": 0, "is_reserved": 0}, {"lon": -77.01229333333333, "name": "ccd505735d6f2e0ebc78a29530d6c6d5", "lat": 38.95649916666667, "fusion_lon": 0.0, "rental_uris": {"ios": "https://dc.lft.to/lastmile_qr_scan", "android": "https://dc.lft.to/lastmile_qr_scan"}, "bike_id": "ccd505735d6f2e0ebc78a29530d6c6d5", "type": "electric_scooter", "fusion_lat": 0.0, "is_disabled": 0, "is_reserved": 0}, {"lon": -77.06014666666667, "name": "1feb952b9098cb14a5131d78ce56a5cc", "lat": 38.926657, "fusion_lon": 0.0, "rental_uris": {"ios": "https://dc.lft.to/lastmile_qr_scan", "android": "https://dc.lft.to/lastmile_qr_scan"}, "bike_id": "1feb952b9098cb14a5131d78ce56a5cc", "type": "electric_scooter", "fusion_lat": 0.0, "is_disabled": 0, "is_reserved": 0}, {"lon": -77.03344033333333, "name": "693127760b94b8ef94a26cd02b35e088", "lat": 38.892545, "fusion_lon": 0.0, "rental_uris": {"ios": "https://dc.lft.to/lastmile_qr_scan", "android": "https://dc.lft.to/lastmile_qr_scan"}, "bike_id": "693127760b94b8ef94a26cd02b35e088", "type": "electric_scooter", "fusion_lat": 0.0, "is_disabled": 0, "is_reserved": 0}, {"lon": -77.04936116666667, "name": "a4ae8fb0598ffe225a556f91a4f5a93b", "lat": 38.907201666666666, "fusion_lon": 0.0, "rental_uris": {"ios": "https://dc.lft.to/lastmile_qr_scan", "android": "https://dc.lft.to/lastmile_qr_scan"}, "bike_id": "a4ae8fb0598ffe225a556f91a4f5a93b", "type": "electric_scooter", "fusion_lat": 0.0, "is_disabled": 0, "is_reserved": 0}, {"lon": -77.0502525, "name": "85c9b29f378491902fb45a9723b40511", "lat": 38.900766, "fusion_lon": 0.0, "rental_uris": {"ios": "https://dc.lft.to/lastmile_qr_scan", "android": "https://dc.lft.to/lastmile_qr_scan"}, "bike_id": "85c9b29f378491902fb45a9723b40511", "type": "electric_scooter", "fusion_lat": 0.0, "is_disabled": 0, "is_reserved": 0}, {"lon": -77.02532566666666, "name": "7d37451bb990cf0fc0a4eabc76eeb922", "lat": 38.94817033333333, "fusion_lon": 0.0, "rental_uris": {"ios": "https://dc.lft.to/lastmile_qr_scan", "android": "https://dc.lft.to/lastmile_qr_scan"}, "bike_id": "7d37451bb990cf0fc0a4eabc76eeb922", "type": "electric_scooter", "fusion_lat": 0.0, "is_disabled": 0, "is_reserved": 0}, {"lon": -76.93243533333333, "name": "7ce1e68cf666004c1ab01a937807e24b", "lat": 38.882862, "fusion_lon": 0.0, "rental_uris": {"ios": "https://dc.lft.to/lastmile_qr_scan", "android": "https://dc.lft.to/lastmile_qr_scan"}, "bike_id": "7ce1e68cf666004c1ab01a937807e24b", "type": "electric_bike", "fusion_lat": 0.0, "is_disabled": 0, "is_reserved": 0}, {"lon": -77.04462733333334, "name": "ef1be4fd86df1b9da84afda77555101d", "lat": 38.89613666666666, "fusion_lon": 0.0, "rental_uris": {"ios": "https://dc.lft.to/lastmile_qr_scan", "android": "https://dc.lft.to/lastmile_qr_scan"}, "bike_id": "ef1be4fd86df1b9da84afda77555101d", "type": "electric_scooter", "fusion_lat": 0.0, "is_disabled": 0, "is_reserved": 0}, {"lon": -77.0304395, "name": "4d9d7973761338d67a6b24c485f1c13e", "lat": 38.93860083333333, "fusion_lon": 0.0, "rental_uris": {"ios": "https://dc.lft.to/lastmile_qr_scan", "android": "https://dc.lft.to/lastmile_qr_scan"}, "bike_id": "4d9d7973761338d67a6b24c485f1c13e", "type": "electric_scooter", "fusion_lat": 0.0, "is_disabled": 0, "is_reserved": 0}, {"lon": -77.065014, "name": "47dcc8473dfd952e64a7c269da003b57", "lat": 38.90513766666667, "fusion_lon": 0.0, "rental_uris": {"ios": "https://dc.lft.to/lastmile_qr_scan", "android": "https://dc.lft.to/lastmile_qr_scan"}, "bike_id": "47dcc8473dfd952e64a7c269da003b57", "type": "electric_scooter", "fusion_lat": 0.0, "is_disabled": 0, "is_reserved": 0}, {"lon": -77.03179966666667, "name": "b2524f984e304d30c09e7900a3ffa08c", "lat": 38.91912833333333, "fusion_lon": 0.0, "rental_uris": {"ios": "https://dc.lft.to/lastmile_qr_scan", "android": "https://dc.lft.to/lastmile_qr_scan"}, "bike_id": "b2524f984e304d30c09e7900a3ffa08c", "type": "electric_scooter", "fusion_lat": 0.0, "is_disabled": 0, "is_reserved": 0}, {"lon": -77.03334683333334, "name": "e1108261b5a0570622cf498040a54420", "lat": 38.89761266666667, "fusion_lon": 0.0, "rental_uris": {"ios": "https://dc.lft.to/lastmile_qr_scan", "android": "https://dc.lft.to/lastmile_qr_scan"}, "bike_id": "e1108261b5a0570622cf498040a54420", "type": "electric_scooter", "fusion_lat": 0.0, "is_disabled": 0, "is_reserved": 0}, {"lon": -77.0534155, "name": "21264096a3f4191a14c74821f187fb65", "lat": 38.90679466666667, "fusion_lon": 0.0, "rental_uris": {"ios": "https://dc.lft.to/lastmile_qr_scan", "android": "https://dc.lft.to/lastmile_qr_scan"}, "bike_id": "21264096a3f4191a14c74821f187fb65", "type": "electric_scooter", "fusion_lat": 0.0, "is_disabled": 0, "is_reserved": 0}, {"lon": -77.0328595, "name": "9efa74bfa5bf52e77393c2070c5ebfdb", "lat": 38.924527499999996, "fusion_lon": 0.0, "rental_uris": {"ios": "https://dc.lft.to/lastmile_qr_scan", "android": "https://dc.lft.to/lastmile_qr_scan"}, "bike_id": "9efa74bfa5bf52e77393c2070c5ebfdb", "type": "electric_scooter", "fusion_lat": 0.0, "is_disabled": 0, "is_reserved": 0}, {"lon": -76.993704, "name": "b9739baa5f8efbc0304db2b8447e14a9", "lat": 38.8521595, "fusion_lon": 0.0, "rental_uris": {"ios": "https://dc.lft.to/lastmile_qr_scan", "android": "https://dc.lft.to/lastmile_qr_scan"}, "bike_id": "b9739baa5f8efbc0304db2b8447e14a9", "type": "electric_bike", "fusion_lat": 0.0, "is_disabled": 0, "is_reserved": 0}, {"lon": -77.00476333333333, "name": "389d3e3f7646b83841530e5991a8f98f", "lat": 38.91631683333333, "fusion_lon": 0.0, "rental_uris": {"ios": "https://dc.lft.to/lastmile_qr_scan", "android": "https://dc.lft.to/lastmile_qr_scan"}, "bike_id": "389d3e3f7646b83841530e5991a8f98f", "type": "electric_bike", "fusion_lat": 0.0, "is_disabled": 0, "is_reserved": 0}, {"lon": -76.97305, "name": "59b741c98d2e63f57bf4a7b846365168", "lat": 38.90442016666667, "fusion_lon": 0.0, "rental_uris": {"ios": "https://dc.lft.to/lastmile_qr_scan", "android": "https://dc.lft.to/lastmile_qr_scan"}, "bike_id": "59b741c98d2e63f57bf4a7b846365168", "type": "electric_scooter", "fusion_lat": 0.0, "is_disabled": 0, "is_reserved": 0}, {"lon": -77.02329483333334, "name": "0114ff3233584747923c22768afef7ea", "lat": 38.9086075, "fusion_lon": 0.0, "rental_uris": {"ios": "https://dc.lft.to/lastmile_qr_scan", "android": "https://dc.lft.to/lastmile_qr_scan"}, "bike_id": "0114ff3233584747923c22768afef7ea", "type": "electric_scooter", "fusion_lat": 0.0, "is_disabled": 0, "is_reserved": 0}, {"lon": -77.02708733333333, "name": "c0fbbd74e5aac34076db6b2ab852e17d", "lat": 38.924057833333336, "fusion_lon": 0.0, "rental_uris": {"ios": "https://dc.lft.to/lastmile_qr_scan", "android": "https://dc.lft.to/lastmile_qr_scan"}, "bike_id": "c0fbbd74e5aac34076db6b2ab852e17d", "type": "electric_scooter", "fusion_lat": 0.0, "is_disabled": 0, "is_reserved": 0}, {"lon": -77.00580266666667, "name": "e772bd579aab597458c156390e71f963", "lat": 38.905703333333335, "fusion_lon": 0.0, "rental_uris": {"ios": "https://dc.lft.to/lastmile_qr_scan", "android": "https://dc.lft.to/lastmile_qr_scan"}, "bike_id": "e772bd579aab597458c156390e71f963", "type": "electric_scooter", "fusion_lat": 0.0, "is_disabled": 0, "is_reserved": 0}, {"lon": -77.02113566666667, "name": "72e99bcd79cc5384d3ba6bbc4554927c", "lat": 38.9141025, "fusion_lon": 0.0, "rental_uris": {"ios": "https://dc.lft.to/lastmile_qr_scan", "android": "https://dc.lft.to/lastmile_qr_scan"}, "bike_id": "72e99bcd79cc5384d3ba6bbc4554927c", "type": "electric_scooter", "fusion_lat": 0.0, "is_disabled": 0, "is_reserved": 0}, {"lon": -77.06456383333334, "name": "5186a5b6357c07788f479e81497b9a83", "lat": 38.908904166666666, "fusion_lon": 0.0, "rental_uris": {"ios": "https://dc.lft.to/lastmile_qr_scan", "android": "https://dc.lft.to/lastmile_qr_scan"}, "bike_id": "5186a5b6357c07788f479e81497b9a83", "type": "electric_scooter", "fusion_lat": 0.0, "is_disabled": 0, "is_reserved": 0}, {"lon": -77.0387235, "name": "d03804957eea80f6ff6f4e2a04ece8bf", "lat": 38.91845033333333, "fusion_lon": 0.0, "rental_uris": {"ios": "https://dc.lft.to/lastmile_qr_scan", "android": "https://dc.lft.to/lastmile_qr_scan"}, "bike_id": "d03804957eea80f6ff6f4e2a04ece8bf", "type": "electric_scooter", "fusion_lat": 0.0, "is_disabled": 0, "is_reserved": 0}, {"lon": -77.0268905, "name": "ad279fac1719b4b9df2cdc4a04349bc4", "lat": 38.8971085, "fusion_lon": 0.0, "rental_uris": {"ios": "https://dc.lft.to/lastmile_qr_scan", "android": "https://dc.lft.to/lastmile_qr_scan"}, "bike_id": "ad279fac1719b4b9df2cdc4a04349bc4", "type": "electric_scooter", "fusion_lat": 0.0, "is_disabled": 0, "is_reserved": 0}, {"lon": -77.03662033333333, "name": "ef0833d12686eb90cacace6fafbd52fb", "lat": 38.9181495, "fusion_lon": 0.0, "rental_uris": {"ios": "https://dc.lft.to/lastmile_qr_scan", "android": "https://dc.lft.to/lastmile_qr_scan"}, "bike_id": "ef0833d12686eb90cacace6fafbd52fb", "type": "electric_scooter", "fusion_lat": 0.0, "is_disabled": 0, "is_reserved": 0}, {"lon": -77.015054, "name": "374907788ffb0a180f11392da710937f", "lat": 38.90144816666667, "fusion_lon": 0.0, "rental_uris": {"ios": "https://dc.lft.to/lastmile_qr_scan", "android": "https://dc.lft.to/lastmile_qr_scan"}, "bike_id": "374907788ffb0a180f11392da710937f", "type": "electric_scooter", "fusion_lat": 0.0, "is_disabled": 0, "is_reserved": 0}, {"lon": -77.0319935, "name": "a669a4c68ba4d0a0ce4799884b3ab3b0", "lat": 38.91375466666667, "fusion_lon": 0.0, "rental_uris": {"ios": "https://dc.lft.to/lastmile_qr_scan", "android": "https://dc.lft.to/lastmile_qr_scan"}, "bike_id": "a669a4c68ba4d0a0ce4799884b3ab3b0", "type": "electric_scooter", "fusion_lat": 0.0, "is_disabled": 0, "is_reserved": 0}, {"lon": -77.02404633333333, "name": "a149330aa5e2ff5aedc2f3a0bde7f0b4", "lat": 38.92711933333333, "fusion_lon": 0.0, "rental_uris": {"ios": "https://dc.lft.to/lastmile_qr_scan", "android": "https://dc.lft.to/lastmile_qr_scan"}, "bike_id": "a149330aa5e2ff5aedc2f3a0bde7f0b4", "type": "electric_scooter", "fusion_lat": 0.0, "is_disabled": 0, "is_reserved": 0}, {"lon": -77.0230865, "name": "61890102dfb4d01123fa3e4baf525313", "lat": 38.90961716666666, "fusion_lon": 0.0, "rental_uris": {"ios": "https://dc.lft.to/lastmile_qr_scan", "android": "https://dc.lft.to/lastmile_qr_scan"}, "bike_id": "61890102dfb4d01123fa3e4baf525313", "type": "electric_scooter", "fusion_lat": 0.0, "is_disabled": 0, "is_reserved": 0}, {"lon": -77.00333, "name": "f2cdecc2afbc2021d07d9f339b1e3c4b", "lat": 38.88985666666667, "fusion_lon": 0.0, "rental_uris": {"ios": "https://dc.lft.to/lastmile_qr_scan", "android": "https://dc.lft.to/lastmile_qr_scan"}, "bike_id": "f2cdecc2afbc2021d07d9f339b1e3c4b", "type": "electric_scooter", "fusion_lat": 0.0, "is_disabled": 0, "is_reserved": 0}, {"lon": -77.07308, "name": "63445c3c4cf761a39d7b76041d1a3280", "lat": 38.90818483333334, "fusion_lon": 0.0, "rental_uris": {"ios": "https://dc.lft.to/lastmile_qr_scan", "android": "https://dc.lft.to/lastmile_qr_scan"}, "bike_id": "63445c3c4cf761a39d7b76041d1a3280", "type": "electric_scooter", "fusion_lat": 0.0, "is_disabled": 0, "is_reserved": 0}, {"lon": -77.031891, "name": "ca2b99b5fb95213a5649c425d293458f", "lat": 38.90556316666667, "fusion_lon": 0.0, "rental_uris": {"ios": "https://dc.lft.to/lastmile_qr_scan", "android": "https://dc.lft.to/lastmile_qr_scan"}, "bike_id": "ca2b99b5fb95213a5649c425d293458f", "type": "electric_scooter", "fusion_lat": 0.0, "is_disabled": 0, "is_reserved": 0}, {"lon": -77.029216, "name": "f72105c22f63196a8530a5976ee964c9", "lat": 38.90430116666667, "fusion_lon": 0.0, "rental_uris": {"ios": "https://dc.lft.to/lastmile_qr_scan", "android": "https://dc.lft.to/lastmile_qr_scan"}, "bike_id": "f72105c22f63196a8530a5976ee964c9", "type": "electric_scooter", "fusion_lat": 0.0, "is_disabled": 0, "is_reserved": 0}, {"lon": -77.03233733333333, "name": "1b0a5bd6c85b4329b3db0a198e7c4ba7", "lat": 38.92056, "fusion_lon": 0.0, "rental_uris": {"ios": "https://dc.lft.to/lastmile_qr_scan", "android": "https://dc.lft.to/lastmile_qr_scan"}, "bike_id": "1b0a5bd6c85b4329b3db0a198e7c4ba7", "type": "electric_scooter", "fusion_lat": 0.0, "is_disabled": 0, "is_reserved": 0}, {"lon": -77.02708616666666, "name": "4970bf302031b162e9a717b925777e4f", "lat": 38.906696333333336, "fusion_lon": 0.0, "rental_uris": {"ios": "https://dc.lft.to/lastmile_qr_scan", "android": "https://dc.lft.to/lastmile_qr_scan"}, "bike_id": "4970bf302031b162e9a717b925777e4f", "type": "electric_scooter", "fusion_lat": 0.0, "is_disabled": 0, "is_reserved": 0}, {"lon": -77.0238045, "name": "7a05cef04015b87f3c1501797db9ff29", "lat": 38.920598166666664, "fusion_lon": 0.0, "rental_uris": {"ios": "https://dc.lft.to/lastmile_qr_scan", "android": "https://dc.lft.to/lastmile_qr_scan"}, "bike_id": "7a05cef04015b87f3c1501797db9ff29", "type": "electric_scooter", "fusion_lat": 0.0, "is_disabled": 0, "is_reserved": 0}, {"lon": -77.03816916666666, "name": "871325a5d1e84469825da32ff631d6f0", "lat": 38.903285833333335, "fusion_lon": 0.0, "rental_uris": {"ios": "https://dc.lft.to/lastmile_qr_scan", "android": "https://dc.lft.to/lastmile_qr_scan"}, "bike_id": "871325a5d1e84469825da32ff631d6f0", "type": "electric_scooter", "fusion_lat": 0.0, "is_disabled": 0, "is_reserved": 0}, {"lon": -77.0250505, "name": "803cb6e2583c7eca58b712174547ea1a", "lat": 38.9205495, "fusion_lon": 0.0, "rental_uris": {"ios": "https://dc.lft.to/lastmile_qr_scan", "android": "https://dc.lft.to/lastmile_qr_scan"}, "bike_id": "803cb6e2583c7eca58b712174547ea1a", "type": "electric_scooter", "fusion_lat": 0.0, "is_disabled": 0, "is_reserved": 0}, {"lon": -77.00053233333334, "name": "c2c4aa039a0253ff487a9a67a6c2c041", "lat": 38.8983455, "fusion_lon": 0.0, "rental_uris": {"ios": "https://dc.lft.to/lastmile_qr_scan", "android": "https://dc.lft.to/lastmile_qr_scan"}, "bike_id": "c2c4aa039a0253ff487a9a67a6c2c041", "type": "electric_scooter", "fusion_lat": 0.0, "is_disabled": 0, "is_reserved": 0}, {"lon": -77.03413766666667, "name": "ed79bd0a295bc8c8c508fceb14c81754", "lat": 38.92854233333333, "fusion_lon": 0.0, "rental_uris": {"ios": "https://dc.lft.to/lastmile_qr_scan", "android": "https://dc.lft.to/lastmile_qr_scan"}, "bike_id": "ed79bd0a295bc8c8c508fceb14c81754", "type": "electric_scooter", "fusion_lat": 0.0, "is_disabled": 0, "is_reserved": 0}, {"lon": -77.0385765, "name": "d671bae2bdca39af8323986a3dbb897f", "lat": 38.9231565, "fusion_lon": 0.0, "rental_uris": {"ios": "https://dc.lft.to/lastmile_qr_scan", "android": "https://dc.lft.to/lastmile_qr_scan"}, "bike_id": "d671bae2bdca39af8323986a3dbb897f", "type": "electric_scooter", "fusion_lat": 0.0, "is_disabled": 0, "is_reserved": 0}, {"lon": -77.0421895, "name": "e7ec27ff1146fd838c737db7405eee22", "lat": 38.92151116666667, "fusion_lon": 0.0, "rental_uris": {"ios": "https://dc.lft.to/lastmile_qr_scan", "android": "https://dc.lft.to/lastmile_qr_scan"}, "bike_id": "e7ec27ff1146fd838c737db7405eee22", "type": "electric_scooter", "fusion_lat": 0.0, "is_disabled": 0, "is_reserved": 0}, {"lon": -77.03878716666667, "name": "2ce1fb472ab49b156d0e130ef7c175a0", "lat": 38.92218666666667, "fusion_lon": 0.0, "rental_uris": {"ios": "https://dc.lft.to/lastmile_qr_scan", "android": "https://dc.lft.to/lastmile_qr_scan"}, "bike_id": "2ce1fb472ab49b156d0e130ef7c175a0", "type": "electric_scooter", "fusion_lat": 0.0, "is_disabled": 0, "is_reserved": 0}, {"lon": -76.94634533333334, "name": "0f909009085a34152bce4aed05a2ff3d", "lat": 38.898309166666664, "fusion_lon": 0.0, "rental_uris": {"ios": "https://dc.lft.to/lastmile_qr_scan", "android": "https://dc.lft.to/lastmile_qr_scan"}, "bike_id": "0f909009085a34152bce4aed05a2ff3d", "type": "electric_scooter", "fusion_lat": 0.0, "is_disabled": 0, "is_reserved": 0}, {"lon": -77.03633766666667, "name": "54845d781961db011d90f9d8556ac2bf", "lat": 38.9304915, "fusion_lon": 0.0, "rental_uris": {"ios": "https://dc.lft.to/lastmile_qr_scan", "android": "https://dc.lft.to/lastmile_qr_scan"}, "bike_id": "54845d781961db011d90f9d8556ac2bf", "type": "electric_scooter", "fusion_lat": 0.0, "is_disabled": 0, "is_reserved": 0}, {"lon": -76.93526483333333, "name": "c1a80e500c99c624aa4bc3199d577e51", "lat": 38.87890733333333, "fusion_lon": 0.0, "rental_uris": {"ios": "https://dc.lft.to/lastmile_qr_scan", "android": "https://dc.lft.to/lastmile_qr_scan"}, "bike_id": "c1a80e500c99c624aa4bc3199d577e51", "type": "electric_scooter", "fusion_lat": 0.0, "is_disabled": 0, "is_reserved": 0}, {"lon": -76.989085, "name": "d82d3f73af000a94f6bc00ea879f357d", "lat": 38.858173, "fusion_lon": 0.0, "rental_uris": {"ios": "https://dc.lft.to/lastmile_qr_scan", "android": "https://dc.lft.to/lastmile_qr_scan"}, "bike_id": "d82d3f73af000a94f6bc00ea879f357d", "type": "electric_scooter", "fusion_lat": 0.0, "is_disabled": 0, "is_reserved": 0}, {"lon": -76.96981716666667, "name": "b38b0dee0d7bd4495a2dec143299383e", "lat": 38.86492966666667, "fusion_lon": 0.0, "rental_uris": {"ios": "https://dc.lft.to/lastmile_qr_scan", "android": "https://dc.lft.to/lastmile_qr_scan"}, "bike_id": "b38b0dee0d7bd4495a2dec143299383e", "type": "electric_bike", "fusion_lat": 0.0, "is_disabled": 0, "is_reserved": 0}, {"lon": -77.02174566666666, "name": "a1e0b8b8e9193d5afe98c676d8242d55", "lat": 38.919666166666666, "fusion_lon": 0.0, "rental_uris": {"ios": "https://dc.lft.to/lastmile_qr_scan", "android": "https://dc.lft.to/lastmile_qr_scan"}, "bike_id": "a1e0b8b8e9193d5afe98c676d8242d55", "type": "electric_scooter", "fusion_lat": 0.0, "is_disabled": 0, "is_reserved": 0}, {"lon": -77.02341566666666, "name": "e2135d8114acda2f2113c3da927396de", "lat": 38.9352525, "fusion_lon": 0.0, "rental_uris": {"ios": "https://dc.lft.to/lastmile_qr_scan", "android": "https://dc.lft.to/lastmile_qr_scan"}, "bike_id": "e2135d8114acda2f2113c3da927396de", "type": "electric_scooter", "fusion_lat": 0.0, "is_disabled": 0, "is_reserved": 0}, {"lon": -77.01342333333334, "name": "8395bdf341cb6baebddca96b2c4f2933", "lat": 38.91912716666667, "fusion_lon": 0.0, "rental_uris": {"ios": "https://dc.lft.to/lastmile_qr_scan", "android": "https://dc.lft.to/lastmile_qr_scan"}, "bike_id": "8395bdf341cb6baebddca96b2c4f2933", "type": "electric_scooter", "fusion_lat": 0.0, "is_disabled": 0, "is_reserved": 0}, {"lon": -77.00611383333333, "name": "90bbd0e4c123f544c319830e30217f3b", "lat": 38.875606166666664, "fusion_lon": 0.0, "rental_uris": {"ios": "https://dc.lft.to/lastmile_qr_scan", "android": "https://dc.lft.to/lastmile_qr_scan"}, "bike_id": "90bbd0e4c123f544c319830e30217f3b", "type": "electric_scooter", "fusion_lat": 0.0, "is_disabled": 0, "is_reserved": 0}, {"lon": -77.02189566666667, "name": "10bbdc68f825993dbdd792936fd212bc", "lat": 38.91126333333333, "fusion_lon": 0.0, "rental_uris": {"ios": "https://dc.lft.to/lastmile_qr_scan", "android": "https://dc.lft.to/lastmile_qr_scan"}, "bike_id": "10bbdc68f825993dbdd792936fd212bc", "type": "electric_scooter", "fusion_lat": 0.0, "is_disabled": 0, "is_reserved": 0}, {"lon": -77.02325133333333, "name": "1b07a0fd0862f16d135914114e01e695", "lat": 38.941389, "fusion_lon": 0.0, "rental_uris": {"ios": "https://dc.lft.to/lastmile_qr_scan", "android": "https://dc.lft.to/lastmile_qr_scan"}, "bike_id": "1b07a0fd0862f16d135914114e01e695", "type": "electric_scooter", "fusion_lat": 0.0, "is_disabled": 0, "is_reserved": 0}, {"lon": -77.050723, "name": "91fb3774725ee4316c96381388038cc7", "lat": 38.89607483333333, "fusion_lon": 0.0, "rental_uris": {"ios": "https://dc.lft.to/lastmile_qr_scan", "android": "https://dc.lft.to/lastmile_qr_scan"}, "bike_id": "91fb3774725ee4316c96381388038cc7", "type": "electric_scooter", "fusion_lat": 0.0, "is_disabled": 0, "is_reserved": 0}, {"lon": -77.0432245, "name": "4f4b25d7d454a8cccf4909e9ee1de887", "lat": 38.908441833333335, "fusion_lon": 0.0, "rental_uris": {"ios": "https://dc.lft.to/lastmile_qr_scan", "android": "https://dc.lft.to/lastmile_qr_scan"}, "bike_id": "4f4b25d7d454a8cccf4909e9ee1de887", "type": "electric_scooter", "fusion_lat": 0.0, "is_disabled": 0, "is_reserved": 0}, {"lon": -77.04035916666666, "name": "8f58fa935e95b990f8e726b0c5463658", "lat": 38.923145166666664, "fusion_lon": 0.0, "rental_uris": {"ios": "https://dc.lft.to/lastmile_qr_scan", "android": "https://dc.lft.to/lastmile_qr_scan"}, "bike_id": "8f58fa935e95b990f8e726b0c5463658", "type": "electric_scooter", "fusion_lat": 0.0, "is_disabled": 0, "is_reserved": 0}, {"lon": -77.00942083333334, "name": "410bff4a041905be09f3d3fa04141c51", "lat": 38.9212475, "fusion_lon": 0.0, "rental_uris": {"ios": "https://dc.lft.to/lastmile_qr_scan", "android": "https://dc.lft.to/lastmile_qr_scan"}, "bike_id": "410bff4a041905be09f3d3fa04141c51", "type": "electric_scooter", "fusion_lat": 0.0, "is_disabled": 0, "is_reserved": 0}, {"lon": -77.02428416666666, "name": "27ecfc65d8d5d463058657447f7310f8", "lat": 38.90158783333333, "fusion_lon": 0.0, "rental_uris": {"ios": "https://dc.lft.to/lastmile_qr_scan", "android": "https://dc.lft.to/lastmile_qr_scan"}, "bike_id": "27ecfc65d8d5d463058657447f7310f8", "type": "electric_scooter", "fusion_lat": 0.0, "is_disabled": 0, "is_reserved": 0}, {"lon": -77.02819266666667, "name": "5cd94e81a885e80129b2caf0a2b893d6", "lat": 38.902651, "fusion_lon": 0.0, "rental_uris": {"ios": "https://dc.lft.to/lastmile_qr_scan", "android": "https://dc.lft.to/lastmile_qr_scan"}, "bike_id": "5cd94e81a885e80129b2caf0a2b893d6", "type": "electric_scooter", "fusion_lat": 0.0, "is_disabled": 0, "is_reserved": 0}, {"lon": -77.03960516666666, "name": "ec77e336977e7e6e85c008bd7d27805a", "lat": 38.902696166666665, "fusion_lon": 0.0, "rental_uris": {"ios": "https://dc.lft.to/lastmile_qr_scan", "android": "https://dc.lft.to/lastmile_qr_scan"}, "bike_id": "ec77e336977e7e6e85c008bd7d27805a", "type": "electric_scooter", "fusion_lat": 0.0, "is_disabled": 0, "is_reserved": 0}, {"lon": -77.0725855, "name": "32fd0d4487e3fded438c04936cba1ead", "lat": 38.9334315, "fusion_lon": 0.0, "rental_uris": {"ios": "https://dc.lft.to/lastmile_qr_scan", "android": "https://dc.lft.to/lastmile_qr_scan"}, "bike_id": "32fd0d4487e3fded438c04936cba1ead", "type": "electric_scooter", "fusion_lat": 0.0, "is_disabled": 0, "is_reserved": 0}, {"lon": -77.02901116666666, "name": "e59c580f6e2ea01062d84a9791196b8d", "lat": 38.94037983333333, "fusion_lon": 0.0, "rental_uris": {"ios": "https://dc.lft.to/lastmile_qr_scan", "android": "https://dc.lft.to/lastmile_qr_scan"}, "bike_id": "e59c580f6e2ea01062d84a9791196b8d", "type": "electric_scooter", "fusion_lat": 0.0, "is_disabled": 0, "is_reserved": 0}, {"lon": -76.9803915, "name": "884ff0af35d0e3feaaf78f202a3c8820", "lat": 38.90178866666667, "fusion_lon": 0.0, "rental_uris": {"ios": "https://dc.lft.to/lastmile_qr_scan", "android": "https://dc.lft.to/lastmile_qr_scan"}, "bike_id": "884ff0af35d0e3feaaf78f202a3c8820", "type": "electric_scooter", "fusion_lat": 0.0, "is_disabled": 0, "is_reserved": 0}, {"lon": -77.02831916666666, "name": "51780aece95ae737f9eb16ddd6ce458b", "lat": 38.931907, "fusion_lon": 0.0, "rental_uris": {"ios": "https://dc.lft.to/lastmile_qr_scan", "android": "https://dc.lft.to/lastmile_qr_scan"}, "bike_id": "51780aece95ae737f9eb16ddd6ce458b", "type": "electric_scooter", "fusion_lat": 0.0, "is_disabled": 0, "is_reserved": 0}, {"lon": -76.92715033333333, "name": "7388a41a2458b377cc919e7ea2bc5234", "lat": 38.88037416666667, "fusion_lon": 0.0, "rental_uris": {"ios": "https://dc.lft.to/lastmile_qr_scan", "android": "https://dc.lft.to/lastmile_qr_scan"}, "bike_id": "7388a41a2458b377cc919e7ea2bc5234", "type": "electric_scooter", "fusion_lat": 0.0, "is_disabled": 0, "is_reserved": 0}, {"lon": -77.03214033333333, "name": "f0bb0858239a1ddfbbd81eb9b91486ba", "lat": 38.916865333333334, "fusion_lon": 0.0, "rental_uris": {"ios": "https://dc.lft.to/lastmile_qr_scan", "android": "https://dc.lft.to/lastmile_qr_scan"}, "bike_id": "f0bb0858239a1ddfbbd81eb9b91486ba", "type": "electric_scooter", "fusion_lat": 0.0, "is_disabled": 0, "is_reserved": 0}, {"lon": -77.012401, "name": "e06ace30490c66077d2973621a35bdf3", "lat": 38.898465, "fusion_lon": 0.0, "rental_uris": {"ios": "https://dc.lft.to/lastmile_qr_scan", "android": "https://dc.lft.to/lastmile_qr_scan"}, "bike_id": "e06ace30490c66077d2973621a35bdf3", "type": "electric_scooter", "fusion_lat": 0.0, "is_disabled": 0, "is_reserved": 0}, {"lon": -77.02982833333333, "name": "95a2f64c9a8f96a24c80b50e1c9ff106", "lat": 38.89842016666667, "fusion_lon": 0.0, "rental_uris": {"ios": "https://dc.lft.to/lastmile_qr_scan", "android": "https://dc.lft.to/lastmile_qr_scan"}, "bike_id": "95a2f64c9a8f96a24c80b50e1c9ff106", "type": "electric_scooter", "fusion_lat": 0.0, "is_disabled": 0, "is_reserved": 0}, {"lon": -77.01101316666667, "name": "baf04385f87ac38c56dff46279e29fc7", "lat": 38.89548383333333, "fusion_lon": 0.0, "rental_uris": {"ios": "https://dc.lft.to/lastmile_qr_scan", "android": "https://dc.lft.to/lastmile_qr_scan"}, "bike_id": "baf04385f87ac38c56dff46279e29fc7", "type": "electric_scooter", "fusion_lat": 0.0, "is_disabled": 0, "is_reserved": 0}, {"lon": -77.23407633333333, "name": "32154c2a7a6a05f52641121a3fcfdf03", "lat": 38.875780166666665, "fusion_lon": 0.0, "rental_uris": {"ios": "https://dc.lft.to/lastmile_qr_scan", "android": "https://dc.lft.to/lastmile_qr_scan"}, "bike_id": "32154c2a7a6a05f52641121a3fcfdf03", "type": "electric_bike", "fusion_lat": 0.0, "is_disabled": 0, "is_reserved": 0}, {"lon": -77.04246133333334, "name": "0e2e6ca79cdc4f478126e46a97ed4254", "lat": 38.922340166666665, "fusion_lon": 0.0, "rental_uris": {"ios": "https://dc.lft.to/lastmile_qr_scan", "android": "https://dc.lft.to/lastmile_qr_scan"}, "bike_id": "0e2e6ca79cdc4f478126e46a97ed4254", "type": "electric_scooter", "fusion_lat": 0.0, "is_disabled": 0, "is_reserved": 0}, {"lon": -77.022989, "name": "1960b1a84b5e60f4927f410988e12bf8", "lat": 38.91284733333333, "fusion_lon": 0.0, "rental_uris": {"ios": "https://dc.lft.to/lastmile_qr_scan", "android": "https://dc.lft.to/lastmile_qr_scan"}, "bike_id": "1960b1a84b5e60f4927f410988e12bf8", "type": "electric_scooter", "fusion_lat": 0.0, "is_disabled": 0, "is_reserved": 0}, {"lon": -77.02633416666667, "name": "d2935770a5c3a96f2e5c0827351aa69d", "lat": 38.88467633333333, "fusion_lon": 0.0, "rental_uris": {"ios": "https://dc.lft.to/lastmile_qr_scan", "android": "https://dc.lft.to/lastmile_qr_scan"}, "bike_id": "d2935770a5c3a96f2e5c0827351aa69d", "type": "electric_scooter", "fusion_lat": 0.0, "is_disabled": 0, "is_reserved": 0}, {"lon": -76.94956433333333, "name": "b3fdc92b077bc89e30f4eb8f5e410912", "lat": 38.9048945, "fusion_lon": 0.0, "rental_uris": {"ios": "https://dc.lft.to/lastmile_qr_scan", "android": "https://dc.lft.to/lastmile_qr_scan"}, "bike_id": "b3fdc92b077bc89e30f4eb8f5e410912", "type": "electric_scooter", "fusion_lat": 0.0, "is_disabled": 0, "is_reserved": 0}, {"lon": -77.031523, "name": "13cd083da637d8f8249d5ca52a051ea1", "lat": 38.92783466666667, "fusion_lon": 0.0, "rental_uris": {"ios": "https://dc.lft.to/lastmile_qr_scan", "android": "https://dc.lft.to/lastmile_qr_scan"}, "bike_id": "13cd083da637d8f8249d5ca52a051ea1", "type": "electric_scooter", "fusion_lat": 0.0, "is_disabled": 0, "is_reserved": 0}, {"lon": -76.99801216666667, "name": "ef50542cdcc58aaf62c2c347c0fbad45", "lat": 38.90850733333333, "fusion_lon": 0.0, "rental_uris": {"ios": "https://dc.lft.to/lastmile_qr_scan", "android": "https://dc.lft.to/lastmile_qr_scan"}, "bike_id": "ef50542cdcc58aaf62c2c347c0fbad45", "type": "electric_scooter", "fusion_lat": 0.0, "is_disabled": 0, "is_reserved": 0}, {"lon": -77.03851483333334, "name": "21d6e297c52d1b2884e8130d659d9aba", "lat": 38.91261466666667, "fusion_lon": 0.0, "rental_uris": {"ios": "https://dc.lft.to/lastmile_qr_scan", "android": "https://dc.lft.to/lastmile_qr_scan"}, "bike_id": "21d6e297c52d1b2884e8130d659d9aba", "type": "electric_scooter", "fusion_lat": 0.0, "is_disabled": 0, "is_reserved": 0}, {"lon": -77.021808, "name": "41f578073ba4a8e7e452c08140537401", "lat": 38.9145565, "fusion_lon": 0.0, "rental_uris": {"ios": "https://dc.lft.to/lastmile_qr_scan", "android": "https://dc.lft.to/lastmile_qr_scan"}, "bike_id": "41f578073ba4a8e7e452c08140537401", "type": "electric_scooter", "fusion_lat": 0.0, "is_disabled": 0, "is_reserved": 0},